{"last_updated":1747818672,"ttl":60,"version":"2.2","data":{"bikes":[{"bike_id":"6d3bb2d9-6206-4ff7-90b6-1bd969052e3a","system_id":"levelo_inurba_marseille","lat":43.29277,"lon":5.36841,"is_reserved":false,"is_disabled":false,"rental_uris":{"android":"levelo://app?vid=6d3bb2d9-6206-4ff7-90b6-1bd969052e3a","ios":"levelo://app?vid=6d3bb2d9-6206-4ff7-90b6-1bd969052e3a"},"vehicle_type_id":"4","last_reported":1747818673,"current_range_meters":2800,"station_id":"ce4bhbp2rcd13ifvqesg","pricing_plan_id":"cebpf4jnsgd1na2vs0mg"},{"bike_id":"ee554026-5b22-49eb-a9b5-7ecc23b4d4bd","system_id":"levelo_inurba_marseille","lat":43.25868,"lon":5.39914,"is_reserved":false,"is_disabled":false,"rental_uris":{"android":"levelo://app?vid=ee554026-5b22-49eb-a9b5-7ecc23b4d4bd","ios":"levelo://app?vid=ee554026-5b22-49eb-a9b5-7ecc23b4d4bd"},"vehicle_type_id":"4","last_reported":1747818673,"current_range_meters":2800,"station_id":"ce4bhl92rcd13ifvqghg","pricing_plan_id":"cebpf4jnsgd1na2vs0mg"},{"bike_id":"ba59102a-6c47-4600-bcb9-76e5920c2815","system_id":"levelo_inurba_marseille","lat":43.31352,"lon":5.37189,"is_reserved":false,"is_disabled":false,"rental_uris":{"android":"levelo://app?vid=ba59102a-6c47-4600-bcb9-76e5920c2815","ios":"levelo://app?vid=ba59102a-6c47-4600-bcb9-76e5920c2815"},"vehicle_type_id":"4","last_reported":1747818673,"current_range_meters":2800,"station_id":"","pricing_plan_id":"cebpf4jnsgd1na2vs0mg"},{"bike_id":"5ed0e640-af75-4a45-803b-25c0c2aa2ebc","system_id":"levelo_inurba_marseille","lat":43.31684,"lon":5.40472,"is_reserved":false,"is_disabled":false,"rental_uris":{"android":"levelo://app?vid=5ed0e640-af75-4a45-803b-25c0c2aa2ebc","ios":"levelo://app?vid=5ed0e640-af75-4a45-803b-25c0c2aa2ebc"},"vehicle_type_id":"4","last_reported":1747818673,"current_range_meters":2800,"station_id":"ce4bh012rcd13ifvqd00","pricing_plan_id":"cebpf4jnsgd1na2vs0mg"},{"bike_id":"0b17d98d-3654-4596-aef3-a03b2dad7011","system_id":"levelo_inurba_marseille","lat":43.28269,"lon":5.35061,"is_reserved":false,"is_disabled":false,"rental_uris":{"android":"levelo://app?vid=0b17d98d-3654-4596-aef3-a03b2dad7011","ios":"levelo://app?vid=0b17d98d-3654-4596-aef3-a03b2dad7011"},"vehicle_type_id":"4","last_reported":1747818673,"current_range_meters":2800,"station_id":"ce4bhbp2rcd13ifvqerg","pricing_plan_id":"cebpf4jnsgd1na2vs0mg"},{"bike_id":"1a375a2f-39a4-453a-b0d2-e8597827e876","system_id":"levelo_inurba_marseille","lat":43.27316,"lon":5.39083,"is_reserved":false,"is_disabled":false,"rental_uris":{"android":"levelo://app?vid=1a375a2f-39a4-453a-b0d2-e8597827e876","ios":"levelo://app?vid=1a375a2f-39a4-453a-b0d2-e8597827e876"},"vehicle_type_id":"4","last_reported":1747818673,"current_range_meters":2800,"station_id":"ce4bhgp2rcd13ifvqfe0","pricing_plan_id":"cebpf4jnsgd1na2vs0mg"},{"bike_id":"8d89ad95-fae3-4bfb-8b03-bcf6d81c0efe","system_id":"levelo_inurba_marseille","lat":43.29073,"lon":5.37172,"is_reserved":false,"is_disabled":false,"rental_uris":{"android":"levelo://app?vid=8d89ad95-fae3-4bfb-8b03-bcf6d81c0efe","ios":"levelo://app?vid=8d89ad95-fae3-4bfb-8b03-bcf6d81c0efe"},"vehicle_type_id":"4","last_reported":1747818673,"current_range_meters":2800,"station_id":"ce4bh5p2rcd13ifvqe4g","pricing_plan_id":"cebpf4jnsgd1na2vs0mg"},{"bike_id":"68c69d9d-dffd-435d-b2d7-f6fa8686e072","system_id":"levelo_inurba_marseille","lat":43.290327,"lon":5.399612,"is_reserved":false,"is_disabled":true,"rental_uris":{"android":"levelo://app?vid=68c69d9d-dffd-435d-b2d7-f6fa8686e072","ios":"levelo://app?vid=68c69d9d-dffd-435d-b2d7-f6fa8686e072"},"vehicle_type_id":"4","last_reported":1747818673,"current_range_meters":2800,"station_id":"ce4bh392rcd13ifvqdm0","pricing_plan_id":"cebpf4jnsgd1na2vs0mg"},{"bike_id":"0ff4534d-b7b1-4cc8-9aee-02a1c8b840a4","system_id":"levelo_inurba_marseille","lat":43.260193,"lon":5.375388,"is_reserved":false,"is_disabled":true,"rental_uris":{"android":"levelo://app?vid=0ff4534d-b7b1-4cc8-9aee-02a1c8b840a4","ios":"levelo://app?vid=0ff4534d-b7b1-4cc8-9aee-02a1c8b840a4"},"vehicle_type_id":"4","last_reported":1747818673,"current_range_meters":2800,"station_id":"ce4bhgh2rcd13ifvqfa0","pricing_plan_id":"cebpf4jnsgd1na2vs0mg"},{"bike_id":"74c3cc1c-2daf-409c-87a1-a7259a6e3683","system_id":"levelo_inurba_marseille","lat":43.29599,"lon":5.38098,"is_reserved":false,"is_disabled":false,"rental_uris":{"android":"levelo://app?vid=74c3cc1c-2daf-409c-87a1-a7259a6e3683","ios":"levelo://app?vid=74c3cc1c-2daf-409c-87a1-a7259a6e3683"},"vehicle_type_id":"4","last_reported":1747818673,"current_range_meters":3200,"station_id":"ce4bgl12rcd13ifvqbo0","pricing_plan_id":"cebpf4jnsgd1na2vs0mg"},{"bike_id":"4269ceb4-00a1-4128-b597-96796ef1bc3a","system_id":"levelo_inurba_marseille","lat":43.25725,"lon":5.41104,"is_reserved":false,"is_disabled":false,"rental_uris":{"android":"levelo://app?vid=4269ceb4-00a1-4128-b597-96796ef1bc3a","ios":"levelo://app?vid=4269ceb4-00a1-4128-b597-96796ef1bc3a"},"vehicle_type_id":"4","last_reported":1747818673,"current_range_meters":3200,"station_id":"ce4bhkp2rcd13ifvqgd0","pricing_plan_id":"cebpf4jnsgd1na2vs0mg"},{"bike_id":"913ffe41-9e00-4f91-b95c-fa12c59adf68","system_id":"levelo_inurba_marseille","lat":43.25917,"lon":5.40871,"is_reserved":false,"is_disabled":false,"rental_uris":{"android":"levelo://app?vid=913ffe41-9e00-4f91-b95c-fa12c59adf68","ios":"levelo://app?vid=913ffe41-9e00-4f91-b95c-fa12c59adf68"},"vehicle_type_id":"4","last_reported":1747818673,"current_range_meters":3200,"station_id":"ce4bhm92rcd13ifvqglg","pricing_plan_id":"cebpf4jnsgd1na2vs0mg"},{"bike_id":"5163f51f-3ed7-4643-bc09-95659c803301","system_id":"levelo_inurba_marseille","lat":43.27503,"lon":5.42456,"is_reserved":false,"is_disabled":false,"rental_uris":{"android":"levelo://app?vid=5163f51f-3ed7-4643-bc09-95659c803301","ios":"levelo://app?vid=5163f51f-3ed7-4643-bc09-95659c803301"},"vehicle_type_id":"4","last_reported":1747818673,"current_range_meters":3600,"station_id":"ce4bhn92rcd13ifvqgrg","pricing_plan_id":"cebpf4jnsgd1na2vs0mg"},{"bike_id":"8f0f531d-6a65-4647-8a6f-baa3d982f42f","system_id":"levelo_inurba_marseille","lat":43.28123,"lon":5.42548,"is_reserved":false,"is_disabled":false,"rental_uris":{"android":"levelo://app?vid=8f0f531d-6a65-4647-8a6f-baa3d982f42f","ios":"levelo://app?vid=8f0f531d-6a65-4647-8a6f-baa3d982f42f"},"vehicle_type_id":"4","last_reported":1747818673,"current_range_meters":3600,"station_id":"","pricing_plan_id":"cebpf4jnsgd1na2vs0mg"},{"bike_id":"a5bcf3ab-5daa-4dec-898b-27b2e944e103","system_id":"levelo_inurba_marseille","lat":43.273,"lon":5.41061,"is_reserved":false,"is_disabled":false,"rental_uris":{"android":"levelo://app?vid=a5bcf3ab-5daa-4dec-898b-27b2e944e103","ios":"levelo://app?vid=a5bcf3ab-5daa-4dec-898b-27b2e944e103"},"vehicle_type_id":"4","last_reported":1747818673,"current_range_meters":4000,"station_id":"","pricing_plan_id":"cebpf4jnsgd1na2vs0mg"},{"bike_id":"dd78751c-b412-4777-b324-21ca644795cf","system_id":"levelo_inurba_marseille","lat":43.28264,"lon":5.35062,"is_reserved":false,"is_disabled":false,"rental_uris":{"android":"levelo://app?vid=dd78751c-b412-4777-b324-21ca644795cf","ios":"levelo://app?vid=dd78751c-b412-4777-b324-21ca644795cf"},"vehicle_type_id":"4","last_reported":1747818673,"current_range_meters":4000,"station_id":"ce4bhbp2rcd13ifvqerg","pricing_plan_id":"cebpf4jnsgd1na2vs0mg"},{"bike_id":"ff9d3b41-307c-4865-9fa5-95b7486a63dc","system_id":"levelo_inurba_marseille","lat":43.30554,"lon":5.36554,"is_reserved":false,"is_disabled":false,"rental_uris":{"android":"levelo://app?vid=ff9d3b41-307c-4865-9fa5-95b7486a63dc","ios":"levelo://app?vid=ff9d3b41-307c-4865-9fa5-95b7486a63dc"},"vehicle_type_id":"4","last_reported":1747818673,"current_range_meters":4000,"station_id":"ce4bgs12rcd13ifvqcag","pricing_plan_id":"cebpf4jnsgd1na2vs0mg"},{"bike_id":"c0e29b78-5ef8-450c-9879-72f4a478f9e5","system_id":"levelo_inurba_marseille","lat":43.26176,"lon":5.37437,"is_reserved":false,"is_disabled":false,"rental_uris":{"android":"levelo://app?vid=c0e29b78-5ef8-450c-9879-72f4a478f9e5","ios":"levelo://app?vid=c0e29b78-5ef8-450c-9879-72f4a478f9e5"},"vehicle_type_id":"4","last_reported":1747818673,"current_range_meters":4000,"station_id":"","pricing_plan_id":"cebpf4jnsgd1na2vs0mg"},{"bike_id":"1addcad7-d488-4e1c-b76c-777e91802e42","system_id":"levelo_inurba_marseille","lat":43.25132,"lon":5.3942,"is_reserved":false,"is_disabled":false,"rental_uris":{"android":"levelo://app?vid=1addcad7-d488-4e1c-b76c-777e91802e42","ios":"levelo://app?vid=1addcad7-d488-4e1c-b76c-777e91802e42"},"vehicle_type_id":"4","last_reported":1747818673,"current_range_meters":4400,"station_id":"","pricing_plan_id":"cebpf4jnsgd1na2vs0mg"},{"bike_id":"a6a79777-8e26-46b0-be40-2e589b0e5a0f","system_id":"levelo_inurba_marseille","lat":43.21189,"lon":5.35067,"is_reserved":false,"is_disabled":false,"rental_uris":{"android":"levelo://app?vid=a6a79777-8e26-46b0-be40-2e589b0e5a0f","ios":"levelo://app?vid=a6a79777-8e26-46b0-be40-2e589b0e5a0f"},"vehicle_type_id":"4","last_reported":1747818673,"current_range_meters":4400,"station_id":"st_cvj6sg6p6f1abm77japg","pricing_plan_id":"cebpf4jnsgd1na2vs0mg"},{"bike_id":"731a2bce-8dbf-4ef8-8095-8ee365fa718a","system_id":"levelo_inurba_marseille","lat":43.30311,"lon":5.3689,"is_reserved":false,"is_disabled":false,"rental_uris":{"android":"levelo://app?vid=731a2bce-8dbf-4ef8-8095-8ee365fa718a","ios":"levelo://app?vid=731a2bce-8dbf-4ef8-8095-8ee365fa718a"},"vehicle_type_id":"4","last_reported":1747818673,"current_range_meters":4400,"station_id":"ce4bgqh2rcd13ifvqc5g","pricing_plan_id":"cebpf4jnsgd1na2vs0mg"},{"bike_id":"8a77c670-a7af-4ac0-9918-4e6c1c91e962","system_id":"levelo_inurba_marseille","lat":43.25098,"lon":5.39499,"is_reserved":false,"is_disabled":false,"rental_uris":{"android":"levelo://app?vid=8a77c670-a7af-4ac0-9918-4e6c1c91e962","ios":"levelo://app?vid=8a77c670-a7af-4ac0-9918-4e6c1c91e962"},"vehicle_type_id":"4","last_reported":1747818673,"current_range_meters":4800,"station_id":"ce4bhm12rcd13ifvqgkg","pricing_plan_id":"cebpf4jnsgd1na2vs0mg"},{"bike_id":"85eaca89-9437-48d0-9bca-a254337b88db","system_id":"levelo_inurba_marseille","lat":43.274564,"lon":5.40962,"is_reserved":false,"is_disabled":false,"rental_uris":{"android":"levelo://app?vid=85eaca89-9437-48d0-9bca-a254337b88db","ios":"levelo://app?vid=85eaca89-9437-48d0-9bca-a254337b88db"},"vehicle_type_id":"4","last_reported":1747818673,"current_range_meters":4800,"station_id":"","pricing_plan_id":"cebpf4jnsgd1na2vs0mg"},{"bike_id":"29de2ffb-574a-484d-b5fd-49359a647b4a","system_id":"levelo_inurba_marseille","lat":43.27569,"lon":5.38418,"is_reserved":false,"is_disabled":false,"rental_uris":{"android":"levelo://app?vid=29de2ffb-574a-484d-b5fd-49359a647b4a","ios":"levelo://app?vid=29de2ffb-574a-484d-b5fd-49359a647b4a"},"vehicle_type_id":"4","last_reported":1747818673,"current_range_meters":5600,"station_id":"ce4bhh92rcd13ifvqfi0","pricing_plan_id":"cebpf4jnsgd1na2vs0mg"},{"bike_id":"f649b615-f35d-4b4f-9ea5-01b1cab16378","system_id":"levelo_inurba_marseille","lat":43.25907,"lon":5.40891,"is_reserved":false,"is_disabled":false,"rental_uris":{"android":"levelo://app?vid=f649b615-f35d-4b4f-9ea5-01b1cab16378","ios":"levelo://app?vid=f649b615-f35d-4b4f-9ea5-01b1cab16378"},"vehicle_type_id":"4","last_reported":1747818673,"current_range_meters":6000,"station_id":"ce4bhm92rcd13ifvqglg","pricing_plan_id":"cebpf4jnsgd1na2vs0mg"},{"bike_id":"abb6e147-8b3c-4a68-b04d-bdd5033dc31b","system_id":"levelo_inurba_marseille","lat":43.27963,"lon":5.41049,"is_reserved":false,"is_disabled":false,"rental_uris":{"android":"levelo://app?vid=abb6e147-8b3c-4a68-b04d-bdd5033dc31b","ios":"levelo://app?vid=abb6e147-8b3c-4a68-b04d-bdd5033dc31b"},"vehicle_type_id":"4","last_reported":1747818673,"current_range_meters":6000,"station_id":"ce4bhnp2rcd13ifvqh0g","pricing_plan_id":"cebpf4jnsgd1na2vs0mg"},{"bike_id":"75b0a358-213a-4d8a-a462-c41a2b39fb92","system_id":"levelo_inurba_marseille","lat":43.25582,"lon":5.38295,"is_reserved":false,"is_disabled":false,"rental_uris":{"android":"levelo://app?vid=75b0a358-213a-4d8a-a462-c41a2b39fb92","ios":"levelo://app?vid=75b0a358-213a-4d8a-a462-c41a2b39fb92"},"vehicle_type_id":"4","last_reported":1747818673,"current_range_meters":6000,"station_id":"","pricing_plan_id":"cebpf4jnsgd1na2vs0mg"},{"bike_id":"25237339-253a-44e5-ab01-1cb4797f99d2","system_id":"levelo_inurba_marseille","lat":43.23172,"lon":5.43708,"is_reserved":false,"is_disabled":false,"rental_uris":{"android":"levelo://app?vid=25237339-253a-44e5-ab01-1cb4797f99d2","ios":"levelo://app?vid=25237339-253a-44e5-ab01-1cb4797f99d2"},"vehicle_type_id":"4","last_reported":1747818673,"current_range_meters":6000,"station_id":"ce4bhmp2rcd13ifvqgog","pricing_plan_id":"cebpf4jnsgd1na2vs0mg"},{"bike_id":"bcc938d8-2314-431f-89b0-e089a0362855","system_id":"levelo_inurba_marseille","lat":43.31704,"lon":5.4047,"is_reserved":false,"is_disabled":false,"rental_uris":{"android":"levelo://app?vid=bcc938d8-2314-431f-89b0-e089a0362855","ios":"levelo://app?vid=bcc938d8-2314-431f-89b0-e089a0362855"},"vehicle_type_id":"4","last_reported":1747818673,"current_range_meters":6000,"station_id":"ce4bh012rcd13ifvqd00","pricing_plan_id":"cebpf4jnsgd1na2vs0mg"},{"bike_id":"165d67e7-7820-413e-9335-5112e6b2d1ca","system_id":"levelo_inurba_marseille","lat":43.32655,"lon":5.409846,"is_reserved":false,"is_disabled":false,"rental_uris":{"android":"levelo://app?vid=165d67e7-7820-413e-9335-5112e6b2d1ca","ios":"levelo://app?vid=165d67e7-7820-413e-9335-5112e6b2d1ca"},"vehicle_type_id":"4","last_reported":1747818673,"current_range_meters":6400,"station_id":"ce4bhpp2rcd13ifvqhgg","pricing_plan_id":"cebpf4jnsgd1na2vs0mg"},{"bike_id":"47a735f0-837d-40ad-9e91-791dc65204ba","system_id":"levelo_inurba_marseille","lat":43.30215,"lon":5.3949,"is_reserved":false,"is_disabled":false,"rental_uris":{"android":"levelo://app?vid=47a735f0-837d-40ad-9e91-791dc65204ba","ios":"levelo://app?vid=47a735f0-837d-40ad-9e91-791dc65204ba"},"vehicle_type_id":"4","last_reported":1747818673,"current_range_meters":6400,"station_id":"ce4bh0p2rcd13ifvqd70","pricing_plan_id":"cebpf4jnsgd1na2vs0mg"},{"bike_id":"f3b61201-0094-4110-8347-ef642e48ac71","system_id":"levelo_inurba_marseille","lat":43.30948,"lon":5.39042,"is_reserved":false,"is_disabled":false,"rental_uris":{"android":"levelo://app?vid=f3b61201-0094-4110-8347-ef642e48ac71","ios":"levelo://app?vid=f3b61201-0094-4110-8347-ef642e48ac71"},"vehicle_type_id":"4","last_reported":1747818673,"current_range_meters":6400,"station_id":"ce4bgup2rcd13ifvqco0","pricing_plan_id":"cebpf4jnsgd1na2vs0mg"},{"bike_id":"acfa7885-2ea7-45f4-b402-126572d837d2","system_id":"levelo_inurba_marseille","lat":43.27323,"lon":5.39078,"is_reserved":false,"is_disabled":false,"rental_uris":{"android":"levelo://app?vid=acfa7885-2ea7-45f4-b402-126572d837d2","ios":"levelo://app?vid=acfa7885-2ea7-45f4-b402-126572d837d2"},"vehicle_type_id":"4","last_reported":1747818673,"current_range_meters":6400,"station_id":"ce4bhgp2rcd13ifvqfe0","pricing_plan_id":"cebpf4jnsgd1na2vs0mg"},{"bike_id":"6055607e-4430-4408-8423-f23619416904","system_id":"levelo_inurba_marseille","lat":43.286623,"lon":5.386658,"is_reserved":false,"is_disabled":true,"rental_uris":{"android":"levelo://app?vid=6055607e-4430-4408-8423-f23619416904","ios":"levelo://app?vid=6055607e-4430-4408-8423-f23619416904"},"vehicle_type_id":"4","last_reported":1747818673,"current_range_meters":6800,"station_id":"","pricing_plan_id":"cebpf4jnsgd1na2vs0mg"},{"bike_id":"bffbaf88-357a-4e87-a68c-a9a27a6e01e6","system_id":"levelo_inurba_marseille","lat":43.26228,"lon":5.4212,"is_reserved":false,"is_disabled":false,"rental_uris":{"android":"levelo://app?vid=bffbaf88-357a-4e87-a68c-a9a27a6e01e6","ios":"levelo://app?vid=bffbaf88-357a-4e87-a68c-a9a27a6e01e6"},"vehicle_type_id":"4","last_reported":1747818673,"current_range_meters":6800,"station_id":"","pricing_plan_id":"cebpf4jnsgd1na2vs0mg"},{"bike_id":"c142a2ed-7579-483d-8f09-45389bf43652","system_id":"levelo_inurba_marseille","lat":43.25917,"lon":5.4088,"is_reserved":false,"is_disabled":false,"rental_uris":{"android":"levelo://app?vid=c142a2ed-7579-483d-8f09-45389bf43652","ios":"levelo://app?vid=c142a2ed-7579-483d-8f09-45389bf43652"},"vehicle_type_id":"4","last_reported":1747818673,"current_range_meters":6800,"station_id":"ce4bhm92rcd13ifvqglg","pricing_plan_id":"cebpf4jnsgd1na2vs0mg"},{"bike_id":"b8b511c7-6f48-45be-97af-1e0036b54cc5","system_id":"levelo_inurba_marseille","lat":43.27354,"lon":5.42416,"is_reserved":false,"is_disabled":false,"rental_uris":{"android":"levelo://app?vid=b8b511c7-6f48-45be-97af-1e0036b54cc5","ios":"levelo://app?vid=b8b511c7-6f48-45be-97af-1e0036b54cc5"},"vehicle_type_id":"4","last_reported":1747818673,"current_range_meters":6800,"station_id":"","pricing_plan_id":"cebpf4jnsgd1na2vs0mg"},{"bike_id":"aaed6d56-8e6c-4be8-b9ea-1de555c2f33c","system_id":"levelo_inurba_marseille","lat":43.23159,"lon":5.43716,"is_reserved":false,"is_disabled":false,"rental_uris":{"android":"levelo://app?vid=aaed6d56-8e6c-4be8-b9ea-1de555c2f33c","ios":"levelo://app?vid=aaed6d56-8e6c-4be8-b9ea-1de555c2f33c"},"vehicle_type_id":"4","last_reported":1747818673,"current_range_meters":7200,"station_id":"ce4bhmp2rcd13ifvqgog","pricing_plan_id":"cebpf4jnsgd1na2vs0mg"},{"bike_id":"d0b6d1e3-af36-4bf3-b60f-31bf11e9159a","system_id":"levelo_inurba_marseille","lat":43.29861,"lon":5.36285,"is_reserved":false,"is_disabled":false,"rental_uris":{"android":"levelo://app?vid=d0b6d1e3-af36-4bf3-b60f-31bf11e9159a","ios":"levelo://app?vid=d0b6d1e3-af36-4bf3-b60f-31bf11e9159a"},"vehicle_type_id":"4","last_reported":1747818673,"current_range_meters":7200,"station_id":"ce4bgpp2rcd13ifvqc3g","pricing_plan_id":"cebpf4jnsgd1na2vs0mg"},{"bike_id":"1c0d4498-0de9-4c0e-b11f-6f5a085faac8","system_id":"levelo_inurba_marseille","lat":43.27062,"lon":5.40255,"is_reserved":false,"is_disabled":false,"rental_uris":{"android":"levelo://app?vid=1c0d4498-0de9-4c0e-b11f-6f5a085faac8","ios":"levelo://app?vid=1c0d4498-0de9-4c0e-b11f-6f5a085faac8"},"vehicle_type_id":"4","last_reported":1747818673,"current_range_meters":7200,"station_id":"ce4bhk92rcd13ifvqgc0","pricing_plan_id":"cebpf4jnsgd1na2vs0mg"},{"bike_id":"a269a419-c32d-4123-9374-64f9b57eaf49","system_id":"levelo_inurba_marseille","lat":43.274938,"lon":5.424536,"is_reserved":false,"is_disabled":false,"rental_uris":{"android":"levelo://app?vid=a269a419-c32d-4123-9374-64f9b57eaf49","ios":"levelo://app?vid=a269a419-c32d-4123-9374-64f9b57eaf49"},"vehicle_type_id":"4","last_reported":1747818673,"current_range_meters":8000,"station_id":"ce4bhn92rcd13ifvqgrg","pricing_plan_id":"cebpf4jnsgd1na2vs0mg"},{"bike_id":"7681ba77-e995-4409-a7d7-a799c9b09cd0","system_id":"levelo_inurba_marseille","lat":43.27497,"lon":5.42453,"is_reserved":false,"is_disabled":false,"rental_uris":{"android":"levelo://app?vid=7681ba77-e995-4409-a7d7-a799c9b09cd0","ios":"levelo://app?vid=7681ba77-e995-4409-a7d7-a799c9b09cd0"},"vehicle_type_id":"4","last_reported":1747818673,"current_range_meters":8000,"station_id":"ce4bhn92rcd13ifvqgrg","pricing_plan_id":"cebpf4jnsgd1na2vs0mg"},{"bike_id":"9a512dd7-6596-4e62-8f4f-2a6ffa4351c2","system_id":"levelo_inurba_marseille","lat":43.27499,"lon":5.42452,"is_reserved":false,"is_disabled":false,"rental_uris":{"android":"levelo://app?vid=9a512dd7-6596-4e62-8f4f-2a6ffa4351c2","ios":"levelo://app?vid=9a512dd7-6596-4e62-8f4f-2a6ffa4351c2"},"vehicle_type_id":"4","last_reported":1747818673,"current_range_meters":8000,"station_id":"ce4bhn92rcd13ifvqgrg","pricing_plan_id":"cebpf4jnsgd1na2vs0mg"},{"bike_id":"d7f995fb-640d-402e-8d40-b7b0813d8869","system_id":"levelo_inurba_marseille","lat":43.21191,"lon":5.35079,"is_reserved":false,"is_disabled":false,"rental_uris":{"android":"levelo://app?vid=d7f995fb-640d-402e-8d40-b7b0813d8869","ios":"levelo://app?vid=d7f995fb-640d-402e-8d40-b7b0813d8869"},"vehicle_type_id":"4","last_reported":1747818673,"current_range_meters":8000,"station_id":"st_cvj6sg6p6f1abm77japg","pricing_plan_id":"cebpf4jnsgd1na2vs0mg"},{"bike_id":"a90894ce-6080-49a9-bb37-ce46c7f15c4f","system_id":"levelo_inurba_marseille","lat":43.27359,"lon":5.42414,"is_reserved":false,"is_disabled":false,"rental_uris":{"android":"levelo://app?vid=a90894ce-6080-49a9-bb37-ce46c7f15c4f","ios":"levelo://app?vid=a90894ce-6080-49a9-bb37-ce46c7f15c4f"},"vehicle_type_id":"4","last_reported":1747818673,"current_range_meters":8000,"station_id":"","pricing_plan_id":"cebpf4jnsgd1na2vs0mg"},{"bike_id":"0ca012d3-cf6b-4c9e-a77b-47890f37ef46","system_id":"levelo_inurba_marseille","lat":43.26571,"lon":5.39008,"is_reserved":false,"is_disabled":false,"rental_uris":{"android":"levelo://app?vid=0ca012d3-cf6b-4c9e-a77b-47890f37ef46","ios":"levelo://app?vid=0ca012d3-cf6b-4c9e-a77b-47890f37ef46"},"vehicle_type_id":"4","last_reported":1747818673,"current_range_meters":8000,"station_id":"ce4bhe12rcd13ifvqf30","pricing_plan_id":"cebpf4jnsgd1na2vs0mg"},{"bike_id":"29260aeb-cff5-4cc0-9e74-f69227748235","system_id":"levelo_inurba_marseille","lat":43.30467,"lon":5.37915,"is_reserved":false,"is_disabled":false,"rental_uris":{"android":"levelo://app?vid=29260aeb-cff5-4cc0-9e74-f69227748235","ios":"levelo://app?vid=29260aeb-cff5-4cc0-9e74-f69227748235"},"vehicle_type_id":"4","last_reported":1747818673,"current_range_meters":8000,"station_id":"ce4bgup2rcd13ifvqcn0","pricing_plan_id":"cebpf4jnsgd1na2vs0mg"},{"bike_id":"e8162579-a5ad-485f-ad83-fec8a2ebe7e1","system_id":"levelo_inurba_marseille","lat":43.26826,"lon":5.39099,"is_reserved":false,"is_disabled":false,"rental_uris":{"android":"levelo://app?vid=e8162579-a5ad-485f-ad83-fec8a2ebe7e1","ios":"levelo://app?vid=e8162579-a5ad-485f-ad83-fec8a2ebe7e1"},"vehicle_type_id":"4","last_reported":1747818673,"current_range_meters":8400,"station_id":"","pricing_plan_id":"cebpf4jnsgd1na2vs0mg"},{"bike_id":"119414dd-a64a-482e-b0a3-d8cde5e6007d","system_id":"levelo_inurba_marseille","lat":43.27822,"lon":5.40707,"is_reserved":false,"is_disabled":false,"rental_uris":{"android":"levelo://app?vid=119414dd-a64a-482e-b0a3-d8cde5e6007d","ios":"levelo://app?vid=119414dd-a64a-482e-b0a3-d8cde5e6007d"},"vehicle_type_id":"4","last_reported":1747818673,"current_range_meters":8400,"station_id":"ce4bhnh2rcd13ifvqgtg","pricing_plan_id":"cebpf4jnsgd1na2vs0mg"},{"bike_id":"71e146ad-5169-4dc5-a288-c7c746aad618","system_id":"levelo_inurba_marseille","lat":43.2594,"lon":5.37573,"is_reserved":false,"is_disabled":false,"rental_uris":{"android":"levelo://app?vid=71e146ad-5169-4dc5-a288-c7c746aad618","ios":"levelo://app?vid=71e146ad-5169-4dc5-a288-c7c746aad618"},"vehicle_type_id":"4","last_reported":1747818673,"current_range_meters":8400,"station_id":"","pricing_plan_id":"cebpf4jnsgd1na2vs0mg"},{"bike_id":"39dce2d6-d9f2-4fd9-9c24-6f8c5b8e68b4","system_id":"levelo_inurba_marseille","lat":43.25939,"lon":5.40885,"is_reserved":false,"is_disabled":false,"rental_uris":{"android":"levelo://app?vid=39dce2d6-d9f2-4fd9-9c24-6f8c5b8e68b4","ios":"levelo://app?vid=39dce2d6-d9f2-4fd9-9c24-6f8c5b8e68b4"},"vehicle_type_id":"4","last_reported":1747818673,"current_range_meters":8400,"station_id":"ce4bhm92rcd13ifvqglg","pricing_plan_id":"cebpf4jnsgd1na2vs0mg"},{"bike_id":"7c23fe65-fa85-4c48-9c23-31df76d24451","system_id":"levelo_inurba_marseille","lat":43.270593,"lon":5.402763,"is_reserved":false,"is_disabled":true,"rental_uris":{"android":"levelo://app?vid=7c23fe65-fa85-4c48-9c23-31df76d24451","ios":"levelo://app?vid=7c23fe65-fa85-4c48-9c23-31df76d24451"},"vehicle_type_id":"4","last_reported":1747818673,"current_range_meters":8400,"station_id":"ce4bhk92rcd13ifvqgc0","pricing_plan_id":"cebpf4jnsgd1na2vs0mg"},{"bike_id":"1bd953b1-87f0-4736-8fb7-1d2bc783231a","system_id":"levelo_inurba_marseille","lat":43.31691,"lon":5.4046,"is_reserved":false,"is_disabled":false,"rental_uris":{"android":"levelo://app?vid=1bd953b1-87f0-4736-8fb7-1d2bc783231a","ios":"levelo://app?vid=1bd953b1-87f0-4736-8fb7-1d2bc783231a"},"vehicle_type_id":"4","last_reported":1747818673,"current_range_meters":8400,"station_id":"ce4bh012rcd13ifvqd00","pricing_plan_id":"cebpf4jnsgd1na2vs0mg"},{"bike_id":"856a9d65-204b-4e54-8904-a72bb6c09718","system_id":"levelo_inurba_marseille","lat":43.25916,"lon":5.40878,"is_reserved":false,"is_disabled":false,"rental_uris":{"android":"levelo://app?vid=856a9d65-204b-4e54-8904-a72bb6c09718","ios":"levelo://app?vid=856a9d65-204b-4e54-8904-a72bb6c09718"},"vehicle_type_id":"4","last_reported":1747818673,"current_range_meters":8800,"station_id":"ce4bhm92rcd13ifvqglg","pricing_plan_id":"cebpf4jnsgd1na2vs0mg"},{"bike_id":"48f27f29-5850-4f4f-b193-450032ac8cf8","system_id":"levelo_inurba_marseille","lat":43.26795,"lon":5.40249,"is_reserved":false,"is_disabled":false,"rental_uris":{"android":"levelo://app?vid=48f27f29-5850-4f4f-b193-450032ac8cf8","ios":"levelo://app?vid=48f27f29-5850-4f4f-b193-450032ac8cf8"},"vehicle_type_id":"4","last_reported":1747818673,"current_range_meters":8800,"station_id":"ce501612rcd8frsf0b60","pricing_plan_id":"cebpf4jnsgd1na2vs0mg"},{"bike_id":"0c19fbeb-42ad-4f5a-a5a6-b82fca91ac12","system_id":"levelo_inurba_marseille","lat":43.28037,"lon":5.36934,"is_reserved":false,"is_disabled":true,"rental_uris":{"android":"levelo://app?vid=0c19fbeb-42ad-4f5a-a5a6-b82fca91ac12","ios":"levelo://app?vid=0c19fbeb-42ad-4f5a-a5a6-b82fca91ac12"},"vehicle_type_id":"4","last_reported":1747818673,"current_range_meters":8800,"station_id":"ce4bha12rcd13ifvqef0","pricing_plan_id":"cebpf4jnsgd1na2vs0mg"},{"bike_id":"28367b86-1732-4220-a741-f03fc977aeba","system_id":"levelo_inurba_marseille","lat":43.28468,"lon":5.35898,"is_reserved":false,"is_disabled":false,"rental_uris":{"android":"levelo://app?vid=28367b86-1732-4220-a741-f03fc977aeba","ios":"levelo://app?vid=28367b86-1732-4220-a741-f03fc977aeba"},"vehicle_type_id":"4","last_reported":1747818673,"current_range_meters":8800,"station_id":"ce4bhah2rcd13ifvqei0","pricing_plan_id":"cebpf4jnsgd1na2vs0mg"},{"bike_id":"3552fbf2-b43a-446f-93f5-d695fc251b73","system_id":"levelo_inurba_marseille","lat":43.25191,"lon":5.37516,"is_reserved":false,"is_disabled":false,"rental_uris":{"android":"levelo://app?vid=3552fbf2-b43a-446f-93f5-d695fc251b73","ios":"levelo://app?vid=3552fbf2-b43a-446f-93f5-d695fc251b73"},"vehicle_type_id":"4","last_reported":1747818673,"current_range_meters":8800,"station_id":"","pricing_plan_id":"cebpf4jnsgd1na2vs0mg"},{"bike_id":"ab34b9eb-959a-4a26-aadf-a43f7fbc960c","system_id":"levelo_inurba_marseille","lat":43.33589,"lon":5.40987,"is_reserved":false,"is_disabled":false,"rental_uris":{"android":"levelo://app?vid=ab34b9eb-959a-4a26-aadf-a43f7fbc960c","ios":"levelo://app?vid=ab34b9eb-959a-4a26-aadf-a43f7fbc960c"},"vehicle_type_id":"4","last_reported":1747818673,"current_range_meters":8800,"station_id":"ce4bhqh2rcd13ifvqhmg","pricing_plan_id":"cebpf4jnsgd1na2vs0mg"},{"bike_id":"166ae4e4-3de6-4b9b-b401-23af8e8af8d6","system_id":"levelo_inurba_marseille","lat":43.29736,"lon":5.37693,"is_reserved":false,"is_disabled":false,"rental_uris":{"android":"levelo://app?vid=166ae4e4-3de6-4b9b-b401-23af8e8af8d6","ios":"levelo://app?vid=166ae4e4-3de6-4b9b-b401-23af8e8af8d6"},"vehicle_type_id":"4","last_reported":1747818673,"current_range_meters":8800,"station_id":"ce4bgkh2rcd13ifvqbl0","pricing_plan_id":"cebpf4jnsgd1na2vs0mg"},{"bike_id":"c65a791a-5e5c-4c9b-939f-ea06ef898429","system_id":"levelo_inurba_marseille","lat":43.31299,"lon":5.36692,"is_reserved":false,"is_disabled":false,"rental_uris":{"android":"levelo://app?vid=c65a791a-5e5c-4c9b-939f-ea06ef898429","ios":"levelo://app?vid=c65a791a-5e5c-4c9b-939f-ea06ef898429"},"vehicle_type_id":"4","last_reported":1747818673,"current_range_meters":8800,"station_id":"ce4bgr92rcd13ifvqc6g","pricing_plan_id":"cebpf4jnsgd1na2vs0mg"},{"bike_id":"5d70566b-38ec-4494-b254-63b30c65efa7","system_id":"levelo_inurba_marseille","lat":43.23211,"lon":5.43758,"is_reserved":false,"is_disabled":false,"rental_uris":{"android":"levelo://app?vid=5d70566b-38ec-4494-b254-63b30c65efa7","ios":"levelo://app?vid=5d70566b-38ec-4494-b254-63b30c65efa7"},"vehicle_type_id":"4","last_reported":1747818673,"current_range_meters":9200,"station_id":"","pricing_plan_id":"cebpf4jnsgd1na2vs0mg"},{"bike_id":"784ad1c1-b34b-454b-997a-ab8d53348ab6","system_id":"levelo_inurba_marseille","lat":43.274928,"lon":5.424511,"is_reserved":false,"is_disabled":false,"rental_uris":{"android":"levelo://app?vid=784ad1c1-b34b-454b-997a-ab8d53348ab6","ios":"levelo://app?vid=784ad1c1-b34b-454b-997a-ab8d53348ab6"},"vehicle_type_id":"4","last_reported":1747818673,"current_range_meters":9200,"station_id":"ce4bhn92rcd13ifvqgrg","pricing_plan_id":"cebpf4jnsgd1na2vs0mg"},{"bike_id":"2eb7441f-52cc-46af-b691-fcec1c16da89","system_id":"levelo_inurba_marseille","lat":43.3054,"lon":5.36536,"is_reserved":false,"is_disabled":false,"rental_uris":{"android":"levelo://app?vid=2eb7441f-52cc-46af-b691-fcec1c16da89","ios":"levelo://app?vid=2eb7441f-52cc-46af-b691-fcec1c16da89"},"vehicle_type_id":"4","last_reported":1747818673,"current_range_meters":9200,"station_id":"ce4bgs12rcd13ifvqcag","pricing_plan_id":"cebpf4jnsgd1na2vs0mg"},{"bike_id":"5a39ad5f-5cdb-428d-aaba-a89cc9538615","system_id":"levelo_inurba_marseille","lat":43.29532,"lon":5.38538,"is_reserved":false,"is_disabled":false,"rental_uris":{"android":"levelo://app?vid=5a39ad5f-5cdb-428d-aaba-a89cc9538615","ios":"levelo://app?vid=5a39ad5f-5cdb-428d-aaba-a89cc9538615"},"vehicle_type_id":"4","last_reported":1747818673,"current_range_meters":6800,"station_id":"ce4bgih2rcd13ifvqba0","pricing_plan_id":"cebpf4jnsgd1na2vs0mg"},{"bike_id":"36979a39-1da2-46e3-9bfe-5146d77f83df","system_id":"levelo_inurba_marseille","lat":43.27491,"lon":5.42452,"is_reserved":false,"is_disabled":false,"rental_uris":{"android":"levelo://app?vid=36979a39-1da2-46e3-9bfe-5146d77f83df","ios":"levelo://app?vid=36979a39-1da2-46e3-9bfe-5146d77f83df"},"vehicle_type_id":"4","last_reported":1747818673,"current_range_meters":9200,"station_id":"ce4bhn92rcd13ifvqgrg","pricing_plan_id":"cebpf4jnsgd1na2vs0mg"},{"bike_id":"66d4e9cd-9695-49a4-b984-57f37a2f36ae","system_id":"levelo_inurba_marseille","lat":43.23148,"lon":5.43721,"is_reserved":false,"is_disabled":false,"rental_uris":{"android":"levelo://app?vid=66d4e9cd-9695-49a4-b984-57f37a2f36ae","ios":"levelo://app?vid=66d4e9cd-9695-49a4-b984-57f37a2f36ae"},"vehicle_type_id":"4","last_reported":1747818673,"current_range_meters":9200,"station_id":"ce4bhmp2rcd13ifvqgog","pricing_plan_id":"cebpf4jnsgd1na2vs0mg"},{"bike_id":"8fc9ebef-4818-41cb-9c5e-e11a97a77d3d","system_id":"levelo_inurba_marseille","lat":43.29275,"lon":5.3684,"is_reserved":false,"is_disabled":false,"rental_uris":{"android":"levelo://app?vid=8fc9ebef-4818-41cb-9c5e-e11a97a77d3d","ios":"levelo://app?vid=8fc9ebef-4818-41cb-9c5e-e11a97a77d3d"},"vehicle_type_id":"4","last_reported":1747818673,"current_range_meters":9200,"station_id":"ce4bhbp2rcd13ifvqesg","pricing_plan_id":"cebpf4jnsgd1na2vs0mg"},{"bike_id":"0c59289b-fdb3-4fcd-a580-bc617f9eb9a0","system_id":"levelo_inurba_marseille","lat":43.33605,"lon":5.40972,"is_reserved":false,"is_disabled":false,"rental_uris":{"android":"levelo://app?vid=0c59289b-fdb3-4fcd-a580-bc617f9eb9a0","ios":"levelo://app?vid=0c59289b-fdb3-4fcd-a580-bc617f9eb9a0"},"vehicle_type_id":"4","last_reported":1747818673,"current_range_meters":9200,"station_id":"","pricing_plan_id":"cebpf4jnsgd1na2vs0mg"},{"bike_id":"1ff4dd87-bf56-4ab1-8365-aad71fcb827c","system_id":"levelo_inurba_marseille","lat":43.316076,"lon":5.423906,"is_reserved":false,"is_disabled":false,"rental_uris":{"android":"levelo://app?vid=1ff4dd87-bf56-4ab1-8365-aad71fcb827c","ios":"levelo://app?vid=1ff4dd87-bf56-4ab1-8365-aad71fcb827c"},"vehicle_type_id":"4","last_reported":1747818673,"current_range_meters":9200,"station_id":"ce4bhp92rcd13ifvqhbg","pricing_plan_id":"cebpf4jnsgd1na2vs0mg"},{"bike_id":"20a50647-cb42-43c9-b7f5-e1ffaeae38ce","system_id":"levelo_inurba_marseille","lat":43.26956,"lon":5.38633,"is_reserved":false,"is_disabled":false,"rental_uris":{"android":"levelo://app?vid=20a50647-cb42-43c9-b7f5-e1ffaeae38ce","ios":"levelo://app?vid=20a50647-cb42-43c9-b7f5-e1ffaeae38ce"},"vehicle_type_id":"4","last_reported":1747818673,"current_range_meters":9600,"station_id":"ce4bhh92rcd13ifvqfh0","pricing_plan_id":"cebpf4jnsgd1na2vs0mg"},{"bike_id":"360b0756-bb1f-49c9-9b44-5ad1edee7b38","system_id":"levelo_inurba_marseille","lat":43.27511,"lon":5.42438,"is_reserved":false,"is_disabled":false,"rental_uris":{"android":"levelo://app?vid=360b0756-bb1f-49c9-9b44-5ad1edee7b38","ios":"levelo://app?vid=360b0756-bb1f-49c9-9b44-5ad1edee7b38"},"vehicle_type_id":"4","last_reported":1747818673,"current_range_meters":9600,"station_id":"ce4bhn92rcd13ifvqgrg","pricing_plan_id":"cebpf4jnsgd1na2vs0mg"},{"bike_id":"ec7869e8-d940-43ae-8e7f-a05951565c26","system_id":"levelo_inurba_marseille","lat":43.24081,"lon":5.3775,"is_reserved":false,"is_disabled":false,"rental_uris":{"android":"levelo://app?vid=ec7869e8-d940-43ae-8e7f-a05951565c26","ios":"levelo://app?vid=ec7869e8-d940-43ae-8e7f-a05951565c26"},"vehicle_type_id":"4","last_reported":1747818673,"current_range_meters":9600,"station_id":"","pricing_plan_id":"cebpf4jnsgd1na2vs0mg"},{"bike_id":"1ec365b0-6c48-4dc0-866d-cebacaea120b","system_id":"levelo_inurba_marseille","lat":43.29645,"lon":5.37176,"is_reserved":false,"is_disabled":false,"rental_uris":{"android":"levelo://app?vid=1ec365b0-6c48-4dc0-866d-cebacaea120b","ios":"levelo://app?vid=1ec365b0-6c48-4dc0-866d-cebacaea120b"},"vehicle_type_id":"4","last_reported":1747818673,"current_range_meters":9600,"station_id":"ce4bgnh2rcd13ifvqc0g","pricing_plan_id":"cebpf4jnsgd1na2vs0mg"},{"bike_id":"dc80936a-51b4-4ef9-b71e-e259b58f2ac3","system_id":"levelo_inurba_marseille","lat":43.231846,"lon":5.399895,"is_reserved":false,"is_disabled":false,"rental_uris":{"android":"levelo://app?vid=dc80936a-51b4-4ef9-b71e-e259b58f2ac3","ios":"levelo://app?vid=dc80936a-51b4-4ef9-b71e-e259b58f2ac3"},"vehicle_type_id":"4","last_reported":1747818673,"current_range_meters":9600,"station_id":"","pricing_plan_id":"cebpf4jnsgd1na2vs0mg"},{"bike_id":"f473bfbd-4c96-4b53-a2fd-c13a3cf4a2a0","system_id":"levelo_inurba_marseille","lat":43.25956,"lon":5.40907,"is_reserved":false,"is_disabled":false,"rental_uris":{"android":"levelo://app?vid=f473bfbd-4c96-4b53-a2fd-c13a3cf4a2a0","ios":"levelo://app?vid=f473bfbd-4c96-4b53-a2fd-c13a3cf4a2a0"},"vehicle_type_id":"4","last_reported":1747818673,"current_range_meters":9600,"station_id":"ce4bhm92rcd13ifvqglg","pricing_plan_id":"cebpf4jnsgd1na2vs0mg"},{"bike_id":"04a855ad-0644-4c7d-8853-a42a8be1f9ed","system_id":"levelo_inurba_marseille","lat":43.27356,"lon":5.42418,"is_reserved":false,"is_disabled":false,"rental_uris":{"android":"levelo://app?vid=04a855ad-0644-4c7d-8853-a42a8be1f9ed","ios":"levelo://app?vid=04a855ad-0644-4c7d-8853-a42a8be1f9ed"},"vehicle_type_id":"4","last_reported":1747818673,"current_range_meters":9600,"station_id":"","pricing_plan_id":"cebpf4jnsgd1na2vs0mg"},{"bike_id":"c3c11b11-8507-45b4-bd48-1e3bdd46fbbe","system_id":"levelo_inurba_marseille","lat":43.23198,"lon":5.39972,"is_reserved":false,"is_disabled":false,"rental_uris":{"android":"levelo://app?vid=c3c11b11-8507-45b4-bd48-1e3bdd46fbbe","ios":"levelo://app?vid=c3c11b11-8507-45b4-bd48-1e3bdd46fbbe"},"vehicle_type_id":"4","last_reported":1747818673,"current_range_meters":9600,"station_id":"ce4bhn12rcd13ifvqgqg","pricing_plan_id":"cebpf4jnsgd1na2vs0mg"},{"bike_id":"8b269a48-9048-4e22-b3cb-4dac5eddabd0","system_id":"levelo_inurba_marseille","lat":43.25861,"lon":5.39914,"is_reserved":false,"is_disabled":false,"rental_uris":{"android":"levelo://app?vid=8b269a48-9048-4e22-b3cb-4dac5eddabd0","ios":"levelo://app?vid=8b269a48-9048-4e22-b3cb-4dac5eddabd0"},"vehicle_type_id":"4","last_reported":1747818673,"current_range_meters":10000,"station_id":"ce4bhl92rcd13ifvqghg","pricing_plan_id":"cebpf4jnsgd1na2vs0mg"},{"bike_id":"7d2d921b-8df6-4eab-bd4d-6734ae0a3351","system_id":"levelo_inurba_marseille","lat":43.31363,"lon":5.38494,"is_reserved":false,"is_disabled":false,"rental_uris":{"android":"levelo://app?vid=7d2d921b-8df6-4eab-bd4d-6734ae0a3351","ios":"levelo://app?vid=7d2d921b-8df6-4eab-bd4d-6734ae0a3351"},"vehicle_type_id":"4","last_reported":1747818673,"current_range_meters":10000,"station_id":"ce4bgt92rcd13ifvqcf0","pricing_plan_id":"cebpf4jnsgd1na2vs0mg"},{"bike_id":"51682766-5f2e-4860-8226-efbdd3f310e2","system_id":"levelo_inurba_marseille","lat":43.29685,"lon":5.37283,"is_reserved":false,"is_disabled":false,"rental_uris":{"android":"levelo://app?vid=51682766-5f2e-4860-8226-efbdd3f310e2","ios":"levelo://app?vid=51682766-5f2e-4860-8226-efbdd3f310e2"},"vehicle_type_id":"4","last_reported":1747818673,"current_range_meters":10000,"station_id":"ce4bgk12rcd13ifvqbj0","pricing_plan_id":"cebpf4jnsgd1na2vs0mg"},{"bike_id":"2f34c329-54fe-438b-a307-b47c6ac8481c","system_id":"levelo_inurba_marseille","lat":43.298933,"lon":5.436658,"is_reserved":false,"is_disabled":false,"rental_uris":{"android":"levelo://app?vid=2f34c329-54fe-438b-a307-b47c6ac8481c","ios":"levelo://app?vid=2f34c329-54fe-438b-a307-b47c6ac8481c"},"vehicle_type_id":"4","last_reported":1747818673,"current_range_meters":10000,"station_id":"ce4bhpp2rcd13ifvqhfg","pricing_plan_id":"cebpf4jnsgd1na2vs0mg"},{"bike_id":"8025e5ca-877b-4fab-b83d-7106664b50b4","system_id":"levelo_inurba_marseille","lat":43.29308,"lon":5.37466,"is_reserved":false,"is_disabled":false,"rental_uris":{"android":"levelo://app?vid=8025e5ca-877b-4fab-b83d-7106664b50b4","ios":"levelo://app?vid=8025e5ca-877b-4fab-b83d-7106664b50b4"},"vehicle_type_id":"4","last_reported":1747818673,"current_range_meters":10000,"station_id":"ce4bgi12rcd13ifvqb70","pricing_plan_id":"cebpf4jnsgd1na2vs0mg"},{"bike_id":"cc0fb06d-3123-4c4a-a92a-ea0e657a9677","system_id":"levelo_inurba_marseille","lat":43.27491,"lon":5.42454,"is_reserved":false,"is_disabled":false,"rental_uris":{"android":"levelo://app?vid=cc0fb06d-3123-4c4a-a92a-ea0e657a9677","ios":"levelo://app?vid=cc0fb06d-3123-4c4a-a92a-ea0e657a9677"},"vehicle_type_id":"4","last_reported":1747818673,"current_range_meters":10800,"station_id":"ce4bhn92rcd13ifvqgrg","pricing_plan_id":"cebpf4jnsgd1na2vs0mg"},{"bike_id":"48bac3a4-2f7f-4290-aef8-f9bd3760a566","system_id":"levelo_inurba_marseille","lat":43.25095,"lon":5.39514,"is_reserved":false,"is_disabled":false,"rental_uris":{"android":"levelo://app?vid=48bac3a4-2f7f-4290-aef8-f9bd3760a566","ios":"levelo://app?vid=48bac3a4-2f7f-4290-aef8-f9bd3760a566"},"vehicle_type_id":"4","last_reported":1747818673,"current_range_meters":10800,"station_id":"ce4bhm12rcd13ifvqgkg","pricing_plan_id":"cebpf4jnsgd1na2vs0mg"},{"bike_id":"4c30d2e2-cb36-4eb8-b3ea-5d3bac1147cb","system_id":"levelo_inurba_marseille","lat":43.257177,"lon":5.411167,"is_reserved":false,"is_disabled":false,"rental_uris":{"android":"levelo://app?vid=4c30d2e2-cb36-4eb8-b3ea-5d3bac1147cb","ios":"levelo://app?vid=4c30d2e2-cb36-4eb8-b3ea-5d3bac1147cb"},"vehicle_type_id":"4","last_reported":1747818673,"current_range_meters":10800,"station_id":"ce4bhkp2rcd13ifvqgd0","pricing_plan_id":"cebpf4jnsgd1na2vs0mg"},{"bike_id":"500509b9-37ab-40f0-b1b0-5d544066ded5","system_id":"levelo_inurba_marseille","lat":43.25923,"lon":5.40885,"is_reserved":false,"is_disabled":false,"rental_uris":{"android":"levelo://app?vid=500509b9-37ab-40f0-b1b0-5d544066ded5","ios":"levelo://app?vid=500509b9-37ab-40f0-b1b0-5d544066ded5"},"vehicle_type_id":"4","last_reported":1747818673,"current_range_meters":10800,"station_id":"ce4bhm92rcd13ifvqglg","pricing_plan_id":"cebpf4jnsgd1na2vs0mg"},{"bike_id":"c06c87aa-99e3-4b89-97dc-fd6edd7b18f0","system_id":"levelo_inurba_marseille","lat":43.321053,"lon":5.367697,"is_reserved":false,"is_disabled":false,"rental_uris":{"android":"levelo://app?vid=c06c87aa-99e3-4b89-97dc-fd6edd7b18f0","ios":"levelo://app?vid=c06c87aa-99e3-4b89-97dc-fd6edd7b18f0"},"vehicle_type_id":"4","last_reported":1747818673,"current_range_meters":10800,"station_id":"ce4bhrh2rcd13ifvqhug","pricing_plan_id":"cebpf4jnsgd1na2vs0mg"},{"bike_id":"880e9c14-7f08-4a43-8eb9-dd6aa2bc8df1","system_id":"levelo_inurba_marseille","lat":43.30543,"lon":5.36524,"is_reserved":false,"is_disabled":false,"rental_uris":{"android":"levelo://app?vid=880e9c14-7f08-4a43-8eb9-dd6aa2bc8df1","ios":"levelo://app?vid=880e9c14-7f08-4a43-8eb9-dd6aa2bc8df1"},"vehicle_type_id":"4","last_reported":1747818673,"current_range_meters":10800,"station_id":"ce4bgs12rcd13ifvqcag","pricing_plan_id":"cebpf4jnsgd1na2vs0mg"},{"bike_id":"e5a09778-5760-4dbe-a386-59458e5d6d34","system_id":"levelo_inurba_marseille","lat":43.24808,"lon":5.37457,"is_reserved":false,"is_disabled":false,"rental_uris":{"android":"levelo://app?vid=e5a09778-5760-4dbe-a386-59458e5d6d34","ios":"levelo://app?vid=e5a09778-5760-4dbe-a386-59458e5d6d34"},"vehicle_type_id":"4","last_reported":1747818673,"current_range_meters":11200,"station_id":"ce4bhgh2rcd13ifvqfb0","pricing_plan_id":"cebpf4jnsgd1na2vs0mg"},{"bike_id":"324231ab-033b-40ae-97d2-7b70e0442b0c","system_id":"levelo_inurba_marseille","lat":43.312317,"lon":5.368477,"is_reserved":false,"is_disabled":false,"rental_uris":{"android":"levelo://app?vid=324231ab-033b-40ae-97d2-7b70e0442b0c","ios":"levelo://app?vid=324231ab-033b-40ae-97d2-7b70e0442b0c"},"vehicle_type_id":"4","last_reported":1747818673,"current_range_meters":11200,"station_id":"ce4bgl92rcd13ifvqbq0","pricing_plan_id":"cebpf4jnsgd1na2vs0mg"},{"bike_id":"a949492b-a297-4871-85db-83e2b24def0a","system_id":"levelo_inurba_marseille","lat":43.27623,"lon":5.36104,"is_reserved":false,"is_disabled":false,"rental_uris":{"android":"levelo://app?vid=a949492b-a297-4871-85db-83e2b24def0a","ios":"levelo://app?vid=a949492b-a297-4871-85db-83e2b24def0a"},"vehicle_type_id":"4","last_reported":1747818673,"current_range_meters":11200,"station_id":"ce4bgj92rcd13ifvqbe0","pricing_plan_id":"cebpf4jnsgd1na2vs0mg"},{"bike_id":"358131c2-f2ca-4a3c-9db0-d6481db43378","system_id":"levelo_inurba_marseille","lat":43.29172,"lon":5.37141,"is_reserved":false,"is_disabled":false,"rental_uris":{"android":"levelo://app?vid=358131c2-f2ca-4a3c-9db0-d6481db43378","ios":"levelo://app?vid=358131c2-f2ca-4a3c-9db0-d6481db43378"},"vehicle_type_id":"4","last_reported":1747818673,"current_range_meters":11200,"station_id":"ce4bha92rcd13ifvqeh0","pricing_plan_id":"cebpf4jnsgd1na2vs0mg"},{"bike_id":"d22b0fd0-78a6-46fc-aad8-ce2ca2a629e3","system_id":"levelo_inurba_marseille","lat":43.21186,"lon":5.3508,"is_reserved":false,"is_disabled":false,"rental_uris":{"android":"levelo://app?vid=d22b0fd0-78a6-46fc-aad8-ce2ca2a629e3","ios":"levelo://app?vid=d22b0fd0-78a6-46fc-aad8-ce2ca2a629e3"},"vehicle_type_id":"4","last_reported":1747818673,"current_range_meters":11200,"station_id":"st_cvj6sg6p6f1abm77japg","pricing_plan_id":"cebpf4jnsgd1na2vs0mg"},{"bike_id":"5c0c2424-243d-409c-b83e-0d3df9810710","system_id":"levelo_inurba_marseille","lat":43.28921,"lon":5.38393,"is_reserved":false,"is_disabled":false,"rental_uris":{"android":"levelo://app?vid=5c0c2424-243d-409c-b83e-0d3df9810710","ios":"levelo://app?vid=5c0c2424-243d-409c-b83e-0d3df9810710"},"vehicle_type_id":"4","last_reported":1747818673,"current_range_meters":11200,"station_id":"ce4bh612rcd13ifvqe6g","pricing_plan_id":"cebpf4jnsgd1na2vs0mg"},{"bike_id":"23203a69-feb5-4ae1-a15c-d23b97097000","system_id":"levelo_inurba_marseille","lat":43.26685,"lon":5.38271,"is_reserved":false,"is_disabled":false,"rental_uris":{"android":"levelo://app?vid=23203a69-feb5-4ae1-a15c-d23b97097000","ios":"levelo://app?vid=23203a69-feb5-4ae1-a15c-d23b97097000"},"vehicle_type_id":"4","last_reported":1747818673,"current_range_meters":11600,"station_id":"ce4bhg92rcd13ifvqf90","pricing_plan_id":"cebpf4jnsgd1na2vs0mg"},{"bike_id":"b19eb02c-cf63-49ab-9e88-e6de1c057c7d","system_id":"levelo_inurba_marseille","lat":43.303544,"lon":5.418838,"is_reserved":false,"is_disabled":false,"rental_uris":{"android":"levelo://app?vid=b19eb02c-cf63-49ab-9e88-e6de1c057c7d","ios":"levelo://app?vid=b19eb02c-cf63-49ab-9e88-e6de1c057c7d"},"vehicle_type_id":"4","last_reported":1747818673,"current_range_meters":11600,"station_id":"","pricing_plan_id":"cebpf4jnsgd1na2vs0mg"},{"bike_id":"5765434c-77b5-41b5-8b14-b978e4d6dd10","system_id":"levelo_inurba_marseille","lat":43.212019,"lon":5.351009,"is_reserved":false,"is_disabled":false,"rental_uris":{"android":"levelo://app?vid=5765434c-77b5-41b5-8b14-b978e4d6dd10","ios":"levelo://app?vid=5765434c-77b5-41b5-8b14-b978e4d6dd10"},"vehicle_type_id":"4","last_reported":1747818673,"current_range_meters":11600,"station_id":"st_cvj6sg6p6f1abm77japg","pricing_plan_id":"cebpf4jnsgd1na2vs0mg"},{"bike_id":"7c63856e-6736-45d6-bd2c-70efaabff23f","system_id":"levelo_inurba_marseille","lat":43.24099,"lon":5.37748,"is_reserved":false,"is_disabled":false,"rental_uris":{"android":"levelo://app?vid=7c63856e-6736-45d6-bd2c-70efaabff23f","ios":"levelo://app?vid=7c63856e-6736-45d6-bd2c-70efaabff23f"},"vehicle_type_id":"4","last_reported":1747818673,"current_range_meters":12000,"station_id":"ce4bhnp2rcd13ifvqgvg","pricing_plan_id":"cebpf4jnsgd1na2vs0mg"},{"bike_id":"d3794132-a70f-416f-8f79-15d73a23ca4b","system_id":"levelo_inurba_marseille","lat":43.2465,"lon":5.38888,"is_reserved":false,"is_disabled":false,"rental_uris":{"android":"levelo://app?vid=d3794132-a70f-416f-8f79-15d73a23ca4b","ios":"levelo://app?vid=d3794132-a70f-416f-8f79-15d73a23ca4b"},"vehicle_type_id":"4","last_reported":1747818673,"current_range_meters":12000,"station_id":"ce4bhg12rcd13ifvqf60","pricing_plan_id":"cebpf4jnsgd1na2vs0mg"},{"bike_id":"6047ec16-b106-4b55-a476-63f191dd2bc8","system_id":"levelo_inurba_marseille","lat":43.31226,"lon":5.36875,"is_reserved":false,"is_disabled":false,"rental_uris":{"android":"levelo://app?vid=6047ec16-b106-4b55-a476-63f191dd2bc8","ios":"levelo://app?vid=6047ec16-b106-4b55-a476-63f191dd2bc8"},"vehicle_type_id":"4","last_reported":1747818673,"current_range_meters":12000,"station_id":"ce4bgl92rcd13ifvqbq0","pricing_plan_id":"cebpf4jnsgd1na2vs0mg"},{"bike_id":"9d4aab74-e95c-4279-8ece-4ad1f2348682","system_id":"levelo_inurba_marseille","lat":43.29535,"lon":5.3855,"is_reserved":false,"is_disabled":false,"rental_uris":{"android":"levelo://app?vid=9d4aab74-e95c-4279-8ece-4ad1f2348682","ios":"levelo://app?vid=9d4aab74-e95c-4279-8ece-4ad1f2348682"},"vehicle_type_id":"4","last_reported":1747818673,"current_range_meters":12000,"station_id":"ce4bgih2rcd13ifvqba0","pricing_plan_id":"cebpf4jnsgd1na2vs0mg"},{"bike_id":"8ca18dff-499b-4dae-96fb-172672c1db3c","system_id":"levelo_inurba_marseille","lat":43.29975,"lon":5.37146,"is_reserved":false,"is_disabled":false,"rental_uris":{"android":"levelo://app?vid=8ca18dff-499b-4dae-96fb-172672c1db3c","ios":"levelo://app?vid=8ca18dff-499b-4dae-96fb-172672c1db3c"},"vehicle_type_id":"4","last_reported":1747818673,"current_range_meters":12400,"station_id":"ce4bgr92rcd13ifvqc7g","pricing_plan_id":"cebpf4jnsgd1na2vs0mg"},{"bike_id":"1a340bac-8012-4c7c-b50a-247d19f083a9","system_id":"levelo_inurba_marseille","lat":43.21194,"lon":5.35067,"is_reserved":false,"is_disabled":false,"rental_uris":{"android":"levelo://app?vid=1a340bac-8012-4c7c-b50a-247d19f083a9","ios":"levelo://app?vid=1a340bac-8012-4c7c-b50a-247d19f083a9"},"vehicle_type_id":"4","last_reported":1747818673,"current_range_meters":12400,"station_id":"st_cvj6sg6p6f1abm77japg","pricing_plan_id":"cebpf4jnsgd1na2vs0mg"},{"bike_id":"56cf80a0-6e20-4517-b7ab-ff4ac3730a84","system_id":"levelo_inurba_marseille","lat":43.2318,"lon":5.39974,"is_reserved":false,"is_disabled":false,"rental_uris":{"android":"levelo://app?vid=56cf80a0-6e20-4517-b7ab-ff4ac3730a84","ios":"levelo://app?vid=56cf80a0-6e20-4517-b7ab-ff4ac3730a84"},"vehicle_type_id":"4","last_reported":1747818673,"current_range_meters":12400,"station_id":"ce4bhn12rcd13ifvqgqg","pricing_plan_id":"cebpf4jnsgd1na2vs0mg"},{"bike_id":"9a145c1e-0a3d-4290-a9ab-dd835c8a830e","system_id":"levelo_inurba_marseille","lat":43.23967,"lon":5.36628,"is_reserved":false,"is_disabled":false,"rental_uris":{"android":"levelo://app?vid=9a145c1e-0a3d-4290-a9ab-dd835c8a830e","ios":"levelo://app?vid=9a145c1e-0a3d-4290-a9ab-dd835c8a830e"},"vehicle_type_id":"4","last_reported":1747818673,"current_range_meters":12400,"station_id":"ce4bhi12rcd13ifvqfp0","pricing_plan_id":"cebpf4jnsgd1na2vs0mg"},{"bike_id":"04bc3528-c42f-4de2-9c21-a12f6931d9db","system_id":"levelo_inurba_marseille","lat":43.29567,"lon":5.37515,"is_reserved":false,"is_disabled":false,"rental_uris":{"android":"levelo://app?vid=04bc3528-c42f-4de2-9c21-a12f6931d9db","ios":"levelo://app?vid=04bc3528-c42f-4de2-9c21-a12f6931d9db"},"vehicle_type_id":"4","last_reported":1747818673,"current_range_meters":12400,"station_id":"ce4bgh92rcd13ifvqb50","pricing_plan_id":"cebpf4jnsgd1na2vs0mg"},{"bike_id":"b7dd41aa-2ef7-4ede-8a12-15dad72683ae","system_id":"levelo_inurba_marseille","lat":43.29559,"lon":5.42274,"is_reserved":false,"is_disabled":false,"rental_uris":{"android":"levelo://app?vid=b7dd41aa-2ef7-4ede-8a12-15dad72683ae","ios":"levelo://app?vid=b7dd41aa-2ef7-4ede-8a12-15dad72683ae"},"vehicle_type_id":"4","last_reported":1747818673,"current_range_meters":12400,"station_id":"ce4bhph2rcd13ifvqhdg","pricing_plan_id":"cebpf4jnsgd1na2vs0mg"},{"bike_id":"baf0c4b5-70fa-4edf-88a7-a029a69445f0","system_id":"levelo_inurba_marseille","lat":43.31309,"lon":5.36953,"is_reserved":false,"is_disabled":false,"rental_uris":{"android":"levelo://app?vid=baf0c4b5-70fa-4edf-88a7-a029a69445f0","ios":"levelo://app?vid=baf0c4b5-70fa-4edf-88a7-a029a69445f0"},"vehicle_type_id":"4","last_reported":1747818673,"current_range_meters":12800,"station_id":"","pricing_plan_id":"cebpf4jnsgd1na2vs0mg"},{"bike_id":"240b4a1d-d99b-4836-945d-62fe812c271c","system_id":"levelo_inurba_marseille","lat":43.297114,"lon":5.380372,"is_reserved":false,"is_disabled":false,"rental_uris":{"android":"levelo://app?vid=240b4a1d-d99b-4836-945d-62fe812c271c","ios":"levelo://app?vid=240b4a1d-d99b-4836-945d-62fe812c271c"},"vehicle_type_id":"4","last_reported":1747818673,"current_range_meters":12800,"station_id":"ce4bhch2rcd13ifvqeug","pricing_plan_id":"cebpf4jnsgd1na2vs0mg"},{"bike_id":"ded357d2-b318-412f-9ffd-6727a13631b7","system_id":"levelo_inurba_marseille","lat":43.25864,"lon":5.39901,"is_reserved":false,"is_disabled":false,"rental_uris":{"android":"levelo://app?vid=ded357d2-b318-412f-9ffd-6727a13631b7","ios":"levelo://app?vid=ded357d2-b318-412f-9ffd-6727a13631b7"},"vehicle_type_id":"4","last_reported":1747818673,"current_range_meters":12800,"station_id":"ce4bhl92rcd13ifvqghg","pricing_plan_id":"cebpf4jnsgd1na2vs0mg"},{"bike_id":"5f670b2c-f3ff-4f35-8f16-84ecc20640d8","system_id":"levelo_inurba_marseille","lat":43.28956,"lon":5.39642,"is_reserved":false,"is_disabled":true,"rental_uris":{"android":"levelo://app?vid=5f670b2c-f3ff-4f35-8f16-84ecc20640d8","ios":"levelo://app?vid=5f670b2c-f3ff-4f35-8f16-84ecc20640d8"},"vehicle_type_id":"4","last_reported":1747818673,"current_range_meters":12800,"station_id":"ce4bh3h2rcd13ifvqdn0","pricing_plan_id":"cebpf4jnsgd1na2vs0mg"},{"bike_id":"21a57774-05a5-44e5-b4af-47671e02c363","system_id":"levelo_inurba_marseille","lat":43.25576,"lon":5.38231,"is_reserved":false,"is_disabled":false,"rental_uris":{"android":"levelo://app?vid=21a57774-05a5-44e5-b4af-47671e02c363","ios":"levelo://app?vid=21a57774-05a5-44e5-b4af-47671e02c363"},"vehicle_type_id":"4","last_reported":1747818673,"current_range_meters":12800,"station_id":"ce4bhih2rcd13ifvqfs0","pricing_plan_id":"cebpf4jnsgd1na2vs0mg"},{"bike_id":"120c77ac-e603-404f-94d2-094850d09f86","system_id":"levelo_inurba_marseille","lat":43.2592,"lon":5.40896,"is_reserved":false,"is_disabled":false,"rental_uris":{"android":"levelo://app?vid=120c77ac-e603-404f-94d2-094850d09f86","ios":"levelo://app?vid=120c77ac-e603-404f-94d2-094850d09f86"},"vehicle_type_id":"4","last_reported":1747818673,"current_range_meters":12800,"station_id":"ce4bhm92rcd13ifvqglg","pricing_plan_id":"cebpf4jnsgd1na2vs0mg"},{"bike_id":"04e2cbb1-ec24-4cbb-8990-65f3ca727865","system_id":"levelo_inurba_marseille","lat":43.31077,"lon":5.38356,"is_reserved":false,"is_disabled":false,"rental_uris":{"android":"levelo://app?vid=04e2cbb1-ec24-4cbb-8990-65f3ca727865","ios":"levelo://app?vid=04e2cbb1-ec24-4cbb-8990-65f3ca727865"},"vehicle_type_id":"4","last_reported":1747818673,"current_range_meters":12800,"station_id":"ce4bgv92rcd13ifvqcr0","pricing_plan_id":"cebpf4jnsgd1na2vs0mg"},{"bike_id":"8e9792ab-772c-4e06-afe4-17f19f8ca288","system_id":"levelo_inurba_marseille","lat":43.2669,"lon":5.38269,"is_reserved":false,"is_disabled":false,"rental_uris":{"android":"levelo://app?vid=8e9792ab-772c-4e06-afe4-17f19f8ca288","ios":"levelo://app?vid=8e9792ab-772c-4e06-afe4-17f19f8ca288"},"vehicle_type_id":"4","last_reported":1747818673,"current_range_meters":12800,"station_id":"ce4bhg92rcd13ifvqf90","pricing_plan_id":"cebpf4jnsgd1na2vs0mg"},{"bike_id":"0cc58957-c5b7-42c1-abec-33957dbb5986","system_id":"levelo_inurba_marseille","lat":43.29271,"lon":5.37607,"is_reserved":false,"is_disabled":false,"rental_uris":{"android":"levelo://app?vid=0cc58957-c5b7-42c1-abec-33957dbb5986","ios":"levelo://app?vid=0cc58957-c5b7-42c1-abec-33957dbb5986"},"vehicle_type_id":"4","last_reported":1747818673,"current_range_meters":13600,"station_id":"ce4bgi12rcd13ifvqb80","pricing_plan_id":"cebpf4jnsgd1na2vs0mg"},{"bike_id":"32d384c2-a89d-4a77-84ff-a8083b4686ca","system_id":"levelo_inurba_marseille","lat":43.30601,"lon":5.37234,"is_reserved":false,"is_disabled":false,"rental_uris":{"android":"levelo://app?vid=32d384c2-a89d-4a77-84ff-a8083b4686ca","ios":"levelo://app?vid=32d384c2-a89d-4a77-84ff-a8083b4686ca"},"vehicle_type_id":"4","last_reported":1747818673,"current_range_meters":13600,"station_id":"ce4bgqh2rcd13ifvqc4g","pricing_plan_id":"cebpf4jnsgd1na2vs0mg"},{"bike_id":"da16330c-e160-49ea-b49a-89cd09576dae","system_id":"levelo_inurba_marseille","lat":43.30139,"lon":5.387761,"is_reserved":false,"is_disabled":false,"rental_uris":{"android":"levelo://app?vid=da16330c-e160-49ea-b49a-89cd09576dae","ios":"levelo://app?vid=da16330c-e160-49ea-b49a-89cd09576dae"},"vehicle_type_id":"4","last_reported":1747818673,"current_range_meters":13600,"station_id":"ce4bghh2rcd13ifvqb60","pricing_plan_id":"cebpf4jnsgd1na2vs0mg"},{"bike_id":"2156ddc2-019a-46f8-9b83-7fb26ad1f8f9","system_id":"levelo_inurba_marseille","lat":43.3033,"lon":5.40435,"is_reserved":false,"is_disabled":false,"rental_uris":{"android":"levelo://app?vid=2156ddc2-019a-46f8-9b83-7fb26ad1f8f9","ios":"levelo://app?vid=2156ddc2-019a-46f8-9b83-7fb26ad1f8f9"},"vehicle_type_id":"4","last_reported":1747818673,"current_range_meters":13600,"station_id":"ce4bh012rcd13ifvqd10","pricing_plan_id":"cebpf4jnsgd1na2vs0mg"},{"bike_id":"e083190f-bbf9-45c8-95f6-4bf45e2a9ead","system_id":"levelo_inurba_marseille","lat":43.2972,"lon":5.36613,"is_reserved":false,"is_disabled":false,"rental_uris":{"android":"levelo://app?vid=e083190f-bbf9-45c8-95f6-4bf45e2a9ead","ios":"levelo://app?vid=e083190f-bbf9-45c8-95f6-4bf45e2a9ead"},"vehicle_type_id":"4","last_reported":1747818673,"current_range_meters":13600,"station_id":"ce4bgn12rcd13ifvqbt0","pricing_plan_id":"cebpf4jnsgd1na2vs0mg"},{"bike_id":"50dcc398-6df9-425e-9c29-759d4fbd9ba2","system_id":"levelo_inurba_marseille","lat":43.24069,"lon":5.3776,"is_reserved":false,"is_disabled":false,"rental_uris":{"android":"levelo://app?vid=50dcc398-6df9-425e-9c29-759d4fbd9ba2","ios":"levelo://app?vid=50dcc398-6df9-425e-9c29-759d4fbd9ba2"},"vehicle_type_id":"4","last_reported":1747818673,"current_range_meters":13600,"station_id":"ce4bhnp2rcd13ifvqgvg","pricing_plan_id":"cebpf4jnsgd1na2vs0mg"},{"bike_id":"4cb0121c-6b98-4d3b-b73d-d989f7a16b87","system_id":"levelo_inurba_marseille","lat":43.296868,"lon":5.372974,"is_reserved":false,"is_disabled":false,"rental_uris":{"android":"levelo://app?vid=4cb0121c-6b98-4d3b-b73d-d989f7a16b87","ios":"levelo://app?vid=4cb0121c-6b98-4d3b-b73d-d989f7a16b87"},"vehicle_type_id":"4","last_reported":1747818673,"current_range_meters":13600,"station_id":"ce4bgk12rcd13ifvqbj0","pricing_plan_id":"cebpf4jnsgd1na2vs0mg"},{"bike_id":"370b3f3f-5838-4015-ba9d-552bfd0e454e","system_id":"levelo_inurba_marseille","lat":43.273774,"lon":5.362578,"is_reserved":false,"is_disabled":true,"rental_uris":{"android":"levelo://app?vid=370b3f3f-5838-4015-ba9d-552bfd0e454e","ios":"levelo://app?vid=370b3f3f-5838-4015-ba9d-552bfd0e454e"},"vehicle_type_id":"4","last_reported":1747818673,"current_range_meters":13600,"station_id":"ce4bhbh2rcd13ifvqeo0","pricing_plan_id":"cebpf4jnsgd1na2vs0mg"},{"bike_id":"e107c324-8974-4d5f-8f30-172a610af824","system_id":"levelo_inurba_marseille","lat":43.27499,"lon":5.42467,"is_reserved":false,"is_disabled":false,"rental_uris":{"android":"levelo://app?vid=e107c324-8974-4d5f-8f30-172a610af824","ios":"levelo://app?vid=e107c324-8974-4d5f-8f30-172a610af824"},"vehicle_type_id":"4","last_reported":1747818673,"current_range_meters":14000,"station_id":"ce4bhn92rcd13ifvqgrg","pricing_plan_id":"cebpf4jnsgd1na2vs0mg"},{"bike_id":"60bd9881-5084-43e2-bd51-bf012147f24a","system_id":"levelo_inurba_marseille","lat":43.27068,"lon":5.42295,"is_reserved":false,"is_disabled":false,"rental_uris":{"android":"levelo://app?vid=60bd9881-5084-43e2-bd51-bf012147f24a","ios":"levelo://app?vid=60bd9881-5084-43e2-bd51-bf012147f24a"},"vehicle_type_id":"4","last_reported":1747818673,"current_range_meters":14000,"station_id":"ce4bhk92rcd13ifvqgb0","pricing_plan_id":"cebpf4jnsgd1na2vs0mg"},{"bike_id":"dd0c3d6c-2f49-47c4-88c7-14754c9d549f","system_id":"levelo_inurba_marseille","lat":43.26206,"lon":5.37445,"is_reserved":false,"is_disabled":false,"rental_uris":{"android":"levelo://app?vid=dd0c3d6c-2f49-47c4-88c7-14754c9d549f","ios":"levelo://app?vid=dd0c3d6c-2f49-47c4-88c7-14754c9d549f"},"vehicle_type_id":"4","last_reported":1747818673,"current_range_meters":14000,"station_id":"ce4bhgp2rcd13ifvqfc0","pricing_plan_id":"cebpf4jnsgd1na2vs0mg"},{"bike_id":"41a63ad7-5271-4c92-a07b-12a7b1d342de","system_id":"levelo_inurba_marseille","lat":43.2122,"lon":5.3508,"is_reserved":false,"is_disabled":false,"rental_uris":{"android":"levelo://app?vid=41a63ad7-5271-4c92-a07b-12a7b1d342de","ios":"levelo://app?vid=41a63ad7-5271-4c92-a07b-12a7b1d342de"},"vehicle_type_id":"4","last_reported":1747818673,"current_range_meters":14000,"station_id":"st_cvj6sg6p6f1abm77japg","pricing_plan_id":"cebpf4jnsgd1na2vs0mg"},{"bike_id":"09b092f7-73a2-4306-8179-0264b487a722","system_id":"levelo_inurba_marseille","lat":43.27962,"lon":5.41028,"is_reserved":false,"is_disabled":false,"rental_uris":{"android":"levelo://app?vid=09b092f7-73a2-4306-8179-0264b487a722","ios":"levelo://app?vid=09b092f7-73a2-4306-8179-0264b487a722"},"vehicle_type_id":"4","last_reported":1747818673,"current_range_meters":14000,"station_id":"ce4bhnp2rcd13ifvqh0g","pricing_plan_id":"cebpf4jnsgd1na2vs0mg"},{"bike_id":"830f60ac-baba-4975-b6aa-08182a8803da","system_id":"levelo_inurba_marseille","lat":43.305446,"lon":5.365541,"is_reserved":false,"is_disabled":false,"rental_uris":{"android":"levelo://app?vid=830f60ac-baba-4975-b6aa-08182a8803da","ios":"levelo://app?vid=830f60ac-baba-4975-b6aa-08182a8803da"},"vehicle_type_id":"4","last_reported":1747818673,"current_range_meters":14400,"station_id":"ce4bgs12rcd13ifvqcag","pricing_plan_id":"cebpf4jnsgd1na2vs0mg"},{"bike_id":"9dfe11a9-ceaf-4299-a4f4-3f177d5b7602","system_id":"levelo_inurba_marseille","lat":43.290402,"lon":5.35912,"is_reserved":false,"is_disabled":true,"rental_uris":{"android":"levelo://app?vid=9dfe11a9-ceaf-4299-a4f4-3f177d5b7602","ios":"levelo://app?vid=9dfe11a9-ceaf-4299-a4f4-3f177d5b7602"},"vehicle_type_id":"4","last_reported":1747818673,"current_range_meters":14400,"station_id":"ce4bha92rcd13ifvqeg0","pricing_plan_id":"cebpf4jnsgd1na2vs0mg"},{"bike_id":"886aa11b-d92b-4c0b-ac9e-b60705f8aa91","system_id":"levelo_inurba_marseille","lat":43.25905,"lon":5.40894,"is_reserved":false,"is_disabled":false,"rental_uris":{"android":"levelo://app?vid=886aa11b-d92b-4c0b-ac9e-b60705f8aa91","ios":"levelo://app?vid=886aa11b-d92b-4c0b-ac9e-b60705f8aa91"},"vehicle_type_id":"4","last_reported":1747818673,"current_range_meters":14400,"station_id":"ce4bhm92rcd13ifvqglg","pricing_plan_id":"cebpf4jnsgd1na2vs0mg"},{"bike_id":"7b67408d-e552-45a4-9270-16de8e1753d8","system_id":"levelo_inurba_marseille","lat":43.299347,"lon":5.365584,"is_reserved":false,"is_disabled":false,"rental_uris":{"android":"levelo://app?vid=7b67408d-e552-45a4-9270-16de8e1753d8","ios":"levelo://app?vid=7b67408d-e552-45a4-9270-16de8e1753d8"},"vehicle_type_id":"4","last_reported":1747818673,"current_range_meters":14400,"station_id":"ce4bgm92rcd13ifvqbr0","pricing_plan_id":"cebpf4jnsgd1na2vs0mg"},{"bike_id":"22c16602-8f86-477a-9c84-09f8dca851a6","system_id":"levelo_inurba_marseille","lat":43.24073,"lon":5.37753,"is_reserved":false,"is_disabled":false,"rental_uris":{"android":"levelo://app?vid=22c16602-8f86-477a-9c84-09f8dca851a6","ios":"levelo://app?vid=22c16602-8f86-477a-9c84-09f8dca851a6"},"vehicle_type_id":"4","last_reported":1747818673,"current_range_meters":14400,"station_id":"ce4bhnp2rcd13ifvqgvg","pricing_plan_id":"cebpf4jnsgd1na2vs0mg"},{"bike_id":"3c0300aa-3669-4f50-ae12-06c5f9beef96","system_id":"levelo_inurba_marseille","lat":43.25863,"lon":5.39903,"is_reserved":false,"is_disabled":false,"rental_uris":{"android":"levelo://app?vid=3c0300aa-3669-4f50-ae12-06c5f9beef96","ios":"levelo://app?vid=3c0300aa-3669-4f50-ae12-06c5f9beef96"},"vehicle_type_id":"4","last_reported":1747818673,"current_range_meters":14800,"station_id":"ce4bhl92rcd13ifvqghg","pricing_plan_id":"cebpf4jnsgd1na2vs0mg"},{"bike_id":"83c70ef1-0a8b-448f-b2dc-2723c8ffdbf1","system_id":"levelo_inurba_marseille","lat":43.3009,"lon":5.39048,"is_reserved":false,"is_disabled":false,"rental_uris":{"android":"levelo://app?vid=83c70ef1-0a8b-448f-b2dc-2723c8ffdbf1","ios":"levelo://app?vid=83c70ef1-0a8b-448f-b2dc-2723c8ffdbf1"},"vehicle_type_id":"4","last_reported":1747818673,"current_range_meters":14800,"station_id":"ce4bh192rcd13ifvqdb0","pricing_plan_id":"cebpf4jnsgd1na2vs0mg"},{"bike_id":"b3ad5739-aaf3-48a6-876b-8747a07c8b86","system_id":"levelo_inurba_marseille","lat":43.24547,"lon":5.3953,"is_reserved":false,"is_disabled":false,"rental_uris":{"android":"levelo://app?vid=b3ad5739-aaf3-48a6-876b-8747a07c8b86","ios":"levelo://app?vid=b3ad5739-aaf3-48a6-876b-8747a07c8b86"},"vehicle_type_id":"4","last_reported":1747818673,"current_range_meters":14800,"station_id":"ce4bhlp2rcd13ifvqgjg","pricing_plan_id":"cebpf4jnsgd1na2vs0mg"},{"bike_id":"1b06c297-b620-4baa-8469-7fc93984e230","system_id":"levelo_inurba_marseille","lat":43.24181,"lon":5.39704,"is_reserved":false,"is_disabled":false,"rental_uris":{"android":"levelo://app?vid=1b06c297-b620-4baa-8469-7fc93984e230","ios":"levelo://app?vid=1b06c297-b620-4baa-8469-7fc93984e230"},"vehicle_type_id":"4","last_reported":1747818673,"current_range_meters":14800,"station_id":"ce4bhn12rcd13ifvqgpg","pricing_plan_id":"cebpf4jnsgd1na2vs0mg"},{"bike_id":"c62823f8-95ea-440d-af74-d0a00ace1416","system_id":"levelo_inurba_marseille","lat":43.30154,"lon":5.37402,"is_reserved":false,"is_disabled":false,"rental_uris":{"android":"levelo://app?vid=c62823f8-95ea-440d-af74-d0a00ace1416","ios":"levelo://app?vid=c62823f8-95ea-440d-af74-d0a00ace1416"},"vehicle_type_id":"4","last_reported":1747818673,"current_range_meters":14800,"station_id":"ce4bgs92rcd13ifvqcc0","pricing_plan_id":"cebpf4jnsgd1na2vs0mg"},{"bike_id":"71b4307e-c0f6-45ee-bf2f-e9459ecccef3","system_id":"levelo_inurba_marseille","lat":43.32659,"lon":5.40994,"is_reserved":false,"is_disabled":false,"rental_uris":{"android":"levelo://app?vid=71b4307e-c0f6-45ee-bf2f-e9459ecccef3","ios":"levelo://app?vid=71b4307e-c0f6-45ee-bf2f-e9459ecccef3"},"vehicle_type_id":"4","last_reported":1747818673,"current_range_meters":14800,"station_id":"ce4bhpp2rcd13ifvqhgg","pricing_plan_id":"cebpf4jnsgd1na2vs0mg"},{"bike_id":"f9fb40c0-1fcd-48cb-8e26-3f2dc0fb2451","system_id":"levelo_inurba_marseille","lat":43.33751,"lon":5.37509,"is_reserved":false,"is_disabled":false,"rental_uris":{"android":"levelo://app?vid=f9fb40c0-1fcd-48cb-8e26-3f2dc0fb2451","ios":"levelo://app?vid=f9fb40c0-1fcd-48cb-8e26-3f2dc0fb2451"},"vehicle_type_id":"4","last_reported":1747818673,"current_range_meters":14800,"station_id":"","pricing_plan_id":"cebpf4jnsgd1na2vs0mg"},{"bike_id":"f693b179-d4c4-4ee0-8a73-552a9c1888ff","system_id":"levelo_inurba_marseille","lat":43.25908,"lon":5.40909,"is_reserved":false,"is_disabled":false,"rental_uris":{"android":"levelo://app?vid=f693b179-d4c4-4ee0-8a73-552a9c1888ff","ios":"levelo://app?vid=f693b179-d4c4-4ee0-8a73-552a9c1888ff"},"vehicle_type_id":"4","last_reported":1747818673,"current_range_meters":15200,"station_id":"ce4bhm92rcd13ifvqglg","pricing_plan_id":"cebpf4jnsgd1na2vs0mg"},{"bike_id":"d73ac9a7-968e-4980-99a2-a8d83f7e61c3","system_id":"levelo_inurba_marseille","lat":43.26939,"lon":5.40249,"is_reserved":false,"is_disabled":false,"rental_uris":{"android":"levelo://app?vid=d73ac9a7-968e-4980-99a2-a8d83f7e61c3","ios":"levelo://app?vid=d73ac9a7-968e-4980-99a2-a8d83f7e61c3"},"vehicle_type_id":"4","last_reported":1747818673,"current_range_meters":15200,"station_id":"cjm6bp8fraef2m0cb0m0","pricing_plan_id":"cebpf4jnsgd1na2vs0mg"},{"bike_id":"9ab9a453-c610-4ee6-bfe9-c53b25fc7671","system_id":"levelo_inurba_marseille","lat":43.26685,"lon":5.39558,"is_reserved":false,"is_disabled":false,"rental_uris":{"android":"levelo://app?vid=9ab9a453-c610-4ee6-bfe9-c53b25fc7671","ios":"levelo://app?vid=9ab9a453-c610-4ee6-bfe9-c53b25fc7671"},"vehicle_type_id":"4","last_reported":1747818673,"current_range_meters":15200,"station_id":"","pricing_plan_id":"cebpf4jnsgd1na2vs0mg"},{"bike_id":"88f76d3a-b2e1-4de0-bff0-e4596a173133","system_id":"levelo_inurba_marseille","lat":43.27429,"lon":5.39409,"is_reserved":false,"is_disabled":false,"rental_uris":{"android":"levelo://app?vid=88f76d3a-b2e1-4de0-bff0-e4596a173133","ios":"levelo://app?vid=88f76d3a-b2e1-4de0-bff0-e4596a173133"},"vehicle_type_id":"4","last_reported":1747818673,"current_range_meters":15200,"station_id":"ce4bhdp2rcd13ifvqf20","pricing_plan_id":"cebpf4jnsgd1na2vs0mg"},{"bike_id":"afd9cc17-e5ab-459d-afac-ed9940010223","system_id":"levelo_inurba_marseille","lat":43.27054,"lon":5.40263,"is_reserved":false,"is_disabled":false,"rental_uris":{"android":"levelo://app?vid=afd9cc17-e5ab-459d-afac-ed9940010223","ios":"levelo://app?vid=afd9cc17-e5ab-459d-afac-ed9940010223"},"vehicle_type_id":"4","last_reported":1747818673,"current_range_meters":15200,"station_id":"ce4bhk92rcd13ifvqgc0","pricing_plan_id":"cebpf4jnsgd1na2vs0mg"},{"bike_id":"ec1e5af5-a2c9-40c7-8196-abeddc2c4e77","system_id":"levelo_inurba_marseille","lat":43.33645,"lon":5.40891,"is_reserved":false,"is_disabled":false,"rental_uris":{"android":"levelo://app?vid=ec1e5af5-a2c9-40c7-8196-abeddc2c4e77","ios":"levelo://app?vid=ec1e5af5-a2c9-40c7-8196-abeddc2c4e77"},"vehicle_type_id":"4","last_reported":1747818673,"current_range_meters":15200,"station_id":"ce4bhqh2rcd13ifvqhmg","pricing_plan_id":"cebpf4jnsgd1na2vs0mg"},{"bike_id":"1c6b2cc5-0117-4eb4-91c7-bd68d0b2ec05","system_id":"levelo_inurba_marseille","lat":43.31335,"lon":5.36732,"is_reserved":false,"is_disabled":false,"rental_uris":{"android":"levelo://app?vid=1c6b2cc5-0117-4eb4-91c7-bd68d0b2ec05","ios":"levelo://app?vid=1c6b2cc5-0117-4eb4-91c7-bd68d0b2ec05"},"vehicle_type_id":"4","last_reported":1747818673,"current_range_meters":16000,"station_id":"ce4bgr92rcd13ifvqc6g","pricing_plan_id":"cebpf4jnsgd1na2vs0mg"},{"bike_id":"26f7fb37-fe13-47bd-bc32-8bb1df144be9","system_id":"levelo_inurba_marseille","lat":43.29265,"lon":5.37626,"is_reserved":false,"is_disabled":false,"rental_uris":{"android":"levelo://app?vid=26f7fb37-fe13-47bd-bc32-8bb1df144be9","ios":"levelo://app?vid=26f7fb37-fe13-47bd-bc32-8bb1df144be9"},"vehicle_type_id":"4","last_reported":1747818673,"current_range_meters":16000,"station_id":"ce4bgi12rcd13ifvqb80","pricing_plan_id":"cebpf4jnsgd1na2vs0mg"},{"bike_id":"9400832f-6eb2-4c7c-a777-6a91e1116187","system_id":"levelo_inurba_marseille","lat":43.30881,"lon":5.3719,"is_reserved":false,"is_disabled":false,"rental_uris":{"android":"levelo://app?vid=9400832f-6eb2-4c7c-a777-6a91e1116187","ios":"levelo://app?vid=9400832f-6eb2-4c7c-a777-6a91e1116187"},"vehicle_type_id":"4","last_reported":1747818673,"current_range_meters":16000,"station_id":"ce4bguh2rcd13ifvqckg","pricing_plan_id":"cebpf4jnsgd1na2vs0mg"},{"bike_id":"e745ebc6-8f69-4d0b-a4e7-594822ba8625","system_id":"levelo_inurba_marseille","lat":43.24112,"lon":5.37774,"is_reserved":false,"is_disabled":false,"rental_uris":{"android":"levelo://app?vid=e745ebc6-8f69-4d0b-a4e7-594822ba8625","ios":"levelo://app?vid=e745ebc6-8f69-4d0b-a4e7-594822ba8625"},"vehicle_type_id":"4","last_reported":1747818673,"current_range_meters":16000,"station_id":"ce4bhnp2rcd13ifvqgvg","pricing_plan_id":"cebpf4jnsgd1na2vs0mg"},{"bike_id":"1396a1e4-a7a4-45f6-aea9-62380bf2972a","system_id":"levelo_inurba_marseille","lat":43.313357,"lon":5.367321,"is_reserved":false,"is_disabled":false,"rental_uris":{"android":"levelo://app?vid=1396a1e4-a7a4-45f6-aea9-62380bf2972a","ios":"levelo://app?vid=1396a1e4-a7a4-45f6-aea9-62380bf2972a"},"vehicle_type_id":"4","last_reported":1747818673,"current_range_meters":16000,"station_id":"ce4bgr92rcd13ifvqc6g","pricing_plan_id":"cebpf4jnsgd1na2vs0mg"},{"bike_id":"628c52ae-b897-4dca-953c-8475bb2941d3","system_id":"levelo_inurba_marseille","lat":43.21198,"lon":5.35042,"is_reserved":false,"is_disabled":false,"rental_uris":{"android":"levelo://app?vid=628c52ae-b897-4dca-953c-8475bb2941d3","ios":"levelo://app?vid=628c52ae-b897-4dca-953c-8475bb2941d3"},"vehicle_type_id":"4","last_reported":1747818673,"current_range_meters":16000,"station_id":"st_cvj6sg6p6f1abm77japg","pricing_plan_id":"cebpf4jnsgd1na2vs0mg"},{"bike_id":"8761acdc-a019-4102-bbbc-48b0f8254226","system_id":"levelo_inurba_marseille","lat":43.26024,"lon":5.37549,"is_reserved":false,"is_disabled":false,"rental_uris":{"android":"levelo://app?vid=8761acdc-a019-4102-bbbc-48b0f8254226","ios":"levelo://app?vid=8761acdc-a019-4102-bbbc-48b0f8254226"},"vehicle_type_id":"4","last_reported":1747818673,"current_range_meters":16000,"station_id":"ce4bhgh2rcd13ifvqfa0","pricing_plan_id":"cebpf4jnsgd1na2vs0mg"},{"bike_id":"b95c60f1-2b43-41c9-80e0-8c072621559a","system_id":"levelo_inurba_marseille","lat":43.30085,"lon":5.39073,"is_reserved":false,"is_disabled":false,"rental_uris":{"android":"levelo://app?vid=b95c60f1-2b43-41c9-80e0-8c072621559a","ios":"levelo://app?vid=b95c60f1-2b43-41c9-80e0-8c072621559a"},"vehicle_type_id":"4","last_reported":1747818673,"current_range_meters":16000,"station_id":"ce4bh192rcd13ifvqdb0","pricing_plan_id":"cebpf4jnsgd1na2vs0mg"},{"bike_id":"824a86f4-99ca-47bd-ae65-1ed008ec6a72","system_id":"levelo_inurba_marseille","lat":43.2408,"lon":5.37757,"is_reserved":false,"is_disabled":false,"rental_uris":{"android":"levelo://app?vid=824a86f4-99ca-47bd-ae65-1ed008ec6a72","ios":"levelo://app?vid=824a86f4-99ca-47bd-ae65-1ed008ec6a72"},"vehicle_type_id":"4","last_reported":1747818673,"current_range_meters":16000,"station_id":"","pricing_plan_id":"cebpf4jnsgd1na2vs0mg"},{"bike_id":"8260610f-eab4-4888-b102-c2b8396bb90d","system_id":"levelo_inurba_marseille","lat":43.30167,"lon":5.38082,"is_reserved":false,"is_disabled":false,"rental_uris":{"android":"levelo://app?vid=8260610f-eab4-4888-b102-c2b8396bb90d","ios":"levelo://app?vid=8260610f-eab4-4888-b102-c2b8396bb90d"},"vehicle_type_id":"4","last_reported":1747818673,"current_range_meters":16000,"station_id":"ce4bgjp2rcd13ifvqbh0","pricing_plan_id":"cebpf4jnsgd1na2vs0mg"},{"bike_id":"509a7bc5-3ed4-44a0-83b3-6bbf477b3a61","system_id":"levelo_inurba_marseille","lat":43.21197,"lon":5.35071,"is_reserved":false,"is_disabled":false,"rental_uris":{"android":"levelo://app?vid=509a7bc5-3ed4-44a0-83b3-6bbf477b3a61","ios":"levelo://app?vid=509a7bc5-3ed4-44a0-83b3-6bbf477b3a61"},"vehicle_type_id":"4","last_reported":1747818673,"current_range_meters":16000,"station_id":"st_cvj6sg6p6f1abm77japg","pricing_plan_id":"cebpf4jnsgd1na2vs0mg"},{"bike_id":"dbd701ce-b74f-4507-88cf-7d2b64f801da","system_id":"levelo_inurba_marseille","lat":43.25928,"lon":5.40894,"is_reserved":false,"is_disabled":false,"rental_uris":{"android":"levelo://app?vid=dbd701ce-b74f-4507-88cf-7d2b64f801da","ios":"levelo://app?vid=dbd701ce-b74f-4507-88cf-7d2b64f801da"},"vehicle_type_id":"4","last_reported":1747818673,"current_range_meters":16000,"station_id":"ce4bhm92rcd13ifvqglg","pricing_plan_id":"cebpf4jnsgd1na2vs0mg"},{"bike_id":"55b15ab6-a3ef-47ec-8cfc-1b6bc2f074bb","system_id":"levelo_inurba_marseille","lat":43.29169,"lon":5.37152,"is_reserved":false,"is_disabled":false,"rental_uris":{"android":"levelo://app?vid=55b15ab6-a3ef-47ec-8cfc-1b6bc2f074bb","ios":"levelo://app?vid=55b15ab6-a3ef-47ec-8cfc-1b6bc2f074bb"},"vehicle_type_id":"4","last_reported":1747818673,"current_range_meters":16400,"station_id":"ce4bha92rcd13ifvqeh0","pricing_plan_id":"cebpf4jnsgd1na2vs0mg"},{"bike_id":"d45d5b88-19c5-4a94-9d22-0e4df7343554","system_id":"levelo_inurba_marseille","lat":43.25866,"lon":5.39904,"is_reserved":false,"is_disabled":false,"rental_uris":{"android":"levelo://app?vid=d45d5b88-19c5-4a94-9d22-0e4df7343554","ios":"levelo://app?vid=d45d5b88-19c5-4a94-9d22-0e4df7343554"},"vehicle_type_id":"4","last_reported":1747818673,"current_range_meters":16400,"station_id":"ce4bhl92rcd13ifvqghg","pricing_plan_id":"cebpf4jnsgd1na2vs0mg"},{"bike_id":"1a091a66-2e68-4ded-9fc5-3d6f9e9f6f62","system_id":"levelo_inurba_marseille","lat":43.32118,"lon":5.36764,"is_reserved":false,"is_disabled":false,"rental_uris":{"android":"levelo://app?vid=1a091a66-2e68-4ded-9fc5-3d6f9e9f6f62","ios":"levelo://app?vid=1a091a66-2e68-4ded-9fc5-3d6f9e9f6f62"},"vehicle_type_id":"4","last_reported":1747818673,"current_range_meters":16400,"station_id":"ce4bhrh2rcd13ifvqhug","pricing_plan_id":"cebpf4jnsgd1na2vs0mg"},{"bike_id":"c9a00e74-029a-454e-8e85-1b3d994b9d78","system_id":"levelo_inurba_marseille","lat":43.21187,"lon":5.35079,"is_reserved":false,"is_disabled":false,"rental_uris":{"android":"levelo://app?vid=c9a00e74-029a-454e-8e85-1b3d994b9d78","ios":"levelo://app?vid=c9a00e74-029a-454e-8e85-1b3d994b9d78"},"vehicle_type_id":"4","last_reported":1747818673,"current_range_meters":16400,"station_id":"st_cvj6sg6p6f1abm77japg","pricing_plan_id":"cebpf4jnsgd1na2vs0mg"},{"bike_id":"0552706d-7ee7-4fee-97ae-ee5ed92102cb","system_id":"levelo_inurba_marseille","lat":43.33602,"lon":5.41017,"is_reserved":false,"is_disabled":false,"rental_uris":{"android":"levelo://app?vid=0552706d-7ee7-4fee-97ae-ee5ed92102cb","ios":"levelo://app?vid=0552706d-7ee7-4fee-97ae-ee5ed92102cb"},"vehicle_type_id":"4","last_reported":1747818673,"current_range_meters":16400,"station_id":"ce4bhqh2rcd13ifvqhmg","pricing_plan_id":"cebpf4jnsgd1na2vs0mg"},{"bike_id":"367001af-20e0-499c-b98c-752a74b4fbcf","system_id":"levelo_inurba_marseille","lat":43.2315,"lon":5.43718,"is_reserved":false,"is_disabled":false,"rental_uris":{"android":"levelo://app?vid=367001af-20e0-499c-b98c-752a74b4fbcf","ios":"levelo://app?vid=367001af-20e0-499c-b98c-752a74b4fbcf"},"vehicle_type_id":"4","last_reported":1747818673,"current_range_meters":16400,"station_id":"ce4bhmp2rcd13ifvqgog","pricing_plan_id":"cebpf4jnsgd1na2vs0mg"},{"bike_id":"5eda19dd-2117-416f-86ae-20e22a7cf9c6","system_id":"levelo_inurba_marseille","lat":43.30314,"lon":5.36888,"is_reserved":false,"is_disabled":false,"rental_uris":{"android":"levelo://app?vid=5eda19dd-2117-416f-86ae-20e22a7cf9c6","ios":"levelo://app?vid=5eda19dd-2117-416f-86ae-20e22a7cf9c6"},"vehicle_type_id":"4","last_reported":1747818673,"current_range_meters":16400,"station_id":"ce4bgqh2rcd13ifvqc5g","pricing_plan_id":"cebpf4jnsgd1na2vs0mg"},{"bike_id":"0e769dca-a4c0-4603-9d25-9001343d5115","system_id":"levelo_inurba_marseille","lat":43.29983,"lon":5.37167,"is_reserved":false,"is_disabled":false,"rental_uris":{"android":"levelo://app?vid=0e769dca-a4c0-4603-9d25-9001343d5115","ios":"levelo://app?vid=0e769dca-a4c0-4603-9d25-9001343d5115"},"vehicle_type_id":"4","last_reported":1747818673,"current_range_meters":16400,"station_id":"ce4bgr92rcd13ifvqc7g","pricing_plan_id":"cebpf4jnsgd1na2vs0mg"},{"bike_id":"365035b1-1caa-4c0e-8398-0ac6765175a4","system_id":"levelo_inurba_marseille","lat":43.23172,"lon":5.39998,"is_reserved":false,"is_disabled":false,"rental_uris":{"android":"levelo://app?vid=365035b1-1caa-4c0e-8398-0ac6765175a4","ios":"levelo://app?vid=365035b1-1caa-4c0e-8398-0ac6765175a4"},"vehicle_type_id":"4","last_reported":1747818673,"current_range_meters":16800,"station_id":"ce4bhn12rcd13ifvqgqg","pricing_plan_id":"cebpf4jnsgd1na2vs0mg"},{"bike_id":"cab1bc3a-d133-45d1-b5e2-49215a305917","system_id":"levelo_inurba_marseille","lat":43.23182,"lon":5.39988,"is_reserved":false,"is_disabled":false,"rental_uris":{"android":"levelo://app?vid=cab1bc3a-d133-45d1-b5e2-49215a305917","ios":"levelo://app?vid=cab1bc3a-d133-45d1-b5e2-49215a305917"},"vehicle_type_id":"4","last_reported":1747818673,"current_range_meters":16800,"station_id":"ce4bhn12rcd13ifvqgqg","pricing_plan_id":"cebpf4jnsgd1na2vs0mg"},{"bike_id":"87987afe-4534-47e9-920e-2df9e4427a38","system_id":"levelo_inurba_marseille","lat":43.30529,"lon":5.36518,"is_reserved":false,"is_disabled":false,"rental_uris":{"android":"levelo://app?vid=87987afe-4534-47e9-920e-2df9e4427a38","ios":"levelo://app?vid=87987afe-4534-47e9-920e-2df9e4427a38"},"vehicle_type_id":"4","last_reported":1747818673,"current_range_meters":16800,"station_id":"","pricing_plan_id":"cebpf4jnsgd1na2vs0mg"},{"bike_id":"e3120b8b-8871-4a05-b522-497a98c26691","system_id":"levelo_inurba_marseille","lat":43.25862,"lon":5.39889,"is_reserved":false,"is_disabled":false,"rental_uris":{"android":"levelo://app?vid=e3120b8b-8871-4a05-b522-497a98c26691","ios":"levelo://app?vid=e3120b8b-8871-4a05-b522-497a98c26691"},"vehicle_type_id":"4","last_reported":1747818673,"current_range_meters":16800,"station_id":"ce4bhl92rcd13ifvqghg","pricing_plan_id":"cebpf4jnsgd1na2vs0mg"},{"bike_id":"72778fc8-2ed6-41ef-935f-226907406ced","system_id":"levelo_inurba_marseille","lat":43.21754,"lon":5.34612,"is_reserved":false,"is_disabled":false,"rental_uris":{"android":"levelo://app?vid=72778fc8-2ed6-41ef-935f-226907406ced","ios":"levelo://app?vid=72778fc8-2ed6-41ef-935f-226907406ced"},"vehicle_type_id":"4","last_reported":1747818673,"current_range_meters":16800,"station_id":"","pricing_plan_id":"cebpf4jnsgd1na2vs0mg"},{"bike_id":"9074a6d5-57b4-4178-bf69-7ddd3b4f1ac7","system_id":"levelo_inurba_marseille","lat":43.23144,"lon":5.43701,"is_reserved":false,"is_disabled":false,"rental_uris":{"android":"levelo://app?vid=9074a6d5-57b4-4178-bf69-7ddd3b4f1ac7","ios":"levelo://app?vid=9074a6d5-57b4-4178-bf69-7ddd3b4f1ac7"},"vehicle_type_id":"4","last_reported":1747818673,"current_range_meters":16800,"station_id":"ce4bhmp2rcd13ifvqgog","pricing_plan_id":"cebpf4jnsgd1na2vs0mg"},{"bike_id":"0ad35d1d-8526-4847-9ed9-cf53534aaeef","system_id":"levelo_inurba_marseille","lat":43.23153,"lon":5.437195,"is_reserved":false,"is_disabled":false,"rental_uris":{"android":"levelo://app?vid=0ad35d1d-8526-4847-9ed9-cf53534aaeef","ios":"levelo://app?vid=0ad35d1d-8526-4847-9ed9-cf53534aaeef"},"vehicle_type_id":"4","last_reported":1747818673,"current_range_meters":16800,"station_id":"ce4bhmp2rcd13ifvqgog","pricing_plan_id":"cebpf4jnsgd1na2vs0mg"},{"bike_id":"78263fc9-4e14-46bb-a93d-a389b1bb56a1","system_id":"levelo_inurba_marseille","lat":43.29037,"lon":5.38139,"is_reserved":false,"is_disabled":false,"rental_uris":{"android":"levelo://app?vid=78263fc9-4e14-46bb-a93d-a389b1bb56a1","ios":"levelo://app?vid=78263fc9-4e14-46bb-a93d-a389b1bb56a1"},"vehicle_type_id":"4","last_reported":1747818673,"current_range_meters":17200,"station_id":"ce4bh4p2rcd13ifvqe1g","pricing_plan_id":"cebpf4jnsgd1na2vs0mg"},{"bike_id":"8a1e1c0f-ff57-4bc6-b229-e9a02fb28385","system_id":"levelo_inurba_marseille","lat":43.287264,"lon":5.360682,"is_reserved":false,"is_disabled":false,"rental_uris":{"android":"levelo://app?vid=8a1e1c0f-ff57-4bc6-b229-e9a02fb28385","ios":"levelo://app?vid=8a1e1c0f-ff57-4bc6-b229-e9a02fb28385"},"vehicle_type_id":"4","last_reported":1747818673,"current_range_meters":16400,"station_id":"cki0cbj6b192h4jlfktg","pricing_plan_id":"cebpf4jnsgd1na2vs0mg"},{"bike_id":"cd3b5a07-fbf0-488a-988f-2ff6d14ade8a","system_id":"levelo_inurba_marseille","lat":43.24569,"lon":5.39514,"is_reserved":false,"is_disabled":false,"rental_uris":{"android":"levelo://app?vid=cd3b5a07-fbf0-488a-988f-2ff6d14ade8a","ios":"levelo://app?vid=cd3b5a07-fbf0-488a-988f-2ff6d14ade8a"},"vehicle_type_id":"4","last_reported":1747818673,"current_range_meters":16800,"station_id":"ce4bhlp2rcd13ifvqgjg","pricing_plan_id":"cebpf4jnsgd1na2vs0mg"},{"bike_id":"ed66c451-31ff-4d9c-ad2d-825e13d92a12","system_id":"levelo_inurba_marseille","lat":43.28361,"lon":5.38636,"is_reserved":false,"is_disabled":false,"rental_uris":{"android":"levelo://app?vid=ed66c451-31ff-4d9c-ad2d-825e13d92a12","ios":"levelo://app?vid=ed66c451-31ff-4d9c-ad2d-825e13d92a12"},"vehicle_type_id":"4","last_reported":1747818673,"current_range_meters":16800,"station_id":"ce4bh492rcd13ifvqdvg","pricing_plan_id":"cebpf4jnsgd1na2vs0mg"},{"bike_id":"83f95caa-69cb-4072-b84f-2d560b7846ad","system_id":"levelo_inurba_marseille","lat":43.2315,"lon":5.43712,"is_reserved":false,"is_disabled":false,"rental_uris":{"android":"levelo://app?vid=83f95caa-69cb-4072-b84f-2d560b7846ad","ios":"levelo://app?vid=83f95caa-69cb-4072-b84f-2d560b7846ad"},"vehicle_type_id":"4","last_reported":1747818673,"current_range_meters":16800,"station_id":"ce4bhmp2rcd13ifvqgog","pricing_plan_id":"cebpf4jnsgd1na2vs0mg"},{"bike_id":"46838dcc-bfcd-47f7-9e26-97ebaf4848eb","system_id":"levelo_inurba_marseille","lat":43.212047,"lon":5.35064,"is_reserved":false,"is_disabled":false,"rental_uris":{"android":"levelo://app?vid=46838dcc-bfcd-47f7-9e26-97ebaf4848eb","ios":"levelo://app?vid=46838dcc-bfcd-47f7-9e26-97ebaf4848eb"},"vehicle_type_id":"4","last_reported":1747818673,"current_range_meters":17200,"station_id":"st_cvj6sg6p6f1abm77japg","pricing_plan_id":"cebpf4jnsgd1na2vs0mg"},{"bike_id":"35be095f-597d-455c-80b3-1af8ac8860c3","system_id":"levelo_inurba_marseille","lat":43.29266,"lon":5.3845,"is_reserved":false,"is_disabled":false,"rental_uris":{"android":"levelo://app?vid=35be095f-597d-455c-80b3-1af8ac8860c3","ios":"levelo://app?vid=35be095f-597d-455c-80b3-1af8ac8860c3"},"vehicle_type_id":"4","last_reported":1747818673,"current_range_meters":17200,"station_id":"ce4bh692rcd13ifvqea0","pricing_plan_id":"cebpf4jnsgd1na2vs0mg"},{"bike_id":"b075732e-e941-479b-9417-f853b1af7266","system_id":"levelo_inurba_marseille","lat":43.30736,"lon":5.42452,"is_reserved":false,"is_disabled":false,"rental_uris":{"android":"levelo://app?vid=b075732e-e941-479b-9417-f853b1af7266","ios":"levelo://app?vid=b075732e-e941-479b-9417-f853b1af7266"},"vehicle_type_id":"4","last_reported":1747818673,"current_range_meters":17200,"station_id":"st_cvj6ca6bvosntc0bfgr0","pricing_plan_id":"cebpf4jnsgd1na2vs0mg"},{"bike_id":"cc5273e9-792c-4a38-b145-d9476038cb1a","system_id":"levelo_inurba_marseille","lat":43.274231,"lon":5.394137,"is_reserved":false,"is_disabled":false,"rental_uris":{"android":"levelo://app?vid=cc5273e9-792c-4a38-b145-d9476038cb1a","ios":"levelo://app?vid=cc5273e9-792c-4a38-b145-d9476038cb1a"},"vehicle_type_id":"4","last_reported":1747818673,"current_range_meters":17200,"station_id":"ce4bhdp2rcd13ifvqf20","pricing_plan_id":"cebpf4jnsgd1na2vs0mg"},{"bike_id":"d2bec294-4343-4dfb-afc5-6ff1bb15187e","system_id":"levelo_inurba_marseille","lat":43.24074,"lon":5.37764,"is_reserved":false,"is_disabled":false,"rental_uris":{"android":"levelo://app?vid=d2bec294-4343-4dfb-afc5-6ff1bb15187e","ios":"levelo://app?vid=d2bec294-4343-4dfb-afc5-6ff1bb15187e"},"vehicle_type_id":"4","last_reported":1747818673,"current_range_meters":17200,"station_id":"ce4bhnp2rcd13ifvqgvg","pricing_plan_id":"cebpf4jnsgd1na2vs0mg"},{"bike_id":"c339e758-fb9c-41f6-8219-8747cdbe2320","system_id":"levelo_inurba_marseille","lat":43.3054,"lon":5.36513,"is_reserved":false,"is_disabled":false,"rental_uris":{"android":"levelo://app?vid=c339e758-fb9c-41f6-8219-8747cdbe2320","ios":"levelo://app?vid=c339e758-fb9c-41f6-8219-8747cdbe2320"},"vehicle_type_id":"4","last_reported":1747818673,"current_range_meters":17200,"station_id":"ce4bgs12rcd13ifvqcag","pricing_plan_id":"cebpf4jnsgd1na2vs0mg"},{"bike_id":"c352c9ae-423d-4fe5-9ab5-e8e3e52250a5","system_id":"levelo_inurba_marseille","lat":43.24109,"lon":5.37773,"is_reserved":false,"is_disabled":true,"rental_uris":{"android":"levelo://app?vid=c352c9ae-423d-4fe5-9ab5-e8e3e52250a5","ios":"levelo://app?vid=c352c9ae-423d-4fe5-9ab5-e8e3e52250a5"},"vehicle_type_id":"4","last_reported":1747818673,"current_range_meters":17200,"station_id":"ce4bhnp2rcd13ifvqgvg","pricing_plan_id":"cebpf4jnsgd1na2vs0mg"},{"bike_id":"83cd6607-711c-414a-aea5-43bb77366d7a","system_id":"levelo_inurba_marseille","lat":43.30152,"lon":5.38109,"is_reserved":false,"is_disabled":true,"rental_uris":{"android":"levelo://app?vid=83cd6607-711c-414a-aea5-43bb77366d7a","ios":"levelo://app?vid=83cd6607-711c-414a-aea5-43bb77366d7a"},"vehicle_type_id":"4","last_reported":1747818673,"current_range_meters":17200,"station_id":"ce4bgjp2rcd13ifvqbh0","pricing_plan_id":"cebpf4jnsgd1na2vs0mg"},{"bike_id":"bd898b60-6e26-4c9e-bf46-1eb378c1d8fd","system_id":"levelo_inurba_marseille","lat":43.313456,"lon":5.396971,"is_reserved":false,"is_disabled":true,"rental_uris":{"android":"levelo://app?vid=bd898b60-6e26-4c9e-bf46-1eb378c1d8fd","ios":"levelo://app?vid=bd898b60-6e26-4c9e-bf46-1eb378c1d8fd"},"vehicle_type_id":"4","last_reported":1747818673,"current_range_meters":17200,"station_id":"ce4bgvp2rcd13ifvqcu0","pricing_plan_id":"cebpf4jnsgd1na2vs0mg"},{"bike_id":"77e6f6f3-e234-4d0c-b5e3-6bc021602e2a","system_id":"levelo_inurba_marseille","lat":43.27909,"lon":5.39583,"is_reserved":false,"is_disabled":false,"rental_uris":{"android":"levelo://app?vid=77e6f6f3-e234-4d0c-b5e3-6bc021602e2a","ios":"levelo://app?vid=77e6f6f3-e234-4d0c-b5e3-6bc021602e2a"},"vehicle_type_id":"4","last_reported":1747818673,"current_range_meters":17200,"station_id":"ce4bhf92rcd13ifvqf40","pricing_plan_id":"cebpf4jnsgd1na2vs0mg"},{"bike_id":"c9a2a918-38e8-469c-a279-ac2f20a3c737","system_id":"levelo_inurba_marseille","lat":43.23149,"lon":5.4371,"is_reserved":false,"is_disabled":false,"rental_uris":{"android":"levelo://app?vid=c9a2a918-38e8-469c-a279-ac2f20a3c737","ios":"levelo://app?vid=c9a2a918-38e8-469c-a279-ac2f20a3c737"},"vehicle_type_id":"4","last_reported":1747818673,"current_range_meters":17200,"station_id":"ce4bhmp2rcd13ifvqgog","pricing_plan_id":"cebpf4jnsgd1na2vs0mg"},{"bike_id":"adc7715a-7cd9-4910-9fbf-bb0090664f96","system_id":"levelo_inurba_marseille","lat":43.25869,"lon":5.39901,"is_reserved":false,"is_disabled":false,"rental_uris":{"android":"levelo://app?vid=adc7715a-7cd9-4910-9fbf-bb0090664f96","ios":"levelo://app?vid=adc7715a-7cd9-4910-9fbf-bb0090664f96"},"vehicle_type_id":"4","last_reported":1747818673,"current_range_meters":17200,"station_id":"ce4bhl92rcd13ifvqghg","pricing_plan_id":"cebpf4jnsgd1na2vs0mg"},{"bike_id":"904d0e61-2be8-4c00-aeee-3bdd4657e6b4","system_id":"levelo_inurba_marseille","lat":43.3017,"lon":5.37378,"is_reserved":false,"is_disabled":false,"rental_uris":{"android":"levelo://app?vid=904d0e61-2be8-4c00-aeee-3bdd4657e6b4","ios":"levelo://app?vid=904d0e61-2be8-4c00-aeee-3bdd4657e6b4"},"vehicle_type_id":"4","last_reported":1747818673,"current_range_meters":17600,"station_id":"ce4bgs92rcd13ifvqcc0","pricing_plan_id":"cebpf4jnsgd1na2vs0mg"},{"bike_id":"5251a293-bd39-4b09-a53e-298ab9dd521e","system_id":"levelo_inurba_marseille","lat":43.31317,"lon":5.36751,"is_reserved":false,"is_disabled":false,"rental_uris":{"android":"levelo://app?vid=5251a293-bd39-4b09-a53e-298ab9dd521e","ios":"levelo://app?vid=5251a293-bd39-4b09-a53e-298ab9dd521e"},"vehicle_type_id":"4","last_reported":1747818673,"current_range_meters":17600,"station_id":"","pricing_plan_id":"cebpf4jnsgd1na2vs0mg"},{"bike_id":"dc61c065-6ed1-487e-9ecf-5a93a8f61ca7","system_id":"levelo_inurba_marseille","lat":43.231831,"lon":5.3998,"is_reserved":false,"is_disabled":false,"rental_uris":{"android":"levelo://app?vid=dc61c065-6ed1-487e-9ecf-5a93a8f61ca7","ios":"levelo://app?vid=dc61c065-6ed1-487e-9ecf-5a93a8f61ca7"},"vehicle_type_id":"4","last_reported":1747818673,"current_range_meters":17600,"station_id":"ce4bhn12rcd13ifvqgqg","pricing_plan_id":"cebpf4jnsgd1na2vs0mg"},{"bike_id":"536bc490-3b58-41bf-baa1-e002e51b7c98","system_id":"levelo_inurba_marseille","lat":43.26685,"lon":5.38274,"is_reserved":false,"is_disabled":false,"rental_uris":{"android":"levelo://app?vid=536bc490-3b58-41bf-baa1-e002e51b7c98","ios":"levelo://app?vid=536bc490-3b58-41bf-baa1-e002e51b7c98"},"vehicle_type_id":"4","last_reported":1747818673,"current_range_meters":17600,"station_id":"ce4bhg92rcd13ifvqf90","pricing_plan_id":"cebpf4jnsgd1na2vs0mg"},{"bike_id":"23f299ec-7c93-4e73-9ffe-2d01ab6d66ef","system_id":"levelo_inurba_marseille","lat":43.27498,"lon":5.42445,"is_reserved":false,"is_disabled":false,"rental_uris":{"android":"levelo://app?vid=23f299ec-7c93-4e73-9ffe-2d01ab6d66ef","ios":"levelo://app?vid=23f299ec-7c93-4e73-9ffe-2d01ab6d66ef"},"vehicle_type_id":"4","last_reported":1747818673,"current_range_meters":17600,"station_id":"ce4bhn92rcd13ifvqgrg","pricing_plan_id":"cebpf4jnsgd1na2vs0mg"},{"bike_id":"a77c9e76-efa1-44c5-a367-2ed5604ebdbc","system_id":"levelo_inurba_marseille","lat":43.3134,"lon":5.36725,"is_reserved":false,"is_disabled":false,"rental_uris":{"android":"levelo://app?vid=a77c9e76-efa1-44c5-a367-2ed5604ebdbc","ios":"levelo://app?vid=a77c9e76-efa1-44c5-a367-2ed5604ebdbc"},"vehicle_type_id":"4","last_reported":1747818673,"current_range_meters":17600,"station_id":"ce4bgr92rcd13ifvqc6g","pricing_plan_id":"cebpf4jnsgd1na2vs0mg"},{"bike_id":"7b5de037-479a-459d-a3bc-4ee37d6835a6","system_id":"levelo_inurba_marseille","lat":43.26194,"lon":5.37454,"is_reserved":false,"is_disabled":true,"rental_uris":{"android":"levelo://app?vid=7b5de037-479a-459d-a3bc-4ee37d6835a6","ios":"levelo://app?vid=7b5de037-479a-459d-a3bc-4ee37d6835a6"},"vehicle_type_id":"4","last_reported":1747818673,"current_range_meters":17600,"station_id":"ce4bhgp2rcd13ifvqfc0","pricing_plan_id":"cebpf4jnsgd1na2vs0mg"},{"bike_id":"bd4670fe-0c64-4ee3-aef4-7f7aaffbfa80","system_id":"levelo_inurba_marseille","lat":43.27954,"lon":5.41047,"is_reserved":false,"is_disabled":false,"rental_uris":{"android":"levelo://app?vid=bd4670fe-0c64-4ee3-aef4-7f7aaffbfa80","ios":"levelo://app?vid=bd4670fe-0c64-4ee3-aef4-7f7aaffbfa80"},"vehicle_type_id":"4","last_reported":1747818673,"current_range_meters":17600,"station_id":"ce4bhnp2rcd13ifvqh0g","pricing_plan_id":"cebpf4jnsgd1na2vs0mg"},{"bike_id":"512cad48-a180-4060-b1f1-89c6ef5852f2","system_id":"levelo_inurba_marseille","lat":43.232,"lon":5.39937,"is_reserved":false,"is_disabled":false,"rental_uris":{"android":"levelo://app?vid=512cad48-a180-4060-b1f1-89c6ef5852f2","ios":"levelo://app?vid=512cad48-a180-4060-b1f1-89c6ef5852f2"},"vehicle_type_id":"4","last_reported":1747818673,"current_range_meters":17600,"station_id":"","pricing_plan_id":"cebpf4jnsgd1na2vs0mg"},{"bike_id":"2b6c3286-142e-473e-8f76-c5a225ad2f2a","system_id":"levelo_inurba_marseille","lat":43.31754,"lon":5.39015,"is_reserved":false,"is_disabled":false,"rental_uris":{"android":"levelo://app?vid=2b6c3286-142e-473e-8f76-c5a225ad2f2a","ios":"levelo://app?vid=2b6c3286-142e-473e-8f76-c5a225ad2f2a"},"vehicle_type_id":"4","last_reported":1747818673,"current_range_meters":17600,"station_id":"ce4bhqp2rcd13ifvqhng","pricing_plan_id":"cebpf4jnsgd1na2vs0mg"},{"bike_id":"be66e549-7681-42d3-bf54-097229e510cb","system_id":"levelo_inurba_marseille","lat":43.25583,"lon":5.38225,"is_reserved":false,"is_disabled":false,"rental_uris":{"android":"levelo://app?vid=be66e549-7681-42d3-bf54-097229e510cb","ios":"levelo://app?vid=be66e549-7681-42d3-bf54-097229e510cb"},"vehicle_type_id":"4","last_reported":1747818673,"current_range_meters":18000,"station_id":"ce4bhih2rcd13ifvqfs0","pricing_plan_id":"cebpf4jnsgd1na2vs0mg"},{"bike_id":"3a48c182-8aa9-4817-97ec-3a2c2ae3fb96","system_id":"levelo_inurba_marseille","lat":43.29898,"lon":5.43665,"is_reserved":false,"is_disabled":false,"rental_uris":{"android":"levelo://app?vid=3a48c182-8aa9-4817-97ec-3a2c2ae3fb96","ios":"levelo://app?vid=3a48c182-8aa9-4817-97ec-3a2c2ae3fb96"},"vehicle_type_id":"4","last_reported":1747818673,"current_range_meters":18000,"station_id":"ce4bhpp2rcd13ifvqhfg","pricing_plan_id":"cebpf4jnsgd1na2vs0mg"},{"bike_id":"de4fb2ba-1a8d-4c14-a48b-1535282d6f17","system_id":"levelo_inurba_marseille","lat":43.290473,"lon":5.359123,"is_reserved":false,"is_disabled":false,"rental_uris":{"android":"levelo://app?vid=de4fb2ba-1a8d-4c14-a48b-1535282d6f17","ios":"levelo://app?vid=de4fb2ba-1a8d-4c14-a48b-1535282d6f17"},"vehicle_type_id":"4","last_reported":1747818673,"current_range_meters":18000,"station_id":"ce4bha92rcd13ifvqeg0","pricing_plan_id":"cebpf4jnsgd1na2vs0mg"},{"bike_id":"1e01d984-46fa-4bfc-8d62-f6093ad8f670","system_id":"levelo_inurba_marseille","lat":43.27495,"lon":5.42466,"is_reserved":false,"is_disabled":false,"rental_uris":{"android":"levelo://app?vid=1e01d984-46fa-4bfc-8d62-f6093ad8f670","ios":"levelo://app?vid=1e01d984-46fa-4bfc-8d62-f6093ad8f670"},"vehicle_type_id":"4","last_reported":1747818673,"current_range_meters":18000,"station_id":"ce4bhn92rcd13ifvqgrg","pricing_plan_id":"cebpf4jnsgd1na2vs0mg"},{"bike_id":"5129acdd-2547-4a4d-99f1-b3c93e253dac","system_id":"levelo_inurba_marseille","lat":43.31223,"lon":5.36869,"is_reserved":false,"is_disabled":false,"rental_uris":{"android":"levelo://app?vid=5129acdd-2547-4a4d-99f1-b3c93e253dac","ios":"levelo://app?vid=5129acdd-2547-4a4d-99f1-b3c93e253dac"},"vehicle_type_id":"4","last_reported":1747818673,"current_range_meters":18000,"station_id":"ce4bgl92rcd13ifvqbq0","pricing_plan_id":"cebpf4jnsgd1na2vs0mg"},{"bike_id":"3e7f8aaa-c55b-4f2c-8015-cd7d571d0133","system_id":"levelo_inurba_marseille","lat":43.29304,"lon":5.37469,"is_reserved":false,"is_disabled":false,"rental_uris":{"android":"levelo://app?vid=3e7f8aaa-c55b-4f2c-8015-cd7d571d0133","ios":"levelo://app?vid=3e7f8aaa-c55b-4f2c-8015-cd7d571d0133"},"vehicle_type_id":"4","last_reported":1747818673,"current_range_meters":18000,"station_id":"ce4bgi12rcd13ifvqb70","pricing_plan_id":"cebpf4jnsgd1na2vs0mg"},{"bike_id":"21358f7d-f42d-4bfe-b5ae-0ae61aab8caa","system_id":"levelo_inurba_marseille","lat":43.24651,"lon":5.38884,"is_reserved":false,"is_disabled":false,"rental_uris":{"android":"levelo://app?vid=21358f7d-f42d-4bfe-b5ae-0ae61aab8caa","ios":"levelo://app?vid=21358f7d-f42d-4bfe-b5ae-0ae61aab8caa"},"vehicle_type_id":"4","last_reported":1747818673,"current_range_meters":18000,"station_id":"ce4bhg12rcd13ifvqf60","pricing_plan_id":"cebpf4jnsgd1na2vs0mg"},{"bike_id":"90938673-9719-44fe-bd59-389ba3a32617","system_id":"levelo_inurba_marseille","lat":43.30557,"lon":5.36532,"is_reserved":false,"is_disabled":false,"rental_uris":{"android":"levelo://app?vid=90938673-9719-44fe-bd59-389ba3a32617","ios":"levelo://app?vid=90938673-9719-44fe-bd59-389ba3a32617"},"vehicle_type_id":"4","last_reported":1747818673,"current_range_meters":18800,"station_id":"ce4bgs12rcd13ifvqcag","pricing_plan_id":"cebpf4jnsgd1na2vs0mg"},{"bike_id":"a67a7fc1-16ce-403a-a4ab-be9cd76ab5ca","system_id":"levelo_inurba_marseille","lat":43.30146,"lon":5.37416,"is_reserved":false,"is_disabled":false,"rental_uris":{"android":"levelo://app?vid=a67a7fc1-16ce-403a-a4ab-be9cd76ab5ca","ios":"levelo://app?vid=a67a7fc1-16ce-403a-a4ab-be9cd76ab5ca"},"vehicle_type_id":"4","last_reported":1747818673,"current_range_meters":18800,"station_id":"ce4bgs92rcd13ifvqcc0","pricing_plan_id":"cebpf4jnsgd1na2vs0mg"},{"bike_id":"e99a519c-8c33-489e-be23-d9eb9ff49952","system_id":"levelo_inurba_marseille","lat":43.337713,"lon":5.374363,"is_reserved":false,"is_disabled":false,"rental_uris":{"android":"levelo://app?vid=e99a519c-8c33-489e-be23-d9eb9ff49952","ios":"levelo://app?vid=e99a519c-8c33-489e-be23-d9eb9ff49952"},"vehicle_type_id":"4","last_reported":1747818673,"current_range_meters":18800,"station_id":"","pricing_plan_id":"cebpf4jnsgd1na2vs0mg"},{"bike_id":"fa63cb63-99d7-41db-990c-f34e4d32ca64","system_id":"levelo_inurba_marseille","lat":43.3373,"lon":5.39185,"is_reserved":false,"is_disabled":false,"rental_uris":{"android":"levelo://app?vid=fa63cb63-99d7-41db-990c-f34e4d32ca64","ios":"levelo://app?vid=fa63cb63-99d7-41db-990c-f34e4d32ca64"},"vehicle_type_id":"4","last_reported":1747818673,"current_range_meters":18800,"station_id":"ce4bhr92rcd13ifvqhsg","pricing_plan_id":"cebpf4jnsgd1na2vs0mg"},{"bike_id":"5efcc125-7c3b-4b1e-8dc7-87a85c5476b7","system_id":"levelo_inurba_marseille","lat":43.29557,"lon":5.42285,"is_reserved":false,"is_disabled":false,"rental_uris":{"android":"levelo://app?vid=5efcc125-7c3b-4b1e-8dc7-87a85c5476b7","ios":"levelo://app?vid=5efcc125-7c3b-4b1e-8dc7-87a85c5476b7"},"vehicle_type_id":"4","last_reported":1747818673,"current_range_meters":18800,"station_id":"ce4bhph2rcd13ifvqhdg","pricing_plan_id":"cebpf4jnsgd1na2vs0mg"},{"bike_id":"b3a43ae0-cbb8-4671-b654-8c7ce8854bd5","system_id":"levelo_inurba_marseille","lat":43.241797,"lon":5.397277,"is_reserved":false,"is_disabled":false,"rental_uris":{"android":"levelo://app?vid=b3a43ae0-cbb8-4671-b654-8c7ce8854bd5","ios":"levelo://app?vid=b3a43ae0-cbb8-4671-b654-8c7ce8854bd5"},"vehicle_type_id":"4","last_reported":1747818673,"current_range_meters":18800,"station_id":"ce4bhn12rcd13ifvqgpg","pricing_plan_id":"cebpf4jnsgd1na2vs0mg"},{"bike_id":"e384a851-8a83-49f3-8856-dc02278bbbd5","system_id":"levelo_inurba_marseille","lat":43.2454,"lon":5.39541,"is_reserved":false,"is_disabled":false,"rental_uris":{"android":"levelo://app?vid=e384a851-8a83-49f3-8856-dc02278bbbd5","ios":"levelo://app?vid=e384a851-8a83-49f3-8856-dc02278bbbd5"},"vehicle_type_id":"4","last_reported":1747818673,"current_range_meters":18800,"station_id":"ce4bhlp2rcd13ifvqgjg","pricing_plan_id":"cebpf4jnsgd1na2vs0mg"},{"bike_id":"ed3012b8-bc58-4fd0-b1ee-c50361ef51d0","system_id":"levelo_inurba_marseille","lat":43.25085,"lon":5.39521,"is_reserved":false,"is_disabled":false,"rental_uris":{"android":"levelo://app?vid=ed3012b8-bc58-4fd0-b1ee-c50361ef51d0","ios":"levelo://app?vid=ed3012b8-bc58-4fd0-b1ee-c50361ef51d0"},"vehicle_type_id":"4","last_reported":1747818673,"current_range_meters":18800,"station_id":"ce4bhm12rcd13ifvqgkg","pricing_plan_id":"cebpf4jnsgd1na2vs0mg"},{"bike_id":"605365fd-0976-4fcc-a42a-ee810d6ebd22","system_id":"levelo_inurba_marseille","lat":43.25084,"lon":5.39511,"is_reserved":false,"is_disabled":false,"rental_uris":{"android":"levelo://app?vid=605365fd-0976-4fcc-a42a-ee810d6ebd22","ios":"levelo://app?vid=605365fd-0976-4fcc-a42a-ee810d6ebd22"},"vehicle_type_id":"4","last_reported":1747818673,"current_range_meters":18800,"station_id":"ce4bhm12rcd13ifvqgkg","pricing_plan_id":"cebpf4jnsgd1na2vs0mg"},{"bike_id":"786214a7-8604-4d8e-ba3b-e8046f72b102","system_id":"levelo_inurba_marseille","lat":43.31718,"lon":5.4239,"is_reserved":false,"is_disabled":false,"rental_uris":{"android":"levelo://app?vid=786214a7-8604-4d8e-ba3b-e8046f72b102","ios":"levelo://app?vid=786214a7-8604-4d8e-ba3b-e8046f72b102"},"vehicle_type_id":"4","last_reported":1747818673,"current_range_meters":18800,"station_id":"ce4bhp92rcd13ifvqhbg","pricing_plan_id":"cebpf4jnsgd1na2vs0mg"},{"bike_id":"03d0f06a-ea4a-4496-bced-b467bb24e575","system_id":"levelo_inurba_marseille","lat":43.22947,"lon":5.35372,"is_reserved":false,"is_disabled":false,"rental_uris":{"android":"levelo://app?vid=03d0f06a-ea4a-4496-bced-b467bb24e575","ios":"levelo://app?vid=03d0f06a-ea4a-4496-bced-b467bb24e575"},"vehicle_type_id":"4","last_reported":1747818673,"current_range_meters":19200,"station_id":"cpo3532slgdg3j2ikp40","pricing_plan_id":"cebpf4jnsgd1na2vs0mg"},{"bike_id":"8690f46a-3559-4abd-a99f-f615844afeb9","system_id":"levelo_inurba_marseille","lat":43.27065,"lon":5.42295,"is_reserved":false,"is_disabled":false,"rental_uris":{"android":"levelo://app?vid=8690f46a-3559-4abd-a99f-f615844afeb9","ios":"levelo://app?vid=8690f46a-3559-4abd-a99f-f615844afeb9"},"vehicle_type_id":"4","last_reported":1747818673,"current_range_meters":19200,"station_id":"ce4bhk92rcd13ifvqgb0","pricing_plan_id":"cebpf4jnsgd1na2vs0mg"},