{"last_updated":1686917537,"ttl":30,"version":"2.2","data":{"bikes":[{"bike_id":"13b89c25-a512-4907-9411-dbea2fd1751f","system_id":"levelo_inurba_marseille","lat":43.31341,"lon":5.367098,"is_reserved":false,"is_disabled":false,"rental_uris":{"android":"levelo://app?vid=13b89c25-a512-4907-9411-dbea2fd1751f","ios":"levelo://app?vid=13b89c25-a512-4907-9411-dbea2fd1751f"},"vehicle_type_id":"4","last_reported":1686917538,"current_range_meters":29200,"station_id":"ce4bgr92rcd13ifvqc6g","pricing_plan_id":"free"},{"bike_id":"8fe4f716-9d54-4378-b41e-39659b8a2ca8","system_id":"levelo_inurba_marseille","lat":43.31341,"lon":5.367098,"is_reserved":false,"is_disabled":false,"rental_uris":{"android":"levelo://app?vid=8fe4f716-9d54-4378-b41e-39659b8a2ca8","ios":"levelo://app?vid=8fe4f716-9d54-4378-b41e-39659b8a2ca8"},"vehicle_type_id":"4","last_reported":1686917538,"current_range_meters":6000,"station_id":"ce4bgr92rcd13ifvqc6g","pricing_plan_id":"free"},{"bike_id":"6e23f689-ae1f-42a6-89cd-72a48943868a","system_id":"levelo_inurba_marseille","lat":43.313391,"lon":5.36706,"is_reserved":false,"is_disabled":false,"rental_uris":{"android":"levelo://app?vid=6e23f689-ae1f-42a6-89cd-72a48943868a","ios":"levelo://app?vid=6e23f689-ae1f-42a6-89cd-72a48943868a"},"vehicle_type_id":"4","last_reported":1686917538,"current_range_meters":23200,"station_id":"ce4bgr92rcd13ifvqc6g","pricing_plan_id":"free"},{"bike_id":"83d1524a-d1b7-463e-9000-1b60a9499af0","system_id":"levelo_inurba_marseille","lat":43.31341,"lon":5.367098,"is_reserved":false,"is_disabled":false,"rental_uris":{"android":"levelo://app?vid=83d1524a-d1b7-463e-9000-1b60a9499af0","ios":"levelo://app?vid=83d1524a-d1b7-463e-9000-1b60a9499af0"},"vehicle_type_id":"4","last_reported":1686917538,"current_range_meters":31600,"station_id":"ce4bgr92rcd13ifvqc6g","pricing_plan_id":"free"},{"bike_id":"4985f093-c9b5-48d9-a55e-75f3930273ec","system_id":"levelo_inurba_marseille","lat":43.313391,"lon":5.36706,"is_reserved":false,"is_disabled":false,"rental_uris":{"android":"levelo://app?vid=4985f093-c9b5-48d9-a55e-75f3930273ec","ios":"levelo://app?vid=4985f093-c9b5-48d9-a55e-75f3930273ec"},"vehicle_type_id":"4","last_reported":1686917538,"current_range_meters":29600,"station_id":"ce4bgr92rcd13ifvqc6g","pricing_plan_id":"free"},{"bike_id":"ede1a28c-0525-4210-8fe3-64ad08f97061","system_id":"levelo_inurba_marseille","lat":43.31341,"lon":5.367098,"is_reserved":false,"is_disabled":false,"rental_uris":{"android":"levelo://app?vid=ede1a28c-0525-4210-8fe3-64ad08f97061","ios":"levelo://app?vid=ede1a28c-0525-4210-8fe3-64ad08f97061"},"vehicle_type_id":"4","last_reported":1686917538,"current_range_meters":29200,"station_id":"ce4bgr92rcd13ifvqc6g","pricing_plan_id":"free"},{"bike_id":"23cd70a6-719f-415c-96cb-39c6d0d19f85","system_id":"levelo_inurba_marseille","lat":43.313391,"lon":5.36706,"is_reserved":false,"is_disabled":false,"rental_uris":{"android":"levelo://app?vid=23cd70a6-719f-415c-96cb-39c6d0d19f85","ios":"levelo://app?vid=23cd70a6-719f-415c-96cb-39c6d0d19f85"},"vehicle_type_id":"4","last_reported":1686917538,"current_range_meters":8400,"station_id":"ce4bgr92rcd13ifvqc6g","pricing_plan_id":"free"},{"bike_id":"bc020204-224f-4f14-aeb6-d3d18f9e47bb","system_id":"levelo_inurba_marseille","lat":43.312239,"lon":5.368562,"is_reserved":false,"is_disabled":false,"rental_uris":{"android":"levelo://app?vid=bc020204-224f-4f14-aeb6-d3d18f9e47bb","ios":"levelo://app?vid=bc020204-224f-4f14-aeb6-d3d18f9e47bb"},"vehicle_type_id":"4","last_reported":1686917538,"current_range_meters":25600,"station_id":"ce4bgl92rcd13ifvqbq0","pricing_plan_id":"free"},{"bike_id":"ed7b90b2-bc58-4f0d-b0ec-5195962fdb25","system_id":"levelo_inurba_marseille","lat":43.309076,"lon":5.368465,"is_reserved":false,"is_disabled":false,"rental_uris":{"android":"levelo://app?vid=ed7b90b2-bc58-4f0d-b0ec-5195962fdb25","ios":"levelo://app?vid=ed7b90b2-bc58-4f0d-b0ec-5195962fdb25"},"vehicle_type_id":"4","last_reported":1686917538,"current_range_meters":31200,"station_id":"ce4bgn92rcd13ifvqbvg","pricing_plan_id":"free"},{"bike_id":"f6ed5f6b-a81c-4284-aae3-52377d741057","system_id":"levelo_inurba_marseille","lat":43.309076,"lon":5.368465,"is_reserved":false,"is_disabled":false,"rental_uris":{"android":"levelo://app?vid=f6ed5f6b-a81c-4284-aae3-52377d741057","ios":"levelo://app?vid=f6ed5f6b-a81c-4284-aae3-52377d741057"},"vehicle_type_id":"4","last_reported":1686917538,"current_range_meters":26400,"station_id":"ce4bgn92rcd13ifvqbvg","pricing_plan_id":"free"},{"bike_id":"68e64512-5bd0-4e66-ada9-b39b7b763736","system_id":"levelo_inurba_marseille","lat":43.309076,"lon":5.368465,"is_reserved":false,"is_disabled":false,"rental_uris":{"android":"levelo://app?vid=68e64512-5bd0-4e66-ada9-b39b7b763736","ios":"levelo://app?vid=68e64512-5bd0-4e66-ada9-b39b7b763736"},"vehicle_type_id":"4","last_reported":1686917538,"current_range_meters":25600,"station_id":"ce4bgn92rcd13ifvqbvg","pricing_plan_id":"free"},{"bike_id":"e522f67d-cdee-40ed-af3e-90e8de7b3c59","system_id":"levelo_inurba_marseille","lat":43.309076,"lon":5.368465,"is_reserved":false,"is_disabled":false,"rental_uris":{"android":"levelo://app?vid=e522f67d-cdee-40ed-af3e-90e8de7b3c59","ios":"levelo://app?vid=e522f67d-cdee-40ed-af3e-90e8de7b3c59"},"vehicle_type_id":"4","last_reported":1686917538,"current_range_meters":31600,"station_id":"ce4bgn92rcd13ifvqbvg","pricing_plan_id":"free"},{"bike_id":"b045594c-0410-477b-85a0-68bc611827eb","system_id":"levelo_inurba_marseille","lat":43.309076,"lon":5.368465,"is_reserved":false,"is_disabled":false,"rental_uris":{"android":"levelo://app?vid=b045594c-0410-477b-85a0-68bc611827eb","ios":"levelo://app?vid=b045594c-0410-477b-85a0-68bc611827eb"},"vehicle_type_id":"4","last_reported":1686917538,"current_range_meters":29600,"station_id":"ce4bgn92rcd13ifvqbvg","pricing_plan_id":"free"},{"bike_id":"b6d7ef67-8fa1-45b9-854c-640a6c441d0b","system_id":"levelo_inurba_marseille","lat":43.309076,"lon":5.368465,"is_reserved":false,"is_disabled":false,"rental_uris":{"android":"levelo://app?vid=b6d7ef67-8fa1-45b9-854c-640a6c441d0b","ios":"levelo://app?vid=b6d7ef67-8fa1-45b9-854c-640a6c441d0b"},"vehicle_type_id":"4","last_reported":1686917538,"current_range_meters":14800,"station_id":"ce4bgn92rcd13ifvqbvg","pricing_plan_id":"free"},{"bike_id":"22907caa-bcc5-458f-8678-611b0bf654c4","system_id":"levelo_inurba_marseille","lat":43.30898,"lon":5.36852,"is_reserved":false,"is_disabled":false,"rental_uris":{"android":"levelo://app?vid=22907caa-bcc5-458f-8678-611b0bf654c4","ios":"levelo://app?vid=22907caa-bcc5-458f-8678-611b0bf654c4"},"vehicle_type_id":"4","last_reported":1686917538,"current_range_meters":13600,"station_id":"ce4bgn92rcd13ifvqbvg","pricing_plan_id":"free"},{"bike_id":"09805be9-451c-4ca3-b6fe-e1cb40843697","system_id":"levelo_inurba_marseille","lat":43.314811,"lon":5.373103,"is_reserved":false,"is_disabled":false,"rental_uris":{"android":"levelo://app?vid=09805be9-451c-4ca3-b6fe-e1cb40843697","ios":"levelo://app?vid=09805be9-451c-4ca3-b6fe-e1cb40843697"},"vehicle_type_id":"4","last_reported":1686917538,"current_range_meters":14400,"station_id":"ce4bgt12rcd13ifvqcd0","pricing_plan_id":"free"},{"bike_id":"375d67c9-edb8-4347-85e3-bc88fe26d8bf","system_id":"levelo_inurba_marseille","lat":43.31496,"lon":5.37301,"is_reserved":false,"is_disabled":false,"rental_uris":{"android":"levelo://app?vid=375d67c9-edb8-4347-85e3-bc88fe26d8bf","ios":"levelo://app?vid=375d67c9-edb8-4347-85e3-bc88fe26d8bf"},"vehicle_type_id":"4","last_reported":1686917538,"current_range_meters":31200,"station_id":"ce4bgt12rcd13ifvqcd0","pricing_plan_id":"free"},{"bike_id":"424390e4-31b7-4056-a820-7290b3624c5f","system_id":"levelo_inurba_marseille","lat":43.314811,"lon":5.373103,"is_reserved":false,"is_disabled":false,"rental_uris":{"android":"levelo://app?vid=424390e4-31b7-4056-a820-7290b3624c5f","ios":"levelo://app?vid=424390e4-31b7-4056-a820-7290b3624c5f"},"vehicle_type_id":"4","last_reported":1686917538,"current_range_meters":12800,"station_id":"ce4bgt12rcd13ifvqcd0","pricing_plan_id":"free"},{"bike_id":"fe53755a-a4fd-4371-828e-e75737ce132a","system_id":"levelo_inurba_marseille","lat":43.308614,"lon":5.372098,"is_reserved":false,"is_disabled":false,"rental_uris":{"android":"levelo://app?vid=fe53755a-a4fd-4371-828e-e75737ce132a","ios":"levelo://app?vid=fe53755a-a4fd-4371-828e-e75737ce132a"},"vehicle_type_id":"4","last_reported":1686917538,"current_range_meters":18800,"station_id":"ce4bguh2rcd13ifvqckg","pricing_plan_id":"free"},{"bike_id":"330412da-b9eb-49fa-9ba0-9288ee9ddd31","system_id":"levelo_inurba_marseille","lat":43.30681,"lon":5.3657,"is_reserved":false,"is_disabled":false,"rental_uris":{"android":"levelo://app?vid=330412da-b9eb-49fa-9ba0-9288ee9ddd31","ios":"levelo://app?vid=330412da-b9eb-49fa-9ba0-9288ee9ddd31"},"vehicle_type_id":"4","last_reported":1686917538,"current_range_meters":23600,"station_id":"","pricing_plan_id":"free"},{"bike_id":"90bf95fe-6a0f-4f47-beed-a994d155d574","system_id":"levelo_inurba_marseille","lat":43.305368,"lon":5.367343,"is_reserved":false,"is_disabled":false,"rental_uris":{"android":"levelo://app?vid=90bf95fe-6a0f-4f47-beed-a994d155d574","ios":"levelo://app?vid=90bf95fe-6a0f-4f47-beed-a994d155d574"},"vehicle_type_id":"4","last_reported":1686917538,"current_range_meters":31600,"station_id":"ce4bgrp2rcd13ifvqc9g","pricing_plan_id":"free"},{"bike_id":"c5bbe088-bbe7-4e04-992d-09ea7bb82f79","system_id":"levelo_inurba_marseille","lat":43.305368,"lon":5.367343,"is_reserved":false,"is_disabled":false,"rental_uris":{"android":"levelo://app?vid=c5bbe088-bbe7-4e04-992d-09ea7bb82f79","ios":"levelo://app?vid=c5bbe088-bbe7-4e04-992d-09ea7bb82f79"},"vehicle_type_id":"4","last_reported":1686917538,"current_range_meters":10800,"station_id":"ce4bgrp2rcd13ifvqc9g","pricing_plan_id":"free"},{"bike_id":"9f141a6b-4879-43f7-b1a2-d0f43675933a","system_id":"levelo_inurba_marseille","lat":43.305706,"lon":5.365654,"is_reserved":false,"is_disabled":false,"rental_uris":{"android":"levelo://app?vid=9f141a6b-4879-43f7-b1a2-d0f43675933a","ios":"levelo://app?vid=9f141a6b-4879-43f7-b1a2-d0f43675933a"},"vehicle_type_id":"4","last_reported":1686917538,"current_range_meters":16400,"station_id":"ce4bgs12rcd13ifvqcag","pricing_plan_id":"free"},{"bike_id":"b9d1bdc5-cee7-4682-8fe6-1c48e55ed33c","system_id":"levelo_inurba_marseille","lat":43.305368,"lon":5.367343,"is_reserved":false,"is_disabled":false,"rental_uris":{"android":"levelo://app?vid=b9d1bdc5-cee7-4682-8fe6-1c48e55ed33c","ios":"levelo://app?vid=b9d1bdc5-cee7-4682-8fe6-1c48e55ed33c"},"vehicle_type_id":"4","last_reported":1686917538,"current_range_meters":25600,"station_id":"ce4bgrp2rcd13ifvqc9g","pricing_plan_id":"free"},{"bike_id":"62cc9aa2-4504-4f7f-adac-ff1c20468d8c","system_id":"levelo_inurba_marseille","lat":43.305368,"lon":5.367343,"is_reserved":false,"is_disabled":false,"rental_uris":{"android":"levelo://app?vid=62cc9aa2-4504-4f7f-adac-ff1c20468d8c","ios":"levelo://app?vid=62cc9aa2-4504-4f7f-adac-ff1c20468d8c"},"vehicle_type_id":"4","last_reported":1686917538,"current_range_meters":19600,"station_id":"ce4bgrp2rcd13ifvqc9g","pricing_plan_id":"free"},{"bike_id":"868b78c6-1736-48f0-9451-5afefb5010f9","system_id":"levelo_inurba_marseille","lat":43.317075,"lon":5.377367,"is_reserved":false,"is_disabled":false,"rental_uris":{"android":"levelo://app?vid=868b78c6-1736-48f0-9451-5afefb5010f9","ios":"levelo://app?vid=868b78c6-1736-48f0-9451-5afefb5010f9"},"vehicle_type_id":"4","last_reported":1686917538,"current_range_meters":20800,"station_id":"ce4bgth2rcd13ifvqch0","pricing_plan_id":"free"},{"bike_id":"936e1558-3431-44cc-817e-d73508493527","system_id":"levelo_inurba_marseille","lat":43.311125,"lon":5.377624,"is_reserved":false,"is_disabled":false,"rental_uris":{"android":"levelo://app?vid=936e1558-3431-44cc-817e-d73508493527","ios":"levelo://app?vid=936e1558-3431-44cc-817e-d73508493527"},"vehicle_type_id":"4","last_reported":1686917538,"current_range_meters":22800,"station_id":"ce4bgt92rcd13ifvqcg0","pricing_plan_id":"free"},{"bike_id":"41cadcaa-6d4b-4a7e-aa2d-55b7ade24f17","system_id":"levelo_inurba_marseille","lat":43.311125,"lon":5.377624,"is_reserved":false,"is_disabled":false,"rental_uris":{"android":"levelo://app?vid=41cadcaa-6d4b-4a7e-aa2d-55b7ade24f17","ios":"levelo://app?vid=41cadcaa-6d4b-4a7e-aa2d-55b7ade24f17"},"vehicle_type_id":"4","last_reported":1686917538,"current_range_meters":26400,"station_id":"ce4bgt92rcd13ifvqcg0","pricing_plan_id":"free"},{"bike_id":"658e9532-6e77-4056-ba42-731049f336c6","system_id":"levelo_inurba_marseille","lat":43.31118,"lon":5.37775,"is_reserved":false,"is_disabled":false,"rental_uris":{"android":"levelo://app?vid=658e9532-6e77-4056-ba42-731049f336c6","ios":"levelo://app?vid=658e9532-6e77-4056-ba42-731049f336c6"},"vehicle_type_id":"4","last_reported":1686917538,"current_range_meters":16400,"station_id":"ce4bgt92rcd13ifvqcg0","pricing_plan_id":"free"},{"bike_id":"bf5e29c2-0ca3-4bf7-a44f-9f518b68c89f","system_id":"levelo_inurba_marseille","lat":43.317075,"lon":5.377367,"is_reserved":false,"is_disabled":false,"rental_uris":{"android":"levelo://app?vid=bf5e29c2-0ca3-4bf7-a44f-9f518b68c89f","ios":"levelo://app?vid=bf5e29c2-0ca3-4bf7-a44f-9f518b68c89f"},"vehicle_type_id":"4","last_reported":1686917538,"current_range_meters":30000,"station_id":"ce4bgth2rcd13ifvqch0","pricing_plan_id":"free"},{"bike_id":"5a590b84-3f76-44ae-9463-e9fbfff6fef0","system_id":"levelo_inurba_marseille","lat":43.328371,"lon":5.366909,"is_reserved":false,"is_disabled":false,"rental_uris":{"android":"levelo://app?vid=5a590b84-3f76-44ae-9463-e9fbfff6fef0","ios":"levelo://app?vid=5a590b84-3f76-44ae-9463-e9fbfff6fef0"},"vehicle_type_id":"4","last_reported":1686917538,"current_range_meters":9200,"station_id":"ce4bhs92rcd13ifvqi0g","pricing_plan_id":"free"},{"bike_id":"2424216c-0462-4ad0-b127-d0366c91b61c","system_id":"levelo_inurba_marseille","lat":43.31713,"lon":5.37757,"is_reserved":false,"is_disabled":false,"rental_uris":{"android":"levelo://app?vid=2424216c-0462-4ad0-b127-d0366c91b61c","ios":"levelo://app?vid=2424216c-0462-4ad0-b127-d0366c91b61c"},"vehicle_type_id":"4","last_reported":1686917538,"current_range_meters":30800,"station_id":"ce4bgth2rcd13ifvqch0","pricing_plan_id":"free"},{"bike_id":"d8a5e6fb-1abf-4c84-b6ec-18516ca62dfa","system_id":"levelo_inurba_marseille","lat":43.31528,"lon":5.38036,"is_reserved":false,"is_disabled":false,"rental_uris":{"android":"levelo://app?vid=d8a5e6fb-1abf-4c84-b6ec-18516ca62dfa","ios":"levelo://app?vid=d8a5e6fb-1abf-4c84-b6ec-18516ca62dfa"},"vehicle_type_id":"4","last_reported":1686917538,"current_range_meters":26400,"station_id":"ce4bhsp2rcd13ifvqi50","pricing_plan_id":"free"},{"bike_id":"fe635990-ad64-49e4-8cd3-a6f0223d2411","system_id":"levelo_inurba_marseille","lat":43.301939,"lon":5.366286,"is_reserved":false,"is_disabled":false,"rental_uris":{"android":"levelo://app?vid=fe635990-ad64-49e4-8cd3-a6f0223d2411","ios":"levelo://app?vid=fe635990-ad64-49e4-8cd3-a6f0223d2411"},"vehicle_type_id":"4","last_reported":1686917538,"current_range_meters":23600,"station_id":"ce4bgrh2rcd13ifvqc8g","pricing_plan_id":"free"},{"bike_id":"a457f82e-0bcf-452b-b4ca-53c3dc13c3d8","system_id":"levelo_inurba_marseille","lat":43.301939,"lon":5.366286,"is_reserved":false,"is_disabled":false,"rental_uris":{"android":"levelo://app?vid=a457f82e-0bcf-452b-b4ca-53c3dc13c3d8","ios":"levelo://app?vid=a457f82e-0bcf-452b-b4ca-53c3dc13c3d8"},"vehicle_type_id":"4","last_reported":1686917538,"current_range_meters":18800,"station_id":"ce4bgrh2rcd13ifvqc8g","pricing_plan_id":"free"},{"bike_id":"233af8db-e12f-4d45-9f04-5b54983767a4","system_id":"levelo_inurba_marseille","lat":43.301939,"lon":5.366286,"is_reserved":false,"is_disabled":false,"rental_uris":{"android":"levelo://app?vid=233af8db-e12f-4d45-9f04-5b54983767a4","ios":"levelo://app?vid=233af8db-e12f-4d45-9f04-5b54983767a4"},"vehicle_type_id":"4","last_reported":1686917538,"current_range_meters":24800,"station_id":"ce4bgrh2rcd13ifvqc8g","pricing_plan_id":"free"},{"bike_id":"e96add6d-1222-4e75-bd90-186363511397","system_id":"levelo_inurba_marseille","lat":43.301939,"lon":5.366286,"is_reserved":false,"is_disabled":false,"rental_uris":{"android":"levelo://app?vid=e96add6d-1222-4e75-bd90-186363511397","ios":"levelo://app?vid=e96add6d-1222-4e75-bd90-186363511397"},"vehicle_type_id":"4","last_reported":1686917538,"current_range_meters":22800,"station_id":"ce4bgrh2rcd13ifvqc8g","pricing_plan_id":"free"},{"bike_id":"664baa3a-f1be-488c-b5af-718df81da1b7","system_id":"levelo_inurba_marseille","lat":43.308,"lon":5.38158,"is_reserved":false,"is_disabled":false,"rental_uris":{"android":"levelo://app?vid=664baa3a-f1be-488c-b5af-718df81da1b7","ios":"levelo://app?vid=664baa3a-f1be-488c-b5af-718df81da1b7"},"vehicle_type_id":"4","last_reported":1686917538,"current_range_meters":10400,"station_id":"ce4bgt12rcd13ifvqce0","pricing_plan_id":"free"},{"bike_id":"ae33307b-fcd5-479b-9ae1-9002ed226c6e","system_id":"levelo_inurba_marseille","lat":43.308012,"lon":5.381511,"is_reserved":false,"is_disabled":false,"rental_uris":{"android":"levelo://app?vid=ae33307b-fcd5-479b-9ae1-9002ed226c6e","ios":"levelo://app?vid=ae33307b-fcd5-479b-9ae1-9002ed226c6e"},"vehicle_type_id":"4","last_reported":1686917538,"current_range_meters":15200,"station_id":"ce4bgt12rcd13ifvqce0","pricing_plan_id":"free"},{"bike_id":"9c4914fa-98e7-4c6b-b0da-981e946cb25f","system_id":"levelo_inurba_marseille","lat":43.304606,"lon":5.379026,"is_reserved":false,"is_disabled":false,"rental_uris":{"android":"levelo://app?vid=9c4914fa-98e7-4c6b-b0da-981e946cb25f","ios":"levelo://app?vid=9c4914fa-98e7-4c6b-b0da-981e946cb25f"},"vehicle_type_id":"4","last_reported":1686917538,"current_range_meters":31200,"station_id":"ce4bgup2rcd13ifvqcn0","pricing_plan_id":"free"},{"bike_id":"fc4a69da-5dee-4c68-8631-20ee11bc487b","system_id":"levelo_inurba_marseille","lat":43.30456,"lon":5.37891,"is_reserved":false,"is_disabled":false,"rental_uris":{"android":"levelo://app?vid=fc4a69da-5dee-4c68-8631-20ee11bc487b","ios":"levelo://app?vid=fc4a69da-5dee-4c68-8631-20ee11bc487b"},"vehicle_type_id":"4","last_reported":1686917538,"current_range_meters":28800,"station_id":"ce4bgup2rcd13ifvqcn0","pricing_plan_id":"free"},{"bike_id":"f0452165-0e95-41c4-ab38-5649423eaa57","system_id":"levelo_inurba_marseille","lat":43.304606,"lon":5.379026,"is_reserved":false,"is_disabled":false,"rental_uris":{"android":"levelo://app?vid=f0452165-0e95-41c4-ab38-5649423eaa57","ios":"levelo://app?vid=f0452165-0e95-41c4-ab38-5649423eaa57"},"vehicle_type_id":"4","last_reported":1686917538,"current_range_meters":6400,"station_id":"ce4bgup2rcd13ifvqcn0","pricing_plan_id":"free"},{"bike_id":"32827146-2d6b-4fb1-b00e-6b2f535ca544","system_id":"levelo_inurba_marseille","lat":43.3047,"lon":5.37914,"is_reserved":false,"is_disabled":false,"rental_uris":{"android":"levelo://app?vid=32827146-2d6b-4fb1-b00e-6b2f535ca544","ios":"levelo://app?vid=32827146-2d6b-4fb1-b00e-6b2f535ca544"},"vehicle_type_id":"4","last_reported":1686917538,"current_range_meters":31200,"station_id":"ce4bgup2rcd13ifvqcn0","pricing_plan_id":"free"},{"bike_id":"7a01bdb2-4fc8-4229-b121-b18e40378d52","system_id":"levelo_inurba_marseille","lat":43.30459,"lon":5.37918,"is_reserved":false,"is_disabled":false,"rental_uris":{"android":"levelo://app?vid=7a01bdb2-4fc8-4229-b121-b18e40378d52","ios":"levelo://app?vid=7a01bdb2-4fc8-4229-b121-b18e40378d52"},"vehicle_type_id":"4","last_reported":1686917538,"current_range_meters":31200,"station_id":"ce4bgup2rcd13ifvqcn0","pricing_plan_id":"free"},{"bike_id":"279a4802-972f-4e2b-8e0f-2cea28877114","system_id":"levelo_inurba_marseille","lat":43.304606,"lon":5.379026,"is_reserved":false,"is_disabled":false,"rental_uris":{"android":"levelo://app?vid=279a4802-972f-4e2b-8e0f-2cea28877114","ios":"levelo://app?vid=279a4802-972f-4e2b-8e0f-2cea28877114"},"vehicle_type_id":"4","last_reported":1686917538,"current_range_meters":14800,"station_id":"ce4bgup2rcd13ifvqcn0","pricing_plan_id":"free"},{"bike_id":"34429afd-bad4-4a23-a75c-13e1aac1ae52","system_id":"levelo_inurba_marseille","lat":43.304606,"lon":5.379026,"is_reserved":false,"is_disabled":false,"rental_uris":{"android":"levelo://app?vid=34429afd-bad4-4a23-a75c-13e1aac1ae52","ios":"levelo://app?vid=34429afd-bad4-4a23-a75c-13e1aac1ae52"},"vehicle_type_id":"4","last_reported":1686917538,"current_range_meters":31600,"station_id":"ce4bgup2rcd13ifvqcn0","pricing_plan_id":"free"},{"bike_id":"cd5ba0d6-f232-4b3f-a9bf-9a38b6d72b47","system_id":"levelo_inurba_marseille","lat":43.302784,"lon":5.377158,"is_reserved":false,"is_disabled":false,"rental_uris":{"android":"levelo://app?vid=cd5ba0d6-f232-4b3f-a9bf-9a38b6d72b47","ios":"levelo://app?vid=cd5ba0d6-f232-4b3f-a9bf-9a38b6d72b47"},"vehicle_type_id":"4","last_reported":1686917538,"current_range_meters":25600,"station_id":"ce4bguh2rcd13ifvqcj0","pricing_plan_id":"free"},{"bike_id":"0506c595-6aba-453b-9c48-3ebcb96bfdc9","system_id":"levelo_inurba_marseille","lat":43.30273,"lon":5.37704,"is_reserved":false,"is_disabled":false,"rental_uris":{"android":"levelo://app?vid=0506c595-6aba-453b-9c48-3ebcb96bfdc9","ios":"levelo://app?vid=0506c595-6aba-453b-9c48-3ebcb96bfdc9"},"vehicle_type_id":"4","last_reported":1686917538,"current_range_meters":16400,"station_id":"ce4bguh2rcd13ifvqcj0","pricing_plan_id":"free"},{"bike_id":"94ba7dfe-374a-4038-bcf3-a7b3a3f5d3ec","system_id":"levelo_inurba_marseille","lat":43.30265,"lon":5.37701,"is_reserved":false,"is_disabled":false,"rental_uris":{"android":"levelo://app?vid=94ba7dfe-374a-4038-bcf3-a7b3a3f5d3ec","ios":"levelo://app?vid=94ba7dfe-374a-4038-bcf3-a7b3a3f5d3ec"},"vehicle_type_id":"4","last_reported":1686917538,"current_range_meters":12800,"station_id":"ce4bguh2rcd13ifvqcj0","pricing_plan_id":"free"},{"bike_id":"08cb79d7-ce64-4643-93dd-db50c6405beb","system_id":"levelo_inurba_marseille","lat":43.3014,"lon":5.37421,"is_reserved":false,"is_disabled":false,"rental_uris":{"android":"levelo://app?vid=08cb79d7-ce64-4643-93dd-db50c6405beb","ios":"levelo://app?vid=08cb79d7-ce64-4643-93dd-db50c6405beb"},"vehicle_type_id":"4","last_reported":1686917538,"current_range_meters":16000,"station_id":"ce4bgs92rcd13ifvqcc0","pricing_plan_id":"free"},{"bike_id":"23a36f57-736e-464b-b62c-4c6dcfa99acb","system_id":"levelo_inurba_marseille","lat":43.32,"lon":5.38159,"is_reserved":false,"is_disabled":false,"rental_uris":{"android":"levelo://app?vid=23a36f57-736e-464b-b62c-4c6dcfa99acb","ios":"levelo://app?vid=23a36f57-736e-464b-b62c-4c6dcfa99acb"},"vehicle_type_id":"4","last_reported":1686917538,"current_range_meters":4400,"station_id":"ce4bhr12rcd13ifvqhpg","pricing_plan_id":"free"},{"bike_id":"938c2523-e163-430c-9aa5-25a14ff7427d","system_id":"levelo_inurba_marseille","lat":43.29979,"lon":5.36775,"is_reserved":false,"is_disabled":false,"rental_uris":{"android":"levelo://app?vid=938c2523-e163-430c-9aa5-25a14ff7427d","ios":"levelo://app?vid=938c2523-e163-430c-9aa5-25a14ff7427d"},"vehicle_type_id":"4","last_reported":1686917538,"current_range_meters":18000,"station_id":"","pricing_plan_id":"free"},{"bike_id":"56606d34-50a5-464f-a8e5-e50267034007","system_id":"levelo_inurba_marseille","lat":43.29939,"lon":5.36562,"is_reserved":false,"is_disabled":false,"rental_uris":{"android":"levelo://app?vid=56606d34-50a5-464f-a8e5-e50267034007","ios":"levelo://app?vid=56606d34-50a5-464f-a8e5-e50267034007"},"vehicle_type_id":"4","last_reported":1686917538,"current_range_meters":8800,"station_id":"ce4bgm92rcd13ifvqbr0","pricing_plan_id":"free"},{"bike_id":"1a59793c-04d9-4428-9dd9-2c79a26b97e1","system_id":"levelo_inurba_marseille","lat":43.299222,"lon":5.365554,"is_reserved":false,"is_disabled":false,"rental_uris":{"android":"levelo://app?vid=1a59793c-04d9-4428-9dd9-2c79a26b97e1","ios":"levelo://app?vid=1a59793c-04d9-4428-9dd9-2c79a26b97e1"},"vehicle_type_id":"4","last_reported":1686917538,"current_range_meters":14000,"station_id":"ce4bgm92rcd13ifvqbr0","pricing_plan_id":"free"},{"bike_id":"b90e6cfa-0575-4334-8558-cff7c77b9956","system_id":"levelo_inurba_marseille","lat":43.299222,"lon":5.365554,"is_reserved":false,"is_disabled":false,"rental_uris":{"android":"levelo://app?vid=b90e6cfa-0575-4334-8558-cff7c77b9956","ios":"levelo://app?vid=b90e6cfa-0575-4334-8558-cff7c77b9956"},"vehicle_type_id":"4","last_reported":1686917538,"current_range_meters":11600,"station_id":"ce4bgm92rcd13ifvqbr0","pricing_plan_id":"free"},{"bike_id":"7945d8a1-54dc-4a30-910d-9390ec00622e","system_id":"levelo_inurba_marseille","lat":43.299222,"lon":5.365554,"is_reserved":false,"is_disabled":false,"rental_uris":{"android":"levelo://app?vid=7945d8a1-54dc-4a30-910d-9390ec00622e","ios":"levelo://app?vid=7945d8a1-54dc-4a30-910d-9390ec00622e"},"vehicle_type_id":"4","last_reported":1686917538,"current_range_meters":28400,"station_id":"ce4bgm92rcd13ifvqbr0","pricing_plan_id":"free"},{"bike_id":"215c31be-3ff1-410e-ad8d-1aef1a6870a9","system_id":"levelo_inurba_marseille","lat":43.299222,"lon":5.365554,"is_reserved":false,"is_disabled":false,"rental_uris":{"android":"levelo://app?vid=215c31be-3ff1-410e-ad8d-1aef1a6870a9","ios":"levelo://app?vid=215c31be-3ff1-410e-ad8d-1aef1a6870a9"},"vehicle_type_id":"4","last_reported":1686917538,"current_range_meters":18000,"station_id":"ce4bgm92rcd13ifvqbr0","pricing_plan_id":"free"},{"bike_id":"a991d523-cdd6-4fb1-8764-05016eef028c","system_id":"levelo_inurba_marseille","lat":43.29927,"lon":5.36545,"is_reserved":false,"is_disabled":false,"rental_uris":{"android":"levelo://app?vid=a991d523-cdd6-4fb1-8764-05016eef028c","ios":"levelo://app?vid=a991d523-cdd6-4fb1-8764-05016eef028c"},"vehicle_type_id":"4","last_reported":1686917538,"current_range_meters":24400,"station_id":"","pricing_plan_id":"free"},{"bike_id":"07f1f9b5-00d0-4c76-a348-49478532ffb0","system_id":"levelo_inurba_marseille","lat":43.299222,"lon":5.365554,"is_reserved":false,"is_disabled":false,"rental_uris":{"android":"levelo://app?vid=07f1f9b5-00d0-4c76-a348-49478532ffb0","ios":"levelo://app?vid=07f1f9b5-00d0-4c76-a348-49478532ffb0"},"vehicle_type_id":"4","last_reported":1686917538,"current_range_meters":12800,"station_id":"ce4bgm92rcd13ifvqbr0","pricing_plan_id":"free"},{"bike_id":"6897234c-a5a9-4cc7-b7c3-ee6b0e82e574","system_id":"levelo_inurba_marseille","lat":43.29855,"lon":5.36284,"is_reserved":false,"is_disabled":false,"rental_uris":{"android":"levelo://app?vid=6897234c-a5a9-4cc7-b7c3-ee6b0e82e574","ios":"levelo://app?vid=6897234c-a5a9-4cc7-b7c3-ee6b0e82e574"},"vehicle_type_id":"4","last_reported":1686917538,"current_range_meters":20000,"station_id":"ce4bgpp2rcd13ifvqc3g","pricing_plan_id":"free"},{"bike_id":"486fcfc4-39d1-47d2-bb8c-017eba03d0b9","system_id":"levelo_inurba_marseille","lat":43.2985,"lon":5.36285,"is_reserved":false,"is_disabled":false,"rental_uris":{"android":"levelo://app?vid=486fcfc4-39d1-47d2-bb8c-017eba03d0b9","ios":"levelo://app?vid=486fcfc4-39d1-47d2-bb8c-017eba03d0b9"},"vehicle_type_id":"4","last_reported":1686917538,"current_range_meters":18800,"station_id":"ce4bgpp2rcd13ifvqc3g","pricing_plan_id":"free"},{"bike_id":"407d3c40-1004-4f24-87d1-1582126a7891","system_id":"levelo_inurba_marseille","lat":43.298433,"lon":5.362774,"is_reserved":false,"is_disabled":false,"rental_uris":{"android":"levelo://app?vid=407d3c40-1004-4f24-87d1-1582126a7891","ios":"levelo://app?vid=407d3c40-1004-4f24-87d1-1582126a7891"},"vehicle_type_id":"4","last_reported":1686917538,"current_range_meters":31200,"station_id":"ce4bgpp2rcd13ifvqc3g","pricing_plan_id":"free"},{"bike_id":"46c86b71-3ed5-4b01-a764-aba9ea59368c","system_id":"levelo_inurba_marseille","lat":43.29849,"lon":5.36282,"is_reserved":false,"is_disabled":false,"rental_uris":{"android":"levelo://app?vid=46c86b71-3ed5-4b01-a764-aba9ea59368c","ios":"levelo://app?vid=46c86b71-3ed5-4b01-a764-aba9ea59368c"},"vehicle_type_id":"4","last_reported":1686917538,"current_range_meters":30000,"station_id":"ce4bgpp2rcd13ifvqc3g","pricing_plan_id":"free"},{"bike_id":"18db56ba-c467-41af-b430-4bf1152550ac","system_id":"levelo_inurba_marseille","lat":43.29848,"lon":5.36287,"is_reserved":false,"is_disabled":false,"rental_uris":{"android":"levelo://app?vid=18db56ba-c467-41af-b430-4bf1152550ac","ios":"levelo://app?vid=18db56ba-c467-41af-b430-4bf1152550ac"},"vehicle_type_id":"4","last_reported":1686917538,"current_range_meters":25600,"station_id":"ce4bgpp2rcd13ifvqc3g","pricing_plan_id":"free"},{"bike_id":"e3f10ae3-a4de-49b2-ad11-36803c791557","system_id":"levelo_inurba_marseille","lat":43.29849,"lon":5.3628,"is_reserved":false,"is_disabled":false,"rental_uris":{"android":"levelo://app?vid=e3f10ae3-a4de-49b2-ad11-36803c791557","ios":"levelo://app?vid=e3f10ae3-a4de-49b2-ad11-36803c791557"},"vehicle_type_id":"4","last_reported":1686917538,"current_range_meters":20800,"station_id":"ce4bgpp2rcd13ifvqc3g","pricing_plan_id":"free"},{"bike_id":"76e6fb7a-5d91-4a1b-81d4-16a75983c290","system_id":"levelo_inurba_marseille","lat":43.29848,"lon":5.36283,"is_reserved":false,"is_disabled":false,"rental_uris":{"android":"levelo://app?vid=76e6fb7a-5d91-4a1b-81d4-16a75983c290","ios":"levelo://app?vid=76e6fb7a-5d91-4a1b-81d4-16a75983c290"},"vehicle_type_id":"4","last_reported":1686917538,"current_range_meters":24000,"station_id":"ce4bgpp2rcd13ifvqc3g","pricing_plan_id":"free"},{"bike_id":"c3b8ce03-c733-4ceb-bd1f-743e6ce6d59a","system_id":"levelo_inurba_marseille","lat":43.298433,"lon":5.362774,"is_reserved":false,"is_disabled":false,"rental_uris":{"android":"levelo://app?vid=c3b8ce03-c733-4ceb-bd1f-743e6ce6d59a","ios":"levelo://app?vid=c3b8ce03-c733-4ceb-bd1f-743e6ce6d59a"},"vehicle_type_id":"4","last_reported":1686917538,"current_range_meters":27600,"station_id":"ce4bgpp2rcd13ifvqc3g","pricing_plan_id":"free"},{"bike_id":"6b73607f-f102-4702-a6fe-9ef4fe608e33","system_id":"levelo_inurba_marseille","lat":43.29848,"lon":5.36279,"is_reserved":false,"is_disabled":false,"rental_uris":{"android":"levelo://app?vid=6b73607f-f102-4702-a6fe-9ef4fe608e33","ios":"levelo://app?vid=6b73607f-f102-4702-a6fe-9ef4fe608e33"},"vehicle_type_id":"4","last_reported":1686917538,"current_range_meters":29200,"station_id":"ce4bgpp2rcd13ifvqc3g","pricing_plan_id":"free"},{"bike_id":"475358c3-8ebd-4dbf-a448-a96c2b08f378","system_id":"levelo_inurba_marseille","lat":43.29842,"lon":5.36283,"is_reserved":false,"is_disabled":false,"rental_uris":{"android":"levelo://app?vid=475358c3-8ebd-4dbf-a448-a96c2b08f378","ios":"levelo://app?vid=475358c3-8ebd-4dbf-a448-a96c2b08f378"},"vehicle_type_id":"4","last_reported":1686917538,"current_range_meters":20400,"station_id":"ce4bgpp2rcd13ifvqc3g","pricing_plan_id":"free"},{"bike_id":"9ceaa0e3-c677-4950-b78b-b4501ada5b7f","system_id":"levelo_inurba_marseille","lat":43.298433,"lon":5.362774,"is_reserved":false,"is_disabled":false,"rental_uris":{"android":"levelo://app?vid=9ceaa0e3-c677-4950-b78b-b4501ada5b7f","ios":"levelo://app?vid=9ceaa0e3-c677-4950-b78b-b4501ada5b7f"},"vehicle_type_id":"4","last_reported":1686917538,"current_range_meters":31200,"station_id":"ce4bgpp2rcd13ifvqc3g","pricing_plan_id":"free"},{"bike_id":"99c8dfe4-171c-40a3-bcbd-6b7b774e31a3","system_id":"levelo_inurba_marseille","lat":43.298433,"lon":5.362774,"is_reserved":false,"is_disabled":false,"rental_uris":{"android":"levelo://app?vid=99c8dfe4-171c-40a3-bcbd-6b7b774e31a3","ios":"levelo://app?vid=99c8dfe4-171c-40a3-bcbd-6b7b774e31a3"},"vehicle_type_id":"4","last_reported":1686917538,"current_range_meters":22800,"station_id":"ce4bgpp2rcd13ifvqc3g","pricing_plan_id":"free"},{"bike_id":"a61355d7-3594-458d-8250-9283c321ed01","system_id":"levelo_inurba_marseille","lat":43.298433,"lon":5.362774,"is_reserved":false,"is_disabled":false,"rental_uris":{"android":"levelo://app?vid=a61355d7-3594-458d-8250-9283c321ed01","ios":"levelo://app?vid=a61355d7-3594-458d-8250-9283c321ed01"},"vehicle_type_id":"4","last_reported":1686917538,"current_range_meters":29600,"station_id":"ce4bgpp2rcd13ifvqc3g","pricing_plan_id":"free"},{"bike_id":"d7334887-ee35-4e9e-aee3-4d2d8e0b7f32","system_id":"levelo_inurba_marseille","lat":43.298433,"lon":5.362774,"is_reserved":false,"is_disabled":false,"rental_uris":{"android":"levelo://app?vid=d7334887-ee35-4e9e-aee3-4d2d8e0b7f32","ios":"levelo://app?vid=d7334887-ee35-4e9e-aee3-4d2d8e0b7f32"},"vehicle_type_id":"4","last_reported":1686917538,"current_range_meters":31200,"station_id":"ce4bgpp2rcd13ifvqc3g","pricing_plan_id":"free"},{"bike_id":"a589b62f-bcb7-4ed8-aa75-016343046eca","system_id":"levelo_inurba_marseille","lat":43.311722,"lon":5.387247,"is_reserved":false,"is_disabled":false,"rental_uris":{"android":"levelo://app?vid=a589b62f-bcb7-4ed8-aa75-016343046eca","ios":"levelo://app?vid=a589b62f-bcb7-4ed8-aa75-016343046eca"},"vehicle_type_id":"4","last_reported":1686917538,"current_range_meters":10800,"station_id":"ce4bgv12rcd13ifvqcp0","pricing_plan_id":"free"},{"bike_id":"a7f475b6-ad6d-4df6-a7d7-fe374da9bc66","system_id":"levelo_inurba_marseille","lat":43.311722,"lon":5.387247,"is_reserved":false,"is_disabled":false,"rental_uris":{"android":"levelo://app?vid=a7f475b6-ad6d-4df6-a7d7-fe374da9bc66","ios":"levelo://app?vid=a7f475b6-ad6d-4df6-a7d7-fe374da9bc66"},"vehicle_type_id":"4","last_reported":1686917538,"current_range_meters":30000,"station_id":"ce4bgv12rcd13ifvqcp0","pricing_plan_id":"free"},{"bike_id":"ac552d3c-8a71-491d-94f2-5ac56e122ef1","system_id":"levelo_inurba_marseille","lat":43.311722,"lon":5.387247,"is_reserved":false,"is_disabled":false,"rental_uris":{"android":"levelo://app?vid=ac552d3c-8a71-491d-94f2-5ac56e122ef1","ios":"levelo://app?vid=ac552d3c-8a71-491d-94f2-5ac56e122ef1"},"vehicle_type_id":"4","last_reported":1686917538,"current_range_meters":31600,"station_id":"ce4bgv12rcd13ifvqcp0","pricing_plan_id":"free"},{"bike_id":"3390b8b1-1301-4241-80a2-5793238a197e","system_id":"levelo_inurba_marseille","lat":43.299243,"lon":5.37481,"is_reserved":false,"is_disabled":false,"rental_uris":{"android":"levelo://app?vid=3390b8b1-1301-4241-80a2-5793238a197e","ios":"levelo://app?vid=3390b8b1-1301-4241-80a2-5793238a197e"},"vehicle_type_id":"4","last_reported":1686917538,"current_range_meters":31600,"station_id":"ce4bgjh2rcd13ifvqbg0","pricing_plan_id":"free"},{"bike_id":"7e2709fe-40ee-4273-8d19-e2896470c34d","system_id":"levelo_inurba_marseille","lat":43.311722,"lon":5.387247,"is_reserved":false,"is_disabled":false,"rental_uris":{"android":"levelo://app?vid=7e2709fe-40ee-4273-8d19-e2896470c34d","ios":"levelo://app?vid=7e2709fe-40ee-4273-8d19-e2896470c34d"},"vehicle_type_id":"4","last_reported":1686917538,"current_range_meters":28000,"station_id":"ce4bgv12rcd13ifvqcp0","pricing_plan_id":"free"},{"bike_id":"d2e1a6c0-dcab-4dfb-b86f-5e19d9cdeb54","system_id":"levelo_inurba_marseille","lat":43.311722,"lon":5.387247,"is_reserved":false,"is_disabled":false,"rental_uris":{"android":"levelo://app?vid=d2e1a6c0-dcab-4dfb-b86f-5e19d9cdeb54","ios":"levelo://app?vid=d2e1a6c0-dcab-4dfb-b86f-5e19d9cdeb54"},"vehicle_type_id":"4","last_reported":1686917538,"current_range_meters":31200,"station_id":"ce4bgv12rcd13ifvqcp0","pricing_plan_id":"free"},{"bike_id":"6ca20032-c812-422f-92dc-5e9e6bbdf7d0","system_id":"levelo_inurba_marseille","lat":43.311722,"lon":5.387247,"is_reserved":false,"is_disabled":false,"rental_uris":{"android":"levelo://app?vid=6ca20032-c812-422f-92dc-5e9e6bbdf7d0","ios":"levelo://app?vid=6ca20032-c812-422f-92dc-5e9e6bbdf7d0"},"vehicle_type_id":"4","last_reported":1686917538,"current_range_meters":26800,"station_id":"ce4bgv12rcd13ifvqcp0","pricing_plan_id":"free"},{"bike_id":"d00967a2-a797-4362-982f-0c724222f035","system_id":"levelo_inurba_marseille","lat":43.297794,"lon":5.370888,"is_reserved":false,"is_disabled":false,"rental_uris":{"android":"levelo://app?vid=d00967a2-a797-4362-982f-0c724222f035","ios":"levelo://app?vid=d00967a2-a797-4362-982f-0c724222f035"},"vehicle_type_id":"4","last_reported":1686917538,"current_range_meters":29200,"station_id":"ce4bgop2rcd13ifvqc1g","pricing_plan_id":"free"},{"bike_id":"f84e98cb-0183-4607-a957-d162d9ffa59b","system_id":"levelo_inurba_marseille","lat":43.297794,"lon":5.370888,"is_reserved":false,"is_disabled":false,"rental_uris":{"android":"levelo://app?vid=f84e98cb-0183-4607-a957-d162d9ffa59b","ios":"levelo://app?vid=f84e98cb-0183-4607-a957-d162d9ffa59b"},"vehicle_type_id":"4","last_reported":1686917538,"current_range_meters":17200,"station_id":"ce4bgop2rcd13ifvqc1g","pricing_plan_id":"free"},{"bike_id":"099d5bc2-fb7d-4f93-b471-20300fd63a04","system_id":"levelo_inurba_marseille","lat":43.328371,"lon":5.366909,"is_reserved":false,"is_disabled":false,"rental_uris":{"android":"levelo://app?vid=099d5bc2-fb7d-4f93-b471-20300fd63a04","ios":"levelo://app?vid=099d5bc2-fb7d-4f93-b471-20300fd63a04"},"vehicle_type_id":"4","last_reported":1686917538,"current_range_meters":20400,"station_id":"ce4bhs92rcd13ifvqi0g","pricing_plan_id":"free"},{"bike_id":"f3e97ff2-d312-40a6-b781-e19f347f1ff4","system_id":"levelo_inurba_marseille","lat":43.328371,"lon":5.366909,"is_reserved":false,"is_disabled":false,"rental_uris":{"android":"levelo://app?vid=f3e97ff2-d312-40a6-b781-e19f347f1ff4","ios":"levelo://app?vid=f3e97ff2-d312-40a6-b781-e19f347f1ff4"},"vehicle_type_id":"4","last_reported":1686917538,"current_range_meters":24000,"station_id":"ce4bhs92rcd13ifvqi0g","pricing_plan_id":"free"},{"bike_id":"b03d88f8-bf3f-46ac-9bbf-b15e89df07c3","system_id":"levelo_inurba_marseille","lat":43.328371,"lon":5.366909,"is_reserved":false,"is_disabled":false,"rental_uris":{"android":"levelo://app?vid=b03d88f8-bf3f-46ac-9bbf-b15e89df07c3","ios":"levelo://app?vid=b03d88f8-bf3f-46ac-9bbf-b15e89df07c3"},"vehicle_type_id":"4","last_reported":1686917538,"current_range_meters":10400,"station_id":"ce4bhs92rcd13ifvqi0g","pricing_plan_id":"free"},{"bike_id":"d8ab7120-5db4-4f8a-92b5-f55006e30150","system_id":"levelo_inurba_marseille","lat":43.328371,"lon":5.366909,"is_reserved":false,"is_disabled":false,"rental_uris":{"android":"levelo://app?vid=d8ab7120-5db4-4f8a-92b5-f55006e30150","ios":"levelo://app?vid=d8ab7120-5db4-4f8a-92b5-f55006e30150"},"vehicle_type_id":"4","last_reported":1686917538,"current_range_meters":10800,"station_id":"ce4bhs92rcd13ifvqi0g","pricing_plan_id":"free"},{"bike_id":"d5904ea4-b5cd-4515-b6c3-61ba5c57dec9","system_id":"levelo_inurba_marseille","lat":43.32827,"lon":5.36687,"is_reserved":false,"is_disabled":false,"rental_uris":{"android":"levelo://app?vid=d5904ea4-b5cd-4515-b6c3-61ba5c57dec9","ios":"levelo://app?vid=d5904ea4-b5cd-4515-b6c3-61ba5c57dec9"},"vehicle_type_id":"4","last_reported":1686917538,"current_range_meters":7200,"station_id":"ce4bhs92rcd13ifvqi0g","pricing_plan_id":"free"},{"bike_id":"5aea4ff9-b794-49fa-b864-ba4cf0a9088f","system_id":"levelo_inurba_marseille","lat":43.328371,"lon":5.366912,"is_reserved":false,"is_disabled":false,"rental_uris":{"android":"levelo://app?vid=5aea4ff9-b794-49fa-b864-ba4cf0a9088f","ios":"levelo://app?vid=5aea4ff9-b794-49fa-b864-ba4cf0a9088f"},"vehicle_type_id":"4","last_reported":1686917538,"current_range_meters":4000,"station_id":"ce4bhs92rcd13ifvqi0g","pricing_plan_id":"free"},{"bike_id":"51121d58-1d44-48db-a97a-278b98c02e82","system_id":"levelo_inurba_marseille","lat":43.297163,"lon":5.365866,"is_reserved":false,"is_disabled":false,"rental_uris":{"android":"levelo://app?vid=51121d58-1d44-48db-a97a-278b98c02e82","ios":"levelo://app?vid=51121d58-1d44-48db-a97a-278b98c02e82"},"vehicle_type_id":"4","last_reported":1686917538,"current_range_meters":26000,"station_id":"ce4bgn12rcd13ifvqbt0","pricing_plan_id":"free"},{"bike_id":"1c5e92ee-c7f6-44fc-a763-adb390bddde1","system_id":"levelo_inurba_marseille","lat":43.297163,"lon":5.365866,"is_reserved":false,"is_disabled":false,"rental_uris":{"android":"levelo://app?vid=1c5e92ee-c7f6-44fc-a763-adb390bddde1","ios":"levelo://app?vid=1c5e92ee-c7f6-44fc-a763-adb390bddde1"},"vehicle_type_id":"4","last_reported":1686917538,"current_range_meters":28800,"station_id":"ce4bgn12rcd13ifvqbt0","pricing_plan_id":"free"},{"bike_id":"c6a275dd-23ca-4fc8-b334-b9ed20ef6ddc","system_id":"levelo_inurba_marseille","lat":43.29711,"lon":5.3662,"is_reserved":false,"is_disabled":false,"rental_uris":{"android":"levelo://app?vid=c6a275dd-23ca-4fc8-b334-b9ed20ef6ddc","ios":"levelo://app?vid=c6a275dd-23ca-4fc8-b334-b9ed20ef6ddc"},"vehicle_type_id":"4","last_reported":1686917538,"current_range_meters":6400,"station_id":"ce4bgn12rcd13ifvqbt0","pricing_plan_id":"free"},{"bike_id":"2f7edc5d-64ad-494f-b964-2d58d1b66c08","system_id":"levelo_inurba_marseille","lat":43.297163,"lon":5.365866,"is_reserved":false,"is_disabled":false,"rental_uris":{"android":"levelo://app?vid=2f7edc5d-64ad-494f-b964-2d58d1b66c08","ios":"levelo://app?vid=2f7edc5d-64ad-494f-b964-2d58d1b66c08"},"vehicle_type_id":"4","last_reported":1686917538,"current_range_meters":14800,"station_id":"ce4bgn12rcd13ifvqbt0","pricing_plan_id":"free"},{"bike_id":"9c364e07-1b5c-467b-bded-543b0ccb55ab","system_id":"levelo_inurba_marseille","lat":43.297163,"lon":5.365866,"is_reserved":false,"is_disabled":false,"rental_uris":{"android":"levelo://app?vid=9c364e07-1b5c-467b-bded-543b0ccb55ab","ios":"levelo://app?vid=9c364e07-1b5c-467b-bded-543b0ccb55ab"},"vehicle_type_id":"4","last_reported":1686917538,"current_range_meters":3200,"station_id":"ce4bgn12rcd13ifvqbt0","pricing_plan_id":"free"},{"bike_id":"88d0330c-5bb0-4a19-9b65-d4683b42e015","system_id":"levelo_inurba_marseille","lat":43.29683,"lon":5.36046,"is_reserved":false,"is_disabled":false,"rental_uris":{"android":"levelo://app?vid=88d0330c-5bb0-4a19-9b65-d4683b42e015","ios":"levelo://app?vid=88d0330c-5bb0-4a19-9b65-d4683b42e015"},"vehicle_type_id":"4","last_reported":1686917538,"current_range_meters":10400,"station_id":"ce4bgpp2rcd13ifvqc3g","pricing_plan_id":"free"},{"bike_id":"5f428d5e-9526-44bd-a97f-97b151bf1098","system_id":"levelo_inurba_marseille","lat":43.29621,"lon":5.3717,"is_reserved":false,"is_disabled":false,"rental_uris":{"android":"levelo://app?vid=5f428d5e-9526-44bd-a97f-97b151bf1098","ios":"levelo://app?vid=5f428d5e-9526-44bd-a97f-97b151bf1098"},"vehicle_type_id":"4","last_reported":1686917538,"current_range_meters":18400,"station_id":"","pricing_plan_id":"free"},{"bike_id":"e3370814-d945-41e3-bd61-a3ca85183bee","system_id":"levelo_inurba_marseille","lat":43.296129,"lon":5.370777,"is_reserved":false,"is_disabled":false,"rental_uris":{"android":"levelo://app?vid=e3370814-d945-41e3-bd61-a3ca85183bee","ios":"levelo://app?vid=e3370814-d945-41e3-bd61-a3ca85183bee"},"vehicle_type_id":"4","last_reported":1686917538,"current_range_meters":24800,"station_id":"ce4bgnh2rcd13ifvqc0g","pricing_plan_id":"free"},{"bike_id":"444c11eb-8d68-4e2e-a885-c00330edfcdf","system_id":"levelo_inurba_marseille","lat":43.29573,"lon":5.367355,"is_reserved":false,"is_disabled":false,"rental_uris":{"android":"levelo://app?vid=444c11eb-8d68-4e2e-a885-c00330edfcdf","ios":"levelo://app?vid=444c11eb-8d68-4e2e-a885-c00330edfcdf"},"vehicle_type_id":"4","last_reported":1686917538,"current_range_meters":30000,"station_id":"ce4bgph2rcd13ifvqc2g","pricing_plan_id":"free"},{"bike_id":"0120d9c0-e289-4d28-b380-ce747180535c","system_id":"levelo_inurba_marseille","lat":43.29573,"lon":5.367355,"is_reserved":false,"is_disabled":false,"rental_uris":{"android":"levelo://app?vid=0120d9c0-e289-4d28-b380-ce747180535c","ios":"levelo://app?vid=0120d9c0-e289-4d28-b380-ce747180535c"},"vehicle_type_id":"4","last_reported":1686917538,"current_range_meters":32000,"station_id":"ce4bgph2rcd13ifvqc2g","pricing_plan_id":"free"},{"bike_id":"5127301a-1d1e-4239-82bb-c8b62f4d6311","system_id":"levelo_inurba_marseille","lat":43.29573,"lon":5.367355,"is_reserved":false,"is_disabled":false,"rental_uris":{"android":"levelo://app?vid=5127301a-1d1e-4239-82bb-c8b62f4d6311","ios":"levelo://app?vid=5127301a-1d1e-4239-82bb-c8b62f4d6311"},"vehicle_type_id":"4","last_reported":1686917538,"current_range_meters":25600,"station_id":"ce4bgph2rcd13ifvqc2g","pricing_plan_id":"free"},{"bike_id":"0c900069-63d3-42d5-8a9b-1489d5b25ac8","system_id":"levelo_inurba_marseille","lat":43.296921,"lon":5.376579,"is_reserved":false,"is_disabled":false,"rental_uris":{"android":"levelo://app?vid=0c900069-63d3-42d5-8a9b-1489d5b25ac8","ios":"levelo://app?vid=0c900069-63d3-42d5-8a9b-1489d5b25ac8"},"vehicle_type_id":"4","last_reported":1686917538,"current_range_meters":11200,"station_id":"ce4bgkh2rcd13ifvqbl0","pricing_plan_id":"free"},{"bike_id":"ecfb7909-6146-4ae3-a272-c9564afe9fe4","system_id":"levelo_inurba_marseille","lat":43.299028,"lon":5.381509,"is_reserved":false,"is_disabled":false,"rental_uris":{"android":"levelo://app?vid=ecfb7909-6146-4ae3-a272-c9564afe9fe4","ios":"levelo://app?vid=ecfb7909-6146-4ae3-a272-c9564afe9fe4"},"vehicle_type_id":"4","last_reported":1686917538,"current_range_meters":27600,"station_id":"ce4bgj12rcd13ifvqbc0","pricing_plan_id":"free"},{"bike_id":"2262f3f3-10b4-42bc-8ee3-52d8d8fdfd35","system_id":"levelo_inurba_marseille","lat":43.297079,"lon":5.376946,"is_reserved":false,"is_disabled":false,"rental_uris":{"android":"levelo://app?vid=2262f3f3-10b4-42bc-8ee3-52d8d8fdfd35","ios":"levelo://app?vid=2262f3f3-10b4-42bc-8ee3-52d8d8fdfd35"},"vehicle_type_id":"4","last_reported":1686917538,"current_range_meters":16000,"station_id":"ce4bgkh2rcd13ifvqbl0","pricing_plan_id":"free"},{"bike_id":"ad9155ff-d876-4ac6-8095-8a9b550a5033","system_id":"levelo_inurba_marseille","lat":43.29703,"lon":5.37699,"is_reserved":false,"is_disabled":false,"rental_uris":{"android":"levelo://app?vid=ad9155ff-d876-4ac6-8095-8a9b550a5033","ios":"levelo://app?vid=ad9155ff-d876-4ac6-8095-8a9b550a5033"},"vehicle_type_id":"4","last_reported":1686917538,"current_range_meters":7200,"station_id":"","pricing_plan_id":"free"},{"bike_id":"d99815ef-5328-4199-9483-46f569518fc4","system_id":"levelo_inurba_marseille","lat":43.299028,"lon":5.381509,"is_reserved":false,"is_disabled":false,"rental_uris":{"android":"levelo://app?vid=d99815ef-5328-4199-9483-46f569518fc4","ios":"levelo://app?vid=d99815ef-5328-4199-9483-46f569518fc4"},"vehicle_type_id":"4","last_reported":1686917538,"current_range_meters":28800,"station_id":"ce4bgj12rcd13ifvqbc0","pricing_plan_id":"free"},{"bike_id":"cd0480e8-5668-4d40-982f-93a3ca8aae4d","system_id":"levelo_inurba_marseille","lat":43.296935,"lon":5.376544,"is_reserved":false,"is_disabled":false,"rental_uris":{"android":"levelo://app?vid=cd0480e8-5668-4d40-982f-93a3ca8aae4d","ios":"levelo://app?vid=cd0480e8-5668-4d40-982f-93a3ca8aae4d"},"vehicle_type_id":"4","last_reported":1686917538,"current_range_meters":16400,"station_id":"ce4bgkh2rcd13ifvqbl0","pricing_plan_id":"free"},{"bike_id":"26ff5b3d-46e7-46be-a111-d2aa27a7c15c","system_id":"levelo_inurba_marseille","lat":43.299028,"lon":5.381509,"is_reserved":false,"is_disabled":false,"rental_uris":{"android":"levelo://app?vid=26ff5b3d-46e7-46be-a111-d2aa27a7c15c","ios":"levelo://app?vid=26ff5b3d-46e7-46be-a111-d2aa27a7c15c"},"vehicle_type_id":"4","last_reported":1686917538,"current_range_meters":31200,"station_id":"ce4bgj12rcd13ifvqbc0","pricing_plan_id":"free"},{"bike_id":"4646b6c3-baab-44ee-b82f-2f8d1ea058a4","system_id":"levelo_inurba_marseille","lat":43.317557,"lon":5.390173,"is_reserved":false,"is_disabled":false,"rental_uris":{"android":"levelo://app?vid=4646b6c3-baab-44ee-b82f-2f8d1ea058a4","ios":"levelo://app?vid=4646b6c3-baab-44ee-b82f-2f8d1ea058a4"},"vehicle_type_id":"4","last_reported":1686917538,"current_range_meters":5600,"station_id":"ce4bhqp2rcd13ifvqhng","pricing_plan_id":"free"},{"bike_id":"89daf298-7b72-4787-ade7-b88e4e73a6e2","system_id":"levelo_inurba_marseille","lat":43.295748,"lon":5.37522,"is_reserved":false,"is_disabled":false,"rental_uris":{"android":"levelo://app?vid=89daf298-7b72-4787-ade7-b88e4e73a6e2","ios":"levelo://app?vid=89daf298-7b72-4787-ade7-b88e4e73a6e2"},"vehicle_type_id":"4","last_reported":1686917538,"current_range_meters":6400,"station_id":"ce4bgh92rcd13ifvqb50","pricing_plan_id":"free"},{"bike_id":"250c8a96-8498-4211-b8f3-1b00a8d1fbaf","system_id":"levelo_inurba_marseille","lat":43.296477,"lon":5.37768,"is_reserved":false,"is_disabled":false,"rental_uris":{"android":"levelo://app?vid=250c8a96-8498-4211-b8f3-1b00a8d1fbaf","ios":"levelo://app?vid=250c8a96-8498-4211-b8f3-1b00a8d1fbaf"},"vehicle_type_id":"4","last_reported":1686917538,"current_range_meters":20400,"station_id":"","pricing_plan_id":"free"},{"bike_id":"0562b087-6890-47f8-b65e-14a2b705ead0","system_id":"levelo_inurba_marseille","lat":43.296277,"lon":5.377108,"is_reserved":false,"is_disabled":false,"rental_uris":{"android":"levelo://app?vid=0562b087-6890-47f8-b65e-14a2b705ead0","ios":"levelo://app?vid=0562b087-6890-47f8-b65e-14a2b705ead0"},"vehicle_type_id":"4","last_reported":1686917538,"current_range_meters":20800,"station_id":"ce4bgi92rcd13ifvqb90","pricing_plan_id":"free"},{"bike_id":"9da65907-2a34-4cc2-92ff-1efe86ba9bca","system_id":"levelo_inurba_marseille","lat":43.304274,"lon":5.388873,"is_reserved":false,"is_disabled":false,"rental_uris":{"android":"levelo://app?vid=9da65907-2a34-4cc2-92ff-1efe86ba9bca","ios":"levelo://app?vid=9da65907-2a34-4cc2-92ff-1efe86ba9bca"},"vehicle_type_id":"4","last_reported":1686917538,"current_range_meters":13200,"station_id":"ce4bgk12rcd13ifvqbi0","pricing_plan_id":"free"},{"bike_id":"8ff43016-effc-4157-b871-584c11706f73","system_id":"levelo_inurba_marseille","lat":43.3236,"lon":5.38871,"is_reserved":false,"is_disabled":false,"rental_uris":{"android":"levelo://app?vid=8ff43016-effc-4157-b871-584c11706f73","ios":"levelo://app?vid=8ff43016-effc-4157-b871-584c11706f73"},"vehicle_type_id":"4","last_reported":1686917538,"current_range_meters":28000,"station_id":"ce4bhqp2rcd13ifvqhog","pricing_plan_id":"free"},{"bike_id":"2c9ad911-25e0-4222-8751-d809dfadd582","system_id":"levelo_inurba_marseille","lat":43.32365,"lon":5.38869,"is_reserved":false,"is_disabled":false,"rental_uris":{"android":"levelo://app?vid=2c9ad911-25e0-4222-8751-d809dfadd582","ios":"levelo://app?vid=2c9ad911-25e0-4222-8751-d809dfadd582"},"vehicle_type_id":"4","last_reported":1686917538,"current_range_meters":6400,"station_id":"ce4bhqp2rcd13ifvqhog","pricing_plan_id":"free"},{"bike_id":"eeee5b7d-ef76-4f54-91d8-75ef7b7c61b8","system_id":"levelo_inurba_marseille","lat":43.32364,"lon":5.38871,"is_reserved":false,"is_disabled":false,"rental_uris":{"android":"levelo://app?vid=eeee5b7d-ef76-4f54-91d8-75ef7b7c61b8","ios":"levelo://app?vid=eeee5b7d-ef76-4f54-91d8-75ef7b7c61b8"},"vehicle_type_id":"4","last_reported":1686917538,"current_range_meters":10400,"station_id":"ce4bhqp2rcd13ifvqhog","pricing_plan_id":"free"},{"bike_id":"242f12a2-fa6d-4b5f-9c1c-53e395dd5e66","system_id":"levelo_inurba_marseille","lat":43.32366,"lon":5.38871,"is_reserved":false,"is_disabled":false,"rental_uris":{"android":"levelo://app?vid=242f12a2-fa6d-4b5f-9c1c-53e395dd5e66","ios":"levelo://app?vid=242f12a2-fa6d-4b5f-9c1c-53e395dd5e66"},"vehicle_type_id":"4","last_reported":1686917538,"current_range_meters":20000,"station_id":"ce4bhqp2rcd13ifvqhog","pricing_plan_id":"free"},{"bike_id":"78215555-c896-40a2-aa66-c1d318a07622","system_id":"levelo_inurba_marseille","lat":43.32368,"lon":5.38874,"is_reserved":false,"is_disabled":false,"rental_uris":{"android":"levelo://app?vid=78215555-c896-40a2-aa66-c1d318a07622","ios":"levelo://app?vid=78215555-c896-40a2-aa66-c1d318a07622"},"vehicle_type_id":"4","last_reported":1686917538,"current_range_meters":10800,"station_id":"ce4bhqp2rcd13ifvqhog","pricing_plan_id":"free"},{"bike_id":"11f9ee07-7ce1-4e8e-9c06-00e5e07ef9fb","system_id":"levelo_inurba_marseille","lat":43.32368,"lon":5.38875,"is_reserved":false,"is_disabled":false,"rental_uris":{"android":"levelo://app?vid=11f9ee07-7ce1-4e8e-9c06-00e5e07ef9fb","ios":"levelo://app?vid=11f9ee07-7ce1-4e8e-9c06-00e5e07ef9fb"},"vehicle_type_id":"4","last_reported":1686917538,"current_range_meters":12400,"station_id":"ce4bhqp2rcd13ifvqhog","pricing_plan_id":"free"},{"bike_id":"71deb49d-5864-4461-882a-e14e759319e0","system_id":"levelo_inurba_marseille","lat":43.32365,"lon":5.38883,"is_reserved":false,"is_disabled":false,"rental_uris":{"android":"levelo://app?vid=71deb49d-5864-4461-882a-e14e759319e0","ios":"levelo://app?vid=71deb49d-5864-4461-882a-e14e759319e0"},"vehicle_type_id":"4","last_reported":1686917538,"current_range_meters":6800,"station_id":"ce4bhqp2rcd13ifvqhog","pricing_plan_id":"free"},{"bike_id":"20a5b24d-b520-42df-8ac4-5a606a1b7de6","system_id":"levelo_inurba_marseille","lat":43.32369,"lon":5.38881,"is_reserved":false,"is_disabled":false,"rental_uris":{"android":"levelo://app?vid=20a5b24d-b520-42df-8ac4-5a606a1b7de6","ios":"levelo://app?vid=20a5b24d-b520-42df-8ac4-5a606a1b7de6"},"vehicle_type_id":"4","last_reported":1686917538,"current_range_meters":29600,"station_id":"ce4bhqp2rcd13ifvqhog","pricing_plan_id":"free"},{"bike_id":"6a07caed-c7de-48f8-ab03-dbe598c7cfb9","system_id":"levelo_inurba_marseille","lat":43.29278,"lon":5.36843,"is_reserved":false,"is_disabled":false,"rental_uris":{"android":"levelo://app?vid=6a07caed-c7de-48f8-ab03-dbe598c7cfb9","ios":"levelo://app?vid=6a07caed-c7de-48f8-ab03-dbe598c7cfb9"},"vehicle_type_id":"4","last_reported":1686917538,"current_range_meters":9600,"station_id":"ce4bhbp2rcd13ifvqesg","pricing_plan_id":"free"},{"bike_id":"d23d6add-2a76-4a8c-9694-a6105a37c9d8","system_id":"levelo_inurba_marseille","lat":43.292749,"lon":5.368398,"is_reserved":false,"is_disabled":false,"rental_uris":{"android":"levelo://app?vid=d23d6add-2a76-4a8c-9694-a6105a37c9d8","ios":"levelo://app?vid=d23d6add-2a76-4a8c-9694-a6105a37c9d8"},"vehicle_type_id":"4","last_reported":1686917538,"current_range_meters":20800,"station_id":"ce4bhbp2rcd13ifvqesg","pricing_plan_id":"free"},{"bike_id":"c4c31596-f907-456e-8198-271c28de3279","system_id":"levelo_inurba_marseille","lat":43.302992,"lon":5.392136,"is_reserved":false,"is_disabled":false,"rental_uris":{"android":"levelo://app?vid=c4c31596-f907-456e-8198-271c28de3279","ios":"levelo://app?vid=c4c31596-f907-456e-8198-271c28de3279"},"vehicle_type_id":"4","last_reported":1686917538,"current_range_meters":0,"station_id":"ce4bgkh2rcd13ifvqbk0","pricing_plan_id":"free"},{"bike_id":"d4721a3f-a777-46cb-b18d-8424f3dfebaa","system_id":"levelo_inurba_marseille","lat":43.29881,"lon":5.38905,"is_reserved":false,"is_disabled":false,"rental_uris":{"android":"levelo://app?vid=d4721a3f-a777-46cb-b18d-8424f3dfebaa","ios":"levelo://app?vid=d4721a3f-a777-46cb-b18d-8424f3dfebaa"},"vehicle_type_id":"4","last_reported":1686917538,"current_range_meters":0,"station_id":"ce4bh392rcd13ifvqdl0","pricing_plan_id":"free"},{"bike_id":"9becb078-008e-4e48-9a6c-a3bce47af7f5","system_id":"levelo_inurba_marseille","lat":43.291675,"lon":5.371583,"is_reserved":false,"is_disabled":false,"rental_uris":{"android":"levelo://app?vid=9becb078-008e-4e48-9a6c-a3bce47af7f5","ios":"levelo://app?vid=9becb078-008e-4e48-9a6c-a3bce47af7f5"},"vehicle_type_id":"4","last_reported":1686917538,"current_range_meters":0,"station_id":"ce4bha92rcd13ifvqeh0","pricing_plan_id":"free"},{"bike_id":"f8dd0ac6-ab24-437e-bcc4-c79ade3d9474","system_id":"levelo_inurba_marseille","lat":43.29167,"lon":5.37155,"is_reserved":false,"is_disabled":false,"rental_uris":{"android":"levelo://app?vid=f8dd0ac6-ab24-437e-bcc4-c79ade3d9474","ios":"levelo://app?vid=f8dd0ac6-ab24-437e-bcc4-c79ade3d9474"},"vehicle_type_id":"4","last_reported":1686917538,"current_range_meters":18400,"station_id":"ce4bha92rcd13ifvqeh0","pricing_plan_id":"free"},{"bike_id":"dbe9dc50-a2df-4639-a825-c46d2c816a39","system_id":"levelo_inurba_marseille","lat":43.291637,"lon":5.371535,"is_reserved":false,"is_disabled":false,"rental_uris":{"android":"levelo://app?vid=dbe9dc50-a2df-4639-a825-c46d2c816a39","ios":"levelo://app?vid=dbe9dc50-a2df-4639-a825-c46d2c816a39"},"vehicle_type_id":"4","last_reported":1686917538,"current_range_meters":12000,"station_id":"","pricing_plan_id":"free"},{"bike_id":"fd3cac2e-28f5-482e-b987-a43c51f3ba60","system_id":"levelo_inurba_marseille","lat":43.291675,"lon":5.371583,"is_reserved":false,"is_disabled":false,"rental_uris":{"android":"levelo://app?vid=fd3cac2e-28f5-482e-b987-a43c51f3ba60","ios":"levelo://app?vid=fd3cac2e-28f5-482e-b987-a43c51f3ba60"},"vehicle_type_id":"4","last_reported":1686917538,"current_range_meters":19200,"station_id":"ce4bha92rcd13ifvqeh0","pricing_plan_id":"free"},{"bike_id":"26157d2f-2074-4965-91a7-6fce805c0836","system_id":"levelo_inurba_marseille","lat":43.291675,"lon":5.371583,"is_reserved":false,"is_disabled":false,"rental_uris":{"android":"levelo://app?vid=26157d2f-2074-4965-91a7-6fce805c0836","ios":"levelo://app?vid=26157d2f-2074-4965-91a7-6fce805c0836"},"vehicle_type_id":"4","last_reported":1686917538,"current_range_meters":18400,"station_id":"ce4bha92rcd13ifvqeh0","pricing_plan_id":"free"},{"bike_id":"d687e313-b610-4176-8357-844faf121bd9","system_id":"levelo_inurba_marseille","lat":43.29335,"lon":5.3795,"is_reserved":false,"is_disabled":false,"rental_uris":{"android":"levelo://app?vid=d687e313-b610-4176-8357-844faf121bd9","ios":"levelo://app?vid=d687e313-b610-4176-8357-844faf121bd9"},"vehicle_type_id":"4","last_reported":1686917538,"current_range_meters":10000,"station_id":"","pricing_plan_id":"free"},{"bike_id":"0c308b72-740e-45e8-b06c-9a740aea24bd","system_id":"levelo_inurba_marseille","lat":43.313291,"lon":5.396838,"is_reserved":false,"is_disabled":false,"rental_uris":{"android":"levelo://app?vid=0c308b72-740e-45e8-b06c-9a740aea24bd","ios":"levelo://app?vid=0c308b72-740e-45e8-b06c-9a740aea24bd"},"vehicle_type_id":"4","last_reported":1686917538,"current_range_meters":1600,"station_id":"ce4bgvp2rcd13ifvqcu0","pricing_plan_id":"free"},{"bike_id":"6f84ff27-fa70-44ce-9b72-fb446b527c29","system_id":"levelo_inurba_marseille","lat":43.309038,"lon":5.396546,"is_reserved":false,"is_disabled":false,"rental_uris":{"android":"levelo://app?vid=6f84ff27-fa70-44ce-9b72-fb446b527c29","ios":"levelo://app?vid=6f84ff27-fa70-44ce-9b72-fb446b527c29"},"vehicle_type_id":"4","last_reported":1686917538,"current_range_meters":18400,"station_id":"ce4bh012rcd13ifvqcv0","pricing_plan_id":"free"},{"bike_id":"7aad0f55-9f78-42e7-9652-e2ffaa05df74","system_id":"levelo_inurba_marseille","lat":43.313291,"lon":5.396838,"is_reserved":false,"is_disabled":false,"rental_uris":{"android":"levelo://app?vid=7aad0f55-9f78-42e7-9652-e2ffaa05df74","ios":"levelo://app?vid=7aad0f55-9f78-42e7-9652-e2ffaa05df74"},"vehicle_type_id":"4","last_reported":1686917538,"current_range_meters":22800,"station_id":"ce4bgvp2rcd13ifvqcu0","pricing_plan_id":"free"},{"bike_id":"fa3b25c3-515a-4fcc-b175-7313cb1c01db","system_id":"levelo_inurba_marseille","lat":43.291994,"lon":5.357886,"is_reserved":false,"is_disabled":false,"rental_uris":{"android":"levelo://app?vid=fa3b25c3-515a-4fcc-b175-7313cb1c01db","ios":"levelo://app?vid=fa3b25c3-515a-4fcc-b175-7313cb1c01db"},"vehicle_type_id":"4","last_reported":1686917538,"current_range_meters":17200,"station_id":"ce4bhb12rcd13ifvqel0","pricing_plan_id":"free"},{"bike_id":"520882a9-0f7d-43a7-bd53-71d3490b26bc","system_id":"levelo_inurba_marseille","lat":43.30875,"lon":5.39652,"is_reserved":false,"is_disabled":false,"rental_uris":{"android":"levelo://app?vid=520882a9-0f7d-43a7-bd53-71d3490b26bc","ios":"levelo://app?vid=520882a9-0f7d-43a7-bd53-71d3490b26bc"},"vehicle_type_id":"4","last_reported":1686917538,"current_range_meters":15200,"station_id":"","pricing_plan_id":"free"},{"bike_id":"07b7cff5-8172-4863-a504-679956698d0b","system_id":"levelo_inurba_marseille","lat":43.291994,"lon":5.357886,"is_reserved":false,"is_disabled":false,"rental_uris":{"android":"levelo://app?vid=07b7cff5-8172-4863-a504-679956698d0b","ios":"levelo://app?vid=07b7cff5-8172-4863-a504-679956698d0b"},"vehicle_type_id":"4","last_reported":1686917538,"current_range_meters":24800,"station_id":"ce4bhb12rcd13ifvqel0","pricing_plan_id":"free"},{"bike_id":"b7255f2b-2b8b-4baa-a352-4e0821793c29","system_id":"levelo_inurba_marseille","lat":43.290631,"lon":5.359244,"is_reserved":false,"is_disabled":false,"rental_uris":{"android":"levelo://app?vid=b7255f2b-2b8b-4baa-a352-4e0821793c29","ios":"levelo://app?vid=b7255f2b-2b8b-4baa-a352-4e0821793c29"},"vehicle_type_id":"4","last_reported":1686917538,"current_range_meters":30800,"station_id":"ce4bha92rcd13ifvqeg0","pricing_plan_id":"free"},{"bike_id":"6b90c245-470c-41db-9c72-64310a917d48","system_id":"levelo_inurba_marseille","lat":43.295169,"lon":5.390426,"is_reserved":false,"is_disabled":false,"rental_uris":{"android":"levelo://app?vid=6b90c245-470c-41db-9c72-64310a917d48","ios":"levelo://app?vid=6b90c245-470c-41db-9c72-64310a917d48"},"vehicle_type_id":"4","last_reported":1686917538,"current_range_meters":3200,"station_id":"ce4bh3p2rcd13ifvqdp0","pricing_plan_id":"free"},{"bike_id":"6d6e82ca-6aff-494d-8e76-2c11e89e3f87","system_id":"levelo_inurba_marseille","lat":43.294153,"lon":5.386305,"is_reserved":false,"is_disabled":false,"rental_uris":{"android":"levelo://app?vid=6d6e82ca-6aff-494d-8e76-2c11e89e3f87","ios":"levelo://app?vid=6d6e82ca-6aff-494d-8e76-2c11e89e3f87"},"vehicle_type_id":"4","last_reported":1686917538,"current_range_meters":21200,"station_id":"ce4bh2h2rcd13ifvqdh0","pricing_plan_id":"free"},{"bike_id":"73af181b-dfda-4d1b-9f9d-b0cab3dc0a1a","system_id":"levelo_inurba_marseille","lat":43.294153,"lon":5.386305,"is_reserved":false,"is_disabled":false,"rental_uris":{"android":"levelo://app?vid=73af181b-dfda-4d1b-9f9d-b0cab3dc0a1a","ios":"levelo://app?vid=73af181b-dfda-4d1b-9f9d-b0cab3dc0a1a"},"vehicle_type_id":"4","last_reported":1686917538,"current_range_meters":16400,"station_id":"ce4bh2h2rcd13ifvqdh0","pricing_plan_id":"free"},{"bike_id":"dc5202cb-2afa-40be-89e7-18499213fd08","system_id":"levelo_inurba_marseille","lat":43.290327,"lon":5.375711,"is_reserved":false,"is_disabled":false,"rental_uris":{"android":"levelo://app?vid=dc5202cb-2afa-40be-89e7-18499213fd08","ios":"levelo://app?vid=dc5202cb-2afa-40be-89e7-18499213fd08"},"vehicle_type_id":"4","last_reported":1686917538,"current_range_meters":11200,"station_id":"ce4bh692rcd13ifvqe90","pricing_plan_id":"free"},{"bike_id":"38eb09af-7166-42b9-865e-84246929498f","system_id":"levelo_inurba_marseille","lat":43.294153,"lon":5.386305,"is_reserved":false,"is_disabled":false,"rental_uris":{"android":"levelo://app?vid=38eb09af-7166-42b9-865e-84246929498f","ios":"levelo://app?vid=38eb09af-7166-42b9-865e-84246929498f"},"vehicle_type_id":"4","last_reported":1686917538,"current_range_meters":31600,"station_id":"ce4bh2h2rcd13ifvqdh0","pricing_plan_id":"free"},{"bike_id":"8ff5bd23-2ee7-4c28-8197-db43cf688d71","system_id":"levelo_inurba_marseille","lat":43.304274,"lon":5.397513,"is_reserved":false,"is_disabled":false,"rental_uris":{"android":"levelo://app?vid=8ff5bd23-2ee7-4c28-8197-db43cf688d71","ios":"levelo://app?vid=8ff5bd23-2ee7-4c28-8197-db43cf688d71"},"vehicle_type_id":"4","last_reported":1686917538,"current_range_meters":2000,"station_id":"ce4bh092rcd13ifvqd20","pricing_plan_id":"free"},{"bike_id":"0197dc86-b46e-4959-8bc5-27c8f15a8f9d","system_id":"levelo_inurba_marseille","lat":43.292644,"lon":5.384257,"is_reserved":false,"is_disabled":false,"rental_uris":{"android":"levelo://app?vid=0197dc86-b46e-4959-8bc5-27c8f15a8f9d","ios":"levelo://app?vid=0197dc86-b46e-4959-8bc5-27c8f15a8f9d"},"vehicle_type_id":"4","last_reported":1686917538,"current_range_meters":16000,"station_id":"ce4bh692rcd13ifvqea0","pricing_plan_id":"free"},{"bike_id":"60ab3631-aa59-462f-8d99-446b9b7cc82f","system_id":"levelo_inurba_marseille","lat":43.292642,"lon":5.384254,"is_reserved":false,"is_disabled":false,"rental_uris":{"android":"levelo://app?vid=60ab3631-aa59-462f-8d99-446b9b7cc82f","ios":"levelo://app?vid=60ab3631-aa59-462f-8d99-446b9b7cc82f"},"vehicle_type_id":"4","last_reported":1686917538,"current_range_meters":10800,"station_id":"ce4bh692rcd13ifvqea0","pricing_plan_id":"free"},{"bike_id":"4bb0f1a6-dadb-4e80-90f7-ca9bb5e044ee","system_id":"levelo_inurba_marseille","lat":43.292644,"lon":5.384257,"is_reserved":false,"is_disabled":false,"rental_uris":{"android":"levelo://app?vid=4bb0f1a6-dadb-4e80-90f7-ca9bb5e044ee","ios":"levelo://app?vid=4bb0f1a6-dadb-4e80-90f7-ca9bb5e044ee"},"vehicle_type_id":"4","last_reported":1686917538,"current_range_meters":0,"station_id":"ce4bh692rcd13ifvqea0","pricing_plan_id":"free"},{"bike_id":"44f1c5b9-5c54-41cd-bee9-0d5c77fad73a","system_id":"levelo_inurba_marseille","lat":43.304274,"lon":5.397513,"is_reserved":false,"is_disabled":false,"rental_uris":{"android":"levelo://app?vid=44f1c5b9-5c54-41cd-bee9-0d5c77fad73a","ios":"levelo://app?vid=44f1c5b9-5c54-41cd-bee9-0d5c77fad73a"},"vehicle_type_id":"4","last_reported":1686917538,"current_range_meters":10000,"station_id":"ce4bh092rcd13ifvqd20","pricing_plan_id":"free"},{"bike_id":"52becfe0-be3b-4d6a-9ba8-da93c483b65e","system_id":"levelo_inurba_marseille","lat":43.292642,"lon":5.384254,"is_reserved":false,"is_disabled":false,"rental_uris":{"android":"levelo://app?vid=52becfe0-be3b-4d6a-9ba8-da93c483b65e","ios":"levelo://app?vid=52becfe0-be3b-4d6a-9ba8-da93c483b65e"},"vehicle_type_id":"4","last_reported":1686917538,"current_range_meters":20800,"station_id":"ce4bh692rcd13ifvqea0","pricing_plan_id":"free"},{"bike_id":"b4b258c3-15ed-4f22-811f-daf21aa09ded","system_id":"levelo_inurba_marseille","lat":43.330442,"lon":5.389148,"is_reserved":false,"is_disabled":false,"rental_uris":{"android":"levelo://app?vid=b4b258c3-15ed-4f22-811f-daf21aa09ded","ios":"levelo://app?vid=b4b258c3-15ed-4f22-811f-daf21aa09ded"},"vehicle_type_id":"4","last_reported":1686917538,"current_range_meters":4000,"station_id":"ce4bhr92rcd13ifvqhrg","pricing_plan_id":"free"},{"bike_id":"85d5d023-d051-425f-8c39-d0b8c64f8fbd","system_id":"levelo_inurba_marseille","lat":43.3304,"lon":5.38914,"is_reserved":false,"is_disabled":false,"rental_uris":{"android":"levelo://app?vid=85d5d023-d051-425f-8c39-d0b8c64f8fbd","ios":"levelo://app?vid=85d5d023-d051-425f-8c39-d0b8c64f8fbd"},"vehicle_type_id":"4","last_reported":1686917538,"current_range_meters":30000,"station_id":"ce4bhr92rcd13ifvqhrg","pricing_plan_id":"free"},{"bike_id":"7baf4506-55e2-4c8f-b7b8-39656ec1a8c9","system_id":"levelo_inurba_marseille","lat":43.33043,"lon":5.38916,"is_reserved":false,"is_disabled":false,"rental_uris":{"android":"levelo://app?vid=7baf4506-55e2-4c8f-b7b8-39656ec1a8c9","ios":"levelo://app?vid=7baf4506-55e2-4c8f-b7b8-39656ec1a8c9"},"vehicle_type_id":"4","last_reported":1686917538,"current_range_meters":20800,"station_id":"ce4bhr92rcd13ifvqhrg","pricing_plan_id":"free"},{"bike_id":"a4d2814a-ff66-466e-b091-93a97eadc809","system_id":"levelo_inurba_marseille","lat":43.33042,"lon":5.38918,"is_reserved":false,"is_disabled":false,"rental_uris":{"android":"levelo://app?vid=a4d2814a-ff66-466e-b091-93a97eadc809","ios":"levelo://app?vid=a4d2814a-ff66-466e-b091-93a97eadc809"},"vehicle_type_id":"4","last_reported":1686917538,"current_range_meters":28800,"station_id":"ce4bhr92rcd13ifvqhrg","pricing_plan_id":"free"},{"bike_id":"0366db49-0c9c-470e-8482-6613bdd4576d","system_id":"levelo_inurba_marseille","lat":43.330442,"lon":5.389148,"is_reserved":false,"is_disabled":false,"rental_uris":{"android":"levelo://app?vid=0366db49-0c9c-470e-8482-6613bdd4576d","ios":"levelo://app?vid=0366db49-0c9c-470e-8482-6613bdd4576d"},"vehicle_type_id":"4","last_reported":1686917538,"current_range_meters":9200,"station_id":"ce4bhr92rcd13ifvqhrg","pricing_plan_id":"free"},{"bike_id":"57bbdd57-a1b4-49f7-998b-335041017266","system_id":"levelo_inurba_marseille","lat":43.330442,"lon":5.389148,"is_reserved":false,"is_disabled":false,"rental_uris":{"android":"levelo://app?vid=57bbdd57-a1b4-49f7-998b-335041017266","ios":"levelo://app?vid=57bbdd57-a1b4-49f7-998b-335041017266"},"vehicle_type_id":"4","last_reported":1686917538,"current_range_meters":24400,"station_id":"ce4bhr92rcd13ifvqhrg","pricing_plan_id":"free"},{"bike_id":"dd47fda6-cd57-4802-a827-e1b0893b009a","system_id":"levelo_inurba_marseille","lat":43.33046,"lon":5.38919,"is_reserved":false,"is_disabled":false,"rental_uris":{"android":"levelo://app?vid=dd47fda6-cd57-4802-a827-e1b0893b009a","ios":"levelo://app?vid=dd47fda6-cd57-4802-a827-e1b0893b009a"},"vehicle_type_id":"4","last_reported":1686917538,"current_range_meters":22400,"station_id":"ce4bhr92rcd13ifvqhrg","pricing_plan_id":"free"},{"bike_id":"e7408af9-c2d2-49c4-b005-7b94dd29344b","system_id":"levelo_inurba_marseille","lat":43.290104,"lon":5.356111,"is_reserved":false,"is_disabled":false,"rental_uris":{"android":"levelo://app?vid=e7408af9-c2d2-49c4-b005-7b94dd29344b","ios":"levelo://app?vid=e7408af9-c2d2-49c4-b005-7b94dd29344b"},"vehicle_type_id":"4","last_reported":1686917538,"current_range_meters":24800,"station_id":"ce4bhb92rcd13ifvqen0","pricing_plan_id":"free"},{"bike_id":"76c120a3-1ba8-443b-9fd1-eaf6dc659b0b","system_id":"levelo_inurba_marseille","lat":43.290104,"lon":5.356111,"is_reserved":false,"is_disabled":false,"rental_uris":{"android":"levelo://app?vid=76c120a3-1ba8-443b-9fd1-eaf6dc659b0b","ios":"levelo://app?vid=76c120a3-1ba8-443b-9fd1-eaf6dc659b0b"},"vehicle_type_id":"4","last_reported":1686917538,"current_range_meters":22000,"station_id":"ce4bhb92rcd13ifvqen0","pricing_plan_id":"free"},{"bike_id":"dfbe5722-2d23-49fa-b8e1-ce4c607e55ed","system_id":"levelo_inurba_marseille","lat":43.290995,"lon":5.381361,"is_reserved":false,"is_disabled":false,"rental_uris":{"android":"levelo://app?vid=dfbe5722-2d23-49fa-b8e1-ce4c607e55ed","ios":"levelo://app?vid=dfbe5722-2d23-49fa-b8e1-ce4c607e55ed"},"vehicle_type_id":"4","last_reported":1686917538,"current_range_meters":27200,"station_id":"ce4bh512rcd13ifvqe2g","pricing_plan_id":"free"},{"bike_id":"c80d0c94-d067-48d6-8f90-72aee5a24470","system_id":"levelo_inurba_marseille","lat":43.295169,"lon":5.390426,"is_reserved":false,"is_disabled":false,"rental_uris":{"android":"levelo://app?vid=c80d0c94-d067-48d6-8f90-72aee5a24470","ios":"levelo://app?vid=c80d0c94-d067-48d6-8f90-72aee5a24470"},"vehicle_type_id":"4","last_reported":1686917538,"current_range_meters":25200,"station_id":"ce4bh3p2rcd13ifvqdp0","pricing_plan_id":"free"},{"bike_id":"57ca62dc-88ce-44dd-8eb6-1fba37849cf6","system_id":"levelo_inurba_marseille","lat":43.2901,"lon":5.381269,"is_reserved":false,"is_disabled":false,"rental_uris":{"android":"levelo://app?vid=57ca62dc-88ce-44dd-8eb6-1fba37849cf6","ios":"levelo://app?vid=57ca62dc-88ce-44dd-8eb6-1fba37849cf6"},"vehicle_type_id":"4","last_reported":1686917538,"current_range_meters":9600,"station_id":"ce4bh4p2rcd13ifvqe1g","pricing_plan_id":"free"},{"bike_id":"c0fb8083-e02d-4dec-b1b9-fa095e6c5b75","system_id":"levelo_inurba_marseille","lat":43.337396,"lon":5.374526,"is_reserved":false,"is_disabled":false,"rental_uris":{"android":"levelo://app?vid=c0fb8083-e02d-4dec-b1b9-fa095e6c5b75","ios":"levelo://app?vid=c0fb8083-e02d-4dec-b1b9-fa095e6c5b75"},"vehicle_type_id":"4","last_reported":1686917538,"current_range_meters":1600,"station_id":"ce4bhp92rcd13ifvqhag","pricing_plan_id":"free"},{"bike_id":"2add1314-f630-4b4c-bd54-155eea2efd3c","system_id":"levelo_inurba_marseille","lat":43.309371,"lon":5.401449,"is_reserved":false,"is_disabled":false,"rental_uris":{"android":"levelo://app?vid=2add1314-f630-4b4c-bd54-155eea2efd3c","ios":"levelo://app?vid=2add1314-f630-4b4c-bd54-155eea2efd3c"},"vehicle_type_id":"4","last_reported":1686917538,"current_range_meters":15600,"station_id":"ce4bgvp2rcd13ifvqct0","pricing_plan_id":"free"},{"bike_id":"0f2fc580-53c8-46c4-a166-04fc1179f9a9","system_id":"levelo_inurba_marseille","lat":43.309371,"lon":5.401449,"is_reserved":false,"is_disabled":false,"rental_uris":{"android":"levelo://app?vid=0f2fc580-53c8-46c4-a166-04fc1179f9a9","ios":"levelo://app?vid=0f2fc580-53c8-46c4-a166-04fc1179f9a9"},"vehicle_type_id":"4","last_reported":1686917538,"current_range_meters":28400,"station_id":"ce4bgvp2rcd13ifvqct0","pricing_plan_id":"free"},{"bike_id":"d1854504-aaa1-4f74-ad03-53a5a8021546","system_id":"levelo_inurba_marseille","lat":43.309371,"lon":5.401449,"is_reserved":false,"is_disabled":false,"rental_uris":{"android":"levelo://app?vid=d1854504-aaa1-4f74-ad03-53a5a8021546","ios":"levelo://app?vid=d1854504-aaa1-4f74-ad03-53a5a8021546"},"vehicle_type_id":"4","last_reported":1686917538,"current_range_meters":14000,"station_id":"ce4bgvp2rcd13ifvqct0","pricing_plan_id":"free"},{"bike_id":"f7b356cd-cc64-4fe3-a14c-f06b12f35f64","system_id":"levelo_inurba_marseille","lat":43.29135,"lon":5.38706,"is_reserved":false,"is_disabled":false,"rental_uris":{"android":"levelo://app?vid=f7b356cd-cc64-4fe3-a14c-f06b12f35f64","ios":"levelo://app?vid=f7b356cd-cc64-4fe3-a14c-f06b12f35f64"},"vehicle_type_id":"4","last_reported":1686917538,"current_range_meters":23600,"station_id":"ce4bgm92rcd13ifvqbr0","pricing_plan_id":"free"},{"bike_id":"60f205a0-2351-4421-a342-7c34c81060fd","system_id":"levelo_inurba_marseille","lat":43.286591,"lon":5.363346,"is_reserved":false,"is_disabled":false,"rental_uris":{"android":"levelo://app?vid=60f205a0-2351-4421-a342-7c34c81060fd","ios":"levelo://app?vid=60f205a0-2351-4421-a342-7c34c81060fd"},"vehicle_type_id":"4","last_reported":1686917538,"current_range_meters":17600,"station_id":"ce4bhah2rcd13ifvqej0","pricing_plan_id":"free"},{"bike_id":"2acbd7f0-3727-41f6-b3bb-e8b2c233a924","system_id":"levelo_inurba_marseille","lat":43.295194,"lon":5.39397,"is_reserved":false,"is_disabled":false,"rental_uris":{"android":"levelo://app?vid=2acbd7f0-3727-41f6-b3bb-e8b2c233a924","ios":"levelo://app?vid=2acbd7f0-3727-41f6-b3bb-e8b2c233a924"},"vehicle_type_id":"4","last_reported":1686917538,"current_range_meters":22800,"station_id":"ce4bh292rcd13ifvqdf0","pricing_plan_id":"free"},{"bike_id":"87746fda-950c-4093-8f35-54dfbf74cc2b","system_id":"levelo_inurba_marseille","lat":43.302759,"lon":5.400793,"is_reserved":false,"is_disabled":false,"rental_uris":{"android":"levelo://app?vid=87746fda-950c-4093-8f35-54dfbf74cc2b","ios":"levelo://app?vid=87746fda-950c-4093-8f35-54dfbf74cc2b"},"vehicle_type_id":"4","last_reported":1686917538,"current_range_meters":16400,"station_id":"ce4bgvh2rcd13ifvqcs0","pricing_plan_id":"free"},{"bike_id":"d750f314-0354-4892-9511-3ba50c0f790c","system_id":"levelo_inurba_marseille","lat":43.286039,"lon":5.370679,"is_reserved":false,"is_disabled":false,"rental_uris":{"android":"levelo://app?vid=d750f314-0354-4892-9511-3ba50c0f790c","ios":"levelo://app?vid=d750f314-0354-4892-9511-3ba50c0f790c"},"vehicle_type_id":"4","last_reported":1686917538,"current_range_meters":30000,"station_id":"ce4bht12rcd13ifvqi60","pricing_plan_id":"free"},{"bike_id":"e59c0ae9-e4e0-41ae-92cd-6b7fd39e4c1e","system_id":"levelo_inurba_marseille","lat":43.316517,"lon":5.404375,"is_reserved":false,"is_disabled":false,"rental_uris":{"android":"levelo://app?vid=e59c0ae9-e4e0-41ae-92cd-6b7fd39e4c1e","ios":"levelo://app?vid=e59c0ae9-e4e0-41ae-92cd-6b7fd39e4c1e"},"vehicle_type_id":"4","last_reported":1686917538,"current_range_meters":21200,"station_id":"ce4bh012rcd13ifvqd00","pricing_plan_id":"free"},{"bike_id":"aaa69ff7-a339-4483-99ca-c8fa04d8d16b","system_id":"levelo_inurba_marseille","lat":43.316517,"lon":5.404375,"is_reserved":false,"is_disabled":false,"rental_uris":{"android":"levelo://app?vid=aaa69ff7-a339-4483-99ca-c8fa04d8d16b","ios":"levelo://app?vid=aaa69ff7-a339-4483-99ca-c8fa04d8d16b"},"vehicle_type_id":"4","last_reported":1686917538,"current_range_meters":26400,"station_id":"ce4bh012rcd13ifvqd00","pricing_plan_id":"free"},{"bike_id":"bdb94eef-b4db-437d-a48c-72058d81deef","system_id":"levelo_inurba_marseille","lat":43.316517,"lon":5.404375,"is_reserved":false,"is_disabled":false,"rental_uris":{"android":"levelo://app?vid=bdb94eef-b4db-437d-a48c-72058d81deef","ios":"levelo://app?vid=bdb94eef-b4db-437d-a48c-72058d81deef"},"vehicle_type_id":"4","last_reported":1686917538,"current_range_meters":12800,"station_id":"ce4bh012rcd13ifvqd00","pricing_plan_id":"free"},{"bike_id":"878c5047-7736-4af1-8c97-2b22026728ee","system_id":"levelo_inurba_marseille","lat":43.316517,"lon":5.404375,"is_reserved":false,"is_disabled":false,"rental_uris":{"android":"levelo://app?vid=878c5047-7736-4af1-8c97-2b22026728ee","ios":"levelo://app?vid=878c5047-7736-4af1-8c97-2b22026728ee"},"vehicle_type_id":"4","last_reported":1686917538,"current_range_meters":14400,"station_id":"ce4bh012rcd13ifvqd00","pricing_plan_id":"free"},{"bike_id":"9a4a62da-c1fa-4a82-bad5-2eb03c8855af","system_id":"levelo_inurba_marseille","lat":43.316517,"lon":5.404375,"is_reserved":false,"is_disabled":false,"rental_uris":{"android":"levelo://app?vid=9a4a62da-c1fa-4a82-bad5-2eb03c8855af","ios":"levelo://app?vid=9a4a62da-c1fa-4a82-bad5-2eb03c8855af"},"vehicle_type_id":"4","last_reported":1686917538,"current_range_meters":400,"station_id":"ce4bh012rcd13ifvqd00","pricing_plan_id":"free"},{"bike_id":"b37a5d6c-02cd-49a0-a0b1-3e1f25f659d1","system_id":"levelo_inurba_marseille","lat":43.291994,"lon":5.392907,"is_reserved":false,"is_disabled":false,"rental_uris":{"android":"levelo://app?vid=b37a5d6c-02cd-49a0-a0b1-3e1f25f659d1","ios":"levelo://app?vid=b37a5d6c-02cd-49a0-a0b1-3e1f25f659d1"},"vehicle_type_id":"4","last_reported":1686917538,"current_range_meters":0,"station_id":"ce4bh192rcd13ifvqdd0","pricing_plan_id":"free"},{"bike_id":"2ff73f4c-e7a4-4495-a756-832a25fae537","system_id":"levelo_inurba_marseille","lat":43.284534,"lon":5.358662,"is_reserved":false,"is_disabled":false,"rental_uris":{"android":"levelo://app?vid=2ff73f4c-e7a4-4495-a756-832a25fae537","ios":"levelo://app?vid=2ff73f4c-e7a4-4495-a756-832a25fae537"},"vehicle_type_id":"4","last_reported":1686917538,"current_range_meters":24400,"station_id":"ce4bhah2rcd13ifvqei0","pricing_plan_id":"free"},{"bike_id":"7fd4d875-9769-4ba4-936b-93672830abf7","system_id":"levelo_inurba_marseille","lat":43.28613,"lon":5.35106,"is_reserved":false,"is_disabled":false,"rental_uris":{"android":"levelo://app?vid=7fd4d875-9769-4ba4-936b-93672830abf7","ios":"levelo://app?vid=7fd4d875-9769-4ba4-936b-93672830abf7"},"vehicle_type_id":"4","last_reported":1686917538,"current_range_meters":31200,"station_id":"ce4bhch2rcd13ifvqeug","pricing_plan_id":"free"},{"bike_id":"7987188b-07aa-44f4-9a0f-bfa5304fc1ed","system_id":"levelo_inurba_marseille","lat":43.285856,"lon":5.350771,"is_reserved":false,"is_disabled":false,"rental_uris":{"android":"levelo://app?vid=7987188b-07aa-44f4-9a0f-bfa5304fc1ed","ios":"levelo://app?vid=7987188b-07aa-44f4-9a0f-bfa5304fc1ed"},"vehicle_type_id":"4","last_reported":1686917538,"current_range_meters":19200,"station_id":"ce4bhch2rcd13ifvqeug","pricing_plan_id":"free"},{"bike_id":"e5ebd25f-fc70-4e0b-9dfb-6049325e83b1","system_id":"levelo_inurba_marseille","lat":43.285856,"lon":5.350771,"is_reserved":false,"is_disabled":false,"rental_uris":{"android":"levelo://app?vid=e5ebd25f-fc70-4e0b-9dfb-6049325e83b1","ios":"levelo://app?vid=e5ebd25f-fc70-4e0b-9dfb-6049325e83b1"},"vehicle_type_id":"4","last_reported":1686917538,"current_range_meters":4000,"station_id":"ce4bhch2rcd13ifvqeug","pricing_plan_id":"free"},{"bike_id":"5b42077e-c2e5-46d7-8c35-bda3b27698e4","system_id":"levelo_inurba_marseille","lat":43.28611,"lon":5.35106,"is_reserved":false,"is_disabled":false,"rental_uris":{"android":"levelo://app?vid=5b42077e-c2e5-46d7-8c35-bda3b27698e4","ios":"levelo://app?vid=5b42077e-c2e5-46d7-8c35-bda3b27698e4"},"vehicle_type_id":"4","last_reported":1686917538,"current_range_meters":16800,"station_id":"ce4bhch2rcd13ifvqeug","pricing_plan_id":"free"},{"bike_id":"f0e8d149-0c53-4a45-bc6b-91645e5b6793","system_id":"levelo_inurba_marseille","lat":43.28612,"lon":5.35102,"is_reserved":false,"is_disabled":false,"rental_uris":{"android":"levelo://app?vid=f0e8d149-0c53-4a45-bc6b-91645e5b6793","ios":"levelo://app?vid=f0e8d149-0c53-4a45-bc6b-91645e5b6793"},"vehicle_type_id":"4","last_reported":1686917538,"current_range_meters":31200,"station_id":"ce4bhch2rcd13ifvqeug","pricing_plan_id":"free"},{"bike_id":"d4dd6c62-a1cd-48b7-9873-1d26cb66c278","system_id":"levelo_inurba_marseille","lat":43.295713,"lon":5.399639,"is_reserved":false,"is_disabled":false,"rental_uris":{"android":"levelo://app?vid=d4dd6c62-a1cd-48b7-9873-1d26cb66c278","ios":"levelo://app?vid=d4dd6c62-a1cd-48b7-9873-1d26cb66c278"},"vehicle_type_id":"4","last_reported":1686917538,"current_range_meters":10800,"station_id":"ce4bh312rcd13ifvqdj0","pricing_plan_id":"free"},{"bike_id":"719b6dc8-2180-4e0c-b37a-c11a3620a3cb","system_id":"levelo_inurba_marseille","lat":43.295713,"lon":5.399639,"is_reserved":false,"is_disabled":false,"rental_uris":{"android":"levelo://app?vid=719b6dc8-2180-4e0c-b37a-c11a3620a3cb","ios":"levelo://app?vid=719b6dc8-2180-4e0c-b37a-c11a3620a3cb"},"vehicle_type_id":"4","last_reported":1686917538,"current_range_meters":22400,"station_id":"ce4bh312rcd13ifvqdj0","pricing_plan_id":"free"},{"bike_id":"5328be18-a406-4be2-ba72-5996a71d3fb5","system_id":"levelo_inurba_marseille","lat":43.29568,"lon":5.39982,"is_reserved":false,"is_disabled":false,"rental_uris":{"android":"levelo://app?vid=5328be18-a406-4be2-ba72-5996a71d3fb5","ios":"levelo://app?vid=5328be18-a406-4be2-ba72-5996a71d3fb5"},"vehicle_type_id":"4","last_reported":1686917538,"current_range_meters":10400,"station_id":"ce4bh312rcd13ifvqdj0","pricing_plan_id":"free"},{"bike_id":"16e5fedd-6e86-436a-a0a2-72c7cd60a6ea","system_id":"levelo_inurba_marseille","lat":43.32337,"lon":5.40617,"is_reserved":false,"is_disabled":false,"rental_uris":{"android":"levelo://app?vid=16e5fedd-6e86-436a-a0a2-72c7cd60a6ea","ios":"levelo://app?vid=16e5fedd-6e86-436a-a0a2-72c7cd60a6ea"},"vehicle_type_id":"4","last_reported":1686917538,"current_range_meters":31200,"station_id":"ce4bhq92rcd13ifvqhjg","pricing_plan_id":"free"},{"bike_id":"0d9b1aa8-f840-4c9c-a108-c55351b3e46e","system_id":"levelo_inurba_marseille","lat":43.32337,"lon":5.4062,"is_reserved":false,"is_disabled":false,"rental_uris":{"android":"levelo://app?vid=0d9b1aa8-f840-4c9c-a108-c55351b3e46e","ios":"levelo://app?vid=0d9b1aa8-f840-4c9c-a108-c55351b3e46e"},"vehicle_type_id":"4","last_reported":1686917538,"current_range_meters":30400,"station_id":"ce4bhq92rcd13ifvqhjg","pricing_plan_id":"free"},{"bike_id":"56d43936-8fb2-4918-9ddc-41b09b46585a","system_id":"levelo_inurba_marseille","lat":43.32338,"lon":5.40623,"is_reserved":false,"is_disabled":false,"rental_uris":{"android":"levelo://app?vid=56d43936-8fb2-4918-9ddc-41b09b46585a","ios":"levelo://app?vid=56d43936-8fb2-4918-9ddc-41b09b46585a"},"vehicle_type_id":"4","last_reported":1686917538,"current_range_meters":24400,"station_id":"ce4bhq92rcd13ifvqhjg","pricing_plan_id":"free"},{"bike_id":"de63735a-e87a-4485-8afb-b8bd7aa43e09","system_id":"levelo_inurba_marseille","lat":43.284787,"lon":5.384116,"is_reserved":false,"is_disabled":false,"rental_uris":{"android":"levelo://app?vid=de63735a-e87a-4485-8afb-b8bd7aa43e09","ios":"levelo://app?vid=de63735a-e87a-4485-8afb-b8bd7aa43e09"},"vehicle_type_id":"4","last_reported":1686917538,"current_range_meters":0,"station_id":"ce4bh512rcd13ifvqe3g","pricing_plan_id":"free"},{"bike_id":"00b4d942-d645-4a17-a320-9c02b5ecca68","system_id":"levelo_inurba_marseille","lat":43.288497,"lon":5.393089,"is_reserved":false,"is_disabled":false,"rental_uris":{"android":"levelo://app?vid=00b4d942-d645-4a17-a320-9c02b5ecca68","ios":"levelo://app?vid=00b4d942-d645-4a17-a320-9c02b5ecca68"},"vehicle_type_id":"4","last_reported":1686917538,"current_range_meters":29600,"station_id":"ce4bh2p2rcd13ifvqdi0","pricing_plan_id":"free"},{"bike_id":"76da73a8-32fe-452a-895d-e1e60d3641ca","system_id":"levelo_inurba_marseille","lat":43.28453,"lon":5.34966,"is_reserved":false,"is_disabled":false,"rental_uris":{"android":"levelo://app?vid=76da73a8-32fe-452a-895d-e1e60d3641ca","ios":"levelo://app?vid=76da73a8-32fe-452a-895d-e1e60d3641ca"},"vehicle_type_id":"4","last_reported":1686917538,"current_range_meters":28800,"station_id":"","pricing_plan_id":"free"},{"bike_id":"5093d537-e080-4624-a3ff-7bb35f59447c","system_id":"levelo_inurba_marseille","lat":43.284219,"lon":5.3497,"is_reserved":false,"is_disabled":false,"rental_uris":{"android":"levelo://app?vid=5093d537-e080-4624-a3ff-7bb35f59447c","ios":"levelo://app?vid=5093d537-e080-4624-a3ff-7bb35f59447c"},"vehicle_type_id":"4","last_reported":1686917538,"current_range_meters":31600,"station_id":"ce4bhbh2rcd13ifvqepg","pricing_plan_id":"free"},{"bike_id":"1faede54-0d1f-401b-8a33-05a9077fd9f5","system_id":"levelo_inurba_marseille","lat":43.284219,"lon":5.3497,"is_reserved":false,"is_disabled":false,"rental_uris":{"android":"levelo://app?vid=1faede54-0d1f-401b-8a33-05a9077fd9f5","ios":"levelo://app?vid=1faede54-0d1f-401b-8a33-05a9077fd9f5"},"vehicle_type_id":"4","last_reported":1686917538,"current_range_meters":32000,"station_id":"ce4bhbh2rcd13ifvqepg","pricing_plan_id":"free"},{"bike_id":"25c5385c-b865-47df-b209-13eb543b1903","system_id":"levelo_inurba_marseille","lat":43.284219,"lon":5.3497,"is_reserved":false,"is_disabled":false,"rental_uris":{"android":"levelo://app?vid=25c5385c-b865-47df-b209-13eb543b1903","ios":"levelo://app?vid=25c5385c-b865-47df-b209-13eb543b1903"},"vehicle_type_id":"4","last_reported":1686917538,"current_range_meters":13200,"station_id":"ce4bhbh2rcd13ifvqepg","pricing_plan_id":"free"},{"bike_id":"5adb9dbc-459b-41d6-bb3f-e02e5315f497","system_id":"levelo_inurba_marseille","lat":43.284219,"lon":5.3497,"is_reserved":false,"is_disabled":false,"rental_uris":{"android":"levelo://app?vid=5adb9dbc-459b-41d6-bb3f-e02e5315f497","ios":"levelo://app?vid=5adb9dbc-459b-41d6-bb3f-e02e5315f497"},"vehicle_type_id":"4","last_reported":1686917538,"current_range_meters":31600,"station_id":"ce4bhbh2rcd13ifvqepg","pricing_plan_id":"free"},{"bike_id":"84009cd9-d118-4860-bf41-7c4d0e0e6199","system_id":"levelo_inurba_marseille","lat":43.284219,"lon":5.3497,"is_reserved":false,"is_disabled":false,"rental_uris":{"android":"levelo://app?vid=84009cd9-d118-4860-bf41-7c4d0e0e6199","ios":"levelo://app?vid=84009cd9-d118-4860-bf41-7c4d0e0e6199"},"vehicle_type_id":"4","last_reported":1686917538,"current_range_meters":22400,"station_id":"ce4bhbh2rcd13ifvqepg","pricing_plan_id":"free"},{"bike_id":"519cb9cd-ea6a-4f0b-a1a9-16d98aa9f147","system_id":"levelo_inurba_marseille","lat":43.284219,"lon":5.3497,"is_reserved":false,"is_disabled":false,"rental_uris":{"android":"levelo://app?vid=519cb9cd-ea6a-4f0b-a1a9-16d98aa9f147","ios":"levelo://app?vid=519cb9cd-ea6a-4f0b-a1a9-16d98aa9f147"},"vehicle_type_id":"4","last_reported":1686917538,"current_range_meters":20400,"station_id":"ce4bhbh2rcd13ifvqepg","pricing_plan_id":"free"},{"bike_id":"5fee6b19-1a91-42d7-a4bd-78f4e838ba50","system_id":"levelo_inurba_marseille","lat":43.28422,"lon":5.3499,"is_reserved":false,"is_disabled":false,"rental_uris":{"android":"levelo://app?vid=5fee6b19-1a91-42d7-a4bd-78f4e838ba50","ios":"levelo://app?vid=5fee6b19-1a91-42d7-a4bd-78f4e838ba50"},"vehicle_type_id":"4","last_reported":1686917538,"current_range_meters":15200,"station_id":"ce4bhbh2rcd13ifvqepg","pricing_plan_id":"free"},{"bike_id":"5389fee3-6913-4c90-99b7-469f70f31baa","system_id":"levelo_inurba_marseille","lat":43.28422,"lon":5.34989,"is_reserved":false,"is_disabled":false,"rental_uris":{"android":"levelo://app?vid=5389fee3-6913-4c90-99b7-469f70f31baa","ios":"levelo://app?vid=5389fee3-6913-4c90-99b7-469f70f31baa"},"vehicle_type_id":"4","last_reported":1686917538,"current_range_meters":25600,"station_id":"ce4bhbh2rcd13ifvqepg","pricing_plan_id":"free"},{"bike_id":"ed4a17a6-753e-469e-b2e9-e1f377a6a479","system_id":"levelo_inurba_marseille","lat":43.28421,"lon":5.34987,"is_reserved":false,"is_disabled":false,"rental_uris":{"android":"levelo://app?vid=ed4a17a6-753e-469e-b2e9-e1f377a6a479","ios":"levelo://app?vid=ed4a17a6-753e-469e-b2e9-e1f377a6a479"},"vehicle_type_id":"4","last_reported":1686917538,"current_range_meters":22000,"station_id":"ce4bhbh2rcd13ifvqepg","pricing_plan_id":"free"},{"bike_id":"36ca348c-5b9e-4dad-be0c-72c80ab3500a","system_id":"levelo_inurba_marseille","lat":43.284219,"lon":5.3497,"is_reserved":false,"is_disabled":false,"rental_uris":{"android":"levelo://app?vid=36ca348c-5b9e-4dad-be0c-72c80ab3500a","ios":"levelo://app?vid=36ca348c-5b9e-4dad-be0c-72c80ab3500a"},"vehicle_type_id":"4","last_reported":1686917538,"current_range_meters":26800,"station_id":"ce4bhbh2rcd13ifvqepg","pricing_plan_id":"free"},{"bike_id":"a86be2f6-7f45-4656-a047-2864772738b8","system_id":"levelo_inurba_marseille","lat":43.284219,"lon":5.3497,"is_reserved":false,"is_disabled":false,"rental_uris":{"android":"levelo://app?vid=a86be2f6-7f45-4656-a047-2864772738b8","ios":"levelo://app?vid=a86be2f6-7f45-4656-a047-2864772738b8"},"vehicle_type_id":"4","last_reported":1686917538,"current_range_meters":22800,"station_id":"ce4bhbh2rcd13ifvqepg","pricing_plan_id":"free"},{"bike_id":"dbbb0509-cb67-45ce-8c65-280104d476f7","system_id":"levelo_inurba_marseille","lat":43.284219,"lon":5.3497,"is_reserved":false,"is_disabled":false,"rental_uris":{"android":"levelo://app?vid=dbbb0509-cb67-45ce-8c65-280104d476f7","ios":"levelo://app?vid=dbbb0509-cb67-45ce-8c65-280104d476f7"},"vehicle_type_id":"4","last_reported":1686917538,"current_range_meters":24000,"station_id":"ce4bhbh2rcd13ifvqepg","pricing_plan_id":"free"},{"bike_id":"3d765e8d-a8ad-42f3-8d04-3a2565908503","system_id":"levelo_inurba_marseille","lat":43.284219,"lon":5.3497,"is_reserved":false,"is_disabled":false,"rental_uris":{"android":"levelo://app?vid=3d765e8d-a8ad-42f3-8d04-3a2565908503","ios":"levelo://app?vid=3d765e8d-a8ad-42f3-8d04-3a2565908503"},"vehicle_type_id":"4","last_reported":1686917538,"current_range_meters":16000,"station_id":"ce4bhbh2rcd13ifvqepg","pricing_plan_id":"free"},{"bike_id":"a6790631-ef52-41c6-be7b-f2681abbe85a","system_id":"levelo_inurba_marseille","lat":43.28421,"lon":5.34979,"is_reserved":false,"is_disabled":false,"rental_uris":{"android":"levelo://app?vid=a6790631-ef52-41c6-be7b-f2681abbe85a","ios":"levelo://app?vid=a6790631-ef52-41c6-be7b-f2681abbe85a"},"vehicle_type_id":"4","last_reported":1686917538,"current_range_meters":15200,"station_id":"ce4bhbh2rcd13ifvqepg","pricing_plan_id":"free"},{"bike_id":"9a0dc1f6-05b7-4c58-8438-34b91c555675","system_id":"levelo_inurba_marseille","lat":43.28419,"lon":5.34978,"is_reserved":false,"is_disabled":false,"rental_uris":{"android":"levelo://app?vid=9a0dc1f6-05b7-4c58-8438-34b91c555675","ios":"levelo://app?vid=9a0dc1f6-05b7-4c58-8438-34b91c555675"},"vehicle_type_id":"4","last_reported":1686917538,"current_range_meters":27200,"station_id":"ce4bhbh2rcd13ifvqepg","pricing_plan_id":"free"},{"bike_id":"1ce6b854-a76d-442b-9409-df923048799b","system_id":"levelo_inurba_marseille","lat":43.28416,"lon":5.34981,"is_reserved":false,"is_disabled":false,"rental_uris":{"android":"levelo://app?vid=1ce6b854-a76d-442b-9409-df923048799b","ios":"levelo://app?vid=1ce6b854-a76d-442b-9409-df923048799b"},"vehicle_type_id":"4","last_reported":1686917538,"current_range_meters":25600,"station_id":"ce4bhbh2rcd13ifvqepg","pricing_plan_id":"free"},{"bike_id":"0b5fd547-be12-4c95-a7e0-df5a1035e14e","system_id":"levelo_inurba_marseille","lat":43.28414,"lon":5.34986,"is_reserved":false,"is_disabled":false,"rental_uris":{"android":"levelo://app?vid=0b5fd547-be12-4c95-a7e0-df5a1035e14e","ios":"levelo://app?vid=0b5fd547-be12-4c95-a7e0-df5a1035e14e"},"vehicle_type_id":"4","last_reported":1686917538,"current_range_meters":14400,"station_id":"ce4bhbh2rcd13ifvqepg","pricing_plan_id":"free"},{"bike_id":"5d2a7738-d621-45ad-a9f6-5f6d4791b51a","system_id":"levelo_inurba_marseille","lat":43.28414,"lon":5.34979,"is_reserved":false,"is_disabled":false,"rental_uris":{"android":"levelo://app?vid=5d2a7738-d621-45ad-a9f6-5f6d4791b51a","ios":"levelo://app?vid=5d2a7738-d621-45ad-a9f6-5f6d4791b51a"},"vehicle_type_id":"4","last_reported":1686917538,"current_range_meters":31200,"station_id":"ce4bhbh2rcd13ifvqepg","pricing_plan_id":"free"},{"bike_id":"2ad24568-4c23-422d-a0ef-ba98dcdab08b","system_id":"levelo_inurba_marseille","lat":43.28271,"lon":5.37883,"is_reserved":false,"is_disabled":false,"rental_uris":{"android":"levelo://app?vid=2ad24568-4c23-422d-a0ef-ba98dcdab08b","ios":"levelo://app?vid=2ad24568-4c23-422d-a0ef-ba98dcdab08b"},"vehicle_type_id":"4","last_reported":1686917538,"current_range_meters":9600,"station_id":"","pricing_plan_id":"free"},{"bike_id":"f9eac638-b916-401f-a2a8-efe93c898f51","system_id":"levelo_inurba_marseille","lat":43.292724,"lon":5.401131,"is_reserved":false,"is_disabled":false,"rental_uris":{"android":"levelo://app?vid=f9eac638-b916-401f-a2a8-efe93c898f51","ios":"levelo://app?vid=f9eac638-b916-401f-a2a8-efe93c898f51"},"vehicle_type_id":"4","last_reported":1686917538,"current_range_meters":6400,"station_id":"ce4bh312rcd13ifvqdk0","pricing_plan_id":"free"},{"bike_id":"2c935e45-fc97-4368-9ba6-437e854706d5","system_id":"levelo_inurba_marseille","lat":43.2828,"lon":5.35067,"is_reserved":false,"is_disabled":false,"rental_uris":{"android":"levelo://app?vid=2c935e45-fc97-4368-9ba6-437e854706d5","ios":"levelo://app?vid=2c935e45-fc97-4368-9ba6-437e854706d5"},"vehicle_type_id":"4","last_reported":1686917538,"current_range_meters":23200,"station_id":"ce4bhbp2rcd13ifvqerg","pricing_plan_id":"free"},{"bike_id":"ac996a3b-3f61-4baa-b933-20ea9a43b5ba","system_id":"levelo_inurba_marseille","lat":43.28278,"lon":5.35068,"is_reserved":false,"is_disabled":false,"rental_uris":{"android":"levelo://app?vid=ac996a3b-3f61-4baa-b933-20ea9a43b5ba","ios":"levelo://app?vid=ac996a3b-3f61-4baa-b933-20ea9a43b5ba"},"vehicle_type_id":"4","last_reported":1686917538,"current_range_meters":13200,"station_id":"ce4bhbp2rcd13ifvqerg","pricing_plan_id":"free"},{"bike_id":"14e548d8-065f-467c-8524-03f1cba25eb7","system_id":"levelo_inurba_marseille","lat":43.28281,"lon":5.35057,"is_reserved":false,"is_disabled":false,"rental_uris":{"android":"levelo://app?vid=14e548d8-065f-467c-8524-03f1cba25eb7","ios":"levelo://app?vid=14e548d8-065f-467c-8524-03f1cba25eb7"},"vehicle_type_id":"4","last_reported":1686917538,"current_range_meters":26000,"station_id":"ce4bhbp2rcd13ifvqerg","pricing_plan_id":"free"},{"bike_id":"afc36fd8-5a1f-472c-aed7-01c18c167026","system_id":"levelo_inurba_marseille","lat":43.282754,"lon":5.350519,"is_reserved":false,"is_disabled":false,"rental_uris":{"android":"levelo://app?vid=afc36fd8-5a1f-472c-aed7-01c18c167026","ios":"levelo://app?vid=afc36fd8-5a1f-472c-aed7-01c18c167026"},"vehicle_type_id":"4","last_reported":1686917538,"current_range_meters":5600,"station_id":"ce4bhbp2rcd13ifvqerg","pricing_plan_id":"free"},{"bike_id":"e2c3a0aa-7f22-492a-a04d-15e355466059","system_id":"levelo_inurba_marseille","lat":43.32879,"lon":5.40534,"is_reserved":false,"is_disabled":false,"rental_uris":{"android":"levelo://app?vid=e2c3a0aa-7f22-492a-a04d-15e355466059","ios":"levelo://app?vid=e2c3a0aa-7f22-492a-a04d-15e355466059"},"vehicle_type_id":"4","last_reported":1686917538,"current_range_meters":13200,"station_id":"","pricing_plan_id":"free"},{"bike_id":"737d2827-f3de-41ef-afa4-df9077791435","system_id":"levelo_inurba_marseille","lat":43.28278,"lon":5.35059,"is_reserved":false,"is_disabled":false,"rental_uris":{"android":"levelo://app?vid=737d2827-f3de-41ef-afa4-df9077791435","ios":"levelo://app?vid=737d2827-f3de-41ef-afa4-df9077791435"},"vehicle_type_id":"4","last_reported":1686917538,"current_range_meters":25200,"station_id":"ce4bhbp2rcd13ifvqerg","pricing_plan_id":"free"},{"bike_id":"9cf7173b-f6a9-4b3c-b595-0c8a6893e5bc","system_id":"levelo_inurba_marseille","lat":43.282744,"lon":5.350533,"is_reserved":false,"is_disabled":false,"rental_uris":{"android":"levelo://app?vid=9cf7173b-f6a9-4b3c-b595-0c8a6893e5bc","ios":"levelo://app?vid=9cf7173b-f6a9-4b3c-b595-0c8a6893e5bc"},"vehicle_type_id":"4","last_reported":1686917538,"current_range_meters":16800,"station_id":"ce4bhbp2rcd13ifvqerg","pricing_plan_id":"free"},{"bike_id":"cd765d5b-4573-40a9-8757-96fc6a920f50","system_id":"levelo_inurba_marseille","lat":43.28272,"lon":5.35065,"is_reserved":false,"is_disabled":false,"rental_uris":{"android":"levelo://app?vid=cd765d5b-4573-40a9-8757-96fc6a920f50","ios":"levelo://app?vid=cd765d5b-4573-40a9-8757-96fc6a920f50"},"vehicle_type_id":"4","last_reported":1686917538,"current_range_meters":20400,"station_id":"ce4bhbp2rcd13ifvqerg","pricing_plan_id":"free"},{"bike_id":"48bafaa6-f0ab-4689-acca-3c390e0e180f","system_id":"levelo_inurba_marseille","lat":43.282754,"lon":5.350519,"is_reserved":false,"is_disabled":false,"rental_uris":{"android":"levelo://app?vid=48bafaa6-f0ab-4689-acca-3c390e0e180f","ios":"levelo://app?vid=48bafaa6-f0ab-4689-acca-3c390e0e180f"},"vehicle_type_id":"4","last_reported":1686917538,"current_range_meters":21600,"station_id":"ce4bhbp2rcd13ifvqerg","pricing_plan_id":"free"},{"bike_id":"615038be-74dd-40b4-b20b-1239a82cd5fd","system_id":"levelo_inurba_marseille","lat":43.282754,"lon":5.350519,"is_reserved":false,"is_disabled":false,"rental_uris":{"android":"levelo://app?vid=615038be-74dd-40b4-b20b-1239a82cd5fd","ios":"levelo://app?vid=615038be-74dd-40b4-b20b-1239a82cd5fd"},"vehicle_type_id":"4","last_reported":1686917538,"current_range_meters":32000,"station_id":"ce4bhbp2rcd13ifvqerg","pricing_plan_id":"free"},{"bike_id":"9281a634-8183-4dd6-823a-1c70612f9442","system_id":"levelo_inurba_marseille","lat":43.28272,"lon":5.35059,"is_reserved":false,"is_disabled":false,"rental_uris":{"android":"levelo://app?vid=9281a634-8183-4dd6-823a-1c70612f9442","ios":"levelo://app?vid=9281a634-8183-4dd6-823a-1c70612f9442"},"vehicle_type_id":"4","last_reported":1686917538,"current_range_meters":10400,"station_id":"ce4bhbp2rcd13ifvqerg","pricing_plan_id":"free"},{"bike_id":"94f78d63-a8d0-4fab-8c6f-f1b8e3cc27a4","system_id":"levelo_inurba_marseille","lat":43.28269,"lon":5.35069,"is_reserved":false,"is_disabled":false,"rental_uris":{"android":"levelo://app?vid=94f78d63-a8d0-4fab-8c6f-f1b8e3cc27a4","ios":"levelo://app?vid=94f78d63-a8d0-4fab-8c6f-f1b8e3cc27a4"},"vehicle_type_id":"4","last_reported":1686917538,"current_range_meters":27200,"station_id":"ce4bhbp2rcd13ifvqerg","pricing_plan_id":"free"},{"bike_id":"9107940b-d9a2-4639-9861-99e6b4ad2533","system_id":"levelo_inurba_marseille","lat":43.28268,"lon":5.35069,"is_reserved":false,"is_disabled":false,"rental_uris":{"android":"levelo://app?vid=9107940b-d9a2-4639-9861-99e6b4ad2533","ios":"levelo://app?vid=9107940b-d9a2-4639-9861-99e6b4ad2533"},"vehicle_type_id":"4","last_reported":1686917538,"current_range_meters":22800,"station_id":"ce4bhbp2rcd13ifvqerg","pricing_plan_id":"free"},{"bike_id":"f5f5f467-5281-4422-a6dc-09424a54fa47","system_id":"levelo_inurba_marseille","lat":43.28269,"lon":5.35061,"is_reserved":false,"is_disabled":false,"rental_uris":{"android":"levelo://app?vid=f5f5f467-5281-4422-a6dc-09424a54fa47","ios":"levelo://app?vid=f5f5f467-5281-4422-a6dc-09424a54fa47"},"vehicle_type_id":"4","last_reported":1686917538,"current_range_meters":16400,"station_id":"ce4bhbp2rcd13ifvqerg","pricing_plan_id":"free"},{"bike_id":"9fbf2cd5-a5bc-47a9-95f2-8eb2a4f6653e","system_id":"levelo_inurba_marseille","lat":43.282744,"lon":5.350533,"is_reserved":false,"is_disabled":false,"rental_uris":{"android":"levelo://app?vid=9fbf2cd5-a5bc-47a9-95f2-8eb2a4f6653e","ios":"levelo://app?vid=9fbf2cd5-a5bc-47a9-95f2-8eb2a4f6653e"},"vehicle_type_id":"4","last_reported":1686917538,"current_range_meters":21600,"station_id":"ce4bhbp2rcd13ifvqerg","pricing_plan_id":"free"},{"bike_id":"1b9f7789-7699-4ae1-86aa-442e8e91ea9c","system_id":"levelo_inurba_marseille","lat":43.28267,"lon":5.35061,"is_reserved":false,"is_disabled":false,"rental_uris":{"android":"levelo://app?vid=1b9f7789-7699-4ae1-86aa-442e8e91ea9c","ios":"levelo://app?vid=1b9f7789-7699-4ae1-86aa-442e8e91ea9c"},"vehicle_type_id":"4","last_reported":1686917538,"current_range_meters":16400,"station_id":"ce4bhbp2rcd13ifvqerg","pricing_plan_id":"free"},{"bike_id":"bb21344b-60f7-4604-854a-27a0024d9c7f","system_id":"levelo_inurba_marseille","lat":43.282744,"lon":5.350533,"is_reserved":false,"is_disabled":false,"rental_uris":{"android":"levelo://app?vid=bb21344b-60f7-4604-854a-27a0024d9c7f","ios":"levelo://app?vid=bb21344b-60f7-4604-854a-27a0024d9c7f"},"vehicle_type_id":"4","last_reported":1686917538,"current_range_meters":24400,"station_id":"ce4bhbp2rcd13ifvqerg","pricing_plan_id":"free"},{"bike_id":"117efb08-9322-455f-be4b-c0ceaf99e165","system_id":"levelo_inurba_marseille","lat":43.282744,"lon":5.350533,"is_reserved":false,"is_disabled":false,"rental_uris":{"android":"levelo://app?vid=117efb08-9322-455f-be4b-c0ceaf99e165","ios":"levelo://app?vid=117efb08-9322-455f-be4b-c0ceaf99e165"},