{"last_updated":1751472778,"ttl":60,"version":"2.2","data":{"bikes":[{"bike_id":"3da29fb8-fc97-44c6-b9ac-31dd456b2fd4","system_id":"levelo_inurba_marseille","lat":43.33771,"lon":5.37424,"is_reserved":false,"is_disabled":true,"rental_uris":{"android":"levelo://app?vid=3da29fb8-fc97-44c6-b9ac-31dd456b2fd4","ios":"levelo://app?vid=3da29fb8-fc97-44c6-b9ac-31dd456b2fd4"},"vehicle_type_id":"4","last_reported":1751472778,"current_range_meters":0,"station_id":"","pricing_plan_id":"cebpf4jnsgd1na2vs0mg"},{"bike_id":"01861ad8-a8d7-4be6-816e-651927c87584","system_id":"levelo_inurba_marseille","lat":43.33751,"lon":5.37456,"is_reserved":false,"is_disabled":true,"rental_uris":{"android":"levelo://app?vid=01861ad8-a8d7-4be6-816e-651927c87584","ios":"levelo://app?vid=01861ad8-a8d7-4be6-816e-651927c87584"},"vehicle_type_id":"4","last_reported":1751472778,"current_range_meters":0,"station_id":"","pricing_plan_id":"cebpf4jnsgd1na2vs0mg"},{"bike_id":"be4771a0-f822-40f0-a95c-2aaca1d3fb3c","system_id":"levelo_inurba_marseille","lat":43.21747,"lon":5.34601,"is_reserved":false,"is_disabled":true,"rental_uris":{"android":"levelo://app?vid=be4771a0-f822-40f0-a95c-2aaca1d3fb3c","ios":"levelo://app?vid=be4771a0-f822-40f0-a95c-2aaca1d3fb3c"},"vehicle_type_id":"4","last_reported":1751472778,"current_range_meters":0,"station_id":"st_cvj6r9ubvosntc0bgbag","pricing_plan_id":"cebpf4jnsgd1na2vs0mg"},{"bike_id":"15f3ec96-6316-4b44-9524-2447d87decdb","system_id":"levelo_inurba_marseille","lat":43.28993,"lon":5.38104,"is_reserved":false,"is_disabled":true,"rental_uris":{"android":"levelo://app?vid=15f3ec96-6316-4b44-9524-2447d87decdb","ios":"levelo://app?vid=15f3ec96-6316-4b44-9524-2447d87decdb"},"vehicle_type_id":"4","last_reported":1751472778,"current_range_meters":400,"station_id":"ce4bh4p2rcd13ifvqe1g","pricing_plan_id":"cebpf4jnsgd1na2vs0mg"},{"bike_id":"9286205c-dad7-460d-b3c3-1eb7587d336b","system_id":"levelo_inurba_marseille","lat":43.28155,"lon":5.42636,"is_reserved":false,"is_disabled":true,"rental_uris":{"android":"levelo://app?vid=9286205c-dad7-460d-b3c3-1eb7587d336b","ios":"levelo://app?vid=9286205c-dad7-460d-b3c3-1eb7587d336b"},"vehicle_type_id":"4","last_reported":1751472778,"current_range_meters":400,"station_id":"ce4bhnh2rcd13ifvqgug","pricing_plan_id":"cebpf4jnsgd1na2vs0mg"},{"bike_id":"e05edbcf-396f-4155-8206-60649ba5d045","system_id":"levelo_inurba_marseille","lat":43.29187,"lon":5.39317,"is_reserved":false,"is_disabled":true,"rental_uris":{"android":"levelo://app?vid=e05edbcf-396f-4155-8206-60649ba5d045","ios":"levelo://app?vid=e05edbcf-396f-4155-8206-60649ba5d045"},"vehicle_type_id":"4","last_reported":1751472778,"current_range_meters":800,"station_id":"ce4bh192rcd13ifvqdd0","pricing_plan_id":"cebpf4jnsgd1na2vs0mg"},{"bike_id":"614727b6-bb81-4d6c-ae48-a01ea69493cb","system_id":"levelo_inurba_marseille","lat":43.26212,"lon":5.37443,"is_reserved":false,"is_disabled":true,"rental_uris":{"android":"levelo://app?vid=614727b6-bb81-4d6c-ae48-a01ea69493cb","ios":"levelo://app?vid=614727b6-bb81-4d6c-ae48-a01ea69493cb"},"vehicle_type_id":"4","last_reported":1751472778,"current_range_meters":800,"station_id":"ce4bhgp2rcd13ifvqfc0","pricing_plan_id":"cebpf4jnsgd1na2vs0mg"},{"bike_id":"7afa9f42-243d-4421-ae7f-4a20ed3206f0","system_id":"levelo_inurba_marseille","lat":43.30511,"lon":5.37905,"is_reserved":false,"is_disabled":true,"rental_uris":{"android":"levelo://app?vid=7afa9f42-243d-4421-ae7f-4a20ed3206f0","ios":"levelo://app?vid=7afa9f42-243d-4421-ae7f-4a20ed3206f0"},"vehicle_type_id":"4","last_reported":1751472778,"current_range_meters":1200,"station_id":"","pricing_plan_id":"cebpf4jnsgd1na2vs0mg"},{"bike_id":"be496b6b-1289-4343-bfcc-22e5602a83a5","system_id":"levelo_inurba_marseille","lat":43.276215,"lon":5.361038,"is_reserved":false,"is_disabled":true,"rental_uris":{"android":"levelo://app?vid=be496b6b-1289-4343-bfcc-22e5602a83a5","ios":"levelo://app?vid=be496b6b-1289-4343-bfcc-22e5602a83a5"},"vehicle_type_id":"4","last_reported":1751472778,"current_range_meters":1200,"station_id":"ce4bgj92rcd13ifvqbe0","pricing_plan_id":"cebpf4jnsgd1na2vs0mg"},{"bike_id":"8b6983b4-fe83-47af-aab9-7d40cb8d9ae4","system_id":"levelo_inurba_marseille","lat":43.30926,"lon":5.40147,"is_reserved":false,"is_disabled":true,"rental_uris":{"android":"levelo://app?vid=8b6983b4-fe83-47af-aab9-7d40cb8d9ae4","ios":"levelo://app?vid=8b6983b4-fe83-47af-aab9-7d40cb8d9ae4"},"vehicle_type_id":"4","last_reported":1751472778,"current_range_meters":1200,"station_id":"ce4bgvp2rcd13ifvqct0","pricing_plan_id":"cebpf4jnsgd1na2vs0mg"},{"bike_id":"903f9470-ab34-4334-a763-be4df836a2fb","system_id":"levelo_inurba_marseille","lat":43.31693,"lon":5.4047,"is_reserved":false,"is_disabled":true,"rental_uris":{"android":"levelo://app?vid=903f9470-ab34-4334-a763-be4df836a2fb","ios":"levelo://app?vid=903f9470-ab34-4334-a763-be4df836a2fb"},"vehicle_type_id":"4","last_reported":1751472778,"current_range_meters":1200,"station_id":"ce4bh012rcd13ifvqd00","pricing_plan_id":"cebpf4jnsgd1na2vs0mg"},{"bike_id":"679dcf1c-464a-4766-ad98-683cbdbed909","system_id":"levelo_inurba_marseille","lat":43.28699,"lon":5.37392,"is_reserved":false,"is_disabled":true,"rental_uris":{"android":"levelo://app?vid=679dcf1c-464a-4766-ad98-683cbdbed909","ios":"levelo://app?vid=679dcf1c-464a-4766-ad98-683cbdbed909"},"vehicle_type_id":"4","last_reported":1751472778,"current_range_meters":1200,"station_id":"ce4bh3p2rcd13ifvqdq0","pricing_plan_id":"cebpf4jnsgd1na2vs0mg"},{"bike_id":"e04edb33-7d4c-4673-93e2-1b036e94c4b3","system_id":"levelo_inurba_marseille","lat":43.27377,"lon":5.36252,"is_reserved":false,"is_disabled":true,"rental_uris":{"android":"levelo://app?vid=e04edb33-7d4c-4673-93e2-1b036e94c4b3","ios":"levelo://app?vid=e04edb33-7d4c-4673-93e2-1b036e94c4b3"},"vehicle_type_id":"4","last_reported":1751472778,"current_range_meters":1200,"station_id":"ce4bhbh2rcd13ifvqeo0","pricing_plan_id":"cebpf4jnsgd1na2vs0mg"},{"bike_id":"67f9404f-d80a-43e6-b711-e6b1a1b741e3","system_id":"levelo_inurba_marseille","lat":43.27618,"lon":5.361099,"is_reserved":false,"is_disabled":true,"rental_uris":{"android":"levelo://app?vid=67f9404f-d80a-43e6-b711-e6b1a1b741e3","ios":"levelo://app?vid=67f9404f-d80a-43e6-b711-e6b1a1b741e3"},"vehicle_type_id":"4","last_reported":1751472778,"current_range_meters":1600,"station_id":"","pricing_plan_id":"cebpf4jnsgd1na2vs0mg"},{"bike_id":"5dbbabc5-54ed-4b90-af02-58529f4e6641","system_id":"levelo_inurba_marseille","lat":43.24401,"lon":5.37059,"is_reserved":false,"is_disabled":true,"rental_uris":{"android":"levelo://app?vid=5dbbabc5-54ed-4b90-af02-58529f4e6641","ios":"levelo://app?vid=5dbbabc5-54ed-4b90-af02-58529f4e6641"},"vehicle_type_id":"4","last_reported":1751472778,"current_range_meters":2000,"station_id":"ce4bhhh2rcd13ifvqfk0","pricing_plan_id":"cebpf4jnsgd1na2vs0mg"},{"bike_id":"1d14f4cd-08b1-492d-b9ec-2138f62ef8b0","system_id":"levelo_inurba_marseille","lat":43.29902,"lon":5.43646,"is_reserved":false,"is_disabled":true,"rental_uris":{"android":"levelo://app?vid=1d14f4cd-08b1-492d-b9ec-2138f62ef8b0","ios":"levelo://app?vid=1d14f4cd-08b1-492d-b9ec-2138f62ef8b0"},"vehicle_type_id":"4","last_reported":1751472778,"current_range_meters":2000,"station_id":"ce4bhpp2rcd13ifvqhfg","pricing_plan_id":"cebpf4jnsgd1na2vs0mg"},{"bike_id":"fc78c6f1-01a0-4470-aaab-d2f217be761b","system_id":"levelo_inurba_marseille","lat":43.276184,"lon":5.361131,"is_reserved":false,"is_disabled":false,"rental_uris":{"android":"levelo://app?vid=fc78c6f1-01a0-4470-aaab-d2f217be761b","ios":"levelo://app?vid=fc78c6f1-01a0-4470-aaab-d2f217be761b"},"vehicle_type_id":"4","last_reported":1751472778,"current_range_meters":2800,"station_id":"ce4bgj92rcd13ifvqbe0","pricing_plan_id":"cebpf4jnsgd1na2vs0mg"},{"bike_id":"9a434003-bd2b-4efe-8530-44a631b3282c","system_id":"levelo_inurba_marseille","lat":43.271725,"lon":5.409978,"is_reserved":false,"is_disabled":false,"rental_uris":{"android":"levelo://app?vid=9a434003-bd2b-4efe-8530-44a631b3282c","ios":"levelo://app?vid=9a434003-bd2b-4efe-8530-44a631b3282c"},"vehicle_type_id":"4","last_reported":1751472778,"current_range_meters":2800,"station_id":"ce4bhl12rcd13ifvqgf0","pricing_plan_id":"cebpf4jnsgd1na2vs0mg"},{"bike_id":"367d663c-6439-41bd-915f-44733877398c","system_id":"levelo_inurba_marseille","lat":43.2762,"lon":5.36108,"is_reserved":false,"is_disabled":false,"rental_uris":{"android":"levelo://app?vid=367d663c-6439-41bd-915f-44733877398c","ios":"levelo://app?vid=367d663c-6439-41bd-915f-44733877398c"},"vehicle_type_id":"4","last_reported":1751472778,"current_range_meters":3600,"station_id":"ce4bgj92rcd13ifvqbe0","pricing_plan_id":"cebpf4jnsgd1na2vs0mg"},{"bike_id":"5348e051-7618-415d-acb8-3c05c409e4a1","system_id":"levelo_inurba_marseille","lat":43.29006,"lon":5.35614,"is_reserved":false,"is_disabled":false,"rental_uris":{"android":"levelo://app?vid=5348e051-7618-415d-acb8-3c05c409e4a1","ios":"levelo://app?vid=5348e051-7618-415d-acb8-3c05c409e4a1"},"vehicle_type_id":"4","last_reported":1751472778,"current_range_meters":3600,"station_id":"ce4bhb92rcd13ifvqen0","pricing_plan_id":"cebpf4jnsgd1na2vs0mg"},{"bike_id":"35716d42-1909-4848-80ca-c8c09b16db6f","system_id":"levelo_inurba_marseille","lat":43.30732,"lon":5.42449,"is_reserved":false,"is_disabled":false,"rental_uris":{"android":"levelo://app?vid=35716d42-1909-4848-80ca-c8c09b16db6f","ios":"levelo://app?vid=35716d42-1909-4848-80ca-c8c09b16db6f"},"vehicle_type_id":"4","last_reported":1751472778,"current_range_meters":3600,"station_id":"st_cvj6ca6bvosntc0bfgr0","pricing_plan_id":"cebpf4jnsgd1na2vs0mg"},{"bike_id":"88ba2eb8-6abc-42f0-a2b7-fafab863863b","system_id":"levelo_inurba_marseille","lat":43.26882,"lon":5.38511,"is_reserved":false,"is_disabled":false,"rental_uris":{"android":"levelo://app?vid=88ba2eb8-6abc-42f0-a2b7-fafab863863b","ios":"levelo://app?vid=88ba2eb8-6abc-42f0-a2b7-fafab863863b"},"vehicle_type_id":"4","last_reported":1751472778,"current_range_meters":4000,"station_id":"","pricing_plan_id":"cebpf4jnsgd1na2vs0mg"},{"bike_id":"8252b44a-d048-4379-9209-2efa2e627825","system_id":"levelo_inurba_marseille","lat":43.2923,"lon":5.40582,"is_reserved":false,"is_disabled":false,"rental_uris":{"android":"levelo://app?vid=8252b44a-d048-4379-9209-2efa2e627825","ios":"levelo://app?vid=8252b44a-d048-4379-9209-2efa2e627825"},"vehicle_type_id":"4","last_reported":1751472778,"current_range_meters":4400,"station_id":"","pricing_plan_id":"cebpf4jnsgd1na2vs0mg"},{"bike_id":"63d178a7-2de1-4d45-ab47-3e90fbed0314","system_id":"levelo_inurba_marseille","lat":43.286163,"lon":5.351172,"is_reserved":false,"is_disabled":false,"rental_uris":{"android":"levelo://app?vid=63d178a7-2de1-4d45-ab47-3e90fbed0314","ios":"levelo://app?vid=63d178a7-2de1-4d45-ab47-3e90fbed0314"},"vehicle_type_id":"4","last_reported":1751472778,"current_range_meters":4400,"station_id":"","pricing_plan_id":"cebpf4jnsgd1na2vs0mg"},{"bike_id":"8e365e3c-559a-4ba6-a6c5-4c159e2434fc","system_id":"levelo_inurba_marseille","lat":43.21738,"lon":5.3463,"is_reserved":false,"is_disabled":false,"rental_uris":{"android":"levelo://app?vid=8e365e3c-559a-4ba6-a6c5-4c159e2434fc","ios":"levelo://app?vid=8e365e3c-559a-4ba6-a6c5-4c159e2434fc"},"vehicle_type_id":"4","last_reported":1751472778,"current_range_meters":4400,"station_id":"","pricing_plan_id":"cebpf4jnsgd1na2vs0mg"},{"bike_id":"7b6e79c6-a6f4-445b-9447-36a3d7aec9e0","system_id":"levelo_inurba_marseille","lat":43.311203,"lon":5.37787,"is_reserved":false,"is_disabled":false,"rental_uris":{"android":"levelo://app?vid=7b6e79c6-a6f4-445b-9447-36a3d7aec9e0","ios":"levelo://app?vid=7b6e79c6-a6f4-445b-9447-36a3d7aec9e0"},"vehicle_type_id":"4","last_reported":1751472778,"current_range_meters":4400,"station_id":"ce4bgt92rcd13ifvqcg0","pricing_plan_id":"cebpf4jnsgd1na2vs0mg"},{"bike_id":"6d477c39-f523-40a9-b91f-ec9cd7a322ba","system_id":"levelo_inurba_marseille","lat":43.301278,"lon":5.398634,"is_reserved":false,"is_disabled":false,"rental_uris":{"android":"levelo://app?vid=6d477c39-f523-40a9-b91f-ec9cd7a322ba","ios":"levelo://app?vid=6d477c39-f523-40a9-b91f-ec9cd7a322ba"},"vehicle_type_id":"4","last_reported":1751472778,"current_range_meters":4800,"station_id":"ce4bh0h2rcd13ifvqd40","pricing_plan_id":"cebpf4jnsgd1na2vs0mg"},{"bike_id":"77bda539-6f94-4f68-988a-bbee5eb48030","system_id":"levelo_inurba_marseille","lat":43.288534,"lon":5.358751,"is_reserved":false,"is_disabled":false,"rental_uris":{"android":"levelo://app?vid=77bda539-6f94-4f68-988a-bbee5eb48030","ios":"levelo://app?vid=77bda539-6f94-4f68-988a-bbee5eb48030"},"vehicle_type_id":"4","last_reported":1751472778,"current_range_meters":4800,"station_id":"ce4bhb12rcd13ifvqem0","pricing_plan_id":"cebpf4jnsgd1na2vs0mg"},{"bike_id":"9ec19fea-d635-4c7c-8d29-6bdec368a683","system_id":"levelo_inurba_marseille","lat":43.24665,"lon":5.38168,"is_reserved":false,"is_disabled":false,"rental_uris":{"android":"levelo://app?vid=9ec19fea-d635-4c7c-8d29-6bdec368a683","ios":"levelo://app?vid=9ec19fea-d635-4c7c-8d29-6bdec368a683"},"vehicle_type_id":"4","last_reported":1751472778,"current_range_meters":4800,"station_id":"ce4bhih2rcd13ifvqfr0","pricing_plan_id":"cebpf4jnsgd1na2vs0mg"},{"bike_id":"12c088c6-2c5f-4ea4-8b96-d7bb4ad883eb","system_id":"levelo_inurba_marseille","lat":43.29013,"lon":5.35593,"is_reserved":false,"is_disabled":false,"rental_uris":{"android":"levelo://app?vid=12c088c6-2c5f-4ea4-8b96-d7bb4ad883eb","ios":"levelo://app?vid=12c088c6-2c5f-4ea4-8b96-d7bb4ad883eb"},"vehicle_type_id":"4","last_reported":1751472778,"current_range_meters":6000,"station_id":"ce4bhb92rcd13ifvqen0","pricing_plan_id":"cebpf4jnsgd1na2vs0mg"},{"bike_id":"43e54e1e-983e-4ec3-bec4-5100dd4f6261","system_id":"levelo_inurba_marseille","lat":43.27382,"lon":5.3625,"is_reserved":false,"is_disabled":false,"rental_uris":{"android":"levelo://app?vid=43e54e1e-983e-4ec3-bec4-5100dd4f6261","ios":"levelo://app?vid=43e54e1e-983e-4ec3-bec4-5100dd4f6261"},"vehicle_type_id":"4","last_reported":1751472778,"current_range_meters":6000,"station_id":"ce4bhbh2rcd13ifvqeo0","pricing_plan_id":"cebpf4jnsgd1na2vs0mg"},{"bike_id":"21812265-0cbf-4a4d-b878-e49413b9e8aa","system_id":"levelo_inurba_marseille","lat":43.27997,"lon":5.4166,"is_reserved":false,"is_disabled":false,"rental_uris":{"android":"levelo://app?vid=21812265-0cbf-4a4d-b878-e49413b9e8aa","ios":"levelo://app?vid=21812265-0cbf-4a4d-b878-e49413b9e8aa"},"vehicle_type_id":"4","last_reported":1751472778,"current_range_meters":6000,"station_id":"ce4bho12rcd13ifvqh1g","pricing_plan_id":"cebpf4jnsgd1na2vs0mg"},{"bike_id":"7de7c2c8-df6b-43fa-b263-6c016dae4134","system_id":"levelo_inurba_marseille","lat":43.27837,"lon":5.41454,"is_reserved":false,"is_disabled":false,"rental_uris":{"android":"levelo://app?vid=7de7c2c8-df6b-43fa-b263-6c016dae4134","ios":"levelo://app?vid=7de7c2c8-df6b-43fa-b263-6c016dae4134"},"vehicle_type_id":"4","last_reported":1751472778,"current_range_meters":6400,"station_id":"","pricing_plan_id":"cebpf4jnsgd1na2vs0mg"},{"bike_id":"a50d814b-e37c-4afa-b69a-85f703b209da","system_id":"levelo_inurba_marseille","lat":43.28934,"lon":5.39634,"is_reserved":false,"is_disabled":false,"rental_uris":{"android":"levelo://app?vid=a50d814b-e37c-4afa-b69a-85f703b209da","ios":"levelo://app?vid=a50d814b-e37c-4afa-b69a-85f703b209da"},"vehicle_type_id":"4","last_reported":1751472778,"current_range_meters":6400,"station_id":"ce4bh3h2rcd13ifvqdn0","pricing_plan_id":"cebpf4jnsgd1na2vs0mg"},{"bike_id":"e18a9d0e-f885-43f5-890f-9e8f6851e143","system_id":"levelo_inurba_marseille","lat":43.29189,"lon":5.35814,"is_reserved":false,"is_disabled":false,"rental_uris":{"android":"levelo://app?vid=e18a9d0e-f885-43f5-890f-9e8f6851e143","ios":"levelo://app?vid=e18a9d0e-f885-43f5-890f-9e8f6851e143"},"vehicle_type_id":"4","last_reported":1751472778,"current_range_meters":6400,"station_id":"ce4bhb12rcd13ifvqel0","pricing_plan_id":"cebpf4jnsgd1na2vs0mg"},{"bike_id":"6fc7223a-36fa-4824-b1d2-1b9863f657ae","system_id":"levelo_inurba_marseille","lat":43.27378,"lon":5.36244,"is_reserved":false,"is_disabled":false,"rental_uris":{"android":"levelo://app?vid=6fc7223a-36fa-4824-b1d2-1b9863f657ae","ios":"levelo://app?vid=6fc7223a-36fa-4824-b1d2-1b9863f657ae"},"vehicle_type_id":"4","last_reported":1751472778,"current_range_meters":6400,"station_id":"ce4bhbh2rcd13ifvqeo0","pricing_plan_id":"cebpf4jnsgd1na2vs0mg"},{"bike_id":"313faebd-e64e-46a3-9d59-6bff8a1740ae","system_id":"levelo_inurba_marseille","lat":43.292725,"lon":5.368428,"is_reserved":false,"is_disabled":false,"rental_uris":{"android":"levelo://app?vid=313faebd-e64e-46a3-9d59-6bff8a1740ae","ios":"levelo://app?vid=313faebd-e64e-46a3-9d59-6bff8a1740ae"},"vehicle_type_id":"4","last_reported":1751472778,"current_range_meters":6400,"station_id":"ce4bhbp2rcd13ifvqesg","pricing_plan_id":"cebpf4jnsgd1na2vs0mg"},{"bike_id":"4dca739e-ddbc-447b-9141-cc6ea0fa0e5c","system_id":"levelo_inurba_marseille","lat":43.292725,"lon":5.367966,"is_reserved":false,"is_disabled":false,"rental_uris":{"android":"levelo://app?vid=4dca739e-ddbc-447b-9141-cc6ea0fa0e5c","ios":"levelo://app?vid=4dca739e-ddbc-447b-9141-cc6ea0fa0e5c"},"vehicle_type_id":"4","last_reported":1751472778,"current_range_meters":6800,"station_id":"ce4bhbp2rcd13ifvqesg","pricing_plan_id":"cebpf4jnsgd1na2vs0mg"},{"bike_id":"13abcbed-8f0e-4e80-a743-793946835e57","system_id":"levelo_inurba_marseille","lat":43.28618,"lon":5.3511,"is_reserved":false,"is_disabled":false,"rental_uris":{"android":"levelo://app?vid=13abcbed-8f0e-4e80-a743-793946835e57","ios":"levelo://app?vid=13abcbed-8f0e-4e80-a743-793946835e57"},"vehicle_type_id":"4","last_reported":1751472778,"current_range_meters":6800,"station_id":"ce4bhch2rcd13ifvqeug","pricing_plan_id":"cebpf4jnsgd1na2vs0mg"},{"bike_id":"171275cf-ecba-43d3-8e73-0aa4bb93f661","system_id":"levelo_inurba_marseille","lat":43.30605,"lon":5.37231,"is_reserved":false,"is_disabled":false,"rental_uris":{"android":"levelo://app?vid=171275cf-ecba-43d3-8e73-0aa4bb93f661","ios":"levelo://app?vid=171275cf-ecba-43d3-8e73-0aa4bb93f661"},"vehicle_type_id":"4","last_reported":1751472778,"current_range_meters":7200,"station_id":"ce4bgqh2rcd13ifvqc4g","pricing_plan_id":"cebpf4jnsgd1na2vs0mg"},{"bike_id":"68a7acf4-0901-4880-84a6-4049cc5522f6","system_id":"levelo_inurba_marseille","lat":43.29559,"lon":5.42284,"is_reserved":false,"is_disabled":false,"rental_uris":{"android":"levelo://app?vid=68a7acf4-0901-4880-84a6-4049cc5522f6","ios":"levelo://app?vid=68a7acf4-0901-4880-84a6-4049cc5522f6"},"vehicle_type_id":"4","last_reported":1751472778,"current_range_meters":7200,"station_id":"ce4bhph2rcd13ifvqhdg","pricing_plan_id":"cebpf4jnsgd1na2vs0mg"},{"bike_id":"c2b72fe0-bae6-4c7b-ad48-9e771b203dc8","system_id":"levelo_inurba_marseille","lat":43.313526,"lon":5.3848,"is_reserved":false,"is_disabled":false,"rental_uris":{"android":"levelo://app?vid=c2b72fe0-bae6-4c7b-ad48-9e771b203dc8","ios":"levelo://app?vid=c2b72fe0-bae6-4c7b-ad48-9e771b203dc8"},"vehicle_type_id":"4","last_reported":1751472778,"current_range_meters":8000,"station_id":"ce4bgt92rcd13ifvqcf0","pricing_plan_id":"cebpf4jnsgd1na2vs0mg"},{"bike_id":"89a0adc3-b348-4f1d-88aa-0f3e2bcafdfb","system_id":"levelo_inurba_marseille","lat":43.298029,"lon":5.38081,"is_reserved":false,"is_disabled":false,"rental_uris":{"android":"levelo://app?vid=89a0adc3-b348-4f1d-88aa-0f3e2bcafdfb","ios":"levelo://app?vid=89a0adc3-b348-4f1d-88aa-0f3e2bcafdfb"},"vehicle_type_id":"4","last_reported":1751472778,"current_range_meters":8400,"station_id":"ce4bgip2rcd13ifvqbb0","pricing_plan_id":"cebpf4jnsgd1na2vs0mg"},{"bike_id":"532731d9-b0d2-40bc-b69b-b0c0d1271f20","system_id":"levelo_inurba_marseille","lat":43.28983,"lon":5.37828,"is_reserved":false,"is_disabled":false,"rental_uris":{"android":"levelo://app?vid=532731d9-b0d2-40bc-b69b-b0c0d1271f20","ios":"levelo://app?vid=532731d9-b0d2-40bc-b69b-b0c0d1271f20"},"vehicle_type_id":"4","last_reported":1751472778,"current_range_meters":8400,"station_id":"ce4bh9p2rcd13ifvqed0","pricing_plan_id":"cebpf4jnsgd1na2vs0mg"},{"bike_id":"2bdb7449-bcfb-4e6c-b009-016fb86bc5e2","system_id":"levelo_inurba_marseille","lat":43.28042,"lon":5.36938,"is_reserved":false,"is_disabled":false,"rental_uris":{"android":"levelo://app?vid=2bdb7449-bcfb-4e6c-b009-016fb86bc5e2","ios":"levelo://app?vid=2bdb7449-bcfb-4e6c-b009-016fb86bc5e2"},"vehicle_type_id":"4","last_reported":1751472778,"current_range_meters":8400,"station_id":"ce4bha12rcd13ifvqef0","pricing_plan_id":"cebpf4jnsgd1na2vs0mg"},{"bike_id":"76fb3af1-c324-4595-a640-e9b0fbe4c4a4","system_id":"levelo_inurba_marseille","lat":43.288963,"lon":5.366528,"is_reserved":false,"is_disabled":false,"rental_uris":{"android":"levelo://app?vid=76fb3af1-c324-4595-a640-e9b0fbe4c4a4","ios":"levelo://app?vid=76fb3af1-c324-4595-a640-e9b0fbe4c4a4"},"vehicle_type_id":"4","last_reported":1751472778,"current_range_meters":8400,"station_id":"ce4bhb92rcd13ifvqen0","pricing_plan_id":"cebpf4jnsgd1na2vs0mg"},{"bike_id":"2e8ec81c-177e-40de-82b2-974196d6c500","system_id":"levelo_inurba_marseille","lat":43.27657,"lon":5.3838,"is_reserved":false,"is_disabled":false,"rental_uris":{"android":"levelo://app?vid=2e8ec81c-177e-40de-82b2-974196d6c500","ios":"levelo://app?vid=2e8ec81c-177e-40de-82b2-974196d6c500"},"vehicle_type_id":"4","last_reported":1751472778,"current_range_meters":9200,"station_id":"","pricing_plan_id":"cebpf4jnsgd1na2vs0mg"},{"bike_id":"e19b2794-5a39-47a5-a298-11f1b38c155d","system_id":"levelo_inurba_marseille","lat":43.26211,"lon":5.37445,"is_reserved":false,"is_disabled":false,"rental_uris":{"android":"levelo://app?vid=e19b2794-5a39-47a5-a298-11f1b38c155d","ios":"levelo://app?vid=e19b2794-5a39-47a5-a298-11f1b38c155d"},"vehicle_type_id":"4","last_reported":1751472778,"current_range_meters":9200,"station_id":"ce4bhgp2rcd13ifvqfc0","pricing_plan_id":"cebpf4jnsgd1na2vs0mg"},{"bike_id":"ede12c1a-31f9-4bf6-abc2-172926b8839d","system_id":"levelo_inurba_marseille","lat":43.30762,"lon":5.36712,"is_reserved":false,"is_disabled":false,"rental_uris":{"android":"levelo://app?vid=ede12c1a-31f9-4bf6-abc2-172926b8839d","ios":"levelo://app?vid=ede12c1a-31f9-4bf6-abc2-172926b8839d"},"vehicle_type_id":"4","last_reported":1751472778,"current_range_meters":9600,"station_id":"","pricing_plan_id":"cebpf4jnsgd1na2vs0mg"},{"bike_id":"28e4f9d3-28d9-4881-a519-baafb43ea6df","system_id":"levelo_inurba_marseille","lat":43.27074,"lon":5.42281,"is_reserved":false,"is_disabled":false,"rental_uris":{"android":"levelo://app?vid=28e4f9d3-28d9-4881-a519-baafb43ea6df","ios":"levelo://app?vid=28e4f9d3-28d9-4881-a519-baafb43ea6df"},"vehicle_type_id":"4","last_reported":1751472778,"current_range_meters":9600,"station_id":"ce4bhk92rcd13ifvqgb0","pricing_plan_id":"cebpf4jnsgd1na2vs0mg"},{"bike_id":"c61036a9-1a66-4480-8bd4-cd2fb585b287","system_id":"levelo_inurba_marseille","lat":43.269913,"lon":5.405668,"is_reserved":false,"is_disabled":false,"rental_uris":{"android":"levelo://app?vid=c61036a9-1a66-4480-8bd4-cd2fb585b287","ios":"levelo://app?vid=c61036a9-1a66-4480-8bd4-cd2fb585b287"},"vehicle_type_id":"4","last_reported":1751472778,"current_range_meters":10000,"station_id":"","pricing_plan_id":"cebpf4jnsgd1na2vs0mg"},{"bike_id":"9d2934ef-fd9a-4bfa-8c85-0e369ba3abba","system_id":"levelo_inurba_marseille","lat":43.29916,"lon":5.39729,"is_reserved":false,"is_disabled":false,"rental_uris":{"android":"levelo://app?vid=9d2934ef-fd9a-4bfa-8c85-0e369ba3abba","ios":"levelo://app?vid=9d2934ef-fd9a-4bfa-8c85-0e369ba3abba"},"vehicle_type_id":"4","last_reported":1751472778,"current_range_meters":10000,"station_id":"ce4bh0h2rcd13ifvqd50","pricing_plan_id":"cebpf4jnsgd1na2vs0mg"},{"bike_id":"e29ae96e-2ed0-4815-b44f-1f25978312af","system_id":"levelo_inurba_marseille","lat":43.27376,"lon":5.36257,"is_reserved":false,"is_disabled":false,"rental_uris":{"android":"levelo://app?vid=e29ae96e-2ed0-4815-b44f-1f25978312af","ios":"levelo://app?vid=e29ae96e-2ed0-4815-b44f-1f25978312af"},"vehicle_type_id":"4","last_reported":1751472778,"current_range_meters":10000,"station_id":"ce4bhbh2rcd13ifvqeo0","pricing_plan_id":"cebpf4jnsgd1na2vs0mg"},{"bike_id":"dfe020d0-947a-4c05-931c-9b6c29d8e6d3","system_id":"levelo_inurba_marseille","lat":43.28268,"lon":5.350704,"is_reserved":false,"is_disabled":false,"rental_uris":{"android":"levelo://app?vid=dfe020d0-947a-4c05-931c-9b6c29d8e6d3","ios":"levelo://app?vid=dfe020d0-947a-4c05-931c-9b6c29d8e6d3"},"vehicle_type_id":"4","last_reported":1751472778,"current_range_meters":10800,"station_id":"","pricing_plan_id":"cebpf4jnsgd1na2vs0mg"},{"bike_id":"6e26283a-b7ac-43d6-93fb-34a368043991","system_id":"levelo_inurba_marseille","lat":43.31114,"lon":5.37776,"is_reserved":false,"is_disabled":false,"rental_uris":{"android":"levelo://app?vid=6e26283a-b7ac-43d6-93fb-34a368043991","ios":"levelo://app?vid=6e26283a-b7ac-43d6-93fb-34a368043991"},"vehicle_type_id":"4","last_reported":1751472778,"current_range_meters":10800,"station_id":"ce4bgt92rcd13ifvqcg0","pricing_plan_id":"cebpf4jnsgd1na2vs0mg"},{"bike_id":"f871a222-2e2c-402e-87c3-d53ff93230ee","system_id":"levelo_inurba_marseille","lat":43.31271,"lon":5.40167,"is_reserved":false,"is_disabled":false,"rental_uris":{"android":"levelo://app?vid=f871a222-2e2c-402e-87c3-d53ff93230ee","ios":"levelo://app?vid=f871a222-2e2c-402e-87c3-d53ff93230ee"},"vehicle_type_id":"4","last_reported":1751472778,"current_range_meters":10800,"station_id":"ce4bh092rcd13ifvqd30","pricing_plan_id":"cebpf4jnsgd1na2vs0mg"},{"bike_id":"afaf6319-2a0f-4544-90a5-58e39a80ad8a","system_id":"levelo_inurba_marseille","lat":43.306,"lon":5.39371,"is_reserved":false,"is_disabled":false,"rental_uris":{"android":"levelo://app?vid=afaf6319-2a0f-4544-90a5-58e39a80ad8a","ios":"levelo://app?vid=afaf6319-2a0f-4544-90a5-58e39a80ad8a"},"vehicle_type_id":"4","last_reported":1751472778,"current_range_meters":10800,"station_id":"ce4bh0p2rcd13ifvqd80","pricing_plan_id":"cebpf4jnsgd1na2vs0mg"},{"bike_id":"866060ef-85cb-4809-9ff5-4426ac515ff0","system_id":"levelo_inurba_marseille","lat":43.28413,"lon":5.34986,"is_reserved":false,"is_disabled":false,"rental_uris":{"android":"levelo://app?vid=866060ef-85cb-4809-9ff5-4426ac515ff0","ios":"levelo://app?vid=866060ef-85cb-4809-9ff5-4426ac515ff0"},"vehicle_type_id":"4","last_reported":1751472778,"current_range_meters":10800,"station_id":"ce4bhbh2rcd13ifvqepg","pricing_plan_id":"cebpf4jnsgd1na2vs0mg"},{"bike_id":"73ed017e-d532-4728-a2e0-ec29b67a5a54","system_id":"levelo_inurba_marseille","lat":43.26215,"lon":5.37439,"is_reserved":false,"is_disabled":false,"rental_uris":{"android":"levelo://app?vid=73ed017e-d532-4728-a2e0-ec29b67a5a54","ios":"levelo://app?vid=73ed017e-d532-4728-a2e0-ec29b67a5a54"},"vehicle_type_id":"4","last_reported":1751472778,"current_range_meters":10800,"station_id":"ce4bhgp2rcd13ifvqfc0","pricing_plan_id":"cebpf4jnsgd1na2vs0mg"},{"bike_id":"248ded86-b9d5-4fdc-ba75-93f45623e36e","system_id":"levelo_inurba_marseille","lat":43.24165,"lon":5.36398,"is_reserved":false,"is_disabled":false,"rental_uris":{"android":"levelo://app?vid=248ded86-b9d5-4fdc-ba75-93f45623e36e","ios":"levelo://app?vid=248ded86-b9d5-4fdc-ba75-93f45623e36e"},"vehicle_type_id":"4","last_reported":1751472778,"current_range_meters":10800,"station_id":"cpo36qri1sfpv3e86is0","pricing_plan_id":"cebpf4jnsgd1na2vs0mg"},{"bike_id":"8ad00ccc-3ccb-493b-a2b4-49cd4dd94c33","system_id":"levelo_inurba_marseille","lat":43.217526,"lon":5.346026,"is_reserved":false,"is_disabled":false,"rental_uris":{"android":"levelo://app?vid=8ad00ccc-3ccb-493b-a2b4-49cd4dd94c33","ios":"levelo://app?vid=8ad00ccc-3ccb-493b-a2b4-49cd4dd94c33"},"vehicle_type_id":"4","last_reported":1751472778,"current_range_meters":10800,"station_id":"st_cvj6r9ubvosntc0bgbag","pricing_plan_id":"cebpf4jnsgd1na2vs0mg"},{"bike_id":"b8047834-9fd8-4e9d-b2bb-88fd0781cd8f","system_id":"levelo_inurba_marseille","lat":43.27856,"lon":5.37925,"is_reserved":false,"is_disabled":false,"rental_uris":{"android":"levelo://app?vid=b8047834-9fd8-4e9d-b2bb-88fd0781cd8f","ios":"levelo://app?vid=b8047834-9fd8-4e9d-b2bb-88fd0781cd8f"},"vehicle_type_id":"4","last_reported":1751472778,"current_range_meters":11200,"station_id":"","pricing_plan_id":"cebpf4jnsgd1na2vs0mg"},{"bike_id":"4e642ca7-d08e-44cc-b505-84c63ca24ede","system_id":"levelo_inurba_marseille","lat":43.283433,"lon":5.381107,"is_reserved":false,"is_disabled":false,"rental_uris":{"android":"levelo://app?vid=4e642ca7-d08e-44cc-b505-84c63ca24ede","ios":"levelo://app?vid=4e642ca7-d08e-44cc-b505-84c63ca24ede"},"vehicle_type_id":"4","last_reported":1751472778,"current_range_meters":11200,"station_id":"ce4bh412rcd13ifvqdr0","pricing_plan_id":"cebpf4jnsgd1na2vs0mg"},{"bike_id":"bc10016d-4c34-4787-811d-8a882d31f36d","system_id":"levelo_inurba_marseille","lat":43.28045,"lon":5.36958,"is_reserved":false,"is_disabled":false,"rental_uris":{"android":"levelo://app?vid=bc10016d-4c34-4787-811d-8a882d31f36d","ios":"levelo://app?vid=bc10016d-4c34-4787-811d-8a882d31f36d"},"vehicle_type_id":"4","last_reported":1751472778,"current_range_meters":11200,"station_id":"ce4bha12rcd13ifvqef0","pricing_plan_id":"cebpf4jnsgd1na2vs0mg"},{"bike_id":"f680df2f-70cb-477e-b273-a2eed528b1c4","system_id":"levelo_inurba_marseille","lat":43.26686,"lon":5.38274,"is_reserved":false,"is_disabled":false,"rental_uris":{"android":"levelo://app?vid=f680df2f-70cb-477e-b273-a2eed528b1c4","ios":"levelo://app?vid=f680df2f-70cb-477e-b273-a2eed528b1c4"},"vehicle_type_id":"4","last_reported":1751472778,"current_range_meters":11200,"station_id":"ce4bhg92rcd13ifvqf90","pricing_plan_id":"cebpf4jnsgd1na2vs0mg"},{"bike_id":"b7a4c9d0-f889-48a5-b4b0-737750dc287b","system_id":"levelo_inurba_marseille","lat":43.29008,"lon":5.35598,"is_reserved":false,"is_disabled":false,"rental_uris":{"android":"levelo://app?vid=b7a4c9d0-f889-48a5-b4b0-737750dc287b","ios":"levelo://app?vid=b7a4c9d0-f889-48a5-b4b0-737750dc287b"},"vehicle_type_id":"4","last_reported":1751472778,"current_range_meters":11600,"station_id":"ce4bhb92rcd13ifvqen0","pricing_plan_id":"cebpf4jnsgd1na2vs0mg"},{"bike_id":"7162ef69-1564-49b0-bd4d-645d806c80fc","system_id":"levelo_inurba_marseille","lat":43.28662,"lon":5.3511,"is_reserved":false,"is_disabled":false,"rental_uris":{"android":"levelo://app?vid=7162ef69-1564-49b0-bd4d-645d806c80fc","ios":"levelo://app?vid=7162ef69-1564-49b0-bd4d-645d806c80fc"},"vehicle_type_id":"4","last_reported":1751472778,"current_range_meters":11600,"station_id":"ce4bhch2rcd13ifvqeug","pricing_plan_id":"cebpf4jnsgd1na2vs0mg"},{"bike_id":"d0782fce-ac56-4f62-bc93-8821cf84816b","system_id":"levelo_inurba_marseille","lat":43.28629,"lon":5.35104,"is_reserved":false,"is_disabled":false,"rental_uris":{"android":"levelo://app?vid=d0782fce-ac56-4f62-bc93-8821cf84816b","ios":"levelo://app?vid=d0782fce-ac56-4f62-bc93-8821cf84816b"},"vehicle_type_id":"4","last_reported":1751472778,"current_range_meters":11600,"station_id":"ce4bhch2rcd13ifvqeug","pricing_plan_id":"cebpf4jnsgd1na2vs0mg"},{"bike_id":"4e10570e-e278-43eb-acf0-f81d0d1d021b","system_id":"levelo_inurba_marseille","lat":43.26573,"lon":5.37274,"is_reserved":false,"is_disabled":false,"rental_uris":{"android":"levelo://app?vid=4e10570e-e278-43eb-acf0-f81d0d1d021b","ios":"levelo://app?vid=4e10570e-e278-43eb-acf0-f81d0d1d021b"},"vehicle_type_id":"4","last_reported":1751472778,"current_range_meters":12000,"station_id":"ce4bhg12rcd13ifvqf70","pricing_plan_id":"cebpf4jnsgd1na2vs0mg"},{"bike_id":"ff5d153f-eb7c-4b24-8415-3f8813aa8920","system_id":"levelo_inurba_marseille","lat":43.28429,"lon":5.34989,"is_reserved":false,"is_disabled":false,"rental_uris":{"android":"levelo://app?vid=ff5d153f-eb7c-4b24-8415-3f8813aa8920","ios":"levelo://app?vid=ff5d153f-eb7c-4b24-8415-3f8813aa8920"},"vehicle_type_id":"4","last_reported":1751472778,"current_range_meters":12400,"station_id":"ce4bhbh2rcd13ifvqepg","pricing_plan_id":"cebpf4jnsgd1na2vs0mg"},{"bike_id":"8d949c06-5c93-46cb-aa0d-445b8d88b4fe","system_id":"levelo_inurba_marseille","lat":43.28611,"lon":5.35118,"is_reserved":false,"is_disabled":false,"rental_uris":{"android":"levelo://app?vid=8d949c06-5c93-46cb-aa0d-445b8d88b4fe","ios":"levelo://app?vid=8d949c06-5c93-46cb-aa0d-445b8d88b4fe"},"vehicle_type_id":"4","last_reported":1751472778,"current_range_meters":12400,"station_id":"ce4bhch2rcd13ifvqeug","pricing_plan_id":"cebpf4jnsgd1na2vs0mg"},{"bike_id":"c1b44335-2c20-4553-bd77-28e1455d1cb8","system_id":"levelo_inurba_marseille","lat":43.28611,"lon":5.35103,"is_reserved":false,"is_disabled":false,"rental_uris":{"android":"levelo://app?vid=c1b44335-2c20-4553-bd77-28e1455d1cb8","ios":"levelo://app?vid=c1b44335-2c20-4553-bd77-28e1455d1cb8"},"vehicle_type_id":"4","last_reported":1751472778,"current_range_meters":12400,"station_id":"ce4bhch2rcd13ifvqeug","pricing_plan_id":"cebpf4jnsgd1na2vs0mg"},{"bike_id":"c2cc3873-3136-4ba7-984d-6514f2a6bcc2","system_id":"levelo_inurba_marseille","lat":43.26692,"lon":5.3827,"is_reserved":false,"is_disabled":false,"rental_uris":{"android":"levelo://app?vid=c2cc3873-3136-4ba7-984d-6514f2a6bcc2","ios":"levelo://app?vid=c2cc3873-3136-4ba7-984d-6514f2a6bcc2"},"vehicle_type_id":"4","last_reported":1751472778,"current_range_meters":12400,"station_id":"ce4bhg92rcd13ifvqf90","pricing_plan_id":"cebpf4jnsgd1na2vs0mg"},{"bike_id":"bc9cfc37-c148-4f2a-8b35-6764ff238c39","system_id":"levelo_inurba_marseille","lat":43.28157,"lon":5.42642,"is_reserved":false,"is_disabled":false,"rental_uris":{"android":"levelo://app?vid=bc9cfc37-c148-4f2a-8b35-6764ff238c39","ios":"levelo://app?vid=bc9cfc37-c148-4f2a-8b35-6764ff238c39"},"vehicle_type_id":"4","last_reported":1751472778,"current_range_meters":12400,"station_id":"ce4bhnh2rcd13ifvqgug","pricing_plan_id":"cebpf4jnsgd1na2vs0mg"},{"bike_id":"c899bdeb-e8c8-487d-a5a5-00dc09ddabfe","system_id":"levelo_inurba_marseille","lat":43.341384,"lon":5.409073,"is_reserved":false,"is_disabled":false,"rental_uris":{"android":"levelo://app?vid=c899bdeb-e8c8-487d-a5a5-00dc09ddabfe","ios":"levelo://app?vid=c899bdeb-e8c8-487d-a5a5-00dc09ddabfe"},"vehicle_type_id":"4","last_reported":1751472778,"current_range_meters":12400,"station_id":"ce4bhqh2rcd13ifvqhlg","pricing_plan_id":"cebpf4jnsgd1na2vs0mg"},{"bike_id":"ee0317a9-0b3d-4631-9294-b4dddc155611","system_id":"levelo_inurba_marseille","lat":43.32379,"lon":5.36754,"is_reserved":false,"is_disabled":false,"rental_uris":{"android":"levelo://app?vid=ee0317a9-0b3d-4631-9294-b4dddc155611","ios":"levelo://app?vid=ee0317a9-0b3d-4631-9294-b4dddc155611"},"vehicle_type_id":"4","last_reported":1751472778,"current_range_meters":12400,"station_id":"ce4bhsh2rcd13ifvqi2g","pricing_plan_id":"cebpf4jnsgd1na2vs0mg"},{"bike_id":"b28aa0a0-791c-4a08-9a16-c7bf6ea0ed5a","system_id":"levelo_inurba_marseille","lat":43.22524,"lon":5.34753,"is_reserved":false,"is_disabled":false,"rental_uris":{"android":"levelo://app?vid=b28aa0a0-791c-4a08-9a16-c7bf6ea0ed5a","ios":"levelo://app?vid=b28aa0a0-791c-4a08-9a16-c7bf6ea0ed5a"},"vehicle_type_id":"4","last_reported":1751472778,"current_range_meters":12800,"station_id":"","pricing_plan_id":"cebpf4jnsgd1na2vs0mg"},{"bike_id":"f00e3044-9bd1-48b5-b342-151af21b34fa","system_id":"levelo_inurba_marseille","lat":43.29999,"lon":5.37421,"is_reserved":false,"is_disabled":false,"rental_uris":{"android":"levelo://app?vid=f00e3044-9bd1-48b5-b342-151af21b34fa","ios":"levelo://app?vid=f00e3044-9bd1-48b5-b342-151af21b34fa"},"vehicle_type_id":"4","last_reported":1751472778,"current_range_meters":12800,"station_id":"","pricing_plan_id":"cebpf4jnsgd1na2vs0mg"},{"bike_id":"06bb1293-77e2-44a3-9e10-1607407328dc","system_id":"levelo_inurba_marseille","lat":43.28433,"lon":5.349785,"is_reserved":false,"is_disabled":false,"rental_uris":{"android":"levelo://app?vid=06bb1293-77e2-44a3-9e10-1607407328dc","ios":"levelo://app?vid=06bb1293-77e2-44a3-9e10-1607407328dc"},"vehicle_type_id":"4","last_reported":1751472778,"current_range_meters":12800,"station_id":"ce4bhbh2rcd13ifvqepg","pricing_plan_id":"cebpf4jnsgd1na2vs0mg"},{"bike_id":"13e526be-4af1-468b-9e0f-2a20e9c614db","system_id":"levelo_inurba_marseille","lat":43.24389,"lon":5.37062,"is_reserved":false,"is_disabled":false,"rental_uris":{"android":"levelo://app?vid=13e526be-4af1-468b-9e0f-2a20e9c614db","ios":"levelo://app?vid=13e526be-4af1-468b-9e0f-2a20e9c614db"},"vehicle_type_id":"4","last_reported":1751472778,"current_range_meters":12800,"station_id":"ce4bhhh2rcd13ifvqfk0","pricing_plan_id":"cebpf4jnsgd1na2vs0mg"},{"bike_id":"d16b9dec-c438-4000-91c8-6cda5b0545dc","system_id":"levelo_inurba_marseille","lat":43.248948,"lon":5.375186,"is_reserved":false,"is_disabled":false,"rental_uris":{"android":"levelo://app?vid=d16b9dec-c438-4000-91c8-6cda5b0545dc","ios":"levelo://app?vid=d16b9dec-c438-4000-91c8-6cda5b0545dc"},"vehicle_type_id":"4","last_reported":1751472778,"current_range_meters":13600,"station_id":"","pricing_plan_id":"cebpf4jnsgd1na2vs0mg"},{"bike_id":"c299668c-707f-458a-af89-dd211b5a960a","system_id":"levelo_inurba_marseille","lat":43.27376,"lon":5.36264,"is_reserved":false,"is_disabled":false,"rental_uris":{"android":"levelo://app?vid=c299668c-707f-458a-af89-dd211b5a960a","ios":"levelo://app?vid=c299668c-707f-458a-af89-dd211b5a960a"},"vehicle_type_id":"4","last_reported":1751472778,"current_range_meters":13600,"station_id":"ce4bhbh2rcd13ifvqeo0","pricing_plan_id":"cebpf4jnsgd1na2vs0mg"},{"bike_id":"471769d9-3f22-4fd4-ad6c-a8e34f11dc0c","system_id":"levelo_inurba_marseille","lat":43.27373,"lon":5.36263,"is_reserved":false,"is_disabled":false,"rental_uris":{"android":"levelo://app?vid=471769d9-3f22-4fd4-ad6c-a8e34f11dc0c","ios":"levelo://app?vid=471769d9-3f22-4fd4-ad6c-a8e34f11dc0c"},"vehicle_type_id":"4","last_reported":1751472778,"current_range_meters":13600,"station_id":"ce4bhbh2rcd13ifvqeo0","pricing_plan_id":"cebpf4jnsgd1na2vs0mg"},{"bike_id":"db0ec749-5965-4bd8-98d0-080dddc28e3c","system_id":"levelo_inurba_marseille","lat":43.317603,"lon":5.390111,"is_reserved":false,"is_disabled":false,"rental_uris":{"android":"levelo://app?vid=db0ec749-5965-4bd8-98d0-080dddc28e3c","ios":"levelo://app?vid=db0ec749-5965-4bd8-98d0-080dddc28e3c"},"vehicle_type_id":"4","last_reported":1751472778,"current_range_meters":13600,"station_id":"ce4bhqp2rcd13ifvqhng","pricing_plan_id":"cebpf4jnsgd1na2vs0mg"},{"bike_id":"88f0d88a-1dec-4977-a19a-71293da7fba4","system_id":"levelo_inurba_marseille","lat":43.323616,"lon":5.367626,"is_reserved":false,"is_disabled":false,"rental_uris":{"android":"levelo://app?vid=88f0d88a-1dec-4977-a19a-71293da7fba4","ios":"levelo://app?vid=88f0d88a-1dec-4977-a19a-71293da7fba4"},"vehicle_type_id":"4","last_reported":1751472778,"current_range_meters":13600,"station_id":"ce4bhsh2rcd13ifvqi2g","pricing_plan_id":"cebpf4jnsgd1na2vs0mg"},{"bike_id":"7e62b058-a7ed-4634-80f1-04d3de596de7","system_id":"levelo_inurba_marseille","lat":43.298566,"lon":5.36815,"is_reserved":false,"is_disabled":false,"rental_uris":{"android":"levelo://app?vid=7e62b058-a7ed-4634-80f1-04d3de596de7","ios":"levelo://app?vid=7e62b058-a7ed-4634-80f1-04d3de596de7"},"vehicle_type_id":"4","last_reported":1751472778,"current_range_meters":14400,"station_id":"","pricing_plan_id":"cebpf4jnsgd1na2vs0mg"},{"bike_id":"0cebe06f-f126-4c28-82ae-6e79f431b346","system_id":"levelo_inurba_marseille","lat":43.29781,"lon":5.37118,"is_reserved":false,"is_disabled":false,"rental_uris":{"android":"levelo://app?vid=0cebe06f-f126-4c28-82ae-6e79f431b346","ios":"levelo://app?vid=0cebe06f-f126-4c28-82ae-6e79f431b346"},"vehicle_type_id":"4","last_reported":1751472778,"current_range_meters":14400,"station_id":"ce4bgop2rcd13ifvqc1g","pricing_plan_id":"cebpf4jnsgd1na2vs0mg"},{"bike_id":"7d1bbfbb-c70e-48d3-8f4b-baf5b1ca8b77","system_id":"levelo_inurba_marseille","lat":43.28428,"lon":5.3499,"is_reserved":false,"is_disabled":false,"rental_uris":{"android":"levelo://app?vid=7d1bbfbb-c70e-48d3-8f4b-baf5b1ca8b77","ios":"levelo://app?vid=7d1bbfbb-c70e-48d3-8f4b-baf5b1ca8b77"},"vehicle_type_id":"4","last_reported":1751472778,"current_range_meters":14400,"station_id":"ce4bhbh2rcd13ifvqepg","pricing_plan_id":"cebpf4jnsgd1na2vs0mg"},{"bike_id":"4cd68340-56fb-4ebf-a7ba-d224dc790a33","system_id":"levelo_inurba_marseille","lat":43.28423,"lon":5.34982,"is_reserved":false,"is_disabled":false,"rental_uris":{"android":"levelo://app?vid=4cd68340-56fb-4ebf-a7ba-d224dc790a33","ios":"levelo://app?vid=4cd68340-56fb-4ebf-a7ba-d224dc790a33"},"vehicle_type_id":"4","last_reported":1751472778,"current_range_meters":14400,"station_id":"ce4bhbh2rcd13ifvqepg","pricing_plan_id":"cebpf4jnsgd1na2vs0mg"},{"bike_id":"115e6c67-6838-4c42-9ea4-8082deffd16f","system_id":"levelo_inurba_marseille","lat":43.28616,"lon":5.35112,"is_reserved":false,"is_disabled":false,"rental_uris":{"android":"levelo://app?vid=115e6c67-6838-4c42-9ea4-8082deffd16f","ios":"levelo://app?vid=115e6c67-6838-4c42-9ea4-8082deffd16f"},"vehicle_type_id":"4","last_reported":1751472778,"current_range_meters":14400,"station_id":"ce4bhch2rcd13ifvqeug","pricing_plan_id":"cebpf4jnsgd1na2vs0mg"},{"bike_id":"20675e30-3951-4de3-b1d8-ddb7ba276bdb","system_id":"levelo_inurba_marseille","lat":43.31085,"lon":5.42431,"is_reserved":false,"is_disabled":false,"rental_uris":{"android":"levelo://app?vid=20675e30-3951-4de3-b1d8-ddb7ba276bdb","ios":"levelo://app?vid=20675e30-3951-4de3-b1d8-ddb7ba276bdb"},"vehicle_type_id":"4","last_reported":1751472778,"current_range_meters":14400,"station_id":"ce4bhp92rcd13ifvqhag","pricing_plan_id":"cebpf4jnsgd1na2vs0mg"},{"bike_id":"91745883-db59-47c5-acc7-f039a84201aa","system_id":"levelo_inurba_marseille","lat":43.32361,"lon":5.38887,"is_reserved":false,"is_disabled":false,"rental_uris":{"android":"levelo://app?vid=91745883-db59-47c5-acc7-f039a84201aa","ios":"levelo://app?vid=91745883-db59-47c5-acc7-f039a84201aa"},"vehicle_type_id":"4","last_reported":1751472778,"current_range_meters":14400,"station_id":"ce4bhqp2rcd13ifvqhog","pricing_plan_id":"cebpf4jnsgd1na2vs0mg"},{"bike_id":"b50da02d-1fb5-4383-a93d-332785610080","system_id":"levelo_inurba_marseille","lat":43.217518,"lon":5.346008,"is_reserved":false,"is_disabled":false,"rental_uris":{"android":"levelo://app?vid=b50da02d-1fb5-4383-a93d-332785610080","ios":"levelo://app?vid=b50da02d-1fb5-4383-a93d-332785610080"},"vehicle_type_id":"4","last_reported":1751472778,"current_range_meters":14800,"station_id":"st_cvj6r9ubvosntc0bgbag","pricing_plan_id":"cebpf4jnsgd1na2vs0mg"},{"bike_id":"17ad145c-f881-4017-969d-c8638a36a818","system_id":"levelo_inurba_marseille","lat":43.26536,"lon":5.39021,"is_reserved":false,"is_disabled":false,"rental_uris":{"android":"levelo://app?vid=17ad145c-f881-4017-969d-c8638a36a818","ios":"levelo://app?vid=17ad145c-f881-4017-969d-c8638a36a818"},"vehicle_type_id":"4","last_reported":1751472778,"current_range_meters":15200,"station_id":"ce4bhe12rcd13ifvqf30","pricing_plan_id":"cebpf4jnsgd1na2vs0mg"},{"bike_id":"56eb3fdf-ea87-4fcf-85df-3680fa66363e","system_id":"levelo_inurba_marseille","lat":43.224939,"lon":5.347936,"is_reserved":false,"is_disabled":false,"rental_uris":{"android":"levelo://app?vid=56eb3fdf-ea87-4fcf-85df-3680fa66363e","ios":"levelo://app?vid=56eb3fdf-ea87-4fcf-85df-3680fa66363e"},"vehicle_type_id":"4","last_reported":1751472778,"current_range_meters":15200,"station_id":"st_cvj5dfep6f1abm77gieg","pricing_plan_id":"cebpf4jnsgd1na2vs0mg"},{"bike_id":"bcfd0eda-b9ab-4bec-9ca3-3f2b86617415","system_id":"levelo_inurba_marseille","lat":43.211904,"lon":5.35072,"is_reserved":false,"is_disabled":false,"rental_uris":{"android":"levelo://app?vid=bcfd0eda-b9ab-4bec-9ca3-3f2b86617415","ios":"levelo://app?vid=bcfd0eda-b9ab-4bec-9ca3-3f2b86617415"},"vehicle_type_id":"4","last_reported":1751472778,"current_range_meters":15200,"station_id":"st_cvj6sg6p6f1abm77japg","pricing_plan_id":"cebpf4jnsgd1na2vs0mg"},{"bike_id":"16a8afe6-e43e-4d1b-a7bd-ed83d113735a","system_id":"levelo_inurba_marseille","lat":43.32436,"lon":5.41185,"is_reserved":false,"is_disabled":false,"rental_uris":{"android":"levelo://app?vid=16a8afe6-e43e-4d1b-a7bd-ed83d113735a","ios":"levelo://app?vid=16a8afe6-e43e-4d1b-a7bd-ed83d113735a"},"vehicle_type_id":"4","last_reported":1751472778,"current_range_meters":16000,"station_id":"","pricing_plan_id":"cebpf4jnsgd1na2vs0mg"},{"bike_id":"d0662380-6c57-48cb-bca9-0e06c31eaa27","system_id":"levelo_inurba_marseille","lat":43.27389,"lon":5.36274,"is_reserved":false,"is_disabled":false,"rental_uris":{"android":"levelo://app?vid=d0662380-6c57-48cb-bca9-0e06c31eaa27","ios":"levelo://app?vid=d0662380-6c57-48cb-bca9-0e06c31eaa27"},"vehicle_type_id":"4","last_reported":1751472778,"current_range_meters":16000,"station_id":"ce4bhbh2rcd13ifvqeo0","pricing_plan_id":"cebpf4jnsgd1na2vs0mg"},{"bike_id":"c5e094ee-7885-42b9-806d-7288db0f9ebc","system_id":"levelo_inurba_marseille","lat":43.27376,"lon":5.36264,"is_reserved":false,"is_disabled":false,"rental_uris":{"android":"levelo://app?vid=c5e094ee-7885-42b9-806d-7288db0f9ebc","ios":"levelo://app?vid=c5e094ee-7885-42b9-806d-7288db0f9ebc"},"vehicle_type_id":"4","last_reported":1751472778,"current_range_meters":16000,"station_id":"ce4bhbh2rcd13ifvqeo0","pricing_plan_id":"cebpf4jnsgd1na2vs0mg"},{"bike_id":"331745a6-416e-4697-a3b9-8b6ec98fb01a","system_id":"levelo_inurba_marseille","lat":43.28416,"lon":5.34993,"is_reserved":false,"is_disabled":false,"rental_uris":{"android":"levelo://app?vid=331745a6-416e-4697-a3b9-8b6ec98fb01a","ios":"levelo://app?vid=331745a6-416e-4697-a3b9-8b6ec98fb01a"},"vehicle_type_id":"4","last_reported":1751472778,"current_range_meters":16000,"station_id":"ce4bhbh2rcd13ifvqepg","pricing_plan_id":"cebpf4jnsgd1na2vs0mg"},{"bike_id":"a4fa0864-a85b-4e58-80fb-f707fbcf1f52","system_id":"levelo_inurba_marseille","lat":43.28419,"lon":5.35007,"is_reserved":false,"is_disabled":false,"rental_uris":{"android":"levelo://app?vid=a4fa0864-a85b-4e58-80fb-f707fbcf1f52","ios":"levelo://app?vid=a4fa0864-a85b-4e58-80fb-f707fbcf1f52"},"vehicle_type_id":"4","last_reported":1751472778,"current_range_meters":16000,"station_id":"ce4bhbh2rcd13ifvqepg","pricing_plan_id":"cebpf4jnsgd1na2vs0mg"},{"bike_id":"d9c7d075-4d2f-47ad-ab59-c8d0f7c36398","system_id":"levelo_inurba_marseille","lat":43.28426,"lon":5.34992,"is_reserved":false,"is_disabled":false,"rental_uris":{"android":"levelo://app?vid=d9c7d075-4d2f-47ad-ab59-c8d0f7c36398","ios":"levelo://app?vid=d9c7d075-4d2f-47ad-ab59-c8d0f7c36398"},"vehicle_type_id":"4","last_reported":1751472778,"current_range_meters":16000,"station_id":"ce4bhbh2rcd13ifvqepg","pricing_plan_id":"cebpf4jnsgd1na2vs0mg"},{"bike_id":"717fad43-6f63-449d-85d2-b4656e4ee53b","system_id":"levelo_inurba_marseille","lat":43.29784,"lon":5.39313,"is_reserved":false,"is_disabled":false,"rental_uris":{"android":"levelo://app?vid=717fad43-6f63-449d-85d2-b4656e4ee53b","ios":"levelo://app?vid=717fad43-6f63-449d-85d2-b4656e4ee53b"},"vehicle_type_id":"4","last_reported":1751472778,"current_range_meters":16000,"station_id":"chh1huq6cuj3fo74tm60","pricing_plan_id":"cebpf4jnsgd1na2vs0mg"},{"bike_id":"110be0f7-19b6-4419-935c-8afdb1f29359","system_id":"levelo_inurba_marseille","lat":43.21207,"lon":5.35073,"is_reserved":false,"is_disabled":false,"rental_uris":{"android":"levelo://app?vid=110be0f7-19b6-4419-935c-8afdb1f29359","ios":"levelo://app?vid=110be0f7-19b6-4419-935c-8afdb1f29359"},"vehicle_type_id":"4","last_reported":1751472778,"current_range_meters":16000,"station_id":"st_cvj6sg6p6f1abm77japg","pricing_plan_id":"cebpf4jnsgd1na2vs0mg"},{"bike_id":"752a7229-d138-4522-8787-0bb67b470949","system_id":"levelo_inurba_marseille","lat":43.31861,"lon":5.3762,"is_reserved":false,"is_disabled":false,"rental_uris":{"android":"levelo://app?vid=752a7229-d138-4522-8787-0bb67b470949","ios":"levelo://app?vid=752a7229-d138-4522-8787-0bb67b470949"},"vehicle_type_id":"4","last_reported":1751472778,"current_range_meters":16400,"station_id":"","pricing_plan_id":"cebpf4jnsgd1na2vs0mg"},{"bike_id":"a0cef316-ad95-4855-8f78-a31341a2b90e","system_id":"levelo_inurba_marseille","lat":43.31274,"lon":5.37751,"is_reserved":false,"is_disabled":false,"rental_uris":{"android":"levelo://app?vid=a0cef316-ad95-4855-8f78-a31341a2b90e","ios":"levelo://app?vid=a0cef316-ad95-4855-8f78-a31341a2b90e"},"vehicle_type_id":"4","last_reported":1751472778,"current_range_meters":16400,"station_id":"","pricing_plan_id":"cebpf4jnsgd1na2vs0mg"},{"bike_id":"0e030323-4386-4e72-9a0d-0f6a2ff539de","system_id":"levelo_inurba_marseille","lat":43.296092,"lon":5.405742,"is_reserved":false,"is_disabled":false,"rental_uris":{"android":"levelo://app?vid=0e030323-4386-4e72-9a0d-0f6a2ff539de","ios":"levelo://app?vid=0e030323-4386-4e72-9a0d-0f6a2ff539de"},"vehicle_type_id":"4","last_reported":1751472778,"current_range_meters":16400,"station_id":"ce4bh0h2rcd13ifvqd60","pricing_plan_id":"cebpf4jnsgd1na2vs0mg"},{"bike_id":"4671e152-1cef-4b9c-8d14-9541deb7ec7c","system_id":"levelo_inurba_marseille","lat":43.24389,"lon":5.37056,"is_reserved":false,"is_disabled":false,"rental_uris":{"android":"levelo://app?vid=4671e152-1cef-4b9c-8d14-9541deb7ec7c","ios":"levelo://app?vid=4671e152-1cef-4b9c-8d14-9541deb7ec7c"},"vehicle_type_id":"4","last_reported":1751472778,"current_range_meters":16400,"station_id":"ce4bhhh2rcd13ifvqfk0","pricing_plan_id":"cebpf4jnsgd1na2vs0mg"},{"bike_id":"959e6f20-8ed0-4d36-bc1d-3efb82d6190b","system_id":"levelo_inurba_marseille","lat":43.21205,"lon":5.35068,"is_reserved":false,"is_disabled":false,"rental_uris":{"android":"levelo://app?vid=959e6f20-8ed0-4d36-bc1d-3efb82d6190b","ios":"levelo://app?vid=959e6f20-8ed0-4d36-bc1d-3efb82d6190b"},"vehicle_type_id":"4","last_reported":1751472778,"current_range_meters":16400,"station_id":"st_cvj6sg6p6f1abm77japg","pricing_plan_id":"cebpf4jnsgd1na2vs0mg"},{"bike_id":"c0250866-11d0-420e-b0f3-1bce39b8d140","system_id":"levelo_inurba_marseille","lat":43.28616,"lon":5.35109,"is_reserved":false,"is_disabled":false,"rental_uris":{"android":"levelo://app?vid=c0250866-11d0-420e-b0f3-1bce39b8d140","ios":"levelo://app?vid=c0250866-11d0-420e-b0f3-1bce39b8d140"},"vehicle_type_id":"4","last_reported":1751472778,"current_range_meters":16800,"station_id":"ce4bhch2rcd13ifvqeug","pricing_plan_id":"cebpf4jnsgd1na2vs0mg"},{"bike_id":"598d38b3-55b2-4926-9fd9-07dda3da31f6","system_id":"levelo_inurba_marseille","lat":43.27076,"lon":5.42286,"is_reserved":false,"is_disabled":false,"rental_uris":{"android":"levelo://app?vid=598d38b3-55b2-4926-9fd9-07dda3da31f6","ios":"levelo://app?vid=598d38b3-55b2-4926-9fd9-07dda3da31f6"},"vehicle_type_id":"4","last_reported":1751472778,"current_range_meters":16800,"station_id":"ce4bhk92rcd13ifvqgb0","pricing_plan_id":"cebpf4jnsgd1na2vs0mg"},{"bike_id":"af45e992-38f9-4969-8dcf-1e064c257847","system_id":"levelo_inurba_marseille","lat":43.31995,"lon":5.38161,"is_reserved":false,"is_disabled":false,"rental_uris":{"android":"levelo://app?vid=af45e992-38f9-4969-8dcf-1e064c257847","ios":"levelo://app?vid=af45e992-38f9-4969-8dcf-1e064c257847"},"vehicle_type_id":"4","last_reported":1751472778,"current_range_meters":16800,"station_id":"ce4bhr12rcd13ifvqhpg","pricing_plan_id":"cebpf4jnsgd1na2vs0mg"},{"bike_id":"09a94feb-8911-4d3d-9f22-a7f611710ea1","system_id":"levelo_inurba_marseille","lat":43.211934,"lon":5.350723,"is_reserved":false,"is_disabled":false,"rental_uris":{"android":"levelo://app?vid=09a94feb-8911-4d3d-9f22-a7f611710ea1","ios":"levelo://app?vid=09a94feb-8911-4d3d-9f22-a7f611710ea1"},"vehicle_type_id":"4","last_reported":1751472778,"current_range_meters":16800,"station_id":"st_cvj6sg6p6f1abm77japg","pricing_plan_id":"cebpf4jnsgd1na2vs0mg"},{"bike_id":"68e309f4-b1e4-4f3a-b754-9a7df441dc33","system_id":"levelo_inurba_marseille","lat":43.28172,"lon":5.4256,"is_reserved":false,"is_disabled":false,"rental_uris":{"android":"levelo://app?vid=68e309f4-b1e4-4f3a-b754-9a7df441dc33","ios":"levelo://app?vid=68e309f4-b1e4-4f3a-b754-9a7df441dc33"},"vehicle_type_id":"4","last_reported":1751472778,"current_range_meters":17200,"station_id":"","pricing_plan_id":"cebpf4jnsgd1na2vs0mg"},{"bike_id":"81c30c4c-2881-4929-b89a-23c75289d687","system_id":"levelo_inurba_marseille","lat":43.28675,"lon":5.38665,"is_reserved":false,"is_disabled":false,"rental_uris":{"android":"levelo://app?vid=81c30c4c-2881-4929-b89a-23c75289d687","ios":"levelo://app?vid=81c30c4c-2881-4929-b89a-23c75289d687"},"vehicle_type_id":"4","last_reported":1751472778,"current_range_meters":17200,"station_id":"ce4bh492rcd13ifvqdug","pricing_plan_id":"cebpf4jnsgd1na2vs0mg"},{"bike_id":"966325a6-812d-41e1-a0ee-2717ca91c0e6","system_id":"levelo_inurba_marseille","lat":43.29019,"lon":5.35614,"is_reserved":false,"is_disabled":false,"rental_uris":{"android":"levelo://app?vid=966325a6-812d-41e1-a0ee-2717ca91c0e6","ios":"levelo://app?vid=966325a6-812d-41e1-a0ee-2717ca91c0e6"},"vehicle_type_id":"4","last_reported":1751472778,"current_range_meters":17200,"station_id":"ce4bhb92rcd13ifvqen0","pricing_plan_id":"cebpf4jnsgd1na2vs0mg"},{"bike_id":"a081d92e-a02d-416b-b718-0b90ad88a81a","system_id":"levelo_inurba_marseille","lat":43.2656,"lon":5.37283,"is_reserved":false,"is_disabled":false,"rental_uris":{"android":"levelo://app?vid=a081d92e-a02d-416b-b718-0b90ad88a81a","ios":"levelo://app?vid=a081d92e-a02d-416b-b718-0b90ad88a81a"},"vehicle_type_id":"4","last_reported":1751472778,"current_range_meters":17200,"station_id":"ce4bhg12rcd13ifvqf70","pricing_plan_id":"cebpf4jnsgd1na2vs0mg"},{"bike_id":"872ba1c5-f1df-4b9a-bfa0-0bc6631ec0cc","system_id":"levelo_inurba_marseille","lat":43.31725,"lon":5.42393,"is_reserved":false,"is_disabled":false,"rental_uris":{"android":"levelo://app?vid=872ba1c5-f1df-4b9a-bfa0-0bc6631ec0cc","ios":"levelo://app?vid=872ba1c5-f1df-4b9a-bfa0-0bc6631ec0cc"},"vehicle_type_id":"4","last_reported":1751472778,"current_range_meters":17200,"station_id":"ce4bhp92rcd13ifvqhbg","pricing_plan_id":"cebpf4jnsgd1na2vs0mg"},{"bike_id":"8bf0d992-d2a0-428e-940a-091ee9b7c2a4","system_id":"levelo_inurba_marseille","lat":43.21199,"lon":5.3508,"is_reserved":false,"is_disabled":false,"rental_uris":{"android":"levelo://app?vid=8bf0d992-d2a0-428e-940a-091ee9b7c2a4","ios":"levelo://app?vid=8bf0d992-d2a0-428e-940a-091ee9b7c2a4"},"vehicle_type_id":"4","last_reported":1751472778,"current_range_meters":17200,"station_id":"st_cvj6sg6p6f1abm77japg","pricing_plan_id":"cebpf4jnsgd1na2vs0mg"},{"bike_id":"8a74f5cd-9efa-4362-bea7-a32db4dcc85c","system_id":"levelo_inurba_marseille","lat":43.211932,"lon":5.350789,"is_reserved":false,"is_disabled":false,"rental_uris":{"android":"levelo://app?vid=8a74f5cd-9efa-4362-bea7-a32db4dcc85c","ios":"levelo://app?vid=8a74f5cd-9efa-4362-bea7-a32db4dcc85c"},"vehicle_type_id":"4","last_reported":1751472778,"current_range_meters":17200,"station_id":"st_cvj6sg6p6f1abm77japg","pricing_plan_id":"cebpf4jnsgd1na2vs0mg"},{"bike_id":"6d2da863-a742-45db-855b-55a94467cfa4","system_id":"levelo_inurba_marseille","lat":43.32581,"lon":5.42742,"is_reserved":false,"is_disabled":false,"rental_uris":{"android":"levelo://app?vid=6d2da863-a742-45db-855b-55a94467cfa4","ios":"levelo://app?vid=6d2da863-a742-45db-855b-55a94467cfa4"},"vehicle_type_id":"4","last_reported":1751472778,"current_range_meters":17600,"station_id":"","pricing_plan_id":"cebpf4jnsgd1na2vs0mg"},{"bike_id":"c10a4283-320d-4e64-8d75-ff83e94026ba","system_id":"levelo_inurba_marseille","lat":43.21211,"lon":5.35053,"is_reserved":false,"is_disabled":false,"rental_uris":{"android":"levelo://app?vid=c10a4283-320d-4e64-8d75-ff83e94026ba","ios":"levelo://app?vid=c10a4283-320d-4e64-8d75-ff83e94026ba"},"vehicle_type_id":"4","last_reported":1751472778,"current_range_meters":17600,"station_id":"st_cvj6sg6p6f1abm77japg","pricing_plan_id":"cebpf4jnsgd1na2vs0mg"},{"bike_id":"27067321-28f8-41cd-b5ee-d1b06c146bef","system_id":"levelo_inurba_marseille","lat":43.29746,"lon":5.37713,"is_reserved":false,"is_disabled":false,"rental_uris":{"android":"levelo://app?vid=27067321-28f8-41cd-b5ee-d1b06c146bef","ios":"levelo://app?vid=27067321-28f8-41cd-b5ee-d1b06c146bef"},"vehicle_type_id":"4","last_reported":1751472778,"current_range_meters":18000,"station_id":"","pricing_plan_id":"cebpf4jnsgd1na2vs0mg"},{"bike_id":"f1455812-0bba-4396-94dd-6da0df1c3810","system_id":"levelo_inurba_marseille","lat":43.32847,"lon":5.3993,"is_reserved":false,"is_disabled":false,"rental_uris":{"android":"levelo://app?vid=f1455812-0bba-4396-94dd-6da0df1c3810","ios":"levelo://app?vid=f1455812-0bba-4396-94dd-6da0df1c3810"},"vehicle_type_id":"4","last_reported":1751472778,"current_range_meters":18000,"station_id":"","pricing_plan_id":"cebpf4jnsgd1na2vs0mg"},{"bike_id":"ff2eed52-76b4-4357-b31a-0d511595ff47","system_id":"levelo_inurba_marseille","lat":43.28424,"lon":5.34996,"is_reserved":false,"is_disabled":false,"rental_uris":{"android":"levelo://app?vid=ff2eed52-76b4-4357-b31a-0d511595ff47","ios":"levelo://app?vid=ff2eed52-76b4-4357-b31a-0d511595ff47"},"vehicle_type_id":"4","last_reported":1751472778,"current_range_meters":18000,"station_id":"ce4bhbh2rcd13ifvqepg","pricing_plan_id":"cebpf4jnsgd1na2vs0mg"},{"bike_id":"16899a2c-4d12-4f31-82f7-7377ed4ad1f3","system_id":"levelo_inurba_marseille","lat":43.2826,"lon":5.35074,"is_reserved":false,"is_disabled":false,"rental_uris":{"android":"levelo://app?vid=16899a2c-4d12-4f31-82f7-7377ed4ad1f3","ios":"levelo://app?vid=16899a2c-4d12-4f31-82f7-7377ed4ad1f3"},"vehicle_type_id":"4","last_reported":1751472778,"current_range_meters":18000,"station_id":"ce4bhbp2rcd13ifvqerg","pricing_plan_id":"cebpf4jnsgd1na2vs0mg"},{"bike_id":"d393009a-4549-46b8-9394-75871ff606d4","system_id":"levelo_inurba_marseille","lat":43.32371,"lon":5.36768,"is_reserved":false,"is_disabled":false,"rental_uris":{"android":"levelo://app?vid=d393009a-4549-46b8-9394-75871ff606d4","ios":"levelo://app?vid=d393009a-4549-46b8-9394-75871ff606d4"},"vehicle_type_id":"4","last_reported":1751472778,"current_range_meters":18000,"station_id":"ce4bhsh2rcd13ifvqi2g","pricing_plan_id":"cebpf4jnsgd1na2vs0mg"},{"bike_id":"10b0b860-bb51-4240-bd79-57112e19f6af","system_id":"levelo_inurba_marseille","lat":43.21771,"lon":5.34592,"is_reserved":false,"is_disabled":false,"rental_uris":{"android":"levelo://app?vid=10b0b860-bb51-4240-bd79-57112e19f6af","ios":"levelo://app?vid=10b0b860-bb51-4240-bd79-57112e19f6af"},"vehicle_type_id":"4","last_reported":1751472778,"current_range_meters":18800,"station_id":"","pricing_plan_id":"cebpf4jnsgd1na2vs0mg"},{"bike_id":"6c36efce-05da-4334-951f-f8bbdd10c352","system_id":"levelo_inurba_marseille","lat":43.3175,"lon":5.37774,"is_reserved":false,"is_disabled":false,"rental_uris":{"android":"levelo://app?vid=6c36efce-05da-4334-951f-f8bbdd10c352","ios":"levelo://app?vid=6c36efce-05da-4334-951f-f8bbdd10c352"},"vehicle_type_id":"4","last_reported":1751472778,"current_range_meters":18800,"station_id":"","pricing_plan_id":"cebpf4jnsgd1na2vs0mg"},{"bike_id":"ba154a12-11bd-42a5-958a-5992f5d043d1","system_id":"levelo_inurba_marseille","lat":43.30509,"lon":5.37129,"is_reserved":false,"is_disabled":false,"rental_uris":{"android":"levelo://app?vid=ba154a12-11bd-42a5-958a-5992f5d043d1","ios":"levelo://app?vid=ba154a12-11bd-42a5-958a-5992f5d043d1"},"vehicle_type_id":"4","last_reported":1751472778,"current_range_meters":18800,"station_id":"","pricing_plan_id":"cebpf4jnsgd1na2vs0mg"},{"bike_id":"fe84177e-dc24-423c-bc2b-77abf3163fe9","system_id":"levelo_inurba_marseille","lat":43.302287,"lon":5.382419,"is_reserved":false,"is_disabled":false,"rental_uris":{"android":"levelo://app?vid=fe84177e-dc24-423c-bc2b-77abf3163fe9","ios":"levelo://app?vid=fe84177e-dc24-423c-bc2b-77abf3163fe9"},"vehicle_type_id":"4","last_reported":1751472778,"current_range_meters":18800,"station_id":"","pricing_plan_id":"cebpf4jnsgd1na2vs0mg"},{"bike_id":"534fbc0d-e601-4359-b787-4b6b34fec83e","system_id":"levelo_inurba_marseille","lat":43.31485,"lon":5.37275,"is_reserved":false,"is_disabled":false,"rental_uris":{"android":"levelo://app?vid=534fbc0d-e601-4359-b787-4b6b34fec83e","ios":"levelo://app?vid=534fbc0d-e601-4359-b787-4b6b34fec83e"},"vehicle_type_id":"4","last_reported":1751472778,"current_range_meters":18800,"station_id":"ce4bgt12rcd13ifvqcd0","pricing_plan_id":"cebpf4jnsgd1na2vs0mg"},{"bike_id":"628fe858-76cc-46a6-b57e-f052424dfee9","system_id":"levelo_inurba_marseille","lat":43.30941,"lon":5.40144,"is_reserved":false,"is_disabled":false,"rental_uris":{"android":"levelo://app?vid=628fe858-76cc-46a6-b57e-f052424dfee9","ios":"levelo://app?vid=628fe858-76cc-46a6-b57e-f052424dfee9"},"vehicle_type_id":"4","last_reported":1751472778,"current_range_meters":18800,"station_id":"ce4bgvp2rcd13ifvqct0","pricing_plan_id":"cebpf4jnsgd1na2vs0mg"},{"bike_id":"f28964ce-056c-4b54-9fda-d61678f895e0","system_id":"levelo_inurba_marseille","lat":43.2439,"lon":5.37067,"is_reserved":false,"is_disabled":false,"rental_uris":{"android":"levelo://app?vid=f28964ce-056c-4b54-9fda-d61678f895e0","ios":"levelo://app?vid=f28964ce-056c-4b54-9fda-d61678f895e0"},"vehicle_type_id":"4","last_reported":1751472778,"current_range_meters":18800,"station_id":"ce4bhhh2rcd13ifvqfk0","pricing_plan_id":"cebpf4jnsgd1na2vs0mg"},{"bike_id":"239ace87-00ca-49ed-9c0e-46a711d84040","system_id":"levelo_inurba_marseille","lat":43.270697,"lon":5.422809,"is_reserved":false,"is_disabled":false,"rental_uris":{"android":"levelo://app?vid=239ace87-00ca-49ed-9c0e-46a711d84040","ios":"levelo://app?vid=239ace87-00ca-49ed-9c0e-46a711d84040"},"vehicle_type_id":"4","last_reported":1751472778,"current_range_meters":18800,"station_id":"ce4bhk92rcd13ifvqgb0","pricing_plan_id":"cebpf4jnsgd1na2vs0mg"},{"bike_id":"0a59ea00-800e-40e8-a92f-63ea03982f65","system_id":"levelo_inurba_marseille","lat":43.32108,"lon":5.36777,"is_reserved":false,"is_disabled":false,"rental_uris":{"android":"levelo://app?vid=0a59ea00-800e-40e8-a92f-63ea03982f65","ios":"levelo://app?vid=0a59ea00-800e-40e8-a92f-63ea03982f65"},"vehicle_type_id":"4","last_reported":1751472778,"current_range_meters":18800,"station_id":"ce4bhrh2rcd13ifvqhug","pricing_plan_id":"cebpf4jnsgd1na2vs0mg"},{"bike_id":"0f590c2a-c81e-469d-a7d1-2741de3642a2","system_id":"levelo_inurba_marseille","lat":43.21197,"lon":5.35073,"is_reserved":false,"is_disabled":false,"rental_uris":{"android":"levelo://app?vid=0f590c2a-c81e-469d-a7d1-2741de3642a2","ios":"levelo://app?vid=0f590c2a-c81e-469d-a7d1-2741de3642a2"},"vehicle_type_id":"4","last_reported":1751472778,"current_range_meters":18800,"station_id":"st_cvj6sg6p6f1abm77japg","pricing_plan_id":"cebpf4jnsgd1na2vs0mg"},{"bike_id":"b2325bea-9a74-459a-a713-509c2ba84f3e","system_id":"levelo_inurba_marseille","lat":43.28322,"lon":5.41304,"is_reserved":false,"is_disabled":false,"rental_uris":{"android":"levelo://app?vid=b2325bea-9a74-459a-a713-509c2ba84f3e","ios":"levelo://app?vid=b2325bea-9a74-459a-a713-509c2ba84f3e"},"vehicle_type_id":"4","last_reported":1751472778,"current_range_meters":19200,"station_id":"","pricing_plan_id":"cebpf4jnsgd1na2vs0mg"},{"bike_id":"88da0a8a-c235-4518-8971-4d82c75fdca3","system_id":"levelo_inurba_marseille","lat":43.28447,"lon":5.34908,"is_reserved":false,"is_disabled":false,"rental_uris":{"android":"levelo://app?vid=88da0a8a-c235-4518-8971-4d82c75fdca3","ios":"levelo://app?vid=88da0a8a-c235-4518-8971-4d82c75fdca3"},"vehicle_type_id":"4","last_reported":1751472778,"current_range_meters":19200,"station_id":"ce4bhbh2rcd13ifvqepg","pricing_plan_id":"cebpf4jnsgd1na2vs0mg"},{"bike_id":"3d7f8e9b-4213-40e4-a3e7-78d54f706b9f","system_id":"levelo_inurba_marseille","lat":43.28418,"lon":5.34987,"is_reserved":false,"is_disabled":false,"rental_uris":{"android":"levelo://app?vid=3d7f8e9b-4213-40e4-a3e7-78d54f706b9f","ios":"levelo://app?vid=3d7f8e9b-4213-40e4-a3e7-78d54f706b9f"},"vehicle_type_id":"4","last_reported":1751472778,"current_range_meters":19200,"station_id":"ce4bhbh2rcd13ifvqepg","pricing_plan_id":"cebpf4jnsgd1na2vs0mg"},{"bike_id":"e707c510-ad27-462c-addc-980aa8cb525b","system_id":"levelo_inurba_marseille","lat":43.28266,"lon":5.35058,"is_reserved":false,"is_disabled":false,"rental_uris":{"android":"levelo://app?vid=e707c510-ad27-462c-addc-980aa8cb525b","ios":"levelo://app?vid=e707c510-ad27-462c-addc-980aa8cb525b"},"vehicle_type_id":"4","last_reported":1751472778,"current_range_meters":19200,"station_id":"ce4bhbp2rcd13ifvqerg","pricing_plan_id":"cebpf4jnsgd1na2vs0mg"},{"bike_id":"0268a1c4-1e5c-478c-87b8-c00323c914c1","system_id":"levelo_inurba_marseille","lat":43.28269,"lon":5.35075,"is_reserved":false,"is_disabled":false,"rental_uris":{"android":"levelo://app?vid=0268a1c4-1e5c-478c-87b8-c00323c914c1","ios":"levelo://app?vid=0268a1c4-1e5c-478c-87b8-c00323c914c1"},"vehicle_type_id":"4","last_reported":1751472778,"current_range_meters":19200,"station_id":"ce4bhbp2rcd13ifvqerg","pricing_plan_id":"cebpf4jnsgd1na2vs0mg"},{"bike_id":"5eff832e-c78a-448d-99c0-d4ac89c64acc","system_id":"levelo_inurba_marseille","lat":43.28619,"lon":5.35101,"is_reserved":false,"is_disabled":false,"rental_uris":{"android":"levelo://app?vid=5eff832e-c78a-448d-99c0-d4ac89c64acc","ios":"levelo://app?vid=5eff832e-c78a-448d-99c0-d4ac89c64acc"},"vehicle_type_id":"4","last_reported":1751472778,"current_range_meters":19200,"station_id":"ce4bhch2rcd13ifvqeug","pricing_plan_id":"cebpf4jnsgd1na2vs0mg"},{"bike_id":"d7eb42dd-1291-458b-978f-486fe89680a6","system_id":"levelo_inurba_marseille","lat":43.24823,"lon":5.37445,"is_reserved":false,"is_disabled":false,"rental_uris":{"android":"levelo://app?vid=d7eb42dd-1291-458b-978f-486fe89680a6","ios":"levelo://app?vid=d7eb42dd-1291-458b-978f-486fe89680a6"},"vehicle_type_id":"4","last_reported":1751472778,"current_range_meters":19200,"station_id":"ce4bhgh2rcd13ifvqfb0","pricing_plan_id":"cebpf4jnsgd1na2vs0mg"},{"bike_id":"48a8b866-9a64-4b58-8b3a-d988de0d4af0","system_id":"levelo_inurba_marseille","lat":43.24166,"lon":5.36415,"is_reserved":false,"is_disabled":false,"rental_uris":{"android":"levelo://app?vid=48a8b866-9a64-4b58-8b3a-d988de0d4af0","ios":"levelo://app?vid=48a8b866-9a64-4b58-8b3a-d988de0d4af0"},"vehicle_type_id":"4","last_reported":1751472778,"current_range_meters":19200,"station_id":"cpo36qri1sfpv3e86is0","pricing_plan_id":"cebpf4jnsgd1na2vs0mg"},{"bike_id":"37b84a38-055a-4a6e-a56a-8ff3d0c1b2ec","system_id":"levelo_inurba_marseille","lat":43.212,"lon":5.35086,"is_reserved":false,"is_disabled":false,"rental_uris":{"android":"levelo://app?vid=37b84a38-055a-4a6e-a56a-8ff3d0c1b2ec","ios":"levelo://app?vid=37b84a38-055a-4a6e-a56a-8ff3d0c1b2ec"},"vehicle_type_id":"4","last_reported":1751472778,"current_range_meters":19200,"station_id":"st_cvj6sg6p6f1abm77japg","pricing_plan_id":"cebpf4jnsgd1na2vs0mg"},{"bike_id":"97133bb7-c938-4d74-a1eb-917c434e9f69","system_id":"levelo_inurba_marseille","lat":43.30597,"lon":5.37222,"is_reserved":false,"is_disabled":false,"rental_uris":{"android":"levelo://app?vid=97133bb7-c938-4d74-a1eb-917c434e9f69","ios":"levelo://app?vid=97133bb7-c938-4d74-a1eb-917c434e9f69"},"vehicle_type_id":"4","last_reported":1751472778,"current_range_meters":19600,"station_id":"ce4bgqh2rcd13ifvqc4g","pricing_plan_id":"cebpf4jnsgd1na2vs0mg"},{"bike_id":"d1f95fde-8c96-40d1-a7a9-79d9120ab5f9","system_id":"levelo_inurba_marseille","lat":43.283523,"lon":5.381075,"is_reserved":false,"is_disabled":false,"rental_uris":{"android":"levelo://app?vid=d1f95fde-8c96-40d1-a7a9-79d9120ab5f9","ios":"levelo://app?vid=d1f95fde-8c96-40d1-a7a9-79d9120ab5f9"},"vehicle_type_id":"4","last_reported":1751472778,"current_range_meters":19600,"station_id":"ce4bh412rcd13ifvqdr0","pricing_plan_id":"cebpf4jnsgd1na2vs0mg"},{"bike_id":"2f73bfaf-eb0b-4e8a-b2f6-be056c82ad27","system_id":"levelo_inurba_marseille","lat":43.27836,"lon":5.39214,"is_reserved":false,"is_disabled":false,"rental_uris":{"android":"levelo://app?vid=2f73bfaf-eb0b-4e8a-b2f6-be056c82ad27","ios":"levelo://app?vid=2f73bfaf-eb0b-4e8a-b2f6-be056c82ad27"},"vehicle_type_id":"4","last_reported":1751472778,"current_range_meters":19600,"station_id":"ce4bhjp2rcd13ifvqga0","pricing_plan_id":"cebpf4jnsgd1na2vs0mg"},{"bike_id":"055f1a44-a9d8-48c4-81be-833ba5bbe025","system_id":"levelo_inurba_marseille","lat":43.28717,"lon":5.36093,"is_reserved":false,"is_disabled":false,"rental_uris":{"android":"levelo://app?vid=055f1a44-a9d8-48c4-81be-833ba5bbe025","ios":"levelo://app?vid=055f1a44-a9d8-48c4-81be-833ba5bbe025"},"vehicle_type_id":"4","last_reported":1751472778,"current_range_meters":19600,"station_id":"cki0cbj6b192h4jlfktg","pricing_plan_id":"cebpf4jnsgd1na2vs0mg"},{"bike_id":"2d7ab8c9-ccb6-4168-91f8-ffbbd54cc09d","system_id":"levelo_inurba_marseille","lat":43.29753,"lon":5.36928,"is_reserved":false,"is_disabled":false,"rental_uris":{"android":"levelo://app?vid=2d7ab8c9-ccb6-4168-91f8-ffbbd54cc09d","ios":"levelo://app?vid=2d7ab8c9-ccb6-4168-91f8-ffbbd54cc09d"},"vehicle_type_id":"4","last_reported":1751472778,"current_range_meters":20000,"station_id":"","pricing_plan_id":"cebpf4jnsgd1na2vs0mg"},{"bike_id":"8ca38934-1a1b-411b-aff8-b2d0e6a44217","system_id":"levelo_inurba_marseille","lat":43.29012,"lon":5.35606,"is_reserved":false,"is_disabled":false,"rental_uris":{"android":"levelo://app?vid=8ca38934-1a1b-411b-aff8-b2d0e6a44217","ios":"levelo://app?vid=8ca38934-1a1b-411b-aff8-b2d0e6a44217"},"vehicle_type_id":"4","last_reported":1751472778,"current_range_meters":20000,"station_id":"ce4bhb92rcd13ifvqen0","pricing_plan_id":"cebpf4jnsgd1na2vs0mg"},{"bike_id":"db714f02-8001-440b-a547-d12772041185","system_id":"levelo_inurba_marseille","lat":43.29237,"lon":5.36017,"is_reserved":false,"is_disabled":false,"rental_uris":{"android":"levelo://app?vid=db714f02-8001-440b-a547-d12772041185","ios":"levelo://app?vid=db714f02-8001-440b-a547-d12772041185"},"vehicle_type_id":"4","last_reported":1751472778,"current_range_meters":20000,"station_id":"ce4bhbh2rcd13ifvqeqg","pricing_plan_id":"cebpf4jnsgd1na2vs0mg"},{"bike_id":"f2444b85-9156-423d-9bd7-9f663f4f21b5","system_id":"levelo_inurba_marseille","lat":43.28617,"lon":5.35109,"is_reserved":false,"is_disabled":false,"rental_uris":{"android":"levelo://app?vid=f2444b85-9156-423d-9bd7-9f663f4f21b5","ios":"levelo://app?vid=f2444b85-9156-423d-9bd7-9f663f4f21b5"},"vehicle_type_id":"4","last_reported":1751472778,"current_range_meters":20000,"station_id":"ce4bhch2rcd13ifvqeug","pricing_plan_id":"cebpf4jnsgd1na2vs0mg"},{"bike_id":"9989fcdc-5935-4a64-94ba-bb69744e0c1d","system_id":"levelo_inurba_marseille","lat":43.23966,"lon":5.36635,"is_reserved":false,"is_disabled":false,"rental_uris":{"android":"levelo://app?vid=9989fcdc-5935-4a64-94ba-bb69744e0c1d","ios":"levelo://app?vid=9989fcdc-5935-4a64-94ba-bb69744e0c1d"},"vehicle_type_id":"4","last_reported":1751472778,"current_range_meters":20000,"station_id":"ce4bhi12rcd13ifvqfp0","pricing_plan_id":"cebpf4jnsgd1na2vs0mg"},{"bike_id":"21e2c51d-4563-4efd-afbf-0ddeff93c862","system_id":"levelo_inurba_marseille","lat":43.21836,"lon":5.34736,"is_reserved":false,"is_disabled":false,"rental_uris":{"android":"levelo://app?vid=21e2c51d-4563-4efd-afbf-0ddeff93c862","ios":"levelo://app?vid=21e2c51d-4563-4efd-afbf-0ddeff93c862"},"vehicle_type_id":"4","last_reported":1751472778,"current_range_meters":20000,"station_id":"st_cvj6r9ubvosntc0bgbag","pricing_plan_id":"cebpf4jnsgd1na2vs0mg"},{"bike_id":"4d4995e7-0bba-4ac2-a238-afd84a5e99b5","system_id":"levelo_inurba_marseille","lat":43.304848,"lon":5.398345,"is_reserved":false,"is_disabled":false,"rental_uris":{"android":"levelo://app?vid=4d4995e7-0bba-4ac2-a238-afd84a5e99b5","ios":"levelo://app?vid=4d4995e7-0bba-4ac2-a238-afd84a5e99b5"},"vehicle_type_id":"4","last_reported":1751472778,"current_range_meters":20400,"station_id":"","pricing_plan_id":"cebpf4jnsgd1na2vs0mg"},{"bike_id":"50bb0fdb-2cc1-4d8d-af26-b7febba54985","system_id":"levelo_inurba_marseille","lat":43.274139,"lon":5.39007,"is_reserved":false,"is_disabled":false,"rental_uris":{"android":"levelo://app?vid=50bb0fdb-2cc1-4d8d-af26-b7febba54985","ios":"levelo://app?vid=50bb0fdb-2cc1-4d8d-af26-b7febba54985"},"vehicle_type_id":"4","last_reported":1751472778,"current_range_meters":20400,"station_id":"","pricing_plan_id":"cebpf4jnsgd1na2vs0mg"},{"bike_id":"4108ea58-2176-4b26-81bd-460a1b43a214","system_id":"levelo_inurba_marseille","lat":43.31365,"lon":5.3849,"is_reserved":false,"is_disabled":false,"rental_uris":{"android":"levelo://app?vid=4108ea58-2176-4b26-81bd-460a1b43a214","ios":"levelo://app?vid=4108ea58-2176-4b26-81bd-460a1b43a214"},"vehicle_type_id":"4","last_reported":1751472778,"current_range_meters":20400,"station_id":"ce4bgt92rcd13ifvqcf0","pricing_plan_id":"cebpf4jnsgd1na2vs0mg"},{"bike_id":"607f5e62-a9ca-4bac-bfea-a44c81ec64a4","system_id":"levelo_inurba_marseille","lat":43.28347,"lon":5.38113,"is_reserved":false,"is_disabled":false,"rental_uris":{"android":"levelo://app?vid=607f5e62-a9ca-4bac-bfea-a44c81ec64a4","ios":"levelo://app?vid=607f5e62-a9ca-4bac-bfea-a44c81ec64a4"},"vehicle_type_id":"4","last_reported":1751472778,"current_range_meters":20400,"station_id":"ce4bh412rcd13ifvqdr0","pricing_plan_id":"cebpf4jnsgd1na2vs0mg"},{"bike_id":"92ce571e-8bb4-4eab-9f9e-809fb7433bc6","system_id":"levelo_inurba_marseille","lat":43.273737,"lon":5.362537,"is_reserved":false,"is_disabled":false,"rental_uris":{"android":"levelo://app?vid=92ce571e-8bb4-4eab-9f9e-809fb7433bc6","ios":"levelo://app?vid=92ce571e-8bb4-4eab-9f9e-809fb7433bc6"},"vehicle_type_id":"4","last_reported":1751472778,"current_range_meters":20400,"station_id":"ce4bhbh2rcd13ifvqeo0","pricing_plan_id":"cebpf4jnsgd1na2vs0mg"},{"bike_id":"87391989-0533-4c18-b693-6d2f8ff1261b","system_id":"levelo_inurba_marseille","lat":43.28272,"lon":5.35073,"is_reserved":false,"is_disabled":false,"rental_uris":{"android":"levelo://app?vid=87391989-0533-4c18-b693-6d2f8ff1261b","ios":"levelo://app?vid=87391989-0533-4c18-b693-6d2f8ff1261b"},"vehicle_type_id":"4","last_reported":1751472778,"current_range_meters":20400,"station_id":"ce4bhbp2rcd13ifvqerg","pricing_plan_id":"cebpf4jnsgd1na2vs0mg"},{"bike_id":"9c4f9a2d-b455-431d-a8b6-b8f482f5e447","system_id":"levelo_inurba_marseille","lat":43.25505,"lon":5.3764,"is_reserved":false,"is_disabled":false,"rental_uris":{"android":"levelo://app?vid=9c4f9a2d-b455-431d-a8b6-b8f482f5e447","ios":"levelo://app?vid=9c4f9a2d-b455-431d-a8b6-b8f482f5e447"},"vehicle_type_id":"4","last_reported":1751472778,"current_range_meters":20400,"station_id":"ce4bhh12rcd13ifvqff0","pricing_plan_id":"cebpf4jnsgd1na2vs0mg"},{"bike_id":"5f7a5c92-cf19-428f-a6d6-a37c8e43b9e3","system_id":"levelo_inurba_marseille","lat":43.23213,"lon":5.35544,"is_reserved":false,"is_disabled":false,"rental_uris":{"android":"levelo://app?vid=5f7a5c92-cf19-428f-a6d6-a37c8e43b9e3","ios":"levelo://app?vid=5f7a5c92-cf19-428f-a6d6-a37c8e43b9e3"},"vehicle_type_id":"4","last_reported":1751472778,"current_range_meters":20400,"station_id":"ce4bhu92rcd13ifvqi70","pricing_plan_id":"cebpf4jnsgd1na2vs0mg"},{"bike_id":"a6715104-7492-4ec6-a996-23050baf8551","system_id":"levelo_inurba_marseille","lat":43.225,"lon":5.34777,"is_reserved":false,"is_disabled":false,"rental_uris":{"android":"levelo://app?vid=a6715104-7492-4ec6-a996-23050baf8551","ios":"levelo://app?vid=a6715104-7492-4ec6-a996-23050baf8551"},"vehicle_type_id":"4","last_reported":1751472778,"current_range_meters":20400,"station_id":"st_cvj5dfep6f1abm77gieg","pricing_plan_id":"cebpf4jnsgd1na2vs0mg"},{"bike_id":"7e21e8f2-09c8-4cc5-8113-278ebd23888d","system_id":"levelo_inurba_marseille","lat":43.21189,"lon":5.35076,"is_reserved":false,"is_disabled":false,"rental_uris":{"android":"levelo://app?vid=7e21e8f2-09c8-4cc5-8113-278ebd23888d","ios":"levelo://app?vid=7e21e8f2-09c8-4cc5-8113-278ebd23888d"},"vehicle_type_id":"4","last_reported":1751472778,"current_range_meters":20400,"station_id":"st_cvj6sg6p6f1abm77japg","pricing_plan_id":"cebpf4jnsgd1na2vs0mg"},{"bike_id":"26808e7d-7342-46e0-bb01-c63f67b105ad","system_id":"levelo_inurba_marseille","lat":43.30132,"lon":5.39868,"is_reserved":false,"is_disabled":false,"rental_uris":{"android":"levelo://app?vid=26808e7d-7342-46e0-bb01-c63f67b105ad","ios":"levelo://app?vid=26808e7d-7342-46e0-bb01-c63f67b105ad"},"vehicle_type_id":"4","last_reported":1751472778,"current_range_meters":20800,"station_id":"ce4bh0h2rcd13ifvqd40","pricing_plan_id":"cebpf4jnsgd1na2vs0mg"},{"bike_id":"ba50bec5-a879-4f37-a07b-2c926d88ed19","system_id":"levelo_inurba_marseille","lat":43.29008,"lon":5.35611,"is_reserved":false,"is_disabled":false,"rental_uris":{"android":"levelo://app?vid=ba50bec5-a879-4f37-a07b-2c926d88ed19","ios":"levelo://app?vid=ba50bec5-a879-4f37-a07b-2c926d88ed19"},"vehicle_type_id":"4","last_reported":1751472778,"current_range_meters":20800,"station_id":"ce4bhb92rcd13ifvqen0","pricing_plan_id":"cebpf4jnsgd1na2vs0mg"},{"bike_id":"cb691c85-582b-4b8e-ad8b-b202efaec54d","system_id":"levelo_inurba_marseille","lat":43.27389,"lon":5.36246,"is_reserved":false,"is_disabled":false,"rental_uris":{"android":"levelo://app?vid=cb691c85-582b-4b8e-ad8b-b202efaec54d","ios":"levelo://app?vid=cb691c85-582b-4b8e-ad8b-b202efaec54d"},"vehicle_type_id":"4","last_reported":1751472778,"current_range_meters":20800,"station_id":"ce4bhbh2rcd13ifvqeo0","pricing_plan_id":"cebpf4jnsgd1na2vs0mg"},{"bike_id":"47d30eaa-7064-4301-b4fd-2f92dd279bdf","system_id":"levelo_inurba_marseille","lat":43.30614,"lon":5.36759,"is_reserved":false,"is_disabled":false,"rental_uris":{"android":"levelo://app?vid=47d30eaa-7064-4301-b4fd-2f92dd279bdf","ios":"levelo://app?vid=47d30eaa-7064-4301-b4fd-2f92dd279bdf"},"vehicle_type_id":"4","last_reported":1751472778,"current_range_meters":21600,"station_id":"ce4bgrp2rcd13ifvqc9g","pricing_plan_id":"cebpf4jnsgd1na2vs0mg"},{"bike_id":"a1d60773-dc8c-4b3c-b2eb-1fe9ea1ee352","system_id":"levelo_inurba_marseille","lat":43.284207,"lon":5.349887,"is_reserved":false,"is_disabled":false,"rental_uris":{"android":"levelo://app?vid=a1d60773-dc8c-4b3c-b2eb-1fe9ea1ee352","ios":"levelo://app?vid=a1d60773-dc8c-4b3c-b2eb-1fe9ea1ee352"},"vehicle_type_id":"4","last_reported":1751472778,"current_range_meters":21600,"station_id":"ce4bhbh2rcd13ifvqepg","pricing_plan_id":"cebpf4jnsgd1na2vs0mg"},{"bike_id":"cc04118e-9312-4bf8-9106-d64e829afbaa","system_id":"levelo_inurba_marseille","lat":43.211961,"lon":5.35079,"is_reserved":false,"is_disabled":false,"rental_uris":{"android":"levelo://app?vid=cc04118e-9312-4bf8-9106-d64e829afbaa","ios":"levelo://app?vid=cc04118e-9312-4bf8-9106-d64e829afbaa"},"vehicle_type_id":"4","last_reported":1751472778,"current_range_meters":21600,"station_id":"st_cvj6sg6p6f1abm77japg","pricing_plan_id":"cebpf4jnsgd1na2vs0mg"},{"bike_id":"a878f0a6-37f0-430b-ab7c-de3c6e3a89ac","system_id":"levelo_inurba_marseille","lat":43.29006,"lon":5.3561,"is_reserved":false,"is_disabled":false,"rental_uris":{"android":"levelo://app?vid=a878f0a6-37f0-430b-ab7c-de3c6e3a89ac","ios":"levelo://app?vid=a878f0a6-37f0-430b-ab7c-de3c6e3a89ac"},"vehicle_type_id":"4","last_reported":1751472778,"current_range_meters":22000,"station_id":"ce4bhb92rcd13ifvqen0","pricing_plan_id":"cebpf4jnsgd1na2vs0mg"},{"bike_id":"4133a128-498f-4833-be65-a8cfce0b7ca0","system_id":"levelo_inurba_marseille","lat":43.28422,"lon":5.3498,"is_reserved":false,"is_disabled":false,"rental_uris":{"android":"levelo://app?vid=4133a128-498f-4833-be65-a8cfce0b7ca0","ios":"levelo://app?vid=4133a128-498f-4833-be65-a8cfce0b7ca0"},"vehicle_type_id":"4","last_reported":1751472778,"current_range_meters":22000,"station_id":"ce4bhbh2rcd13ifvqepg","pricing_plan_id":"cebpf4jnsgd1na2vs0mg"},{"bike_id":"b306069e-2fe2-4854-a1d8-e8757754c153","system_id":"levelo_inurba_marseille","lat":43.28942,"lon":5.36371,"is_reserved":false,"is_disabled":false,"rental_uris":{"android":"levelo://app?vid=b306069e-2fe2-4854-a1d8-e8757754c153","ios":"levelo://app?vid=b306069e-2fe2-4854-a1d8-e8757754c153"},"vehicle_type_id":"4","last_reported":1751472778,"current_range_meters":22000,"station_id":"ce4bhc92rcd13ifvqetg","pricing_plan_id":"cebpf4jnsgd1na2vs0mg"},{"bike_id":"f1d60942-f1e1-4d98-9fd4-53066a986a39","system_id":"levelo_inurba_marseille","lat":43.28624,"lon":5.35103,"is_reserved":false,"is_disabled":false,"rental_uris":{"android":"levelo://app?vid=f1d60942-f1e1-4d98-9fd4-53066a986a39","ios":"levelo://app?vid=f1d60942-f1e1-4d98-9fd4-53066a986a39"},"vehicle_type_id":"4","last_reported":1751472778,"current_range_meters":22000,"station_id":"ce4bhch2rcd13ifvqeug","pricing_plan_id":"cebpf4jnsgd1na2vs0mg"},{"bike_id":"e8926d9c-fd81-4c6f-9f8b-a5a515bef33a","system_id":"levelo_inurba_marseille","lat":43.24391,"lon":5.3707,"is_reserved":false,"is_disabled":false,"rental_uris":{"android":"levelo://app?vid=e8926d9c-fd81-4c6f-9f8b-a5a515bef33a","ios":"levelo://app?vid=e8926d9c-fd81-4c6f-9f8b-a5a515bef33a"},"vehicle_type_id":"4","last_reported":1751472778,"current_range_meters":22000,"station_id":"ce4bhhh2rcd13ifvqfk0","pricing_plan_id":"cebpf4jnsgd1na2vs0mg"},{"bike_id":"5604fab1-91f2-437d-b8cf-7c287a619ad9","system_id":"levelo_inurba_marseille","lat":43.23967,"lon":5.36637,"is_reserved":false,"is_disabled":false,"rental_uris":{"android":"levelo://app?vid=5604fab1-91f2-437d-b8cf-7c287a619ad9","ios":"levelo://app?vid=5604fab1-91f2-437d-b8cf-7c287a619ad9"},"vehicle_type_id":"4","last_reported":1751472778,"current_range_meters":22000,"station_id":"ce4bhi12rcd13ifvqfp0","pricing_plan_id":"cebpf4jnsgd1na2vs0mg"},{"bike_id":"3caa039e-9711-4d2a-ba88-05b4077d99c3","system_id":"levelo_inurba_marseille","lat":43.24547,"lon":5.39527,"is_reserved":false,"is_disabled":false,"rental_uris":{"android":"levelo://app?vid=3caa039e-9711-4d2a-ba88-05b4077d99c3","ios":"levelo://app?vid=3caa039e-9711-4d2a-ba88-05b4077d99c3"},"vehicle_type_id":"4","last_reported":1751472778,"current_range_meters":22000,"station_id":"ce4bhlp2rcd13ifvqgjg","pricing_plan_id":"cebpf4jnsgd1na2vs0mg"},{"bike_id":"e38257ec-0308-45c9-93fb-456c46f48d1d","system_id":"levelo_inurba_marseille","lat":43.28151,"lon":5.42637,"is_reserved":false,"is_disabled":false,"rental_uris":{"android":"levelo://app?vid=e38257ec-0308-45c9-93fb-456c46f48d1d","ios":"levelo://app?vid=e38257ec-0308-45c9-93fb-456c46f48d1d"},"vehicle_type_id":"4","last_reported":1751472778,"current_range_meters":22000,"station_id":"ce4bhnh2rcd13ifvqgug","pricing_plan_id":"cebpf4jnsgd1na2vs0mg"},{"bike_id":"b2ce53ca-166b-417e-9d70-9bee393f75bb","system_id":"levelo_inurba_marseille","lat":43.2119,"lon":5.35066,"is_reserved":false,"is_disabled":false,"rental_uris":{"android":"levelo://app?vid=b2ce53ca-166b-417e-9d70-9bee393f75bb","ios":"levelo://app?vid=b2ce53ca-166b-417e-9d70-9bee393f75bb"},"vehicle_type_id":"4","last_reported":1751472778,"current_range_meters":22000,"station_id":"st_cvj6sg6p6f1abm77japg","pricing_plan_id":"cebpf4jnsgd1na2vs0mg"},{"bike_id":"1c8ab180-05fd-405f-9922-b2b2c2d5142f","system_id":"levelo_inurba_marseille","lat":43.337893,"lon":5.381249,"is_reserved":false,"is_disabled":false,"rental_uris":{"android":"levelo://app?vid=1c8ab180-05fd-405f-9922-b2b2c2d5142f","ios":"levelo://app?vid=1c8ab180-05fd-405f-9922-b2b2c2d5142f"},"vehicle_type_id":"4","last_reported":1751472778,"current_range_meters":22400,"station_id":"","pricing_plan_id":"cebpf4jnsgd1na2vs0mg"},{"bike_id":"0e41a51b-0a59-4e24-9903-ebdb81fc6fab","system_id":"levelo_inurba_marseille","lat":43.31115,"lon":5.37768,"is_reserved":false,"is_disabled":false,"rental_uris":{"android":"levelo://app?vid=0e41a51b-0a59-4e24-9903-ebdb81fc6fab","ios":"levelo://app?vid=0e41a51b-0a59-4e24-9903-ebdb81fc6fab"},"vehicle_type_id":"4","last_reported":1751472778,"current_range_meters":22400,"station_id":"ce4bgt92rcd13ifvqcg0","pricing_plan_id":"cebpf4jnsgd1na2vs0mg"},{"bike_id":"a8e7bc4b-d124-4cb7-89d1-1fe7d847cf45","system_id":"levelo_inurba_marseille","lat":43.28278,"lon":5.35071,"is_reserved":false,"is_disabled":false,"rental_uris":{"android":"levelo://app?vid=a8e7bc4b-d124-4cb7-89d1-1fe7d847cf45","ios":"levelo://app?vid=a8e7bc4b-d124-4cb7-89d1-1fe7d847cf45"},"vehicle_type_id":"4","last_reported":1751472778,"current_range_meters":22400,"station_id":"ce4bhbp2rcd13ifvqerg","pricing_plan_id":"cebpf4jnsgd1na2vs0mg"},{"bike_id":"34b20eac-7d5d-4be6-a625-9da3dba56cec","system_id":"levelo_inurba_marseille","lat":43.28299,"lon":5.35087,"is_reserved":false,"is_disabled":false,"rental_uris":{"android":"levelo://app?vid=34b20eac-7d5d-4be6-a625-9da3dba56cec","ios":"levelo://app?vid=34b20eac-7d5d-4be6-a625-9da3dba56cec"},"vehicle_type_id":"4","last_reported":1751472778,"current_range_meters":22800,"station_id":"ce4bhbp2rcd13ifvqerg","pricing_plan_id":"cebpf4jnsgd1na2vs0mg"},{"bike_id":"0dbbfd7c-5e93-4301-aea8-6d89ce7ed33b","system_id":"levelo_inurba_marseille","lat":43.2176,"lon":5.34591,"is_reserved":false,"is_disabled":false,"rental_uris":{"android":"levelo://app?vid=0dbbfd7c-5e93-4301-aea8-6d89ce7ed33b","ios":"levelo://app?vid=0dbbfd7c-5e93-4301-aea8-6d89ce7ed33b"},"vehicle_type_id":"4","last_reported":1751472778,"current_range_meters":22800,"station_id":"st_cvj6r9ubvosntc0bgbag","pricing_plan_id":"cebpf4jnsgd1na2vs0mg"},{"bike_id":"4f2ee131-aaa8-495d-804f-4fa975fdbab6","system_id":"levelo_inurba_marseille","lat":43.28416,"lon":5.37507,"is_reserved":false,"is_disabled":false,"rental_uris":{"android":"levelo://app?vid=4f2ee131-aaa8-495d-804f-4fa975fdbab6","ios":"levelo://app?vid=4f2ee131-aaa8-495d-804f-4fa975fdbab6"},"vehicle_type_id":"4","last_reported":1751472778,"current_range_meters":23200,"station_id":"ce4bh412rcd13ifvqds0","pricing_plan_id":"cebpf4jnsgd1na2vs0mg"},{"bike_id":"bf563b61-1290-47ba-9ac7-7634a25e5b3e","system_id":"levelo_inurba_marseille","lat":43.28418,"lon":5.34988,"is_reserved":false,"is_disabled":false,"rental_uris":{"android":"levelo://app?vid=bf563b61-1290-47ba-9ac7-7634a25e5b3e","ios":"levelo://app?vid=bf563b61-1290-47ba-9ac7-7634a25e5b3e"},"vehicle_type_id":"4","last_reported":1751472778,"current_range_meters":23200,"station_id":"ce4bhbh2rcd13ifvqepg","pricing_plan_id":"cebpf4jnsgd1na2vs0mg"},{"bike_id":"5f1e5526-9ff8-4075-8194-48a897f058b4","system_id":"levelo_inurba_marseille","lat":43.2114,"lon":5.35106,"is_reserved":false,"is_disabled":false,"rental_uris":{"android":"levelo://app?vid=5f1e5526-9ff8-4075-8194-48a897f058b4","ios":"levelo://app?vid=5f1e5526-9ff8-4075-8194-48a897f058b4"},"vehicle_type_id":"4","last_reported":1751472778,"current_range_meters":23200,"station_id":"st_cvj6sg6p6f1abm77japg","pricing_plan_id":"cebpf4jnsgd1na2vs0mg"},{"bike_id":"3eabe1e2-f9f5-41cb-a4ed-73ca7f909c5c","system_id":"levelo_inurba_marseille","lat":43.211979,"lon":5.350728,"is_reserved":false,"is_disabled":false,"rental_uris":{"android":"levelo://app?vid=3eabe1e2-f9f5-41cb-a4ed-73ca7f909c5c","ios":"levelo://app?vid=3eabe1e2-f9f5-41cb-a4ed-73ca7f909c5c"},"vehicle_type_id":"4","last_reported":1751472778,"current_range_meters":23200,"station_id":"st_cvj6sg6p6f1abm77japg","pricing_plan_id":"cebpf4jnsgd1na2vs0mg"},{"bike_id":"49733973-9271-462e-8771-040468e60f20","system_id":"levelo_inurba_marseille","lat":43.25785,"lon":5.40018,"is_reserved":false,"is_disabled":false,"rental_uris":{"android":"levelo://app?vid=49733973-9271-462e-8771-040468e60f20","ios":"levelo://app?vid=49733973-9271-462e-8771-040468e60f20"},"vehicle_type_id":"4","last_reported":1751472778,"current_range_meters":24000,"station_id":"","pricing_plan_id":"cebpf4jnsgd1na2vs0mg"},{"bike_id":"ba926bfc-9632-4680-b0ed-32a040d6fb83","system_id":"levelo_inurba_marseille","lat":43.21181,"lon":5.35162,"is_reserved":false,"is_disabled":false,"rental_uris":{"android":"levelo://app?vid=ba926bfc-9632-4680-b0ed-32a040d6fb83","ios":"levelo://app?vid=ba926bfc-9632-4680-b0ed-32a040d6fb83"},"vehicle_type_id":"4","last_reported":1751472778,"current_range_meters":24000,"station_id":"","pricing_plan_id":"cebpf4jnsgd1na2vs0mg"},{"bike_id":"99b8138d-cd34-4aa2-850f-5f628a35c384","system_id":"levelo_inurba_marseille","lat":43.29057,"lon":5.35583,"is_reserved":false,"is_disabled":false,"rental_uris":{"android":"levelo://app?vid=99b8138d-cd34-4aa2-850f-5f628a35c384","ios":"levelo://app?vid=99b8138d-cd34-4aa2-850f-5f628a35c384"},"vehicle_type_id":"4","last_reported":1751472778,"current_range_meters":24000,"station_id":"","pricing_plan_id":"cebpf4jnsgd1na2vs0mg"},{"bike_id":"bcdb1cc2-4215-4c6a-840b-fbc66ed28f30","system_id":"levelo_inurba_marseille","lat":43.28415,"lon":5.3498,"is_reserved":false,"is_disabled":false,"rental_uris":{"android":"levelo://app?vid=bcdb1cc2-4215-4c6a-840b-fbc66ed28f30","ios":"levelo://app?vid=bcdb1cc2-4215-4c6a-840b-fbc66ed28f30"},"vehicle_type_id":"4","last_reported":1751472778,"current_range_meters":24000,"station_id":"ce4bhbh2rcd13ifvqepg","pricing_plan_id":"cebpf4jnsgd1na2vs0mg"},{"bike_id":"32c0fc37-6823-41d0-9497-8d1eea24742c","system_id":"levelo_inurba_marseille","lat":43.24177,"lon":5.36401,"is_reserved":false,"is_disabled":false,"rental_uris":{"android":"levelo://app?vid=32c0fc37-6823-41d0-9497-8d1eea24742c","ios":"levelo://app?vid=32c0fc37-6823-41d0-9497-8d1eea24742c"},"vehicle_type_id":"4","last_reported":1751472778,"current_range_meters":24000,"station_id":"cpo36qri1sfpv3e86is0","pricing_plan_id":"cebpf4jnsgd1na2vs0mg"},{"bike_id":"b13877a6-4825-4d82-b46b-67fa8ad66c5d","system_id":"levelo_inurba_marseille","lat":43.211947,"lon":5.350827,"is_reserved":false,"is_disabled":false,"rental_uris":{"android":"levelo://app?vid=b13877a6-4825-4d82-b46b-67fa8ad66c5d","ios":"levelo://app?vid=b13877a6-4825-4d82-b46b-67fa8ad66c5d"},"vehicle_type_id":"4","last_reported":1751472778,"current_range_meters":24000,"station_id":"st_cvj6sg6p6f1abm77japg","pricing_plan_id":"cebpf4jnsgd1na2vs0mg"},{"bike_id":"7712491c-e18b-4b09-bb79-30880b357c07","system_id":"levelo_inurba_marseille","lat":43.212,"lon":5.35074,"is_reserved":false,"is_disabled":false,"rental_uris":{"android":"levelo://app?vid=7712491c-e18b-4b09-bb79-30880b357c07","ios":"levelo://app?vid=7712491c-e18b-4b09-bb79-30880b357c07"},"vehicle_type_id":"4","last_reported":1751472778,"current_range_meters":24000,"station_id":"st_cvj6sg6p6f1abm77japg","pricing_plan_id":"cebpf4jnsgd1na2vs0mg"},{"bike_id":"3a7a0c5d-d07f-4005-b883-80b79ca3f3fd","system_id":"levelo_inurba_marseille","lat":43.30427,"lon":5.38893,"is_reserved":false,"is_disabled":false,"rental_uris":{"android":"levelo://app?vid=3a7a0c5d-d07f-4005-b883-80b79ca3f3fd","ios":"levelo://app?vid=3a7a0c5d-d07f-4005-b883-80b79ca3f3fd"},"vehicle_type_id":"4","last_reported":1751472778,"current_range_meters":24400,"station_id":"ce4bgk12rcd13ifvqbi0","pricing_plan_id":"cebpf4jnsgd1na2vs0mg"},{"bike_id":"5c646a29-10e3-4b9b-ae32-c776055b51f7","system_id":"levelo_inurba_marseille","lat":43.31703,"lon":5.37739,"is_reserved":false,"is_disabled":false,"rental_uris":{"android":"levelo://app?vid=5c646a29-10e3-4b9b-ae32-c776055b51f7","ios":"levelo://app?vid=5c646a29-10e3-4b9b-ae32-c776055b51f7"},"vehicle_type_id":"4","last_reported":1751472778,"current_range_meters":24400,"station_id":"ce4bgth2rcd13ifvqch0","pricing_plan_id":"cebpf4jnsgd1na2vs0mg"},{"bike_id":"5d35ce88-8705-4e15-87cd-e536d7fd266a","system_id":"levelo_inurba_marseille","lat":43.29268,"lon":5.38441,"is_reserved":false,"is_disabled":false,"rental_uris":{"android":"levelo://app?vid=5d35ce88-8705-4e15-87cd-e536d7fd266a","ios":"levelo://app?vid=5d35ce88-8705-4e15-87cd-e536d7fd266a"},"vehicle_type_id":"4","last_reported":1751472778,"current_range_meters":24400,"station_id":"ce4bh692rcd13ifvqea0","pricing_plan_id":"cebpf4jnsgd1na2vs0mg"},{"bike_id":"e58131ad-304a-4f2c-bf65-e38ccbc00cb1","system_id":"levelo_inurba_marseille","lat":43.2862,"lon":5.35101,"is_reserved":false,"is_disabled":false,"rental_uris":{"android":"levelo://app?vid=e58131ad-304a-4f2c-bf65-e38ccbc00cb1","ios":"levelo://app?vid=e58131ad-304a-4f2c-bf65-e38ccbc00cb1"},"vehicle_type_id":"4","last_reported":1751472778,"current_range_meters":24400,"station_id":"ce4bhch2rcd13ifvqeug","pricing_plan_id":"cebpf4jnsgd1na2vs0mg"},{"bike_id":"cf498fd8-d50b-47dd-9a1d-bb8692a50f16","system_id":"levelo_inurba_marseille","lat":43.25502,"lon":5.37643,"is_reserved":false,"is_disabled":false,"rental_uris":{"android":"levelo://app?vid=cf498fd8-d50b-47dd-9a1d-bb8692a50f16","ios":"levelo://app?vid=cf498fd8-d50b-47dd-9a1d-bb8692a50f16"},"vehicle_type_id":"4","last_reported":1751472778,"current_range_meters":24400,"station_id":"ce4bhh12rcd13ifvqff0","pricing_plan_id":"cebpf4jnsgd1na2vs0mg"},{"bike_id":"559ed6ee-7ed1-41b8-a7b9-94151f20221c","system_id":"levelo_inurba_marseille","lat":43.32095,"lon":5.3679,"is_reserved":false,"is_disabled":false,"rental_uris":{"android":"levelo://app?vid=559ed6ee-7ed1-41b8-a7b9-94151f20221c","ios":"levelo://app?vid=559ed6ee-7ed1-41b8-a7b9-94151f20221c"},"vehicle_type_id":"4","last_reported":1751472778,"current_range_meters":24400,"station_id":"ce4bhrh2rcd13ifvqhug","pricing_plan_id":"cebpf4jnsgd1na2vs0mg"},{"bike_id":"b3d7a6ac-4ad8-404e-91ae-53d96dbbd9fb","system_id":"levelo_inurba_marseille","lat":43.211984,"lon":5.350689,"is_reserved":false,"is_disabled":false,"rental_uris":{"android":"levelo://app?vid=b3d7a6ac-4ad8-404e-91ae-53d96dbbd9fb","ios":"levelo://app?vid=b3d7a6ac-4ad8-404e-91ae-53d96dbbd9fb"},"vehicle_type_id":"4","last_reported":1751472778,"current_range_meters":24400,"station_id":"st_cvj6sg6p6f1abm77japg","pricing_plan_id":"cebpf4jnsgd1na2vs0mg"},{"bike_id":"c9cd1ed4-febf-4f0f-8537-8f86861c9beb","system_id":"levelo_inurba_marseille","lat":43.21186,"lon":5.35069,"is_reserved":false,"is_disabled":false,"rental_uris":{"android":"levelo://app?vid=c9cd1ed4-febf-4f0f-8537-8f86861c9beb","ios":"levelo://app?vid=c9cd1ed4-febf-4f0f-8537-8f86861c9beb"},"vehicle_type_id":"4","last_reported":1751472778,"current_range_meters":24400,"station_id":"st_cvj6sg6p6f1abm77japg","pricing_plan_id":"cebpf4jnsgd1na2vs0mg"},{"bike_id":"4b8da722-ee9e-48a4-a5e5-3a8a10364708","system_id":"levelo_inurba_marseille","lat":43.312242,"lon":5.378243,"is_reserved":false,"is_disabled":false,"rental_uris":{"android":"levelo://app?vid=4b8da722-ee9e-48a4-a5e5-3a8a10364708","ios":"levelo://app?vid=4b8da722-ee9e-48a4-a5e5-3a8a10364708"},"vehicle_type_id":"4","last_reported":1751472778,"current_range_meters":24800,"station_id":"","pricing_plan_id":"cebpf4jnsgd1na2vs0mg"},{"bike_id":"874a7950-3390-4369-93e8-77e118ddedbd","system_id":"levelo_inurba_marseille","lat":43.30534,"lon":5.3656,"is_reserved":false,"is_disabled":false,"rental_uris":{"android":"levelo://app?vid=874a7950-3390-4369-93e8-77e118ddedbd","ios":"levelo://app?vid=874a7950-3390-4369-93e8-77e118ddedbd"},"vehicle_type_id":"4","last_reported":1751472778,"current_range_meters":24800,"station_id":"ce4bgs12rcd13ifvqcag","pricing_plan_id":"cebpf4jnsgd1na2vs0mg"},{"bike_id":"a080127f-9787-41c5-899d-01d3e4275f05","system_id":"levelo_inurba_marseille","lat":43.28411,"lon":5.349826,"is_reserved":false,"is_disabled":false,"rental_uris":{"android":"levelo://app?vid=a080127f-9787-41c5-899d-01d3e4275f05","ios":"levelo://app?vid=a080127f-9787-41c5-899d-01d3e4275f05"},"vehicle_type_id":"4","last_reported":1751472778,"current_range_meters":24800,"station_id":"ce4bhbh2rcd13ifvqepg","pricing_plan_id":"cebpf4jnsgd1na2vs0mg"},{"bike_id":"51d27453-1259-40d1-9a5c-246de26b3b5e","system_id":"levelo_inurba_marseille","lat":43.28405,"lon":5.34991,"is_reserved":false,"is_disabled":false,"rental_uris":{"android":"levelo://app?vid=51d27453-1259-40d1-9a5c-246de26b3b5e","ios":"levelo://app?vid=51d27453-1259-40d1-9a5c-246de26b3b5e"},"vehicle_type_id":"4","last_reported":1751472778,"current_range_meters":24800,"station_id":"ce4bhbh2rcd13ifvqepg","pricing_plan_id":"cebpf4jnsgd1na2vs0mg"},{"bike_id":"40396686-cf8e-4256-ace0-9c2cd7591090","system_id":"levelo_inurba_marseille","lat":43.26562,"lon":5.37284,"is_reserved":false,"is_disabled":false,"rental_uris":{"android":"levelo://app?vid=40396686-cf8e-4256-ace0-9c2cd7591090","ios":"levelo://app?vid=40396686-cf8e-4256-ace0-9c2cd7591090"},"vehicle_type_id":"4","last_reported":1751472778,"current_range_meters":24800,"station_id":"ce4bhg12rcd13ifvqf70","pricing_plan_id":"cebpf4jnsgd1na2vs0mg"},{"bike_id":"9c5f6f2b-b4fe-4abd-90e1-346377586e8a","system_id":"levelo_inurba_marseille","lat":43.23976,"lon":5.36633,"is_reserved":false,"is_disabled":false,"rental_uris":{"android":"levelo://app?vid=9c5f6f2b-b4fe-4abd-90e1-346377586e8a","ios":"levelo://app?vid=9c5f6f2b-b4fe-4abd-90e1-346377586e8a"},"vehicle_type_id":"4","last_reported":1751472778,"current_range_meters":24800,"station_id":"ce4bhi12rcd13ifvqfp0","pricing_plan_id":"cebpf4jnsgd1na2vs0mg"},{"bike_id":"abd1416b-81f1-4449-a615-560af9c0d4f4","system_id":"levelo_inurba_marseille","lat":43.32363,"lon":5.36761,"is_reserved":false,"is_disabled":false,"rental_uris":{"android":"levelo://app?vid=abd1416b-81f1-4449-a615-560af9c0d4f4","ios":"levelo://app?vid=abd1416b-81f1-4449-a615-560af9c0d4f4"},"vehicle_type_id":"4","last_reported":1751472778,"current_range_meters":24800,"station_id":"ce4bhsh2rcd13ifvqi2g","pricing_plan_id":"cebpf4jnsgd1na2vs0mg"},{"bike_id":"7b4c2ab5-318c-4d9b-b2be-2ab27612ef01","system_id":"levelo_inurba_marseille","lat":43.292644,"lon":5.384239,"is_reserved":false,"is_disabled":false,"rental_uris":{"android":"levelo://app?vid=7b4c2ab5-318c-4d9b-b2be-2ab27612ef01","ios":"levelo://app?vid=7b4c2ab5-318c-4d9b-b2be-2ab27612ef01"},"vehicle_type_id":"4","last_reported":1751472778,"current_range_meters":25200,"station_id":"","pricing_plan_id":"cebpf4jnsgd1na2vs0mg"},{"bike_id":"5da993df-852b-47a7-8a87-7a32c92e5fec","system_id":"levelo_inurba_marseille","lat":43.29268,"lon":5.38462,"is_reserved":false,"is_disabled":false,"rental_uris":{"android":"levelo://app?vid=5da993df-852b-47a7-8a87-7a32c92e5fec","ios":"levelo://app?vid=5da993df-852b-47a7-8a87-7a32c92e5fec"},"vehicle_type_id":"4","last_reported":1751472778,"current_range_meters":25200,"station_id":"ce4bh692rcd13ifvqea0","pricing_plan_id":"cebpf4jnsgd1na2vs0mg"},{"bike_id":"e406ad4a-fb1e-4ba3-b7ac-81d7f02e9a6f","system_id":"levelo_inurba_marseille","lat":43.25117,"lon":5.40317,"is_reserved":false,"is_disabled":false,"rental_uris":{"android":"levelo://app?vid=e406ad4a-fb1e-4ba3-b7ac-81d7f02e9a6f","ios":"levelo://app?vid=e406ad4a-fb1e-4ba3-b7ac-81d7f02e9a6f"},"vehicle_type_id":"4","last_reported":1751472778,"current_range_meters":25200,"station_id":"ce4bhlh2rcd13ifvqgig","pricing_plan_id":"cebpf4jnsgd1na2vs0mg"},{"bike_id":"5630a506-66c6-4d95-8e77-dce9062742ed","system_id":"levelo_inurba_marseille","lat":43.280032,"lon":5.400129,"is_reserved":false,"is_disabled":false,"rental_uris":{"android":"levelo://app?vid=5630a506-66c6-4d95-8e77-dce9062742ed","ios":"levelo://app?vid=5630a506-66c6-4d95-8e77-dce9062742ed"},"vehicle_type_id":"4","last_reported":1751472778,"current_range_meters":25200,"station_id":"ce4bho92rcd13ifvqh4g","pricing_plan_id":"cebpf4jnsgd1na2vs0mg"},{"bike_id":"c13c93ac-6b62-443c-9e36-caf61b27325a","system_id":"levelo_inurba_marseille","lat":43.21187,"lon":5.35065,"is_reserved":false,"is_disabled":false,"rental_uris":{"android":"levelo://app?vid=c13c93ac-6b62-443c-9e36-caf61b27325a","ios":"levelo://app?vid=c13c93ac-6b62-443c-9e36-caf61b27325a"},"vehicle_type_id":"4","last_reported":1751472778,"current_range_meters":25200,"station_id":"st_cvj6sg6p6f1abm77japg","pricing_plan_id":"cebpf4jnsgd1na2vs0mg"},{"bike_id":"00553493-1e82-4ba8-8780-2e45a867bcb7","system_id":"levelo_inurba_marseille","lat":43.279748,"lon":5.415531,"is_reserved":false,"is_disabled":false,"rental_uris":{"android":"levelo://app?vid=00553493-1e82-4ba8-8780-2e45a867bcb7","ios":"levelo://app?vid=00553493-1e82-4ba8-8780-2e45a867bcb7"},"vehicle_type_id":"4","last_reported":1751472778,"current_range_meters":25600,"station_id":"","pricing_plan_id":"cebpf4jnsgd1na2vs0mg"},{"bike_id":"25ddb26e-1b58-4795-bdd1-a00f16bd9521","system_id":"levelo_inurba_marseille","lat":43.281115,"lon":5.351724,"is_reserved":false,"is_disabled":false,"rental_uris":{"android":"levelo://app?vid=25ddb26e-1b58-4795-bdd1-a00f16bd9521","ios":"levelo://app?vid=25ddb26e-1b58-4795-bdd1-a00f16bd9521"},"vehicle_type_id":"4","last_reported":1751472778,"current_range_meters":25600,"station_id":"","pricing_plan_id":"cebpf4jnsgd1na2vs0mg"},{"bike_id":"224c3e21-4c5d-4458-b26b-de1b8a47c173","system_id":"levelo_inurba_marseille","lat":43.265558,"lon":5.372846,"is_reserved":false,"is_disabled":false,"rental_uris":{"android":"levelo://app?vid=224c3e21-4c5d-4458-b26b-de1b8a47c173","ios":"levelo://app?vid=224c3e21-4c5d-4458-b26b-de1b8a47c173"},"vehicle_type_id":"4","last_reported":1751472778,"current_range_meters":25600,"station_id":"ce4bhg12rcd13ifvqf70","pricing_plan_id":"cebpf4jnsgd1na2vs0mg"},