{"last_updated":1702498066,"ttl":30,"version":"2.2","data":{"bikes":[{"bike_id":"7182babb-b6af-4205-af60-fee3430dbe02","system_id":"levelo_inurba_marseille","lat":43.314811,"lon":5.373103,"is_reserved":false,"is_disabled":false,"rental_uris":{"android":"levelo://app?vid=7182babb-b6af-4205-af60-fee3430dbe02","ios":"levelo://app?vid=7182babb-b6af-4205-af60-fee3430dbe02"},"vehicle_type_id":"4","last_reported":1702498066,"current_range_meters":20800,"station_id":"ce4bgt12rcd13ifvqcd0","pricing_plan_id":"free"},{"bike_id":"3f8b821f-e430-4a35-bf14-f8b6e777ea11","system_id":"levelo_inurba_marseille","lat":43.313939,"lon":5.375306,"is_reserved":false,"is_disabled":false,"rental_uris":{"android":"levelo://app?vid=3f8b821f-e430-4a35-bf14-f8b6e777ea11","ios":"levelo://app?vid=3f8b821f-e430-4a35-bf14-f8b6e777ea11"},"vehicle_type_id":"4","last_reported":1702498066,"current_range_meters":6400,"station_id":"","pricing_plan_id":"free"},{"bike_id":"acc194aa-c2a0-482f-bbcf-33986409fbfc","system_id":"levelo_inurba_marseille","lat":43.305712,"lon":5.365641,"is_reserved":false,"is_disabled":false,"rental_uris":{"android":"levelo://app?vid=acc194aa-c2a0-482f-bbcf-33986409fbfc","ios":"levelo://app?vid=acc194aa-c2a0-482f-bbcf-33986409fbfc"},"vehicle_type_id":"4","last_reported":1702498066,"current_range_meters":24800,"station_id":"ce4bgs12rcd13ifvqcag","pricing_plan_id":"free"},{"bike_id":"1d5435a5-c5e8-4a1a-9517-8c6784e50979","system_id":"levelo_inurba_marseille","lat":43.305413,"lon":5.3655,"is_reserved":false,"is_disabled":false,"rental_uris":{"android":"levelo://app?vid=1d5435a5-c5e8-4a1a-9517-8c6784e50979","ios":"levelo://app?vid=1d5435a5-c5e8-4a1a-9517-8c6784e50979"},"vehicle_type_id":"4","last_reported":1702498066,"current_range_meters":31200,"station_id":"ce4bgs12rcd13ifvqcag","pricing_plan_id":"free"},{"bike_id":"c6c87030-235b-4fa5-abd6-be054119259e","system_id":"levelo_inurba_marseille","lat":43.30534,"lon":5.367147,"is_reserved":false,"is_disabled":false,"rental_uris":{"android":"levelo://app?vid=c6c87030-235b-4fa5-abd6-be054119259e","ios":"levelo://app?vid=c6c87030-235b-4fa5-abd6-be054119259e"},"vehicle_type_id":"4","last_reported":1702498066,"current_range_meters":30800,"station_id":"ce4bgrp2rcd13ifvqc9g","pricing_plan_id":"free"},{"bike_id":"1f3d50e6-3470-4133-884b-7a0ef801f57d","system_id":"levelo_inurba_marseille","lat":43.30541,"lon":5.36543,"is_reserved":false,"is_disabled":false,"rental_uris":{"android":"levelo://app?vid=1f3d50e6-3470-4133-884b-7a0ef801f57d","ios":"levelo://app?vid=1f3d50e6-3470-4133-884b-7a0ef801f57d"},"vehicle_type_id":"4","last_reported":1702498066,"current_range_meters":5600,"station_id":"ce4bgs12rcd13ifvqcag","pricing_plan_id":"free"},{"bike_id":"be7d28e5-3c73-4f04-b104-e59d6eee37a4","system_id":"levelo_inurba_marseille","lat":43.3054,"lon":5.36542,"is_reserved":false,"is_disabled":false,"rental_uris":{"android":"levelo://app?vid=be7d28e5-3c73-4f04-b104-e59d6eee37a4","ios":"levelo://app?vid=be7d28e5-3c73-4f04-b104-e59d6eee37a4"},"vehicle_type_id":"4","last_reported":1702498066,"current_range_meters":25200,"station_id":"ce4bgs12rcd13ifvqcag","pricing_plan_id":"free"},{"bike_id":"4e1982f9-6b36-45cd-a08a-fa506f8af925","system_id":"levelo_inurba_marseille","lat":43.305706,"lon":5.365654,"is_reserved":false,"is_disabled":false,"rental_uris":{"android":"levelo://app?vid=4e1982f9-6b36-45cd-a08a-fa506f8af925","ios":"levelo://app?vid=4e1982f9-6b36-45cd-a08a-fa506f8af925"},"vehicle_type_id":"4","last_reported":1702498066,"current_range_meters":8400,"station_id":"ce4bgs12rcd13ifvqcag","pricing_plan_id":"free"},{"bike_id":"955e4ab2-16e5-44e8-a986-a2f50ff96c06","system_id":"levelo_inurba_marseille","lat":43.305382,"lon":5.365389,"is_reserved":false,"is_disabled":false,"rental_uris":{"android":"levelo://app?vid=955e4ab2-16e5-44e8-a986-a2f50ff96c06","ios":"levelo://app?vid=955e4ab2-16e5-44e8-a986-a2f50ff96c06"},"vehicle_type_id":"4","last_reported":1702498066,"current_range_meters":26000,"station_id":"","pricing_plan_id":"free"},{"bike_id":"8690328e-820c-4e4f-9edf-5c865383d5aa","system_id":"levelo_inurba_marseille","lat":43.305706,"lon":5.365654,"is_reserved":false,"is_disabled":false,"rental_uris":{"android":"levelo://app?vid=8690328e-820c-4e4f-9edf-5c865383d5aa","ios":"levelo://app?vid=8690328e-820c-4e4f-9edf-5c865383d5aa"},"vehicle_type_id":"4","last_reported":1702498066,"current_range_meters":29200,"station_id":"ce4bgs12rcd13ifvqcag","pricing_plan_id":"free"},{"bike_id":"df7d7d2a-a25c-4d86-ab42-18926bf3633d","system_id":"levelo_inurba_marseille","lat":43.305989,"lon":5.37225,"is_reserved":false,"is_disabled":false,"rental_uris":{"android":"levelo://app?vid=df7d7d2a-a25c-4d86-ab42-18926bf3633d","ios":"levelo://app?vid=df7d7d2a-a25c-4d86-ab42-18926bf3633d"},"vehicle_type_id":"4","last_reported":1702498066,"current_range_meters":23200,"station_id":"ce4bgqh2rcd13ifvqc4g","pricing_plan_id":"free"},{"bike_id":"c007ab80-c099-4918-be17-3d4adef11cad","system_id":"levelo_inurba_marseille","lat":43.311125,"lon":5.377624,"is_reserved":false,"is_disabled":false,"rental_uris":{"android":"levelo://app?vid=c007ab80-c099-4918-be17-3d4adef11cad","ios":"levelo://app?vid=c007ab80-c099-4918-be17-3d4adef11cad"},"vehicle_type_id":"4","last_reported":1702498066,"current_range_meters":29200,"station_id":"ce4bgt92rcd13ifvqcg0","pricing_plan_id":"free"},{"bike_id":"dc68debd-6203-4696-b9a5-55eea857c5a0","system_id":"levelo_inurba_marseille","lat":43.31714,"lon":5.37679,"is_reserved":false,"is_disabled":false,"rental_uris":{"android":"levelo://app?vid=dc68debd-6203-4696-b9a5-55eea857c5a0","ios":"levelo://app?vid=dc68debd-6203-4696-b9a5-55eea857c5a0"},"vehicle_type_id":"4","last_reported":1702498066,"current_range_meters":22400,"station_id":"ce4bgth2rcd13ifvqch0","pricing_plan_id":"free"},{"bike_id":"227b454f-cbfd-4a97-b4c2-968569f53a3b","system_id":"levelo_inurba_marseille","lat":43.315293,"lon":5.380349,"is_reserved":false,"is_disabled":false,"rental_uris":{"android":"levelo://app?vid=227b454f-cbfd-4a97-b4c2-968569f53a3b","ios":"levelo://app?vid=227b454f-cbfd-4a97-b4c2-968569f53a3b"},"vehicle_type_id":"4","last_reported":1702498066,"current_range_meters":28000,"station_id":"ce4bhsp2rcd13ifvqi50","pricing_plan_id":"free"},{"bike_id":"b795cd07-df6b-4c4c-8507-2dcae79f9bad","system_id":"levelo_inurba_marseille","lat":43.309039,"lon":5.371797,"is_reserved":false,"is_disabled":false,"rental_uris":{"android":"levelo://app?vid=b795cd07-df6b-4c4c-8507-2dcae79f9bad","ios":"levelo://app?vid=b795cd07-df6b-4c4c-8507-2dcae79f9bad"},"vehicle_type_id":"4","last_reported":1702498066,"current_range_meters":3600,"station_id":"ce4bguh2rcd13ifvqckg","pricing_plan_id":"free"},{"bike_id":"3dcb5e87-069d-4a1d-a341-005990fc24b0","system_id":"levelo_inurba_marseille","lat":43.30461,"lon":5.379055,"is_reserved":false,"is_disabled":false,"rental_uris":{"android":"levelo://app?vid=3dcb5e87-069d-4a1d-a341-005990fc24b0","ios":"levelo://app?vid=3dcb5e87-069d-4a1d-a341-005990fc24b0"},"vehicle_type_id":"4","last_reported":1702498066,"current_range_meters":14800,"station_id":"ce4bgup2rcd13ifvqcn0","pricing_plan_id":"free"},{"bike_id":"8c6d566c-fd2c-4a1e-b0f3-9e4cf2d76ecc","system_id":"levelo_inurba_marseille","lat":43.31994,"lon":5.38143,"is_reserved":false,"is_disabled":false,"rental_uris":{"android":"levelo://app?vid=8c6d566c-fd2c-4a1e-b0f3-9e4cf2d76ecc","ios":"levelo://app?vid=8c6d566c-fd2c-4a1e-b0f3-9e4cf2d76ecc"},"vehicle_type_id":"4","last_reported":1702498066,"current_range_meters":9600,"station_id":"ce4bhr12rcd13ifvqhpg","pricing_plan_id":"free"},{"bike_id":"0a956dae-9fb6-40fc-b61a-5bb393e9a4f8","system_id":"levelo_inurba_marseille","lat":43.31994,"lon":5.38161,"is_reserved":false,"is_disabled":false,"rental_uris":{"android":"levelo://app?vid=0a956dae-9fb6-40fc-b61a-5bb393e9a4f8","ios":"levelo://app?vid=0a956dae-9fb6-40fc-b61a-5bb393e9a4f8"},"vehicle_type_id":"4","last_reported":1702498066,"current_range_meters":7200,"station_id":"ce4bhr12rcd13ifvqhpg","pricing_plan_id":"free"},{"bike_id":"98ee6c39-4ce2-4c3b-9183-542c74507b0c","system_id":"levelo_inurba_marseille","lat":43.313571,"lon":5.384829,"is_reserved":false,"is_disabled":false,"rental_uris":{"android":"levelo://app?vid=98ee6c39-4ce2-4c3b-9183-542c74507b0c","ios":"levelo://app?vid=98ee6c39-4ce2-4c3b-9183-542c74507b0c"},"vehicle_type_id":"4","last_reported":1702498066,"current_range_meters":13200,"station_id":"ce4bgt92rcd13ifvqcf0","pricing_plan_id":"free"},{"bike_id":"7b0bdb86-f013-4b5a-bd12-b0e602bad957","system_id":"levelo_inurba_marseille","lat":43.313571,"lon":5.384829,"is_reserved":false,"is_disabled":false,"rental_uris":{"android":"levelo://app?vid=7b0bdb86-f013-4b5a-bd12-b0e602bad957","ios":"levelo://app?vid=7b0bdb86-f013-4b5a-bd12-b0e602bad957"},"vehicle_type_id":"4","last_reported":1702498066,"current_range_meters":13200,"station_id":"ce4bgt92rcd13ifvqcf0","pricing_plan_id":"free"},{"bike_id":"5656d304-7af2-4e5c-87bf-901de39b0c25","system_id":"levelo_inurba_marseille","lat":43.299724,"lon":5.371829,"is_reserved":false,"is_disabled":false,"rental_uris":{"android":"levelo://app?vid=5656d304-7af2-4e5c-87bf-901de39b0c25","ios":"levelo://app?vid=5656d304-7af2-4e5c-87bf-901de39b0c25"},"vehicle_type_id":"4","last_reported":1702498066,"current_range_meters":28800,"station_id":"ce4bgr92rcd13ifvqc7g","pricing_plan_id":"free"},{"bike_id":"6d959ce9-19dd-4acb-9e9d-ea01bc314f7f","system_id":"levelo_inurba_marseille","lat":43.298433,"lon":5.362774,"is_reserved":false,"is_disabled":false,"rental_uris":{"android":"levelo://app?vid=6d959ce9-19dd-4acb-9e9d-ea01bc314f7f","ios":"levelo://app?vid=6d959ce9-19dd-4acb-9e9d-ea01bc314f7f"},"vehicle_type_id":"4","last_reported":1702498066,"current_range_meters":26800,"station_id":"ce4bgpp2rcd13ifvqc3g","pricing_plan_id":"free"},{"bike_id":"00957afa-27fa-4de9-b612-01f5d58fd240","system_id":"levelo_inurba_marseille","lat":43.298433,"lon":5.362774,"is_reserved":false,"is_disabled":false,"rental_uris":{"android":"levelo://app?vid=00957afa-27fa-4de9-b612-01f5d58fd240","ios":"levelo://app?vid=00957afa-27fa-4de9-b612-01f5d58fd240"},"vehicle_type_id":"4","last_reported":1702498066,"current_range_meters":28000,"station_id":"ce4bgpp2rcd13ifvqc3g","pricing_plan_id":"free"},{"bike_id":"77a6c46d-d898-4e4f-8846-efa91689c7f0","system_id":"levelo_inurba_marseille","lat":43.302006,"lon":5.38065,"is_reserved":false,"is_disabled":false,"rental_uris":{"android":"levelo://app?vid=77a6c46d-d898-4e4f-8846-efa91689c7f0","ios":"levelo://app?vid=77a6c46d-d898-4e4f-8846-efa91689c7f0"},"vehicle_type_id":"4","last_reported":1702498066,"current_range_meters":0,"station_id":"","pricing_plan_id":"free"},{"bike_id":"d87d05fb-79bf-4321-9ebe-e014d69c7cd4","system_id":"levelo_inurba_marseille","lat":43.311722,"lon":5.387247,"is_reserved":false,"is_disabled":false,"rental_uris":{"android":"levelo://app?vid=d87d05fb-79bf-4321-9ebe-e014d69c7cd4","ios":"levelo://app?vid=d87d05fb-79bf-4321-9ebe-e014d69c7cd4"},"vehicle_type_id":"4","last_reported":1702498066,"current_range_meters":13600,"station_id":"ce4bgv12rcd13ifvqcp0","pricing_plan_id":"free"},{"bike_id":"5715f67a-9edc-4aa9-81de-d621d2e855ae","system_id":"levelo_inurba_marseille","lat":43.311722,"lon":5.387247,"is_reserved":false,"is_disabled":false,"rental_uris":{"android":"levelo://app?vid=5715f67a-9edc-4aa9-81de-d621d2e855ae","ios":"levelo://app?vid=5715f67a-9edc-4aa9-81de-d621d2e855ae"},"vehicle_type_id":"4","last_reported":1702498066,"current_range_meters":9600,"station_id":"ce4bgv12rcd13ifvqcp0","pricing_plan_id":"free"},{"bike_id":"5a55f5f0-f311-407c-95c3-e7b1788970dc","system_id":"levelo_inurba_marseille","lat":43.322872,"lon":5.382756,"is_reserved":false,"is_disabled":false,"rental_uris":{"android":"levelo://app?vid=5a55f5f0-f311-407c-95c3-e7b1788970dc","ios":"levelo://app?vid=5a55f5f0-f311-407c-95c3-e7b1788970dc"},"vehicle_type_id":"4","last_reported":1702498066,"current_range_meters":12800,"station_id":"ce4bhr12rcd13ifvqhqg","pricing_plan_id":"free"},{"bike_id":"845dc11a-992a-4047-b7cb-2502696f07e1","system_id":"levelo_inurba_marseille","lat":43.297774,"lon":5.370875,"is_reserved":false,"is_disabled":false,"rental_uris":{"android":"levelo://app?vid=845dc11a-992a-4047-b7cb-2502696f07e1","ios":"levelo://app?vid=845dc11a-992a-4047-b7cb-2502696f07e1"},"vehicle_type_id":"4","last_reported":1702498066,"current_range_meters":18400,"station_id":"ce4bgop2rcd13ifvqc1g","pricing_plan_id":"free"},{"bike_id":"1c9c228c-5954-4155-a104-2a72ed6d3f0b","system_id":"levelo_inurba_marseille","lat":43.32284,"lon":5.38275,"is_reserved":false,"is_disabled":false,"rental_uris":{"android":"levelo://app?vid=1c9c228c-5954-4155-a104-2a72ed6d3f0b","ios":"levelo://app?vid=1c9c228c-5954-4155-a104-2a72ed6d3f0b"},"vehicle_type_id":"4","last_reported":1702498066,"current_range_meters":27600,"station_id":"ce4bhr12rcd13ifvqhqg","pricing_plan_id":"free"},{"bike_id":"9493db55-342e-439d-b7ad-6cd9a7588a13","system_id":"levelo_inurba_marseille","lat":43.297794,"lon":5.370888,"is_reserved":false,"is_disabled":false,"rental_uris":{"android":"levelo://app?vid=9493db55-342e-439d-b7ad-6cd9a7588a13","ios":"levelo://app?vid=9493db55-342e-439d-b7ad-6cd9a7588a13"},"vehicle_type_id":"4","last_reported":1702498066,"current_range_meters":3600,"station_id":"ce4bgop2rcd13ifvqc1g","pricing_plan_id":"free"},{"bike_id":"bc06b289-dab8-4815-820b-662dd218c477","system_id":"levelo_inurba_marseille","lat":43.32828,"lon":5.36676,"is_reserved":false,"is_disabled":false,"rental_uris":{"android":"levelo://app?vid=bc06b289-dab8-4815-820b-662dd218c477","ios":"levelo://app?vid=bc06b289-dab8-4815-820b-662dd218c477"},"vehicle_type_id":"4","last_reported":1702498066,"current_range_meters":2800,"station_id":"ce4bhs92rcd13ifvqi0g","pricing_plan_id":"free"},{"bike_id":"876baa53-4e4c-4d67-a2e4-69ec872bd884","system_id":"levelo_inurba_marseille","lat":43.2968,"lon":5.37291,"is_reserved":false,"is_disabled":false,"rental_uris":{"android":"levelo://app?vid=876baa53-4e4c-4d67-a2e4-69ec872bd884","ios":"levelo://app?vid=876baa53-4e4c-4d67-a2e4-69ec872bd884"},"vehicle_type_id":"4","last_reported":1702498066,"current_range_meters":2800,"station_id":"ce4bgk12rcd13ifvqbj0","pricing_plan_id":"free"},{"bike_id":"753e1d4e-6572-4d50-90a0-4ad352ab12b5","system_id":"levelo_inurba_marseille","lat":43.2968,"lon":5.37291,"is_reserved":false,"is_disabled":false,"rental_uris":{"android":"levelo://app?vid=753e1d4e-6572-4d50-90a0-4ad352ab12b5","ios":"levelo://app?vid=753e1d4e-6572-4d50-90a0-4ad352ab12b5"},"vehicle_type_id":"4","last_reported":1702498066,"current_range_meters":19600,"station_id":"ce4bgk12rcd13ifvqbj0","pricing_plan_id":"free"},{"bike_id":"9c987803-0a08-4677-a896-fb69fb86257f","system_id":"levelo_inurba_marseille","lat":43.29573,"lon":5.367355,"is_reserved":false,"is_disabled":false,"rental_uris":{"android":"levelo://app?vid=9c987803-0a08-4677-a896-fb69fb86257f","ios":"levelo://app?vid=9c987803-0a08-4677-a896-fb69fb86257f"},"vehicle_type_id":"4","last_reported":1702498066,"current_range_meters":10400,"station_id":"ce4bgph2rcd13ifvqc2g","pricing_plan_id":"free"},{"bike_id":"6b708d96-22bf-41be-8c7d-2961f5bea59a","system_id":"levelo_inurba_marseille","lat":43.299028,"lon":5.381509,"is_reserved":false,"is_disabled":false,"rental_uris":{"android":"levelo://app?vid=6b708d96-22bf-41be-8c7d-2961f5bea59a","ios":"levelo://app?vid=6b708d96-22bf-41be-8c7d-2961f5bea59a"},"vehicle_type_id":"4","last_reported":1702498066,"current_range_meters":14800,"station_id":"ce4bgj12rcd13ifvqbc0","pricing_plan_id":"free"},{"bike_id":"d56d1a06-1d7e-4ef8-9dd3-7f7d5ba586be","system_id":"levelo_inurba_marseille","lat":43.317557,"lon":5.390173,"is_reserved":false,"is_disabled":false,"rental_uris":{"android":"levelo://app?vid=d56d1a06-1d7e-4ef8-9dd3-7f7d5ba586be","ios":"levelo://app?vid=d56d1a06-1d7e-4ef8-9dd3-7f7d5ba586be"},"vehicle_type_id":"4","last_reported":1702498066,"current_range_meters":10000,"station_id":"ce4bhqp2rcd13ifvqhng","pricing_plan_id":"free"},{"bike_id":"9ac926cc-282b-455a-be80-5b1ff111b7d2","system_id":"levelo_inurba_marseille","lat":43.317557,"lon":5.390173,"is_reserved":false,"is_disabled":false,"rental_uris":{"android":"levelo://app?vid=9ac926cc-282b-455a-be80-5b1ff111b7d2","ios":"levelo://app?vid=9ac926cc-282b-455a-be80-5b1ff111b7d2"},"vehicle_type_id":"4","last_reported":1702498066,"current_range_meters":22000,"station_id":"ce4bhqp2rcd13ifvqhng","pricing_plan_id":"free"},{"bike_id":"514a2e21-a4ee-4c47-b859-6ae8bc7ca2fd","system_id":"levelo_inurba_marseille","lat":43.317557,"lon":5.390173,"is_reserved":false,"is_disabled":false,"rental_uris":{"android":"levelo://app?vid=514a2e21-a4ee-4c47-b859-6ae8bc7ca2fd","ios":"levelo://app?vid=514a2e21-a4ee-4c47-b859-6ae8bc7ca2fd"},"vehicle_type_id":"4","last_reported":1702498066,"current_range_meters":2400,"station_id":"ce4bhqp2rcd13ifvqhng","pricing_plan_id":"free"},{"bike_id":"e9d78157-ab4a-41df-a9e7-085811189ed4","system_id":"levelo_inurba_marseille","lat":43.317557,"lon":5.390173,"is_reserved":false,"is_disabled":false,"rental_uris":{"android":"levelo://app?vid=e9d78157-ab4a-41df-a9e7-085811189ed4","ios":"levelo://app?vid=e9d78157-ab4a-41df-a9e7-085811189ed4"},"vehicle_type_id":"4","last_reported":1702498066,"current_range_meters":31600,"station_id":"ce4bhqp2rcd13ifvqhng","pricing_plan_id":"free"},{"bike_id":"39b2cfb9-fdc1-475f-abb8-92b2bec0d795","system_id":"levelo_inurba_marseille","lat":43.295748,"lon":5.37522,"is_reserved":false,"is_disabled":false,"rental_uris":{"android":"levelo://app?vid=39b2cfb9-fdc1-475f-abb8-92b2bec0d795","ios":"levelo://app?vid=39b2cfb9-fdc1-475f-abb8-92b2bec0d795"},"vehicle_type_id":"4","last_reported":1702498066,"current_range_meters":0,"station_id":"ce4bgh92rcd13ifvqb50","pricing_plan_id":"free"},{"bike_id":"3a38a2ae-c7b8-4daf-93af-ab9b7bec700b","system_id":"levelo_inurba_marseille","lat":43.304274,"lon":5.388873,"is_reserved":false,"is_disabled":false,"rental_uris":{"android":"levelo://app?vid=3a38a2ae-c7b8-4daf-93af-ab9b7bec700b","ios":"levelo://app?vid=3a38a2ae-c7b8-4daf-93af-ab9b7bec700b"},"vehicle_type_id":"4","last_reported":1702498066,"current_range_meters":15600,"station_id":"ce4bgk12rcd13ifvqbi0","pricing_plan_id":"free"},{"bike_id":"a43a74f7-d98e-442a-baa1-3c01907b449b","system_id":"levelo_inurba_marseille","lat":43.304278,"lon":5.388868,"is_reserved":false,"is_disabled":false,"rental_uris":{"android":"levelo://app?vid=a43a74f7-d98e-442a-baa1-3c01907b449b","ios":"levelo://app?vid=a43a74f7-d98e-442a-baa1-3c01907b449b"},"vehicle_type_id":"4","last_reported":1702498066,"current_range_meters":7200,"station_id":"ce4bgk12rcd13ifvqbi0","pricing_plan_id":"free"},{"bike_id":"4653be4f-5e23-402c-8274-85ea0920013e","system_id":"levelo_inurba_marseille","lat":43.299717,"lon":5.384845,"is_reserved":false,"is_disabled":false,"rental_uris":{"android":"levelo://app?vid=4653be4f-5e23-402c-8274-85ea0920013e","ios":"levelo://app?vid=4653be4f-5e23-402c-8274-85ea0920013e"},"vehicle_type_id":"4","last_reported":1702498066,"current_range_meters":2400,"station_id":"ce4bgj92rcd13ifvqbd0","pricing_plan_id":"free"},{"bike_id":"ef76321a-9b04-47b4-92de-d682e9f5920f","system_id":"levelo_inurba_marseille","lat":43.32364,"lon":5.388793,"is_reserved":false,"is_disabled":false,"rental_uris":{"android":"levelo://app?vid=ef76321a-9b04-47b4-92de-d682e9f5920f","ios":"levelo://app?vid=ef76321a-9b04-47b4-92de-d682e9f5920f"},"vehicle_type_id":"4","last_reported":1702498066,"current_range_meters":5200,"station_id":"ce4bhqp2rcd13ifvqhog","pricing_plan_id":"free"},{"bike_id":"8ab9895a-c9b8-42e7-a73a-c3d8ad10cfa2","system_id":"levelo_inurba_marseille","lat":43.32365,"lon":5.38884,"is_reserved":false,"is_disabled":false,"rental_uris":{"android":"levelo://app?vid=8ab9895a-c9b8-42e7-a73a-c3d8ad10cfa2","ios":"levelo://app?vid=8ab9895a-c9b8-42e7-a73a-c3d8ad10cfa2"},"vehicle_type_id":"4","last_reported":1702498066,"current_range_meters":4400,"station_id":"ce4bhqp2rcd13ifvqhog","pricing_plan_id":"free"},{"bike_id":"03f6119d-7ba1-4608-b75b-b20f3efbdaef","system_id":"levelo_inurba_marseille","lat":43.3237,"lon":5.3888,"is_reserved":false,"is_disabled":false,"rental_uris":{"android":"levelo://app?vid=03f6119d-7ba1-4608-b75b-b20f3efbdaef","ios":"levelo://app?vid=03f6119d-7ba1-4608-b75b-b20f3efbdaef"},"vehicle_type_id":"4","last_reported":1702498066,"current_range_meters":14400,"station_id":"ce4bhqp2rcd13ifvqhog","pricing_plan_id":"free"},{"bike_id":"dc01d294-5e1b-433f-878e-eb8a914aadd8","system_id":"levelo_inurba_marseille","lat":43.32367,"lon":5.38886,"is_reserved":false,"is_disabled":false,"rental_uris":{"android":"levelo://app?vid=dc01d294-5e1b-433f-878e-eb8a914aadd8","ios":"levelo://app?vid=dc01d294-5e1b-433f-878e-eb8a914aadd8"},"vehicle_type_id":"4","last_reported":1702498066,"current_range_meters":6000,"station_id":"ce4bhqp2rcd13ifvqhog","pricing_plan_id":"free"},{"bike_id":"18e8fec3-c034-486d-b65b-5c2605e3f3ab","system_id":"levelo_inurba_marseille","lat":43.323668,"lon":5.388869,"is_reserved":false,"is_disabled":false,"rental_uris":{"android":"levelo://app?vid=18e8fec3-c034-486d-b65b-5c2605e3f3ab","ios":"levelo://app?vid=18e8fec3-c034-486d-b65b-5c2605e3f3ab"},"vehicle_type_id":"4","last_reported":1702498066,"current_range_meters":15200,"station_id":"ce4bhqp2rcd13ifvqhog","pricing_plan_id":"free"},{"bike_id":"72b0c986-a6a0-4419-b5d6-029f34878084","system_id":"levelo_inurba_marseille","lat":43.29601,"lon":5.381084,"is_reserved":false,"is_disabled":false,"rental_uris":{"android":"levelo://app?vid=72b0c986-a6a0-4419-b5d6-029f34878084","ios":"levelo://app?vid=72b0c986-a6a0-4419-b5d6-029f34878084"},"vehicle_type_id":"4","last_reported":1702498066,"current_range_meters":25600,"station_id":"ce4bgl12rcd13ifvqbo0","pricing_plan_id":"free"},{"bike_id":"790fa210-59e1-4326-bbf6-126e7b639550","system_id":"levelo_inurba_marseille","lat":43.305994,"lon":5.393687,"is_reserved":false,"is_disabled":false,"rental_uris":{"android":"levelo://app?vid=790fa210-59e1-4326-bbf6-126e7b639550","ios":"levelo://app?vid=790fa210-59e1-4326-bbf6-126e7b639550"},"vehicle_type_id":"4","last_reported":1702498066,"current_range_meters":0,"station_id":"ce4bh0p2rcd13ifvqd80","pricing_plan_id":"free"},{"bike_id":"1430ef7e-f0d6-4450-a0ca-6caa1201e668","system_id":"levelo_inurba_marseille","lat":43.291675,"lon":5.371583,"is_reserved":false,"is_disabled":false,"rental_uris":{"android":"levelo://app?vid=1430ef7e-f0d6-4450-a0ca-6caa1201e668","ios":"levelo://app?vid=1430ef7e-f0d6-4450-a0ca-6caa1201e668"},"vehicle_type_id":"4","last_reported":1702498066,"current_range_meters":14400,"station_id":"ce4bha92rcd13ifvqeh0","pricing_plan_id":"free"},{"bike_id":"831e3817-a6c9-429b-be4f-c6bebf51f027","system_id":"levelo_inurba_marseille","lat":43.291994,"lon":5.357886,"is_reserved":false,"is_disabled":false,"rental_uris":{"android":"levelo://app?vid=831e3817-a6c9-429b-be4f-c6bebf51f027","ios":"levelo://app?vid=831e3817-a6c9-429b-be4f-c6bebf51f027"},"vehicle_type_id":"4","last_reported":1702498066,"current_range_meters":0,"station_id":"ce4bhb12rcd13ifvqel0","pricing_plan_id":"free"},{"bike_id":"0eeb85be-0768-407e-8e7c-5cac5e885d7a","system_id":"levelo_inurba_marseille","lat":43.313291,"lon":5.396838,"is_reserved":false,"is_disabled":false,"rental_uris":{"android":"levelo://app?vid=0eeb85be-0768-407e-8e7c-5cac5e885d7a","ios":"levelo://app?vid=0eeb85be-0768-407e-8e7c-5cac5e885d7a"},"vehicle_type_id":"4","last_reported":1702498066,"current_range_meters":10400,"station_id":"ce4bgvp2rcd13ifvqcu0","pricing_plan_id":"free"},{"bike_id":"89b47502-c937-4e1f-8f7e-3f40f43758dc","system_id":"levelo_inurba_marseille","lat":43.291994,"lon":5.357886,"is_reserved":false,"is_disabled":false,"rental_uris":{"android":"levelo://app?vid=89b47502-c937-4e1f-8f7e-3f40f43758dc","ios":"levelo://app?vid=89b47502-c937-4e1f-8f7e-3f40f43758dc"},"vehicle_type_id":"4","last_reported":1702498066,"current_range_meters":13600,"station_id":"ce4bhb12rcd13ifvqel0","pricing_plan_id":"free"},{"bike_id":"ac36c72b-4d79-486c-88c4-37f6e9f36b7e","system_id":"levelo_inurba_marseille","lat":43.313291,"lon":5.396838,"is_reserved":false,"is_disabled":false,"rental_uris":{"android":"levelo://app?vid=ac36c72b-4d79-486c-88c4-37f6e9f36b7e","ios":"levelo://app?vid=ac36c72b-4d79-486c-88c4-37f6e9f36b7e"},"vehicle_type_id":"4","last_reported":1702498066,"current_range_meters":18800,"station_id":"ce4bgvp2rcd13ifvqcu0","pricing_plan_id":"free"},{"bike_id":"513d5e1b-2666-4cf6-9ce7-8edd12bf70ec","system_id":"levelo_inurba_marseille","lat":43.313291,"lon":5.396838,"is_reserved":false,"is_disabled":false,"rental_uris":{"android":"levelo://app?vid=513d5e1b-2666-4cf6-9ce7-8edd12bf70ec","ios":"levelo://app?vid=513d5e1b-2666-4cf6-9ce7-8edd12bf70ec"},"vehicle_type_id":"4","last_reported":1702498066,"current_range_meters":26000,"station_id":"ce4bgvp2rcd13ifvqcu0","pricing_plan_id":"free"},{"bike_id":"e7e2b0fa-c48c-4c63-bec9-90f54738ea82","system_id":"levelo_inurba_marseille","lat":43.313291,"lon":5.396838,"is_reserved":false,"is_disabled":false,"rental_uris":{"android":"levelo://app?vid=e7e2b0fa-c48c-4c63-bec9-90f54738ea82","ios":"levelo://app?vid=e7e2b0fa-c48c-4c63-bec9-90f54738ea82"},"vehicle_type_id":"4","last_reported":1702498066,"current_range_meters":11600,"station_id":"ce4bgvp2rcd13ifvqcu0","pricing_plan_id":"free"},{"bike_id":"03ce2c01-3605-4da1-b297-425e40d4ffea","system_id":"levelo_inurba_marseille","lat":43.313291,"lon":5.396838,"is_reserved":false,"is_disabled":false,"rental_uris":{"android":"levelo://app?vid=03ce2c01-3605-4da1-b297-425e40d4ffea","ios":"levelo://app?vid=03ce2c01-3605-4da1-b297-425e40d4ffea"},"vehicle_type_id":"4","last_reported":1702498066,"current_range_meters":6400,"station_id":"ce4bgvp2rcd13ifvqcu0","pricing_plan_id":"free"},{"bike_id":"f0986275-7f20-42b4-916d-6627fb66797b","system_id":"levelo_inurba_marseille","lat":43.291994,"lon":5.392907,"is_reserved":false,"is_disabled":false,"rental_uris":{"android":"levelo://app?vid=f0986275-7f20-42b4-916d-6627fb66797b","ios":"levelo://app?vid=f0986275-7f20-42b4-916d-6627fb66797b"},"vehicle_type_id":"4","last_reported":1702498066,"current_range_meters":30000,"station_id":"ce4bh192rcd13ifvqdd0","pricing_plan_id":"free"},{"bike_id":"83c0b4af-7dee-4434-acb6-f3d071a17a62","system_id":"levelo_inurba_marseille","lat":43.289184,"lon":5.366408,"is_reserved":false,"is_disabled":false,"rental_uris":{"android":"levelo://app?vid=83c0b4af-7dee-4434-acb6-f3d071a17a62","ios":"levelo://app?vid=83c0b4af-7dee-4434-acb6-f3d071a17a62"},"vehicle_type_id":"4","last_reported":1702498066,"current_range_meters":5600,"station_id":"ce4bhap2rcd13ifvqek0","pricing_plan_id":"free"},{"bike_id":"8b90d4d9-b239-4a47-b3a2-ef63dce1fde0","system_id":"levelo_inurba_marseille","lat":43.294162,"lon":5.386292,"is_reserved":false,"is_disabled":false,"rental_uris":{"android":"levelo://app?vid=8b90d4d9-b239-4a47-b3a2-ef63dce1fde0","ios":"levelo://app?vid=8b90d4d9-b239-4a47-b3a2-ef63dce1fde0"},"vehicle_type_id":"4","last_reported":1702498066,"current_range_meters":20800,"station_id":"ce4bh2h2rcd13ifvqdh0","pricing_plan_id":"free"},{"bike_id":"fded498c-86a0-4261-99e3-b2d229b5fa74","system_id":"levelo_inurba_marseille","lat":43.294162,"lon":5.386292,"is_reserved":false,"is_disabled":false,"rental_uris":{"android":"levelo://app?vid=fded498c-86a0-4261-99e3-b2d229b5fa74","ios":"levelo://app?vid=fded498c-86a0-4261-99e3-b2d229b5fa74"},"vehicle_type_id":"4","last_reported":1702498066,"current_range_meters":6800,"station_id":"ce4bh2h2rcd13ifvqdh0","pricing_plan_id":"free"},{"bike_id":"321f2064-47e9-4c58-a44e-66dc3ba2ef55","system_id":"levelo_inurba_marseille","lat":43.289184,"lon":5.366408,"is_reserved":false,"is_disabled":false,"rental_uris":{"android":"levelo://app?vid=321f2064-47e9-4c58-a44e-66dc3ba2ef55","ios":"levelo://app?vid=321f2064-47e9-4c58-a44e-66dc3ba2ef55"},"vehicle_type_id":"4","last_reported":1702498066,"current_range_meters":12800,"station_id":"ce4bhap2rcd13ifvqek0","pricing_plan_id":"free"},{"bike_id":"357989ab-e430-4f7f-8990-d28cd60f40ba","system_id":"levelo_inurba_marseille","lat":43.289184,"lon":5.366408,"is_reserved":false,"is_disabled":false,"rental_uris":{"android":"levelo://app?vid=357989ab-e430-4f7f-8990-d28cd60f40ba","ios":"levelo://app?vid=357989ab-e430-4f7f-8990-d28cd60f40ba"},"vehicle_type_id":"4","last_reported":1702498066,"current_range_meters":3200,"station_id":"ce4bhap2rcd13ifvqek0","pricing_plan_id":"free"},{"bike_id":"b1d4e296-89b4-4587-9fbe-6266f701108a","system_id":"levelo_inurba_marseille","lat":43.289184,"lon":5.366408,"is_reserved":false,"is_disabled":false,"rental_uris":{"android":"levelo://app?vid=b1d4e296-89b4-4587-9fbe-6266f701108a","ios":"levelo://app?vid=b1d4e296-89b4-4587-9fbe-6266f701108a"},"vehicle_type_id":"4","last_reported":1702498066,"current_range_meters":5200,"station_id":"ce4bhap2rcd13ifvqek0","pricing_plan_id":"free"},{"bike_id":"0a75e64e-3c37-473e-92cc-4953104d2425","system_id":"levelo_inurba_marseille","lat":43.33044,"lon":5.38919,"is_reserved":false,"is_disabled":false,"rental_uris":{"android":"levelo://app?vid=0a75e64e-3c37-473e-92cc-4953104d2425","ios":"levelo://app?vid=0a75e64e-3c37-473e-92cc-4953104d2425"},"vehicle_type_id":"4","last_reported":1702498066,"current_range_meters":23600,"station_id":"ce4bhr92rcd13ifvqhrg","pricing_plan_id":"free"},{"bike_id":"55cc1ddf-1dcc-4e89-9942-eda0206f7f0a","system_id":"levelo_inurba_marseille","lat":43.290104,"lon":5.356111,"is_reserved":false,"is_disabled":false,"rental_uris":{"android":"levelo://app?vid=55cc1ddf-1dcc-4e89-9942-eda0206f7f0a","ios":"levelo://app?vid=55cc1ddf-1dcc-4e89-9942-eda0206f7f0a"},"vehicle_type_id":"4","last_reported":1702498066,"current_range_meters":20000,"station_id":"ce4bhb92rcd13ifvqen0","pricing_plan_id":"free"},{"bike_id":"c5164b53-c8e5-4a1c-814c-30f70f555d77","system_id":"levelo_inurba_marseille","lat":43.289743,"lon":5.378304,"is_reserved":false,"is_disabled":false,"rental_uris":{"android":"levelo://app?vid=c5164b53-c8e5-4a1c-814c-30f70f555d77","ios":"levelo://app?vid=c5164b53-c8e5-4a1c-814c-30f70f555d77"},"vehicle_type_id":"4","last_reported":1702498066,"current_range_meters":29600,"station_id":"ce4bh9p2rcd13ifvqed0","pricing_plan_id":"free"},{"bike_id":"f0271aa3-4738-4d36-90cc-2cae7eb415bf","system_id":"levelo_inurba_marseille","lat":43.29779,"lon":5.39342,"is_reserved":false,"is_disabled":false,"rental_uris":{"android":"levelo://app?vid=f0271aa3-4738-4d36-90cc-2cae7eb415bf","ios":"levelo://app?vid=f0271aa3-4738-4d36-90cc-2cae7eb415bf"},"vehicle_type_id":"4","last_reported":1702498066,"current_range_meters":4800,"station_id":"chh1huq6cuj3fo74tm60","pricing_plan_id":"free"},{"bike_id":"9d7a0881-70ac-4c65-a7ba-b840d4186ff1","system_id":"levelo_inurba_marseille","lat":43.288503,"lon":5.35862,"is_reserved":false,"is_disabled":false,"rental_uris":{"android":"levelo://app?vid=9d7a0881-70ac-4c65-a7ba-b840d4186ff1","ios":"levelo://app?vid=9d7a0881-70ac-4c65-a7ba-b840d4186ff1"},"vehicle_type_id":"4","last_reported":1702498066,"current_range_meters":17200,"station_id":"ce4bhb12rcd13ifvqem0","pricing_plan_id":"free"},{"bike_id":"8d8c9a2e-a015-414e-9875-0c4d53e29dcb","system_id":"levelo_inurba_marseille","lat":43.288453,"lon":5.358585,"is_reserved":false,"is_disabled":false,"rental_uris":{"android":"levelo://app?vid=8d8c9a2e-a015-414e-9875-0c4d53e29dcb","ios":"levelo://app?vid=8d8c9a2e-a015-414e-9875-0c4d53e29dcb"},"vehicle_type_id":"4","last_reported":1702498066,"current_range_meters":25200,"station_id":"ce4bhb12rcd13ifvqem0","pricing_plan_id":"free"},{"bike_id":"a9fd12e2-72d1-4109-bab3-5ff3ea2ee72b","system_id":"levelo_inurba_marseille","lat":43.31269,"lon":5.40165,"is_reserved":false,"is_disabled":false,"rental_uris":{"android":"levelo://app?vid=a9fd12e2-72d1-4109-bab3-5ff3ea2ee72b","ios":"levelo://app?vid=a9fd12e2-72d1-4109-bab3-5ff3ea2ee72b"},"vehicle_type_id":"4","last_reported":1702498066,"current_range_meters":0,"station_id":"ce4bh092rcd13ifvqd30","pricing_plan_id":"free"},{"bike_id":"1071c7f1-e14d-443f-b974-3b5938ddd235","system_id":"levelo_inurba_marseille","lat":43.33744,"lon":5.37461,"is_reserved":false,"is_disabled":false,"rental_uris":{"android":"levelo://app?vid=1071c7f1-e14d-443f-b974-3b5938ddd235","ios":"levelo://app?vid=1071c7f1-e14d-443f-b974-3b5938ddd235"},"vehicle_type_id":"4","last_reported":1702498066,"current_range_meters":30000,"station_id":"","pricing_plan_id":"free"},{"bike_id":"1f731f79-da92-4bc7-b21b-0abd1ee03930","system_id":"levelo_inurba_marseille","lat":43.33752,"lon":5.37459,"is_reserved":false,"is_disabled":false,"rental_uris":{"android":"levelo://app?vid=1f731f79-da92-4bc7-b21b-0abd1ee03930","ios":"levelo://app?vid=1f731f79-da92-4bc7-b21b-0abd1ee03930"},"vehicle_type_id":"4","last_reported":1702498066,"current_range_meters":25600,"station_id":"","pricing_plan_id":"free"},{"bike_id":"851c3227-6015-4034-92c9-fba89b15cba2","system_id":"levelo_inurba_marseille","lat":43.308649,"lon":5.401386,"is_reserved":false,"is_disabled":false,"rental_uris":{"android":"levelo://app?vid=851c3227-6015-4034-92c9-fba89b15cba2","ios":"levelo://app?vid=851c3227-6015-4034-92c9-fba89b15cba2"},"vehicle_type_id":"4","last_reported":1702498066,"current_range_meters":13200,"station_id":"ce4bgvp2rcd13ifvqct0","pricing_plan_id":"free"},{"bike_id":"25c6ef8d-f0f4-4d31-89d2-0361bf2fc013","system_id":"levelo_inurba_marseille","lat":43.303002,"lon":5.392142,"is_reserved":false,"is_disabled":false,"rental_uris":{"android":"levelo://app?vid=25c6ef8d-f0f4-4d31-89d2-0361bf2fc013","ios":"levelo://app?vid=25c6ef8d-f0f4-4d31-89d2-0361bf2fc013"},"vehicle_type_id":"4","last_reported":1702498066,"current_range_meters":26800,"station_id":"ce4bgkh2rcd13ifvqbk0","pricing_plan_id":"free"},{"bike_id":"fa23bc4c-3492-4ba5-ab13-c42e18316583","system_id":"levelo_inurba_marseille","lat":43.33762,"lon":5.37462,"is_reserved":false,"is_disabled":false,"rental_uris":{"android":"levelo://app?vid=fa23bc4c-3492-4ba5-ab13-c42e18316583","ios":"levelo://app?vid=fa23bc4c-3492-4ba5-ab13-c42e18316583"},"vehicle_type_id":"4","last_reported":1702498066,"current_range_meters":30400,"station_id":"","pricing_plan_id":"free"},{"bike_id":"6000c9e0-f2b9-4bde-b29c-656b0442e572","system_id":"levelo_inurba_marseille","lat":43.30642,"lon":5.401031,"is_reserved":false,"is_disabled":false,"rental_uris":{"android":"levelo://app?vid=6000c9e0-f2b9-4bde-b29c-656b0442e572","ios":"levelo://app?vid=6000c9e0-f2b9-4bde-b29c-656b0442e572"},"vehicle_type_id":"4","last_reported":1702498066,"current_range_meters":6800,"station_id":"ce4bh112rcd13ifvqda0","pricing_plan_id":"free"},{"bike_id":"78479446-27bc-4fe1-bf0f-82660e1c8321","system_id":"levelo_inurba_marseille","lat":43.306412,"lon":5.401035,"is_reserved":false,"is_disabled":false,"rental_uris":{"android":"levelo://app?vid=78479446-27bc-4fe1-bf0f-82660e1c8321","ios":"levelo://app?vid=78479446-27bc-4fe1-bf0f-82660e1c8321"},"vehicle_type_id":"4","last_reported":1702498066,"current_range_meters":15600,"station_id":"ce4bh112rcd13ifvqda0","pricing_plan_id":"free"},{"bike_id":"23a1252c-ed3f-4468-a25b-853533dff828","system_id":"levelo_inurba_marseille","lat":43.301117,"lon":5.398795,"is_reserved":false,"is_disabled":false,"rental_uris":{"android":"levelo://app?vid=23a1252c-ed3f-4468-a25b-853533dff828","ios":"levelo://app?vid=23a1252c-ed3f-4468-a25b-853533dff828"},"vehicle_type_id":"4","last_reported":1702498066,"current_range_meters":9600,"station_id":"ce4bh0h2rcd13ifvqd40","pricing_plan_id":"free"},{"bike_id":"042e7c87-3a74-4adc-af19-63c3e992b275","system_id":"levelo_inurba_marseille","lat":43.301117,"lon":5.398795,"is_reserved":false,"is_disabled":false,"rental_uris":{"android":"levelo://app?vid=042e7c87-3a74-4adc-af19-63c3e992b275","ios":"levelo://app?vid=042e7c87-3a74-4adc-af19-63c3e992b275"},"vehicle_type_id":"4","last_reported":1702498066,"current_range_meters":18800,"station_id":"ce4bh0h2rcd13ifvqd40","pricing_plan_id":"free"},{"bike_id":"f0d70e3a-0236-4546-99a7-bae9167c0494","system_id":"levelo_inurba_marseille","lat":43.28727,"lon":5.36078,"is_reserved":false,"is_disabled":false,"rental_uris":{"android":"levelo://app?vid=f0d70e3a-0236-4546-99a7-bae9167c0494","ios":"levelo://app?vid=f0d70e3a-0236-4546-99a7-bae9167c0494"},"vehicle_type_id":"4","last_reported":1702498066,"current_range_meters":27600,"station_id":"cki0cbj6b192h4jlfktg","pricing_plan_id":"free"},{"bike_id":"d26d58e1-6968-4755-a5df-fa3aa7d263a0","system_id":"levelo_inurba_marseille","lat":43.28727,"lon":5.36078,"is_reserved":false,"is_disabled":false,"rental_uris":{"android":"levelo://app?vid=d26d58e1-6968-4755-a5df-fa3aa7d263a0","ios":"levelo://app?vid=d26d58e1-6968-4755-a5df-fa3aa7d263a0"},"vehicle_type_id":"4","last_reported":1702498066,"current_range_meters":26400,"station_id":"cki0cbj6b192h4jlfktg","pricing_plan_id":"free"},{"bike_id":"9821785f-7f08-46e0-9c81-1250a2d862d5","system_id":"levelo_inurba_marseille","lat":43.295194,"lon":5.39397,"is_reserved":false,"is_disabled":false,"rental_uris":{"android":"levelo://app?vid=9821785f-7f08-46e0-9c81-1250a2d862d5","ios":"levelo://app?vid=9821785f-7f08-46e0-9c81-1250a2d862d5"},"vehicle_type_id":"4","last_reported":1702498066,"current_range_meters":4800,"station_id":"ce4bh292rcd13ifvqdf0","pricing_plan_id":"free"},{"bike_id":"559572e7-1740-4644-81f7-ecdbc76f722c","system_id":"levelo_inurba_marseille","lat":43.2952,"lon":5.39403,"is_reserved":false,"is_disabled":false,"rental_uris":{"android":"levelo://app?vid=559572e7-1740-4644-81f7-ecdbc76f722c","ios":"levelo://app?vid=559572e7-1740-4644-81f7-ecdbc76f722c"},"vehicle_type_id":"4","last_reported":1702498066,"current_range_meters":0,"station_id":"ce4bh292rcd13ifvqdf0","pricing_plan_id":"free"},{"bike_id":"5b4537f9-f154-4fd8-8bbc-985443715f2c","system_id":"levelo_inurba_marseille","lat":43.289307,"lon":5.38406,"is_reserved":false,"is_disabled":false,"rental_uris":{"android":"levelo://app?vid=5b4537f9-f154-4fd8-8bbc-985443715f2c","ios":"levelo://app?vid=5b4537f9-f154-4fd8-8bbc-985443715f2c"},"vehicle_type_id":"4","last_reported":1702498066,"current_range_meters":18000,"station_id":"ce4bh612rcd13ifvqe6g","pricing_plan_id":"free"},{"bike_id":"70ee0f76-5a8d-413b-89ec-9d34dc30f823","system_id":"levelo_inurba_marseille","lat":43.302759,"lon":5.400793,"is_reserved":false,"is_disabled":false,"rental_uris":{"android":"levelo://app?vid=70ee0f76-5a8d-413b-89ec-9d34dc30f823","ios":"levelo://app?vid=70ee0f76-5a8d-413b-89ec-9d34dc30f823"},"vehicle_type_id":"4","last_reported":1702498066,"current_range_meters":0,"station_id":"ce4bgvh2rcd13ifvqcs0","pricing_plan_id":"free"},{"bike_id":"5dc10632-1838-4b46-a105-042f318474fa","system_id":"levelo_inurba_marseille","lat":43.286039,"lon":5.370681,"is_reserved":false,"is_disabled":false,"rental_uris":{"android":"levelo://app?vid=5dc10632-1838-4b46-a105-042f318474fa","ios":"levelo://app?vid=5dc10632-1838-4b46-a105-042f318474fa"},"vehicle_type_id":"4","last_reported":1702498066,"current_range_meters":19600,"station_id":"ce4bht12rcd13ifvqi60","pricing_plan_id":"free"},{"bike_id":"b7db43d2-d5bc-4fcf-984f-55df115c5a0c","system_id":"levelo_inurba_marseille","lat":43.291994,"lon":5.392907,"is_reserved":false,"is_disabled":false,"rental_uris":{"android":"levelo://app?vid=b7db43d2-d5bc-4fcf-984f-55df115c5a0c","ios":"levelo://app?vid=b7db43d2-d5bc-4fcf-984f-55df115c5a0c"},"vehicle_type_id":"4","last_reported":1702498066,"current_range_meters":0,"station_id":"ce4bh192rcd13ifvqdd0","pricing_plan_id":"free"},{"bike_id":"a00212ee-bcdf-42b2-9691-d248beab37c5","system_id":"levelo_inurba_marseille","lat":43.291994,"lon":5.392907,"is_reserved":false,"is_disabled":false,"rental_uris":{"android":"levelo://app?vid=a00212ee-bcdf-42b2-9691-d248beab37c5","ios":"levelo://app?vid=a00212ee-bcdf-42b2-9691-d248beab37c5"},"vehicle_type_id":"4","last_reported":1702498066,"current_range_meters":1600,"station_id":"ce4bh192rcd13ifvqdd0","pricing_plan_id":"free"},{"bike_id":"cda38b92-de72-4ba0-88f2-7e47b68dbb92","system_id":"levelo_inurba_marseille","lat":43.291994,"lon":5.392907,"is_reserved":false,"is_disabled":false,"rental_uris":{"android":"levelo://app?vid=cda38b92-de72-4ba0-88f2-7e47b68dbb92","ios":"levelo://app?vid=cda38b92-de72-4ba0-88f2-7e47b68dbb92"},"vehicle_type_id":"4","last_reported":1702498066,"current_range_meters":30000,"station_id":"ce4bh192rcd13ifvqdd0","pricing_plan_id":"free"},{"bike_id":"ebc7c3b3-c80d-4f77-9c00-3973df2d2943","system_id":"levelo_inurba_marseille","lat":43.285848,"lon":5.350787,"is_reserved":false,"is_disabled":false,"rental_uris":{"android":"levelo://app?vid=ebc7c3b3-c80d-4f77-9c00-3973df2d2943","ios":"levelo://app?vid=ebc7c3b3-c80d-4f77-9c00-3973df2d2943"},"vehicle_type_id":"4","last_reported":1702498066,"current_range_meters":5200,"station_id":"ce4bhch2rcd13ifvqeug","pricing_plan_id":"free"},{"bike_id":"6ae5d872-abb9-44a2-a5f5-4a738ee17dd5","system_id":"levelo_inurba_marseille","lat":43.285848,"lon":5.350787,"is_reserved":false,"is_disabled":false,"rental_uris":{"android":"levelo://app?vid=6ae5d872-abb9-44a2-a5f5-4a738ee17dd5","ios":"levelo://app?vid=6ae5d872-abb9-44a2-a5f5-4a738ee17dd5"},"vehicle_type_id":"4","last_reported":1702498066,"current_range_meters":18000,"station_id":"ce4bhch2rcd13ifvqeug","pricing_plan_id":"free"},{"bike_id":"5fcf315f-d1dd-47fa-917e-142b4abf5ed9","system_id":"levelo_inurba_marseille","lat":43.28614,"lon":5.35101,"is_reserved":false,"is_disabled":false,"rental_uris":{"android":"levelo://app?vid=5fcf315f-d1dd-47fa-917e-142b4abf5ed9","ios":"levelo://app?vid=5fcf315f-d1dd-47fa-917e-142b4abf5ed9"},"vehicle_type_id":"4","last_reported":1702498066,"current_range_meters":6400,"station_id":"ce4bhch2rcd13ifvqeug","pricing_plan_id":"free"},{"bike_id":"b57dc9c0-06e2-4760-bd91-746d127ab1e8","system_id":"levelo_inurba_marseille","lat":43.283998,"lon":5.375062,"is_reserved":false,"is_disabled":false,"rental_uris":{"android":"levelo://app?vid=b57dc9c0-06e2-4760-bd91-746d127ab1e8","ios":"levelo://app?vid=b57dc9c0-06e2-4760-bd91-746d127ab1e8"},"vehicle_type_id":"4","last_reported":1702498066,"current_range_meters":15200,"station_id":"ce4bh412rcd13ifvqds0","pricing_plan_id":"free"},{"bike_id":"e3c167b8-4bc0-4261-9f55-681ba47e8c9d","system_id":"levelo_inurba_marseille","lat":43.29567,"lon":5.39963,"is_reserved":false,"is_disabled":false,"rental_uris":{"android":"levelo://app?vid=e3c167b8-4bc0-4261-9f55-681ba47e8c9d","ios":"levelo://app?vid=e3c167b8-4bc0-4261-9f55-681ba47e8c9d"},"vehicle_type_id":"4","last_reported":1702498066,"current_range_meters":0,"station_id":"ce4bh312rcd13ifvqdj0","pricing_plan_id":"free"},{"bike_id":"e9bd6678-2021-418f-a697-cfb395362a3f","system_id":"levelo_inurba_marseille","lat":43.29795,"lon":5.404086,"is_reserved":false,"is_disabled":false,"rental_uris":{"android":"levelo://app?vid=e9bd6678-2021-418f-a697-cfb395362a3f","ios":"levelo://app?vid=e9bd6678-2021-418f-a697-cfb395362a3f"},"vehicle_type_id":"4","last_reported":1702498066,"current_range_meters":10000,"station_id":"ce4bh112rcd13ifvqd90","pricing_plan_id":"free"},{"bike_id":"35530c7f-c8cf-4da9-9300-04e635da6cde","system_id":"levelo_inurba_marseille","lat":43.29795,"lon":5.404086,"is_reserved":false,"is_disabled":false,"rental_uris":{"android":"levelo://app?vid=35530c7f-c8cf-4da9-9300-04e635da6cde","ios":"levelo://app?vid=35530c7f-c8cf-4da9-9300-04e635da6cde"},"vehicle_type_id":"4","last_reported":1702498066,"current_range_meters":26400,"station_id":"ce4bh112rcd13ifvqd90","pricing_plan_id":"free"},{"bike_id":"679946c9-c71b-4a21-942a-e5196a195f2e","system_id":"levelo_inurba_marseille","lat":43.28848,"lon":5.393187,"is_reserved":false,"is_disabled":false,"rental_uris":{"android":"levelo://app?vid=679946c9-c71b-4a21-942a-e5196a195f2e","ios":"levelo://app?vid=679946c9-c71b-4a21-942a-e5196a195f2e"},"vehicle_type_id":"4","last_reported":1702498066,"current_range_meters":0,"station_id":"ce4bh2p2rcd13ifvqdi0","pricing_plan_id":"free"},{"bike_id":"acd3ce77-04ad-49e4-bdab-f091919a8895","system_id":"levelo_inurba_marseille","lat":43.283498,"lon":5.380948,"is_reserved":false,"is_disabled":false,"rental_uris":{"android":"levelo://app?vid=acd3ce77-04ad-49e4-bdab-f091919a8895","ios":"levelo://app?vid=acd3ce77-04ad-49e4-bdab-f091919a8895"},"vehicle_type_id":"4","last_reported":1702498066,"current_range_meters":15200,"station_id":"ce4bh412rcd13ifvqdr0","pricing_plan_id":"free"},{"bike_id":"3787713a-12f4-4532-ba87-e54e3a489778","system_id":"levelo_inurba_marseille","lat":43.28373,"lon":5.3864,"is_reserved":false,"is_disabled":false,"rental_uris":{"android":"levelo://app?vid=3787713a-12f4-4532-ba87-e54e3a489778","ios":"levelo://app?vid=3787713a-12f4-4532-ba87-e54e3a489778"},"vehicle_type_id":"4","last_reported":1702498066,"current_range_meters":0,"station_id":"ce4bh492rcd13ifvqdvg","pricing_plan_id":"free"},{"bike_id":"64ad427a-7422-414f-bcd7-d5b01df3bcac","system_id":"levelo_inurba_marseille","lat":43.296263,"lon":5.40601,"is_reserved":false,"is_disabled":false,"rental_uris":{"android":"levelo://app?vid=64ad427a-7422-414f-bcd7-d5b01df3bcac","ios":"levelo://app?vid=64ad427a-7422-414f-bcd7-d5b01df3bcac"},"vehicle_type_id":"4","last_reported":1702498066,"current_range_meters":11600,"station_id":"ce4bh0h2rcd13ifvqd60","pricing_plan_id":"free"},{"bike_id":"0653dd16-eb5f-489f-8efe-965cd7fb511a","system_id":"levelo_inurba_marseille","lat":43.281044,"lon":5.378308,"is_reserved":false,"is_disabled":false,"rental_uris":{"android":"levelo://app?vid=0653dd16-eb5f-489f-8efe-965cd7fb511a","ios":"levelo://app?vid=0653dd16-eb5f-489f-8efe-965cd7fb511a"},"vehicle_type_id":"4","last_reported":1702498066,"current_range_meters":3600,"station_id":"ce4bha12rcd13ifvqee0","pricing_plan_id":"free"},{"bike_id":"da92cd59-cc01-4215-869f-ddca65d27efc","system_id":"levelo_inurba_marseille","lat":43.284462,"lon":5.392121,"is_reserved":false,"is_disabled":false,"rental_uris":{"android":"levelo://app?vid=da92cd59-cc01-4215-869f-ddca65d27efc","ios":"levelo://app?vid=da92cd59-cc01-4215-869f-ddca65d27efc"},"vehicle_type_id":"4","last_reported":1702498066,"current_range_meters":19200,"station_id":"ce4bhoh2rcd13ifvqh5g","pricing_plan_id":"free"},{"bike_id":"22c9e4b5-1721-4ed5-aaf2-ebf7cc34651f","system_id":"levelo_inurba_marseille","lat":43.326605,"lon":5.409903,"is_reserved":false,"is_disabled":false,"rental_uris":{"android":"levelo://app?vid=22c9e4b5-1721-4ed5-aaf2-ebf7cc34651f","ios":"levelo://app?vid=22c9e4b5-1721-4ed5-aaf2-ebf7cc34651f"},"vehicle_type_id":"4","last_reported":1702498066,"current_range_meters":13200,"station_id":"ce4bhpp2rcd13ifvqhgg","pricing_plan_id":"free"},{"bike_id":"991997b1-c923-49d1-8fdf-e06a7a482ddd","system_id":"levelo_inurba_marseille","lat":43.304188,"lon":5.412904,"is_reserved":false,"is_disabled":false,"rental_uris":{"android":"levelo://app?vid=991997b1-c923-49d1-8fdf-e06a7a482ddd","ios":"levelo://app?vid=991997b1-c923-49d1-8fdf-e06a7a482ddd"},"vehicle_type_id":"4","last_reported":1702498066,"current_range_meters":20800,"station_id":"ce4bhop2rcd13ifvqh8g","pricing_plan_id":"free"},{"bike_id":"e53b3a4d-9aac-4e94-8796-cafcea6e6f56","system_id":"levelo_inurba_marseille","lat":43.279087,"lon":5.380114,"is_reserved":false,"is_disabled":false,"rental_uris":{"android":"levelo://app?vid=e53b3a4d-9aac-4e94-8796-cafcea6e6f56","ios":"levelo://app?vid=e53b3a4d-9aac-4e94-8796-cafcea6e6f56"},"vehicle_type_id":"4","last_reported":1702498066,"current_range_meters":10000,"station_id":"ce4bhf92rcd13ifvqf50","pricing_plan_id":"free"},{"bike_id":"b2dd6f54-ef77-4c08-9562-de246f7565aa","system_id":"levelo_inurba_marseille","lat":43.279087,"lon":5.380114,"is_reserved":false,"is_disabled":false,"rental_uris":{"android":"levelo://app?vid=b2dd6f54-ef77-4c08-9562-de246f7565aa","ios":"levelo://app?vid=b2dd6f54-ef77-4c08-9562-de246f7565aa"},"vehicle_type_id":"4","last_reported":1702498066,"current_range_meters":27600,"station_id":"ce4bhf92rcd13ifvqf50","pricing_plan_id":"free"},{"bike_id":"bac7f80f-57fe-40eb-8330-1a5ff70c2840","system_id":"levelo_inurba_marseille","lat":43.27969,"lon":5.38721,"is_reserved":false,"is_disabled":false,"rental_uris":{"android":"levelo://app?vid=bac7f80f-57fe-40eb-8330-1a5ff70c2840","ios":"levelo://app?vid=bac7f80f-57fe-40eb-8330-1a5ff70c2840"},"vehicle_type_id":"4","last_reported":1702498066,"current_range_meters":0,"station_id":"ce4bhg12rcd13ifvqf80","pricing_plan_id":"free"},{"bike_id":"022fbf18-f14c-4c51-b94a-c43068e6e4bb","system_id":"levelo_inurba_marseille","lat":43.27965,"lon":5.38739,"is_reserved":false,"is_disabled":false,"rental_uris":{"android":"levelo://app?vid=022fbf18-f14c-4c51-b94a-c43068e6e4bb","ios":"levelo://app?vid=022fbf18-f14c-4c51-b94a-c43068e6e4bb"},"vehicle_type_id":"4","last_reported":1702498066,"current_range_meters":0,"station_id":"ce4bhg12rcd13ifvqf80","pricing_plan_id":"free"},{"bike_id":"359fb6df-e61b-45e7-95a6-2a3959446907","system_id":"levelo_inurba_marseille","lat":43.276179,"lon":5.361009,"is_reserved":false,"is_disabled":false,"rental_uris":{"android":"levelo://app?vid=359fb6df-e61b-45e7-95a6-2a3959446907","ios":"levelo://app?vid=359fb6df-e61b-45e7-95a6-2a3959446907"},"vehicle_type_id":"4","last_reported":1702498066,"current_range_meters":0,"station_id":"ce4bgj92rcd13ifvqbe0","pricing_plan_id":"free"},{"bike_id":"c016e672-b4d7-49b9-b38f-69fd9e1cf7ed","system_id":"levelo_inurba_marseille","lat":43.325243,"lon":5.414326,"is_reserved":false,"is_disabled":false,"rental_uris":{"android":"levelo://app?vid=c016e672-b4d7-49b9-b38f-69fd9e1cf7ed","ios":"levelo://app?vid=c016e672-b4d7-49b9-b38f-69fd9e1cf7ed"},"vehicle_type_id":"4","last_reported":1702498066,"current_range_meters":18400,"station_id":"ce4bhq12rcd13ifvqhhg","pricing_plan_id":"free"},{"bike_id":"39eefe27-03d9-47f3-9de8-d68c3a12f1c4","system_id":"levelo_inurba_marseille","lat":43.35094,"lon":5.3681,"is_reserved":false,"is_disabled":false,"rental_uris":{"android":"levelo://app?vid=39eefe27-03d9-47f3-9de8-d68c3a12f1c4","ios":"levelo://app?vid=39eefe27-03d9-47f3-9de8-d68c3a12f1c4"},"vehicle_type_id":"4","last_reported":1702498066,"current_range_meters":0,"station_id":"","pricing_plan_id":"free"},{"bike_id":"880aa1c5-8b19-4862-ae8e-55a3060b0ba9","system_id":"levelo_inurba_marseille","lat":43.280784,"lon":5.396622,"is_reserved":false,"is_disabled":false,"rental_uris":{"android":"levelo://app?vid=880aa1c5-8b19-4862-ae8e-55a3060b0ba9","ios":"levelo://app?vid=880aa1c5-8b19-4862-ae8e-55a3060b0ba9"},"vehicle_type_id":"4","last_reported":1702498066,"current_range_meters":12000,"station_id":"ce4bho12rcd13ifvqh2g","pricing_plan_id":"free"},{"bike_id":"1b386c08-0496-4165-97aa-f3e75d73bbed","system_id":"levelo_inurba_marseille","lat":43.30354,"lon":5.4188,"is_reserved":false,"is_disabled":false,"rental_uris":{"android":"levelo://app?vid=1b386c08-0496-4165-97aa-f3e75d73bbed","ios":"levelo://app?vid=1b386c08-0496-4165-97aa-f3e75d73bbed"},"vehicle_type_id":"4","last_reported":1702498066,"current_range_meters":21200,"station_id":"ce4bhop2rcd13ifvqh7g","pricing_plan_id":"free"},{"bike_id":"3aa4377f-b14d-422c-80d3-5082b31113b0","system_id":"levelo_inurba_marseille","lat":43.279952,"lon":5.400085,"is_reserved":false,"is_disabled":false,"rental_uris":{"android":"levelo://app?vid=3aa4377f-b14d-422c-80d3-5082b31113b0","ios":"levelo://app?vid=3aa4377f-b14d-422c-80d3-5082b31113b0"},"vehicle_type_id":"4","last_reported":1702498066,"current_range_meters":20400,"station_id":"ce4bho92rcd13ifvqh4g","pricing_plan_id":"free"},{"bike_id":"946f57eb-3762-4ab4-825d-a8d3a102ceba","system_id":"levelo_inurba_marseille","lat":43.279952,"lon":5.400085,"is_reserved":false,"is_disabled":false,"rental_uris":{"android":"levelo://app?vid=946f57eb-3762-4ab4-825d-a8d3a102ceba","ios":"levelo://app?vid=946f57eb-3762-4ab4-825d-a8d3a102ceba"},"vehicle_type_id":"4","last_reported":1702498066,"current_range_meters":12800,"station_id":"ce4bho92rcd13ifvqh4g","pricing_plan_id":"free"},{"bike_id":"fdfea060-a937-4f92-8430-8f650d233de2","system_id":"levelo_inurba_marseille","lat":43.317121,"lon":5.423936,"is_reserved":false,"is_disabled":false,"rental_uris":{"android":"levelo://app?vid=fdfea060-a937-4f92-8430-8f650d233de2","ios":"levelo://app?vid=fdfea060-a937-4f92-8430-8f650d233de2"},"vehicle_type_id":"4","last_reported":1702498066,"current_range_meters":17200,"station_id":"ce4bhp92rcd13ifvqhbg","pricing_plan_id":"free"},{"bike_id":"55f8cf7b-a384-4860-b1f5-075034029351","system_id":"levelo_inurba_marseille","lat":43.31712,"lon":5.42402,"is_reserved":false,"is_disabled":false,"rental_uris":{"android":"levelo://app?vid=55f8cf7b-a384-4860-b1f5-075034029351","ios":"levelo://app?vid=55f8cf7b-a384-4860-b1f5-075034029351"},"vehicle_type_id":"4","last_reported":1702498066,"current_range_meters":24000,"station_id":"ce4bhp92rcd13ifvqhbg","pricing_plan_id":"free"},{"bike_id":"b1c028eb-0fe1-4afa-b35c-b9783a0e9537","system_id":"levelo_inurba_marseille","lat":43.31723,"lon":5.42405,"is_reserved":false,"is_disabled":false,"rental_uris":{"android":"levelo://app?vid=b1c028eb-0fe1-4afa-b35c-b9783a0e9537","ios":"levelo://app?vid=b1c028eb-0fe1-4afa-b35c-b9783a0e9537"},"vehicle_type_id":"4","last_reported":1702498066,"current_range_meters":800,"station_id":"ce4bhp92rcd13ifvqhbg","pricing_plan_id":"free"},{"bike_id":"735a48c3-eb5d-4627-ac05-6da9b77b047f","system_id":"levelo_inurba_marseille","lat":43.340804,"lon":5.410219,"is_reserved":false,"is_disabled":false,"rental_uris":{"android":"levelo://app?vid=735a48c3-eb5d-4627-ac05-6da9b77b047f","ios":"levelo://app?vid=735a48c3-eb5d-4627-ac05-6da9b77b047f"},"vehicle_type_id":"4","last_reported":1702498066,"current_range_meters":13600,"station_id":"ce4bhqh2rcd13ifvqhlg","pricing_plan_id":"free"},{"bike_id":"3ca2c2d2-99b0-4aa6-a05d-e30f02e6a7fb","system_id":"levelo_inurba_marseille","lat":43.27588,"lon":5.39495,"is_reserved":false,"is_disabled":false,"rental_uris":{"android":"levelo://app?vid=3ca2c2d2-99b0-4aa6-a05d-e30f02e6a7fb","ios":"levelo://app?vid=3ca2c2d2-99b0-4aa6-a05d-e30f02e6a7fb"},"vehicle_type_id":"4","last_reported":1702498066,"current_range_meters":14000,"station_id":"","pricing_plan_id":"free"},{"bike_id":"7121b86f-6bc0-4544-b160-ec459057e7bb","system_id":"levelo_inurba_marseille","lat":43.273129,"lon":5.390725,"is_reserved":false,"is_disabled":false,"rental_uris":{"android":"levelo://app?vid=7121b86f-6bc0-4544-b160-ec459057e7bb","ios":"levelo://app?vid=7121b86f-6bc0-4544-b160-ec459057e7bb"},"vehicle_type_id":"4","last_reported":1702498066,"current_range_meters":18400,"station_id":"ce4bhgp2rcd13ifvqfe0","pricing_plan_id":"free"},{"bike_id":"db82a56d-4dce-4e06-ac44-29e71907e689","system_id":"levelo_inurba_marseille","lat":43.27205,"lon":5.39186,"is_reserved":false,"is_disabled":false,"rental_uris":{"android":"levelo://app?vid=db82a56d-4dce-4e06-ac44-29e71907e689","ios":"levelo://app?vid=db82a56d-4dce-4e06-ac44-29e71907e689"},"vehicle_type_id":"4","last_reported":1702498066,"current_range_meters":12400,"station_id":"ce4bhhp2rcd13ifvqfm0","pricing_plan_id":"free"},{"bike_id":"4390bffd-7c0b-4706-b12e-4a9031cdebaa","system_id":"levelo_inurba_marseille","lat":43.278128,"lon":5.407195,"is_reserved":false,"is_disabled":false,"rental_uris":{"android":"levelo://app?vid=4390bffd-7c0b-4706-b12e-4a9031cdebaa","ios":"levelo://app?vid=4390bffd-7c0b-4706-b12e-4a9031cdebaa"},"vehicle_type_id":"4","last_reported":1702498066,"current_range_meters":20800,"station_id":"ce4bhnh2rcd13ifvqgtg","pricing_plan_id":"free"},{"bike_id":"13aeab0c-5fc7-4a70-9d35-9a78d4004e35","system_id":"levelo_inurba_marseille","lat":43.27943,"lon":5.41046,"is_reserved":false,"is_disabled":false,"rental_uris":{"android":"levelo://app?vid=13aeab0c-5fc7-4a70-9d35-9a78d4004e35","ios":"levelo://app?vid=13aeab0c-5fc7-4a70-9d35-9a78d4004e35"},"vehicle_type_id":"4","last_reported":1702498066,"current_range_meters":5200,"station_id":"ce4bhnp2rcd13ifvqh0g","pricing_plan_id":"free"},{"bike_id":"2f954a71-a24d-4218-8131-98337f69cd1b","system_id":"levelo_inurba_marseille","lat":43.279465,"lon":5.410561,"is_reserved":false,"is_disabled":false,"rental_uris":{"android":"levelo://app?vid=2f954a71-a24d-4218-8131-98337f69cd1b","ios":"levelo://app?vid=2f954a71-a24d-4218-8131-98337f69cd1b"},"vehicle_type_id":"4","last_reported":1702498066,"current_range_meters":13200,"station_id":"ce4bhnp2rcd13ifvqh0g","pricing_plan_id":"free"},{"bike_id":"fee91fa2-5868-42fc-8e40-ea18a86e9560","system_id":"levelo_inurba_marseille","lat":43.26563,"lon":5.37305,"is_reserved":false,"is_disabled":false,"rental_uris":{"android":"levelo://app?vid=fee91fa2-5868-42fc-8e40-ea18a86e9560","ios":"levelo://app?vid=fee91fa2-5868-42fc-8e40-ea18a86e9560"},"vehicle_type_id":"4","last_reported":1702498066,"current_range_meters":29200,"station_id":"ce4bhg12rcd13ifvqf70","pricing_plan_id":"free"},{"bike_id":"cb25c8bf-e4ee-4d5d-bae9-3b58e7e9abcd","system_id":"levelo_inurba_marseille","lat":43.26548,"lon":5.37286,"is_reserved":false,"is_disabled":false,"rental_uris":{"android":"levelo://app?vid=cb25c8bf-e4ee-4d5d-bae9-3b58e7e9abcd","ios":"levelo://app?vid=cb25c8bf-e4ee-4d5d-bae9-3b58e7e9abcd"},"vehicle_type_id":"4","last_reported":1702498066,"current_range_meters":31600,"station_id":"ce4bhg12rcd13ifvqf70","pricing_plan_id":"free"},{"bike_id":"8bcd14b3-672d-4381-87fd-d93a905497a9","system_id":"levelo_inurba_marseille","lat":43.27996,"lon":5.416624,"is_reserved":false,"is_disabled":false,"rental_uris":{"android":"levelo://app?vid=8bcd14b3-672d-4381-87fd-d93a905497a9","ios":"levelo://app?vid=8bcd14b3-672d-4381-87fd-d93a905497a9"},"vehicle_type_id":"4","last_reported":1702498066,"current_range_meters":20800,"station_id":"ce4bho12rcd13ifvqh1g","pricing_plan_id":"free"},{"bike_id":"3f232a0b-f328-4a7c-9376-5d1041aa79e5","system_id":"levelo_inurba_marseille","lat":43.30803,"lon":5.43523,"is_reserved":false,"is_disabled":false,"rental_uris":{"android":"levelo://app?vid=3f232a0b-f328-4a7c-9376-5d1041aa79e5","ios":"levelo://app?vid=3f232a0b-f328-4a7c-9376-5d1041aa79e5"},"vehicle_type_id":"4","last_reported":1702498066,"current_range_meters":30800,"station_id":"ce4bhph2rcd13ifvqheg","pricing_plan_id":"free"},{"bike_id":"7a206cba-d482-42df-b162-f451c9b8d376","system_id":"levelo_inurba_marseille","lat":43.26564,"lon":5.39008,"is_reserved":false,"is_disabled":false,"rental_uris":{"android":"levelo://app?vid=7a206cba-d482-42df-b162-f451c9b8d376","ios":"levelo://app?vid=7a206cba-d482-42df-b162-f451c9b8d376"},"vehicle_type_id":"4","last_reported":1702498066,"current_range_meters":16400,"station_id":"ce4bhe12rcd13ifvqf30","pricing_plan_id":"free"},{"bike_id":"d7c68083-de0d-4032-884a-e4511850567b","system_id":"levelo_inurba_marseille","lat":43.26202,"lon":5.379299,"is_reserved":false,"is_disabled":false,"rental_uris":{"android":"levelo://app?vid=d7c68083-de0d-4032-884a-e4511850567b","ios":"levelo://app?vid=d7c68083-de0d-4032-884a-e4511850567b"},"vehicle_type_id":"4","last_reported":1702498066,"current_range_meters":28400,"station_id":"ce4bhjp2rcd13ifvqg90","pricing_plan_id":"free"},{"bike_id":"4f487e36-00dc-42e1-bb73-139c0266d0c1","system_id":"levelo_inurba_marseille","lat":43.271368,"lon":5.40928,"is_reserved":false,"is_disabled":false,"rental_uris":{"android":"levelo://app?vid=4f487e36-00dc-42e1-bb73-139c0266d0c1","ios":"levelo://app?vid=4f487e36-00dc-42e1-bb73-139c0266d0c1"},"vehicle_type_id":"4","last_reported":1702498066,"current_range_meters":18400,"station_id":"ce4bhl12rcd13ifvqgf0","pricing_plan_id":"free"},{"bike_id":"237634d4-2d23-479f-935b-09427197b407","system_id":"levelo_inurba_marseille","lat":43.27096,"lon":5.40952,"is_reserved":false,"is_disabled":false,"rental_uris":{"android":"levelo://app?vid=237634d4-2d23-479f-935b-09427197b407","ios":"levelo://app?vid=237634d4-2d23-479f-935b-09427197b407"},"vehicle_type_id":"4","last_reported":1702498066,"current_range_meters":10800,"station_id":"","pricing_plan_id":"free"},{"bike_id":"f860f387-f2ce-4d8f-830e-bd8a0d08dbe2","system_id":"levelo_inurba_marseille","lat":43.298768,"lon":5.43643,"is_reserved":false,"is_disabled":false,"rental_uris":{"android":"levelo://app?vid=f860f387-f2ce-4d8f-830e-bd8a0d08dbe2","ios":"levelo://app?vid=f860f387-f2ce-4d8f-830e-bd8a0d08dbe2"},"vehicle_type_id":"4","last_reported":1702498066,"current_range_meters":27600,"station_id":"ce4bhpp2rcd13ifvqhfg","pricing_plan_id":"free"},{"bike_id":"38a4a3ac-b01c-43e0-abb4-5a012521fc8c","system_id":"levelo_inurba_marseille","lat":43.298768,"lon":5.43643,"is_reserved":false,"is_disabled":false,"rental_uris":{"android":"levelo://app?vid=38a4a3ac-b01c-43e0-abb4-5a012521fc8c","ios":"levelo://app?vid=38a4a3ac-b01c-43e0-abb4-5a012521fc8c"},"vehicle_type_id":"4","last_reported":1702498066,"current_range_meters":31200,"station_id":"ce4bhpp2rcd13ifvqhfg","pricing_plan_id":"free"},{"bike_id":"4ec71661-c1e3-4c3b-a17d-3fefed6d4370","system_id":"levelo_inurba_marseille","lat":43.298768,"lon":5.43643,"is_reserved":false,"is_disabled":false,"rental_uris":{"android":"levelo://app?vid=4ec71661-c1e3-4c3b-a17d-3fefed6d4370","ios":"levelo://app?vid=4ec71661-c1e3-4c3b-a17d-3fefed6d4370"},"vehicle_type_id":"4","last_reported":1702498066,"current_range_meters":18400,"station_id":"ce4bhpp2rcd13ifvqhfg","pricing_plan_id":"free"},{"bike_id":"35a85cf9-9566-462c-8635-8548e14e231f","system_id":"levelo_inurba_marseille","lat":43.298768,"lon":5.43643,"is_reserved":false,"is_disabled":false,"rental_uris":{"android":"levelo://app?vid=35a85cf9-9566-462c-8635-8548e14e231f","ios":"levelo://app?vid=35a85cf9-9566-462c-8635-8548e14e231f"},"vehicle_type_id":"4","last_reported":1702498066,"current_range_meters":1600,"station_id":"ce4bhpp2rcd13ifvqhfg","pricing_plan_id":"free"},{"bike_id":"139a7b0f-d716-4a89-a8df-8cb0192f7033","system_id":"levelo_inurba_marseille","lat":43.276845,"lon":5.420367,"is_reserved":false,"is_disabled":false,"rental_uris":{"android":"levelo://app?vid=139a7b0f-d716-4a89-a8df-8cb0192f7033","ios":"levelo://app?vid=139a7b0f-d716-4a89-a8df-8cb0192f7033"},"vehicle_type_id":"4","last_reported":1702498066,"current_range_meters":26800,"station_id":"","pricing_plan_id":"free"},{"bike_id":"af5d9ae9-c611-48ae-bdd0-02a1acfdf6ec","system_id":"levelo_inurba_marseille","lat":43.281548,"lon":5.42643,"is_reserved":false,"is_disabled":false,"rental_uris":{"android":"levelo://app?vid=af5d9ae9-c611-48ae-bdd0-02a1acfdf6ec","ios":"levelo://app?vid=af5d9ae9-c611-48ae-bdd0-02a1acfdf6ec"},"vehicle_type_id":"4","last_reported":1702498066,"current_range_meters":10000,"station_id":"ce4bhnh2rcd13ifvqgug","pricing_plan_id":"free"},{"bike_id":"9033636c-5f25-4157-8960-0576b93355ae","system_id":"levelo_inurba_marseille","lat":43.281548,"lon":5.42643,"is_reserved":false,"is_disabled":false,"rental_uris":{"android":"levelo://app?vid=9033636c-5f25-4157-8960-0576b93355ae","ios":"levelo://app?vid=9033636c-5f25-4157-8960-0576b93355ae"},"vehicle_type_id":"4","last_reported":1702498066,"current_range_meters":28000,"station_id":"ce4bhnh2rcd13ifvqgug","pricing_plan_id":"free"},{"bike_id":"9dfe7244-85f5-4cb8-95ef-7f323294d3b9","system_id":"levelo_inurba_marseille","lat":43.281548,"lon":5.42643,"is_reserved":false,"is_disabled":false,"rental_uris":{"android":"levelo://app?vid=9dfe7244-85f5-4cb8-95ef-7f323294d3b9","ios":"levelo://app?vid=9dfe7244-85f5-4cb8-95ef-7f323294d3b9"},"vehicle_type_id":"4","last_reported":1702498066,"current_range_meters":15200,"station_id":"ce4bhnh2rcd13ifvqgug","pricing_plan_id":"free"},{"bike_id":"4f1a3582-9901-49ec-aefe-7ce756d9a0ab","system_id":"levelo_inurba_marseille","lat":43.281548,"lon":5.42643,"is_reserved":false,"is_disabled":false,"rental_uris":{"android":"levelo://app?vid=4f1a3582-9901-49ec-aefe-7ce756d9a0ab","ios":"levelo://app?vid=4f1a3582-9901-49ec-aefe-7ce756d9a0ab"},"vehicle_type_id":"4","last_reported":1702498066,"current_range_meters":23200,"station_id":"ce4bhnh2rcd13ifvqgug","pricing_plan_id":"free"},{"bike_id":"89f090d1-02e6-4ed1-950a-6f917dc6929a","system_id":"levelo_inurba_marseille","lat":43.281548,"lon":5.42643,"is_reserved":false,"is_disabled":false,"rental_uris":{"android":"levelo://app?vid=89f090d1-02e6-4ed1-950a-6f917dc6929a","ios":"levelo://app?vid=89f090d1-02e6-4ed1-950a-6f917dc6929a"},"vehicle_type_id":"4","last_reported":1702498066,"current_range_meters":6000,"station_id":"ce4bhnh2rcd13ifvqgug","pricing_plan_id":"free"},{"bike_id":"12c2f05b-37a3-4509-accb-e1db563099f1","system_id":"levelo_inurba_marseille","lat":43.2607,"lon":5.393983,"is_reserved":false,"is_disabled":false,"rental_uris":{"android":"levelo://app?vid=12c2f05b-37a3-4509-accb-e1db563099f1","ios":"levelo://app?vid=12c2f05b-37a3-4509-accb-e1db563099f1"},"vehicle_type_id":"4","last_reported":1702498066,"current_range_meters":400,"station_id":"ce4bhh92rcd13ifvqfj0","pricing_plan_id":"free"},{"bike_id":"a45b83dc-2dcb-49d2-a533-d4d9e5ca6668","system_id":"levelo_inurba_marseille","lat":43.258224,"lon":5.394369,"is_reserved":false,"is_disabled":false,"rental_uris":{"android":"levelo://app?vid=a45b83dc-2dcb-49d2-a533-d4d9e5ca6668","ios":"levelo://app?vid=a45b83dc-2dcb-49d2-a533-d4d9e5ca6668"},"vehicle_type_id":"4","last_reported":1702498066,"current_range_meters":26400,"station_id":"ce4bhip2rcd13ifvqft0","pricing_plan_id":"free"},{"bike_id":"d7c250b7-41f1-4dc2-85e6-c6a35b513b5c","system_id":"levelo_inurba_marseille","lat":43.258224,"lon":5.394369,"is_reserved":false,"is_disabled":false,"rental_uris":{"android":"levelo://app?vid=d7c250b7-41f1-4dc2-85e6-c6a35b513b5c","ios":"levelo://app?vid=d7c250b7-41f1-4dc2-85e6-c6a35b513b5c"},"vehicle_type_id":"4","last_reported":1702498066,"current_range_meters":19200,"station_id":"ce4bhip2rcd13ifvqft0","pricing_plan_id":"free"},{"bike_id":"b04a6739-f6b9-47a5-af29-c65f45a39c0c","system_id":"levelo_inurba_marseille","lat":43.258658,"lon":5.398935,"is_reserved":false,"is_disabled":false,"rental_uris":{"android":"levelo://app?vid=b04a6739-f6b9-47a5-af29-c65f45a39c0c","ios":"levelo://app?vid=b04a6739-f6b9-47a5-af29-c65f45a39c0c"},"vehicle_type_id":"4","last_reported":1702498066,"current_range_meters":26800,"station_id":"ce4bhl92rcd13ifvqghg","pricing_plan_id":"free"},{"bike_id":"b3778f4b-17a5-414d-a355-5d6709a05873","system_id":"levelo_inurba_marseille","lat":43.25397,"lon":5.38284,"is_reserved":false,"is_disabled":false,"rental_uris":{"android":"levelo://app?vid=b3778f4b-17a5-414d-a355-5d6709a05873","ios":"levelo://app?vid=b3778f4b-17a5-414d-a355-5d6709a05873"},"vehicle_type_id":"4","last_reported":1702498066,"current_range_meters":21600,"station_id":"","pricing_plan_id":"free"},{"bike_id":"a8e20f3c-56a3-473c-a768-733a19fc879c","system_id":"levelo_inurba_marseille","lat":43.257079,"lon":5.411051,"is_reserved":false,"is_disabled":false,"rental_uris":{"android":"levelo://app?vid=a8e20f3c-56a3-473c-a768-733a19fc879c","ios":"levelo://app?vid=a8e20f3c-56a3-473c-a768-733a19fc879c"},"vehicle_type_id":"4","last_reported":1702498066,"current_range_meters":8000,"station_id":"ce4bhkp2rcd13ifvqgd0","pricing_plan_id":"free"},{"bike_id":"5cae2298-3e03-42c1-bf24-6a636c501b6f","system_id":"levelo_inurba_marseille","lat":43.248049,"lon":5.3746,"is_reserved":false,"is_disabled":false,"rental_uris":{"android":"levelo://app?vid=5cae2298-3e03-42c1-bf24-6a636c501b6f","ios":"levelo://app?vid=5cae2298-3e03-42c1-bf24-6a636c501b6f"},"vehicle_type_id":"4","last_reported":1702498066,"current_range_meters":3200,"station_id":"","pricing_plan_id":"free"},{"bike_id":"25e0324e-910e-4862-8371-f8a3555d36f6","system_id":"levelo_inurba_marseille","lat":43.250966,"lon":5.395186,"is_reserved":false,"is_disabled":false,"rental_uris":{"android":"levelo://app?vid=25e0324e-910e-4862-8371-f8a3555d36f6","ios":"levelo://app?vid=25e0324e-910e-4862-8371-f8a3555d36f6"},"vehicle_type_id":"4","last_reported":1702498066,"current_range_meters":14800,"station_id":"ce4bhm12rcd13ifvqgkg","pricing_plan_id":"free"},{"bike_id":"4e5ad467-5b2a-4311-bfbd-5ed452f7c851","system_id":"levelo_inurba_marseille","lat":43.250966,"lon":5.395186,"is_reserved":false,"is_disabled":false,"rental_uris":{"android":"levelo://app?vid=4e5ad467-5b2a-4311-bfbd-5ed452f7c851","ios":"levelo://app?vid=4e5ad467-5b2a-4311-bfbd-5ed452f7c851"},"vehicle_type_id":"4","last_reported":1702498066,"current_range_meters":21200,"station_id":"ce4bhm12rcd13ifvqgkg","pricing_plan_id":"free"},{"bike_id":"7e1973b3-f606-4647-8baa-0aa70235ba76","system_id":"levelo_inurba_marseille","lat":43.250966,"lon":5.395186,"is_reserved":false,"is_disabled":false,"rental_uris":{"android":"levelo://app?vid=7e1973b3-f606-4647-8baa-0aa70235ba76","ios":"levelo://app?vid=7e1973b3-f606-4647-8baa-0aa70235ba76"},"vehicle_type_id":"4","last_reported":1702498066,"current_range_meters":31200,"station_id":"ce4bhm12rcd13ifvqgkg","pricing_plan_id":"free"},{"bike_id":"783deed0-adef-43e6-90d2-240c7d48d32d","system_id":"levelo_inurba_marseille","lat":43.250966,"lon":5.395186,"is_reserved":false,"is_disabled":false,"rental_uris":{"android":"levelo://app?vid=783deed0-adef-43e6-90d2-240c7d48d32d","ios":"levelo://app?vid=783deed0-adef-43e6-90d2-240c7d48d32d"},"vehicle_type_id":"4","last_reported":1702498066,"current_range_meters":12800,"station_id":"ce4bhm12rcd13ifvqgkg","pricing_plan_id":"free"},{"bike_id":"dc118269-ea24-4acd-9418-28f82ac9c150","system_id":"levelo_inurba_marseille","lat":43.25102,"lon":5.403214,"is_reserved":false,"is_disabled":false,"rental_uris":{"android":"levelo://app?vid=dc118269-ea24-4acd-9418-28f82ac9c150","ios":"levelo://app?vid=dc118269-ea24-4acd-9418-28f82ac9c150"},"vehicle_type_id":"4","last_reported":1702498066,"current_range_meters":15200,"station_id":"ce4bhlh2rcd13ifvqgig","pricing_plan_id":"free"},{"bike_id":"f3fe1602-6781-4d4c-930e-5179af172901","system_id":"levelo_inurba_marseille","lat":43.25102,"lon":5.403214,"is_reserved":false,"is_disabled":false,"rental_uris":{"android":"levelo://app?vid=f3fe1602-6781-4d4c-930e-5179af172901","ios":"levelo://app?vid=f3fe1602-6781-4d4c-930e-5179af172901"},"vehicle_type_id":"4","last_reported":1702498066,"current_range_meters":10400,"station_id":"ce4bhlh2rcd13ifvqgig","pricing_plan_id":"free"},{"bike_id":"ff5e0797-a271-4d1e-8059-a2e1f74a08f0","system_id":"levelo_inurba_marseille","lat":43.25108,"lon":5.40323,"is_reserved":false,"is_disabled":false,"rental_uris":{"android":"levelo://app?vid=ff5e0797-a271-4d1e-8059-a2e1f74a08f0","ios":"levelo://app?vid=ff5e0797-a271-4d1e-8059-a2e1f74a08f0"},"vehicle_type_id":"4","last_reported":1702498066,"current_range_meters":0,"station_id":"ce4bhlh2rcd13ifvqgig","pricing_plan_id":"free"},{"bike_id":"f61707de-c839-47df-b06d-a3b8de53d564","system_id":"levelo_inurba_marseille","lat":43.25102,"lon":5.403214,"is_reserved":false,"is_disabled":false,"rental_uris":{"android":"levelo://app?vid=f61707de-c839-47df-b06d-a3b8de53d564","ios":"levelo://app?vid=f61707de-c839-47df-b06d-a3b8de53d564"},"vehicle_type_id":"4","last_reported":1702498066,"current_range_meters":26800,"station_id":"ce4bhlh2rcd13ifvqgig","pricing_plan_id":"free"},{"bike_id":"f1da4a16-cef8-424b-af9c-3ddddca82b56","system_id":"levelo_inurba_marseille","lat":43.246467,"lon":5.388984,"is_reserved":false,"is_disabled":false,"rental_uris":{"android":"levelo://app?vid=f1da4a16-cef8-424b-af9c-3ddddca82b56","ios":"levelo://app?vid=f1da4a16-cef8-424b-af9c-3ddddca82b56"},"vehicle_type_id":"4","last_reported":1702498066,"current_range_meters":23600,"station_id":"ce4bhg12rcd13ifvqf60","pricing_plan_id":"free"},{"bike_id":"d2de9bcc-0a4a-4f92-a74d-96a33e79b929","system_id":"levelo_inurba_marseille","lat":43.239588,"lon":5.366238,"is_reserved":false,"is_disabled":false,"rental_uris":{"android":"levelo://app?vid=d2de9bcc-0a4a-4f92-a74d-96a33e79b929","ios":"levelo://app?vid=d2de9bcc-0a4a-4f92-a74d-96a33e79b929"},"vehicle_type_id":"4","last_reported":1702498066,"current_range_meters":400,"station_id":"ce4bhi12rcd13ifvqfp0","pricing_plan_id":"free"},{"bike_id":"ec7f2af4-9c4d-46ed-80cf-23de3b8dc4c3","system_id":"levelo_inurba_marseille","lat":43.240623,"lon":5.377642,"is_reserved":false,"is_disabled":false,"rental_uris":{"android":"levelo://app?vid=ec7f2af4-9c4d-46ed-80cf-23de3b8dc4c3","ios":"levelo://app?vid=ec7f2af4-9c4d-46ed-80cf-23de3b8dc4c3"},"vehicle_type_id":"4","last_reported":1702498066,"current_range_meters":25200,"station_id":"ce4bhnp2rcd13ifvqgvg","pricing_plan_id":"free"},{"bike_id":"34fe02de-1ec0-492a-9fa0-73f72984c928","system_id":"levelo_inurba_marseille","lat":43.24072,"lon":5.37761,"is_reserved":false,"is_disabled":false,"rental_uris":{"android":"levelo://app?vid=34fe02de-1ec0-492a-9fa0-73f72984c928","ios":"levelo://app?vid=34fe02de-1ec0-492a-9fa0-73f72984c928"},"vehicle_type_id":"4","last_reported":1702498066,"current_range_meters":9200,"station_id":"ce4bhnp2rcd13ifvqgvg","pricing_plan_id":"free"},{"bike_id":"1b2ea811-591a-43e2-a7a2-2a84bd8d0164","system_id":"levelo_inurba_marseille","lat":43.240623,"lon":5.377642,"is_reserved":false,"is_disabled":false,"rental_uris":{"android":"levelo://app?vid=1b2ea811-591a-43e2-a7a2-2a84bd8d0164","ios":"levelo://app?vid=1b2ea811-591a-43e2-a7a2-2a84bd8d0164"},"vehicle_type_id":"4","last_reported":1702498066,"current_range_meters":11200,"station_id":"ce4bhnp2rcd13ifvqgvg","pricing_plan_id":"free"},{"bike_id":"d1e4ffa3-0a0a-4153-b85c-71ae60bb1e49","system_id":"levelo_inurba_marseille","lat":43.240623,"lon":5.377642,"is_reserved":false,"is_disabled":false,"rental_uris":{"android":"levelo://app?vid=d1e4ffa3-0a0a-4153-b85c-71ae60bb1e49","ios":"levelo://app?vid=d1e4ffa3-0a0a-4153-b85c-71ae60bb1e49"},"vehicle_type_id":"4","last_reported":1702498066,"current_range_meters":8800,"station_id":"ce4bhnp2rcd13ifvqgvg","pricing_plan_id":"free"},{"bike_id":"eccd6270-8b04-4555-bc82-7e9ab59ec18d","system_id":"levelo_inurba_marseille","lat":43.240623,"lon":5.377642,"is_reserved":false,"is_disabled":false,"rental_uris":{"android":"levelo://app?vid=eccd6270-8b04-4555-bc82-7e9ab59ec18d","ios":"levelo://app?vid=eccd6270-8b04-4555-bc82-7e9ab59ec18d"},"vehicle_type_id":"4","last_reported":1702498066,"current_range_meters":24800,"station_id":"ce4bhnp2rcd13ifvqgvg","pricing_plan_id":"free"},{"bike_id":"825265e1-f294-4e04-ac72-2c431a6af408","system_id":"levelo_inurba_marseille","lat":43.239588,"lon":5.366238,"is_reserved":false,"is_disabled":false,"rental_uris":{"android":"levelo://app?vid=825265e1-f294-4e04-ac72-2c431a6af408","ios":"levelo://app?vid=825265e1-f294-4e04-ac72-2c431a6af408"},"vehicle_type_id":"4","last_reported":1702498066,"current_range_meters":31200,"station_id":"ce4bhi12rcd13ifvqfp0","pricing_plan_id":"free"},{"bike_id":"6bd20864-53b2-4d37-8c90-9b33e3024701","system_id":"levelo_inurba_marseille","lat":43.23966,"lon":5.36631,"is_reserved":false,"is_disabled":false,"rental_uris":{"android":"levelo://app?vid=6bd20864-53b2-4d37-8c90-9b33e3024701","ios":"levelo://app?vid=6bd20864-53b2-4d37-8c90-9b33e3024701"},"vehicle_type_id":"4","last_reported":1702498066,"current_range_meters":6400,"station_id":"ce4bhi12rcd13ifvqfp0","pricing_plan_id":"free"},{"bike_id":"9af76f9c-24ab-48cd-a884-2f55b135e3d5","system_id":"levelo_inurba_marseille","lat":43.239588,"lon":5.366238,"is_reserved":false,"is_disabled":false,"rental_uris":{"android":"levelo://app?vid=9af76f9c-24ab-48cd-a884-2f55b135e3d5","ios":"levelo://app?vid=9af76f9c-24ab-48cd-a884-2f55b135e3d5"},"vehicle_type_id":"4","last_reported":1702498066,"current_range_meters":26400,"station_id":"ce4bhi12rcd13ifvqfp0","pricing_plan_id":"free"},{"bike_id":"6319c87f-71db-4e16-88ff-997c6b137b73","system_id":"levelo_inurba_marseille","lat":43.239588,"lon":5.366238,"is_reserved":false,"is_disabled":false,"rental_uris":{"android":"levelo://app?vid=6319c87f-71db-4e16-88ff-997c6b137b73","ios":"levelo://app?vid=6319c87f-71db-4e16-88ff-997c6b137b73"},"vehicle_type_id":"4","last_reported":1702498066,"current_range_meters":28000,"station_id":"ce4bhi12rcd13ifvqfp0","pricing_plan_id":"free"},{"bike_id":"708e0811-e309-4ac8-b94d-8fd0999b98bf","system_id":"levelo_inurba_marseille","lat":43.241782,"lon":5.397261,"is_reserved":false,"is_disabled":false,"rental_uris":{"android":"levelo://app?vid=708e0811-e309-4ac8-b94d-8fd0999b98bf","ios":"levelo://app?vid=708e0811-e309-4ac8-b94d-8fd0999b98bf"},"vehicle_type_id":"4","last_reported":1702498066,"current_range_meters":19600,"station_id":"ce4bhn12rcd13ifvqgpg","pricing_plan_id":"free"},{"bike_id":"4501f0c0-2fad-486e-ad6e-e0992861428f","system_id":"levelo_inurba_marseille","lat":43.241782,"lon":5.397261,"is_reserved":false,"is_disabled":false,"rental_uris":{"android":"levelo://app?vid=4501f0c0-2fad-486e-ad6e-e0992861428f","ios":"levelo://app?vid=4501f0c0-2fad-486e-ad6e-e0992861428f"},"vehicle_type_id":"4","last_reported":1702498066,"current_range_meters":16000,"station_id":"ce4bhn12rcd13ifvqgpg","pricing_plan_id":"free"},{"bike_id":"976b51c7-50e5-4a1e-9623-472378627f57","system_id":"levelo_inurba_marseille","lat":43.231794,"lon":5.400052,"is_reserved":false,"is_disabled":false,"rental_uris":{"android":"levelo://app?vid=976b51c7-50e5-4a1e-9623-472378627f57","ios":"levelo://app?vid=976b51c7-50e5-4a1e-9623-472378627f57"},"vehicle_type_id":"4","last_reported":1702498066,"current_range_meters":31200,"station_id":"ce4bhn12rcd13ifvqgqg","pricing_plan_id":"free"},{"bike_id":"e9e13da5-814b-4e04-963f-f688451db439","system_id":"levelo_inurba_marseille","lat":43.231793,"lon":5.400044,"is_reserved":false,"is_disabled":false,"rental_uris":{"android":"levelo://app?vid=e9e13da5-814b-4e04-963f-f688451db439","ios":"levelo://app?vid=e9e13da5-814b-4e04-963f-f688451db439"},"vehicle_type_id":"4","last_reported":1702498066,"current_range_meters":30800,"station_id":"ce4bhn12rcd13ifvqgqg","pricing_plan_id":"free"},{"bike_id":"28cf0186-3129-4448-9e8f-8fa9860365e7","system_id":"levelo_inurba_marseille","lat":43.231794,"lon":5.400052,"is_reserved":false,"is_disabled":false,"rental_uris":{"android":"levelo://app?vid=28cf0186-3129-4448-9e8f-8fa9860365e7","ios":"levelo://app?vid=28cf0186-3129-4448-9e8f-8fa9860365e7"},"vehicle_type_id":"4","last_reported":1702498066,"current_range_meters":18400,"station_id":"ce4bhn12rcd13ifvqgqg","pricing_plan_id":"free"},{"bike_id":"46e85755-7f44-4770-9e69-88e3e5d2d0d4","system_id":"levelo_inurba_marseille","lat":43.231794,"lon":5.400052,"is_reserved":false,"is_disabled":false,"rental_uris":{"android":"levelo://app?vid=46e85755-7f44-4770-9e69-88e3e5d2d0d4","ios":"levelo://app?vid=46e85755-7f44-4770-9e69-88e3e5d2d0d4"},"vehicle_type_id":"4","last_reported":1702498066,"current_range_meters":20800,"station_id":"ce4bhn12rcd13ifvqgqg","pricing_plan_id":"free"},{"bike_id":"089568fd-e936-4c31-a2a6-ab09f2b4391b","system_id":"levelo_inurba_marseille","lat":43.231794,"lon":5.400052,"is_reserved":false,"is_disabled":false,"rental_uris":{"android":"levelo://app?vid=089568fd-e936-4c31-a2a6-ab09f2b4391b","ios":"levelo://app?vid=089568fd-e936-4c31-a2a6-ab09f2b4391b"},"vehicle_type_id":"4","last_reported":1702498066,"current_range_meters":1200,"station_id":"ce4bhn12rcd13ifvqgqg","pricing_plan_id":"free"},{"bike_id":"2b605040-44f0-4665-aefa-dbb05f50f601","system_id":"levelo_inurba_marseille","lat":43.231793,"lon":5.400044,"is_reserved":false,"is_disabled":false,"rental_uris":{"android":"levelo://app?vid=2b605040-44f0-4665-aefa-dbb05f50f601","ios":"levelo://app?vid=2b605040-44f0-4665-aefa-dbb05f50f601"},"vehicle_type_id":"4","last_reported":1702498066,"current_range_meters":5200,"station_id":"ce4bhn12rcd13ifvqgqg","pricing_plan_id":"free"},{"bike_id":"a70842cf-3cdd-4227-8996-9e4cdf55219b","system_id":"levelo_inurba_marseille","lat":43.231793,"lon":5.400044,"is_reserved":false,"is_disabled":false,"rental_uris":{"android":"levelo://app?vid=a70842cf-3cdd-4227-8996-9e4cdf55219b","ios":"levelo://app?vid=a70842cf-3cdd-4227-8996-9e4cdf55219b"},"vehicle_type_id":"4","last_reported":1702498066,"current_range_meters":27600,"station_id":"ce4bhn12rcd13ifvqgqg","pricing_plan_id":"free"},{"bike_id":"ef0ae5cd-319e-4e26-9965-984533c0dcf1","system_id":"levelo_inurba_marseille","lat":43.231793,"lon":5.400044,"is_reserved":false,"is_disabled":false,"rental_uris":{"android":"levelo://app?vid=ef0ae5cd-319e-4e26-9965-984533c0dcf1","ios":"levelo://app?vid=ef0ae5cd-319e-4e26-9965-984533c0dcf1"},"vehicle_type_id":"4","last_reported":1702498066,"current_range_meters":0,"station_id":"ce4bhn12rcd13ifvqgqg","pricing_plan_id":"free"},{"bike_id":"5d66a1e1-407e-43b7-8a1f-b43437a90341","system_id":"levelo_inurba_marseille","lat":43.231794,"lon":5.400052,"is_reserved":false,"is_disabled":false,"rental_uris":{"android":"levelo://app?vid=5d66a1e1-407e-43b7-8a1f-b43437a90341","ios":"levelo://app?vid=5d66a1e1-407e-43b7-8a1f-b43437a90341"},"vehicle_type_id":"4","last_reported":1702498066,"current_range_meters":31200,"station_id":"ce4bhn12rcd13ifvqgqg","pricing_plan_id":"free"},{"bike_id":"c66ca343-0c27-4535-baf6-7afe3f4ae09f","system_id":"levelo_inurba_marseille","lat":43.231794,"lon":5.400052,"is_reserved":false,"is_disabled":false,"rental_uris":{"android":"levelo://app?vid=c66ca343-0c27-4535-baf6-7afe3f4ae09f","ios":"levelo://app?vid=c66ca343-0c27-4535-baf6-7afe3f4ae09f"},"vehicle_type_id":"4","last_reported":1702498066,"current_range_meters":29200,"station_id":"ce4bhn12rcd13ifvqgqg","pricing_plan_id":"free"},{"bike_id":"7686f611-5aad-4e08-8e3f-9126375d30b8","system_id":"levelo_inurba_marseille","lat":43.231794,"lon":5.400052,"is_reserved":false,"is_disabled":false,"rental_uris":{"android":"levelo://app?vid=7686f611-5aad-4e08-8e3f-9126375d30b8","ios":"levelo://app?vid=7686f611-5aad-4e08-8e3f-9126375d30b8"},"vehicle_type_id":"4","last_reported":1702498066,"current_range_meters":24800,"station_id":"ce4bhn12rcd13ifvqgqg","pricing_plan_id":"free"},{"bike_id":"b5e4fe9e-d152-47d1-ab48-f60ff93db450","system_id":"levelo_inurba_marseille","lat":43.231793,"lon":5.400044,"is_reserved":false,"is_disabled":false,"rental_uris":{"android":"levelo://app?vid=b5e4fe9e-d152-47d1-ab48-f60ff93db450","ios":"levelo://app?vid=b5e4fe9e-d152-47d1-ab48-f60ff93db450"},"vehicle_type_id":"4","last_reported":1702498066,"current_range_meters":10000,"station_id":"ce4bhn12rcd13ifvqgqg","pricing_plan_id":"free"}]}}