{"last_updated":1741853660,"ttl":60,"version":"2.2","data":{"bikes":[{"bike_id":"bd0dd24d-2909-4c33-8151-ab5f1a6c3ddd","system_id":"levelo_inurba_marseille","lat":43.28489,"lon":5.39195,"is_reserved":false,"is_disabled":true,"rental_uris":{"android":"levelo://app?vid=bd0dd24d-2909-4c33-8151-ab5f1a6c3ddd","ios":"levelo://app?vid=bd0dd24d-2909-4c33-8151-ab5f1a6c3ddd"},"vehicle_type_id":"4","last_reported":1741853660,"current_range_meters":2800,"station_id":"ce4bhoh2rcd13ifvqh5g","pricing_plan_id":"cebpf4jnsgd1na2vs0mg"},{"bike_id":"f4b25945-4a48-4fb4-a212-ac80925b25ca","system_id":"levelo_inurba_marseille","lat":43.29671,"lon":5.36632,"is_reserved":false,"is_disabled":false,"rental_uris":{"android":"levelo://app?vid=f4b25945-4a48-4fb4-a212-ac80925b25ca","ios":"levelo://app?vid=f4b25945-4a48-4fb4-a212-ac80925b25ca"},"vehicle_type_id":"4","last_reported":1741853660,"current_range_meters":400,"station_id":"ce4bgn12rcd13ifvqbt0","pricing_plan_id":"cebpf4jnsgd1na2vs0mg"},{"bike_id":"c925a6dc-7975-48ad-a9b7-687284ec88f3","system_id":"levelo_inurba_marseille","lat":43.30523,"lon":5.36713,"is_reserved":false,"is_disabled":false,"rental_uris":{"android":"levelo://app?vid=c925a6dc-7975-48ad-a9b7-687284ec88f3","ios":"levelo://app?vid=c925a6dc-7975-48ad-a9b7-687284ec88f3"},"vehicle_type_id":"4","last_reported":1741853660,"current_range_meters":2800,"station_id":"ce4bgrp2rcd13ifvqc9g","pricing_plan_id":"cebpf4jnsgd1na2vs0mg"},{"bike_id":"58d1b5b3-d322-4418-97d0-3066ec3d9afc","system_id":"levelo_inurba_marseille","lat":43.23199,"lon":5.35546,"is_reserved":false,"is_disabled":false,"rental_uris":{"android":"levelo://app?vid=58d1b5b3-d322-4418-97d0-3066ec3d9afc","ios":"levelo://app?vid=58d1b5b3-d322-4418-97d0-3066ec3d9afc"},"vehicle_type_id":"4","last_reported":1741853660,"current_range_meters":2800,"station_id":"ce4bhu92rcd13ifvqi70","pricing_plan_id":"cebpf4jnsgd1na2vs0mg"},{"bike_id":"76a8db1a-c303-45c7-bbd0-22503810a76d","system_id":"levelo_inurba_marseille","lat":43.30465,"lon":5.37911,"is_reserved":false,"is_disabled":true,"rental_uris":{"android":"levelo://app?vid=76a8db1a-c303-45c7-bbd0-22503810a76d","ios":"levelo://app?vid=76a8db1a-c303-45c7-bbd0-22503810a76d"},"vehicle_type_id":"4","last_reported":1741853660,"current_range_meters":2800,"station_id":"ce4bgup2rcd13ifvqcn0","pricing_plan_id":"cebpf4jnsgd1na2vs0mg"},{"bike_id":"448bd231-ed06-4dfe-b39d-98d7cf453c43","system_id":"levelo_inurba_marseille","lat":43.33614,"lon":5.41048,"is_reserved":false,"is_disabled":false,"rental_uris":{"android":"levelo://app?vid=448bd231-ed06-4dfe-b39d-98d7cf453c43","ios":"levelo://app?vid=448bd231-ed06-4dfe-b39d-98d7cf453c43"},"vehicle_type_id":"4","last_reported":1741853660,"current_range_meters":3200,"station_id":"ce4bhqh2rcd13ifvqhmg","pricing_plan_id":"cebpf4jnsgd1na2vs0mg"},{"bike_id":"f43a547a-a63f-466e-891d-16f53f2a7257","system_id":"levelo_inurba_marseille","lat":43.28033,"lon":5.36956,"is_reserved":false,"is_disabled":false,"rental_uris":{"android":"levelo://app?vid=f43a547a-a63f-466e-891d-16f53f2a7257","ios":"levelo://app?vid=f43a547a-a63f-466e-891d-16f53f2a7257"},"vehicle_type_id":"4","last_reported":1741853660,"current_range_meters":3200,"station_id":"ce4bha12rcd13ifvqef0","pricing_plan_id":"cebpf4jnsgd1na2vs0mg"},{"bike_id":"e649e2d0-af54-4ce5-b5f7-1fd68a3b0a85","system_id":"levelo_inurba_marseille","lat":43.28146,"lon":5.4265,"is_reserved":false,"is_disabled":false,"rental_uris":{"android":"levelo://app?vid=e649e2d0-af54-4ce5-b5f7-1fd68a3b0a85","ios":"levelo://app?vid=e649e2d0-af54-4ce5-b5f7-1fd68a3b0a85"},"vehicle_type_id":"4","last_reported":1741853660,"current_range_meters":3600,"station_id":"ce4bhnh2rcd13ifvqgug","pricing_plan_id":"cebpf4jnsgd1na2vs0mg"},{"bike_id":"3e39ca79-7eac-405e-bd38-5f7b6baf7c17","system_id":"levelo_inurba_marseille","lat":43.23198,"lon":5.39995,"is_reserved":false,"is_disabled":false,"rental_uris":{"android":"levelo://app?vid=3e39ca79-7eac-405e-bd38-5f7b6baf7c17","ios":"levelo://app?vid=3e39ca79-7eac-405e-bd38-5f7b6baf7c17"},"vehicle_type_id":"4","last_reported":1741853660,"current_range_meters":3600,"station_id":"ce4bhn12rcd13ifvqgqg","pricing_plan_id":"cebpf4jnsgd1na2vs0mg"},{"bike_id":"241d79a7-8164-4ee5-8d3f-2565e2e0b3e8","system_id":"levelo_inurba_marseille","lat":43.31341,"lon":5.37944,"is_reserved":false,"is_disabled":false,"rental_uris":{"android":"levelo://app?vid=241d79a7-8164-4ee5-8d3f-2565e2e0b3e8","ios":"levelo://app?vid=241d79a7-8164-4ee5-8d3f-2565e2e0b3e8"},"vehicle_type_id":"4","last_reported":1741853660,"current_range_meters":3600,"station_id":"","pricing_plan_id":"cebpf4jnsgd1na2vs0mg"},{"bike_id":"f640465e-8c9e-425a-8e36-08d8d5201bf6","system_id":"levelo_inurba_marseille","lat":43.2319,"lon":5.3555,"is_reserved":false,"is_disabled":false,"rental_uris":{"android":"levelo://app?vid=f640465e-8c9e-425a-8e36-08d8d5201bf6","ios":"levelo://app?vid=f640465e-8c9e-425a-8e36-08d8d5201bf6"},"vehicle_type_id":"4","last_reported":1741853660,"current_range_meters":3600,"station_id":"ce4bhu92rcd13ifvqi70","pricing_plan_id":"cebpf4jnsgd1na2vs0mg"},{"bike_id":"ca29f0e0-c836-46af-bc28-b4a6d793fedf","system_id":"levelo_inurba_marseille","lat":43.28483,"lon":5.38566,"is_reserved":false,"is_disabled":false,"rental_uris":{"android":"levelo://app?vid=ca29f0e0-c836-46af-bc28-b4a6d793fedf","ios":"levelo://app?vid=ca29f0e0-c836-46af-bc28-b4a6d793fedf"},"vehicle_type_id":"4","last_reported":1741853660,"current_range_meters":3600,"station_id":"ce4bh8p2rcd13ifvqeb0","pricing_plan_id":"cebpf4jnsgd1na2vs0mg"},{"bike_id":"84d96fbc-01b8-41ef-b943-13744303b75f","system_id":"levelo_inurba_marseille","lat":43.303,"lon":5.36892,"is_reserved":false,"is_disabled":false,"rental_uris":{"android":"levelo://app?vid=84d96fbc-01b8-41ef-b943-13744303b75f","ios":"levelo://app?vid=84d96fbc-01b8-41ef-b943-13744303b75f"},"vehicle_type_id":"4","last_reported":1741853660,"current_range_meters":3600,"station_id":"ce4bgqh2rcd13ifvqc5g","pricing_plan_id":"cebpf4jnsgd1na2vs0mg"},{"bike_id":"63eff71e-321f-4185-b045-a29788104b8e","system_id":"levelo_inurba_marseille","lat":43.25934,"lon":5.4091,"is_reserved":false,"is_disabled":false,"rental_uris":{"android":"levelo://app?vid=63eff71e-321f-4185-b045-a29788104b8e","ios":"levelo://app?vid=63eff71e-321f-4185-b045-a29788104b8e"},"vehicle_type_id":"4","last_reported":1741853660,"current_range_meters":3600,"station_id":"ce4bhm92rcd13ifvqglg","pricing_plan_id":"cebpf4jnsgd1na2vs0mg"},{"bike_id":"6ce0e605-1e94-4680-96d8-93c1b5f891e4","system_id":"levelo_inurba_marseille","lat":43.28687,"lon":5.41248,"is_reserved":false,"is_disabled":true,"rental_uris":{"android":"levelo://app?vid=6ce0e605-1e94-4680-96d8-93c1b5f891e4","ios":"levelo://app?vid=6ce0e605-1e94-4680-96d8-93c1b5f891e4"},"vehicle_type_id":"4","last_reported":1741853660,"current_range_meters":4000,"station_id":"","pricing_plan_id":"cebpf4jnsgd1na2vs0mg"},{"bike_id":"75b855a8-34ac-430c-89a5-f237b8d1d957","system_id":"levelo_inurba_marseille","lat":43.28479,"lon":5.38423,"is_reserved":false,"is_disabled":false,"rental_uris":{"android":"levelo://app?vid=75b855a8-34ac-430c-89a5-f237b8d1d957","ios":"levelo://app?vid=75b855a8-34ac-430c-89a5-f237b8d1d957"},"vehicle_type_id":"4","last_reported":1741853660,"current_range_meters":4000,"station_id":"ce4bh512rcd13ifvqe3g","pricing_plan_id":"cebpf4jnsgd1na2vs0mg"},{"bike_id":"0cb9d178-7a6f-4412-8cc2-0d2542239e5a","system_id":"levelo_inurba_marseille","lat":43.31357,"lon":5.36725,"is_reserved":false,"is_disabled":false,"rental_uris":{"android":"levelo://app?vid=0cb9d178-7a6f-4412-8cc2-0d2542239e5a","ios":"levelo://app?vid=0cb9d178-7a6f-4412-8cc2-0d2542239e5a"},"vehicle_type_id":"4","last_reported":1741853660,"current_range_meters":4000,"station_id":"ce4bgr92rcd13ifvqc6g","pricing_plan_id":"cebpf4jnsgd1na2vs0mg"},{"bike_id":"24eb750f-1f86-4737-9904-2e8ccb55c442","system_id":"levelo_inurba_marseille","lat":43.26685,"lon":5.38273,"is_reserved":false,"is_disabled":false,"rental_uris":{"android":"levelo://app?vid=24eb750f-1f86-4737-9904-2e8ccb55c442","ios":"levelo://app?vid=24eb750f-1f86-4737-9904-2e8ccb55c442"},"vehicle_type_id":"4","last_reported":1741853660,"current_range_meters":4000,"station_id":"ce4bhg92rcd13ifvqf90","pricing_plan_id":"cebpf4jnsgd1na2vs0mg"},{"bike_id":"26e1e8a1-a134-4ab3-9ae3-2d5ed182b3cd","system_id":"levelo_inurba_marseille","lat":43.26565,"lon":5.39023,"is_reserved":false,"is_disabled":false,"rental_uris":{"android":"levelo://app?vid=26e1e8a1-a134-4ab3-9ae3-2d5ed182b3cd","ios":"levelo://app?vid=26e1e8a1-a134-4ab3-9ae3-2d5ed182b3cd"},"vehicle_type_id":"4","last_reported":1741853660,"current_range_meters":4000,"station_id":"ce4bhe12rcd13ifvqf30","pricing_plan_id":"cebpf4jnsgd1na2vs0mg"},{"bike_id":"0250762c-f15e-4c52-9700-20efd148ffa6","system_id":"levelo_inurba_marseille","lat":43.25925,"lon":5.40897,"is_reserved":false,"is_disabled":false,"rental_uris":{"android":"levelo://app?vid=0250762c-f15e-4c52-9700-20efd148ffa6","ios":"levelo://app?vid=0250762c-f15e-4c52-9700-20efd148ffa6"},"vehicle_type_id":"4","last_reported":1741853660,"current_range_meters":4000,"station_id":"ce4bhm92rcd13ifvqglg","pricing_plan_id":"cebpf4jnsgd1na2vs0mg"},{"bike_id":"388ea826-f5fa-4632-a530-45d13cc0a769","system_id":"levelo_inurba_marseille","lat":43.23192,"lon":5.39996,"is_reserved":false,"is_disabled":false,"rental_uris":{"android":"levelo://app?vid=388ea826-f5fa-4632-a530-45d13cc0a769","ios":"levelo://app?vid=388ea826-f5fa-4632-a530-45d13cc0a769"},"vehicle_type_id":"4","last_reported":1741853660,"current_range_meters":4000,"station_id":"ce4bhn12rcd13ifvqgqg","pricing_plan_id":"cebpf4jnsgd1na2vs0mg"},{"bike_id":"7e942269-db25-4dca-9417-0d6b038d7a9b","system_id":"levelo_inurba_marseille","lat":43.30949,"lon":5.39026,"is_reserved":false,"is_disabled":false,"rental_uris":{"android":"levelo://app?vid=7e942269-db25-4dca-9417-0d6b038d7a9b","ios":"levelo://app?vid=7e942269-db25-4dca-9417-0d6b038d7a9b"},"vehicle_type_id":"4","last_reported":1741853660,"current_range_meters":3200,"station_id":"ce4bgup2rcd13ifvqco0","pricing_plan_id":"cebpf4jnsgd1na2vs0mg"},{"bike_id":"9ae9d456-8778-484a-afed-e98e16da56d0","system_id":"levelo_inurba_marseille","lat":43.31735,"lon":5.39025,"is_reserved":false,"is_disabled":false,"rental_uris":{"android":"levelo://app?vid=9ae9d456-8778-484a-afed-e98e16da56d0","ios":"levelo://app?vid=9ae9d456-8778-484a-afed-e98e16da56d0"},"vehicle_type_id":"4","last_reported":1741853660,"current_range_meters":4000,"station_id":"ce4bhqp2rcd13ifvqhng","pricing_plan_id":"cebpf4jnsgd1na2vs0mg"},{"bike_id":"9c1e13cf-8cc0-4548-821e-735acbb1fcac","system_id":"levelo_inurba_marseille","lat":43.30908,"lon":5.36846,"is_reserved":false,"is_disabled":false,"rental_uris":{"android":"levelo://app?vid=9c1e13cf-8cc0-4548-821e-735acbb1fcac","ios":"levelo://app?vid=9c1e13cf-8cc0-4548-821e-735acbb1fcac"},"vehicle_type_id":"4","last_reported":1741853660,"current_range_meters":4400,"station_id":"ce4bgn92rcd13ifvqbvg","pricing_plan_id":"cebpf4jnsgd1na2vs0mg"},{"bike_id":"a9a57b1a-84c5-45e9-9ede-26d44400dd9d","system_id":"levelo_inurba_marseille","lat":43.24082,"lon":5.37757,"is_reserved":false,"is_disabled":false,"rental_uris":{"android":"levelo://app?vid=a9a57b1a-84c5-45e9-9ede-26d44400dd9d","ios":"levelo://app?vid=a9a57b1a-84c5-45e9-9ede-26d44400dd9d"},"vehicle_type_id":"4","last_reported":1741853660,"current_range_meters":4400,"station_id":"ce4bhnp2rcd13ifvqgvg","pricing_plan_id":"cebpf4jnsgd1na2vs0mg"},{"bike_id":"e12be538-6dde-4604-98c7-f66a323a5270","system_id":"levelo_inurba_marseille","lat":43.23068,"lon":5.35501,"is_reserved":false,"is_disabled":false,"rental_uris":{"android":"levelo://app?vid=e12be538-6dde-4604-98c7-f66a323a5270","ios":"levelo://app?vid=e12be538-6dde-4604-98c7-f66a323a5270"},"vehicle_type_id":"4","last_reported":1741853660,"current_range_meters":4400,"station_id":"cpo3342slgdg3j2ifvpg","pricing_plan_id":"cebpf4jnsgd1na2vs0mg"},{"bike_id":"415e7a31-245d-4ead-9f33-dad092a04302","system_id":"levelo_inurba_marseille","lat":43.23099,"lon":5.35564,"is_reserved":false,"is_disabled":false,"rental_uris":{"android":"levelo://app?vid=415e7a31-245d-4ead-9f33-dad092a04302","ios":"levelo://app?vid=415e7a31-245d-4ead-9f33-dad092a04302"},"vehicle_type_id":"4","last_reported":1741853660,"current_range_meters":4800,"station_id":"cpo3342slgdg3j2ifvpg","pricing_plan_id":"cebpf4jnsgd1na2vs0mg"},{"bike_id":"60addeb5-8b0b-4949-b3a6-5f197b8d4abb","system_id":"levelo_inurba_marseille","lat":43.33356,"lon":5.39638,"is_reserved":false,"is_disabled":false,"rental_uris":{"android":"levelo://app?vid=60addeb5-8b0b-4949-b3a6-5f197b8d4abb","ios":"levelo://app?vid=60addeb5-8b0b-4949-b3a6-5f197b8d4abb"},"vehicle_type_id":"4","last_reported":1741853660,"current_range_meters":4800,"station_id":"","pricing_plan_id":"cebpf4jnsgd1na2vs0mg"},{"bike_id":"c8424a2d-efd9-4ccf-9fc2-6fdb41afc986","system_id":"levelo_inurba_marseille","lat":43.281561,"lon":5.426447,"is_reserved":false,"is_disabled":false,"rental_uris":{"android":"levelo://app?vid=c8424a2d-efd9-4ccf-9fc2-6fdb41afc986","ios":"levelo://app?vid=c8424a2d-efd9-4ccf-9fc2-6fdb41afc986"},"vehicle_type_id":"4","last_reported":1741853660,"current_range_meters":4800,"station_id":"ce4bhnh2rcd13ifvqgug","pricing_plan_id":"cebpf4jnsgd1na2vs0mg"},{"bike_id":"da440fc7-ae9a-4b21-83c8-a8e662a14c16","system_id":"levelo_inurba_marseille","lat":43.255,"lon":5.37681,"is_reserved":false,"is_disabled":true,"rental_uris":{"android":"levelo://app?vid=da440fc7-ae9a-4b21-83c8-a8e662a14c16","ios":"levelo://app?vid=da440fc7-ae9a-4b21-83c8-a8e662a14c16"},"vehicle_type_id":"4","last_reported":1741853660,"current_range_meters":4800,"station_id":"ce4bhh12rcd13ifvqff0","pricing_plan_id":"cebpf4jnsgd1na2vs0mg"},{"bike_id":"5d388b73-c3f0-4b88-946a-59e2a98ccd2d","system_id":"levelo_inurba_marseille","lat":43.32483,"lon":5.36559,"is_reserved":false,"is_disabled":false,"rental_uris":{"android":"levelo://app?vid=5d388b73-c3f0-4b88-946a-59e2a98ccd2d","ios":"levelo://app?vid=5d388b73-c3f0-4b88-946a-59e2a98ccd2d"},"vehicle_type_id":"4","last_reported":1741853660,"current_range_meters":4800,"station_id":"ce4bhs12rcd13ifvqhvg","pricing_plan_id":"cebpf4jnsgd1na2vs0mg"},{"bike_id":"4b07b260-5fba-4534-bdee-f9c50db59047","system_id":"levelo_inurba_marseille","lat":43.32969,"lon":5.39,"is_reserved":false,"is_disabled":false,"rental_uris":{"android":"levelo://app?vid=4b07b260-5fba-4534-bdee-f9c50db59047","ios":"levelo://app?vid=4b07b260-5fba-4534-bdee-f9c50db59047"},"vehicle_type_id":"4","last_reported":1741853660,"current_range_meters":4800,"station_id":"","pricing_plan_id":"cebpf4jnsgd1na2vs0mg"},{"bike_id":"feb4b9df-ca5a-441d-8892-405597e7da99","system_id":"levelo_inurba_marseille","lat":43.23062,"lon":5.35493,"is_reserved":false,"is_disabled":false,"rental_uris":{"android":"levelo://app?vid=feb4b9df-ca5a-441d-8892-405597e7da99","ios":"levelo://app?vid=feb4b9df-ca5a-441d-8892-405597e7da99"},"vehicle_type_id":"4","last_reported":1741853660,"current_range_meters":4800,"station_id":"cpo3342slgdg3j2ifvpg","pricing_plan_id":"cebpf4jnsgd1na2vs0mg"},{"bike_id":"f310e1a5-0a24-483c-883e-355e88479a1d","system_id":"levelo_inurba_marseille","lat":43.30145,"lon":5.37406,"is_reserved":false,"is_disabled":false,"rental_uris":{"android":"levelo://app?vid=f310e1a5-0a24-483c-883e-355e88479a1d","ios":"levelo://app?vid=f310e1a5-0a24-483c-883e-355e88479a1d"},"vehicle_type_id":"4","last_reported":1741853660,"current_range_meters":5600,"station_id":"ce4bgs92rcd13ifvqcc0","pricing_plan_id":"cebpf4jnsgd1na2vs0mg"},{"bike_id":"418dc7f2-df33-424e-bd8f-b13f0e0d9ea9","system_id":"levelo_inurba_marseille","lat":43.30524,"lon":5.36712,"is_reserved":false,"is_disabled":false,"rental_uris":{"android":"levelo://app?vid=418dc7f2-df33-424e-bd8f-b13f0e0d9ea9","ios":"levelo://app?vid=418dc7f2-df33-424e-bd8f-b13f0e0d9ea9"},"vehicle_type_id":"4","last_reported":1741853660,"current_range_meters":5600,"station_id":"ce4bgrp2rcd13ifvqc9g","pricing_plan_id":"cebpf4jnsgd1na2vs0mg"},{"bike_id":"d20a848b-dbda-449f-9b98-3a524ab79101","system_id":"levelo_inurba_marseille","lat":43.31358,"lon":5.36719,"is_reserved":false,"is_disabled":false,"rental_uris":{"android":"levelo://app?vid=d20a848b-dbda-449f-9b98-3a524ab79101","ios":"levelo://app?vid=d20a848b-dbda-449f-9b98-3a524ab79101"},"vehicle_type_id":"4","last_reported":1741853660,"current_range_meters":5600,"station_id":"ce4bgr92rcd13ifvqc6g","pricing_plan_id":"cebpf4jnsgd1na2vs0mg"},{"bike_id":"ca7073b3-7a61-4ba6-99ba-bb754b837a13","system_id":"levelo_inurba_marseille","lat":43.24177,"lon":5.39737,"is_reserved":false,"is_disabled":false,"rental_uris":{"android":"levelo://app?vid=ca7073b3-7a61-4ba6-99ba-bb754b837a13","ios":"levelo://app?vid=ca7073b3-7a61-4ba6-99ba-bb754b837a13"},"vehicle_type_id":"4","last_reported":1741853660,"current_range_meters":6000,"station_id":"ce4bhn12rcd13ifvqgpg","pricing_plan_id":"cebpf4jnsgd1na2vs0mg"},{"bike_id":"77571558-3013-44f4-aaf7-6f782a461e71","system_id":"levelo_inurba_marseille","lat":43.30334,"lon":5.40435,"is_reserved":false,"is_disabled":false,"rental_uris":{"android":"levelo://app?vid=77571558-3013-44f4-aaf7-6f782a461e71","ios":"levelo://app?vid=77571558-3013-44f4-aaf7-6f782a461e71"},"vehicle_type_id":"4","last_reported":1741853660,"current_range_meters":6000,"station_id":"ce4bh012rcd13ifvqd10","pricing_plan_id":"cebpf4jnsgd1na2vs0mg"},{"bike_id":"46f2e81a-8d75-4b81-a3ee-d46e23c0fa4e","system_id":"levelo_inurba_marseille","lat":43.24574,"lon":5.39443,"is_reserved":false,"is_disabled":false,"rental_uris":{"android":"levelo://app?vid=46f2e81a-8d75-4b81-a3ee-d46e23c0fa4e","ios":"levelo://app?vid=46f2e81a-8d75-4b81-a3ee-d46e23c0fa4e"},"vehicle_type_id":"4","last_reported":1741853660,"current_range_meters":6000,"station_id":"ce4bhlp2rcd13ifvqgjg","pricing_plan_id":"cebpf4jnsgd1na2vs0mg"},{"bike_id":"72de4c85-7223-490f-9219-5d9d46436df5","system_id":"levelo_inurba_marseille","lat":43.331733,"lon":5.394604,"is_reserved":false,"is_disabled":false,"rental_uris":{"android":"levelo://app?vid=72de4c85-7223-490f-9219-5d9d46436df5","ios":"levelo://app?vid=72de4c85-7223-490f-9219-5d9d46436df5"},"vehicle_type_id":"4","last_reported":1741853660,"current_range_meters":6000,"station_id":"","pricing_plan_id":"cebpf4jnsgd1na2vs0mg"},{"bike_id":"4bd1d516-27fc-4a7a-a82b-0dd452c88ab3","system_id":"levelo_inurba_marseille","lat":43.27498,"lon":5.42449,"is_reserved":false,"is_disabled":false,"rental_uris":{"android":"levelo://app?vid=4bd1d516-27fc-4a7a-a82b-0dd452c88ab3","ios":"levelo://app?vid=4bd1d516-27fc-4a7a-a82b-0dd452c88ab3"},"vehicle_type_id":"4","last_reported":1741853660,"current_range_meters":6000,"station_id":"ce4bhn92rcd13ifvqgrg","pricing_plan_id":"cebpf4jnsgd1na2vs0mg"},{"bike_id":"a4024768-86bf-4442-9280-be67a79a2989","system_id":"levelo_inurba_marseille","lat":43.25943,"lon":5.40906,"is_reserved":false,"is_disabled":false,"rental_uris":{"android":"levelo://app?vid=a4024768-86bf-4442-9280-be67a79a2989","ios":"levelo://app?vid=a4024768-86bf-4442-9280-be67a79a2989"},"vehicle_type_id":"4","last_reported":1741853660,"current_range_meters":6000,"station_id":"ce4bhm92rcd13ifvqglg","pricing_plan_id":"cebpf4jnsgd1na2vs0mg"},{"bike_id":"090d630b-1c80-4e73-9af9-d38ec0e7bc92","system_id":"levelo_inurba_marseille","lat":43.28995,"lon":5.37839,"is_reserved":false,"is_disabled":true,"rental_uris":{"android":"levelo://app?vid=090d630b-1c80-4e73-9af9-d38ec0e7bc92","ios":"levelo://app?vid=090d630b-1c80-4e73-9af9-d38ec0e7bc92"},"vehicle_type_id":"4","last_reported":1741853660,"current_range_meters":6000,"station_id":"ce4bh9p2rcd13ifvqed0","pricing_plan_id":"cebpf4jnsgd1na2vs0mg"},{"bike_id":"7563a6e8-d5d3-4ece-86f6-c6f105e6999c","system_id":"levelo_inurba_marseille","lat":43.28986,"lon":5.37839,"is_reserved":false,"is_disabled":false,"rental_uris":{"android":"levelo://app?vid=7563a6e8-d5d3-4ece-86f6-c6f105e6999c","ios":"levelo://app?vid=7563a6e8-d5d3-4ece-86f6-c6f105e6999c"},"vehicle_type_id":"4","last_reported":1741853660,"current_range_meters":6000,"station_id":"ce4bh9p2rcd13ifvqed0","pricing_plan_id":"cebpf4jnsgd1na2vs0mg"},{"bike_id":"4abe0b72-3e42-40da-aa7c-65e81840531b","system_id":"levelo_inurba_marseille","lat":43.24647,"lon":5.39594,"is_reserved":false,"is_disabled":true,"rental_uris":{"android":"levelo://app?vid=4abe0b72-3e42-40da-aa7c-65e81840531b","ios":"levelo://app?vid=4abe0b72-3e42-40da-aa7c-65e81840531b"},"vehicle_type_id":"4","last_reported":1741853660,"current_range_meters":6000,"station_id":"","pricing_plan_id":"cebpf4jnsgd1na2vs0mg"},{"bike_id":"34d5018d-87fa-4327-99e7-cfff119295b0","system_id":"levelo_inurba_marseille","lat":43.28574,"lon":5.38314,"is_reserved":false,"is_disabled":false,"rental_uris":{"android":"levelo://app?vid=34d5018d-87fa-4327-99e7-cfff119295b0","ios":"levelo://app?vid=34d5018d-87fa-4327-99e7-cfff119295b0"},"vehicle_type_id":"4","last_reported":1741853660,"current_range_meters":6000,"station_id":"ce4bh412rcd13ifvqdr0","pricing_plan_id":"cebpf4jnsgd1na2vs0mg"},{"bike_id":"0e6230f3-c33d-4dac-a9ea-890d67b9573b","system_id":"levelo_inurba_marseille","lat":43.26786,"lon":5.39414,"is_reserved":false,"is_disabled":false,"rental_uris":{"android":"levelo://app?vid=0e6230f3-c33d-4dac-a9ea-890d67b9573b","ios":"levelo://app?vid=0e6230f3-c33d-4dac-a9ea-890d67b9573b"},"vehicle_type_id":"4","last_reported":1741853660,"current_range_meters":6400,"station_id":"ce4bhh12rcd13ifvqfg0","pricing_plan_id":"cebpf4jnsgd1na2vs0mg"},{"bike_id":"06dde2e2-f844-44a2-97f1-49c0b6ba57f1","system_id":"levelo_inurba_marseille","lat":43.23966,"lon":5.36642,"is_reserved":false,"is_disabled":false,"rental_uris":{"android":"levelo://app?vid=06dde2e2-f844-44a2-97f1-49c0b6ba57f1","ios":"levelo://app?vid=06dde2e2-f844-44a2-97f1-49c0b6ba57f1"},"vehicle_type_id":"4","last_reported":1741853660,"current_range_meters":6400,"station_id":"ce4bhi12rcd13ifvqfp0","pricing_plan_id":"cebpf4jnsgd1na2vs0mg"},{"bike_id":"6d6ee278-de07-4c7e-8835-99d4d94307ac","system_id":"levelo_inurba_marseille","lat":43.27184,"lon":5.41007,"is_reserved":false,"is_disabled":false,"rental_uris":{"android":"levelo://app?vid=6d6ee278-de07-4c7e-8835-99d4d94307ac","ios":"levelo://app?vid=6d6ee278-de07-4c7e-8835-99d4d94307ac"},"vehicle_type_id":"4","last_reported":1741853660,"current_range_meters":6400,"station_id":"ce4bhl12rcd13ifvqgf0","pricing_plan_id":"cebpf4jnsgd1na2vs0mg"},{"bike_id":"ef3a207f-a611-4fae-a1f0-4145df3bb45e","system_id":"levelo_inurba_marseille","lat":43.30194,"lon":5.39482,"is_reserved":false,"is_disabled":false,"rental_uris":{"android":"levelo://app?vid=ef3a207f-a611-4fae-a1f0-4145df3bb45e","ios":"levelo://app?vid=ef3a207f-a611-4fae-a1f0-4145df3bb45e"},"vehicle_type_id":"4","last_reported":1741853660,"current_range_meters":6400,"station_id":"ce4bh0p2rcd13ifvqd70","pricing_plan_id":"cebpf4jnsgd1na2vs0mg"},{"bike_id":"3296b7af-e1f1-427b-84a0-53e30b84a0d1","system_id":"levelo_inurba_marseille","lat":43.3169,"lon":5.3777,"is_reserved":false,"is_disabled":false,"rental_uris":{"android":"levelo://app?vid=3296b7af-e1f1-427b-84a0-53e30b84a0d1","ios":"levelo://app?vid=3296b7af-e1f1-427b-84a0-53e30b84a0d1"},"vehicle_type_id":"4","last_reported":1741853660,"current_range_meters":6400,"station_id":"ce4bgth2rcd13ifvqch0","pricing_plan_id":"cebpf4jnsgd1na2vs0mg"},{"bike_id":"2e86a074-ed0e-468b-a688-2d4bc242b4e8","system_id":"levelo_inurba_marseille","lat":43.30146,"lon":5.37422,"is_reserved":false,"is_disabled":false,"rental_uris":{"android":"levelo://app?vid=2e86a074-ed0e-468b-a688-2d4bc242b4e8","ios":"levelo://app?vid=2e86a074-ed0e-468b-a688-2d4bc242b4e8"},"vehicle_type_id":"4","last_reported":1741853660,"current_range_meters":6400,"station_id":"ce4bgs92rcd13ifvqcc0","pricing_plan_id":"cebpf4jnsgd1na2vs0mg"},{"bike_id":"3b5077dd-7e41-4956-92e1-1af036db43f5","system_id":"levelo_inurba_marseille","lat":43.24384,"lon":5.37065,"is_reserved":false,"is_disabled":false,"rental_uris":{"android":"levelo://app?vid=3b5077dd-7e41-4956-92e1-1af036db43f5","ios":"levelo://app?vid=3b5077dd-7e41-4956-92e1-1af036db43f5"},"vehicle_type_id":"4","last_reported":1741853660,"current_range_meters":6400,"station_id":"ce4bhhh2rcd13ifvqfk0","pricing_plan_id":"cebpf4jnsgd1na2vs0mg"},{"bike_id":"79d5a690-12af-4cba-bb9e-1a2524d9c2be","system_id":"levelo_inurba_marseille","lat":43.29056,"lon":5.39956,"is_reserved":false,"is_disabled":false,"rental_uris":{"android":"levelo://app?vid=79d5a690-12af-4cba-bb9e-1a2524d9c2be","ios":"levelo://app?vid=79d5a690-12af-4cba-bb9e-1a2524d9c2be"},"vehicle_type_id":"4","last_reported":1741853660,"current_range_meters":6400,"station_id":"ce4bh392rcd13ifvqdm0","pricing_plan_id":"cebpf4jnsgd1na2vs0mg"},{"bike_id":"4690a7e6-0614-442c-bdbc-d75f28b05b08","system_id":"levelo_inurba_marseille","lat":43.27425,"lon":5.39421,"is_reserved":false,"is_disabled":false,"rental_uris":{"android":"levelo://app?vid=4690a7e6-0614-442c-bdbc-d75f28b05b08","ios":"levelo://app?vid=4690a7e6-0614-442c-bdbc-d75f28b05b08"},"vehicle_type_id":"4","last_reported":1741853660,"current_range_meters":6400,"station_id":"ce4bhdp2rcd13ifvqf20","pricing_plan_id":"cebpf4jnsgd1na2vs0mg"},{"bike_id":"f829a819-671e-4b71-9c22-56c5f8047725","system_id":"levelo_inurba_marseille","lat":43.3235,"lon":5.36758,"is_reserved":false,"is_disabled":false,"rental_uris":{"android":"levelo://app?vid=f829a819-671e-4b71-9c22-56c5f8047725","ios":"levelo://app?vid=f829a819-671e-4b71-9c22-56c5f8047725"},"vehicle_type_id":"4","last_reported":1741853660,"current_range_meters":6400,"station_id":"ce4bhsh2rcd13ifvqi2g","pricing_plan_id":"cebpf4jnsgd1na2vs0mg"},{"bike_id":"2df82270-c857-4fc5-b52f-cd7c8238619e","system_id":"levelo_inurba_marseille","lat":43.23962,"lon":5.36636,"is_reserved":false,"is_disabled":false,"rental_uris":{"android":"levelo://app?vid=2df82270-c857-4fc5-b52f-cd7c8238619e","ios":"levelo://app?vid=2df82270-c857-4fc5-b52f-cd7c8238619e"},"vehicle_type_id":"4","last_reported":1741853660,"current_range_meters":6800,"station_id":"ce4bhi12rcd13ifvqfp0","pricing_plan_id":"cebpf4jnsgd1na2vs0mg"},{"bike_id":"21202178-9a74-4bc8-9d9e-6fb631a00822","system_id":"levelo_inurba_marseille","lat":43.29791,"lon":5.37358,"is_reserved":false,"is_disabled":false,"rental_uris":{"android":"levelo://app?vid=21202178-9a74-4bc8-9d9e-6fb631a00822","ios":"levelo://app?vid=21202178-9a74-4bc8-9d9e-6fb631a00822"},"vehicle_type_id":"4","last_reported":1741853660,"current_range_meters":6800,"station_id":"","pricing_plan_id":"cebpf4jnsgd1na2vs0mg"},{"bike_id":"472a02ae-36ca-4538-bd27-225364dfe50f","system_id":"levelo_inurba_marseille","lat":43.24527,"lon":5.37336,"is_reserved":false,"is_disabled":false,"rental_uris":{"android":"levelo://app?vid=472a02ae-36ca-4538-bd27-225364dfe50f","ios":"levelo://app?vid=472a02ae-36ca-4538-bd27-225364dfe50f"},"vehicle_type_id":"4","last_reported":1741853660,"current_range_meters":6800,"station_id":"","pricing_plan_id":"cebpf4jnsgd1na2vs0mg"},{"bike_id":"28594a48-61ea-4f2a-880c-462e745cf111","system_id":"levelo_inurba_marseille","lat":43.27494,"lon":5.42463,"is_reserved":false,"is_disabled":false,"rental_uris":{"android":"levelo://app?vid=28594a48-61ea-4f2a-880c-462e745cf111","ios":"levelo://app?vid=28594a48-61ea-4f2a-880c-462e745cf111"},"vehicle_type_id":"4","last_reported":1741853660,"current_range_meters":6800,"station_id":"ce4bhn92rcd13ifvqgrg","pricing_plan_id":"cebpf4jnsgd1na2vs0mg"},{"bike_id":"2931d81f-abb3-45b8-9224-dc3fce2fae31","system_id":"levelo_inurba_marseille","lat":43.323668,"lon":5.367522,"is_reserved":false,"is_disabled":false,"rental_uris":{"android":"levelo://app?vid=2931d81f-abb3-45b8-9224-dc3fce2fae31","ios":"levelo://app?vid=2931d81f-abb3-45b8-9224-dc3fce2fae31"},"vehicle_type_id":"4","last_reported":1741853660,"current_range_meters":6800,"station_id":"ce4bhsh2rcd13ifvqi2g","pricing_plan_id":"cebpf4jnsgd1na2vs0mg"},{"bike_id":"17506639-93c8-43c2-ab18-bcdac0299598","system_id":"levelo_inurba_marseille","lat":43.27498,"lon":5.42455,"is_reserved":false,"is_disabled":false,"rental_uris":{"android":"levelo://app?vid=17506639-93c8-43c2-ab18-bcdac0299598","ios":"levelo://app?vid=17506639-93c8-43c2-ab18-bcdac0299598"},"vehicle_type_id":"4","last_reported":1741853660,"current_range_meters":6800,"station_id":"ce4bhn92rcd13ifvqgrg","pricing_plan_id":"cebpf4jnsgd1na2vs0mg"},{"bike_id":"5c0be3c0-190a-43f3-becc-02f064bfef44","system_id":"levelo_inurba_marseille","lat":43.33442,"lon":5.40072,"is_reserved":false,"is_disabled":false,"rental_uris":{"android":"levelo://app?vid=5c0be3c0-190a-43f3-becc-02f064bfef44","ios":"levelo://app?vid=5c0be3c0-190a-43f3-becc-02f064bfef44"},"vehicle_type_id":"4","last_reported":1741853660,"current_range_meters":6800,"station_id":"","pricing_plan_id":"cebpf4jnsgd1na2vs0mg"},{"bike_id":"c4df4535-7d31-495a-82fb-c042b3676ebe","system_id":"levelo_inurba_marseille","lat":43.32333,"lon":5.40642,"is_reserved":false,"is_disabled":false,"rental_uris":{"android":"levelo://app?vid=c4df4535-7d31-495a-82fb-c042b3676ebe","ios":"levelo://app?vid=c4df4535-7d31-495a-82fb-c042b3676ebe"},"vehicle_type_id":"4","last_reported":1741853660,"current_range_meters":6800,"station_id":"ce4bhq92rcd13ifvqhjg","pricing_plan_id":"cebpf4jnsgd1na2vs0mg"},{"bike_id":"03fcef79-f017-4d15-a10d-891c5cd96db2","system_id":"levelo_inurba_marseille","lat":43.2307,"lon":5.35504,"is_reserved":false,"is_disabled":false,"rental_uris":{"android":"levelo://app?vid=03fcef79-f017-4d15-a10d-891c5cd96db2","ios":"levelo://app?vid=03fcef79-f017-4d15-a10d-891c5cd96db2"},"vehicle_type_id":"4","last_reported":1741853660,"current_range_meters":6800,"station_id":"cpo3342slgdg3j2ifvpg","pricing_plan_id":"cebpf4jnsgd1na2vs0mg"},{"bike_id":"f076f6f7-e4b4-48be-92db-c2ec27c500f6","system_id":"levelo_inurba_marseille","lat":43.23186,"lon":5.39983,"is_reserved":false,"is_disabled":false,"rental_uris":{"android":"levelo://app?vid=f076f6f7-e4b4-48be-92db-c2ec27c500f6","ios":"levelo://app?vid=f076f6f7-e4b4-48be-92db-c2ec27c500f6"},"vehicle_type_id":"4","last_reported":1741853660,"current_range_meters":7200,"station_id":"ce4bhn12rcd13ifvqgqg","pricing_plan_id":"cebpf4jnsgd1na2vs0mg"},{"bike_id":"81aa8f23-b821-4abf-aa25-ce8dd50e2f74","system_id":"levelo_inurba_marseille","lat":43.24085,"lon":5.37754,"is_reserved":false,"is_disabled":false,"rental_uris":{"android":"levelo://app?vid=81aa8f23-b821-4abf-aa25-ce8dd50e2f74","ios":"levelo://app?vid=81aa8f23-b821-4abf-aa25-ce8dd50e2f74"},"vehicle_type_id":"4","last_reported":1741853660,"current_range_meters":7200,"station_id":"ce4bhnp2rcd13ifvqgvg","pricing_plan_id":"cebpf4jnsgd1na2vs0mg"},{"bike_id":"8f8d7957-acea-4492-a8d0-f5376063bbcc","system_id":"levelo_inurba_marseille","lat":43.29048,"lon":5.39965,"is_reserved":false,"is_disabled":false,"rental_uris":{"android":"levelo://app?vid=8f8d7957-acea-4492-a8d0-f5376063bbcc","ios":"levelo://app?vid=8f8d7957-acea-4492-a8d0-f5376063bbcc"},"vehicle_type_id":"4","last_reported":1741853660,"current_range_meters":7200,"station_id":"ce4bh392rcd13ifvqdm0","pricing_plan_id":"cebpf4jnsgd1na2vs0mg"},{"bike_id":"aa928ddd-6b3f-48d4-8a20-7c404512c318","system_id":"levelo_inurba_marseille","lat":43.24069,"lon":5.37776,"is_reserved":false,"is_disabled":false,"rental_uris":{"android":"levelo://app?vid=aa928ddd-6b3f-48d4-8a20-7c404512c318","ios":"levelo://app?vid=aa928ddd-6b3f-48d4-8a20-7c404512c318"},"vehicle_type_id":"4","last_reported":1741853660,"current_range_meters":7200,"station_id":"ce4bhnp2rcd13ifvqgvg","pricing_plan_id":"cebpf4jnsgd1na2vs0mg"},{"bike_id":"ea3cc9a6-ae16-4517-aa9f-5a1866e7f280","system_id":"levelo_inurba_marseille","lat":43.29285,"lon":5.4014,"is_reserved":false,"is_disabled":false,"rental_uris":{"android":"levelo://app?vid=ea3cc9a6-ae16-4517-aa9f-5a1866e7f280","ios":"levelo://app?vid=ea3cc9a6-ae16-4517-aa9f-5a1866e7f280"},"vehicle_type_id":"4","last_reported":1741853660,"current_range_meters":7200,"station_id":"ce4bh312rcd13ifvqdk0","pricing_plan_id":"cebpf4jnsgd1na2vs0mg"},{"bike_id":"0479e52f-4709-492f-8e09-1649b19a8126","system_id":"levelo_inurba_marseille","lat":43.30948,"lon":5.39027,"is_reserved":false,"is_disabled":false,"rental_uris":{"android":"levelo://app?vid=0479e52f-4709-492f-8e09-1649b19a8126","ios":"levelo://app?vid=0479e52f-4709-492f-8e09-1649b19a8126"},"vehicle_type_id":"4","last_reported":1741853660,"current_range_meters":7200,"station_id":"ce4bgup2rcd13ifvqco0","pricing_plan_id":"cebpf4jnsgd1na2vs0mg"},{"bike_id":"258eb937-dcb2-4ef8-8ea8-69cf8281f52f","system_id":"levelo_inurba_marseille","lat":43.28941,"lon":5.36395,"is_reserved":false,"is_disabled":false,"rental_uris":{"android":"levelo://app?vid=258eb937-dcb2-4ef8-8ea8-69cf8281f52f","ios":"levelo://app?vid=258eb937-dcb2-4ef8-8ea8-69cf8281f52f"},"vehicle_type_id":"4","last_reported":1741853660,"current_range_meters":7200,"station_id":"ce4bhc92rcd13ifvqetg","pricing_plan_id":"cebpf4jnsgd1na2vs0mg"},{"bike_id":"cab54c81-02a9-4249-a654-a799841b0878","system_id":"levelo_inurba_marseille","lat":43.26226,"lon":5.40451,"is_reserved":false,"is_disabled":false,"rental_uris":{"android":"levelo://app?vid=cab54c81-02a9-4249-a654-a799841b0878","ios":"levelo://app?vid=cab54c81-02a9-4249-a654-a799841b0878"},"vehicle_type_id":"4","last_reported":1741853660,"current_range_meters":6000,"station_id":"ce4bhmh2rcd13ifvqgmg","pricing_plan_id":"cebpf4jnsgd1na2vs0mg"},{"bike_id":"49d71fa8-04ec-41e6-bd53-c3ad992f6f37","system_id":"levelo_inurba_marseille","lat":43.29418,"lon":5.38628,"is_reserved":false,"is_disabled":false,"rental_uris":{"android":"levelo://app?vid=49d71fa8-04ec-41e6-bd53-c3ad992f6f37","ios":"levelo://app?vid=49d71fa8-04ec-41e6-bd53-c3ad992f6f37"},"vehicle_type_id":"4","last_reported":1741853660,"current_range_meters":7200,"station_id":"ce4bh2h2rcd13ifvqdh0","pricing_plan_id":"cebpf4jnsgd1na2vs0mg"},{"bike_id":"dea35085-4b50-414e-b2b5-c4028e1ea0a6","system_id":"levelo_inurba_marseille","lat":43.31352,"lon":5.36696,"is_reserved":false,"is_disabled":false,"rental_uris":{"android":"levelo://app?vid=dea35085-4b50-414e-b2b5-c4028e1ea0a6","ios":"levelo://app?vid=dea35085-4b50-414e-b2b5-c4028e1ea0a6"},"vehicle_type_id":"4","last_reported":1741853660,"current_range_meters":8000,"station_id":"ce4bgr92rcd13ifvqc6g","pricing_plan_id":"cebpf4jnsgd1na2vs0mg"},{"bike_id":"96b68334-5aca-43bb-99d6-07e7361f7430","system_id":"levelo_inurba_marseille","lat":43.23149,"lon":5.43716,"is_reserved":false,"is_disabled":false,"rental_uris":{"android":"levelo://app?vid=96b68334-5aca-43bb-99d6-07e7361f7430","ios":"levelo://app?vid=96b68334-5aca-43bb-99d6-07e7361f7430"},"vehicle_type_id":"4","last_reported":1741853660,"current_range_meters":8000,"station_id":"ce4bhmp2rcd13ifvqgog","pricing_plan_id":"cebpf4jnsgd1na2vs0mg"},{"bike_id":"04612703-e597-4113-996a-894177d32b3e","system_id":"levelo_inurba_marseille","lat":43.24663,"lon":5.38164,"is_reserved":false,"is_disabled":false,"rental_uris":{"android":"levelo://app?vid=04612703-e597-4113-996a-894177d32b3e","ios":"levelo://app?vid=04612703-e597-4113-996a-894177d32b3e"},"vehicle_type_id":"4","last_reported":1741853660,"current_range_meters":8000,"station_id":"ce4bhih2rcd13ifvqfr0","pricing_plan_id":"cebpf4jnsgd1na2vs0mg"},{"bike_id":"600a8b1d-91ce-4fc9-92cd-846d63d5cb51","system_id":"levelo_inurba_marseille","lat":43.25007,"lon":5.38935,"is_reserved":false,"is_disabled":false,"rental_uris":{"android":"levelo://app?vid=600a8b1d-91ce-4fc9-92cd-846d63d5cb51","ios":"levelo://app?vid=600a8b1d-91ce-4fc9-92cd-846d63d5cb51"},"vehicle_type_id":"4","last_reported":1741853660,"current_range_meters":8000,"station_id":"ce4bhgp2rcd13ifvqfd0","pricing_plan_id":"cebpf4jnsgd1na2vs0mg"},{"bike_id":"485f1510-a973-46b6-8b2d-6d22ffc60cae","system_id":"levelo_inurba_marseille","lat":43.24175,"lon":5.36406,"is_reserved":false,"is_disabled":false,"rental_uris":{"android":"levelo://app?vid=485f1510-a973-46b6-8b2d-6d22ffc60cae","ios":"levelo://app?vid=485f1510-a973-46b6-8b2d-6d22ffc60cae"},"vehicle_type_id":"4","last_reported":1741853660,"current_range_meters":8000,"station_id":"cpo36qri1sfpv3e86is0","pricing_plan_id":"cebpf4jnsgd1na2vs0mg"},{"bike_id":"0c0af710-b4b5-44f2-b3dd-8a6e2bd42388","system_id":"levelo_inurba_marseille","lat":43.27501,"lon":5.42461,"is_reserved":false,"is_disabled":false,"rental_uris":{"android":"levelo://app?vid=0c0af710-b4b5-44f2-b3dd-8a6e2bd42388","ios":"levelo://app?vid=0c0af710-b4b5-44f2-b3dd-8a6e2bd42388"},"vehicle_type_id":"4","last_reported":1741853660,"current_range_meters":8000,"station_id":"ce4bhn92rcd13ifvqgrg","pricing_plan_id":"cebpf4jnsgd1na2vs0mg"},{"bike_id":"707f97a7-32db-422b-bfa8-ef8d193a1bb4","system_id":"levelo_inurba_marseille","lat":43.22925,"lon":5.35371,"is_reserved":false,"is_disabled":false,"rental_uris":{"android":"levelo://app?vid=707f97a7-32db-422b-bfa8-ef8d193a1bb4","ios":"levelo://app?vid=707f97a7-32db-422b-bfa8-ef8d193a1bb4"},"vehicle_type_id":"4","last_reported":1741853660,"current_range_meters":8000,"station_id":"cpo3532slgdg3j2ikp40","pricing_plan_id":"cebpf4jnsgd1na2vs0mg"},{"bike_id":"37913a50-23e6-42cf-a8a6-e72eb3fa450f","system_id":"levelo_inurba_marseille","lat":43.29592,"lon":5.38103,"is_reserved":false,"is_disabled":true,"rental_uris":{"android":"levelo://app?vid=37913a50-23e6-42cf-a8a6-e72eb3fa450f","ios":"levelo://app?vid=37913a50-23e6-42cf-a8a6-e72eb3fa450f"},"vehicle_type_id":"4","last_reported":1741853660,"current_range_meters":6000,"station_id":"ce4bgl12rcd13ifvqbo0","pricing_plan_id":"cebpf4jnsgd1na2vs0mg"},{"bike_id":"ec5d08ce-934d-49b5-9a73-c20b44942d11","system_id":"levelo_inurba_marseille","lat":43.31438,"lon":5.37649,"is_reserved":false,"is_disabled":false,"rental_uris":{"android":"levelo://app?vid=ec5d08ce-934d-49b5-9a73-c20b44942d11","ios":"levelo://app?vid=ec5d08ce-934d-49b5-9a73-c20b44942d11"},"vehicle_type_id":"4","last_reported":1741853660,"current_range_meters":8000,"station_id":"","pricing_plan_id":"cebpf4jnsgd1na2vs0mg"},{"bike_id":"6484135d-cc7f-43fa-96dc-9d860579fe11","system_id":"levelo_inurba_marseille","lat":43.24076,"lon":5.37759,"is_reserved":false,"is_disabled":false,"rental_uris":{"android":"levelo://app?vid=6484135d-cc7f-43fa-96dc-9d860579fe11","ios":"levelo://app?vid=6484135d-cc7f-43fa-96dc-9d860579fe11"},"vehicle_type_id":"4","last_reported":1741853660,"current_range_meters":8000,"station_id":"ce4bhnp2rcd13ifvqgvg","pricing_plan_id":"cebpf4jnsgd1na2vs0mg"},{"bike_id":"3cce353e-6494-4afa-a91a-1143cead8e5e","system_id":"levelo_inurba_marseille","lat":43.2767,"lon":5.38853,"is_reserved":false,"is_disabled":false,"rental_uris":{"android":"levelo://app?vid=3cce353e-6494-4afa-a91a-1143cead8e5e","ios":"levelo://app?vid=3cce353e-6494-4afa-a91a-1143cead8e5e"},"vehicle_type_id":"4","last_reported":1741853660,"current_range_meters":8000,"station_id":"ce4bhi12rcd13ifvqfo0","pricing_plan_id":"cebpf4jnsgd1na2vs0mg"},{"bike_id":"f4f6951d-a3fd-42a9-86a0-c61cdb750c82","system_id":"levelo_inurba_marseille","lat":43.25092,"lon":5.39516,"is_reserved":false,"is_disabled":false,"rental_uris":{"android":"levelo://app?vid=f4f6951d-a3fd-42a9-86a0-c61cdb750c82","ios":"levelo://app?vid=f4f6951d-a3fd-42a9-86a0-c61cdb750c82"},"vehicle_type_id":"4","last_reported":1741853660,"current_range_meters":8000,"station_id":"ce4bhm12rcd13ifvqgkg","pricing_plan_id":"cebpf4jnsgd1na2vs0mg"},{"bike_id":"3fd84816-9092-43f8-a38a-6e332e63433d","system_id":"levelo_inurba_marseille","lat":43.25936,"lon":5.4091,"is_reserved":false,"is_disabled":false,"rental_uris":{"android":"levelo://app?vid=3fd84816-9092-43f8-a38a-6e332e63433d","ios":"levelo://app?vid=3fd84816-9092-43f8-a38a-6e332e63433d"},"vehicle_type_id":"4","last_reported":1741853660,"current_range_meters":8000,"station_id":"ce4bhm92rcd13ifvqglg","pricing_plan_id":"cebpf4jnsgd1na2vs0mg"},{"bike_id":"d7aaef38-7eff-471c-ba72-07e0eabbfe50","system_id":"levelo_inurba_marseille","lat":43.27915,"lon":5.41046,"is_reserved":false,"is_disabled":true,"rental_uris":{"android":"levelo://app?vid=d7aaef38-7eff-471c-ba72-07e0eabbfe50","ios":"levelo://app?vid=d7aaef38-7eff-471c-ba72-07e0eabbfe50"},"vehicle_type_id":"4","last_reported":1741853660,"current_range_meters":8000,"station_id":"ce4bhnp2rcd13ifvqh0g","pricing_plan_id":"cebpf4jnsgd1na2vs0mg"},{"bike_id":"ccc60824-c79b-431c-a6af-0ceb79e3288a","system_id":"levelo_inurba_marseille","lat":43.28458,"lon":5.35898,"is_reserved":false,"is_disabled":true,"rental_uris":{"android":"levelo://app?vid=ccc60824-c79b-431c-a6af-0ceb79e3288a","ios":"levelo://app?vid=ccc60824-c79b-431c-a6af-0ceb79e3288a"},"vehicle_type_id":"4","last_reported":1741853660,"current_range_meters":8000,"station_id":"ce4bhah2rcd13ifvqei0","pricing_plan_id":"cebpf4jnsgd1na2vs0mg"},{"bike_id":"9bf27536-36e1-468f-b8e2-c221d57df0af","system_id":"levelo_inurba_marseille","lat":43.24072,"lon":5.3776,"is_reserved":false,"is_disabled":false,"rental_uris":{"android":"levelo://app?vid=9bf27536-36e1-468f-b8e2-c221d57df0af","ios":"levelo://app?vid=9bf27536-36e1-468f-b8e2-c221d57df0af"},"vehicle_type_id":"4","last_reported":1741853660,"current_range_meters":8000,"station_id":"ce4bhnp2rcd13ifvqgvg","pricing_plan_id":"cebpf4jnsgd1na2vs0mg"},{"bike_id":"0a995a9a-6122-4f4b-b298-a8b06cbca7e2","system_id":"levelo_inurba_marseille","lat":43.25016,"lon":5.38918,"is_reserved":false,"is_disabled":false,"rental_uris":{"android":"levelo://app?vid=0a995a9a-6122-4f4b-b298-a8b06cbca7e2","ios":"levelo://app?vid=0a995a9a-6122-4f4b-b298-a8b06cbca7e2"},"vehicle_type_id":"4","last_reported":1741853660,"current_range_meters":8400,"station_id":"ce4bhgp2rcd13ifvqfd0","pricing_plan_id":"cebpf4jnsgd1na2vs0mg"},{"bike_id":"f83b1590-73f8-4900-a667-6c005eb9b249","system_id":"levelo_inurba_marseille","lat":43.29577,"lon":5.39992,"is_reserved":false,"is_disabled":true,"rental_uris":{"android":"levelo://app?vid=f83b1590-73f8-4900-a667-6c005eb9b249","ios":"levelo://app?vid=f83b1590-73f8-4900-a667-6c005eb9b249"},"vehicle_type_id":"4","last_reported":1741853660,"current_range_meters":8400,"station_id":"ce4bh312rcd13ifvqdj0","pricing_plan_id":"cebpf4jnsgd1na2vs0mg"},{"bike_id":"55fe5d5a-17ad-4e56-ad62-6cc28a264c81","system_id":"levelo_inurba_marseille","lat":43.24998,"lon":5.3892,"is_reserved":false,"is_disabled":false,"rental_uris":{"android":"levelo://app?vid=55fe5d5a-17ad-4e56-ad62-6cc28a264c81","ios":"levelo://app?vid=55fe5d5a-17ad-4e56-ad62-6cc28a264c81"},"vehicle_type_id":"4","last_reported":1741853660,"current_range_meters":8400,"station_id":"ce4bhgp2rcd13ifvqfd0","pricing_plan_id":"cebpf4jnsgd1na2vs0mg"},{"bike_id":"bd0689b5-5981-4834-a6d3-9a18cb2e0eca","system_id":"levelo_inurba_marseille","lat":43.25942,"lon":5.40905,"is_reserved":false,"is_disabled":false,"rental_uris":{"android":"levelo://app?vid=bd0689b5-5981-4834-a6d3-9a18cb2e0eca","ios":"levelo://app?vid=bd0689b5-5981-4834-a6d3-9a18cb2e0eca"},"vehicle_type_id":"4","last_reported":1741853660,"current_range_meters":8400,"station_id":"ce4bhm92rcd13ifvqglg","pricing_plan_id":"cebpf4jnsgd1na2vs0mg"},{"bike_id":"7d4aedfe-c4d1-46e1-9530-386849f612f8","system_id":"levelo_inurba_marseille","lat":43.303744,"lon":5.424891,"is_reserved":false,"is_disabled":false,"rental_uris":{"android":"levelo://app?vid=7d4aedfe-c4d1-46e1-9530-386849f612f8","ios":"levelo://app?vid=7d4aedfe-c4d1-46e1-9530-386849f612f8"},"vehicle_type_id":"4","last_reported":1741853660,"current_range_meters":8400,"station_id":"ce4bghh2rcd13ifvqb60","pricing_plan_id":"cebpf4jnsgd1na2vs0mg"},{"bike_id":"c8f5a7aa-328f-49c1-a785-9624fa888d07","system_id":"levelo_inurba_marseille","lat":43.250057,"lon":5.389164,"is_reserved":false,"is_disabled":false,"rental_uris":{"android":"levelo://app?vid=c8f5a7aa-328f-49c1-a785-9624fa888d07","ios":"levelo://app?vid=c8f5a7aa-328f-49c1-a785-9624fa888d07"},"vehicle_type_id":"4","last_reported":1741853660,"current_range_meters":8400,"station_id":"ce4bhgp2rcd13ifvqfd0","pricing_plan_id":"cebpf4jnsgd1na2vs0mg"},{"bike_id":"2d16443d-ed2e-4c48-af94-4deffe2479f1","system_id":"levelo_inurba_marseille","lat":43.250124,"lon":5.389331,"is_reserved":false,"is_disabled":false,"rental_uris":{"android":"levelo://app?vid=2d16443d-ed2e-4c48-af94-4deffe2479f1","ios":"levelo://app?vid=2d16443d-ed2e-4c48-af94-4deffe2479f1"},"vehicle_type_id":"4","last_reported":1741853660,"current_range_meters":8400,"station_id":"ce4bhgp2rcd13ifvqfd0","pricing_plan_id":"cebpf4jnsgd1na2vs0mg"},{"bike_id":"0f09a34b-743f-460f-866a-def7681beb24","system_id":"levelo_inurba_marseille","lat":43.286689,"lon":5.386581,"is_reserved":false,"is_disabled":false,"rental_uris":{"android":"levelo://app?vid=0f09a34b-743f-460f-866a-def7681beb24","ios":"levelo://app?vid=0f09a34b-743f-460f-866a-def7681beb24"},"vehicle_type_id":"4","last_reported":1741853660,"current_range_meters":8400,"station_id":"ce4bhg92rcd13ifvqf90","pricing_plan_id":"cebpf4jnsgd1na2vs0mg"},{"bike_id":"317d979a-91ed-4422-bdb1-b123a925d594","system_id":"levelo_inurba_marseille","lat":43.28733,"lon":5.37935,"is_reserved":false,"is_disabled":false,"rental_uris":{"android":"levelo://app?vid=317d979a-91ed-4422-bdb1-b123a925d594","ios":"levelo://app?vid=317d979a-91ed-4422-bdb1-b123a925d594"},"vehicle_type_id":"4","last_reported":1741853660,"current_range_meters":8800,"station_id":"ce4bh9p2rcd13ifvqec0","pricing_plan_id":"cebpf4jnsgd1na2vs0mg"},{"bike_id":"463dbfa3-5d75-442e-a285-e10536268809","system_id":"levelo_inurba_marseille","lat":43.23966,"lon":5.36629,"is_reserved":false,"is_disabled":false,"rental_uris":{"android":"levelo://app?vid=463dbfa3-5d75-442e-a285-e10536268809","ios":"levelo://app?vid=463dbfa3-5d75-442e-a285-e10536268809"},"vehicle_type_id":"4","last_reported":1741853660,"current_range_meters":8800,"station_id":"ce4bhi12rcd13ifvqfp0","pricing_plan_id":"cebpf4jnsgd1na2vs0mg"},{"bike_id":"9f25a6ad-433a-45b0-a0d0-4a619d769e26","system_id":"levelo_inurba_marseille","lat":43.23204,"lon":5.35561,"is_reserved":false,"is_disabled":false,"rental_uris":{"android":"levelo://app?vid=9f25a6ad-433a-45b0-a0d0-4a619d769e26","ios":"levelo://app?vid=9f25a6ad-433a-45b0-a0d0-4a619d769e26"},"vehicle_type_id":"4","last_reported":1741853660,"current_range_meters":8800,"station_id":"ce4bhu92rcd13ifvqi70","pricing_plan_id":"cebpf4jnsgd1na2vs0mg"},{"bike_id":"27978618-6a05-41e9-b500-4c9c04aec95f","system_id":"levelo_inurba_marseille","lat":43.28154,"lon":5.42638,"is_reserved":false,"is_disabled":false,"rental_uris":{"android":"levelo://app?vid=27978618-6a05-41e9-b500-4c9c04aec95f","ios":"levelo://app?vid=27978618-6a05-41e9-b500-4c9c04aec95f"},"vehicle_type_id":"4","last_reported":1741853660,"current_range_meters":8800,"station_id":"ce4bhnh2rcd13ifvqgug","pricing_plan_id":"cebpf4jnsgd1na2vs0mg"},{"bike_id":"06e1fefc-0d0a-4c3c-ab2c-bd406aeffc56","system_id":"levelo_inurba_marseille","lat":43.31715,"lon":5.40469,"is_reserved":false,"is_disabled":false,"rental_uris":{"android":"levelo://app?vid=06e1fefc-0d0a-4c3c-ab2c-bd406aeffc56","ios":"levelo://app?vid=06e1fefc-0d0a-4c3c-ab2c-bd406aeffc56"},"vehicle_type_id":"4","last_reported":1741853660,"current_range_meters":8800,"station_id":"ce4bh012rcd13ifvqd00","pricing_plan_id":"cebpf4jnsgd1na2vs0mg"},{"bike_id":"5667c283-1689-4781-aa12-3a90da501104","system_id":"levelo_inurba_marseille","lat":43.279626,"lon":5.386938,"is_reserved":false,"is_disabled":false,"rental_uris":{"android":"levelo://app?vid=5667c283-1689-4781-aa12-3a90da501104","ios":"levelo://app?vid=5667c283-1689-4781-aa12-3a90da501104"},"vehicle_type_id":"4","last_reported":1741853660,"current_range_meters":8800,"station_id":"ce4bhg12rcd13ifvqf80","pricing_plan_id":"cebpf4jnsgd1na2vs0mg"},{"bike_id":"6dbc9b4a-c5a1-4dbf-a00f-5bb7462d2694","system_id":"levelo_inurba_marseille","lat":43.281013,"lon":5.398502,"is_reserved":false,"is_disabled":false,"rental_uris":{"android":"levelo://app?vid=6dbc9b4a-c5a1-4dbf-a00f-5bb7462d2694","ios":"levelo://app?vid=6dbc9b4a-c5a1-4dbf-a00f-5bb7462d2694"},"vehicle_type_id":"4","last_reported":1741853660,"current_range_meters":8800,"station_id":"","pricing_plan_id":"cebpf4jnsgd1na2vs0mg"},{"bike_id":"a03dac9a-8a6b-41ed-8ffc-4753f7d5a883","system_id":"levelo_inurba_marseille","lat":43.27488,"lon":5.42461,"is_reserved":false,"is_disabled":false,"rental_uris":{"android":"levelo://app?vid=a03dac9a-8a6b-41ed-8ffc-4753f7d5a883","ios":"levelo://app?vid=a03dac9a-8a6b-41ed-8ffc-4753f7d5a883"},"vehicle_type_id":"4","last_reported":1741853660,"current_range_meters":8800,"station_id":"ce4bhn92rcd13ifvqgrg","pricing_plan_id":"cebpf4jnsgd1na2vs0mg"},{"bike_id":"234f837a-7327-4b92-8f17-adec428df1b9","system_id":"levelo_inurba_marseille","lat":43.25924,"lon":5.40915,"is_reserved":false,"is_disabled":false,"rental_uris":{"android":"levelo://app?vid=234f837a-7327-4b92-8f17-adec428df1b9","ios":"levelo://app?vid=234f837a-7327-4b92-8f17-adec428df1b9"},"vehicle_type_id":"4","last_reported":1741853660,"current_range_meters":8800,"station_id":"ce4bhm92rcd13ifvqglg","pricing_plan_id":"cebpf4jnsgd1na2vs0mg"},{"bike_id":"f89b9f3b-9595-4d0e-acf5-ac5f650bb50c","system_id":"levelo_inurba_marseille","lat":43.3037,"lon":5.42494,"is_reserved":false,"is_disabled":false,"rental_uris":{"android":"levelo://app?vid=f89b9f3b-9595-4d0e-acf5-ac5f650bb50c","ios":"levelo://app?vid=f89b9f3b-9595-4d0e-acf5-ac5f650bb50c"},"vehicle_type_id":"4","last_reported":1741853660,"current_range_meters":8800,"station_id":"ce4bghh2rcd13ifvqb60","pricing_plan_id":"cebpf4jnsgd1na2vs0mg"},{"bike_id":"e314f2f2-af49-4d4d-97e9-17a47754b4bf","system_id":"levelo_inurba_marseille","lat":43.28682,"lon":5.3866,"is_reserved":false,"is_disabled":true,"rental_uris":{"android":"levelo://app?vid=e314f2f2-af49-4d4d-97e9-17a47754b4bf","ios":"levelo://app?vid=e314f2f2-af49-4d4d-97e9-17a47754b4bf"},"vehicle_type_id":"4","last_reported":1741853660,"current_range_meters":8800,"station_id":"ce4bh492rcd13ifvqdug","pricing_plan_id":"cebpf4jnsgd1na2vs0mg"},{"bike_id":"58cc17ea-3bc6-4dab-aada-15917fc63465","system_id":"levelo_inurba_marseille","lat":43.28346,"lon":5.38102,"is_reserved":false,"is_disabled":false,"rental_uris":{"android":"levelo://app?vid=58cc17ea-3bc6-4dab-aada-15917fc63465","ios":"levelo://app?vid=58cc17ea-3bc6-4dab-aada-15917fc63465"},"vehicle_type_id":"4","last_reported":1741853660,"current_range_meters":8800,"station_id":"ce4bh412rcd13ifvqdr0","pricing_plan_id":"cebpf4jnsgd1na2vs0mg"},{"bike_id":"4301399b-f674-44db-93d7-a53fcc92849d","system_id":"levelo_inurba_marseille","lat":43.27505,"lon":5.42455,"is_reserved":false,"is_disabled":false,"rental_uris":{"android":"levelo://app?vid=4301399b-f674-44db-93d7-a53fcc92849d","ios":"levelo://app?vid=4301399b-f674-44db-93d7-a53fcc92849d"},"vehicle_type_id":"4","last_reported":1741853660,"current_range_meters":8800,"station_id":"ce4bhn92rcd13ifvqgrg","pricing_plan_id":"cebpf4jnsgd1na2vs0mg"},{"bike_id":"6ab11c47-b743-457e-ba0c-16f42dc6710a","system_id":"levelo_inurba_marseille","lat":43.30391,"lon":5.39312,"is_reserved":false,"is_disabled":false,"rental_uris":{"android":"levelo://app?vid=6ab11c47-b743-457e-ba0c-16f42dc6710a","ios":"levelo://app?vid=6ab11c47-b743-457e-ba0c-16f42dc6710a"},"vehicle_type_id":"4","last_reported":1741853660,"current_range_meters":9200,"station_id":"","pricing_plan_id":"cebpf4jnsgd1na2vs0mg"},{"bike_id":"0234a9c0-0d92-4771-9dd1-5abbd3156dde","system_id":"levelo_inurba_marseille","lat":43.24069,"lon":5.37767,"is_reserved":false,"is_disabled":false,"rental_uris":{"android":"levelo://app?vid=0234a9c0-0d92-4771-9dd1-5abbd3156dde","ios":"levelo://app?vid=0234a9c0-0d92-4771-9dd1-5abbd3156dde"},"vehicle_type_id":"4","last_reported":1741853660,"current_range_meters":9200,"station_id":"ce4bhnp2rcd13ifvqgvg","pricing_plan_id":"cebpf4jnsgd1na2vs0mg"},{"bike_id":"aa243a2e-6ab2-47c4-8bb0-55cfd767972d","system_id":"levelo_inurba_marseille","lat":43.29624,"lon":5.38112,"is_reserved":false,"is_disabled":false,"rental_uris":{"android":"levelo://app?vid=aa243a2e-6ab2-47c4-8bb0-55cfd767972d","ios":"levelo://app?vid=aa243a2e-6ab2-47c4-8bb0-55cfd767972d"},"vehicle_type_id":"4","last_reported":1741853660,"current_range_meters":9200,"station_id":"ce4bgl12rcd13ifvqbo0","pricing_plan_id":"cebpf4jnsgd1na2vs0mg"},{"bike_id":"8088444f-ef12-420d-be18-01e5cad59779","system_id":"levelo_inurba_marseille","lat":43.30164,"lon":5.38088,"is_reserved":false,"is_disabled":false,"rental_uris":{"android":"levelo://app?vid=8088444f-ef12-420d-be18-01e5cad59779","ios":"levelo://app?vid=8088444f-ef12-420d-be18-01e5cad59779"},"vehicle_type_id":"4","last_reported":1741853660,"current_range_meters":9200,"station_id":"ce4bgjp2rcd13ifvqbh0","pricing_plan_id":"cebpf4jnsgd1na2vs0mg"},{"bike_id":"58479d0b-7b3c-441f-9db3-5c3f74e9d4d0","system_id":"levelo_inurba_marseille","lat":43.25939,"lon":5.409,"is_reserved":false,"is_disabled":false,"rental_uris":{"android":"levelo://app?vid=58479d0b-7b3c-441f-9db3-5c3f74e9d4d0","ios":"levelo://app?vid=58479d0b-7b3c-441f-9db3-5c3f74e9d4d0"},"vehicle_type_id":"4","last_reported":1741853660,"current_range_meters":9200,"station_id":"ce4bhm92rcd13ifvqglg","pricing_plan_id":"cebpf4jnsgd1na2vs0mg"},{"bike_id":"dfc5b2ed-f893-4c50-bdd5-4d5f241177cf","system_id":"levelo_inurba_marseille","lat":43.27494,"lon":5.42453,"is_reserved":false,"is_disabled":false,"rental_uris":{"android":"levelo://app?vid=dfc5b2ed-f893-4c50-bdd5-4d5f241177cf","ios":"levelo://app?vid=dfc5b2ed-f893-4c50-bdd5-4d5f241177cf"},"vehicle_type_id":"4","last_reported":1741853660,"current_range_meters":9200,"station_id":"ce4bhn92rcd13ifvqgrg","pricing_plan_id":"cebpf4jnsgd1na2vs0mg"},{"bike_id":"c9fd47f2-9206-415b-8d74-9080a5b57961","system_id":"levelo_inurba_marseille","lat":43.34156,"lon":5.40909,"is_reserved":false,"is_disabled":false,"rental_uris":{"android":"levelo://app?vid=c9fd47f2-9206-415b-8d74-9080a5b57961","ios":"levelo://app?vid=c9fd47f2-9206-415b-8d74-9080a5b57961"},"vehicle_type_id":"4","last_reported":1741853660,"current_range_meters":9200,"station_id":"ce4bhqh2rcd13ifvqhlg","pricing_plan_id":"cebpf4jnsgd1na2vs0mg"},{"bike_id":"f306f7be-e04f-4968-9a2f-ec70b66a96d2","system_id":"levelo_inurba_marseille","lat":43.30149,"lon":5.37422,"is_reserved":false,"is_disabled":false,"rental_uris":{"android":"levelo://app?vid=f306f7be-e04f-4968-9a2f-ec70b66a96d2","ios":"levelo://app?vid=f306f7be-e04f-4968-9a2f-ec70b66a96d2"},"vehicle_type_id":"4","last_reported":1741853660,"current_range_meters":9600,"station_id":"ce4bgs92rcd13ifvqcc0","pricing_plan_id":"cebpf4jnsgd1na2vs0mg"},{"bike_id":"9dc8ba98-3de9-4f14-81e1-9a5589e794de","system_id":"levelo_inurba_marseille","lat":43.25873,"lon":5.39901,"is_reserved":false,"is_disabled":true,"rental_uris":{"android":"levelo://app?vid=9dc8ba98-3de9-4f14-81e1-9a5589e794de","ios":"levelo://app?vid=9dc8ba98-3de9-4f14-81e1-9a5589e794de"},"vehicle_type_id":"4","last_reported":1741853660,"current_range_meters":9600,"station_id":"ce4bhl92rcd13ifvqghg","pricing_plan_id":"cebpf4jnsgd1na2vs0mg"},{"bike_id":"b592acb7-cacd-4757-a870-24e12e49b5fe","system_id":"levelo_inurba_marseille","lat":43.30153,"lon":5.38077,"is_reserved":false,"is_disabled":false,"rental_uris":{"android":"levelo://app?vid=b592acb7-cacd-4757-a870-24e12e49b5fe","ios":"levelo://app?vid=b592acb7-cacd-4757-a870-24e12e49b5fe"},"vehicle_type_id":"4","last_reported":1741853660,"current_range_meters":9600,"station_id":"ce4bgjp2rcd13ifvqbh0","pricing_plan_id":"cebpf4jnsgd1na2vs0mg"},{"bike_id":"602761df-849c-4f8a-bbfc-47d3fb0d744a","system_id":"levelo_inurba_marseille","lat":43.24063,"lon":5.3772,"is_reserved":false,"is_disabled":false,"rental_uris":{"android":"levelo://app?vid=602761df-849c-4f8a-bbfc-47d3fb0d744a","ios":"levelo://app?vid=602761df-849c-4f8a-bbfc-47d3fb0d744a"},"vehicle_type_id":"4","last_reported":1741853660,"current_range_meters":9600,"station_id":"ce4bhnp2rcd13ifvqgvg","pricing_plan_id":"cebpf4jnsgd1na2vs0mg"},{"bike_id":"e707c2fa-e8ee-4a38-858e-c5676a1056b4","system_id":"levelo_inurba_marseille","lat":43.27677,"lon":5.38875,"is_reserved":false,"is_disabled":false,"rental_uris":{"android":"levelo://app?vid=e707c2fa-e8ee-4a38-858e-c5676a1056b4","ios":"levelo://app?vid=e707c2fa-e8ee-4a38-858e-c5676a1056b4"},"vehicle_type_id":"4","last_reported":1741853660,"current_range_meters":9600,"station_id":"ce4bhi12rcd13ifvqfo0","pricing_plan_id":"cebpf4jnsgd1na2vs0mg"},{"bike_id":"4c607265-c996-4d9b-81fd-daa80dd99e32","system_id":"levelo_inurba_marseille","lat":43.28729,"lon":5.38428,"is_reserved":false,"is_disabled":false,"rental_uris":{"android":"levelo://app?vid=4c607265-c996-4d9b-81fd-daa80dd99e32","ios":"levelo://app?vid=4c607265-c996-4d9b-81fd-daa80dd99e32"},"vehicle_type_id":"4","last_reported":1741853660,"current_range_meters":9600,"station_id":"","pricing_plan_id":"cebpf4jnsgd1na2vs0mg"},{"bike_id":"79e732be-e7d8-4dc9-8c8f-89d56717d799","system_id":"levelo_inurba_marseille","lat":43.29024,"lon":5.37554,"is_reserved":false,"is_disabled":true,"rental_uris":{"android":"levelo://app?vid=79e732be-e7d8-4dc9-8c8f-89d56717d799","ios":"levelo://app?vid=79e732be-e7d8-4dc9-8c8f-89d56717d799"},"vehicle_type_id":"4","last_reported":1741853660,"current_range_meters":9600,"station_id":"ce4bh692rcd13ifvqe90","pricing_plan_id":"cebpf4jnsgd1na2vs0mg"},{"bike_id":"6181aa71-66ac-4fca-8948-c37a56f7dac1","system_id":"levelo_inurba_marseille","lat":43.28955,"lon":5.36415,"is_reserved":false,"is_disabled":false,"rental_uris":{"android":"levelo://app?vid=6181aa71-66ac-4fca-8948-c37a56f7dac1","ios":"levelo://app?vid=6181aa71-66ac-4fca-8948-c37a56f7dac1"},"vehicle_type_id":"4","last_reported":1741853660,"current_range_meters":9600,"station_id":"ce4bhc92rcd13ifvqetg","pricing_plan_id":"cebpf4jnsgd1na2vs0mg"},{"bike_id":"a91ad3e1-1b6c-4d4d-8e80-225ea763f1bf","system_id":"levelo_inurba_marseille","lat":43.30137,"lon":5.37424,"is_reserved":false,"is_disabled":false,"rental_uris":{"android":"levelo://app?vid=a91ad3e1-1b6c-4d4d-8e80-225ea763f1bf","ios":"levelo://app?vid=a91ad3e1-1b6c-4d4d-8e80-225ea763f1bf"},"vehicle_type_id":"4","last_reported":1741853660,"current_range_meters":9600,"station_id":"ce4bgs92rcd13ifvqcc0","pricing_plan_id":"cebpf4jnsgd1na2vs0mg"},{"bike_id":"79397302-4916-493d-9bc0-e5035ae3c476","system_id":"levelo_inurba_marseille","lat":43.22939,"lon":5.35416,"is_reserved":false,"is_disabled":false,"rental_uris":{"android":"levelo://app?vid=79397302-4916-493d-9bc0-e5035ae3c476","ios":"levelo://app?vid=79397302-4916-493d-9bc0-e5035ae3c476"},"vehicle_type_id":"4","last_reported":1741853660,"current_range_meters":9600,"station_id":"cpo3532slgdg3j2ikp40","pricing_plan_id":"cebpf4jnsgd1na2vs0mg"},{"bike_id":"443a3fb1-e6f8-4551-9dcb-92b2072390e6","system_id":"levelo_inurba_marseille","lat":43.30166,"lon":5.37689,"is_reserved":false,"is_disabled":false,"rental_uris":{"android":"levelo://app?vid=443a3fb1-e6f8-4551-9dcb-92b2072390e6","ios":"levelo://app?vid=443a3fb1-e6f8-4551-9dcb-92b2072390e6"},"vehicle_type_id":"4","last_reported":1741853660,"current_range_meters":9600,"station_id":"","pricing_plan_id":"cebpf4jnsgd1na2vs0mg"},{"bike_id":"9cce9208-7cee-4c1b-a29a-1b23c4eeb22f","system_id":"levelo_inurba_marseille","lat":43.26687,"lon":5.38277,"is_reserved":false,"is_disabled":false,"rental_uris":{"android":"levelo://app?vid=9cce9208-7cee-4c1b-a29a-1b23c4eeb22f","ios":"levelo://app?vid=9cce9208-7cee-4c1b-a29a-1b23c4eeb22f"},"vehicle_type_id":"4","last_reported":1741853660,"current_range_meters":10000,"station_id":"ce4bhg92rcd13ifvqf90","pricing_plan_id":"cebpf4jnsgd1na2vs0mg"},{"bike_id":"05ec5737-0057-41a5-a635-c250206b128f","system_id":"levelo_inurba_marseille","lat":43.29932,"lon":5.37471,"is_reserved":false,"is_disabled":false,"rental_uris":{"android":"levelo://app?vid=05ec5737-0057-41a5-a635-c250206b128f","ios":"levelo://app?vid=05ec5737-0057-41a5-a635-c250206b128f"},"vehicle_type_id":"4","last_reported":1741853660,"current_range_meters":10000,"station_id":"ce4bgjh2rcd13ifvqbg0","pricing_plan_id":"cebpf4jnsgd1na2vs0mg"},{"bike_id":"15b50c6c-151c-47a0-9049-e253e0368f3a","system_id":"levelo_inurba_marseille","lat":43.30153,"lon":5.38098,"is_reserved":false,"is_disabled":false,"rental_uris":{"android":"levelo://app?vid=15b50c6c-151c-47a0-9049-e253e0368f3a","ios":"levelo://app?vid=15b50c6c-151c-47a0-9049-e253e0368f3a"},"vehicle_type_id":"4","last_reported":1741853660,"current_range_meters":10000,"station_id":"ce4bgjp2rcd13ifvqbh0","pricing_plan_id":"cebpf4jnsgd1na2vs0mg"},{"bike_id":"5412c073-a21a-4f09-b8b3-6e8cd885fd55","system_id":"levelo_inurba_marseille","lat":43.31057,"lon":5.38351,"is_reserved":false,"is_disabled":true,"rental_uris":{"android":"levelo://app?vid=5412c073-a21a-4f09-b8b3-6e8cd885fd55","ios":"levelo://app?vid=5412c073-a21a-4f09-b8b3-6e8cd885fd55"},"vehicle_type_id":"4","last_reported":1741853660,"current_range_meters":10000,"station_id":"ce4bgv92rcd13ifvqcr0","pricing_plan_id":"cebpf4jnsgd1na2vs0mg"},{"bike_id":"b17833c2-8a29-40aa-84a7-a1940a968f79","system_id":"levelo_inurba_marseille","lat":43.30182,"lon":5.38057,"is_reserved":false,"is_disabled":false,"rental_uris":{"android":"levelo://app?vid=b17833c2-8a29-40aa-84a7-a1940a968f79","ios":"levelo://app?vid=b17833c2-8a29-40aa-84a7-a1940a968f79"},"vehicle_type_id":"4","last_reported":1741853660,"current_range_meters":10000,"station_id":"","pricing_plan_id":"cebpf4jnsgd1na2vs0mg"},{"bike_id":"9c298458-9168-485c-a6fd-bc9aa475b8d1","system_id":"levelo_inurba_marseille","lat":43.2808,"lon":5.38681,"is_reserved":false,"is_disabled":false,"rental_uris":{"android":"levelo://app?vid=9c298458-9168-485c-a6fd-bc9aa475b8d1","ios":"levelo://app?vid=9c298458-9168-485c-a6fd-bc9aa475b8d1"},"vehicle_type_id":"4","last_reported":1741853660,"current_range_meters":10000,"station_id":"ce4bht12rcd13ifvqi60","pricing_plan_id":"cebpf4jnsgd1na2vs0mg"},{"bike_id":"4b71f5a9-0b65-417f-bb82-1ec69a6a8263","system_id":"levelo_inurba_marseille","lat":43.29283,"lon":5.40141,"is_reserved":false,"is_disabled":false,"rental_uris":{"android":"levelo://app?vid=4b71f5a9-0b65-417f-bb82-1ec69a6a8263","ios":"levelo://app?vid=4b71f5a9-0b65-417f-bb82-1ec69a6a8263"},"vehicle_type_id":"4","last_reported":1741853660,"current_range_meters":10800,"station_id":"ce4bh312rcd13ifvqdk0","pricing_plan_id":"cebpf4jnsgd1na2vs0mg"},{"bike_id":"04b6b0f6-d318-40e6-a023-347d481d621c","system_id":"levelo_inurba_marseille","lat":43.29172,"lon":5.37568,"is_reserved":false,"is_disabled":false,"rental_uris":{"android":"levelo://app?vid=04b6b0f6-d318-40e6-a023-347d481d621c","ios":"levelo://app?vid=04b6b0f6-d318-40e6-a023-347d481d621c"},"vehicle_type_id":"4","last_reported":1741853660,"current_range_meters":10800,"station_id":"","pricing_plan_id":"cebpf4jnsgd1na2vs0mg"},{"bike_id":"6df1e7f3-12c0-481c-9941-2246e17807ca","system_id":"levelo_inurba_marseille","lat":43.28485,"lon":5.36818,"is_reserved":false,"is_disabled":true,"rental_uris":{"android":"levelo://app?vid=6df1e7f3-12c0-481c-9941-2246e17807ca","ios":"levelo://app?vid=6df1e7f3-12c0-481c-9941-2246e17807ca"},"vehicle_type_id":"4","last_reported":1741853660,"current_range_meters":10800,"station_id":"","pricing_plan_id":"cebpf4jnsgd1na2vs0mg"},{"bike_id":"0fd54929-fda1-4124-8332-4d4edc632c97","system_id":"levelo_inurba_marseille","lat":43.30174,"lon":5.38092,"is_reserved":false,"is_disabled":false,"rental_uris":{"android":"levelo://app?vid=0fd54929-fda1-4124-8332-4d4edc632c97","ios":"levelo://app?vid=0fd54929-fda1-4124-8332-4d4edc632c97"},"vehicle_type_id":"4","last_reported":1741853660,"current_range_meters":10800,"station_id":"ce4bgjp2rcd13ifvqbh0","pricing_plan_id":"cebpf4jnsgd1na2vs0mg"},{"bike_id":"92f186cf-b135-4f2a-b5ea-efa0581589bb","system_id":"levelo_inurba_marseille","lat":43.30896,"lon":5.37192,"is_reserved":false,"is_disabled":false,"rental_uris":{"android":"levelo://app?vid=92f186cf-b135-4f2a-b5ea-efa0581589bb","ios":"levelo://app?vid=92f186cf-b135-4f2a-b5ea-efa0581589bb"},"vehicle_type_id":"4","last_reported":1741853660,"current_range_meters":10000,"station_id":"ce4bguh2rcd13ifvqckg","pricing_plan_id":"cebpf4jnsgd1na2vs0mg"},{"bike_id":"b38e28b2-d2f0-47b2-baeb-146efe27da63","system_id":"levelo_inurba_marseille","lat":43.27562,"lon":5.38437,"is_reserved":false,"is_disabled":false,"rental_uris":{"android":"levelo://app?vid=b38e28b2-d2f0-47b2-baeb-146efe27da63","ios":"levelo://app?vid=b38e28b2-d2f0-47b2-baeb-146efe27da63"},"vehicle_type_id":"4","last_reported":1741853660,"current_range_meters":10800,"station_id":"ce4bhh92rcd13ifvqfi0","pricing_plan_id":"cebpf4jnsgd1na2vs0mg"},{"bike_id":"6291feed-1dee-4192-bb76-319c63a3627d","system_id":"levelo_inurba_marseille","lat":43.28618,"lon":5.37065,"is_reserved":false,"is_disabled":false,"rental_uris":{"android":"levelo://app?vid=6291feed-1dee-4192-bb76-319c63a3627d","ios":"levelo://app?vid=6291feed-1dee-4192-bb76-319c63a3627d"},"vehicle_type_id":"4","last_reported":1741853660,"current_range_meters":10800,"station_id":"ce4bht12rcd13ifvqi60","pricing_plan_id":"cebpf4jnsgd1na2vs0mg"},{"bike_id":"43210ee2-7bae-42bd-8e6d-b2d5802f48a9","system_id":"levelo_inurba_marseille","lat":43.29051,"lon":5.39899,"is_reserved":false,"is_disabled":false,"rental_uris":{"android":"levelo://app?vid=43210ee2-7bae-42bd-8e6d-b2d5802f48a9","ios":"levelo://app?vid=43210ee2-7bae-42bd-8e6d-b2d5802f48a9"},"vehicle_type_id":"4","last_reported":1741853660,"current_range_meters":10800,"station_id":"ce4bh392rcd13ifvqdm0","pricing_plan_id":"cebpf4jnsgd1na2vs0mg"},{"bike_id":"e3d6a6b9-cc18-4321-8a36-574dc6db5ef8","system_id":"levelo_inurba_marseille","lat":43.2668,"lon":5.38269,"is_reserved":false,"is_disabled":false,"rental_uris":{"android":"levelo://app?vid=e3d6a6b9-cc18-4321-8a36-574dc6db5ef8","ios":"levelo://app?vid=e3d6a6b9-cc18-4321-8a36-574dc6db5ef8"},"vehicle_type_id":"4","last_reported":1741853660,"current_range_meters":10800,"station_id":"ce4bhg92rcd13ifvqf90","pricing_plan_id":"cebpf4jnsgd1na2vs0mg"},{"bike_id":"5fb8ada9-5a56-423d-8722-f16a8274b1cc","system_id":"levelo_inurba_marseille","lat":43.30886,"lon":5.36854,"is_reserved":false,"is_disabled":false,"rental_uris":{"android":"levelo://app?vid=5fb8ada9-5a56-423d-8722-f16a8274b1cc","ios":"levelo://app?vid=5fb8ada9-5a56-423d-8722-f16a8274b1cc"},"vehicle_type_id":"4","last_reported":1741853660,"current_range_meters":11200,"station_id":"ce4bgn92rcd13ifvqbvg","pricing_plan_id":"cebpf4jnsgd1na2vs0mg"},{"bike_id":"23562a71-4faa-4348-8194-cf93ee9e8e94","system_id":"levelo_inurba_marseille","lat":43.30955,"lon":5.39038,"is_reserved":false,"is_disabled":false,"rental_uris":{"android":"levelo://app?vid=23562a71-4faa-4348-8194-cf93ee9e8e94","ios":"levelo://app?vid=23562a71-4faa-4348-8194-cf93ee9e8e94"},"vehicle_type_id":"4","last_reported":1741853660,"current_range_meters":11200,"station_id":"ce4bgup2rcd13ifvqco0","pricing_plan_id":"cebpf4jnsgd1na2vs0mg"},{"bike_id":"9203865e-ca45-4cac-a4a2-49b3bfa1d4f8","system_id":"levelo_inurba_marseille","lat":43.29841,"lon":5.36269,"is_reserved":false,"is_disabled":false,"rental_uris":{"android":"levelo://app?vid=9203865e-ca45-4cac-a4a2-49b3bfa1d4f8","ios":"levelo://app?vid=9203865e-ca45-4cac-a4a2-49b3bfa1d4f8"},"vehicle_type_id":"4","last_reported":1741853660,"current_range_meters":11200,"station_id":"ce4bgpp2rcd13ifvqc3g","pricing_plan_id":"cebpf4jnsgd1na2vs0mg"},{"bike_id":"0118782e-a9be-4c57-a3c6-f989e8d3b9bf","system_id":"levelo_inurba_marseille","lat":43.241811,"lon":5.397058,"is_reserved":false,"is_disabled":false,"rental_uris":{"android":"levelo://app?vid=0118782e-a9be-4c57-a3c6-f989e8d3b9bf","ios":"levelo://app?vid=0118782e-a9be-4c57-a3c6-f989e8d3b9bf"},"vehicle_type_id":"4","last_reported":1741853660,"current_range_meters":11200,"station_id":"ce4bhn12rcd13ifvqgpg","pricing_plan_id":"cebpf4jnsgd1na2vs0mg"},{"bike_id":"ef7ca9a6-3467-44cc-bad4-14e9163fcc71","system_id":"levelo_inurba_marseille","lat":43.2418,"lon":5.3973,"is_reserved":false,"is_disabled":false,"rental_uris":{"android":"levelo://app?vid=ef7ca9a6-3467-44cc-bad4-14e9163fcc71","ios":"levelo://app?vid=ef7ca9a6-3467-44cc-bad4-14e9163fcc71"},"vehicle_type_id":"4","last_reported":1741853660,"current_range_meters":11200,"station_id":"ce4bhn12rcd13ifvqgpg","pricing_plan_id":"cebpf4jnsgd1na2vs0mg"},{"bike_id":"6a7ef2df-bee0-45b4-ba9f-5aa28bc98bf8","system_id":"levelo_inurba_marseille","lat":43.30138,"lon":5.37425,"is_reserved":false,"is_disabled":false,"rental_uris":{"android":"levelo://app?vid=6a7ef2df-bee0-45b4-ba9f-5aa28bc98bf8","ios":"levelo://app?vid=6a7ef2df-bee0-45b4-ba9f-5aa28bc98bf8"},"vehicle_type_id":"4","last_reported":1741853660,"current_range_meters":11200,"station_id":"ce4bgs92rcd13ifvqcc0","pricing_plan_id":"cebpf4jnsgd1na2vs0mg"},{"bike_id":"0d12cac5-ac93-4e98-ab85-ebb154e602cc","system_id":"levelo_inurba_marseille","lat":43.25001,"lon":5.38928,"is_reserved":false,"is_disabled":false,"rental_uris":{"android":"levelo://app?vid=0d12cac5-ac93-4e98-ab85-ebb154e602cc","ios":"levelo://app?vid=0d12cac5-ac93-4e98-ab85-ebb154e602cc"},"vehicle_type_id":"4","last_reported":1741853660,"current_range_meters":11200,"station_id":"ce4bhgp2rcd13ifvqfd0","pricing_plan_id":"cebpf4jnsgd1na2vs0mg"},{"bike_id":"def48294-1af4-47d0-9f7b-4ebb1b302cec","system_id":"levelo_inurba_marseille","lat":43.30953,"lon":5.39051,"is_reserved":false,"is_disabled":false,"rental_uris":{"android":"levelo://app?vid=def48294-1af4-47d0-9f7b-4ebb1b302cec","ios":"levelo://app?vid=def48294-1af4-47d0-9f7b-4ebb1b302cec"},"vehicle_type_id":"4","last_reported":1741853660,"current_range_meters":11200,"station_id":"ce4bgup2rcd13ifvqco0","pricing_plan_id":"cebpf4jnsgd1na2vs0mg"},{"bike_id":"f438bebd-934a-4d2d-a8e7-a3a7b53c0973","system_id":"levelo_inurba_marseille","lat":43.2559,"lon":5.38235,"is_reserved":false,"is_disabled":false,"rental_uris":{"android":"levelo://app?vid=f438bebd-934a-4d2d-a8e7-a3a7b53c0973","ios":"levelo://app?vid=f438bebd-934a-4d2d-a8e7-a3a7b53c0973"},"vehicle_type_id":"4","last_reported":1741853660,"current_range_meters":11200,"station_id":"ce4bhih2rcd13ifvqfs0","pricing_plan_id":"cebpf4jnsgd1na2vs0mg"},{"bike_id":"e3d7d1d0-3ed0-4598-a41b-15200e13c452","system_id":"levelo_inurba_marseille","lat":43.30423,"lon":5.39751,"is_reserved":false,"is_disabled":false,"rental_uris":{"android":"levelo://app?vid=e3d7d1d0-3ed0-4598-a41b-15200e13c452","ios":"levelo://app?vid=e3d7d1d0-3ed0-4598-a41b-15200e13c452"},"vehicle_type_id":"4","last_reported":1741853660,"current_range_meters":11200,"station_id":"ce4bh092rcd13ifvqd20","pricing_plan_id":"cebpf4jnsgd1na2vs0mg"},{"bike_id":"d1806d7e-7978-4890-b7f6-ffb20c0bc947","system_id":"levelo_inurba_marseille","lat":43.3046,"lon":5.37914,"is_reserved":false,"is_disabled":false,"rental_uris":{"android":"levelo://app?vid=d1806d7e-7978-4890-b7f6-ffb20c0bc947","ios":"levelo://app?vid=d1806d7e-7978-4890-b7f6-ffb20c0bc947"},"vehicle_type_id":"4","last_reported":1741853660,"current_range_meters":11600,"station_id":"ce4bgup2rcd13ifvqcn0","pricing_plan_id":"cebpf4jnsgd1na2vs0mg"},{"bike_id":"77335d10-3d27-49f6-a753-37a97a64e4c9","system_id":"levelo_inurba_marseille","lat":43.30891,"lon":5.37194,"is_reserved":false,"is_disabled":false,"rental_uris":{"android":"levelo://app?vid=77335d10-3d27-49f6-a753-37a97a64e4c9","ios":"levelo://app?vid=77335d10-3d27-49f6-a753-37a97a64e4c9"},"vehicle_type_id":"4","last_reported":1741853660,"current_range_meters":11200,"station_id":"ce4bguh2rcd13ifvqckg","pricing_plan_id":"cebpf4jnsgd1na2vs0mg"},{"bike_id":"7f0ce0ec-8eea-41e3-8a06-ee27854a7b0b","system_id":"levelo_inurba_marseille","lat":43.31208,"lon":5.36889,"is_reserved":false,"is_disabled":false,"rental_uris":{"android":"levelo://app?vid=7f0ce0ec-8eea-41e3-8a06-ee27854a7b0b","ios":"levelo://app?vid=7f0ce0ec-8eea-41e3-8a06-ee27854a7b0b"},"vehicle_type_id":"4","last_reported":1741853660,"current_range_meters":11600,"station_id":"ce4bgl92rcd13ifvqbq0","pricing_plan_id":"cebpf4jnsgd1na2vs0mg"},{"bike_id":"b9ee20c9-7960-4ab2-a782-8d2e35b8a040","system_id":"levelo_inurba_marseille","lat":43.29847,"lon":5.36281,"is_reserved":false,"is_disabled":false,"rental_uris":{"android":"levelo://app?vid=b9ee20c9-7960-4ab2-a782-8d2e35b8a040","ios":"levelo://app?vid=b9ee20c9-7960-4ab2-a782-8d2e35b8a040"},"vehicle_type_id":"4","last_reported":1741853660,"current_range_meters":11200,"station_id":"ce4bgpp2rcd13ifvqc3g","pricing_plan_id":"cebpf4jnsgd1na2vs0mg"},{"bike_id":"fd440347-0404-4c36-8fbe-7ebffd7a9e8f","system_id":"levelo_inurba_marseille","lat":43.33355,"lon":5.39616,"is_reserved":false,"is_disabled":false,"rental_uris":{"android":"levelo://app?vid=fd440347-0404-4c36-8fbe-7ebffd7a9e8f","ios":"levelo://app?vid=fd440347-0404-4c36-8fbe-7ebffd7a9e8f"},"vehicle_type_id":"4","last_reported":1741853660,"current_range_meters":11600,"station_id":"","pricing_plan_id":"cebpf4jnsgd1na2vs0mg"},{"bike_id":"894adb72-eba3-4c31-be33-a34cdb918fbd","system_id":"levelo_inurba_marseille","lat":43.25722,"lon":5.41097,"is_reserved":false,"is_disabled":false,"rental_uris":{"android":"levelo://app?vid=894adb72-eba3-4c31-be33-a34cdb918fbd","ios":"levelo://app?vid=894adb72-eba3-4c31-be33-a34cdb918fbd"},"vehicle_type_id":"4","last_reported":1741853660,"current_range_meters":11600,"station_id":"ce4bhkp2rcd13ifvqgd0","pricing_plan_id":"cebpf4jnsgd1na2vs0mg"},{"bike_id":"d1235ce3-1007-4d2d-9e28-ea39398a63a8","system_id":"levelo_inurba_marseille","lat":43.23202,"lon":5.35552,"is_reserved":false,"is_disabled":false,"rental_uris":{"android":"levelo://app?vid=d1235ce3-1007-4d2d-9e28-ea39398a63a8","ios":"levelo://app?vid=d1235ce3-1007-4d2d-9e28-ea39398a63a8"},"vehicle_type_id":"4","last_reported":1741853660,"current_range_meters":11600,"station_id":"ce4bhu92rcd13ifvqi70","pricing_plan_id":"cebpf4jnsgd1na2vs0mg"},{"bike_id":"0aa8d39e-dd7d-4f93-aefc-b68b76801a2e","system_id":"levelo_inurba_marseille","lat":43.29285,"lon":5.40124,"is_reserved":false,"is_disabled":false,"rental_uris":{"android":"levelo://app?vid=0aa8d39e-dd7d-4f93-aefc-b68b76801a2e","ios":"levelo://app?vid=0aa8d39e-dd7d-4f93-aefc-b68b76801a2e"},"vehicle_type_id":"4","last_reported":1741853660,"current_range_meters":11600,"station_id":"ce4bh312rcd13ifvqdk0","pricing_plan_id":"cebpf4jnsgd1na2vs0mg"},{"bike_id":"cfacb6ce-03b7-4545-87ac-7ab9550643b3","system_id":"levelo_inurba_marseille","lat":43.331058,"lon":5.382154,"is_reserved":false,"is_disabled":false,"rental_uris":{"android":"levelo://app?vid=cfacb6ce-03b7-4545-87ac-7ab9550643b3","ios":"levelo://app?vid=cfacb6ce-03b7-4545-87ac-7ab9550643b3"},"vehicle_type_id":"4","last_reported":1741853660,"current_range_meters":11600,"station_id":"","pricing_plan_id":"cebpf4jnsgd1na2vs0mg"},{"bike_id":"1efceb48-d7ef-415f-ac6d-36ef417bc99c","system_id":"levelo_inurba_marseille","lat":43.27493,"lon":5.42456,"is_reserved":false,"is_disabled":false,"rental_uris":{"android":"levelo://app?vid=1efceb48-d7ef-415f-ac6d-36ef417bc99c","ios":"levelo://app?vid=1efceb48-d7ef-415f-ac6d-36ef417bc99c"},"vehicle_type_id":"4","last_reported":1741853660,"current_range_meters":11600,"station_id":"ce4bhn92rcd13ifvqgrg","pricing_plan_id":"cebpf4jnsgd1na2vs0mg"},{"bike_id":"a823fe98-0845-44f0-af70-a3e75e70ed04","system_id":"levelo_inurba_marseille","lat":43.25003,"lon":5.38925,"is_reserved":false,"is_disabled":false,"rental_uris":{"android":"levelo://app?vid=a823fe98-0845-44f0-af70-a3e75e70ed04","ios":"levelo://app?vid=a823fe98-0845-44f0-af70-a3e75e70ed04"},"vehicle_type_id":"4","last_reported":1741853660,"current_range_meters":12000,"station_id":"ce4bhgp2rcd13ifvqfd0","pricing_plan_id":"cebpf4jnsgd1na2vs0mg"},{"bike_id":"94b30f95-19e8-4b24-809a-d279976d82ea","system_id":"levelo_inurba_marseille","lat":43.313726,"lon":5.396395,"is_reserved":false,"is_disabled":false,"rental_uris":{"android":"levelo://app?vid=94b30f95-19e8-4b24-809a-d279976d82ea","ios":"levelo://app?vid=94b30f95-19e8-4b24-809a-d279976d82ea"},"vehicle_type_id":"4","last_reported":1741853660,"current_range_meters":12000,"station_id":"","pricing_plan_id":"cebpf4jnsgd1na2vs0mg"},{"bike_id":"16e3afe0-cf85-410c-88a0-8e337726a46a","system_id":"levelo_inurba_marseille","lat":43.26667,"lon":5.3861,"is_reserved":false,"is_disabled":false,"rental_uris":{"android":"levelo://app?vid=16e3afe0-cf85-410c-88a0-8e337726a46a","ios":"levelo://app?vid=16e3afe0-cf85-410c-88a0-8e337726a46a"},"vehicle_type_id":"4","last_reported":1741853660,"current_range_meters":12000,"station_id":"","pricing_plan_id":"cebpf4jnsgd1na2vs0mg"},{"bike_id":"f550acae-a478-493d-8418-eb4ab17dc323","system_id":"levelo_inurba_marseille","lat":43.25019,"lon":5.3892,"is_reserved":false,"is_disabled":false,"rental_uris":{"android":"levelo://app?vid=f550acae-a478-493d-8418-eb4ab17dc323","ios":"levelo://app?vid=f550acae-a478-493d-8418-eb4ab17dc323"},"vehicle_type_id":"4","last_reported":1741853660,"current_range_meters":12000,"station_id":"ce4bhgp2rcd13ifvqfd0","pricing_plan_id":"cebpf4jnsgd1na2vs0mg"},{"bike_id":"eb481620-a321-4924-a486-d2adcb9314c9","system_id":"levelo_inurba_marseille","lat":43.23155,"lon":5.43715,"is_reserved":false,"is_disabled":false,"rental_uris":{"android":"levelo://app?vid=eb481620-a321-4924-a486-d2adcb9314c9","ios":"levelo://app?vid=eb481620-a321-4924-a486-d2adcb9314c9"},"vehicle_type_id":"4","last_reported":1741853660,"current_range_meters":12000,"station_id":"ce4bhmp2rcd13ifvqgog","pricing_plan_id":"cebpf4jnsgd1na2vs0mg"},{"bike_id":"6e709a37-d120-41cd-899c-df06670f22de","system_id":"levelo_inurba_marseille","lat":43.31356,"lon":5.36747,"is_reserved":false,"is_disabled":false,"rental_uris":{"android":"levelo://app?vid=6e709a37-d120-41cd-899c-df06670f22de","ios":"levelo://app?vid=6e709a37-d120-41cd-899c-df06670f22de"},"vehicle_type_id":"4","last_reported":1741853660,"current_range_meters":12400,"station_id":"ce4bgr92rcd13ifvqc6g","pricing_plan_id":"cebpf4jnsgd1na2vs0mg"},{"bike_id":"6a01bcd6-d597-43ea-9f33-f612ae30f0a5","system_id":"levelo_inurba_marseille","lat":43.31479,"lon":5.37312,"is_reserved":false,"is_disabled":false,"rental_uris":{"android":"levelo://app?vid=6a01bcd6-d597-43ea-9f33-f612ae30f0a5","ios":"levelo://app?vid=6a01bcd6-d597-43ea-9f33-f612ae30f0a5"},"vehicle_type_id":"4","last_reported":1741853660,"current_range_meters":12400,"station_id":"ce4bgt12rcd13ifvqcd0","pricing_plan_id":"cebpf4jnsgd1na2vs0mg"},{"bike_id":"3b4a97c4-2cbf-4ef1-9e91-5c2d43a67ce4","system_id":"levelo_inurba_marseille","lat":43.29915,"lon":5.37474,"is_reserved":false,"is_disabled":false,"rental_uris":{"android":"levelo://app?vid=3b4a97c4-2cbf-4ef1-9e91-5c2d43a67ce4","ios":"levelo://app?vid=3b4a97c4-2cbf-4ef1-9e91-5c2d43a67ce4"},"vehicle_type_id":"4","last_reported":1741853660,"current_range_meters":12400,"station_id":"ce4bgjh2rcd13ifvqbg0","pricing_plan_id":"cebpf4jnsgd1na2vs0mg"},{"bike_id":"dda51d62-2d2e-458d-8437-26d04474c025","system_id":"levelo_inurba_marseille","lat":43.30098,"lon":5.3908,"is_reserved":false,"is_disabled":false,"rental_uris":{"android":"levelo://app?vid=dda51d62-2d2e-458d-8437-26d04474c025","ios":"levelo://app?vid=dda51d62-2d2e-458d-8437-26d04474c025"},"vehicle_type_id":"4","last_reported":1741853660,"current_range_meters":12400,"station_id":"ce4bh192rcd13ifvqdb0","pricing_plan_id":"cebpf4jnsgd1na2vs0mg"},{"bike_id":"1789fff5-1f9f-41e4-876c-54bb6ef81f84","system_id":"levelo_inurba_marseille","lat":43.29495,"lon":5.38655,"is_reserved":false,"is_disabled":false,"rental_uris":{"android":"levelo://app?vid=1789fff5-1f9f-41e4-876c-54bb6ef81f84","ios":"levelo://app?vid=1789fff5-1f9f-41e4-876c-54bb6ef81f84"},"vehicle_type_id":"4","last_reported":1741853660,"current_range_meters":12400,"station_id":"","pricing_plan_id":"cebpf4jnsgd1na2vs0mg"},{"bike_id":"8855e915-3a00-4019-a562-00b7c10dc412","system_id":"levelo_inurba_marseille","lat":43.25721,"lon":5.41109,"is_reserved":false,"is_disabled":false,"rental_uris":{"android":"levelo://app?vid=8855e915-3a00-4019-a562-00b7c10dc412","ios":"levelo://app?vid=8855e915-3a00-4019-a562-00b7c10dc412"},"vehicle_type_id":"4","last_reported":1741853660,"current_range_meters":12800,"station_id":"ce4bhkp2rcd13ifvqgd0","pricing_plan_id":"cebpf4jnsgd1na2vs0mg"},{"bike_id":"43b9417f-2357-4e62-8fa4-f74f14dfdba3","system_id":"levelo_inurba_marseille","lat":43.309241,"lon":5.368002,"is_reserved":false,"is_disabled":false,"rental_uris":{"android":"levelo://app?vid=43b9417f-2357-4e62-8fa4-f74f14dfdba3","ios":"levelo://app?vid=43b9417f-2357-4e62-8fa4-f74f14dfdba3"},"vehicle_type_id":"4","last_reported":1741853660,"current_range_meters":12800,"station_id":"","pricing_plan_id":"cebpf4jnsgd1na2vs0mg"},{"bike_id":"bfa59efa-4af2-4614-ac50-b9e432de1969","system_id":"levelo_inurba_marseille","lat":43.3108,"lon":5.42437,"is_reserved":false,"is_disabled":false,"rental_uris":{"android":"levelo://app?vid=bfa59efa-4af2-4614-ac50-b9e432de1969","ios":"levelo://app?vid=bfa59efa-4af2-4614-ac50-b9e432de1969"},"vehicle_type_id":"4","last_reported":1741853660,"current_range_meters":10800,"station_id":"ce4bhp92rcd13ifvqhag","pricing_plan_id":"cebpf4jnsgd1na2vs0mg"},{"bike_id":"478c6b7e-c9f5-4336-b301-c63c8b41ef49","system_id":"levelo_inurba_marseille","lat":43.31157,"lon":5.40212,"is_reserved":false,"is_disabled":false,"rental_uris":{"android":"levelo://app?vid=478c6b7e-c9f5-4336-b301-c63c8b41ef49","ios":"levelo://app?vid=478c6b7e-c9f5-4336-b301-c63c8b41ef49"},"vehicle_type_id":"4","last_reported":1741853660,"current_range_meters":12800,"station_id":"","pricing_plan_id":"cebpf4jnsgd1na2vs0mg"},{"bike_id":"9f260f59-22bd-46b1-85d9-b6b4b5fd2f82","system_id":"levelo_inurba_marseille","lat":43.2594,"lon":5.40902,"is_reserved":false,"is_disabled":false,"rental_uris":{"android":"levelo://app?vid=9f260f59-22bd-46b1-85d9-b6b4b5fd2f82","ios":"levelo://app?vid=9f260f59-22bd-46b1-85d9-b6b4b5fd2f82"},"vehicle_type_id":"4","last_reported":1741853660,"current_range_meters":12800,"station_id":"ce4bhm92rcd13ifvqglg","pricing_plan_id":"cebpf4jnsgd1na2vs0mg"},{"bike_id":"b82ce96a-e071-4177-80d3-afcff4e82b19","system_id":"levelo_inurba_marseille","lat":43.25933,"lon":5.40893,"is_reserved":false,"is_disabled":false,"rental_uris":{"android":"levelo://app?vid=b82ce96a-e071-4177-80d3-afcff4e82b19","ios":"levelo://app?vid=b82ce96a-e071-4177-80d3-afcff4e82b19"},"vehicle_type_id":"4","last_reported":1741853660,"current_range_meters":13600,"station_id":"ce4bhm92rcd13ifvqglg","pricing_plan_id":"cebpf4jnsgd1na2vs0mg"},{"bike_id":"e403288d-b468-4ea8-b33d-644efb4c82c2","system_id":"levelo_inurba_marseille","lat":43.27798,"lon":5.40731,"is_reserved":false,"is_disabled":false,"rental_uris":{"android":"levelo://app?vid=e403288d-b468-4ea8-b33d-644efb4c82c2","ios":"levelo://app?vid=e403288d-b468-4ea8-b33d-644efb4c82c2"},"vehicle_type_id":"4","last_reported":1741853660,"current_range_meters":13600,"station_id":"ce4bhnh2rcd13ifvqgtg","pricing_plan_id":"cebpf4jnsgd1na2vs0mg"},{"bike_id":"70a53264-8bbe-452e-8c7e-ee5964d8270a","system_id":"levelo_inurba_marseille","lat":43.24047,"lon":5.37746,"is_reserved":false,"is_disabled":false,"rental_uris":{"android":"levelo://app?vid=70a53264-8bbe-452e-8c7e-ee5964d8270a","ios":"levelo://app?vid=70a53264-8bbe-452e-8c7e-ee5964d8270a"},"vehicle_type_id":"4","last_reported":1741853660,"current_range_meters":13600,"station_id":"ce4bhnp2rcd13ifvqgvg","pricing_plan_id":"cebpf4jnsgd1na2vs0mg"},{"bike_id":"2bf59e4a-3e11-4be5-a809-5021b4e8464f","system_id":"levelo_inurba_marseille","lat":43.30544,"lon":5.36701,"is_reserved":false,"is_disabled":false,"rental_uris":{"android":"levelo://app?vid=2bf59e4a-3e11-4be5-a809-5021b4e8464f","ios":"levelo://app?vid=2bf59e4a-3e11-4be5-a809-5021b4e8464f"},"vehicle_type_id":"4","last_reported":1741853660,"current_range_meters":13600,"station_id":"ce4bgrp2rcd13ifvqc9g","pricing_plan_id":"cebpf4jnsgd1na2vs0mg"},{"bike_id":"d499aa7d-37fe-4efe-8d86-7fc011ad17ad","system_id":"levelo_inurba_marseille","lat":43.23058,"lon":5.35492,"is_reserved":false,"is_disabled":false,"rental_uris":{"android":"levelo://app?vid=d499aa7d-37fe-4efe-8d86-7fc011ad17ad","ios":"levelo://app?vid=d499aa7d-37fe-4efe-8d86-7fc011ad17ad"},"vehicle_type_id":"4","last_reported":1741853660,"current_range_meters":13600,"station_id":"cpo3342slgdg3j2ifvpg","pricing_plan_id":"cebpf4jnsgd1na2vs0mg"},{"bike_id":"cecedfc4-0296-4a79-b649-589328e39bd3","system_id":"levelo_inurba_marseille","lat":43.24146,"lon":5.39718,"is_reserved":false,"is_disabled":false,"rental_uris":{"android":"levelo://app?vid=cecedfc4-0296-4a79-b649-589328e39bd3","ios":"levelo://app?vid=cecedfc4-0296-4a79-b649-589328e39bd3"},"vehicle_type_id":"4","last_reported":1741853660,"current_range_meters":13600,"station_id":"ce4bhn12rcd13ifvqgpg","pricing_plan_id":"cebpf4jnsgd1na2vs0mg"},{"bike_id":"909e037c-5e8b-42ea-b90c-fd33ecc7d0b5","system_id":"levelo_inurba_marseille","lat":43.28315,"lon":5.38622,"is_reserved":false,"is_disabled":false,"rental_uris":{"android":"levelo://app?vid=909e037c-5e8b-42ea-b90c-fd33ecc7d0b5","ios":"levelo://app?vid=909e037c-5e8b-42ea-b90c-fd33ecc7d0b5"},"vehicle_type_id":"4","last_reported":1741853660,"current_range_meters":13600,"station_id":"ce4bht12rcd13ifvqi60","pricing_plan_id":"cebpf4jnsgd1na2vs0mg"},{"bike_id":"c93d9ff5-8377-4e06-9a86-607b627e8059","system_id":"levelo_inurba_marseille","lat":43.31713,"lon":5.37775,"is_reserved":false,"is_disabled":false,"rental_uris":{"android":"levelo://app?vid=c93d9ff5-8377-4e06-9a86-607b627e8059","ios":"levelo://app?vid=c93d9ff5-8377-4e06-9a86-607b627e8059"},"vehicle_type_id":"4","last_reported":1741853660,"current_range_meters":14000,"station_id":"ce4bgth2rcd13ifvqch0","pricing_plan_id":"cebpf4jnsgd1na2vs0mg"},{"bike_id":"225b47b0-f743-470b-a9e7-df50514a9150","system_id":"levelo_inurba_marseille","lat":43.30611,"lon":5.37243,"is_reserved":false,"is_disabled":false,"rental_uris":{"android":"levelo://app?vid=225b47b0-f743-470b-a9e7-df50514a9150","ios":"levelo://app?vid=225b47b0-f743-470b-a9e7-df50514a9150"},"vehicle_type_id":"4","last_reported":1741853660,"current_range_meters":14000,"station_id":"ce4bgqh2rcd13ifvqc4g","pricing_plan_id":"cebpf4jnsgd1na2vs0mg"},{"bike_id":"8335284d-d42e-4b5a-a9eb-47108c3d7a96","system_id":"levelo_inurba_marseille","lat":43.27947,"lon":5.41057,"is_reserved":false,"is_disabled":false,"rental_uris":{"android":"levelo://app?vid=8335284d-d42e-4b5a-a9eb-47108c3d7a96","ios":"levelo://app?vid=8335284d-d42e-4b5a-a9eb-47108c3d7a96"},"vehicle_type_id":"4","last_reported":1741853660,"current_range_meters":14000,"station_id":"ce4bhnp2rcd13ifvqh0g","pricing_plan_id":"cebpf4jnsgd1na2vs0mg"},{"bike_id":"7310843e-a1ca-4e8e-8341-0a49e9bf09ea","system_id":"levelo_inurba_marseille","lat":43.29051,"lon":5.39949,"is_reserved":false,"is_disabled":false,"rental_uris":{"android":"levelo://app?vid=7310843e-a1ca-4e8e-8341-0a49e9bf09ea","ios":"levelo://app?vid=7310843e-a1ca-4e8e-8341-0a49e9bf09ea"},"vehicle_type_id":"4","last_reported":1741853660,"current_range_meters":14000,"station_id":"ce4bh392rcd13ifvqdm0","pricing_plan_id":"cebpf4jnsgd1na2vs0mg"},{"bike_id":"25b758c5-73c8-42c3-86d3-dad2d21fa96d","system_id":"levelo_inurba_marseille","lat":43.30889,"lon":5.36852,"is_reserved":false,"is_disabled":false,"rental_uris":{"android":"levelo://app?vid=25b758c5-73c8-42c3-86d3-dad2d21fa96d","ios":"levelo://app?vid=25b758c5-73c8-42c3-86d3-dad2d21fa96d"},"vehicle_type_id":"4","last_reported":1741853660,"current_range_meters":14000,"station_id":"ce4bgn92rcd13ifvqbvg","pricing_plan_id":"cebpf4jnsgd1na2vs0mg"},{"bike_id":"f3291a48-4171-4dd1-b341-037b6e6f6b32","system_id":"levelo_inurba_marseille","lat":43.283423,"lon":5.381091,"is_reserved":false,"is_disabled":true,"rental_uris":{"android":"levelo://app?vid=f3291a48-4171-4dd1-b341-037b6e6f6b32","ios":"levelo://app?vid=f3291a48-4171-4dd1-b341-037b6e6f6b32"},"vehicle_type_id":"4","last_reported":1741853660,"current_range_meters":14000,"station_id":"ce4bh412rcd13ifvqdr0","pricing_plan_id":"cebpf4jnsgd1na2vs0mg"},{"bike_id":"ea5b0a2c-18c8-42ea-8f81-4759c53e4b40","system_id":"levelo_inurba_marseille","lat":43.28713,"lon":5.37406,"is_reserved":false,"is_disabled":false,"rental_uris":{"android":"levelo://app?vid=ea5b0a2c-18c8-42ea-8f81-4759c53e4b40","ios":"levelo://app?vid=ea5b0a2c-18c8-42ea-8f81-4759c53e4b40"},"vehicle_type_id":"4","last_reported":1741853660,"current_range_meters":14000,"station_id":"ce4bh3p2rcd13ifvqdq0","pricing_plan_id":"cebpf4jnsgd1na2vs0mg"},{"bike_id":"a1b2a85a-4578-4607-a24a-7c4987c5260c","system_id":"levelo_inurba_marseille","lat":43.24077,"lon":5.37751,"is_reserved":false,"is_disabled":false,"rental_uris":{"android":"levelo://app?vid=a1b2a85a-4578-4607-a24a-7c4987c5260c","ios":"levelo://app?vid=a1b2a85a-4578-4607-a24a-7c4987c5260c"},"vehicle_type_id":"4","last_reported":1741853660,"current_range_meters":14000,"station_id":"ce4bhnp2rcd13ifvqgvg","pricing_plan_id":"cebpf4jnsgd1na2vs0mg"},{"bike_id":"afb6877c-28ef-4d4c-9a07-856fbdf1fd31","system_id":"levelo_inurba_marseille","lat":43.29931,"lon":5.36548,"is_reserved":false,"is_disabled":false,"rental_uris":{"android":"levelo://app?vid=afb6877c-28ef-4d4c-9a07-856fbdf1fd31","ios":"levelo://app?vid=afb6877c-28ef-4d4c-9a07-856fbdf1fd31"},"vehicle_type_id":"4","last_reported":1741853660,"current_range_meters":14000,"station_id":"ce4bgm92rcd13ifvqbr0","pricing_plan_id":"cebpf4jnsgd1na2vs0mg"},{"bike_id":"027f9ac2-ffe2-4b05-8ad4-32ae7c263703","system_id":"levelo_inurba_marseille","lat":43.309525,"lon":5.367219,"is_reserved":false,"is_disabled":false,"rental_uris":{"android":"levelo://app?vid=027f9ac2-ffe2-4b05-8ad4-32ae7c263703","ios":"levelo://app?vid=027f9ac2-ffe2-4b05-8ad4-32ae7c263703"},"vehicle_type_id":"4","last_reported":1741853660,"current_range_meters":14400,"station_id":"ce4bgr92rcd13ifvqc6g","pricing_plan_id":"cebpf4jnsgd1na2vs0mg"},{"bike_id":"74bfd691-451a-4e94-9552-af399a001409","system_id":"levelo_inurba_marseille","lat":43.31102,"lon":5.42439,"is_reserved":false,"is_disabled":false,"rental_uris":{"android":"levelo://app?vid=74bfd691-451a-4e94-9552-af399a001409","ios":"levelo://app?vid=74bfd691-451a-4e94-9552-af399a001409"},"vehicle_type_id":"4","last_reported":1741853660,"current_range_meters":14800,"station_id":"ce4bhp92rcd13ifvqhag","pricing_plan_id":"cebpf4jnsgd1na2vs0mg"},{"bike_id":"a66124cb-566a-4d33-93d8-1c0403fb5851","system_id":"levelo_inurba_marseille","lat":43.32741,"lon":5.39233,"is_reserved":false,"is_disabled":false,"rental_uris":{"android":"levelo://app?vid=a66124cb-566a-4d33-93d8-1c0403fb5851","ios":"levelo://app?vid=a66124cb-566a-4d33-93d8-1c0403fb5851"},"vehicle_type_id":"4","last_reported":1741853660,"current_range_meters":14400,"station_id":"","pricing_plan_id":"cebpf4jnsgd1na2vs0mg"},{"bike_id":"e7d9823d-900a-4c17-b02f-a50236e6a928","system_id":"levelo_inurba_marseille","lat":43.24092,"lon":5.37771,"is_reserved":false,"is_disabled":false,"rental_uris":{"android":"levelo://app?vid=e7d9823d-900a-4c17-b02f-a50236e6a928","ios":"levelo://app?vid=e7d9823d-900a-4c17-b02f-a50236e6a928"},"vehicle_type_id":"4","last_reported":1741853660,"current_range_meters":14400,"station_id":"ce4bhnp2rcd13ifvqgvg","pricing_plan_id":"cebpf4jnsgd1na2vs0mg"},{"bike_id":"44589c34-8c32-4ea0-a7e2-cc6ddbabde86","system_id":"levelo_inurba_marseille","lat":43.29859,"lon":5.36295,"is_reserved":false,"is_disabled":false,"rental_uris":{"android":"levelo://app?vid=44589c34-8c32-4ea0-a7e2-cc6ddbabde86","ios":"levelo://app?vid=44589c34-8c32-4ea0-a7e2-cc6ddbabde86"},"vehicle_type_id":"4","last_reported":1741853660,"current_range_meters":14400,"station_id":"ce4bgpp2rcd13ifvqc3g","pricing_plan_id":"cebpf4jnsgd1na2vs0mg"},{"bike_id":"e3565dcf-4d34-49d7-919b-1234920ea466","system_id":"levelo_inurba_marseille","lat":43.33746,"lon":5.3745,"is_reserved":false,"is_disabled":false,"rental_uris":{"android":"levelo://app?vid=e3565dcf-4d34-49d7-919b-1234920ea466","ios":"levelo://app?vid=e3565dcf-4d34-49d7-919b-1234920ea466"},"vehicle_type_id":"4","last_reported":1741853660,"current_range_meters":14400,"station_id":"","pricing_plan_id":"cebpf4jnsgd1na2vs0mg"},{"bike_id":"23ffb693-f8a3-4b81-9d46-b3f07ffce80d","system_id":"levelo_inurba_marseille","lat":43.30111,"lon":5.37447,"is_reserved":false,"is_disabled":false,"rental_uris":{"android":"levelo://app?vid=23ffb693-f8a3-4b81-9d46-b3f07ffce80d","ios":"levelo://app?vid=23ffb693-f8a3-4b81-9d46-b3f07ffce80d"},"vehicle_type_id":"4","last_reported":1741853660,"current_range_meters":14800,"station_id":"ce4bgs92rcd13ifvqcc0","pricing_plan_id":"cebpf4jnsgd1na2vs0mg"},{"bike_id":"e9c9c9b7-1c7f-4a37-b0f7-25d72495c050","system_id":"levelo_inurba_marseille","lat":43.30155,"lon":5.38086,"is_reserved":false,"is_disabled":false,"rental_uris":{"android":"levelo://app?vid=e9c9c9b7-1c7f-4a37-b0f7-25d72495c050","ios":"levelo://app?vid=e9c9c9b7-1c7f-4a37-b0f7-25d72495c050"},"vehicle_type_id":"4","last_reported":1741853660,"current_range_meters":14800,"station_id":"ce4bgjp2rcd13ifvqbh0","pricing_plan_id":"cebpf4jnsgd1na2vs0mg"},{"bike_id":"ef3795b7-4cf8-45c2-aad4-bdec14eb51a9","system_id":"levelo_inurba_marseille","lat":43.30562,"lon":5.36696,"is_reserved":false,"is_disabled":false,"rental_uris":{"android":"levelo://app?vid=ef3795b7-4cf8-45c2-aad4-bdec14eb51a9","ios":"levelo://app?vid=ef3795b7-4cf8-45c2-aad4-bdec14eb51a9"},"vehicle_type_id":"4","last_reported":1741853660,"current_range_meters":14800,"station_id":"ce4bgrp2rcd13ifvqc9g","pricing_plan_id":"cebpf4jnsgd1na2vs0mg"},{"bike_id":"8f81d07b-74f3-4217-9d5b-4bfebf018a20","system_id":"levelo_inurba_marseille","lat":43.24069,"lon":5.37719,"is_reserved":false,"is_disabled":false,"rental_uris":{"android":"levelo://app?vid=8f81d07b-74f3-4217-9d5b-4bfebf018a20","ios":"levelo://app?vid=8f81d07b-74f3-4217-9d5b-4bfebf018a20"},"vehicle_type_id":"4","last_reported":1741853660,"current_range_meters":14800,"station_id":"ce4bhnp2rcd13ifvqgvg","pricing_plan_id":"cebpf4jnsgd1na2vs0mg"},{"bike_id":"19bd09af-f384-4439-9af7-eaeeec906093","system_id":"levelo_inurba_marseille","lat":43.33601,"lon":5.41035,"is_reserved":false,"is_disabled":false,"rental_uris":{"android":"levelo://app?vid=19bd09af-f384-4439-9af7-eaeeec906093","ios":"levelo://app?vid=19bd09af-f384-4439-9af7-eaeeec906093"},"vehicle_type_id":"4","last_reported":1741853660,"current_range_meters":14800,"station_id":"ce4bhqh2rcd13ifvqhmg","pricing_plan_id":"cebpf4jnsgd1na2vs0mg"},{"bike_id":"bd619a36-f1d3-4aef-bc4e-de195403abb2","system_id":"levelo_inurba_marseille","lat":43.299646,"lon":5.413326,"is_reserved":false,"is_disabled":false,"rental_uris":{"android":"levelo://app?vid=bd619a36-f1d3-4aef-bc4e-de195403abb2","ios":"levelo://app?vid=bd619a36-f1d3-4aef-bc4e-de195403abb2"},"vehicle_type_id":"4","last_reported":1741853660,"current_range_meters":14800,"station_id":"ce4bhp12rcd13ifvqh9g","pricing_plan_id":"cebpf4jnsgd1na2vs0mg"},{"bike_id":"baff65ea-d9ea-40a6-bc8d-69417959834f","system_id":"levelo_inurba_marseille","lat":43.29037,"lon":5.39962,"is_reserved":false,"is_disabled":false,"rental_uris":{"android":"levelo://app?vid=baff65ea-d9ea-40a6-bc8d-69417959834f","ios":"levelo://app?vid=baff65ea-d9ea-40a6-bc8d-69417959834f"},"vehicle_type_id":"4","last_reported":1741853660,"current_range_meters":14800,"station_id":"ce4bh392rcd13ifvqdm0","pricing_plan_id":"cebpf4jnsgd1na2vs0mg"},{"bike_id":"f3270881-6269-49ee-ab34-f91d841ff0a7","system_id":"levelo_inurba_marseille","lat":43.248639,"lon":5.406547,"is_reserved":false,"is_disabled":false,"rental_uris":{"android":"levelo://app?vid=f3270881-6269-49ee-ab34-f91d841ff0a7","ios":"levelo://app?vid=f3270881-6269-49ee-ab34-f91d841ff0a7"},"vehicle_type_id":"4","last_reported":1741853660,"current_range_meters":14800,"station_id":"","pricing_plan_id":"cebpf4jnsgd1na2vs0mg"},{"bike_id":"5fe625cb-069f-4abe-b76e-b5e8756ab9ce","system_id":"levelo_inurba_marseille","lat":43.31709,"lon":5.37755,"is_reserved":false,"is_disabled":false,"rental_uris":{"android":"levelo://app?vid=5fe625cb-069f-4abe-b76e-b5e8756ab9ce","ios":"levelo://app?vid=5fe625cb-069f-4abe-b76e-b5e8756ab9ce"},"vehicle_type_id":"4","last_reported":1741853660,"current_range_meters":14800,"station_id":"ce4bgth2rcd13ifvqch0","pricing_plan_id":"cebpf4jnsgd1na2vs0mg"},{"bike_id":"12fc2ce9-9dd7-40d2-9aa3-8a250de09b31","system_id":"levelo_inurba_marseille","lat":43.26689,"lon":5.38276,"is_reserved":false,"is_disabled":false,"rental_uris":{"android":"levelo://app?vid=12fc2ce9-9dd7-40d2-9aa3-8a250de09b31","ios":"levelo://app?vid=12fc2ce9-9dd7-40d2-9aa3-8a250de09b31"},"vehicle_type_id":"4","last_reported":1741853660,"current_range_meters":15200,"station_id":"ce4bhg92rcd13ifvqf90","pricing_plan_id":"cebpf4jnsgd1na2vs0mg"},{"bike_id":"9ac5e7d6-9381-45da-a3f7-1bef99cf2b34","system_id":"levelo_inurba_marseille","lat":43.30419,"lon":5.38888,"is_reserved":false,"is_disabled":false,"rental_uris":{"android":"levelo://app?vid=9ac5e7d6-9381-45da-a3f7-1bef99cf2b34","ios":"levelo://app?vid=9ac5e7d6-9381-45da-a3f7-1bef99cf2b34"},"vehicle_type_id":"4","last_reported":1741853660,"current_range_meters":15200,"station_id":"ce4bgk12rcd13ifvqbi0","pricing_plan_id":"cebpf4jnsgd1na2vs0mg"},{"bike_id":"6963eebe-2196-4471-a653-1e7e827e8ce0","system_id":"levelo_inurba_marseille","lat":43.30296,"lon":5.40151,"is_reserved":false,"is_disabled":true,"rental_uris":{"android":"levelo://app?vid=6963eebe-2196-4471-a653-1e7e827e8ce0","ios":"levelo://app?vid=6963eebe-2196-4471-a653-1e7e827e8ce0"},"vehicle_type_id":"4","last_reported":1741853660,"current_range_meters":16000,"station_id":"","pricing_plan_id":"cebpf4jnsgd1na2vs0mg"},{"bike_id":"59a8aa3c-d895-4648-b55e-514d6a5d2d2b","system_id":"levelo_inurba_marseille","lat":43.3046,"lon":5.37908,"is_reserved":false,"is_disabled":false,"rental_uris":{"android":"levelo://app?vid=59a8aa3c-d895-4648-b55e-514d6a5d2d2b","ios":"levelo://app?vid=59a8aa3c-d895-4648-b55e-514d6a5d2d2b"},"vehicle_type_id":"4","last_reported":1741853660,"current_range_meters":15200,"station_id":"ce4bgup2rcd13ifvqcn0","pricing_plan_id":"cebpf4jnsgd1na2vs0mg"},{"bike_id":"b0a1739b-5fbc-47c1-a250-d773e52344ad","system_id":"levelo_inurba_marseille","lat":43.25087,"lon":5.41072,"is_reserved":false,"is_disabled":false,"rental_uris":{"android":"levelo://app?vid=b0a1739b-5fbc-47c1-a250-d773e52344ad","ios":"levelo://app?vid=b0a1739b-5fbc-47c1-a250-d773e52344ad"},"vehicle_type_id":"4","last_reported":1741853660,"current_range_meters":16000,"station_id":"","pricing_plan_id":"cebpf4jnsgd1na2vs0mg"},{"bike_id":"9aa6d630-446c-4daf-8886-0710d80499f7","system_id":"levelo_inurba_marseille","lat":43.27497,"lon":5.42454,"is_reserved":false,"is_disabled":false,"rental_uris":{"android":"levelo://app?vid=9aa6d630-446c-4daf-8886-0710d80499f7","ios":"levelo://app?vid=9aa6d630-446c-4daf-8886-0710d80499f7"},"vehicle_type_id":"4","last_reported":1741853660,"current_range_meters":13600,"station_id":"ce4bhn92rcd13ifvqgrg","pricing_plan_id":"cebpf4jnsgd1na2vs0mg"},{"bike_id":"74e3fa8e-c88d-4993-b957-30cabff8c92d","system_id":"levelo_inurba_marseille","lat":43.30555,"lon":5.36557,"is_reserved":false,"is_disabled":false,"rental_uris":{"android":"levelo://app?vid=74e3fa8e-c88d-4993-b957-30cabff8c92d","ios":"levelo://app?vid=74e3fa8e-c88d-4993-b957-30cabff8c92d"},"vehicle_type_id":"4","last_reported":1741853660,"current_range_meters":16000,"station_id":"ce4bgs12rcd13ifvqcag","pricing_plan_id":"cebpf4jnsgd1na2vs0mg"},{"bike_id":"b56d06a1-945c-441e-8752-699088aeeae9","system_id":"levelo_inurba_marseille","lat":43.29937,"lon":5.4367,"is_reserved":false,"is_disabled":false,"rental_uris":{"android":"levelo://app?vid=b56d06a1-945c-441e-8752-699088aeeae9","ios":"levelo://app?vid=b56d06a1-945c-441e-8752-699088aeeae9"},"vehicle_type_id":"4","last_reported":1741853660,"current_range_meters":16000,"station_id":"","pricing_plan_id":"cebpf4jnsgd1na2vs0mg"},{"bike_id":"d5b500f5-745a-4606-aa20-fe859e48a3eb","system_id":"levelo_inurba_marseille","lat":43.29898,"lon":5.4368,"is_reserved":false,"is_disabled":false,"rental_uris":{"android":"levelo://app?vid=d5b500f5-745a-4606-aa20-fe859e48a3eb","ios":"levelo://app?vid=d5b500f5-745a-4606-aa20-fe859e48a3eb"},"vehicle_type_id":"4","last_reported":1741853660,"current_range_meters":16000,"station_id":"ce4bhpp2rcd13ifvqhfg","pricing_plan_id":"cebpf4jnsgd1na2vs0mg"},{"bike_id":"afaf4387-b718-48a1-84c0-3f0669b200da","system_id":"levelo_inurba_marseille","lat":43.29568,"lon":5.42291,"is_reserved":false,"is_disabled":false,"rental_uris":{"android":"levelo://app?vid=afaf4387-b718-48a1-84c0-3f0669b200da","ios":"levelo://app?vid=afaf4387-b718-48a1-84c0-3f0669b200da"},"vehicle_type_id":"4","last_reported":1741853660,"current_range_meters":16000,"station_id":"ce4bhph2rcd13ifvqhdg","pricing_plan_id":"cebpf4jnsgd1na2vs0mg"},