{"last_updated":1706385955,"ttl":30,"version":"2.2","data":{"bikes":[{"bike_id":"a04ffea5-793d-4476-98eb-ff785687f26d","system_id":"levelo_inurba_marseille","lat":43.31341,"lon":5.367098,"is_reserved":false,"is_disabled":false,"rental_uris":{"android":"levelo://app?vid=a04ffea5-793d-4476-98eb-ff785687f26d","ios":"levelo://app?vid=a04ffea5-793d-4476-98eb-ff785687f26d"},"vehicle_type_id":"4","last_reported":1706385955,"current_range_meters":29600,"station_id":"ce4bgr92rcd13ifvqc6g","pricing_plan_id":"free"},{"bike_id":"6ce7b4b0-625d-485d-a56e-a1a2bcfd0848","system_id":"levelo_inurba_marseille","lat":43.31341,"lon":5.367098,"is_reserved":false,"is_disabled":false,"rental_uris":{"android":"levelo://app?vid=6ce7b4b0-625d-485d-a56e-a1a2bcfd0848","ios":"levelo://app?vid=6ce7b4b0-625d-485d-a56e-a1a2bcfd0848"},"vehicle_type_id":"4","last_reported":1706385955,"current_range_meters":14400,"station_id":"ce4bgr92rcd13ifvqc6g","pricing_plan_id":"free"},{"bike_id":"187862be-4b67-4314-8d96-e18dc43dd843","system_id":"levelo_inurba_marseille","lat":43.312239,"lon":5.368562,"is_reserved":false,"is_disabled":false,"rental_uris":{"android":"levelo://app?vid=187862be-4b67-4314-8d96-e18dc43dd843","ios":"levelo://app?vid=187862be-4b67-4314-8d96-e18dc43dd843"},"vehicle_type_id":"4","last_reported":1706385955,"current_range_meters":7600,"station_id":"ce4bgl92rcd13ifvqbq0","pricing_plan_id":"free"},{"bike_id":"e38c0d8f-f794-4798-9901-ba1b2ce6e776","system_id":"levelo_inurba_marseille","lat":43.314811,"lon":5.373103,"is_reserved":false,"is_disabled":false,"rental_uris":{"android":"levelo://app?vid=e38c0d8f-f794-4798-9901-ba1b2ce6e776","ios":"levelo://app?vid=e38c0d8f-f794-4798-9901-ba1b2ce6e776"},"vehicle_type_id":"4","last_reported":1706385955,"current_range_meters":1200,"station_id":"ce4bgt12rcd13ifvqcd0","pricing_plan_id":"free"},{"bike_id":"02f05495-080e-4e5e-9048-81771ad7aab2","system_id":"levelo_inurba_marseille","lat":43.314811,"lon":5.373104,"is_reserved":false,"is_disabled":false,"rental_uris":{"android":"levelo://app?vid=02f05495-080e-4e5e-9048-81771ad7aab2","ios":"levelo://app?vid=02f05495-080e-4e5e-9048-81771ad7aab2"},"vehicle_type_id":"4","last_reported":1706385955,"current_range_meters":26800,"station_id":"ce4bgt12rcd13ifvqcd0","pricing_plan_id":"free"},{"bike_id":"75472d2f-c33b-4291-9ef3-06d76d15d270","system_id":"levelo_inurba_marseille","lat":43.309039,"lon":5.371797,"is_reserved":false,"is_disabled":false,"rental_uris":{"android":"levelo://app?vid=75472d2f-c33b-4291-9ef3-06d76d15d270","ios":"levelo://app?vid=75472d2f-c33b-4291-9ef3-06d76d15d270"},"vehicle_type_id":"4","last_reported":1706385955,"current_range_meters":4000,"station_id":"ce4bguh2rcd13ifvqckg","pricing_plan_id":"free"},{"bike_id":"cf666fee-9862-40f0-8271-74852148745c","system_id":"levelo_inurba_marseille","lat":43.309039,"lon":5.371797,"is_reserved":false,"is_disabled":false,"rental_uris":{"android":"levelo://app?vid=cf666fee-9862-40f0-8271-74852148745c","ios":"levelo://app?vid=cf666fee-9862-40f0-8271-74852148745c"},"vehicle_type_id":"4","last_reported":1706385955,"current_range_meters":21600,"station_id":"ce4bguh2rcd13ifvqckg","pricing_plan_id":"free"},{"bike_id":"f0223e44-7f80-4774-80b9-2bd330cab4a9","system_id":"levelo_inurba_marseille","lat":43.30886,"lon":5.37189,"is_reserved":false,"is_disabled":false,"rental_uris":{"android":"levelo://app?vid=f0223e44-7f80-4774-80b9-2bd330cab4a9","ios":"levelo://app?vid=f0223e44-7f80-4774-80b9-2bd330cab4a9"},"vehicle_type_id":"4","last_reported":1706385955,"current_range_meters":4800,"station_id":"ce4bguh2rcd13ifvqckg","pricing_plan_id":"free"},{"bike_id":"0facb454-c465-475f-8c84-e112b2f79089","system_id":"levelo_inurba_marseille","lat":43.30891,"lon":5.37197,"is_reserved":false,"is_disabled":false,"rental_uris":{"android":"levelo://app?vid=0facb454-c465-475f-8c84-e112b2f79089","ios":"levelo://app?vid=0facb454-c465-475f-8c84-e112b2f79089"},"vehicle_type_id":"4","last_reported":1706385955,"current_range_meters":7600,"station_id":"ce4bguh2rcd13ifvqckg","pricing_plan_id":"free"},{"bike_id":"ff6c1c25-8287-4f32-9d54-133fa7cb156b","system_id":"levelo_inurba_marseille","lat":43.309039,"lon":5.371797,"is_reserved":false,"is_disabled":false,"rental_uris":{"android":"levelo://app?vid=ff6c1c25-8287-4f32-9d54-133fa7cb156b","ios":"levelo://app?vid=ff6c1c25-8287-4f32-9d54-133fa7cb156b"},"vehicle_type_id":"4","last_reported":1706385955,"current_range_meters":14000,"station_id":"ce4bguh2rcd13ifvqckg","pricing_plan_id":"free"},{"bike_id":"b3a4c76c-4b91-4838-bce7-c17a779a0349","system_id":"levelo_inurba_marseille","lat":43.30549,"lon":5.365333,"is_reserved":false,"is_disabled":false,"rental_uris":{"android":"levelo://app?vid=b3a4c76c-4b91-4838-bce7-c17a779a0349","ios":"levelo://app?vid=b3a4c76c-4b91-4838-bce7-c17a779a0349"},"vehicle_type_id":"4","last_reported":1706385955,"current_range_meters":0,"station_id":"ce4bgs12rcd13ifvqcag","pricing_plan_id":"free"},{"bike_id":"76ddc11e-8ac4-4b66-a341-12a330b44708","system_id":"levelo_inurba_marseille","lat":43.305714,"lon":5.365633,"is_reserved":false,"is_disabled":false,"rental_uris":{"android":"levelo://app?vid=76ddc11e-8ac4-4b66-a341-12a330b44708","ios":"levelo://app?vid=76ddc11e-8ac4-4b66-a341-12a330b44708"},"vehicle_type_id":"4","last_reported":1706385955,"current_range_meters":800,"station_id":"ce4bgs12rcd13ifvqcag","pricing_plan_id":"free"},{"bike_id":"c10a4deb-7c0a-412d-9108-36e5fd7ea8ea","system_id":"levelo_inurba_marseille","lat":43.305706,"lon":5.365654,"is_reserved":false,"is_disabled":false,"rental_uris":{"android":"levelo://app?vid=c10a4deb-7c0a-412d-9108-36e5fd7ea8ea","ios":"levelo://app?vid=c10a4deb-7c0a-412d-9108-36e5fd7ea8ea"},"vehicle_type_id":"4","last_reported":1706385955,"current_range_meters":13600,"station_id":"ce4bgs12rcd13ifvqcag","pricing_plan_id":"free"},{"bike_id":"28a14c05-eade-4cc2-903e-81a76852fe5f","system_id":"levelo_inurba_marseille","lat":43.305706,"lon":5.365654,"is_reserved":false,"is_disabled":false,"rental_uris":{"android":"levelo://app?vid=28a14c05-eade-4cc2-903e-81a76852fe5f","ios":"levelo://app?vid=28a14c05-eade-4cc2-903e-81a76852fe5f"},"vehicle_type_id":"4","last_reported":1706385955,"current_range_meters":11200,"station_id":"ce4bgs12rcd13ifvqcag","pricing_plan_id":"free"},{"bike_id":"7ff40754-3b23-45ae-a30f-14f81f2d4af5","system_id":"levelo_inurba_marseille","lat":43.305706,"lon":5.365654,"is_reserved":false,"is_disabled":false,"rental_uris":{"android":"levelo://app?vid=7ff40754-3b23-45ae-a30f-14f81f2d4af5","ios":"levelo://app?vid=7ff40754-3b23-45ae-a30f-14f81f2d4af5"},"vehicle_type_id":"4","last_reported":1706385955,"current_range_meters":11200,"station_id":"ce4bgs12rcd13ifvqcag","pricing_plan_id":"free"},{"bike_id":"c0aca7fd-4281-4ec5-937e-70d16daadeeb","system_id":"levelo_inurba_marseille","lat":43.311191,"lon":5.377692,"is_reserved":false,"is_disabled":false,"rental_uris":{"android":"levelo://app?vid=c0aca7fd-4281-4ec5-937e-70d16daadeeb","ios":"levelo://app?vid=c0aca7fd-4281-4ec5-937e-70d16daadeeb"},"vehicle_type_id":"4","last_reported":1706385955,"current_range_meters":0,"station_id":"ce4bgt92rcd13ifvqcg0","pricing_plan_id":"free"},{"bike_id":"760e8431-4505-4e25-89a2-d05baf70ef01","system_id":"levelo_inurba_marseille","lat":43.30311,"lon":5.36897,"is_reserved":false,"is_disabled":false,"rental_uris":{"android":"levelo://app?vid=760e8431-4505-4e25-89a2-d05baf70ef01","ios":"levelo://app?vid=760e8431-4505-4e25-89a2-d05baf70ef01"},"vehicle_type_id":"4","last_reported":1706385955,"current_range_meters":0,"station_id":"ce4bgqh2rcd13ifvqc5g","pricing_plan_id":"free"},{"bike_id":"b83daeb9-a39c-4884-86e2-16a37c651f7f","system_id":"levelo_inurba_marseille","lat":43.319986,"lon":5.376234,"is_reserved":false,"is_disabled":false,"rental_uris":{"android":"levelo://app?vid=b83daeb9-a39c-4884-86e2-16a37c651f7f","ios":"levelo://app?vid=b83daeb9-a39c-4884-86e2-16a37c651f7f"},"vehicle_type_id":"4","last_reported":1706385955,"current_range_meters":9600,"station_id":"","pricing_plan_id":"free"},{"bike_id":"53210933-4184-4f6a-8e04-e3f1993965f4","system_id":"levelo_inurba_marseille","lat":43.301939,"lon":5.366286,"is_reserved":false,"is_disabled":false,"rental_uris":{"android":"levelo://app?vid=53210933-4184-4f6a-8e04-e3f1993965f4","ios":"levelo://app?vid=53210933-4184-4f6a-8e04-e3f1993965f4"},"vehicle_type_id":"4","last_reported":1706385955,"current_range_meters":20400,"station_id":"ce4bgrh2rcd13ifvqc8g","pricing_plan_id":"free"},{"bike_id":"5d9eb969-5857-461c-9810-be356937c602","system_id":"levelo_inurba_marseille","lat":43.301939,"lon":5.366286,"is_reserved":false,"is_disabled":false,"rental_uris":{"android":"levelo://app?vid=5d9eb969-5857-461c-9810-be356937c602","ios":"levelo://app?vid=5d9eb969-5857-461c-9810-be356937c602"},"vehicle_type_id":"4","last_reported":1706385955,"current_range_meters":5200,"station_id":"ce4bgrh2rcd13ifvqc8g","pricing_plan_id":"free"},{"bike_id":"b7957597-82cc-4f61-bd9b-165903bc5cfc","system_id":"levelo_inurba_marseille","lat":43.301939,"lon":5.366286,"is_reserved":false,"is_disabled":false,"rental_uris":{"android":"levelo://app?vid=b7957597-82cc-4f61-bd9b-165903bc5cfc","ios":"levelo://app?vid=b7957597-82cc-4f61-bd9b-165903bc5cfc"},"vehicle_type_id":"4","last_reported":1706385955,"current_range_meters":11600,"station_id":"ce4bgrh2rcd13ifvqc8g","pricing_plan_id":"free"},{"bike_id":"f256c0b2-36ab-4ce0-bab1-f59755183e03","system_id":"levelo_inurba_marseille","lat":43.308012,"lon":5.381511,"is_reserved":false,"is_disabled":false,"rental_uris":{"android":"levelo://app?vid=f256c0b2-36ab-4ce0-bab1-f59755183e03","ios":"levelo://app?vid=f256c0b2-36ab-4ce0-bab1-f59755183e03"},"vehicle_type_id":"4","last_reported":1706385955,"current_range_meters":0,"station_id":"ce4bgt12rcd13ifvqce0","pricing_plan_id":"free"},{"bike_id":"7f9c6bd7-a1bd-4751-955f-bbdc78090dce","system_id":"levelo_inurba_marseille","lat":43.308106,"lon":5.381601,"is_reserved":false,"is_disabled":false,"rental_uris":{"android":"levelo://app?vid=7f9c6bd7-a1bd-4751-955f-bbdc78090dce","ios":"levelo://app?vid=7f9c6bd7-a1bd-4751-955f-bbdc78090dce"},"vehicle_type_id":"4","last_reported":1706385955,"current_range_meters":0,"station_id":"ce4bgt12rcd13ifvqce0","pricing_plan_id":"free"},{"bike_id":"dc00bdf8-dc57-4b02-8d44-8ea4906debe3","system_id":"levelo_inurba_marseille","lat":43.324771,"lon":5.36557,"is_reserved":false,"is_disabled":false,"rental_uris":{"android":"levelo://app?vid=dc00bdf8-dc57-4b02-8d44-8ea4906debe3","ios":"levelo://app?vid=dc00bdf8-dc57-4b02-8d44-8ea4906debe3"},"vehicle_type_id":"4","last_reported":1706385955,"current_range_meters":8800,"station_id":"ce4bhs12rcd13ifvqhvg","pricing_plan_id":"free"},{"bike_id":"7a95a111-0fe1-44d0-a795-c4315a72ff1e","system_id":"levelo_inurba_marseille","lat":43.302784,"lon":5.377158,"is_reserved":false,"is_disabled":false,"rental_uris":{"android":"levelo://app?vid=7a95a111-0fe1-44d0-a795-c4315a72ff1e","ios":"levelo://app?vid=7a95a111-0fe1-44d0-a795-c4315a72ff1e"},"vehicle_type_id":"4","last_reported":1706385955,"current_range_meters":0,"station_id":"ce4bguh2rcd13ifvqcj0","pricing_plan_id":"free"},{"bike_id":"ae7ab608-8fac-4c0d-9f43-8ffacb07a49d","system_id":"levelo_inurba_marseille","lat":43.319935,"lon":5.381699,"is_reserved":false,"is_disabled":false,"rental_uris":{"android":"levelo://app?vid=ae7ab608-8fac-4c0d-9f43-8ffacb07a49d","ios":"levelo://app?vid=ae7ab608-8fac-4c0d-9f43-8ffacb07a49d"},"vehicle_type_id":"4","last_reported":1706385955,"current_range_meters":800,"station_id":"ce4bhr12rcd13ifvqhpg","pricing_plan_id":"free"},{"bike_id":"16dde943-30de-448b-926b-37edf9320ed3","system_id":"levelo_inurba_marseille","lat":43.313571,"lon":5.384829,"is_reserved":false,"is_disabled":false,"rental_uris":{"android":"levelo://app?vid=16dde943-30de-448b-926b-37edf9320ed3","ios":"levelo://app?vid=16dde943-30de-448b-926b-37edf9320ed3"},"vehicle_type_id":"4","last_reported":1706385955,"current_range_meters":24400,"station_id":"ce4bgt92rcd13ifvqcf0","pricing_plan_id":"free"},{"bike_id":"dc44f81a-15d3-417f-a647-be680ec6ccbd","system_id":"levelo_inurba_marseille","lat":43.313571,"lon":5.384829,"is_reserved":false,"is_disabled":false,"rental_uris":{"android":"levelo://app?vid=dc44f81a-15d3-417f-a647-be680ec6ccbd","ios":"levelo://app?vid=dc44f81a-15d3-417f-a647-be680ec6ccbd"},"vehicle_type_id":"4","last_reported":1706385955,"current_range_meters":19600,"station_id":"ce4bgt92rcd13ifvqcf0","pricing_plan_id":"free"},{"bike_id":"74453521-13df-4024-97fa-a1979c13a82d","system_id":"levelo_inurba_marseille","lat":43.299222,"lon":5.365554,"is_reserved":false,"is_disabled":false,"rental_uris":{"android":"levelo://app?vid=74453521-13df-4024-97fa-a1979c13a82d","ios":"levelo://app?vid=74453521-13df-4024-97fa-a1979c13a82d"},"vehicle_type_id":"4","last_reported":1706385955,"current_range_meters":14400,"station_id":"ce4bgm92rcd13ifvqbr0","pricing_plan_id":"free"},{"bike_id":"a496df1a-c1ba-4110-959e-abdb6b90a40a","system_id":"levelo_inurba_marseille","lat":43.299222,"lon":5.365554,"is_reserved":false,"is_disabled":false,"rental_uris":{"android":"levelo://app?vid=a496df1a-c1ba-4110-959e-abdb6b90a40a","ios":"levelo://app?vid=a496df1a-c1ba-4110-959e-abdb6b90a40a"},"vehicle_type_id":"4","last_reported":1706385955,"current_range_meters":8800,"station_id":"ce4bgm92rcd13ifvqbr0","pricing_plan_id":"free"},{"bike_id":"17e5e392-59cf-4830-aaa8-8e4e36b2d3db","system_id":"levelo_inurba_marseille","lat":43.299724,"lon":5.371829,"is_reserved":false,"is_disabled":false,"rental_uris":{"android":"levelo://app?vid=17e5e392-59cf-4830-aaa8-8e4e36b2d3db","ios":"levelo://app?vid=17e5e392-59cf-4830-aaa8-8e4e36b2d3db"},"vehicle_type_id":"4","last_reported":1706385955,"current_range_meters":0,"station_id":"ce4bgr92rcd13ifvqc7g","pricing_plan_id":"free"},{"bike_id":"f10fa397-31c1-4cf1-82f9-a240e6de7e26","system_id":"levelo_inurba_marseille","lat":43.30538,"lon":5.38429,"is_reserved":false,"is_disabled":false,"rental_uris":{"android":"levelo://app?vid=f10fa397-31c1-4cf1-82f9-a240e6de7e26","ios":"levelo://app?vid=f10fa397-31c1-4cf1-82f9-a240e6de7e26"},"vehicle_type_id":"4","last_reported":1706385955,"current_range_meters":0,"station_id":"ce4bgg92rcd13ifvqb30","pricing_plan_id":"free"},{"bike_id":"6ebda291-00c6-4748-8c4b-a62a857edabb","system_id":"levelo_inurba_marseille","lat":43.297774,"lon":5.370875,"is_reserved":false,"is_disabled":false,"rental_uris":{"android":"levelo://app?vid=6ebda291-00c6-4748-8c4b-a62a857edabb","ios":"levelo://app?vid=6ebda291-00c6-4748-8c4b-a62a857edabb"},"vehicle_type_id":"4","last_reported":1706385955,"current_range_meters":2000,"station_id":"ce4bgop2rcd13ifvqc1g","pricing_plan_id":"free"},{"bike_id":"965a5dab-e227-4efc-b518-9780186a9de9","system_id":"levelo_inurba_marseille","lat":43.322872,"lon":5.382756,"is_reserved":false,"is_disabled":false,"rental_uris":{"android":"levelo://app?vid=965a5dab-e227-4efc-b518-9780186a9de9","ios":"levelo://app?vid=965a5dab-e227-4efc-b518-9780186a9de9"},"vehicle_type_id":"4","last_reported":1706385955,"current_range_meters":28000,"station_id":"ce4bhr12rcd13ifvqhqg","pricing_plan_id":"free"},{"bike_id":"f333593b-a055-4773-b1bc-9da5ee05312e","system_id":"levelo_inurba_marseille","lat":43.322872,"lon":5.382756,"is_reserved":false,"is_disabled":false,"rental_uris":{"android":"levelo://app?vid=f333593b-a055-4773-b1bc-9da5ee05312e","ios":"levelo://app?vid=f333593b-a055-4773-b1bc-9da5ee05312e"},"vehicle_type_id":"4","last_reported":1706385955,"current_range_meters":30800,"station_id":"ce4bhr12rcd13ifvqhqg","pricing_plan_id":"free"},{"bike_id":"ab98e573-92e3-4c87-b938-e8306447ae15","system_id":"levelo_inurba_marseille","lat":43.322872,"lon":5.382756,"is_reserved":false,"is_disabled":false,"rental_uris":{"android":"levelo://app?vid=ab98e573-92e3-4c87-b938-e8306447ae15","ios":"levelo://app?vid=ab98e573-92e3-4c87-b938-e8306447ae15"},"vehicle_type_id":"4","last_reported":1706385955,"current_range_meters":12000,"station_id":"ce4bhr12rcd13ifvqhqg","pricing_plan_id":"free"},{"bike_id":"5e98879a-df25-42d7-a72e-59c9369b5f46","system_id":"levelo_inurba_marseille","lat":43.32291,"lon":5.38266,"is_reserved":false,"is_disabled":false,"rental_uris":{"android":"levelo://app?vid=5e98879a-df25-42d7-a72e-59c9369b5f46","ios":"levelo://app?vid=5e98879a-df25-42d7-a72e-59c9369b5f46"},"vehicle_type_id":"4","last_reported":1706385955,"current_range_meters":30400,"station_id":"ce4bhr12rcd13ifvqhqg","pricing_plan_id":"free"},{"bike_id":"a3b74381-0d58-448f-9a1c-2f1261e3769d","system_id":"levelo_inurba_marseille","lat":43.322872,"lon":5.382756,"is_reserved":false,"is_disabled":false,"rental_uris":{"android":"levelo://app?vid=a3b74381-0d58-448f-9a1c-2f1261e3769d","ios":"levelo://app?vid=a3b74381-0d58-448f-9a1c-2f1261e3769d"},"vehicle_type_id":"4","last_reported":1706385955,"current_range_meters":31200,"station_id":"ce4bhr12rcd13ifvqhqg","pricing_plan_id":"free"},{"bike_id":"12edd8fe-ac42-424b-86a0-ddbc64b4f114","system_id":"levelo_inurba_marseille","lat":43.328348,"lon":5.366944,"is_reserved":false,"is_disabled":false,"rental_uris":{"android":"levelo://app?vid=12edd8fe-ac42-424b-86a0-ddbc64b4f114","ios":"levelo://app?vid=12edd8fe-ac42-424b-86a0-ddbc64b4f114"},"vehicle_type_id":"4","last_reported":1706385955,"current_range_meters":16800,"station_id":"ce4bhs92rcd13ifvqi0g","pricing_plan_id":"free"},{"bike_id":"a49e851f-6aa0-407e-b67f-162ed9b21698","system_id":"levelo_inurba_marseille","lat":43.297163,"lon":5.365866,"is_reserved":false,"is_disabled":false,"rental_uris":{"android":"levelo://app?vid=a49e851f-6aa0-407e-b67f-162ed9b21698","ios":"levelo://app?vid=a49e851f-6aa0-407e-b67f-162ed9b21698"},"vehicle_type_id":"4","last_reported":1706385955,"current_range_meters":12400,"station_id":"ce4bgn12rcd13ifvqbt0","pricing_plan_id":"free"},{"bike_id":"54d8abe6-746b-4be6-9341-8f323a368dcf","system_id":"levelo_inurba_marseille","lat":43.297061,"lon":5.366249,"is_reserved":false,"is_disabled":false,"rental_uris":{"android":"levelo://app?vid=54d8abe6-746b-4be6-9341-8f323a368dcf","ios":"levelo://app?vid=54d8abe6-746b-4be6-9341-8f323a368dcf"},"vehicle_type_id":"4","last_reported":1706385955,"current_range_meters":0,"station_id":"ce4bgn12rcd13ifvqbt0","pricing_plan_id":"free"},{"bike_id":"419770a0-4a5f-4b49-a4bc-fe1f93efa0b5","system_id":"levelo_inurba_marseille","lat":43.296017,"lon":5.367893,"is_reserved":false,"is_disabled":false,"rental_uris":{"android":"levelo://app?vid=419770a0-4a5f-4b49-a4bc-fe1f93efa0b5","ios":"levelo://app?vid=419770a0-4a5f-4b49-a4bc-fe1f93efa0b5"},"vehicle_type_id":"4","last_reported":1706385955,"current_range_meters":0,"station_id":"","pricing_plan_id":"free"},{"bike_id":"4ccd35a3-2e7e-435a-a529-2f8935fd6328","system_id":"levelo_inurba_marseille","lat":43.296921,"lon":5.376579,"is_reserved":false,"is_disabled":false,"rental_uris":{"android":"levelo://app?vid=4ccd35a3-2e7e-435a-a529-2f8935fd6328","ios":"levelo://app?vid=4ccd35a3-2e7e-435a-a529-2f8935fd6328"},"vehicle_type_id":"4","last_reported":1706385955,"current_range_meters":0,"station_id":"ce4bgkh2rcd13ifvqbl0","pricing_plan_id":"free"},{"bike_id":"5849c8f1-de07-480c-ab10-c023b55280ba","system_id":"levelo_inurba_marseille","lat":43.322568,"lon":5.386882,"is_reserved":false,"is_disabled":false,"rental_uris":{"android":"levelo://app?vid=5849c8f1-de07-480c-ab10-c023b55280ba","ios":"levelo://app?vid=5849c8f1-de07-480c-ab10-c023b55280ba"},"vehicle_type_id":"4","last_reported":1706385955,"current_range_meters":800,"station_id":"","pricing_plan_id":"free"},{"bike_id":"003be8bb-e19b-4ce3-bebc-b9877864fa6b","system_id":"levelo_inurba_marseille","lat":43.317557,"lon":5.390173,"is_reserved":false,"is_disabled":false,"rental_uris":{"android":"levelo://app?vid=003be8bb-e19b-4ce3-bebc-b9877864fa6b","ios":"levelo://app?vid=003be8bb-e19b-4ce3-bebc-b9877864fa6b"},"vehicle_type_id":"4","last_reported":1706385955,"current_range_meters":23600,"station_id":"ce4bhqp2rcd13ifvqhng","pricing_plan_id":"free"},{"bike_id":"1843a16f-5926-4ba5-ab13-d972d3f50e10","system_id":"levelo_inurba_marseille","lat":43.317557,"lon":5.390173,"is_reserved":false,"is_disabled":false,"rental_uris":{"android":"levelo://app?vid=1843a16f-5926-4ba5-ab13-d972d3f50e10","ios":"levelo://app?vid=1843a16f-5926-4ba5-ab13-d972d3f50e10"},"vehicle_type_id":"4","last_reported":1706385955,"current_range_meters":0,"station_id":"ce4bhqp2rcd13ifvqhng","pricing_plan_id":"free"},{"bike_id":"fac514bb-7a71-49f3-bfc5-cabecdeca1eb","system_id":"levelo_inurba_marseille","lat":43.2957,"lon":5.3752,"is_reserved":false,"is_disabled":false,"rental_uris":{"android":"levelo://app?vid=fac514bb-7a71-49f3-bfc5-cabecdeca1eb","ios":"levelo://app?vid=fac514bb-7a71-49f3-bfc5-cabecdeca1eb"},"vehicle_type_id":"4","last_reported":1706385955,"current_range_meters":16000,"station_id":"ce4bgh92rcd13ifvqb50","pricing_plan_id":"free"},{"bike_id":"39ed90e2-9da2-43ea-a891-3ecc669840fb","system_id":"levelo_inurba_marseille","lat":43.297187,"lon":5.379993,"is_reserved":false,"is_disabled":false,"rental_uris":{"android":"levelo://app?vid=39ed90e2-9da2-43ea-a891-3ecc669840fb","ios":"levelo://app?vid=39ed90e2-9da2-43ea-a891-3ecc669840fb"},"vehicle_type_id":"4","last_reported":1706385955,"current_range_meters":0,"station_id":"","pricing_plan_id":"free"},{"bike_id":"d6cfc3ba-bb7b-43f2-96bb-d6781dde0cc7","system_id":"levelo_inurba_marseille","lat":43.299707,"lon":5.384859,"is_reserved":false,"is_disabled":false,"rental_uris":{"android":"levelo://app?vid=d6cfc3ba-bb7b-43f2-96bb-d6781dde0cc7","ios":"levelo://app?vid=d6cfc3ba-bb7b-43f2-96bb-d6781dde0cc7"},"vehicle_type_id":"4","last_reported":1706385955,"current_range_meters":20800,"station_id":"ce4bgj92rcd13ifvqbd0","pricing_plan_id":"free"},{"bike_id":"b32572c8-7b18-4901-a89a-64b2caae95c7","system_id":"levelo_inurba_marseille","lat":43.29982,"lon":5.38485,"is_reserved":false,"is_disabled":false,"rental_uris":{"android":"levelo://app?vid=b32572c8-7b18-4901-a89a-64b2caae95c7","ios":"levelo://app?vid=b32572c8-7b18-4901-a89a-64b2caae95c7"},"vehicle_type_id":"4","last_reported":1706385955,"current_range_meters":0,"station_id":"ce4bgj92rcd13ifvqbd0","pricing_plan_id":"free"},{"bike_id":"29c1fc10-b21c-4dd5-81f7-3881f7c74689","system_id":"levelo_inurba_marseille","lat":43.299717,"lon":5.384845,"is_reserved":false,"is_disabled":false,"rental_uris":{"android":"levelo://app?vid=29c1fc10-b21c-4dd5-81f7-3881f7c74689","ios":"levelo://app?vid=29c1fc10-b21c-4dd5-81f7-3881f7c74689"},"vehicle_type_id":"4","last_reported":1706385955,"current_range_meters":2000,"station_id":"ce4bgj92rcd13ifvqbd0","pricing_plan_id":"free"},{"bike_id":"70605af0-3b87-42a5-a951-4a63dddf52ee","system_id":"levelo_inurba_marseille","lat":43.29974,"lon":5.38485,"is_reserved":false,"is_disabled":false,"rental_uris":{"android":"levelo://app?vid=70605af0-3b87-42a5-a951-4a63dddf52ee","ios":"levelo://app?vid=70605af0-3b87-42a5-a951-4a63dddf52ee"},"vehicle_type_id":"4","last_reported":1706385955,"current_range_meters":0,"station_id":"ce4bgj92rcd13ifvqbd0","pricing_plan_id":"free"},{"bike_id":"c8a60041-90e1-4147-abd3-4051013952c3","system_id":"levelo_inurba_marseille","lat":43.29972,"lon":5.38487,"is_reserved":false,"is_disabled":false,"rental_uris":{"android":"levelo://app?vid=c8a60041-90e1-4147-abd3-4051013952c3","ios":"levelo://app?vid=c8a60041-90e1-4147-abd3-4051013952c3"},"vehicle_type_id":"4","last_reported":1706385955,"current_range_meters":0,"station_id":"ce4bgj92rcd13ifvqbd0","pricing_plan_id":"free"},{"bike_id":"83eb1a34-6072-4182-996f-2cd471ec529d","system_id":"levelo_inurba_marseille","lat":43.299707,"lon":5.384859,"is_reserved":false,"is_disabled":false,"rental_uris":{"android":"levelo://app?vid=83eb1a34-6072-4182-996f-2cd471ec529d","ios":"levelo://app?vid=83eb1a34-6072-4182-996f-2cd471ec529d"},"vehicle_type_id":"4","last_reported":1706385955,"current_range_meters":2400,"station_id":"ce4bgj92rcd13ifvqbd0","pricing_plan_id":"free"},{"bike_id":"cfb0f477-6164-4d9c-b6bf-0f87d981e30b","system_id":"levelo_inurba_marseille","lat":43.295279,"lon":5.375048,"is_reserved":false,"is_disabled":false,"rental_uris":{"android":"levelo://app?vid=cfb0f477-6164-4d9c-b6bf-0f87d981e30b","ios":"levelo://app?vid=cfb0f477-6164-4d9c-b6bf-0f87d981e30b"},"vehicle_type_id":"4","last_reported":1706385955,"current_range_meters":2800,"station_id":"ce4bgkp2rcd13ifvqbmg","pricing_plan_id":"free"},{"bike_id":"3802b87b-36fb-4991-944a-38232876a682","system_id":"levelo_inurba_marseille","lat":43.299707,"lon":5.384859,"is_reserved":false,"is_disabled":false,"rental_uris":{"android":"levelo://app?vid=3802b87b-36fb-4991-944a-38232876a682","ios":"levelo://app?vid=3802b87b-36fb-4991-944a-38232876a682"},"vehicle_type_id":"4","last_reported":1706385955,"current_range_meters":0,"station_id":"ce4bgj92rcd13ifvqbd0","pricing_plan_id":"free"},{"bike_id":"7b5c93aa-6db2-41dc-928c-d4cca1e34a1e","system_id":"levelo_inurba_marseille","lat":43.29974,"lon":5.38497,"is_reserved":false,"is_disabled":false,"rental_uris":{"android":"levelo://app?vid=7b5c93aa-6db2-41dc-928c-d4cca1e34a1e","ios":"levelo://app?vid=7b5c93aa-6db2-41dc-928c-d4cca1e34a1e"},"vehicle_type_id":"4","last_reported":1706385955,"current_range_meters":11600,"station_id":"ce4bgj92rcd13ifvqbd0","pricing_plan_id":"free"},{"bike_id":"402c167d-a80f-4dcc-9934-156c23946ffc","system_id":"levelo_inurba_marseille","lat":43.299724,"lon":5.384848,"is_reserved":false,"is_disabled":false,"rental_uris":{"android":"levelo://app?vid=402c167d-a80f-4dcc-9934-156c23946ffc","ios":"levelo://app?vid=402c167d-a80f-4dcc-9934-156c23946ffc"},"vehicle_type_id":"4","last_reported":1706385955,"current_range_meters":16400,"station_id":"ce4bgj92rcd13ifvqbd0","pricing_plan_id":"free"},{"bike_id":"ea187280-c6c2-421a-99cc-3b69d9393e5e","system_id":"levelo_inurba_marseille","lat":43.299724,"lon":5.384848,"is_reserved":false,"is_disabled":false,"rental_uris":{"android":"levelo://app?vid=ea187280-c6c2-421a-99cc-3b69d9393e5e","ios":"levelo://app?vid=ea187280-c6c2-421a-99cc-3b69d9393e5e"},"vehicle_type_id":"4","last_reported":1706385955,"current_range_meters":0,"station_id":"ce4bgj92rcd13ifvqbd0","pricing_plan_id":"free"},{"bike_id":"36fdf3a9-6637-4abe-9106-b80fdb7b6025","system_id":"levelo_inurba_marseille","lat":43.32367,"lon":5.388836,"is_reserved":false,"is_disabled":false,"rental_uris":{"android":"levelo://app?vid=36fdf3a9-6637-4abe-9106-b80fdb7b6025","ios":"levelo://app?vid=36fdf3a9-6637-4abe-9106-b80fdb7b6025"},"vehicle_type_id":"4","last_reported":1706385955,"current_range_meters":16400,"station_id":"ce4bhqp2rcd13ifvqhog","pricing_plan_id":"free"},{"bike_id":"311f2bb5-da85-44fc-915b-153e21fa0c75","system_id":"levelo_inurba_marseille","lat":43.32367,"lon":5.388836,"is_reserved":false,"is_disabled":false,"rental_uris":{"android":"levelo://app?vid=311f2bb5-da85-44fc-915b-153e21fa0c75","ios":"levelo://app?vid=311f2bb5-da85-44fc-915b-153e21fa0c75"},"vehicle_type_id":"4","last_reported":1706385955,"current_range_meters":4000,"station_id":"ce4bhqp2rcd13ifvqhog","pricing_plan_id":"free"},{"bike_id":"f7330ea1-ce9c-4f4a-9f18-1aa2ef4419d0","system_id":"levelo_inurba_marseille","lat":43.29601,"lon":5.381084,"is_reserved":false,"is_disabled":false,"rental_uris":{"android":"levelo://app?vid=f7330ea1-ce9c-4f4a-9f18-1aa2ef4419d0","ios":"levelo://app?vid=f7330ea1-ce9c-4f4a-9f18-1aa2ef4419d0"},"vehicle_type_id":"4","last_reported":1706385955,"current_range_meters":7600,"station_id":"ce4bgl12rcd13ifvqbo0","pricing_plan_id":"free"},{"bike_id":"46a2388d-01ed-482c-95e0-a93e56510489","system_id":"levelo_inurba_marseille","lat":43.293071,"lon":5.371725,"is_reserved":false,"is_disabled":false,"rental_uris":{"android":"levelo://app?vid=46a2388d-01ed-482c-95e0-a93e56510489","ios":"levelo://app?vid=46a2388d-01ed-482c-95e0-a93e56510489"},"vehicle_type_id":"4","last_reported":1706385955,"current_range_meters":6400,"station_id":"ce4bgh92rcd13ifvqb40","pricing_plan_id":"free"},{"bike_id":"46249a89-a10e-4c37-9345-d82224fbacfb","system_id":"levelo_inurba_marseille","lat":43.29306,"lon":5.37174,"is_reserved":false,"is_disabled":false,"rental_uris":{"android":"levelo://app?vid=46249a89-a10e-4c37-9345-d82224fbacfb","ios":"levelo://app?vid=46249a89-a10e-4c37-9345-d82224fbacfb"},"vehicle_type_id":"4","last_reported":1706385955,"current_range_meters":14800,"station_id":"","pricing_plan_id":"free"},{"bike_id":"d5010292-6420-41fb-9053-b710d2430282","system_id":"levelo_inurba_marseille","lat":43.29307,"lon":5.37183,"is_reserved":false,"is_disabled":false,"rental_uris":{"android":"levelo://app?vid=d5010292-6420-41fb-9053-b710d2430282","ios":"levelo://app?vid=d5010292-6420-41fb-9053-b710d2430282"},"vehicle_type_id":"4","last_reported":1706385955,"current_range_meters":2400,"station_id":"ce4bgh92rcd13ifvqb40","pricing_plan_id":"free"},{"bike_id":"c4e7c37f-c53a-47dc-8afc-a470ac87125d","system_id":"levelo_inurba_marseille","lat":43.29304,"lon":5.37178,"is_reserved":false,"is_disabled":false,"rental_uris":{"android":"levelo://app?vid=c4e7c37f-c53a-47dc-8afc-a470ac87125d","ios":"levelo://app?vid=c4e7c37f-c53a-47dc-8afc-a470ac87125d"},"vehicle_type_id":"4","last_reported":1706385955,"current_range_meters":0,"station_id":"ce4bgh92rcd13ifvqb40","pricing_plan_id":"free"},{"bike_id":"1bcb486c-90af-45fd-a0c3-ddf6f21f3b01","system_id":"levelo_inurba_marseille","lat":43.292749,"lon":5.368402,"is_reserved":false,"is_disabled":false,"rental_uris":{"android":"levelo://app?vid=1bcb486c-90af-45fd-a0c3-ddf6f21f3b01","ios":"levelo://app?vid=1bcb486c-90af-45fd-a0c3-ddf6f21f3b01"},"vehicle_type_id":"4","last_reported":1706385955,"current_range_meters":0,"station_id":"ce4bhbp2rcd13ifvqesg","pricing_plan_id":"free"},{"bike_id":"ae6aa349-8492-41d9-ab85-f47dc0855de0","system_id":"levelo_inurba_marseille","lat":43.292749,"lon":5.368402,"is_reserved":false,"is_disabled":false,"rental_uris":{"android":"levelo://app?vid=ae6aa349-8492-41d9-ab85-f47dc0855de0","ios":"levelo://app?vid=ae6aa349-8492-41d9-ab85-f47dc0855de0"},"vehicle_type_id":"4","last_reported":1706385955,"current_range_meters":0,"station_id":"ce4bhbp2rcd13ifvqesg","pricing_plan_id":"free"},{"bike_id":"a1d1c0e3-7e74-40bf-b722-367d6501a96c","system_id":"levelo_inurba_marseille","lat":43.29304,"lon":5.37452,"is_reserved":false,"is_disabled":false,"rental_uris":{"android":"levelo://app?vid=a1d1c0e3-7e74-40bf-b722-367d6501a96c","ios":"levelo://app?vid=a1d1c0e3-7e74-40bf-b722-367d6501a96c"},"vehicle_type_id":"4","last_reported":1706385955,"current_range_meters":0,"station_id":"ce4bgi12rcd13ifvqb70","pricing_plan_id":"free"},{"bike_id":"a512761d-3a18-41db-9635-6a21ae0ac7d5","system_id":"levelo_inurba_marseille","lat":43.30599,"lon":5.39363,"is_reserved":false,"is_disabled":false,"rental_uris":{"android":"levelo://app?vid=a512761d-3a18-41db-9635-6a21ae0ac7d5","ios":"levelo://app?vid=a512761d-3a18-41db-9635-6a21ae0ac7d5"},"vehicle_type_id":"4","last_reported":1706385955,"current_range_meters":5600,"station_id":"ce4bh0p2rcd13ifvqd80","pricing_plan_id":"free"},{"bike_id":"8e6557db-8e3e-4cd9-87c3-0a7e161cab7b","system_id":"levelo_inurba_marseille","lat":43.306013,"lon":5.393643,"is_reserved":false,"is_disabled":false,"rental_uris":{"android":"levelo://app?vid=8e6557db-8e3e-4cd9-87c3-0a7e161cab7b","ios":"levelo://app?vid=8e6557db-8e3e-4cd9-87c3-0a7e161cab7b"},"vehicle_type_id":"4","last_reported":1706385955,"current_range_meters":0,"station_id":"ce4bh0p2rcd13ifvqd80","pricing_plan_id":"free"},{"bike_id":"deb87fc3-c0dc-4823-b306-17cae95b1f24","system_id":"levelo_inurba_marseille","lat":43.300852,"lon":5.390859,"is_reserved":false,"is_disabled":false,"rental_uris":{"android":"levelo://app?vid=deb87fc3-c0dc-4823-b306-17cae95b1f24","ios":"levelo://app?vid=deb87fc3-c0dc-4823-b306-17cae95b1f24"},"vehicle_type_id":"4","last_reported":1706385955,"current_range_meters":19200,"station_id":"ce4bh192rcd13ifvqdb0","pricing_plan_id":"free"},{"bike_id":"7ef7f435-cd65-466b-8af2-f62370607717","system_id":"levelo_inurba_marseille","lat":43.313291,"lon":5.396838,"is_reserved":false,"is_disabled":false,"rental_uris":{"android":"levelo://app?vid=7ef7f435-cd65-466b-8af2-f62370607717","ios":"levelo://app?vid=7ef7f435-cd65-466b-8af2-f62370607717"},"vehicle_type_id":"4","last_reported":1706385955,"current_range_meters":9200,"station_id":"ce4bgvp2rcd13ifvqcu0","pricing_plan_id":"free"},{"bike_id":"79f16112-4b48-4156-ba1b-1e5f8c79b91d","system_id":"levelo_inurba_marseille","lat":43.291671,"lon":5.371575,"is_reserved":false,"is_disabled":false,"rental_uris":{"android":"levelo://app?vid=79f16112-4b48-4156-ba1b-1e5f8c79b91d","ios":"levelo://app?vid=79f16112-4b48-4156-ba1b-1e5f8c79b91d"},"vehicle_type_id":"4","last_reported":1706385955,"current_range_meters":400,"station_id":"ce4bha92rcd13ifvqeh0","pricing_plan_id":"free"},{"bike_id":"a269714a-38b0-41e3-a285-5c2831af21d0","system_id":"levelo_inurba_marseille","lat":43.291675,"lon":5.371583,"is_reserved":false,"is_disabled":false,"rental_uris":{"android":"levelo://app?vid=a269714a-38b0-41e3-a285-5c2831af21d0","ios":"levelo://app?vid=a269714a-38b0-41e3-a285-5c2831af21d0"},"vehicle_type_id":"4","last_reported":1706385955,"current_range_meters":6800,"station_id":"ce4bha92rcd13ifvqeh0","pricing_plan_id":"free"},{"bike_id":"c597dd60-01c6-427a-a446-a07a5051a8ef","system_id":"levelo_inurba_marseille","lat":43.299724,"lon":5.371829,"is_reserved":false,"is_disabled":false,"rental_uris":{"android":"levelo://app?vid=c597dd60-01c6-427a-a446-a07a5051a8ef","ios":"levelo://app?vid=c597dd60-01c6-427a-a446-a07a5051a8ef"},"vehicle_type_id":"4","last_reported":1706385955,"current_range_meters":18400,"station_id":"ce4bgr92rcd13ifvqc7g","pricing_plan_id":"free"},{"bike_id":"75b7c9f4-66ec-4cbb-a93a-0f97b4f93255","system_id":"levelo_inurba_marseille","lat":43.313291,"lon":5.396838,"is_reserved":false,"is_disabled":false,"rental_uris":{"android":"levelo://app?vid=75b7c9f4-66ec-4cbb-a93a-0f97b4f93255","ios":"levelo://app?vid=75b7c9f4-66ec-4cbb-a93a-0f97b4f93255"},"vehicle_type_id":"4","last_reported":1706385955,"current_range_meters":10800,"station_id":"ce4bgvp2rcd13ifvqcu0","pricing_plan_id":"free"},{"bike_id":"91b6ce03-8d50-4ff9-ab43-eb203913956f","system_id":"levelo_inurba_marseille","lat":43.309038,"lon":5.396546,"is_reserved":false,"is_disabled":false,"rental_uris":{"android":"levelo://app?vid=91b6ce03-8d50-4ff9-ab43-eb203913956f","ios":"levelo://app?vid=91b6ce03-8d50-4ff9-ab43-eb203913956f"},"vehicle_type_id":"4","last_reported":1706385955,"current_range_meters":5200,"station_id":"ce4bh012rcd13ifvqcv0","pricing_plan_id":"free"},{"bike_id":"147df5a7-5381-4ee6-849d-e7d78bffa282","system_id":"levelo_inurba_marseille","lat":43.30147,"lon":5.39293,"is_reserved":false,"is_disabled":false,"rental_uris":{"android":"levelo://app?vid=147df5a7-5381-4ee6-849d-e7d78bffa282","ios":"levelo://app?vid=147df5a7-5381-4ee6-849d-e7d78bffa282"},"vehicle_type_id":"4","last_reported":1706385955,"current_range_meters":0,"station_id":"","pricing_plan_id":"free"},{"bike_id":"35a5a8f9-cff3-4876-955f-37d30e34a46e","system_id":"levelo_inurba_marseille","lat":43.2953,"lon":5.38556,"is_reserved":false,"is_disabled":false,"rental_uris":{"android":"levelo://app?vid=35a5a8f9-cff3-4876-955f-37d30e34a46e","ios":"levelo://app?vid=35a5a8f9-cff3-4876-955f-37d30e34a46e"},"vehicle_type_id":"4","last_reported":1706385955,"current_range_meters":0,"station_id":"ce4bgih2rcd13ifvqba0","pricing_plan_id":"free"},{"bike_id":"c1fe4149-8115-4800-b6f0-d3e75d8fc787","system_id":"levelo_inurba_marseille","lat":43.290779,"lon":5.371482,"is_reserved":false,"is_disabled":false,"rental_uris":{"android":"levelo://app?vid=c1fe4149-8115-4800-b6f0-d3e75d8fc787","ios":"levelo://app?vid=c1fe4149-8115-4800-b6f0-d3e75d8fc787"},"vehicle_type_id":"4","last_reported":1706385955,"current_range_meters":17600,"station_id":"ce4bh5p2rcd13ifvqe4g","pricing_plan_id":"free"},{"bike_id":"7a88baef-7765-4d21-b7a4-d18b783baf9d","system_id":"levelo_inurba_marseille","lat":43.302008,"lon":5.394694,"is_reserved":false,"is_disabled":false,"rental_uris":{"android":"levelo://app?vid=7a88baef-7765-4d21-b7a4-d18b783baf9d","ios":"levelo://app?vid=7a88baef-7765-4d21-b7a4-d18b783baf9d"},"vehicle_type_id":"4","last_reported":1706385955,"current_range_meters":0,"station_id":"ce4bh0p2rcd13ifvqd70","pricing_plan_id":"free"},{"bike_id":"806530f2-c837-4330-8ba9-ae6c9ade0443","system_id":"levelo_inurba_marseille","lat":43.290631,"lon":5.359244,"is_reserved":false,"is_disabled":false,"rental_uris":{"android":"levelo://app?vid=806530f2-c837-4330-8ba9-ae6c9ade0443","ios":"levelo://app?vid=806530f2-c837-4330-8ba9-ae6c9ade0443"},"vehicle_type_id":"4","last_reported":1706385955,"current_range_meters":13200,"station_id":"ce4bha92rcd13ifvqeg0","pricing_plan_id":"free"},{"bike_id":"a7d85f0f-61ee-4761-a65e-c26e4b7cb4e7","system_id":"levelo_inurba_marseille","lat":43.290441,"lon":5.359123,"is_reserved":false,"is_disabled":false,"rental_uris":{"android":"levelo://app?vid=a7d85f0f-61ee-4761-a65e-c26e4b7cb4e7","ios":"levelo://app?vid=a7d85f0f-61ee-4761-a65e-c26e4b7cb4e7"},"vehicle_type_id":"4","last_reported":1706385955,"current_range_meters":28400,"station_id":"","pricing_plan_id":"free"},{"bike_id":"3661d287-6810-42a6-937e-fa80876a9493","system_id":"levelo_inurba_marseille","lat":43.2898,"lon":5.37178,"is_reserved":false,"is_disabled":false,"rental_uris":{"android":"levelo://app?vid=3661d287-6810-42a6-937e-fa80876a9493","ios":"levelo://app?vid=3661d287-6810-42a6-937e-fa80876a9493"},"vehicle_type_id":"4","last_reported":1706385955,"current_range_meters":0,"station_id":"","pricing_plan_id":"free"},{"bike_id":"34352741-92b6-46cb-a96b-05c6fbd86707","system_id":"levelo_inurba_marseille","lat":43.2942,"lon":5.38617,"is_reserved":false,"is_disabled":false,"rental_uris":{"android":"levelo://app?vid=34352741-92b6-46cb-a96b-05c6fbd86707","ios":"levelo://app?vid=34352741-92b6-46cb-a96b-05c6fbd86707"},"vehicle_type_id":"4","last_reported":1706385955,"current_range_meters":0,"station_id":"ce4bh2h2rcd13ifvqdh0","pricing_plan_id":"free"},{"bike_id":"70f19d8e-1799-48b3-991e-01144ccfc5f2","system_id":"levelo_inurba_marseille","lat":43.294162,"lon":5.386292,"is_reserved":false,"is_disabled":false,"rental_uris":{"android":"levelo://app?vid=70f19d8e-1799-48b3-991e-01144ccfc5f2","ios":"levelo://app?vid=70f19d8e-1799-48b3-991e-01144ccfc5f2"},"vehicle_type_id":"4","last_reported":1706385955,"current_range_meters":0,"station_id":"ce4bh2h2rcd13ifvqdh0","pricing_plan_id":"free"},{"bike_id":"65f9256e-1798-4223-ba02-176064e7c931","system_id":"levelo_inurba_marseille","lat":43.294162,"lon":5.386292,"is_reserved":false,"is_disabled":false,"rental_uris":{"android":"levelo://app?vid=65f9256e-1798-4223-ba02-176064e7c931","ios":"levelo://app?vid=65f9256e-1798-4223-ba02-176064e7c931"},"vehicle_type_id":"4","last_reported":1706385955,"current_range_meters":20800,"station_id":"ce4bh2h2rcd13ifvqdh0","pricing_plan_id":"free"},{"bike_id":"84804f14-ce97-4ad6-ba57-e8decc82559a","system_id":"levelo_inurba_marseille","lat":43.29416,"lon":5.38632,"is_reserved":false,"is_disabled":false,"rental_uris":{"android":"levelo://app?vid=84804f14-ce97-4ad6-ba57-e8decc82559a","ios":"levelo://app?vid=84804f14-ce97-4ad6-ba57-e8decc82559a"},"vehicle_type_id":"4","last_reported":1706385955,"current_range_meters":0,"station_id":"ce4bh2h2rcd13ifvqdh0","pricing_plan_id":"free"},{"bike_id":"0252f5d7-4f30-4af8-b3b9-a40854b2a88b","system_id":"levelo_inurba_marseille","lat":43.29415,"lon":5.38631,"is_reserved":false,"is_disabled":false,"rental_uris":{"android":"levelo://app?vid=0252f5d7-4f30-4af8-b3b9-a40854b2a88b","ios":"levelo://app?vid=0252f5d7-4f30-4af8-b3b9-a40854b2a88b"},"vehicle_type_id":"4","last_reported":1706385955,"current_range_meters":0,"station_id":"ce4bh2h2rcd13ifvqdh0","pricing_plan_id":"free"},{"bike_id":"87edb8c3-b5ed-4323-9150-e3d52415b80f","system_id":"levelo_inurba_marseille","lat":43.294145,"lon":5.38632,"is_reserved":false,"is_disabled":false,"rental_uris":{"android":"levelo://app?vid=87edb8c3-b5ed-4323-9150-e3d52415b80f","ios":"levelo://app?vid=87edb8c3-b5ed-4323-9150-e3d52415b80f"},"vehicle_type_id":"4","last_reported":1706385955,"current_range_meters":0,"station_id":"ce4bh2h2rcd13ifvqdh0","pricing_plan_id":"free"},{"bike_id":"b9436fc9-664b-4597-8d2e-ca5a564837e6","system_id":"levelo_inurba_marseille","lat":43.294096,"lon":5.38639,"is_reserved":false,"is_disabled":false,"rental_uris":{"android":"levelo://app?vid=b9436fc9-664b-4597-8d2e-ca5a564837e6","ios":"levelo://app?vid=b9436fc9-664b-4597-8d2e-ca5a564837e6"},"vehicle_type_id":"4","last_reported":1706385955,"current_range_meters":0,"station_id":"ce4bh2h2rcd13ifvqdh0","pricing_plan_id":"free"},{"bike_id":"3b5b3753-461a-484d-97a3-a2f15d2d2d8e","system_id":"levelo_inurba_marseille","lat":43.30428,"lon":5.39747,"is_reserved":false,"is_disabled":false,"rental_uris":{"android":"levelo://app?vid=3b5b3753-461a-484d-97a3-a2f15d2d2d8e","ios":"levelo://app?vid=3b5b3753-461a-484d-97a3-a2f15d2d2d8e"},"vehicle_type_id":"4","last_reported":1706385955,"current_range_meters":0,"station_id":"ce4bh092rcd13ifvqd20","pricing_plan_id":"free"},{"bike_id":"cde1a9c9-8e42-41a4-8920-e7f3f68beb65","system_id":"levelo_inurba_marseille","lat":43.29264,"lon":5.38442,"is_reserved":false,"is_disabled":false,"rental_uris":{"android":"levelo://app?vid=cde1a9c9-8e42-41a4-8920-e7f3f68beb65","ios":"levelo://app?vid=cde1a9c9-8e42-41a4-8920-e7f3f68beb65"},"vehicle_type_id":"4","last_reported":1706385955,"current_range_meters":23200,"station_id":"ce4bh692rcd13ifvqea0","pricing_plan_id":"free"},{"bike_id":"5511291d-55e7-4695-ab2e-6964e1d10167","system_id":"levelo_inurba_marseille","lat":43.292688,"lon":5.38459,"is_reserved":false,"is_disabled":false,"rental_uris":{"android":"levelo://app?vid=5511291d-55e7-4695-ab2e-6964e1d10167","ios":"levelo://app?vid=5511291d-55e7-4695-ab2e-6964e1d10167"},"vehicle_type_id":"4","last_reported":1706385955,"current_range_meters":4400,"station_id":"ce4bh692rcd13ifvqea0","pricing_plan_id":"free"},{"bike_id":"41772e7a-9baa-42cd-8354-92c1640fe8b8","system_id":"levelo_inurba_marseille","lat":43.292568,"lon":5.38446,"is_reserved":false,"is_disabled":false,"rental_uris":{"android":"levelo://app?vid=41772e7a-9baa-42cd-8354-92c1640fe8b8","ios":"levelo://app?vid=41772e7a-9baa-42cd-8354-92c1640fe8b8"},"vehicle_type_id":"4","last_reported":1706385955,"current_range_meters":0,"station_id":"ce4bh692rcd13ifvqea0","pricing_plan_id":"free"},{"bike_id":"657d58ae-cbe3-4d1d-95a2-6a30fdbef3b7","system_id":"levelo_inurba_marseille","lat":43.292644,"lon":5.384257,"is_reserved":false,"is_disabled":false,"rental_uris":{"android":"levelo://app?vid=657d58ae-cbe3-4d1d-95a2-6a30fdbef3b7","ios":"levelo://app?vid=657d58ae-cbe3-4d1d-95a2-6a30fdbef3b7"},"vehicle_type_id":"4","last_reported":1706385955,"current_range_meters":5200,"station_id":"ce4bh692rcd13ifvqea0","pricing_plan_id":"free"},{"bike_id":"ef3155c4-ca58-49cd-85e4-2890f73da34b","system_id":"levelo_inurba_marseille","lat":43.290995,"lon":5.381361,"is_reserved":false,"is_disabled":false,"rental_uris":{"android":"levelo://app?vid=ef3155c4-ca58-49cd-85e4-2890f73da34b","ios":"levelo://app?vid=ef3155c4-ca58-49cd-85e4-2890f73da34b"},"vehicle_type_id":"4","last_reported":1706385955,"current_range_meters":5200,"station_id":"ce4bh512rcd13ifvqe2g","pricing_plan_id":"free"},{"bike_id":"2905df41-ea00-455f-8e2c-c2477ee0e068","system_id":"levelo_inurba_marseille","lat":43.295169,"lon":5.390426,"is_reserved":false,"is_disabled":false,"rental_uris":{"android":"levelo://app?vid=2905df41-ea00-455f-8e2c-c2477ee0e068","ios":"levelo://app?vid=2905df41-ea00-455f-8e2c-c2477ee0e068"},"vehicle_type_id":"4","last_reported":1706385955,"current_range_meters":1200,"station_id":"ce4bh3p2rcd13ifvqdp0","pricing_plan_id":"free"},{"bike_id":"eaba0230-97b4-4bf4-a22f-856e0c9c0e8c","system_id":"levelo_inurba_marseille","lat":43.295169,"lon":5.390426,"is_reserved":false,"is_disabled":false,"rental_uris":{"android":"levelo://app?vid=eaba0230-97b4-4bf4-a22f-856e0c9c0e8c","ios":"levelo://app?vid=eaba0230-97b4-4bf4-a22f-856e0c9c0e8c"},"vehicle_type_id":"4","last_reported":1706385955,"current_range_meters":0,"station_id":"ce4bh3p2rcd13ifvqdp0","pricing_plan_id":"free"},{"bike_id":"342af207-fe36-4b30-8624-da2d5a2d0679","system_id":"levelo_inurba_marseille","lat":43.28978,"lon":5.37835,"is_reserved":false,"is_disabled":false,"rental_uris":{"android":"levelo://app?vid=342af207-fe36-4b30-8624-da2d5a2d0679","ios":"levelo://app?vid=342af207-fe36-4b30-8624-da2d5a2d0679"},"vehicle_type_id":"4","last_reported":1706385955,"current_range_meters":0,"station_id":"ce4bh9p2rcd13ifvqed0","pricing_plan_id":"free"},{"bike_id":"5bccb220-e9a2-4490-bf06-b98f32528009","system_id":"levelo_inurba_marseille","lat":43.330442,"lon":5.389148,"is_reserved":false,"is_disabled":false,"rental_uris":{"android":"levelo://app?vid=5bccb220-e9a2-4490-bf06-b98f32528009","ios":"levelo://app?vid=5bccb220-e9a2-4490-bf06-b98f32528009"},"vehicle_type_id":"4","last_reported":1706385955,"current_range_meters":1600,"station_id":"ce4bhr92rcd13ifvqhrg","pricing_plan_id":"free"},{"bike_id":"079e3350-8e42-437a-af17-74b4bd422000","system_id":"levelo_inurba_marseille","lat":43.2901,"lon":5.381269,"is_reserved":false,"is_disabled":false,"rental_uris":{"android":"levelo://app?vid=079e3350-8e42-437a-af17-74b4bd422000","ios":"levelo://app?vid=079e3350-8e42-437a-af17-74b4bd422000"},"vehicle_type_id":"4","last_reported":1706385955,"current_range_meters":0,"station_id":"ce4bh4p2rcd13ifvqe1g","pricing_plan_id":"free"},{"bike_id":"0849a82b-5aec-4f42-82e3-f3afbdb9e83b","system_id":"levelo_inurba_marseille","lat":43.28856,"lon":5.358371,"is_reserved":false,"is_disabled":false,"rental_uris":{"android":"levelo://app?vid=0849a82b-5aec-4f42-82e3-f3afbdb9e83b","ios":"levelo://app?vid=0849a82b-5aec-4f42-82e3-f3afbdb9e83b"},"vehicle_type_id":"4","last_reported":1706385955,"current_range_meters":10400,"station_id":"ce4bhb12rcd13ifvqem0","pricing_plan_id":"free"},{"bike_id":"d5f30ee4-7db2-45c1-be2f-c084ba2cd2ff","system_id":"levelo_inurba_marseille","lat":43.312609,"lon":5.401662,"is_reserved":false,"is_disabled":false,"rental_uris":{"android":"levelo://app?vid=d5f30ee4-7db2-45c1-be2f-c084ba2cd2ff","ios":"levelo://app?vid=d5f30ee4-7db2-45c1-be2f-c084ba2cd2ff"},"vehicle_type_id":"4","last_reported":1706385955,"current_range_meters":3600,"station_id":"ce4bh092rcd13ifvqd30","pricing_plan_id":"free"},{"bike_id":"af36ca8a-255e-4543-9415-66520e3c304b","system_id":"levelo_inurba_marseille","lat":43.309371,"lon":5.401449,"is_reserved":false,"is_disabled":false,"rental_uris":{"android":"levelo://app?vid=af36ca8a-255e-4543-9415-66520e3c304b","ios":"levelo://app?vid=af36ca8a-255e-4543-9415-66520e3c304b"},"vehicle_type_id":"4","last_reported":1706385955,"current_range_meters":1600,"station_id":"ce4bgvp2rcd13ifvqct0","pricing_plan_id":"free"},{"bike_id":"a563cdbf-78b8-441c-8dce-8da1c3325b92","system_id":"levelo_inurba_marseille","lat":43.33749,"lon":5.37463,"is_reserved":false,"is_disabled":false,"rental_uris":{"android":"levelo://app?vid=a563cdbf-78b8-441c-8dce-8da1c3325b92","ios":"levelo://app?vid=a563cdbf-78b8-441c-8dce-8da1c3325b92"},"vehicle_type_id":"4","last_reported":1706385955,"current_range_meters":16800,"station_id":"","pricing_plan_id":"free"},{"bike_id":"e2f244c6-f930-4de9-9857-64e97aac5862","system_id":"levelo_inurba_marseille","lat":43.306412,"lon":5.401035,"is_reserved":false,"is_disabled":false,"rental_uris":{"android":"levelo://app?vid=e2f244c6-f930-4de9-9857-64e97aac5862","ios":"levelo://app?vid=e2f244c6-f930-4de9-9857-64e97aac5862"},"vehicle_type_id":"4","last_reported":1706385955,"current_range_meters":14800,"station_id":"ce4bh112rcd13ifvqda0","pricing_plan_id":"free"},{"bike_id":"a9554a78-0f9d-4cdd-9ecd-598bb2d54931","system_id":"levelo_inurba_marseille","lat":43.33759,"lon":5.37484,"is_reserved":false,"is_disabled":false,"rental_uris":{"android":"levelo://app?vid=a9554a78-0f9d-4cdd-9ecd-598bb2d54931","ios":"levelo://app?vid=a9554a78-0f9d-4cdd-9ecd-598bb2d54931"},"vehicle_type_id":"4","last_reported":1706385955,"current_range_meters":30800,"station_id":"","pricing_plan_id":"free"},{"bike_id":"02cc1ce4-717f-4b60-a8ae-e32a4e8fb56c","system_id":"levelo_inurba_marseille","lat":43.33759,"lon":5.37486,"is_reserved":false,"is_disabled":false,"rental_uris":{"android":"levelo://app?vid=02cc1ce4-717f-4b60-a8ae-e32a4e8fb56c","ios":"levelo://app?vid=02cc1ce4-717f-4b60-a8ae-e32a4e8fb56c"},"vehicle_type_id":"4","last_reported":1706385955,"current_range_meters":10800,"station_id":"","pricing_plan_id":"free"},{"bike_id":"b7f12eab-e0a6-499e-87ec-2b4381c4602a","system_id":"levelo_inurba_marseille","lat":43.337597,"lon":5.374919,"is_reserved":false,"is_disabled":false,"rental_uris":{"android":"levelo://app?vid=b7f12eab-e0a6-499e-87ec-2b4381c4602a","ios":"levelo://app?vid=b7f12eab-e0a6-499e-87ec-2b4381c4602a"},"vehicle_type_id":"4","last_reported":1706385955,"current_range_meters":22800,"station_id":"","pricing_plan_id":"free"},{"bike_id":"b7d3b81d-d85a-44b5-a0c7-8f9c9f74639e","system_id":"levelo_inurba_marseille","lat":43.33765,"lon":5.374672,"is_reserved":false,"is_disabled":false,"rental_uris":{"android":"levelo://app?vid=b7d3b81d-d85a-44b5-a0c7-8f9c9f74639e","ios":"levelo://app?vid=b7d3b81d-d85a-44b5-a0c7-8f9c9f74639e"},"vehicle_type_id":"4","last_reported":1706385955,"current_range_meters":29600,"station_id":"","pricing_plan_id":"free"},{"bike_id":"1facbbf3-baac-42f8-85eb-cb1e36f3e4b9","system_id":"levelo_inurba_marseille","lat":43.33763,"lon":5.37486,"is_reserved":false,"is_disabled":false,"rental_uris":{"android":"levelo://app?vid=1facbbf3-baac-42f8-85eb-cb1e36f3e4b9","ios":"levelo://app?vid=1facbbf3-baac-42f8-85eb-cb1e36f3e4b9"},"vehicle_type_id":"4","last_reported":1706385955,"current_range_meters":17600,"station_id":"","pricing_plan_id":"free"},{"bike_id":"bd7c49e0-243f-4049-bc25-2de8f060bb29","system_id":"levelo_inurba_marseille","lat":43.337657,"lon":5.37489,"is_reserved":false,"is_disabled":false,"rental_uris":{"android":"levelo://app?vid=bd7c49e0-243f-4049-bc25-2de8f060bb29","ios":"levelo://app?vid=bd7c49e0-243f-4049-bc25-2de8f060bb29"},"vehicle_type_id":"4","last_reported":1706385955,"current_range_meters":23600,"station_id":"","pricing_plan_id":"free"},{"bike_id":"99f8ae3e-f858-47fd-acc7-e3018e06d7a3","system_id":"levelo_inurba_marseille","lat":43.30644,"lon":5.401,"is_reserved":false,"is_disabled":false,"rental_uris":{"android":"levelo://app?vid=99f8ae3e-f858-47fd-acc7-e3018e06d7a3","ios":"levelo://app?vid=99f8ae3e-f858-47fd-acc7-e3018e06d7a3"},"vehicle_type_id":"4","last_reported":1706385955,"current_range_meters":10400,"station_id":"ce4bh112rcd13ifvqda0","pricing_plan_id":"free"},{"bike_id":"eaeff2f9-be33-4cbc-b315-c230be10dd9b","system_id":"levelo_inurba_marseille","lat":43.33766,"lon":5.37495,"is_reserved":false,"is_disabled":false,"rental_uris":{"android":"levelo://app?vid=eaeff2f9-be33-4cbc-b315-c230be10dd9b","ios":"levelo://app?vid=eaeff2f9-be33-4cbc-b315-c230be10dd9b"},"vehicle_type_id":"4","last_reported":1706385955,"current_range_meters":8800,"station_id":"","pricing_plan_id":"free"},{"bike_id":"026e5f89-3daf-47b9-9119-3accb1d0c9b2","system_id":"levelo_inurba_marseille","lat":43.30136,"lon":5.39845,"is_reserved":false,"is_disabled":false,"rental_uris":{"android":"levelo://app?vid=026e5f89-3daf-47b9-9119-3accb1d0c9b2","ios":"levelo://app?vid=026e5f89-3daf-47b9-9119-3accb1d0c9b2"},"vehicle_type_id":"4","last_reported":1706385955,"current_range_meters":0,"station_id":"ce4bh0h2rcd13ifvqd40","pricing_plan_id":"free"},{"bike_id":"b50161c8-97b0-4d04-a393-4b95f6987c43","system_id":"levelo_inurba_marseille","lat":43.286591,"lon":5.363346,"is_reserved":false,"is_disabled":false,"rental_uris":{"android":"levelo://app?vid=b50161c8-97b0-4d04-a393-4b95f6987c43","ios":"levelo://app?vid=b50161c8-97b0-4d04-a393-4b95f6987c43"},"vehicle_type_id":"4","last_reported":1706385955,"current_range_meters":0,"station_id":"ce4bhah2rcd13ifvqej0","pricing_plan_id":"free"},{"bike_id":"57d8daba-38a6-4944-9e09-4e595bb5da69","system_id":"levelo_inurba_marseille","lat":43.295196,"lon":5.39397,"is_reserved":false,"is_disabled":false,"rental_uris":{"android":"levelo://app?vid=57d8daba-38a6-4944-9e09-4e595bb5da69","ios":"levelo://app?vid=57d8daba-38a6-4944-9e09-4e595bb5da69"},"vehicle_type_id":"4","last_reported":1706385955,"current_range_meters":26000,"station_id":"ce4bh292rcd13ifvqdf0","pricing_plan_id":"free"},{"bike_id":"2fe24097-b1c2-4583-ba1f-cf8501171a4c","system_id":"levelo_inurba_marseille","lat":43.33784,"lon":5.378236,"is_reserved":false,"is_disabled":false,"rental_uris":{"android":"levelo://app?vid=2fe24097-b1c2-4583-ba1f-cf8501171a4c","ios":"levelo://app?vid=2fe24097-b1c2-4583-ba1f-cf8501171a4c"},"vehicle_type_id":"4","last_reported":1706385955,"current_range_meters":15200,"station_id":"","pricing_plan_id":"free"},{"bike_id":"7b4d0886-97a8-4f83-a80b-75dc74cb8f5b","system_id":"levelo_inurba_marseille","lat":43.289307,"lon":5.38406,"is_reserved":false,"is_disabled":false,"rental_uris":{"android":"levelo://app?vid=7b4d0886-97a8-4f83-a80b-75dc74cb8f5b","ios":"levelo://app?vid=7b4d0886-97a8-4f83-a80b-75dc74cb8f5b"},"vehicle_type_id":"4","last_reported":1706385955,"current_range_meters":6800,"station_id":"ce4bh612rcd13ifvqe6g","pricing_plan_id":"free"},{"bike_id":"7cdf7104-5a33-4e06-a795-e6aa86f77f29","system_id":"levelo_inurba_marseille","lat":43.290325,"lon":5.386572,"is_reserved":false,"is_disabled":false,"rental_uris":{"android":"levelo://app?vid=7cdf7104-5a33-4e06-a795-e6aa86f77f29","ios":"levelo://app?vid=7cdf7104-5a33-4e06-a795-e6aa86f77f29"},"vehicle_type_id":"4","last_reported":1706385955,"current_range_meters":0,"station_id":"ce4bh4p2rcd13ifvqe0g","pricing_plan_id":"free"},{"bike_id":"183bb1c1-398f-466c-b05d-327ac4efc436","system_id":"levelo_inurba_marseille","lat":43.302511,"lon":5.400653,"is_reserved":false,"is_disabled":false,"rental_uris":{"android":"levelo://app?vid=183bb1c1-398f-466c-b05d-327ac4efc436","ios":"levelo://app?vid=183bb1c1-398f-466c-b05d-327ac4efc436"},"vehicle_type_id":"4","last_reported":1706385955,"current_range_meters":13600,"station_id":"ce4bgth2rcd13ifvqch0","pricing_plan_id":"free"},{"bike_id":"285c6f92-9402-4605-b497-fc24d4b1f364","system_id":"levelo_inurba_marseille","lat":43.28922,"lon":5.38397,"is_reserved":false,"is_disabled":false,"rental_uris":{"android":"levelo://app?vid=285c6f92-9402-4605-b497-fc24d4b1f364","ios":"levelo://app?vid=285c6f92-9402-4605-b497-fc24d4b1f364"},"vehicle_type_id":"4","last_reported":1706385955,"current_range_meters":0,"station_id":"ce4bh612rcd13ifvqe6g","pricing_plan_id":"free"},{"bike_id":"b67f3e05-713d-4f1f-8b71-c4052c527acc","system_id":"levelo_inurba_marseille","lat":43.29024,"lon":5.38648,"is_reserved":false,"is_disabled":false,"rental_uris":{"android":"levelo://app?vid=b67f3e05-713d-4f1f-8b71-c4052c527acc","ios":"levelo://app?vid=b67f3e05-713d-4f1f-8b71-c4052c527acc"},"vehicle_type_id":"4","last_reported":1706385955,"current_range_meters":3200,"station_id":"","pricing_plan_id":"free"},{"bike_id":"1b1f88f4-df68-4def-ac35-d4f7f6c8c955","system_id":"levelo_inurba_marseille","lat":43.29023,"lon":5.38657,"is_reserved":false,"is_disabled":false,"rental_uris":{"android":"levelo://app?vid=1b1f88f4-df68-4def-ac35-d4f7f6c8c955","ios":"levelo://app?vid=1b1f88f4-df68-4def-ac35-d4f7f6c8c955"},"vehicle_type_id":"4","last_reported":1706385955,"current_range_meters":0,"station_id":"ce4bh4p2rcd13ifvqe0g","pricing_plan_id":"free"},{"bike_id":"8cccf456-ac02-4d77-b958-fdcfa8d0716f","system_id":"levelo_inurba_marseille","lat":43.302759,"lon":5.400793,"is_reserved":false,"is_disabled":false,"rental_uris":{"android":"levelo://app?vid=8cccf456-ac02-4d77-b958-fdcfa8d0716f","ios":"levelo://app?vid=8cccf456-ac02-4d77-b958-fdcfa8d0716f"},"vehicle_type_id":"4","last_reported":1706385955,"current_range_meters":11200,"station_id":"ce4bgvh2rcd13ifvqcs0","pricing_plan_id":"free"},{"bike_id":"186434da-3b94-49ad-bb8b-a9967a931f63","system_id":"levelo_inurba_marseille","lat":43.290345,"lon":5.38646,"is_reserved":false,"is_disabled":false,"rental_uris":{"android":"levelo://app?vid=186434da-3b94-49ad-bb8b-a9967a931f63","ios":"levelo://app?vid=186434da-3b94-49ad-bb8b-a9967a931f63"},"vehicle_type_id":"4","last_reported":1706385955,"current_range_meters":2800,"station_id":"ce4bh4p2rcd13ifvqe0g","pricing_plan_id":"free"},{"bike_id":"771a40bd-6aa6-43d6-90ac-6f05cd83378c","system_id":"levelo_inurba_marseille","lat":43.287184,"lon":5.37937,"is_reserved":false,"is_disabled":false,"rental_uris":{"android":"levelo://app?vid=771a40bd-6aa6-43d6-90ac-6f05cd83378c","ios":"levelo://app?vid=771a40bd-6aa6-43d6-90ac-6f05cd83378c"},"vehicle_type_id":"4","last_reported":1706385955,"current_range_meters":20000,"station_id":"ce4bh9p2rcd13ifvqec0","pricing_plan_id":"free"},{"bike_id":"9f5325a2-6454-46f4-8278-a234cbafc46d","system_id":"levelo_inurba_marseille","lat":43.287185,"lon":5.379373,"is_reserved":false,"is_disabled":false,"rental_uris":{"android":"levelo://app?vid=9f5325a2-6454-46f4-8278-a234cbafc46d","ios":"levelo://app?vid=9f5325a2-6454-46f4-8278-a234cbafc46d"},"vehicle_type_id":"4","last_reported":1706385955,"current_range_meters":14000,"station_id":"ce4bh9p2rcd13ifvqec0","pricing_plan_id":"free"},{"bike_id":"e8d870d9-d352-4cbe-b1af-f73e0c69c069","system_id":"levelo_inurba_marseille","lat":43.287185,"lon":5.379373,"is_reserved":false,"is_disabled":false,"rental_uris":{"android":"levelo://app?vid=e8d870d9-d352-4cbe-b1af-f73e0c69c069","ios":"levelo://app?vid=e8d870d9-d352-4cbe-b1af-f73e0c69c069"},"vehicle_type_id":"4","last_reported":1706385955,"current_range_meters":7200,"station_id":"ce4bh9p2rcd13ifvqec0","pricing_plan_id":"free"},{"bike_id":"4371ed61-7dcb-4aee-8b59-f6d1ccace2b5","system_id":"levelo_inurba_marseille","lat":43.287184,"lon":5.37937,"is_reserved":false,"is_disabled":false,"rental_uris":{"android":"levelo://app?vid=4371ed61-7dcb-4aee-8b59-f6d1ccace2b5","ios":"levelo://app?vid=4371ed61-7dcb-4aee-8b59-f6d1ccace2b5"},"vehicle_type_id":"4","last_reported":1706385955,"current_range_meters":24000,"station_id":"ce4bh9p2rcd13ifvqec0","pricing_plan_id":"free"},{"bike_id":"3f902acc-107e-4c90-a395-45f9b66de96c","system_id":"levelo_inurba_marseille","lat":43.31683,"lon":5.40467,"is_reserved":false,"is_disabled":false,"rental_uris":{"android":"levelo://app?vid=3f902acc-107e-4c90-a395-45f9b66de96c","ios":"levelo://app?vid=3f902acc-107e-4c90-a395-45f9b66de96c"},"vehicle_type_id":"4","last_reported":1706385955,"current_range_meters":18000,"station_id":"ce4bh012rcd13ifvqd00","pricing_plan_id":"free"},{"bike_id":"db025999-994d-4711-99f8-b239bf5fe9f1","system_id":"levelo_inurba_marseille","lat":43.31684,"lon":5.40472,"is_reserved":false,"is_disabled":false,"rental_uris":{"android":"levelo://app?vid=db025999-994d-4711-99f8-b239bf5fe9f1","ios":"levelo://app?vid=db025999-994d-4711-99f8-b239bf5fe9f1"},"vehicle_type_id":"4","last_reported":1706385955,"current_range_meters":14000,"station_id":"ce4bh012rcd13ifvqd00","pricing_plan_id":"free"},{"bike_id":"d5ad36f4-1365-4cda-9660-2f04755d1815","system_id":"levelo_inurba_marseille","lat":43.294314,"lon":5.397498,"is_reserved":false,"is_disabled":false,"rental_uris":{"android":"levelo://app?vid=d5ad36f4-1365-4cda-9660-2f04755d1815","ios":"levelo://app?vid=d5ad36f4-1365-4cda-9660-2f04755d1815"},"vehicle_type_id":"4","last_reported":1706385955,"current_range_meters":25600,"station_id":"ce4bh3h2rcd13ifvqdo0","pricing_plan_id":"free"},{"bike_id":"24766a62-ce3d-4dfe-9011-98c7c6be5202","system_id":"levelo_inurba_marseille","lat":43.283998,"lon":5.375062,"is_reserved":false,"is_disabled":false,"rental_uris":{"android":"levelo://app?vid=24766a62-ce3d-4dfe-9011-98c7c6be5202","ios":"levelo://app?vid=24766a62-ce3d-4dfe-9011-98c7c6be5202"},"vehicle_type_id":"4","last_reported":1706385955,"current_range_meters":6800,"station_id":"ce4bh412rcd13ifvqds0","pricing_plan_id":"free"},{"bike_id":"d857ccfe-fe6f-44ca-8cb4-418a361337cd","system_id":"levelo_inurba_marseille","lat":43.295713,"lon":5.399639,"is_reserved":false,"is_disabled":false,"rental_uris":{"android":"levelo://app?vid=d857ccfe-fe6f-44ca-8cb4-418a361337cd","ios":"levelo://app?vid=d857ccfe-fe6f-44ca-8cb4-418a361337cd"},"vehicle_type_id":"4","last_reported":1706385955,"current_range_meters":16000,"station_id":"ce4bh312rcd13ifvqdj0","pricing_plan_id":"free"},{"bike_id":"3d29c145-8885-48fd-81af-b1bb3aacb9c4","system_id":"levelo_inurba_marseille","lat":43.283998,"lon":5.375062,"is_reserved":false,"is_disabled":false,"rental_uris":{"android":"levelo://app?vid=3d29c145-8885-48fd-81af-b1bb3aacb9c4","ios":"levelo://app?vid=3d29c145-8885-48fd-81af-b1bb3aacb9c4"},"vehicle_type_id":"4","last_reported":1706385955,"current_range_meters":4000,"station_id":"ce4bh412rcd13ifvqds0","pricing_plan_id":"free"},{"bike_id":"a5a2fa08-b5dd-407f-9057-a8a355cb65ec","system_id":"levelo_inurba_marseille","lat":43.295713,"lon":5.399639,"is_reserved":false,"is_disabled":false,"rental_uris":{"android":"levelo://app?vid=a5a2fa08-b5dd-407f-9057-a8a355cb65ec","ios":"levelo://app?vid=a5a2fa08-b5dd-407f-9057-a8a355cb65ec"},"vehicle_type_id":"4","last_reported":1706385955,"current_range_meters":11200,"station_id":"ce4bh312rcd13ifvqdj0","pricing_plan_id":"free"},{"bike_id":"d464a807-7e7f-4991-bd28-630bfbfd1e92","system_id":"levelo_inurba_marseille","lat":43.295713,"lon":5.399639,"is_reserved":false,"is_disabled":false,"rental_uris":{"android":"levelo://app?vid=d464a807-7e7f-4991-bd28-630bfbfd1e92","ios":"levelo://app?vid=d464a807-7e7f-4991-bd28-630bfbfd1e92"},"vehicle_type_id":"4","last_reported":1706385955,"current_range_meters":0,"station_id":"ce4bh312rcd13ifvqdj0","pricing_plan_id":"free"},{"bike_id":"bff413da-a52b-42e6-829d-d4a8a1c37171","system_id":"levelo_inurba_marseille","lat":43.295713,"lon":5.399639,"is_reserved":false,"is_disabled":false,"rental_uris":{"android":"levelo://app?vid=bff413da-a52b-42e6-829d-d4a8a1c37171","ios":"levelo://app?vid=bff413da-a52b-42e6-829d-d4a8a1c37171"},"vehicle_type_id":"4","last_reported":1706385955,"current_range_meters":25200,"station_id":"ce4bh312rcd13ifvqdj0","pricing_plan_id":"free"},{"bike_id":"87cc6532-52ee-41fe-a563-1e3995ad1b27","system_id":"levelo_inurba_marseille","lat":43.286595,"lon":5.386795,"is_reserved":false,"is_disabled":false,"rental_uris":{"android":"levelo://app?vid=87cc6532-52ee-41fe-a563-1e3995ad1b27","ios":"levelo://app?vid=87cc6532-52ee-41fe-a563-1e3995ad1b27"},"vehicle_type_id":"4","last_reported":1706385955,"current_range_meters":400,"station_id":"ce4bh492rcd13ifvqdug","pricing_plan_id":"free"},{"bike_id":"e07d864a-5397-4c18-a488-2d1ba1b97f83","system_id":"levelo_inurba_marseille","lat":43.286595,"lon":5.386795,"is_reserved":false,"is_disabled":false,"rental_uris":{"android":"levelo://app?vid=e07d864a-5397-4c18-a488-2d1ba1b97f83","ios":"levelo://app?vid=e07d864a-5397-4c18-a488-2d1ba1b97f83"},"vehicle_type_id":"4","last_reported":1706385955,"current_range_meters":28400,"station_id":"ce4bh492rcd13ifvqdug","pricing_plan_id":"free"},{"bike_id":"2b5f4982-548b-4158-a72b-a9e801ba15e5","system_id":"levelo_inurba_marseille","lat":43.323464,"lon":5.406297,"is_reserved":false,"is_disabled":false,"rental_uris":{"android":"levelo://app?vid=2b5f4982-548b-4158-a72b-a9e801ba15e5","ios":"levelo://app?vid=2b5f4982-548b-4158-a72b-a9e801ba15e5"},"vehicle_type_id":"4","last_reported":1706385955,"current_range_meters":20800,"station_id":"ce4bhq92rcd13ifvqhjg","pricing_plan_id":"free"},{"bike_id":"a3f30509-feaf-4375-af71-8a441027e5bd","system_id":"levelo_inurba_marseille","lat":43.33717,"lon":5.391857,"is_reserved":false,"is_disabled":false,"rental_uris":{"android":"levelo://app?vid=a3f30509-feaf-4375-af71-8a441027e5bd","ios":"levelo://app?vid=a3f30509-feaf-4375-af71-8a441027e5bd"},"vehicle_type_id":"4","last_reported":1706385955,"current_range_meters":24800,"station_id":"ce4bhr92rcd13ifvqhsg","pricing_plan_id":"free"},{"bike_id":"2bb38835-1a5e-4d01-8935-6396d43e5266","system_id":"levelo_inurba_marseille","lat":43.337168,"lon":5.391825,"is_reserved":false,"is_disabled":false,"rental_uris":{"android":"levelo://app?vid=2bb38835-1a5e-4d01-8935-6396d43e5266","ios":"levelo://app?vid=2bb38835-1a5e-4d01-8935-6396d43e5266"},"vehicle_type_id":"4","last_reported":1706385955,"current_range_meters":23200,"station_id":"ce4bhr92rcd13ifvqhsg","pricing_plan_id":"free"},{"bike_id":"608023ac-2d15-4b60-9e4c-c3cbc079d26d","system_id":"levelo_inurba_marseille","lat":43.284793,"lon":5.384113,"is_reserved":false,"is_disabled":false,"rental_uris":{"android":"levelo://app?vid=608023ac-2d15-4b60-9e4c-c3cbc079d26d","ios":"levelo://app?vid=608023ac-2d15-4b60-9e4c-c3cbc079d26d"},"vehicle_type_id":"4","last_reported":1706385955,"current_range_meters":800,"station_id":"ce4bh512rcd13ifvqe3g","pricing_plan_id":"free"},{"bike_id":"d25fc000-facf-4224-aaff-3930f6d1e6c6","system_id":"levelo_inurba_marseille","lat":43.284787,"lon":5.384116,"is_reserved":false,"is_disabled":false,"rental_uris":{"android":"levelo://app?vid=d25fc000-facf-4224-aaff-3930f6d1e6c6","ios":"levelo://app?vid=d25fc000-facf-4224-aaff-3930f6d1e6c6"},"vehicle_type_id":"4","last_reported":1706385955,"current_range_meters":2800,"station_id":"ce4bh512rcd13ifvqe3g","pricing_plan_id":"free"},{"bike_id":"bab5eaab-4e16-4abc-8fb3-38afff0196f3","system_id":"levelo_inurba_marseille","lat":43.298,"lon":5.404118,"is_reserved":false,"is_disabled":false,"rental_uris":{"android":"levelo://app?vid=bab5eaab-4e16-4abc-8fb3-38afff0196f3","ios":"levelo://app?vid=bab5eaab-4e16-4abc-8fb3-38afff0196f3"},"vehicle_type_id":"4","last_reported":1706385955,"current_range_meters":1200,"station_id":"ce4bh112rcd13ifvqd90","pricing_plan_id":"free"},{"bike_id":"b41bcd76-cb12-4b33-95cd-9444d1e23578","system_id":"levelo_inurba_marseille","lat":43.293556,"lon":5.401561,"is_reserved":false,"is_disabled":false,"rental_uris":{"android":"levelo://app?vid=b41bcd76-cb12-4b33-95cd-9444d1e23578","ios":"levelo://app?vid=b41bcd76-cb12-4b33-95cd-9444d1e23578"},"vehicle_type_id":"4","last_reported":1706385955,"current_range_meters":8800,"station_id":"","pricing_plan_id":"free"},{"bike_id":"9c44152c-7d5d-45bd-a809-4c5dec73d8e8","system_id":"levelo_inurba_marseille","lat":43.289363,"lon":5.396322,"is_reserved":false,"is_disabled":false,"rental_uris":{"android":"levelo://app?vid=9c44152c-7d5d-45bd-a809-4c5dec73d8e8","ios":"levelo://app?vid=9c44152c-7d5d-45bd-a809-4c5dec73d8e8"},"vehicle_type_id":"4","last_reported":1706385955,"current_range_meters":0,"station_id":"ce4bh3h2rcd13ifvqdn0","pricing_plan_id":"free"},{"bike_id":"05279f1f-ca87-46e8-92e4-269acb88880c","system_id":"levelo_inurba_marseille","lat":43.292724,"lon":5.401131,"is_reserved":false,"is_disabled":false,"rental_uris":{"android":"levelo://app?vid=05279f1f-ca87-46e8-92e4-269acb88880c","ios":"levelo://app?vid=05279f1f-ca87-46e8-92e4-269acb88880c"},"vehicle_type_id":"4","last_reported":1706385955,"current_range_meters":19200,"station_id":"ce4bh312rcd13ifvqdk0","pricing_plan_id":"free"},{"bike_id":"8d3bbd36-8747-4320-90c6-89772047e313","system_id":"levelo_inurba_marseille","lat":43.28039,"lon":5.369297,"is_reserved":false,"is_disabled":false,"rental_uris":{"android":"levelo://app?vid=8d3bbd36-8747-4320-90c6-89772047e313","ios":"levelo://app?vid=8d3bbd36-8747-4320-90c6-89772047e313"},"vehicle_type_id":"4","last_reported":1706385955,"current_range_meters":4400,"station_id":"ce4bha12rcd13ifvqef0","pricing_plan_id":"free"},{"bike_id":"d1ca2ee8-80ac-445a-9fa8-4c59ca1acbf4","system_id":"levelo_inurba_marseille","lat":43.290412,"lon":5.399633,"is_reserved":false,"is_disabled":false,"rental_uris":{"android":"levelo://app?vid=d1ca2ee8-80ac-445a-9fa8-4c59ca1acbf4","ios":"levelo://app?vid=d1ca2ee8-80ac-445a-9fa8-4c59ca1acbf4"},"vehicle_type_id":"4","last_reported":1706385955,"current_range_meters":12400,"station_id":"ce4bh392rcd13ifvqdm0","pricing_plan_id":"free"},{"bike_id":"30fa10b2-4c40-4f45-b55f-7d7fa5ac1ea4","system_id":"levelo_inurba_marseille","lat":43.284462,"lon":5.392121,"is_reserved":false,"is_disabled":false,"rental_uris":{"android":"levelo://app?vid=30fa10b2-4c40-4f45-b55f-7d7fa5ac1ea4","ios":"levelo://app?vid=30fa10b2-4c40-4f45-b55f-7d7fa5ac1ea4"},"vehicle_type_id":"4","last_reported":1706385955,"current_range_meters":19200,"station_id":"ce4bhoh2rcd13ifvqh5g","pricing_plan_id":"free"},{"bike_id":"5908d44b-d88a-4644-897f-5f2ac41b3103","system_id":"levelo_inurba_marseille","lat":43.284462,"lon":5.392121,"is_reserved":false,"is_disabled":false,"rental_uris":{"android":"levelo://app?vid=5908d44b-d88a-4644-897f-5f2ac41b3103","ios":"levelo://app?vid=5908d44b-d88a-4644-897f-5f2ac41b3103"},"vehicle_type_id":"4","last_reported":1706385955,"current_range_meters":20800,"station_id":"ce4bhoh2rcd13ifvqh5g","pricing_plan_id":"free"},{"bike_id":"0b06d2eb-4b86-4521-b262-b5461273decc","system_id":"levelo_inurba_marseille","lat":43.284462,"lon":5.392121,"is_reserved":false,"is_disabled":false,"rental_uris":{"android":"levelo://app?vid=0b06d2eb-4b86-4521-b262-b5461273decc","ios":"levelo://app?vid=0b06d2eb-4b86-4521-b262-b5461273decc"},"vehicle_type_id":"4","last_reported":1706385955,"current_range_meters":12400,"station_id":"ce4bhoh2rcd13ifvqh5g","pricing_plan_id":"free"},{"bike_id":"2ccd89ed-1e0a-4d13-b4e6-0e739258d85e","system_id":"levelo_inurba_marseille","lat":43.28573,"lon":5.394992,"is_reserved":false,"is_disabled":false,"rental_uris":{"android":"levelo://app?vid=2ccd89ed-1e0a-4d13-b4e6-0e739258d85e","ios":"levelo://app?vid=2ccd89ed-1e0a-4d13-b4e6-0e739258d85e"},"vehicle_type_id":"4","last_reported":1706385955,"current_range_meters":4400,"station_id":"ce4bh292rcd13ifvqdg0","pricing_plan_id":"free"},{"bike_id":"72ef14e3-872a-4f25-8441-4570313aed12","system_id":"levelo_inurba_marseille","lat":43.28573,"lon":5.394992,"is_reserved":false,"is_disabled":false,"rental_uris":{"android":"levelo://app?vid=72ef14e3-872a-4f25-8441-4570313aed12","ios":"levelo://app?vid=72ef14e3-872a-4f25-8441-4570313aed12"},"vehicle_type_id":"4","last_reported":1706385955,"current_range_meters":12000,"station_id":"ce4bh292rcd13ifvqdg0","pricing_plan_id":"free"},{"bike_id":"046406e2-3124-4f65-a46c-e831ec439c33","system_id":"levelo_inurba_marseille","lat":43.326605,"lon":5.409903,"is_reserved":false,"is_disabled":false,"rental_uris":{"android":"levelo://app?vid=046406e2-3124-4f65-a46c-e831ec439c33","ios":"levelo://app?vid=046406e2-3124-4f65-a46c-e831ec439c33"},"vehicle_type_id":"4","last_reported":1706385955,"current_range_meters":18800,"station_id":"ce4bhpp2rcd13ifvqhgg","pricing_plan_id":"free"},{"bike_id":"5828c9ee-1e73-413b-8be8-7177d57a273a","system_id":"levelo_inurba_marseille","lat":43.304188,"lon":5.412904,"is_reserved":false,"is_disabled":false,"rental_uris":{"android":"levelo://app?vid=5828c9ee-1e73-413b-8be8-7177d57a273a","ios":"levelo://app?vid=5828c9ee-1e73-413b-8be8-7177d57a273a"},"vehicle_type_id":"4","last_reported":1706385955,"current_range_meters":0,"station_id":"ce4bhop2rcd13ifvqh8g","pricing_plan_id":"free"},{"bike_id":"7b2e6cc4-d84f-4dd1-98b9-fc9f8c3a9992","system_id":"levelo_inurba_marseille","lat":43.2829,"lon":5.39096,"is_reserved":false,"is_disabled":false,"rental_uris":{"android":"levelo://app?vid=7b2e6cc4-d84f-4dd1-98b9-fc9f8c3a9992","ios":"levelo://app?vid=7b2e6cc4-d84f-4dd1-98b9-fc9f8c3a9992"},"vehicle_type_id":"4","last_reported":1706385955,"current_range_meters":0,"station_id":"","pricing_plan_id":"free"},{"bike_id":"587e0fd0-efb4-4556-8019-aa9f52298949","system_id":"levelo_inurba_marseille","lat":43.279087,"lon":5.380114,"is_reserved":false,"is_disabled":false,"rental_uris":{"android":"levelo://app?vid=587e0fd0-efb4-4556-8019-aa9f52298949","ios":"levelo://app?vid=587e0fd0-efb4-4556-8019-aa9f52298949"},"vehicle_type_id":"4","last_reported":1706385955,"current_range_meters":1200,"station_id":"ce4bhf92rcd13ifvqf50","pricing_plan_id":"free"},{"bike_id":"9114dfde-63c5-490b-8080-cb1c7a31fe39","system_id":"levelo_inurba_marseille","lat":43.279087,"lon":5.380114,"is_reserved":false,"is_disabled":false,"rental_uris":{"android":"levelo://app?vid=9114dfde-63c5-490b-8080-cb1c7a31fe39","ios":"levelo://app?vid=9114dfde-63c5-490b-8080-cb1c7a31fe39"},"vehicle_type_id":"4","last_reported":1706385955,"current_range_meters":0,"station_id":"ce4bhf92rcd13ifvqf50","pricing_plan_id":"free"},{"bike_id":"3bb97bac-72f4-4034-b5c6-039901b30c29","system_id":"levelo_inurba_marseille","lat":43.287154,"lon":5.399979,"is_reserved":false,"is_disabled":false,"rental_uris":{"android":"levelo://app?vid=3bb97bac-72f4-4034-b5c6-039901b30c29","ios":"levelo://app?vid=3bb97bac-72f4-4034-b5c6-039901b30c29"},"vehicle_type_id":"4","last_reported":1706385955,"current_range_meters":2400,"station_id":"ce4bho92rcd13ifvqh3g","pricing_plan_id":"free"},{"bike_id":"db1e25e1-71c7-4da3-b9a6-65dabd14e57e","system_id":"levelo_inurba_marseille","lat":43.287154,"lon":5.399979,"is_reserved":false,"is_disabled":false,"rental_uris":{"android":"levelo://app?vid=db1e25e1-71c7-4da3-b9a6-65dabd14e57e","ios":"levelo://app?vid=db1e25e1-71c7-4da3-b9a6-65dabd14e57e"},"vehicle_type_id":"4","last_reported":1706385955,"current_range_meters":6800,"station_id":"ce4bho92rcd13ifvqh3g","pricing_plan_id":"free"},{"bike_id":"92e8da09-3409-4000-9985-171117abb951","system_id":"levelo_inurba_marseille","lat":43.303837,"lon":5.418724,"is_reserved":false,"is_disabled":false,"rental_uris":{"android":"levelo://app?vid=92e8da09-3409-4000-9985-171117abb951","ios":"levelo://app?vid=92e8da09-3409-4000-9985-171117abb951"},"vehicle_type_id":"4","last_reported":1706385955,"current_range_meters":17200,"station_id":"ce4bhop2rcd13ifvqh7g","pricing_plan_id":"free"},{"bike_id":"ec389e75-8cea-4be6-8517-e15f0b47835c","system_id":"levelo_inurba_marseille","lat":43.32047,"lon":5.41526,"is_reserved":false,"is_disabled":false,"rental_uris":{"android":"levelo://app?vid=ec389e75-8cea-4be6-8517-e15f0b47835c","ios":"levelo://app?vid=ec389e75-8cea-4be6-8517-e15f0b47835c"},"vehicle_type_id":"4","last_reported":1706385955,"current_range_meters":24000,"station_id":"ce4bhq92rcd13ifvqhkg","pricing_plan_id":"free"},{"bike_id":"4cfb52ab-16e2-4328-b836-ae64141dad00","system_id":"levelo_inurba_marseille","lat":43.32044,"lon":5.41534,"is_reserved":false,"is_disabled":false,"rental_uris":{"android":"levelo://app?vid=4cfb52ab-16e2-4328-b836-ae64141dad00","ios":"levelo://app?vid=4cfb52ab-16e2-4328-b836-ae64141dad00"},"vehicle_type_id":"4","last_reported":1706385955,"current_range_meters":17200,"station_id":"ce4bhq92rcd13ifvqhkg","pricing_plan_id":"free"},{"bike_id":"2973af37-eb47-4ea4-b919-cd38df4c8fdd","system_id":"levelo_inurba_marseille","lat":43.32037,"lon":5.41537,"is_reserved":false,"is_disabled":false,"rental_uris":{"android":"levelo://app?vid=2973af37-eb47-4ea4-b919-cd38df4c8fdd","ios":"levelo://app?vid=2973af37-eb47-4ea4-b919-cd38df4c8fdd"},"vehicle_type_id":"4","last_reported":1706385955,"current_range_meters":20000,"station_id":"ce4bhq92rcd13ifvqhkg","pricing_plan_id":"free"},{"bike_id":"f83a3a7e-1d78-42cc-a2d9-6a1634b4b2ae","system_id":"levelo_inurba_marseille","lat":43.320577,"lon":5.41534,"is_reserved":false,"is_disabled":false,"rental_uris":{"android":"levelo://app?vid=f83a3a7e-1d78-42cc-a2d9-6a1634b4b2ae","ios":"levelo://app?vid=f83a3a7e-1d78-42cc-a2d9-6a1634b4b2ae"},"vehicle_type_id":"4","last_reported":1706385955,"current_range_meters":31200,"station_id":"ce4bhq92rcd13ifvqhkg","pricing_plan_id":"free"},{"bike_id":"4977dd65-369e-417b-9c52-fe977a945b82","system_id":"levelo_inurba_marseille","lat":43.320045,"lon":5.415048,"is_reserved":false,"is_disabled":false,"rental_uris":{"android":"levelo://app?vid=4977dd65-369e-417b-9c52-fe977a945b82","ios":"levelo://app?vid=4977dd65-369e-417b-9c52-fe977a945b82"},"vehicle_type_id":"4","last_reported":1706385955,"current_range_meters":28800,"station_id":"ce4bhq92rcd13ifvqhkg","pricing_plan_id":"free"},{"bike_id":"09b6ee3e-51fd-4add-b1f5-fb3703f213ce","system_id":"levelo_inurba_marseille","lat":43.320604,"lon":5.415449,"is_reserved":false,"is_disabled":false,"rental_uris":{"android":"levelo://app?vid=09b6ee3e-51fd-4add-b1f5-fb3703f213ce","ios":"levelo://app?vid=09b6ee3e-51fd-4add-b1f5-fb3703f213ce"},"vehicle_type_id":"4","last_reported":1706385955,"current_range_meters":7200,"station_id":"ce4bhq92rcd13ifvqhkg","pricing_plan_id":"free"},{"bike_id":"1d7f3b16-6f90-4bcd-8c1e-17ee3c541e06","system_id":"levelo_inurba_marseille","lat":43.279742,"lon":5.38744,"is_reserved":false,"is_disabled":false,"rental_uris":{"android":"levelo://app?vid=1d7f3b16-6f90-4bcd-8c1e-17ee3c541e06","ios":"levelo://app?vid=1d7f3b16-6f90-4bcd-8c1e-17ee3c541e06"},"vehicle_type_id":"4","last_reported":1706385955,"current_range_meters":4400,"station_id":"ce4bhg12rcd13ifvqf80","pricing_plan_id":"free"},{"bike_id":"722e2165-0e62-4f14-9454-9500daf6ff60","system_id":"levelo_inurba_marseille","lat":43.3204,"lon":5.41555,"is_reserved":false,"is_disabled":false,"rental_uris":{"android":"levelo://app?vid=722e2165-0e62-4f14-9454-9500daf6ff60","ios":"levelo://app?vid=722e2165-0e62-4f14-9454-9500daf6ff60"},"vehicle_type_id":"4","last_reported":1706385955,"current_range_meters":2800,"station_id":"ce4bhq92rcd13ifvqhkg","pricing_plan_id":"free"},{"bike_id":"fcf5ad55-9d29-48f4-b96b-b5827880831a","system_id":"levelo_inurba_marseille","lat":43.32,"lon":5.41579,"is_reserved":false,"is_disabled":false,"rental_uris":{"android":"levelo://app?vid=fcf5ad55-9d29-48f4-b96b-b5827880831a","ios":"levelo://app?vid=fcf5ad55-9d29-48f4-b96b-b5827880831a"},"vehicle_type_id":"4","last_reported":1706385955,"current_range_meters":16400,"station_id":"","pricing_plan_id":"free"},{"bike_id":"d996d290-e6fd-4548-bb86-aa3c38ac8963","system_id":"levelo_inurba_marseille","lat":43.292571,"lon":5.409107,"is_reserved":false,"is_disabled":false,"rental_uris":{"android":"levelo://app?vid=d996d290-e6fd-4548-bb86-aa3c38ac8963","ios":"levelo://app?vid=d996d290-e6fd-4548-bb86-aa3c38ac8963"},"vehicle_type_id":"4","last_reported":1706385955,"current_range_meters":5200,"station_id":"ce4bh192rcd13ifvqdc0","pricing_plan_id":"free"},{"bike_id":"83f4c493-d3f6-47a7-8951-2b55b90214a9","system_id":"levelo_inurba_marseille","lat":43.292571,"lon":5.409107,"is_reserved":false,"is_disabled":false,"rental_uris":{"android":"levelo://app?vid=83f4c493-d3f6-47a7-8951-2b55b90214a9","ios":"levelo://app?vid=83f4c493-d3f6-47a7-8951-2b55b90214a9"},"vehicle_type_id":"4","last_reported":1706385955,"current_range_meters":10400,"station_id":"ce4bh192rcd13ifvqdc0","pricing_plan_id":"free"},{"bike_id":"ff6f1a48-047a-4283-9d12-ab6f6d5501ff","system_id":"levelo_inurba_marseille","lat":43.292569,"lon":5.409107,"is_reserved":false,"is_disabled":false,"rental_uris":{"android":"levelo://app?vid=ff6f1a48-047a-4283-9d12-ab6f6d5501ff","ios":"levelo://app?vid=ff6f1a48-047a-4283-9d12-ab6f6d5501ff"},"vehicle_type_id":"4","last_reported":1706385955,"current_range_meters":25200,"station_id":"ce4bh192rcd13ifvqdc0","pricing_plan_id":"free"},{"bike_id":"1c671a07-0233-4e9c-b2df-d2738f343ac0","system_id":"levelo_inurba_marseille","lat":43.27618,"lon":5.361009,"is_reserved":false,"is_disabled":false,"rental_uris":{"android":"levelo://app?vid=1c671a07-0233-4e9c-b2df-d2738f343ac0","ios":"levelo://app?vid=1c671a07-0233-4e9c-b2df-d2738f343ac0"},"vehicle_type_id":"4","last_reported":1706385955,"current_range_meters":2400,"station_id":"ce4bgj92rcd13ifvqbe0","pricing_plan_id":"free"},{"bike_id":"b5c2bd8b-428c-4b44-b484-5534fe023740","system_id":"levelo_inurba_marseille","lat":43.276179,"lon":5.361009,"is_reserved":false,"is_disabled":false,"rental_uris":{"android":"levelo://app?vid=b5c2bd8b-428c-4b44-b484-5534fe023740","ios":"levelo://app?vid=b5c2bd8b-428c-4b44-b484-5534fe023740"},"vehicle_type_id":"4","last_reported":1706385955,"current_range_meters":10400,"station_id":"ce4bgj92rcd13ifvqbe0","pricing_plan_id":"free"},{"bike_id":"9a417061-d415-48e8-9e5b-cd111674e5c4","system_id":"levelo_inurba_marseille","lat":43.280784,"lon":5.396622,"is_reserved":false,"is_disabled":false,"rental_uris":{"android":"levelo://app?vid=9a417061-d415-48e8-9e5b-cd111674e5c4","ios":"levelo://app?vid=9a417061-d415-48e8-9e5b-cd111674e5c4"},"vehicle_type_id":"4","last_reported":1706385955,"current_range_meters":28800,"station_id":"ce4bho12rcd13ifvqh2g","pricing_plan_id":"free"},{"bike_id":"33403f65-7f5e-4335-bfde-cbf758fedf56","system_id":"levelo_inurba_marseille","lat":43.303837,"lon":5.418724,"is_reserved":false,"is_disabled":false,"rental_uris":{"android":"levelo://app?vid=33403f65-7f5e-4335-bfde-cbf758fedf56","ios":"levelo://app?vid=33403f65-7f5e-4335-bfde-cbf758fedf56"},"vehicle_type_id":"4","last_reported":1706385955,"current_range_meters":800,"station_id":"ce4bhop2rcd13ifvqh7g","pricing_plan_id":"free"},{"bike_id":"88d2c9b0-3248-4ccc-a383-1e24083a1f43","system_id":"levelo_inurba_marseille","lat":43.30355,"lon":5.41876,"is_reserved":false,"is_disabled":false,"rental_uris":{"android":"levelo://app?vid=88d2c9b0-3248-4ccc-a383-1e24083a1f43","ios":"levelo://app?vid=88d2c9b0-3248-4ccc-a383-1e24083a1f43"},"vehicle_type_id":"4","last_reported":1706385955,"current_range_meters":4400,"station_id":"ce4bhop2rcd13ifvqh7g","pricing_plan_id":"free"},{"bike_id":"79cc6489-e605-48ce-a654-a413319785ac","system_id":"levelo_inurba_marseille","lat":43.303837,"lon":5.418724,"is_reserved":false,"is_disabled":false,"rental_uris":{"android":"levelo://app?vid=79cc6489-e605-48ce-a654-a413319785ac","ios":"levelo://app?vid=79cc6489-e605-48ce-a654-a413319785ac"},"vehicle_type_id":"4","last_reported":1706385955,"current_range_meters":15200,"station_id":"ce4bhop2rcd13ifvqh7g","pricing_plan_id":"free"},{"bike_id":"0665dc4e-57e8-4cce-87e3-c594041567cd","system_id":"levelo_inurba_marseille","lat":43.303837,"lon":5.418724,"is_reserved":false,"is_disabled":false,"rental_uris":{"android":"levelo://app?vid=0665dc4e-57e8-4cce-87e3-c594041567cd","ios":"levelo://app?vid=0665dc4e-57e8-4cce-87e3-c594041567cd"},"vehicle_type_id":"4","last_reported":1706385955,"current_range_meters":22000,"station_id":"ce4bhop2rcd13ifvqh7g","pricing_plan_id":"free"},{"bike_id":"8dec0c10-6cf2-4b36-a839-6533b7665a85","system_id":"levelo_inurba_marseille","lat":43.303837,"lon":5.418724,"is_reserved":false,"is_disabled":false,"rental_uris":{"android":"levelo://app?vid=8dec0c10-6cf2-4b36-a839-6533b7665a85","ios":"levelo://app?vid=8dec0c10-6cf2-4b36-a839-6533b7665a85"},"vehicle_type_id":"4","last_reported":1706385955,"current_range_meters":20000,"station_id":"ce4bhop2rcd13ifvqh7g","pricing_plan_id":"free"},{"bike_id":"219e447c-b35e-46a8-81b5-85429626dfb5","system_id":"levelo_inurba_marseille","lat":43.278353,"lon":5.391957,"is_reserved":false,"is_disabled":false,"rental_uris":{"android":"levelo://app?vid=219e447c-b35e-46a8-81b5-85429626dfb5","ios":"levelo://app?vid=219e447c-b35e-46a8-81b5-85429626dfb5"},"vehicle_type_id":"4","last_reported":1706385955,"current_range_meters":0,"station_id":"ce4bhjp2rcd13ifvqga0","pricing_plan_id":"free"},{"bike_id":"ec2d7f99-a58f-47ab-9252-45609ea84511","system_id":"levelo_inurba_marseille","lat":43.278401,"lon":5.392152,"is_reserved":false,"is_disabled":false,"rental_uris":{"android":"levelo://app?vid=ec2d7f99-a58f-47ab-9252-45609ea84511","ios":"levelo://app?vid=ec2d7f99-a58f-47ab-9252-45609ea84511"},"vehicle_type_id":"4","last_reported":1706385955,"current_range_meters":14400,"station_id":"ce4bhjp2rcd13ifvqga0","pricing_plan_id":"free"},{"bike_id":"e405ec28-3991-4d6e-be28-ded1ab199d77","system_id":"levelo_inurba_marseille","lat":43.2783,"lon":5.39201,"is_reserved":false,"is_disabled":false,"rental_uris":{"android":"levelo://app?vid=e405ec28-3991-4d6e-be28-ded1ab199d77","ios":"levelo://app?vid=e405ec28-3991-4d6e-be28-ded1ab199d77"},"vehicle_type_id":"4","last_reported":1706385955,"current_range_meters":0,"station_id":"ce4bhjp2rcd13ifvqga0","pricing_plan_id":"free"},{"bike_id":"3a62dd08-4bc1-4a20-adc8-d422b968856e","system_id":"levelo_inurba_marseille","lat":43.2738,"lon":5.36255,"is_reserved":false,"is_disabled":false,"rental_uris":{"android":"levelo://app?vid=3a62dd08-4bc1-4a20-adc8-d422b968856e","ios":"levelo://app?vid=3a62dd08-4bc1-4a20-adc8-d422b968856e"},"vehicle_type_id":"4","last_reported":1706385955,"current_range_meters":0,"station_id":"ce4bhbh2rcd13ifvqeo0","pricing_plan_id":"free"},{"bike_id":"81d50090-f1d5-4591-94b4-a770c875bece","system_id":"levelo_inurba_marseille","lat":43.275625,"lon":5.384392,"is_reserved":false,"is_disabled":false,"rental_uris":{"android":"levelo://app?vid=81d50090-f1d5-4591-94b4-a770c875bece","ios":"levelo://app?vid=81d50090-f1d5-4591-94b4-a770c875bece"},"vehicle_type_id":"4","last_reported":1706385955,"current_range_meters":18000,"station_id":"ce4bhh92rcd13ifvqfi0","pricing_plan_id":"free"},{"bike_id":"85cd4dc6-114d-4b5c-8d42-d490a3e018f6","system_id":"levelo_inurba_marseille","lat":43.273613,"lon":5.362705,"is_reserved":false,"is_disabled":false,"rental_uris":{"android":"levelo://app?vid=85cd4dc6-114d-4b5c-8d42-d490a3e018f6","ios":"levelo://app?vid=85cd4dc6-114d-4b5c-8d42-d490a3e018f6"},"vehicle_type_id":"4","last_reported":1706385955,"current_range_meters":4800,"station_id":"ce4bhbh2rcd13ifvqeo0","pricing_plan_id":"free"},{"bike_id":"555b7044-bebc-4cfa-a4a4-1e0f231ba08b","system_id":"levelo_inurba_marseille","lat":43.275625,"lon":5.384392,"is_reserved":false,"is_disabled":false,"rental_uris":{"android":"levelo://app?vid=555b7044-bebc-4cfa-a4a4-1e0f231ba08b","ios":"levelo://app?vid=555b7044-bebc-4cfa-a4a4-1e0f231ba08b"},"vehicle_type_id":"4","last_reported":1706385955,"current_range_meters":3600,"station_id":"ce4bhh92rcd13ifvqfi0","pricing_plan_id":"free"},{"bike_id":"325eafa1-ca24-4902-8839-60235bb65966","system_id":"levelo_inurba_marseille","lat":43.336134,"lon":5.410341,"is_reserved":false,"is_disabled":false,"rental_uris":{"android":"levelo://app?vid=325eafa1-ca24-4902-8839-60235bb65966","ios":"levelo://app?vid=325eafa1-ca24-4902-8839-60235bb65966"},"vehicle_type_id":"4","last_reported":1706385955,"current_range_meters":6800,"station_id":"ce4bhqh2rcd13ifvqhmg","pricing_plan_id":"free"},{"bike_id":"0520e41c-1900-438e-b035-0c52fa2237ab","system_id":"levelo_inurba_marseille","lat":43.279952,"lon":5.400085,"is_reserved":false,"is_disabled":false,"rental_uris":{"android":"levelo://app?vid=0520e41c-1900-438e-b035-0c52fa2237ab","ios":"levelo://app?vid=0520e41c-1900-438e-b035-0c52fa2237ab"},"vehicle_type_id":"4","last_reported":1706385955,"current_range_meters":8000,"station_id":"ce4bho92rcd13ifvqh4g","pricing_plan_id":"free"},{"bike_id":"5f1d2cfe-ae9a-4499-b3e5-66ede9a75fee","system_id":"levelo_inurba_marseille","lat":43.279952,"lon":5.400085,"is_reserved":false,"is_disabled":false,"rental_uris":{"android":"levelo://app?vid=5f1d2cfe-ae9a-4499-b3e5-66ede9a75fee","ios":"levelo://app?vid=5f1d2cfe-ae9a-4499-b3e5-66ede9a75fee"},"vehicle_type_id":"4","last_reported":1706385955,"current_range_meters":10400,"station_id":"ce4bho92rcd13ifvqh4g","pricing_plan_id":"free"},{"bike_id":"ea0d2951-586c-4e59-b307-88de37e5376b","system_id":"levelo_inurba_marseille","lat":43.279975,"lon":5.40009,"is_reserved":false,"is_disabled":false,"rental_uris":{"android":"levelo://app?vid=ea0d2951-586c-4e59-b307-88de37e5376b","ios":"levelo://app?vid=ea0d2951-586c-4e59-b307-88de37e5376b"},"vehicle_type_id":"4","last_reported":1706385955,"current_range_meters":6000,"station_id":"ce4bho92rcd13ifvqh4g","pricing_plan_id":"free"},{"bike_id":"6f46a34b-d5d1-4592-8607-98eec5146735","system_id":"levelo_inurba_marseille","lat":43.2837,"lon":5.4071,"is_reserved":false,"is_disabled":false,"rental_uris":{"android":"levelo://app?vid=6f46a34b-d5d1-4592-8607-98eec5146735","ios":"levelo://app?vid=6f46a34b-d5d1-4592-8607-98eec5146735"},"vehicle_type_id":"4","last_reported":1706385955,"current_range_meters":6000,"station_id":"","pricing_plan_id":"free"},{"bike_id":"71d90591-5f7c-490f-af55-6817cf4e60cc","system_id":"levelo_inurba_marseille","lat":43.2749,"lon":5.389765,"is_reserved":false,"is_disabled":false,"rental_uris":{"android":"levelo://app?vid=71d90591-5f7c-490f-af55-6817cf4e60cc","ios":"levelo://app?vid=71d90591-5f7c-490f-af55-6817cf4e60cc"},"vehicle_type_id":"4","last_reported":1706385955,"current_range_meters":0,"station_id":"","pricing_plan_id":"free"},{"bike_id":"1dc6aee1-185a-4c87-8b91-93bb335cd229","system_id":"levelo_inurba_marseille","lat":43.310785,"lon":5.424305,"is_reserved":false,"is_disabled":false,"rental_uris":{"android":"levelo://app?vid=1dc6aee1-185a-4c87-8b91-93bb335cd229","ios":"levelo://app?vid=1dc6aee1-185a-4c87-8b91-93bb335cd229"},"vehicle_type_id":"4","last_reported":1706385955,"current_range_meters":9600,"station_id":"ce4bhp92rcd13ifvqhag","pricing_plan_id":"free"},{"bike_id":"ee875769-e8b7-4caa-b3b8-2dad519b3fb1","system_id":"levelo_inurba_marseille","lat":43.310887,"lon":5.42429,"is_reserved":false,"is_disabled":false,"rental_uris":{"android":"levelo://app?vid=ee875769-e8b7-4caa-b3b8-2dad519b3fb1","ios":"levelo://app?vid=ee875769-e8b7-4caa-b3b8-2dad519b3fb1"},"vehicle_type_id":"4","last_reported":1706385955,"current_range_meters":17600,"station_id":"ce4bhp92rcd13ifvqhag","pricing_plan_id":"free"},{"bike_id":"76a1444e-7429-4c72-9ae5-313749a04157","system_id":"levelo_inurba_marseille","lat":43.310802,"lon":5.424352,"is_reserved":false,"is_disabled":false,"rental_uris":{"android":"levelo://app?vid=76a1444e-7429-4c72-9ae5-313749a04157","ios":"levelo://app?vid=76a1444e-7429-4c72-9ae5-313749a04157"},"vehicle_type_id":"4","last_reported":1706385955,"current_range_meters":17200,"station_id":"ce4bhp92rcd13ifvqhag","pricing_plan_id":"free"},{"bike_id":"d5481f7f-462b-4f75-8bb6-e63937c7aded","system_id":"levelo_inurba_marseille","lat":43.340804,"lon":5.410219,"is_reserved":false,"is_disabled":false,"rental_uris":{"android":"levelo://app?vid=d5481f7f-462b-4f75-8bb6-e63937c7aded","ios":"levelo://app?vid=d5481f7f-462b-4f75-8bb6-e63937c7aded"},"vehicle_type_id":"4","last_reported":1706385955,"current_range_meters":8400,"station_id":"ce4bhqh2rcd13ifvqhlg","pricing_plan_id":"free"},{"bike_id":"a98e2a5e-bdd6-494e-9351-adac87bae90b","system_id":"levelo_inurba_marseille","lat":43.27641,"lon":5.39768,"is_reserved":false,"is_disabled":false,"rental_uris":{"android":"levelo://app?vid=a98e2a5e-bdd6-494e-9351-adac87bae90b","ios":"levelo://app?vid=a98e2a5e-bdd6-494e-9351-adac87bae90b"},"vehicle_type_id":"4","last_reported":1706385955,"current_range_meters":0,"station_id":"","pricing_plan_id":"free"},{"bike_id":"aeffe340-2dcc-49b5-9167-d82cf29744eb","system_id":"levelo_inurba_marseille","lat":43.27326,"lon":5.39077,"is_reserved":false,"is_disabled":false,"rental_uris":{"android":"levelo://app?vid=aeffe340-2dcc-49b5-9167-d82cf29744eb","ios":"levelo://app?vid=aeffe340-2dcc-49b5-9167-d82cf29744eb"},"vehicle_type_id":"4","last_reported":1706385955,"current_range_meters":800,"station_id":"ce4bhgp2rcd13ifvqfe0","pricing_plan_id":"free"},{"bike_id":"f076693e-92b5-4c05-8cb8-b47ec381939b","system_id":"levelo_inurba_marseille","lat":43.273125,"lon":5.390731,"is_reserved":false,"is_disabled":false,"rental_uris":{"android":"levelo://app?vid=f076693e-92b5-4c05-8cb8-b47ec381939b","ios":"levelo://app?vid=f076693e-92b5-4c05-8cb8-b47ec381939b"},"vehicle_type_id":"4","last_reported":1706385955,"current_range_meters":22000,"station_id":"ce4bhgp2rcd13ifvqfe0","pricing_plan_id":"free"},{"bike_id":"b5e52bf3-7a58-4f29-9adc-4051a0ac6e17","system_id":"levelo_inurba_marseille","lat":43.27433,"lon":5.39409,"is_reserved":false,"is_disabled":false,"rental_uris":{"android":"levelo://app?vid=b5e52bf3-7a58-4f29-9adc-4051a0ac6e17","ios":"levelo://app?vid=b5e52bf3-7a58-4f29-9adc-4051a0ac6e17"},"vehicle_type_id":"4","last_reported":1706385955,"current_range_meters":16000,"station_id":"ce4bhdp2rcd13ifvqf20","pricing_plan_id":"free"},{"bike_id":"b05aa716-e993-4c70-99c4-dbe272cbcc26","system_id":"levelo_inurba_marseille","lat":43.27319,"lon":5.39088,"is_reserved":false,"is_disabled":false,"rental_uris":{"android":"levelo://app?vid=b05aa716-e993-4c70-99c4-dbe272cbcc26","ios":"levelo://app?vid=b05aa716-e993-4c70-99c4-dbe272cbcc26"},"vehicle_type_id":"4","last_reported":1706385955,"current_range_meters":0,"station_id":"ce4bhgp2rcd13ifvqfe0","pricing_plan_id":"free"},{"bike_id":"b934a97a-a264-4605-88b8-50a421326973","system_id":"levelo_inurba_marseille","lat":43.274103,"lon":5.394016,"is_reserved":false,"is_disabled":false,"rental_uris":{"android":"levelo://app?vid=b934a97a-a264-4605-88b8-50a421326973","ios":"levelo://app?vid=b934a97a-a264-4605-88b8-50a421326973"},"vehicle_type_id":"4","last_reported":1706385955,"current_range_meters":24800,"station_id":"ce4bhdp2rcd13ifvqf20","pricing_plan_id":"free"},{"bike_id":"79aba3fd-e7b6-41fe-974b-a11d6cc1ed17","system_id":"levelo_inurba_marseille","lat":43.295191,"lon":5.422649,"is_reserved":false,"is_disabled":false,"rental_uris":{"android":"levelo://app?vid=79aba3fd-e7b6-41fe-974b-a11d6cc1ed17","ios":"levelo://app?vid=79aba3fd-e7b6-41fe-974b-a11d6cc1ed17"},"vehicle_type_id":"4","last_reported":1706385955,"current_range_meters":20800,"station_id":"ce4bhph2rcd13ifvqhdg","pricing_plan_id":"free"},{"bike_id":"b2d4d8a5-9c8f-4c1f-9cd4-c63e9c58d660","system_id":"levelo_inurba_marseille","lat":43.272124,"lon":5.391768,"is_reserved":false,"is_disabled":false,"rental_uris":{"android":"levelo://app?vid=b2d4d8a5-9c8f-4c1f-9cd4-c63e9c58d660","ios":"levelo://app?vid=b2d4d8a5-9c8f-4c1f-9cd4-c63e9c58d660"},"vehicle_type_id":"4","last_reported":1706385955,"current_range_meters":0,"station_id":"ce4bhhp2rcd13ifvqfm0","pricing_plan_id":"free"},{"bike_id":"eb9790ec-8812-4478-a427-ad52a5ce8f4d","system_id":"levelo_inurba_marseille","lat":43.272124,"lon":5.391768,"is_reserved":false,"is_disabled":false,"rental_uris":{"android":"levelo://app?vid=eb9790ec-8812-4478-a427-ad52a5ce8f4d","ios":"levelo://app?vid=eb9790ec-8812-4478-a427-ad52a5ce8f4d"},"vehicle_type_id":"4","last_reported":1706385955,"current_range_meters":20000,"station_id":"ce4bhhp2rcd13ifvqfm0","pricing_plan_id":"free"},{"bike_id":"aff13e64-ac0c-41c6-a83a-b31389b2be67","system_id":"levelo_inurba_marseille","lat":43.272124,"lon":5.391768,"is_reserved":false,"is_disabled":false,"rental_uris":{"android":"levelo://app?vid=aff13e64-ac0c-41c6-a83a-b31389b2be67","ios":"levelo://app?vid=aff13e64-ac0c-41c6-a83a-b31389b2be67"},"vehicle_type_id":"4","last_reported":1706385955,"current_range_meters":0,"station_id":"ce4bhhp2rcd13ifvqfm0","pricing_plan_id":"free"},{"bike_id":"6b1ad2d1-7ca1-4e82-91fb-1ad7ec0bdad0","system_id":"levelo_inurba_marseille","lat":43.272124,"lon":5.391768,"is_reserved":false,"is_disabled":false,"rental_uris":{"android":"levelo://app?vid=6b1ad2d1-7ca1-4e82-91fb-1ad7ec0bdad0","ios":"levelo://app?vid=6b1ad2d1-7ca1-4e82-91fb-1ad7ec0bdad0"},"vehicle_type_id":"4","last_reported":1706385955,"current_range_meters":20000,"station_id":"ce4bhhp2rcd13ifvqfm0","pricing_plan_id":"free"},{"bike_id":"dd440f26-a9a6-4cd9-aed6-61782c89440d","system_id":"levelo_inurba_marseille","lat":43.272116,"lon":5.391747,"is_reserved":false,"is_disabled":false,"rental_uris":{"android":"levelo://app?vid=dd440f26-a9a6-4cd9-aed6-61782c89440d","ios":"levelo://app?vid=dd440f26-a9a6-4cd9-aed6-61782c89440d"},"vehicle_type_id":"4","last_reported":1706385955,"current_range_meters":7200,"station_id":"ce4bhhp2rcd13ifvqfm0","pricing_plan_id":"free"},{"bike_id":"151bd055-1583-4af2-9d1a-4f6ac270580d","system_id":"levelo_inurba_marseille","lat":43.272124,"lon":5.391768,"is_reserved":false,"is_disabled":false,"rental_uris":{"android":"levelo://app?vid=151bd055-1583-4af2-9d1a-4f6ac270580d","ios":"levelo://app?vid=151bd055-1583-4af2-9d1a-4f6ac270580d"},"vehicle_type_id":"4","last_reported":1706385955,"current_range_meters":16000,"station_id":"ce4bhhp2rcd13ifvqfm0","pricing_plan_id":"free"},{"bike_id":"acd314b2-5b20-4833-bd70-fbe296cdb6ee","system_id":"levelo_inurba_marseille","lat":43.272116,"lon":5.391747,"is_reserved":false,"is_disabled":false,"rental_uris":{"android":"levelo://app?vid=acd314b2-5b20-4833-bd70-fbe296cdb6ee","ios":"levelo://app?vid=acd314b2-5b20-4833-bd70-fbe296cdb6ee"},"vehicle_type_id":"4","last_reported":1706385955,"current_range_meters":8400,"station_id":"ce4bhhp2rcd13ifvqfm0","pricing_plan_id":"free"},{"bike_id":"8c63f70d-c815-4fe9-8862-39d6e9885f77","system_id":"levelo_inurba_marseille","lat":43.27209,"lon":5.39178,"is_reserved":false,"is_disabled":false,"rental_uris":{"android":"levelo://app?vid=8c63f70d-c815-4fe9-8862-39d6e9885f77","ios":"levelo://app?vid=8c63f70d-c815-4fe9-8862-39d6e9885f77"},"vehicle_type_id":"4","last_reported":1706385955,"current_range_meters":400,"station_id":"ce4bhhp2rcd13ifvqfm0","pricing_plan_id":"free"},{"bike_id":"43c51f41-3cf8-440d-b2ea-4d7369ca8431","system_id":"levelo_inurba_marseille","lat":43.272118,"lon":5.391758,"is_reserved":false,"is_disabled":false,"rental_uris":{"android":"levelo://app?vid=43c51f41-3cf8-440d-b2ea-4d7369ca8431","ios":"levelo://app?vid=43c51f41-3cf8-440d-b2ea-4d7369ca8431"},"vehicle_type_id":"4","last_reported":1706385955,"current_range_meters":3200,"station_id":"ce4bhhp2rcd13ifvqfm0","pricing_plan_id":"free"},{"bike_id":"928afb8e-cc1d-4a4d-a860-b284c663d6ce","system_id":"levelo_inurba_marseille","lat":43.27205,"lon":5.39192,"is_reserved":false,"is_disabled":false,"rental_uris":{"android":"levelo://app?vid=928afb8e-cc1d-4a4d-a860-b284c663d6ce","ios":"levelo://app?vid=928afb8e-cc1d-4a4d-a860-b284c663d6ce"},"vehicle_type_id":"4","last_reported":1706385955,"current_range_meters":0,"station_id":"ce4bhhp2rcd13ifvqfm0","pricing_plan_id":"free"},{"bike_id":"967d4c4c-d680-47bc-9c6d-3973e884e152","system_id":"levelo_inurba_marseille","lat":43.278128,"lon":5.407195,"is_reserved":false,"is_disabled":false,"rental_uris":{"android":"levelo://app?vid=967d4c4c-d680-47bc-9c6d-3973e884e152","ios":"levelo://app?vid=967d4c4c-d680-47bc-9c6d-3973e884e152"},"vehicle_type_id":"4","last_reported":1706385955,"current_range_meters":14800,"station_id":"ce4bhnh2rcd13ifvqgtg","pricing_plan_id":"free"},{"bike_id":"9263ea7e-7f4b-4fbf-8ac1-c0bceb416a31","system_id":"levelo_inurba_marseille","lat":43.269467,"lon":5.386439,"is_reserved":false,"is_disabled":false,"rental_uris":{"android":"levelo://app?vid=9263ea7e-7f4b-4fbf-8ac1-c0bceb416a31","ios":"levelo://app?vid=9263ea7e-7f4b-4fbf-8ac1-c0bceb416a31"},"vehicle_type_id":"4","last_reported":1706385955,"current_range_meters":8800,"station_id":"ce4bhh92rcd13ifvqfh0","pricing_plan_id":"free"},{"bike_id":"30960197-f73f-476d-bb41-35ff6f03ade0","system_id":"levelo_inurba_marseille","lat":43.269449,"lon":5.386456,"is_reserved":false,"is_disabled":false,"rental_uris":{"android":"levelo://app?vid=30960197-f73f-476d-bb41-35ff6f03ade0","ios":"levelo://app?vid=30960197-f73f-476d-bb41-35ff6f03ade0"},"vehicle_type_id":"4","last_reported":1706385955,"current_range_meters":0,"station_id":"ce4bhh92rcd13ifvqfh0","pricing_plan_id":"free"},{"bike_id":"0f11d406-7590-44e0-bd8d-cb92808bfe07","system_id":"levelo_inurba_marseille","lat":43.279465,"lon":5.410561,"is_reserved":false,"is_disabled":false,"rental_uris":{"android":"levelo://app?vid=0f11d406-7590-44e0-bd8d-cb92808bfe07","ios":"levelo://app?vid=0f11d406-7590-44e0-bd8d-cb92808bfe07"},"vehicle_type_id":"4","last_reported":1706385955,"current_range_meters":14000,"station_id":"ce4bhnp2rcd13ifvqh0g","pricing_plan_id":"free"},{"bike_id":"c6584083-8842-41d0-ae2e-2930473b10e6","system_id":"levelo_inurba_marseille","lat":43.279465,"lon":5.410561,"is_reserved":false,"is_disabled":false,"rental_uris":{"android":"levelo://app?vid=c6584083-8842-41d0-ae2e-2930473b10e6","ios":"levelo://app?vid=c6584083-8842-41d0-ae2e-2930473b10e6"},"vehicle_type_id":"4","last_reported":1706385955,"current_range_meters":0,"station_id":"ce4bhnp2rcd13ifvqh0g","pricing_plan_id":"free"},{"bike_id":"30a27a06-0774-4cb9-9899-b8ab3790ab52","system_id":"levelo_inurba_marseille","lat":43.279465,"lon":5.410561,"is_reserved":false,"is_disabled":false,"rental_uris":{"android":"levelo://app?vid=30a27a06-0774-4cb9-9899-b8ab3790ab52","ios":"levelo://app?vid=30a27a06-0774-4cb9-9899-b8ab3790ab52"},"vehicle_type_id":"4","last_reported":1706385955,"current_range_meters":18000,"station_id":"ce4bhnp2rcd13ifvqh0g","pricing_plan_id":"free"},{"bike_id":"32b64e15-81eb-4ca1-83e9-19d1902cdf45","system_id":"levelo_inurba_marseille","lat":43.279465,"lon":5.410561,"is_reserved":false,"is_disabled":false,"rental_uris":{"android":"levelo://app?vid=32b64e15-81eb-4ca1-83e9-19d1902cdf45","ios":"levelo://app?vid=32b64e15-81eb-4ca1-83e9-19d1902cdf45"},