{"last_updated":1731949691,"ttl":60,"version":"2.2","data":{"bikes":[{"bike_id":"72aadf43-15b5-4bb4-b93d-981d84f658e7","system_id":"levelo_inurba_marseille","lat":43.33025,"lon":5.39044,"is_reserved":false,"is_disabled":false,"rental_uris":{"android":"levelo://app?vid=72aadf43-15b5-4bb4-b93d-981d84f658e7","ios":"levelo://app?vid=72aadf43-15b5-4bb4-b93d-981d84f658e7"},"vehicle_type_id":"4","last_reported":1731949691,"current_range_meters":20400,"station_id":"ce4bhr92rcd13ifvqhrg","pricing_plan_id":"cebpf4jnsgd1na2vs0mg"},{"bike_id":"e5789b54-9b97-4c7a-9256-068b889fc788","system_id":"levelo_inurba_marseille","lat":43.30297,"lon":5.3769,"is_reserved":false,"is_disabled":false,"rental_uris":{"android":"levelo://app?vid=e5789b54-9b97-4c7a-9256-068b889fc788","ios":"levelo://app?vid=e5789b54-9b97-4c7a-9256-068b889fc788"},"vehicle_type_id":"4","last_reported":1731949691,"current_range_meters":39200,"station_id":"ce4bguh2rcd13ifvqcj0","pricing_plan_id":"cebpf4jnsgd1na2vs0mg"},{"bike_id":"9f498509-9055-4d65-ad81-7665fbc86188","system_id":"levelo_inurba_marseille","lat":43.27913,"lon":5.39577,"is_reserved":false,"is_disabled":false,"rental_uris":{"android":"levelo://app?vid=9f498509-9055-4d65-ad81-7665fbc86188","ios":"levelo://app?vid=9f498509-9055-4d65-ad81-7665fbc86188"},"vehicle_type_id":"4","last_reported":1731949691,"current_range_meters":32800,"station_id":"ce4bhf92rcd13ifvqf40","pricing_plan_id":"cebpf4jnsgd1na2vs0mg"},{"bike_id":"d9662575-f3e4-4030-8357-61afc8834334","system_id":"levelo_inurba_marseille","lat":43.27935,"lon":5.41051,"is_reserved":false,"is_disabled":false,"rental_uris":{"android":"levelo://app?vid=d9662575-f3e4-4030-8357-61afc8834334","ios":"levelo://app?vid=d9662575-f3e4-4030-8357-61afc8834334"},"vehicle_type_id":"4","last_reported":1731949691,"current_range_meters":33600,"station_id":"ce4bhnp2rcd13ifvqh0g","pricing_plan_id":"cebpf4jnsgd1na2vs0mg"},{"bike_id":"2266e436-e549-49a3-a4f3-b11fe232c8ac","system_id":"levelo_inurba_marseille","lat":43.29842,"lon":5.36276,"is_reserved":false,"is_disabled":false,"rental_uris":{"android":"levelo://app?vid=2266e436-e549-49a3-a4f3-b11fe232c8ac","ios":"levelo://app?vid=2266e436-e549-49a3-a4f3-b11fe232c8ac"},"vehicle_type_id":"4","last_reported":1731949691,"current_range_meters":27600,"station_id":"ce4bgpp2rcd13ifvqc3g","pricing_plan_id":"cebpf4jnsgd1na2vs0mg"},{"bike_id":"b453c5bd-b833-4be9-aa51-f60ba198d8ab","system_id":"levelo_inurba_marseille","lat":43.28702,"lon":5.39985,"is_reserved":false,"is_disabled":false,"rental_uris":{"android":"levelo://app?vid=b453c5bd-b833-4be9-aa51-f60ba198d8ab","ios":"levelo://app?vid=b453c5bd-b833-4be9-aa51-f60ba198d8ab"},"vehicle_type_id":"4","last_reported":1731949691,"current_range_meters":36800,"station_id":"ce4bho92rcd13ifvqh3g","pricing_plan_id":"cebpf4jnsgd1na2vs0mg"},{"bike_id":"ee8b0697-df46-4de8-b7de-734c3a73285b","system_id":"levelo_inurba_marseille","lat":43.27812,"lon":5.40712,"is_reserved":false,"is_disabled":false,"rental_uris":{"android":"levelo://app?vid=ee8b0697-df46-4de8-b7de-734c3a73285b","ios":"levelo://app?vid=ee8b0697-df46-4de8-b7de-734c3a73285b"},"vehicle_type_id":"4","last_reported":1731949691,"current_range_meters":33200,"station_id":"ce4bhnh2rcd13ifvqgtg","pricing_plan_id":"cebpf4jnsgd1na2vs0mg"},{"bike_id":"0bc2b4da-31a7-4cb4-95e9-3aa3825f7da9","system_id":"levelo_inurba_marseille","lat":43.27991,"lon":5.40009,"is_reserved":false,"is_disabled":false,"rental_uris":{"android":"levelo://app?vid=0bc2b4da-31a7-4cb4-95e9-3aa3825f7da9","ios":"levelo://app?vid=0bc2b4da-31a7-4cb4-95e9-3aa3825f7da9"},"vehicle_type_id":"4","last_reported":1731949691,"current_range_meters":15200,"station_id":"ce4bho92rcd13ifvqh4g","pricing_plan_id":"cebpf4jnsgd1na2vs0mg"},{"bike_id":"f4749871-b280-4f8e-95c9-b90126b5b32b","system_id":"levelo_inurba_marseille","lat":43.28072,"lon":5.39662,"is_reserved":false,"is_disabled":false,"rental_uris":{"android":"levelo://app?vid=f4749871-b280-4f8e-95c9-b90126b5b32b","ios":"levelo://app?vid=f4749871-b280-4f8e-95c9-b90126b5b32b"},"vehicle_type_id":"4","last_reported":1731949691,"current_range_meters":30000,"station_id":"ce4bho12rcd13ifvqh2g","pricing_plan_id":"cebpf4jnsgd1na2vs0mg"},{"bike_id":"0ea44848-01bd-4ed5-98b4-d4fbd5a0a025","system_id":"levelo_inurba_marseille","lat":43.29514,"lon":5.3904,"is_reserved":false,"is_disabled":false,"rental_uris":{"android":"levelo://app?vid=0ea44848-01bd-4ed5-98b4-d4fbd5a0a025","ios":"levelo://app?vid=0ea44848-01bd-4ed5-98b4-d4fbd5a0a025"},"vehicle_type_id":"4","last_reported":1731949691,"current_range_meters":38400,"station_id":"ce4bh3p2rcd13ifvqdp0","pricing_plan_id":"cebpf4jnsgd1na2vs0mg"},{"bike_id":"17c03dc7-c3dc-4592-834a-2c7ea489596a","system_id":"levelo_inurba_marseille","lat":43.32366,"lon":5.38889,"is_reserved":false,"is_disabled":false,"rental_uris":{"android":"levelo://app?vid=17c03dc7-c3dc-4592-834a-2c7ea489596a","ios":"levelo://app?vid=17c03dc7-c3dc-4592-834a-2c7ea489596a"},"vehicle_type_id":"4","last_reported":1731949691,"current_range_meters":6000,"station_id":"ce4bhqp2rcd13ifvqhog","pricing_plan_id":"cebpf4jnsgd1na2vs0mg"},{"bike_id":"e4a21289-fd7d-4a16-96e5-93faccc1204a","system_id":"levelo_inurba_marseille","lat":43.29316,"lon":5.41159,"is_reserved":false,"is_disabled":false,"rental_uris":{"android":"levelo://app?vid=e4a21289-fd7d-4a16-96e5-93faccc1204a","ios":"levelo://app?vid=e4a21289-fd7d-4a16-96e5-93faccc1204a"},"vehicle_type_id":"4","last_reported":1731949691,"current_range_meters":32800,"station_id":"","pricing_plan_id":"cebpf4jnsgd1na2vs0mg"},{"bike_id":"69b9fb52-b1e8-402f-9b6f-d88522e081d9","system_id":"levelo_inurba_marseille","lat":43.27999,"lon":5.40024,"is_reserved":false,"is_disabled":false,"rental_uris":{"android":"levelo://app?vid=69b9fb52-b1e8-402f-9b6f-d88522e081d9","ios":"levelo://app?vid=69b9fb52-b1e8-402f-9b6f-d88522e081d9"},"vehicle_type_id":"4","last_reported":1731949691,"current_range_meters":24800,"station_id":"ce4bho92rcd13ifvqh4g","pricing_plan_id":"cebpf4jnsgd1na2vs0mg"},{"bike_id":"6c926eef-89ef-4421-9c04-3c9899f3173b","system_id":"levelo_inurba_marseille","lat":43.29903,"lon":5.43674,"is_reserved":false,"is_disabled":true,"rental_uris":{"android":"levelo://app?vid=6c926eef-89ef-4421-9c04-3c9899f3173b","ios":"levelo://app?vid=6c926eef-89ef-4421-9c04-3c9899f3173b"},"vehicle_type_id":"4","last_reported":1731949691,"current_range_meters":0,"station_id":"ce4bhpp2rcd13ifvqhfg","pricing_plan_id":"cebpf4jnsgd1na2vs0mg"},{"bike_id":"68659cf0-4fd2-4892-b1f5-2895655bc320","system_id":"levelo_inurba_marseille","lat":43.29433,"lon":5.39762,"is_reserved":false,"is_disabled":false,"rental_uris":{"android":"levelo://app?vid=68659cf0-4fd2-4892-b1f5-2895655bc320","ios":"levelo://app?vid=68659cf0-4fd2-4892-b1f5-2895655bc320"},"vehicle_type_id":"4","last_reported":1731949691,"current_range_meters":26000,"station_id":"ce4bh3h2rcd13ifvqdo0","pricing_plan_id":"cebpf4jnsgd1na2vs0mg"},{"bike_id":"81108a94-b9fd-4847-be3f-917addbb08ef","system_id":"levelo_inurba_marseille","lat":43.26551,"lon":5.372914,"is_reserved":false,"is_disabled":true,"rental_uris":{"android":"levelo://app?vid=81108a94-b9fd-4847-be3f-917addbb08ef","ios":"levelo://app?vid=81108a94-b9fd-4847-be3f-917addbb08ef"},"vehicle_type_id":"4","last_reported":1731949691,"current_range_meters":0,"station_id":"ce4bhg12rcd13ifvqf70","pricing_plan_id":"cebpf4jnsgd1na2vs0mg"},{"bike_id":"e08875d1-5eda-43a9-a5b5-ee3ebd16c83c","system_id":"levelo_inurba_marseille","lat":43.25006,"lon":5.38921,"is_reserved":false,"is_disabled":false,"rental_uris":{"android":"levelo://app?vid=e08875d1-5eda-43a9-a5b5-ee3ebd16c83c","ios":"levelo://app?vid=e08875d1-5eda-43a9-a5b5-ee3ebd16c83c"},"vehicle_type_id":"4","last_reported":1731949691,"current_range_meters":2000,"station_id":"ce4bhgp2rcd13ifvqfd0","pricing_plan_id":"cebpf4jnsgd1na2vs0mg"},{"bike_id":"30516071-9e66-42e3-b648-e48d09c9c50c","system_id":"levelo_inurba_marseille","lat":43.28611,"lon":5.37074,"is_reserved":false,"is_disabled":false,"rental_uris":{"android":"levelo://app?vid=30516071-9e66-42e3-b648-e48d09c9c50c","ios":"levelo://app?vid=30516071-9e66-42e3-b648-e48d09c9c50c"},"vehicle_type_id":"4","last_reported":1731949691,"current_range_meters":22000,"station_id":"ce4bht12rcd13ifvqi60","pricing_plan_id":"cebpf4jnsgd1na2vs0mg"},{"bike_id":"75313408-cffa-44fc-9fdc-39007f08ac9c","system_id":"levelo_inurba_marseille","lat":43.28003,"lon":5.41664,"is_reserved":false,"is_disabled":false,"rental_uris":{"android":"levelo://app?vid=75313408-cffa-44fc-9fdc-39007f08ac9c","ios":"levelo://app?vid=75313408-cffa-44fc-9fdc-39007f08ac9c"},"vehicle_type_id":"4","last_reported":1731949691,"current_range_meters":24400,"station_id":"ce4bho12rcd13ifvqh1g","pricing_plan_id":"cebpf4jnsgd1na2vs0mg"},{"bike_id":"3779a507-6f21-4bd7-80a8-b3db05a989bf","system_id":"levelo_inurba_marseille","lat":43.2655,"lon":5.37288,"is_reserved":false,"is_disabled":false,"rental_uris":{"android":"levelo://app?vid=3779a507-6f21-4bd7-80a8-b3db05a989bf","ios":"levelo://app?vid=3779a507-6f21-4bd7-80a8-b3db05a989bf"},"vehicle_type_id":"4","last_reported":1731949691,"current_range_meters":29600,"station_id":"ce4bhg12rcd13ifvqf70","pricing_plan_id":"cebpf4jnsgd1na2vs0mg"},{"bike_id":"6647dff5-4c50-4380-a2ff-d6d79ac705fc","system_id":"levelo_inurba_marseille","lat":43.33605,"lon":5.41039,"is_reserved":false,"is_disabled":false,"rental_uris":{"android":"levelo://app?vid=6647dff5-4c50-4380-a2ff-d6d79ac705fc","ios":"levelo://app?vid=6647dff5-4c50-4380-a2ff-d6d79ac705fc"},"vehicle_type_id":"4","last_reported":1731949691,"current_range_meters":14800,"station_id":"ce4bhqh2rcd13ifvqhmg","pricing_plan_id":"cebpf4jnsgd1na2vs0mg"},{"bike_id":"61c3b662-8663-4e95-a36c-05f99e209dcd","system_id":"levelo_inurba_marseille","lat":43.30138,"lon":5.39873,"is_reserved":false,"is_disabled":false,"rental_uris":{"android":"levelo://app?vid=61c3b662-8663-4e95-a36c-05f99e209dcd","ios":"levelo://app?vid=61c3b662-8663-4e95-a36c-05f99e209dcd"},"vehicle_type_id":"4","last_reported":1731949691,"current_range_meters":39200,"station_id":"ce4bh0h2rcd13ifvqd40","pricing_plan_id":"cebpf4jnsgd1na2vs0mg"},{"bike_id":"4e682c21-86be-4d76-a64b-638a60816da7","system_id":"levelo_inurba_marseille","lat":43.27809,"lon":5.40707,"is_reserved":false,"is_disabled":false,"rental_uris":{"android":"levelo://app?vid=4e682c21-86be-4d76-a64b-638a60816da7","ios":"levelo://app?vid=4e682c21-86be-4d76-a64b-638a60816da7"},"vehicle_type_id":"4","last_reported":1731949691,"current_range_meters":26800,"station_id":"ce4bhnh2rcd13ifvqgtg","pricing_plan_id":"cebpf4jnsgd1na2vs0mg"},{"bike_id":"ca20567e-f7b7-4df3-95b6-864a0d9535c4","system_id":"levelo_inurba_marseille","lat":43.31121,"lon":5.37771,"is_reserved":false,"is_disabled":false,"rental_uris":{"android":"levelo://app?vid=ca20567e-f7b7-4df3-95b6-864a0d9535c4","ios":"levelo://app?vid=ca20567e-f7b7-4df3-95b6-864a0d9535c4"},"vehicle_type_id":"4","last_reported":1731949691,"current_range_meters":30000,"station_id":"ce4bgt92rcd13ifvqcg0","pricing_plan_id":"cebpf4jnsgd1na2vs0mg"},{"bike_id":"d930277f-ae59-4a27-9409-f96eb995b54c","system_id":"levelo_inurba_marseille","lat":43.29522,"lon":5.3904,"is_reserved":false,"is_disabled":false,"rental_uris":{"android":"levelo://app?vid=d930277f-ae59-4a27-9409-f96eb995b54c","ios":"levelo://app?vid=d930277f-ae59-4a27-9409-f96eb995b54c"},"vehicle_type_id":"4","last_reported":1731949691,"current_range_meters":30800,"station_id":"ce4bh3p2rcd13ifvqdp0","pricing_plan_id":"cebpf4jnsgd1na2vs0mg"},{"bike_id":"d81e0202-add5-42dd-b983-41434047256b","system_id":"levelo_inurba_marseille","lat":43.25123,"lon":5.40311,"is_reserved":false,"is_disabled":true,"rental_uris":{"android":"levelo://app?vid=d81e0202-add5-42dd-b983-41434047256b","ios":"levelo://app?vid=d81e0202-add5-42dd-b983-41434047256b"},"vehicle_type_id":"4","last_reported":1731949691,"current_range_meters":1200,"station_id":"ce4bhlh2rcd13ifvqgig","pricing_plan_id":"cebpf4jnsgd1na2vs0mg"},{"bike_id":"6ba2d3f3-c655-4e14-8211-bd7d1cb3d06a","system_id":"levelo_inurba_marseille","lat":43.29875,"lon":5.3974,"is_reserved":false,"is_disabled":false,"rental_uris":{"android":"levelo://app?vid=6ba2d3f3-c655-4e14-8211-bd7d1cb3d06a","ios":"levelo://app?vid=6ba2d3f3-c655-4e14-8211-bd7d1cb3d06a"},"vehicle_type_id":"4","last_reported":1731949691,"current_range_meters":38800,"station_id":"ce4bh0h2rcd13ifvqd50","pricing_plan_id":"cebpf4jnsgd1na2vs0mg"},{"bike_id":"dcf2d59b-a0b7-4218-9684-6fe8b1399fb6","system_id":"levelo_inurba_marseille","lat":43.29637,"lon":5.40592,"is_reserved":false,"is_disabled":true,"rental_uris":{"android":"levelo://app?vid=dcf2d59b-a0b7-4218-9684-6fe8b1399fb6","ios":"levelo://app?vid=dcf2d59b-a0b7-4218-9684-6fe8b1399fb6"},"vehicle_type_id":"4","last_reported":1731949691,"current_range_meters":800,"station_id":"ce4bh0h2rcd13ifvqd60","pricing_plan_id":"cebpf4jnsgd1na2vs0mg"},{"bike_id":"91792abd-ea91-4573-851c-885ce71835bd","system_id":"levelo_inurba_marseille","lat":43.30591,"lon":5.39351,"is_reserved":false,"is_disabled":true,"rental_uris":{"android":"levelo://app?vid=91792abd-ea91-4573-851c-885ce71835bd","ios":"levelo://app?vid=91792abd-ea91-4573-851c-885ce71835bd"},"vehicle_type_id":"4","last_reported":1731949691,"current_range_meters":800,"station_id":"ce4bh0p2rcd13ifvqd80","pricing_plan_id":"cebpf4jnsgd1na2vs0mg"},{"bike_id":"26e5f632-bcd7-415d-8d3a-69fd628c2a9e","system_id":"levelo_inurba_marseille","lat":43.30607,"lon":5.37223,"is_reserved":false,"is_disabled":false,"rental_uris":{"android":"levelo://app?vid=26e5f632-bcd7-415d-8d3a-69fd628c2a9e","ios":"levelo://app?vid=26e5f632-bcd7-415d-8d3a-69fd628c2a9e"},"vehicle_type_id":"4","last_reported":1731949691,"current_range_meters":17200,"station_id":"ce4bgqh2rcd13ifvqc4g","pricing_plan_id":"cebpf4jnsgd1na2vs0mg"},{"bike_id":"e138b0e1-0592-4057-bb8b-cf36d0939c91","system_id":"levelo_inurba_marseille","lat":43.2799,"lon":5.4003,"is_reserved":false,"is_disabled":false,"rental_uris":{"android":"levelo://app?vid=e138b0e1-0592-4057-bb8b-cf36d0939c91","ios":"levelo://app?vid=e138b0e1-0592-4057-bb8b-cf36d0939c91"},"vehicle_type_id":"4","last_reported":1731949691,"current_range_meters":40000,"station_id":"ce4bho92rcd13ifvqh4g","pricing_plan_id":"cebpf4jnsgd1na2vs0mg"},{"bike_id":"1341a828-b981-4198-a789-8a5791ca7539","system_id":"levelo_inurba_marseille","lat":43.25006,"lon":5.3892,"is_reserved":false,"is_disabled":true,"rental_uris":{"android":"levelo://app?vid=1341a828-b981-4198-a789-8a5791ca7539","ios":"levelo://app?vid=1341a828-b981-4198-a789-8a5791ca7539"},"vehicle_type_id":"4","last_reported":1731949691,"current_range_meters":0,"station_id":"ce4bhgp2rcd13ifvqfd0","pricing_plan_id":"cebpf4jnsgd1na2vs0mg"},{"bike_id":"835e5ef0-6aa8-42be-8d5b-1c99e029a196","system_id":"levelo_inurba_marseille","lat":43.25501,"lon":5.37652,"is_reserved":false,"is_disabled":true,"rental_uris":{"android":"levelo://app?vid=835e5ef0-6aa8-42be-8d5b-1c99e029a196","ios":"levelo://app?vid=835e5ef0-6aa8-42be-8d5b-1c99e029a196"},"vehicle_type_id":"4","last_reported":1731949691,"current_range_meters":1600,"station_id":"ce4bhh12rcd13ifvqff0","pricing_plan_id":"cebpf4jnsgd1na2vs0mg"},{"bike_id":"944a0dc5-97fc-4f19-981e-4eee0698e45c","system_id":"levelo_inurba_marseille","lat":43.23966,"lon":5.36636,"is_reserved":false,"is_disabled":false,"rental_uris":{"android":"levelo://app?vid=944a0dc5-97fc-4f19-981e-4eee0698e45c","ios":"levelo://app?vid=944a0dc5-97fc-4f19-981e-4eee0698e45c"},"vehicle_type_id":"4","last_reported":1731949691,"current_range_meters":16400,"station_id":"ce4bhi12rcd13ifvqfp0","pricing_plan_id":"cebpf4jnsgd1na2vs0mg"},{"bike_id":"5f9a24f2-7fa6-4065-ba39-d9ef9fd7d02d","system_id":"levelo_inurba_marseille","lat":43.30785,"lon":5.37656,"is_reserved":false,"is_disabled":false,"rental_uris":{"android":"levelo://app?vid=5f9a24f2-7fa6-4065-ba39-d9ef9fd7d02d","ios":"levelo://app?vid=5f9a24f2-7fa6-4065-ba39-d9ef9fd7d02d"},"vehicle_type_id":"4","last_reported":1731949691,"current_range_meters":26000,"station_id":"ce4bgv92rcd13ifvqcq0","pricing_plan_id":"cebpf4jnsgd1na2vs0mg"},{"bike_id":"ef31495f-6a34-4d74-a72b-91bbac7371df","system_id":"levelo_inurba_marseille","lat":43.25932,"lon":5.40909,"is_reserved":false,"is_disabled":true,"rental_uris":{"android":"levelo://app?vid=ef31495f-6a34-4d74-a72b-91bbac7371df","ios":"levelo://app?vid=ef31495f-6a34-4d74-a72b-91bbac7371df"},"vehicle_type_id":"4","last_reported":1731949691,"current_range_meters":24000,"station_id":"ce4bhm92rcd13ifvqglg","pricing_plan_id":"cebpf4jnsgd1na2vs0mg"},{"bike_id":"d10c90fd-3c70-4bb6-bcaa-6d62b6ce4770","system_id":"levelo_inurba_marseille","lat":43.26066,"lon":5.39394,"is_reserved":false,"is_disabled":true,"rental_uris":{"android":"levelo://app?vid=d10c90fd-3c70-4bb6-bcaa-6d62b6ce4770","ios":"levelo://app?vid=d10c90fd-3c70-4bb6-bcaa-6d62b6ce4770"},"vehicle_type_id":"4","last_reported":1731949691,"current_range_meters":10800,"station_id":"ce4bhh92rcd13ifvqfj0","pricing_plan_id":"cebpf4jnsgd1na2vs0mg"},{"bike_id":"5917a06d-1a89-42ee-9c96-70b3e49f2520","system_id":"levelo_inurba_marseille","lat":43.31707,"lon":5.40482,"is_reserved":false,"is_disabled":true,"rental_uris":{"android":"levelo://app?vid=5917a06d-1a89-42ee-9c96-70b3e49f2520","ios":"levelo://app?vid=5917a06d-1a89-42ee-9c96-70b3e49f2520"},"vehicle_type_id":"4","last_reported":1731949691,"current_range_meters":18800,"station_id":"ce4bh012rcd13ifvqd00","pricing_plan_id":"cebpf4jnsgd1na2vs0mg"},{"bike_id":"dbc8fc6b-170f-4ed5-bd67-f3380e449a46","system_id":"levelo_inurba_marseille","lat":43.29627,"lon":5.3715,"is_reserved":false,"is_disabled":false,"rental_uris":{"android":"levelo://app?vid=dbc8fc6b-170f-4ed5-bd67-f3380e449a46","ios":"levelo://app?vid=dbc8fc6b-170f-4ed5-bd67-f3380e449a46"},"vehicle_type_id":"4","last_reported":1731949691,"current_range_meters":38800,"station_id":"ce4bgnh2rcd13ifvqc0g","pricing_plan_id":"cebpf4jnsgd1na2vs0mg"},{"bike_id":"68a80399-13af-40c0-8819-67450628413e","system_id":"levelo_inurba_marseille","lat":43.29261,"lon":5.40914,"is_reserved":false,"is_disabled":true,"rental_uris":{"android":"levelo://app?vid=68a80399-13af-40c0-8819-67450628413e","ios":"levelo://app?vid=68a80399-13af-40c0-8819-67450628413e"},"vehicle_type_id":"4","last_reported":1731949691,"current_range_meters":400,"station_id":"ce4bh192rcd13ifvqdc0","pricing_plan_id":"cebpf4jnsgd1na2vs0mg"},{"bike_id":"02c7140d-eb0a-4832-a8c4-16edc8f79941","system_id":"levelo_inurba_marseille","lat":43.23965,"lon":5.3663,"is_reserved":false,"is_disabled":false,"rental_uris":{"android":"levelo://app?vid=02c7140d-eb0a-4832-a8c4-16edc8f79941","ios":"levelo://app?vid=02c7140d-eb0a-4832-a8c4-16edc8f79941"},"vehicle_type_id":"4","last_reported":1731949691,"current_range_meters":25200,"station_id":"ce4bhi12rcd13ifvqfp0","pricing_plan_id":"cebpf4jnsgd1na2vs0mg"},{"bike_id":"0534ce24-46b6-4220-851d-cebdfec71164","system_id":"levelo_inurba_marseille","lat":43.23186,"lon":5.39985,"is_reserved":false,"is_disabled":true,"rental_uris":{"android":"levelo://app?vid=0534ce24-46b6-4220-851d-cebdfec71164","ios":"levelo://app?vid=0534ce24-46b6-4220-851d-cebdfec71164"},"vehicle_type_id":"4","last_reported":1731949691,"current_range_meters":0,"station_id":"ce4bhn12rcd13ifvqgqg","pricing_plan_id":"cebpf4jnsgd1na2vs0mg"},{"bike_id":"3f095bc8-9af8-4b0b-a298-157d8e949f36","system_id":"levelo_inurba_marseille","lat":43.2767,"lon":5.38906,"is_reserved":false,"is_disabled":true,"rental_uris":{"android":"levelo://app?vid=3f095bc8-9af8-4b0b-a298-157d8e949f36","ios":"levelo://app?vid=3f095bc8-9af8-4b0b-a298-157d8e949f36"},"vehicle_type_id":"4","last_reported":1731949691,"current_range_meters":10000,"station_id":"ce4bhi12rcd13ifvqfo0","pricing_plan_id":"cebpf4jnsgd1na2vs0mg"},{"bike_id":"7c407d42-b656-4801-b91f-c3365028215c","system_id":"levelo_inurba_marseille","lat":43.26212,"lon":5.37444,"is_reserved":false,"is_disabled":true,"rental_uris":{"android":"levelo://app?vid=7c407d42-b656-4801-b91f-c3365028215c","ios":"levelo://app?vid=7c407d42-b656-4801-b91f-c3365028215c"},"vehicle_type_id":"4","last_reported":1731949691,"current_range_meters":800,"station_id":"ce4bhgp2rcd13ifvqfc0","pricing_plan_id":"cebpf4jnsgd1na2vs0mg"},{"bike_id":"9501b9cf-980a-4ceb-b163-6f18f173a491","system_id":"levelo_inurba_marseille","lat":43.31715,"lon":5.43722,"is_reserved":false,"is_disabled":false,"rental_uris":{"android":"levelo://app?vid=9501b9cf-980a-4ceb-b163-6f18f173a491","ios":"levelo://app?vid=9501b9cf-980a-4ceb-b163-6f18f173a491"},"vehicle_type_id":"4","last_reported":1731949691,"current_range_meters":37600,"station_id":"ce4bhp92rcd13ifvqhcg","pricing_plan_id":"cebpf4jnsgd1na2vs0mg"},{"bike_id":"d674a550-723f-4e20-a0c2-89aa344c2ade","system_id":"levelo_inurba_marseille","lat":43.282017,"lon":5.443783,"is_reserved":false,"is_disabled":false,"rental_uris":{"android":"levelo://app?vid=d674a550-723f-4e20-a0c2-89aa344c2ade","ios":"levelo://app?vid=d674a550-723f-4e20-a0c2-89aa344c2ade"},"vehicle_type_id":"4","last_reported":1731949691,"current_range_meters":8000,"station_id":"","pricing_plan_id":"cebpf4jnsgd1na2vs0mg"},{"bike_id":"4b62e46f-8115-4acf-96a4-5b0a25a74551","system_id":"levelo_inurba_marseille","lat":43.29875,"lon":5.38913,"is_reserved":false,"is_disabled":false,"rental_uris":{"android":"levelo://app?vid=4b62e46f-8115-4acf-96a4-5b0a25a74551","ios":"levelo://app?vid=4b62e46f-8115-4acf-96a4-5b0a25a74551"},"vehicle_type_id":"4","last_reported":1731949691,"current_range_meters":38000,"station_id":"ce4bh392rcd13ifvqdl0","pricing_plan_id":"cebpf4jnsgd1na2vs0mg"},{"bike_id":"f26f9ff4-6d82-459d-bc98-b8addb7fa0b2","system_id":"levelo_inurba_marseille","lat":43.28933,"lon":5.36634,"is_reserved":false,"is_disabled":true,"rental_uris":{"android":"levelo://app?vid=f26f9ff4-6d82-459d-bc98-b8addb7fa0b2","ios":"levelo://app?vid=f26f9ff4-6d82-459d-bc98-b8addb7fa0b2"},"vehicle_type_id":"4","last_reported":1731949691,"current_range_meters":0,"station_id":"ce4bhap2rcd13ifvqek0","pricing_plan_id":"cebpf4jnsgd1na2vs0mg"},{"bike_id":"ddba3520-3d9c-4894-9789-9966adabbd51","system_id":"levelo_inurba_marseille","lat":43.29005,"lon":5.35615,"is_reserved":false,"is_disabled":false,"rental_uris":{"android":"levelo://app?vid=ddba3520-3d9c-4894-9789-9966adabbd51","ios":"levelo://app?vid=ddba3520-3d9c-4894-9789-9966adabbd51"},"vehicle_type_id":"4","last_reported":1731949691,"current_range_meters":37600,"station_id":"ce4bhb92rcd13ifvqen0","pricing_plan_id":"cebpf4jnsgd1na2vs0mg"},{"bike_id":"d19976d5-4dd5-456e-b3ce-8a07d6d55058","system_id":"levelo_inurba_marseille","lat":43.30921,"lon":5.4015,"is_reserved":false,"is_disabled":false,"rental_uris":{"android":"levelo://app?vid=d19976d5-4dd5-456e-b3ce-8a07d6d55058","ios":"levelo://app?vid=d19976d5-4dd5-456e-b3ce-8a07d6d55058"},"vehicle_type_id":"4","last_reported":1731949691,"current_range_meters":2000,"station_id":"ce4bgvp2rcd13ifvqct0","pricing_plan_id":"cebpf4jnsgd1na2vs0mg"},{"bike_id":"f1f50780-48cb-44fa-9dee-6831b7cf5f41","system_id":"levelo_inurba_marseille","lat":43.2952,"lon":5.39041,"is_reserved":false,"is_disabled":false,"rental_uris":{"android":"levelo://app?vid=f1f50780-48cb-44fa-9dee-6831b7cf5f41","ios":"levelo://app?vid=f1f50780-48cb-44fa-9dee-6831b7cf5f41"},"vehicle_type_id":"4","last_reported":1731949691,"current_range_meters":39200,"station_id":"ce4bh3p2rcd13ifvqdp0","pricing_plan_id":"cebpf4jnsgd1na2vs0mg"},{"bike_id":"5873cbbb-60e4-463a-a62f-14bc6adde5e8","system_id":"levelo_inurba_marseille","lat":43.28035,"lon":5.36946,"is_reserved":false,"is_disabled":false,"rental_uris":{"android":"levelo://app?vid=5873cbbb-60e4-463a-a62f-14bc6adde5e8","ios":"levelo://app?vid=5873cbbb-60e4-463a-a62f-14bc6adde5e8"},"vehicle_type_id":"4","last_reported":1731949691,"current_range_meters":8400,"station_id":"ce4bha12rcd13ifvqef0","pricing_plan_id":"cebpf4jnsgd1na2vs0mg"},{"bike_id":"a74ebd93-bc18-4c3e-aace-af4ac37176f1","system_id":"levelo_inurba_marseille","lat":43.32361,"lon":5.38892,"is_reserved":false,"is_disabled":false,"rental_uris":{"android":"levelo://app?vid=a74ebd93-bc18-4c3e-aace-af4ac37176f1","ios":"levelo://app?vid=a74ebd93-bc18-4c3e-aace-af4ac37176f1"},"vehicle_type_id":"4","last_reported":1731949691,"current_range_meters":32000,"station_id":"ce4bhqp2rcd13ifvqhog","pricing_plan_id":"cebpf4jnsgd1na2vs0mg"},{"bike_id":"d9473ef4-2b18-452d-940b-8af7342eef51","system_id":"levelo_inurba_marseille","lat":43.27994,"lon":5.40014,"is_reserved":false,"is_disabled":false,"rental_uris":{"android":"levelo://app?vid=d9473ef4-2b18-452d-940b-8af7342eef51","ios":"levelo://app?vid=d9473ef4-2b18-452d-940b-8af7342eef51"},"vehicle_type_id":"4","last_reported":1731949691,"current_range_meters":28000,"station_id":"ce4bho92rcd13ifvqh4g","pricing_plan_id":"cebpf4jnsgd1na2vs0mg"},{"bike_id":"7454fc57-78fd-4bde-9316-63ec01badcd6","system_id":"levelo_inurba_marseille","lat":43.33726,"lon":5.39183,"is_reserved":false,"is_disabled":false,"rental_uris":{"android":"levelo://app?vid=7454fc57-78fd-4bde-9316-63ec01badcd6","ios":"levelo://app?vid=7454fc57-78fd-4bde-9316-63ec01badcd6"},"vehicle_type_id":"4","last_reported":1731949691,"current_range_meters":6800,"station_id":"ce4bhr92rcd13ifvqhsg","pricing_plan_id":"cebpf4jnsgd1na2vs0mg"},{"bike_id":"d07e1f90-f37b-427a-8dc4-c0c0954b1d4d","system_id":"levelo_inurba_marseille","lat":43.27819,"lon":5.40716,"is_reserved":false,"is_disabled":true,"rental_uris":{"android":"levelo://app?vid=d07e1f90-f37b-427a-8dc4-c0c0954b1d4d","ios":"levelo://app?vid=d07e1f90-f37b-427a-8dc4-c0c0954b1d4d"},"vehicle_type_id":"4","last_reported":1731949691,"current_range_meters":0,"station_id":"ce4bhnh2rcd13ifvqgtg","pricing_plan_id":"cebpf4jnsgd1na2vs0mg"},{"bike_id":"106b556b-6ce5-4b57-a061-3eb5f648d1e8","system_id":"levelo_inurba_marseille","lat":43.27915,"lon":5.38015,"is_reserved":false,"is_disabled":false,"rental_uris":{"android":"levelo://app?vid=106b556b-6ce5-4b57-a061-3eb5f648d1e8","ios":"levelo://app?vid=106b556b-6ce5-4b57-a061-3eb5f648d1e8"},"vehicle_type_id":"4","last_reported":1731949691,"current_range_meters":16000,"station_id":"ce4bhf92rcd13ifvqf50","pricing_plan_id":"cebpf4jnsgd1na2vs0mg"},{"bike_id":"03e86a75-4872-4548-9575-ac8738d7d8d3","system_id":"levelo_inurba_marseille","lat":43.29438,"lon":5.39746,"is_reserved":false,"is_disabled":false,"rental_uris":{"android":"levelo://app?vid=03e86a75-4872-4548-9575-ac8738d7d8d3","ios":"levelo://app?vid=03e86a75-4872-4548-9575-ac8738d7d8d3"},"vehicle_type_id":"4","last_reported":1731949691,"current_range_meters":30400,"station_id":"ce4bh3h2rcd13ifvqdo0","pricing_plan_id":"cebpf4jnsgd1na2vs0mg"},{"bike_id":"052174a9-cc1b-4070-82a2-fc08700b25e1","system_id":"levelo_inurba_marseille","lat":43.29704,"lon":5.36585,"is_reserved":false,"is_disabled":false,"rental_uris":{"android":"levelo://app?vid=052174a9-cc1b-4070-82a2-fc08700b25e1","ios":"levelo://app?vid=052174a9-cc1b-4070-82a2-fc08700b25e1"},"vehicle_type_id":"4","last_reported":1731949691,"current_range_meters":30400,"station_id":"ce4bgn12rcd13ifvqbt0","pricing_plan_id":"cebpf4jnsgd1na2vs0mg"},{"bike_id":"899d9483-0dc1-4be9-a3f2-dd55ed3436c0","system_id":"levelo_inurba_marseille","lat":43.27911,"lon":5.39581,"is_reserved":false,"is_disabled":false,"rental_uris":{"android":"levelo://app?vid=899d9483-0dc1-4be9-a3f2-dd55ed3436c0","ios":"levelo://app?vid=899d9483-0dc1-4be9-a3f2-dd55ed3436c0"},"vehicle_type_id":"4","last_reported":1731949691,"current_range_meters":30000,"station_id":"ce4bhf92rcd13ifvqf40","pricing_plan_id":"cebpf4jnsgd1na2vs0mg"},{"bike_id":"5203ab47-a9f6-48ae-bdd3-3c5a5ab6ee25","system_id":"levelo_inurba_marseille","lat":43.29978,"lon":5.38492,"is_reserved":false,"is_disabled":true,"rental_uris":{"android":"levelo://app?vid=5203ab47-a9f6-48ae-bdd3-3c5a5ab6ee25","ios":"levelo://app?vid=5203ab47-a9f6-48ae-bdd3-3c5a5ab6ee25"},"vehicle_type_id":"4","last_reported":1731949691,"current_range_meters":38400,"station_id":"ce4bgj92rcd13ifvqbd0","pricing_plan_id":"cebpf4jnsgd1na2vs0mg"},{"bike_id":"8a3f96ca-a5cf-474f-852b-11f5baa87c11","system_id":"levelo_inurba_marseille","lat":43.26931,"lon":5.38914,"is_reserved":false,"is_disabled":false,"rental_uris":{"android":"levelo://app?vid=8a3f96ca-a5cf-474f-852b-11f5baa87c11","ios":"levelo://app?vid=8a3f96ca-a5cf-474f-852b-11f5baa87c11"},"vehicle_type_id":"4","last_reported":1731949691,"current_range_meters":6800,"station_id":"ce4bhhh2rcd13ifvqfl0","pricing_plan_id":"cebpf4jnsgd1na2vs0mg"},{"bike_id":"c32212ce-a171-4ec5-8d7a-215d06b1396b","system_id":"levelo_inurba_marseille","lat":43.29087,"lon":5.38122,"is_reserved":false,"is_disabled":false,"rental_uris":{"android":"levelo://app?vid=c32212ce-a171-4ec5-8d7a-215d06b1396b","ios":"levelo://app?vid=c32212ce-a171-4ec5-8d7a-215d06b1396b"},"vehicle_type_id":"4","last_reported":1731949691,"current_range_meters":37600,"station_id":"ce4bh512rcd13ifvqe2g","pricing_plan_id":"cebpf4jnsgd1na2vs0mg"},{"bike_id":"1d2a5d9b-adfd-427d-871a-0b7935276f92","system_id":"levelo_inurba_marseille","lat":43.29849,"lon":5.36286,"is_reserved":false,"is_disabled":false,"rental_uris":{"android":"levelo://app?vid=1d2a5d9b-adfd-427d-871a-0b7935276f92","ios":"levelo://app?vid=1d2a5d9b-adfd-427d-871a-0b7935276f92"},"vehicle_type_id":"4","last_reported":1731949691,"current_range_meters":30000,"station_id":"ce4bgpp2rcd13ifvqc3g","pricing_plan_id":"cebpf4jnsgd1na2vs0mg"},{"bike_id":"f7f78237-4ea1-41a9-8e6b-ce3e83acf508","system_id":"levelo_inurba_marseille","lat":43.29873,"lon":5.39729,"is_reserved":false,"is_disabled":false,"rental_uris":{"android":"levelo://app?vid=f7f78237-4ea1-41a9-8e6b-ce3e83acf508","ios":"levelo://app?vid=f7f78237-4ea1-41a9-8e6b-ce3e83acf508"},"vehicle_type_id":"4","last_reported":1731949691,"current_range_meters":5600,"station_id":"ce4bh0h2rcd13ifvqd50","pricing_plan_id":"cebpf4jnsgd1na2vs0mg"},{"bike_id":"9d2c2513-0c89-4f02-98b9-a9b8e8f9ff12","system_id":"levelo_inurba_marseille","lat":43.27947,"lon":5.41053,"is_reserved":false,"is_disabled":false,"rental_uris":{"android":"levelo://app?vid=9d2c2513-0c89-4f02-98b9-a9b8e8f9ff12","ios":"levelo://app?vid=9d2c2513-0c89-4f02-98b9-a9b8e8f9ff12"},"vehicle_type_id":"4","last_reported":1731949691,"current_range_meters":9600,"station_id":"ce4bhnp2rcd13ifvqh0g","pricing_plan_id":"cebpf4jnsgd1na2vs0mg"},{"bike_id":"56edd46b-d236-45f1-ba2f-1f7d8acc3af2","system_id":"levelo_inurba_marseille","lat":43.337444,"lon":5.374475,"is_reserved":false,"is_disabled":false,"rental_uris":{"android":"levelo://app?vid=56edd46b-d236-45f1-ba2f-1f7d8acc3af2","ios":"levelo://app?vid=56edd46b-d236-45f1-ba2f-1f7d8acc3af2"},"vehicle_type_id":"4","last_reported":1731949691,"current_range_meters":38000,"station_id":"","pricing_plan_id":"cebpf4jnsgd1na2vs0mg"},{"bike_id":"794dd135-41b1-47af-8a43-5aa322243a6d","system_id":"levelo_inurba_marseille","lat":43.3009,"lon":5.39086,"is_reserved":false,"is_disabled":false,"rental_uris":{"android":"levelo://app?vid=794dd135-41b1-47af-8a43-5aa322243a6d","ios":"levelo://app?vid=794dd135-41b1-47af-8a43-5aa322243a6d"},"vehicle_type_id":"4","last_reported":1731949691,"current_range_meters":23200,"station_id":"ce4bh192rcd13ifvqdb0","pricing_plan_id":"cebpf4jnsgd1na2vs0mg"},{"bike_id":"e50796fb-dacb-48fc-9bce-fef14a9f4c74","system_id":"levelo_inurba_marseille","lat":43.29253,"lon":5.40916,"is_reserved":false,"is_disabled":false,"rental_uris":{"android":"levelo://app?vid=e50796fb-dacb-48fc-9bce-fef14a9f4c74","ios":"levelo://app?vid=e50796fb-dacb-48fc-9bce-fef14a9f4c74"},"vehicle_type_id":"4","last_reported":1731949691,"current_range_meters":24000,"station_id":"ce4bh192rcd13ifvqdc0","pricing_plan_id":"cebpf4jnsgd1na2vs0mg"},{"bike_id":"be25e552-734a-473e-abbb-52c79bbad7b1","system_id":"levelo_inurba_marseille","lat":43.27175,"lon":5.40997,"is_reserved":false,"is_disabled":false,"rental_uris":{"android":"levelo://app?vid=be25e552-734a-473e-abbb-52c79bbad7b1","ios":"levelo://app?vid=be25e552-734a-473e-abbb-52c79bbad7b1"},"vehicle_type_id":"4","last_reported":1731949691,"current_range_meters":39200,"station_id":"ce4bhl12rcd13ifvqgf0","pricing_plan_id":"cebpf4jnsgd1na2vs0mg"},{"bike_id":"c8b4e4f4-188f-4ddb-9934-f4c256f8e1ab","system_id":"levelo_inurba_marseille","lat":43.29444,"lon":5.39748,"is_reserved":false,"is_disabled":false,"rental_uris":{"android":"levelo://app?vid=c8b4e4f4-188f-4ddb-9934-f4c256f8e1ab","ios":"levelo://app?vid=c8b4e4f4-188f-4ddb-9934-f4c256f8e1ab"},"vehicle_type_id":"4","last_reported":1731949691,"current_range_meters":2800,"station_id":"ce4bh3h2rcd13ifvqdo0","pricing_plan_id":"cebpf4jnsgd1na2vs0mg"},{"bike_id":"cf622498-8f57-4e41-a2e4-a0302e46efd5","system_id":"levelo_inurba_marseille","lat":43.29282,"lon":5.3685,"is_reserved":false,"is_disabled":false,"rental_uris":{"android":"levelo://app?vid=cf622498-8f57-4e41-a2e4-a0302e46efd5","ios":"levelo://app?vid=cf622498-8f57-4e41-a2e4-a0302e46efd5"},"vehicle_type_id":"4","last_reported":1731949691,"current_range_meters":30800,"station_id":"ce4bhbp2rcd13ifvqesg","pricing_plan_id":"cebpf4jnsgd1na2vs0mg"},{"bike_id":"912118db-f471-4703-bc58-e3e13f1971d7","system_id":"levelo_inurba_marseille","lat":43.31168,"lon":5.38727,"is_reserved":false,"is_disabled":false,"rental_uris":{"android":"levelo://app?vid=912118db-f471-4703-bc58-e3e13f1971d7","ios":"levelo://app?vid=912118db-f471-4703-bc58-e3e13f1971d7"},"vehicle_type_id":"4","last_reported":1731949691,"current_range_meters":32400,"station_id":"ce4bgv12rcd13ifvqcp0","pricing_plan_id":"cebpf4jnsgd1na2vs0mg"},{"bike_id":"a2f1e92f-2d95-4700-839c-a3431122eabc","system_id":"levelo_inurba_marseille","lat":43.30135,"lon":5.38769,"is_reserved":false,"is_disabled":false,"rental_uris":{"android":"levelo://app?vid=a2f1e92f-2d95-4700-839c-a3431122eabc","ios":"levelo://app?vid=a2f1e92f-2d95-4700-839c-a3431122eabc"},"vehicle_type_id":"4","last_reported":1731949691,"current_range_meters":38400,"station_id":"ce4bghh2rcd13ifvqb60","pricing_plan_id":"cebpf4jnsgd1na2vs0mg"},{"bike_id":"b537b82d-5cd9-44f9-9b49-5e5fe1925e2d","system_id":"levelo_inurba_marseille","lat":43.28695,"lon":5.37385,"is_reserved":false,"is_disabled":false,"rental_uris":{"android":"levelo://app?vid=b537b82d-5cd9-44f9-9b49-5e5fe1925e2d","ios":"levelo://app?vid=b537b82d-5cd9-44f9-9b49-5e5fe1925e2d"},"vehicle_type_id":"4","last_reported":1731949691,"current_range_meters":39200,"station_id":"ce4bh3p2rcd13ifvqdq0","pricing_plan_id":"cebpf4jnsgd1na2vs0mg"},{"bike_id":"66d4475d-4118-441b-83bc-57a41ebd1e18","system_id":"levelo_inurba_marseille","lat":43.2991,"lon":5.38131,"is_reserved":false,"is_disabled":true,"rental_uris":{"android":"levelo://app?vid=66d4475d-4118-441b-83bc-57a41ebd1e18","ios":"levelo://app?vid=66d4475d-4118-441b-83bc-57a41ebd1e18"},"vehicle_type_id":"4","last_reported":1731949691,"current_range_meters":2000,"station_id":"ce4bgj12rcd13ifvqbc0","pricing_plan_id":"cebpf4jnsgd1na2vs0mg"},{"bike_id":"466cc262-7358-4083-9e23-47328789012d","system_id":"levelo_inurba_marseille","lat":43.25087,"lon":5.39523,"is_reserved":false,"is_disabled":false,"rental_uris":{"android":"levelo://app?vid=466cc262-7358-4083-9e23-47328789012d","ios":"levelo://app?vid=466cc262-7358-4083-9e23-47328789012d"},"vehicle_type_id":"4","last_reported":1731949691,"current_range_meters":26000,"station_id":"ce4bhm12rcd13ifvqgkg","pricing_plan_id":"cebpf4jnsgd1na2vs0mg"},{"bike_id":"8b2bc1b5-56f0-49fb-9c20-56c25910e0d1","system_id":"levelo_inurba_marseille","lat":43.31132,"lon":5.37799,"is_reserved":false,"is_disabled":false,"rental_uris":{"android":"levelo://app?vid=8b2bc1b5-56f0-49fb-9c20-56c25910e0d1","ios":"levelo://app?vid=8b2bc1b5-56f0-49fb-9c20-56c25910e0d1"},"vehicle_type_id":"4","last_reported":1731949691,"current_range_meters":26000,"station_id":"ce4bgt92rcd13ifvqcg0","pricing_plan_id":"cebpf4jnsgd1na2vs0mg"},{"bike_id":"082e9fcf-e027-46cb-9584-d83a0d34771a","system_id":"levelo_inurba_marseille","lat":43.29522,"lon":5.3905,"is_reserved":false,"is_disabled":false,"rental_uris":{"android":"levelo://app?vid=082e9fcf-e027-46cb-9584-d83a0d34771a","ios":"levelo://app?vid=082e9fcf-e027-46cb-9584-d83a0d34771a"},"vehicle_type_id":"4","last_reported":1731949691,"current_range_meters":27200,"station_id":"ce4bh3p2rcd13ifvqdp0","pricing_plan_id":"cebpf4jnsgd1na2vs0mg"},{"bike_id":"dff9c07f-352a-4989-b94c-5b504a6c2256","system_id":"levelo_inurba_marseille","lat":43.295267,"lon":5.385421,"is_reserved":false,"is_disabled":false,"rental_uris":{"android":"levelo://app?vid=dff9c07f-352a-4989-b94c-5b504a6c2256","ios":"levelo://app?vid=dff9c07f-352a-4989-b94c-5b504a6c2256"},"vehicle_type_id":"4","last_reported":1731949691,"current_range_meters":21600,"station_id":"ce4bgih2rcd13ifvqba0","pricing_plan_id":"cebpf4jnsgd1na2vs0mg"},{"bike_id":"82b60cae-8cd9-4c2b-917e-b464e3528574","system_id":"levelo_inurba_marseille","lat":43.281,"lon":5.37835,"is_reserved":false,"is_disabled":false,"rental_uris":{"android":"levelo://app?vid=82b60cae-8cd9-4c2b-917e-b464e3528574","ios":"levelo://app?vid=82b60cae-8cd9-4c2b-917e-b464e3528574"},"vehicle_type_id":"4","last_reported":1731949691,"current_range_meters":28400,"station_id":"ce4bha12rcd13ifvqee0","pricing_plan_id":"cebpf4jnsgd1na2vs0mg"},{"bike_id":"647e671d-7a38-4f90-9942-2979b6599a3f","system_id":"levelo_inurba_marseille","lat":43.29616,"lon":5.37155,"is_reserved":false,"is_disabled":false,"rental_uris":{"android":"levelo://app?vid=647e671d-7a38-4f90-9942-2979b6599a3f","ios":"levelo://app?vid=647e671d-7a38-4f90-9942-2979b6599a3f"},"vehicle_type_id":"4","last_reported":1731949691,"current_range_meters":36400,"station_id":"ce4bgnh2rcd13ifvqc0g","pricing_plan_id":"cebpf4jnsgd1na2vs0mg"},{"bike_id":"1f8e31eb-4609-4ceb-8188-fd61d64a2da3","system_id":"levelo_inurba_marseille","lat":43.28454,"lon":5.35887,"is_reserved":false,"is_disabled":false,"rental_uris":{"android":"levelo://app?vid=1f8e31eb-4609-4ceb-8188-fd61d64a2da3","ios":"levelo://app?vid=1f8e31eb-4609-4ceb-8188-fd61d64a2da3"},"vehicle_type_id":"4","last_reported":1731949691,"current_range_meters":38000,"station_id":"ce4bhah2rcd13ifvqei0","pricing_plan_id":"cebpf4jnsgd1na2vs0mg"},{"bike_id":"d739305a-e68e-45c2-be94-bfae6e2d7405","system_id":"levelo_inurba_marseille","lat":43.30321,"lon":5.40437,"is_reserved":false,"is_disabled":true,"rental_uris":{"android":"levelo://app?vid=d739305a-e68e-45c2-be94-bfae6e2d7405","ios":"levelo://app?vid=d739305a-e68e-45c2-be94-bfae6e2d7405"},"vehicle_type_id":"4","last_reported":1731949691,"current_range_meters":0,"station_id":"ce4bh012rcd13ifvqd10","pricing_plan_id":"cebpf4jnsgd1na2vs0mg"},{"bike_id":"884f46f0-e1b4-4549-ae5e-3263f14f23c2","system_id":"levelo_inurba_marseille","lat":43.30599,"lon":5.37217,"is_reserved":false,"is_disabled":true,"rental_uris":{"android":"levelo://app?vid=884f46f0-e1b4-4549-ae5e-3263f14f23c2","ios":"levelo://app?vid=884f46f0-e1b4-4549-ae5e-3263f14f23c2"},"vehicle_type_id":"4","last_reported":1731949691,"current_range_meters":0,"station_id":"ce4bgqh2rcd13ifvqc4g","pricing_plan_id":"cebpf4jnsgd1na2vs0mg"},{"bike_id":"259149ad-c421-466a-ad0c-fd16e04ce6fa","system_id":"levelo_inurba_marseille","lat":43.28454,"lon":5.35885,"is_reserved":false,"is_disabled":false,"rental_uris":{"android":"levelo://app?vid=259149ad-c421-466a-ad0c-fd16e04ce6fa","ios":"levelo://app?vid=259149ad-c421-466a-ad0c-fd16e04ce6fa"},"vehicle_type_id":"4","last_reported":1731949691,"current_range_meters":28800,"station_id":"ce4bhah2rcd13ifvqei0","pricing_plan_id":"cebpf4jnsgd1na2vs0mg"},{"bike_id":"d9a233cc-3acd-4580-9bff-c0faf2ddcaf0","system_id":"levelo_inurba_marseille","lat":43.26999,"lon":5.39955,"is_reserved":false,"is_disabled":false,"rental_uris":{"android":"levelo://app?vid=d9a233cc-3acd-4580-9bff-c0faf2ddcaf0","ios":"levelo://app?vid=d9a233cc-3acd-4580-9bff-c0faf2ddcaf0"},"vehicle_type_id":"4","last_reported":1731949691,"current_range_meters":24000,"station_id":"","pricing_plan_id":"cebpf4jnsgd1na2vs0mg"},{"bike_id":"cc94800f-8f00-4fa2-8321-7ffb60c60a1c","system_id":"levelo_inurba_marseille","lat":43.28462,"lon":5.35903,"is_reserved":false,"is_disabled":false,"rental_uris":{"android":"levelo://app?vid=cc94800f-8f00-4fa2-8321-7ffb60c60a1c","ios":"levelo://app?vid=cc94800f-8f00-4fa2-8321-7ffb60c60a1c"},"vehicle_type_id":"4","last_reported":1731949691,"current_range_meters":27600,"station_id":"ce4bhah2rcd13ifvqei0","pricing_plan_id":"cebpf4jnsgd1na2vs0mg"},{"bike_id":"801dea25-03bf-4f11-a8a7-9c85139f31aa","system_id":"levelo_inurba_marseille","lat":43.25086,"lon":5.39526,"is_reserved":false,"is_disabled":false,"rental_uris":{"android":"levelo://app?vid=801dea25-03bf-4f11-a8a7-9c85139f31aa","ios":"levelo://app?vid=801dea25-03bf-4f11-a8a7-9c85139f31aa"},"vehicle_type_id":"4","last_reported":1731949691,"current_range_meters":26800,"station_id":"ce4bhm12rcd13ifvqgkg","pricing_plan_id":"cebpf4jnsgd1na2vs0mg"},{"bike_id":"0b733133-03c9-4766-961e-92b775b50bbc","system_id":"levelo_inurba_marseille","lat":43.28191,"lon":5.44257,"is_reserved":false,"is_disabled":true,"rental_uris":{"android":"levelo://app?vid=0b733133-03c9-4766-961e-92b775b50bbc","ios":"levelo://app?vid=0b733133-03c9-4766-961e-92b775b50bbc"},"vehicle_type_id":"4","last_reported":1731949691,"current_range_meters":1600,"station_id":"","pricing_plan_id":"cebpf4jnsgd1na2vs0mg"},{"bike_id":"74eb70e9-b94e-49a5-9a48-368b4be133db","system_id":"levelo_inurba_marseille","lat":43.30792,"lon":5.43524,"is_reserved":false,"is_disabled":false,"rental_uris":{"android":"levelo://app?vid=74eb70e9-b94e-49a5-9a48-368b4be133db","ios":"levelo://app?vid=74eb70e9-b94e-49a5-9a48-368b4be133db"},"vehicle_type_id":"4","last_reported":1731949691,"current_range_meters":28000,"station_id":"ce4bhph2rcd13ifvqheg","pricing_plan_id":"cebpf4jnsgd1na2vs0mg"},{"bike_id":"4cba050b-d851-4ee5-8ce0-ea7f25d9c27b","system_id":"levelo_inurba_marseille","lat":43.2749,"lon":5.42449,"is_reserved":false,"is_disabled":true,"rental_uris":{"android":"levelo://app?vid=4cba050b-d851-4ee5-8ce0-ea7f25d9c27b","ios":"levelo://app?vid=4cba050b-d851-4ee5-8ce0-ea7f25d9c27b"},"vehicle_type_id":"4","last_reported":1731949691,"current_range_meters":20400,"station_id":"ce4bhn92rcd13ifvqgrg","pricing_plan_id":"cebpf4jnsgd1na2vs0mg"},{"bike_id":"c192d96d-c450-40fa-bbf1-0de83b2f07ce","system_id":"levelo_inurba_marseille","lat":43.30134,"lon":5.3986,"is_reserved":false,"is_disabled":false,"rental_uris":{"android":"levelo://app?vid=c192d96d-c450-40fa-bbf1-0de83b2f07ce","ios":"levelo://app?vid=c192d96d-c450-40fa-bbf1-0de83b2f07ce"},"vehicle_type_id":"4","last_reported":1731949691,"current_range_meters":38800,"station_id":"ce4bh0h2rcd13ifvqd40","pricing_plan_id":"cebpf4jnsgd1na2vs0mg"},{"bike_id":"af8f1015-09d2-4f98-be30-83b90068c667","system_id":"levelo_inurba_marseille","lat":43.31364,"lon":5.38496,"is_reserved":false,"is_disabled":false,"rental_uris":{"android":"levelo://app?vid=af8f1015-09d2-4f98-be30-83b90068c667","ios":"levelo://app?vid=af8f1015-09d2-4f98-be30-83b90068c667"},"vehicle_type_id":"4","last_reported":1731949691,"current_range_meters":24000,"station_id":"ce4bgt92rcd13ifvqcf0","pricing_plan_id":"cebpf4jnsgd1na2vs0mg"},{"bike_id":"7fdb167d-6137-4050-9ec1-b84fe9675b11","system_id":"levelo_inurba_marseille","lat":43.27369,"lon":5.36261,"is_reserved":false,"is_disabled":false,"rental_uris":{"android":"levelo://app?vid=7fdb167d-6137-4050-9ec1-b84fe9675b11","ios":"levelo://app?vid=7fdb167d-6137-4050-9ec1-b84fe9675b11"},"vehicle_type_id":"4","last_reported":1731949691,"current_range_meters":36400,"station_id":"ce4bhbh2rcd13ifvqeo0","pricing_plan_id":"cebpf4jnsgd1na2vs0mg"},{"bike_id":"8d598332-ef8e-4d95-89b8-ffb8a45fe500","system_id":"levelo_inurba_marseille","lat":43.30929,"lon":5.4015,"is_reserved":false,"is_disabled":false,"rental_uris":{"android":"levelo://app?vid=8d598332-ef8e-4d95-89b8-ffb8a45fe500","ios":"levelo://app?vid=8d598332-ef8e-4d95-89b8-ffb8a45fe500"},"vehicle_type_id":"4","last_reported":1731949691,"current_range_meters":26800,"station_id":"ce4bgvp2rcd13ifvqct0","pricing_plan_id":"cebpf4jnsgd1na2vs0mg"},{"bike_id":"7b5a6fd5-96dd-4f29-a02f-e5107d7cafbe","system_id":"levelo_inurba_marseille","lat":43.29521,"lon":5.39046,"is_reserved":false,"is_disabled":false,"rental_uris":{"android":"levelo://app?vid=7b5a6fd5-96dd-4f29-a02f-e5107d7cafbe","ios":"levelo://app?vid=7b5a6fd5-96dd-4f29-a02f-e5107d7cafbe"},"vehicle_type_id":"4","last_reported":1731949691,"current_range_meters":12000,"station_id":"ce4bh3p2rcd13ifvqdp0","pricing_plan_id":"cebpf4jnsgd1na2vs0mg"},{"bike_id":"3fc8c7a2-af66-4a96-ade4-e07117ffb6af","system_id":"levelo_inurba_marseille","lat":43.31063,"lon":5.38356,"is_reserved":false,"is_disabled":false,"rental_uris":{"android":"levelo://app?vid=3fc8c7a2-af66-4a96-ade4-e07117ffb6af","ios":"levelo://app?vid=3fc8c7a2-af66-4a96-ade4-e07117ffb6af"},"vehicle_type_id":"4","last_reported":1731949691,"current_range_meters":32800,"station_id":"ce4bgv92rcd13ifvqcr0","pricing_plan_id":"cebpf4jnsgd1na2vs0mg"},{"bike_id":"6799c54c-4cd6-4d25-a1cb-a4067a584a72","system_id":"levelo_inurba_marseille","lat":43.33728,"lon":5.39192,"is_reserved":false,"is_disabled":false,"rental_uris":{"android":"levelo://app?vid=6799c54c-4cd6-4d25-a1cb-a4067a584a72","ios":"levelo://app?vid=6799c54c-4cd6-4d25-a1cb-a4067a584a72"},"vehicle_type_id":"4","last_reported":1731949691,"current_range_meters":18800,"station_id":"ce4bhr92rcd13ifvqhsg","pricing_plan_id":"cebpf4jnsgd1na2vs0mg"},{"bike_id":"4192f9c4-782e-4076-b7ac-46485c56bee4","system_id":"levelo_inurba_marseille","lat":43.30418,"lon":5.41285,"is_reserved":false,"is_disabled":false,"rental_uris":{"android":"levelo://app?vid=4192f9c4-782e-4076-b7ac-46485c56bee4","ios":"levelo://app?vid=4192f9c4-782e-4076-b7ac-46485c56bee4"},"vehicle_type_id":"4","last_reported":1731949691,"current_range_meters":18800,"station_id":"ce4bhop2rcd13ifvqh8g","pricing_plan_id":"cebpf4jnsgd1na2vs0mg"},{"bike_id":"9f1dfffb-1213-4f6e-84d3-a2f0789a9ef3","system_id":"levelo_inurba_marseille","lat":43.27618,"lon":5.35884,"is_reserved":false,"is_disabled":true,"rental_uris":{"android":"levelo://app?vid=9f1dfffb-1213-4f6e-84d3-a2f0789a9ef3","ios":"levelo://app?vid=9f1dfffb-1213-4f6e-84d3-a2f0789a9ef3"},"vehicle_type_id":"4","last_reported":1731949691,"current_range_meters":0,"station_id":"","pricing_plan_id":"cebpf4jnsgd1na2vs0mg"},{"bike_id":"cda3708f-eb46-4952-81ac-1e2c9ad183e8","system_id":"levelo_inurba_marseille","lat":43.29784,"lon":5.37289,"is_reserved":false,"is_disabled":false,"rental_uris":{"android":"levelo://app?vid=cda3708f-eb46-4952-81ac-1e2c9ad183e8","ios":"levelo://app?vid=cda3708f-eb46-4952-81ac-1e2c9ad183e8"},"vehicle_type_id":"4","last_reported":1731949691,"current_range_meters":8000,"station_id":"","pricing_plan_id":"cebpf4jnsgd1na2vs0mg"},{"bike_id":"954054ad-77ac-46c3-a1b5-c8fc266a522b","system_id":"levelo_inurba_marseille","lat":43.31723,"lon":5.423934,"is_reserved":false,"is_disabled":false,"rental_uris":{"android":"levelo://app?vid=954054ad-77ac-46c3-a1b5-c8fc266a522b","ios":"levelo://app?vid=954054ad-77ac-46c3-a1b5-c8fc266a522b"},"vehicle_type_id":"4","last_reported":1731949691,"current_range_meters":20400,"station_id":"","pricing_plan_id":"cebpf4jnsgd1na2vs0mg"},{"bike_id":"f13e0168-a456-4aef-a828-a63e7cfccfa9","system_id":"levelo_inurba_marseille","lat":43.29528,"lon":5.38542,"is_reserved":false,"is_disabled":false,"rental_uris":{"android":"levelo://app?vid=f13e0168-a456-4aef-a828-a63e7cfccfa9","ios":"levelo://app?vid=f13e0168-a456-4aef-a828-a63e7cfccfa9"},"vehicle_type_id":"4","last_reported":1731949691,"current_range_meters":34000,"station_id":"ce4bgih2rcd13ifvqba0","pricing_plan_id":"cebpf4jnsgd1na2vs0mg"},{"bike_id":"da07ec5a-e879-4d4f-91c1-838a51969e14","system_id":"levelo_inurba_marseille","lat":43.31991,"lon":5.38167,"is_reserved":false,"is_disabled":false,"rental_uris":{"android":"levelo://app?vid=da07ec5a-e879-4d4f-91c1-838a51969e14","ios":"levelo://app?vid=da07ec5a-e879-4d4f-91c1-838a51969e14"},"vehicle_type_id":"4","last_reported":1731949691,"current_range_meters":8400,"station_id":"ce4bhr12rcd13ifvqhpg","pricing_plan_id":"cebpf4jnsgd1na2vs0mg"},{"bike_id":"2d983866-913c-4390-ae48-1873d10c9730","system_id":"levelo_inurba_marseille","lat":43.24808,"lon":5.37461,"is_reserved":false,"is_disabled":true,"rental_uris":{"android":"levelo://app?vid=2d983866-913c-4390-ae48-1873d10c9730","ios":"levelo://app?vid=2d983866-913c-4390-ae48-1873d10c9730"},"vehicle_type_id":"4","last_reported":1731949691,"current_range_meters":24400,"station_id":"ce4bhgh2rcd13ifvqfb0","pricing_plan_id":"cebpf4jnsgd1na2vs0mg"},{"bike_id":"fb4b6fb7-186f-4217-9cc5-1cb5006fb122","system_id":"levelo_inurba_marseille","lat":43.30886,"lon":5.37198,"is_reserved":false,"is_disabled":false,"rental_uris":{"android":"levelo://app?vid=fb4b6fb7-186f-4217-9cc5-1cb5006fb122","ios":"levelo://app?vid=fb4b6fb7-186f-4217-9cc5-1cb5006fb122"},"vehicle_type_id":"4","last_reported":1731949691,"current_range_meters":39200,"station_id":"ce4bguh2rcd13ifvqckg","pricing_plan_id":"cebpf4jnsgd1na2vs0mg"},{"bike_id":"26e50cc1-11fc-4332-bd07-74413cc3a7dd","system_id":"levelo_inurba_marseille","lat":43.31889,"lon":5.40738,"is_reserved":false,"is_disabled":false,"rental_uris":{"android":"levelo://app?vid=26e50cc1-11fc-4332-bd07-74413cc3a7dd","ios":"levelo://app?vid=26e50cc1-11fc-4332-bd07-74413cc3a7dd"},"vehicle_type_id":"4","last_reported":1731949691,"current_range_meters":24400,"station_id":"ce4bhq12rcd13ifvqhig","pricing_plan_id":"cebpf4jnsgd1na2vs0mg"},{"bike_id":"c18bcb7c-3058-4429-bcd2-a8a890f3689d","system_id":"levelo_inurba_marseille","lat":43.2901,"lon":5.3561,"is_reserved":false,"is_disabled":false,"rental_uris":{"android":"levelo://app?vid=c18bcb7c-3058-4429-bcd2-a8a890f3689d","ios":"levelo://app?vid=c18bcb7c-3058-4429-bcd2-a8a890f3689d"},"vehicle_type_id":"4","last_reported":1731949691,"current_range_meters":37600,"station_id":"ce4bhb92rcd13ifvqen0","pricing_plan_id":"cebpf4jnsgd1na2vs0mg"},{"bike_id":"66cee07e-55db-4ffb-bbcd-870b9c29564f","system_id":"levelo_inurba_marseille","lat":43.29903,"lon":5.43675,"is_reserved":false,"is_disabled":false,"rental_uris":{"android":"levelo://app?vid=66cee07e-55db-4ffb-bbcd-870b9c29564f","ios":"levelo://app?vid=66cee07e-55db-4ffb-bbcd-870b9c29564f"},"vehicle_type_id":"4","last_reported":1731949691,"current_range_meters":8400,"station_id":"ce4bhpp2rcd13ifvqhfg","pricing_plan_id":"cebpf4jnsgd1na2vs0mg"},{"bike_id":"a55c78a8-5bab-43a9-b2ef-8417cb9f9803","system_id":"levelo_inurba_marseille","lat":43.27205,"lon":5.39182,"is_reserved":false,"is_disabled":false,"rental_uris":{"android":"levelo://app?vid=a55c78a8-5bab-43a9-b2ef-8417cb9f9803","ios":"levelo://app?vid=a55c78a8-5bab-43a9-b2ef-8417cb9f9803"},"vehicle_type_id":"4","last_reported":1731949691,"current_range_meters":24800,"station_id":"ce4bhhp2rcd13ifvqfm0","pricing_plan_id":"cebpf4jnsgd1na2vs0mg"},{"bike_id":"a9853979-8e8b-4ac5-bfea-e7c77f46338b","system_id":"levelo_inurba_marseille","lat":43.30889,"lon":5.37193,"is_reserved":false,"is_disabled":false,"rental_uris":{"android":"levelo://app?vid=a9853979-8e8b-4ac5-bfea-e7c77f46338b","ios":"levelo://app?vid=a9853979-8e8b-4ac5-bfea-e7c77f46338b"},"vehicle_type_id":"4","last_reported":1731949691,"current_range_meters":39200,"station_id":"ce4bguh2rcd13ifvqckg","pricing_plan_id":"cebpf4jnsgd1na2vs0mg"},{"bike_id":"e264033a-f915-4b27-a08a-2f42cfcf052a","system_id":"levelo_inurba_marseille","lat":43.337444,"lon":5.374475,"is_reserved":false,"is_disabled":false,"rental_uris":{"android":"levelo://app?vid=e264033a-f915-4b27-a08a-2f42cfcf052a","ios":"levelo://app?vid=e264033a-f915-4b27-a08a-2f42cfcf052a"},"vehicle_type_id":"4","last_reported":1731949691,"current_range_meters":36800,"station_id":"","pricing_plan_id":"cebpf4jnsgd1na2vs0mg"},{"bike_id":"affc6a42-c87f-4640-9297-4a4ea6bc3ad3","system_id":"levelo_inurba_marseille","lat":43.29553,"lon":5.422995,"is_reserved":false,"is_disabled":false,"rental_uris":{"android":"levelo://app?vid=affc6a42-c87f-4640-9297-4a4ea6bc3ad3","ios":"levelo://app?vid=affc6a42-c87f-4640-9297-4a4ea6bc3ad3"},"vehicle_type_id":"4","last_reported":1731949691,"current_range_meters":13600,"station_id":"ce4bhph2rcd13ifvqhdg","pricing_plan_id":"cebpf4jnsgd1na2vs0mg"},{"bike_id":"df900be8-2c12-453f-bc2b-7090adc12272","system_id":"levelo_inurba_marseille","lat":43.30134,"lon":5.38791,"is_reserved":false,"is_disabled":true,"rental_uris":{"android":"levelo://app?vid=df900be8-2c12-453f-bc2b-7090adc12272","ios":"levelo://app?vid=df900be8-2c12-453f-bc2b-7090adc12272"},"vehicle_type_id":"4","last_reported":1731949691,"current_range_meters":25600,"station_id":"ce4bghh2rcd13ifvqb60","pricing_plan_id":"cebpf4jnsgd1na2vs0mg"},{"bike_id":"123862ba-68e2-48f6-a477-31ab9dae8bd5","system_id":"levelo_inurba_marseille","lat":43.337444,"lon":5.374475,"is_reserved":false,"is_disabled":true,"rental_uris":{"android":"levelo://app?vid=123862ba-68e2-48f6-a477-31ab9dae8bd5","ios":"levelo://app?vid=123862ba-68e2-48f6-a477-31ab9dae8bd5"},"vehicle_type_id":"4","last_reported":1731949691,"current_range_meters":19600,"station_id":"","pricing_plan_id":"cebpf4jnsgd1na2vs0mg"},{"bike_id":"25ddf417-8230-4dbc-b38a-2b2cb1ba9d73","system_id":"levelo_inurba_marseille","lat":43.30291,"lon":5.37702,"is_reserved":false,"is_disabled":true,"rental_uris":{"android":"levelo://app?vid=25ddf417-8230-4dbc-b38a-2b2cb1ba9d73","ios":"levelo://app?vid=25ddf417-8230-4dbc-b38a-2b2cb1ba9d73"},"vehicle_type_id":"4","last_reported":1731949691,"current_range_meters":16400,"station_id":"ce4bguh2rcd13ifvqcj0","pricing_plan_id":"cebpf4jnsgd1na2vs0mg"},{"bike_id":"203aeef1-141c-4fdd-8aad-facad2087071","system_id":"levelo_inurba_marseille","lat":43.3379,"lon":5.37412,"is_reserved":false,"is_disabled":false,"rental_uris":{"android":"levelo://app?vid=203aeef1-141c-4fdd-8aad-facad2087071","ios":"levelo://app?vid=203aeef1-141c-4fdd-8aad-facad2087071"},"vehicle_type_id":"4","last_reported":1731949691,"current_range_meters":25600,"station_id":"","pricing_plan_id":"cebpf4jnsgd1na2vs0mg"},{"bike_id":"015475d9-9369-4060-8bef-8b2a0db4bfee","system_id":"levelo_inurba_marseille","lat":43.29789,"lon":5.39352,"is_reserved":false,"is_disabled":false,"rental_uris":{"android":"levelo://app?vid=015475d9-9369-4060-8bef-8b2a0db4bfee","ios":"levelo://app?vid=015475d9-9369-4060-8bef-8b2a0db4bfee"},"vehicle_type_id":"4","last_reported":1731949691,"current_range_meters":30000,"station_id":"chh1huq6cuj3fo74tm60","pricing_plan_id":"cebpf4jnsgd1na2vs0mg"},{"bike_id":"92fa30cf-e46e-410b-a875-9a4ef6c0dc04","system_id":"levelo_inurba_marseille","lat":43.28711,"lon":5.37392,"is_reserved":false,"is_disabled":true,"rental_uris":{"android":"levelo://app?vid=92fa30cf-e46e-410b-a875-9a4ef6c0dc04","ios":"levelo://app?vid=92fa30cf-e46e-410b-a875-9a4ef6c0dc04"},"vehicle_type_id":"4","last_reported":1731949691,"current_range_meters":400,"station_id":"ce4bh3p2rcd13ifvqdq0","pricing_plan_id":"cebpf4jnsgd1na2vs0mg"},{"bike_id":"0814e5b2-afc4-4274-a5e1-ccb784183380","system_id":"levelo_inurba_marseille","lat":43.29515,"lon":5.3904,"is_reserved":false,"is_disabled":false,"rental_uris":{"android":"levelo://app?vid=0814e5b2-afc4-4274-a5e1-ccb784183380","ios":"levelo://app?vid=0814e5b2-afc4-4274-a5e1-ccb784183380"},"vehicle_type_id":"4","last_reported":1731949691,"current_range_meters":29600,"station_id":"ce4bh3p2rcd13ifvqdp0","pricing_plan_id":"cebpf4jnsgd1na2vs0mg"},{"bike_id":"2a18b8cf-0cd6-4e7b-a5fe-e4701290a1b5","system_id":"levelo_inurba_marseille","lat":43.30135,"lon":5.39865,"is_reserved":false,"is_disabled":false,"rental_uris":{"android":"levelo://app?vid=2a18b8cf-0cd6-4e7b-a5fe-e4701290a1b5","ios":"levelo://app?vid=2a18b8cf-0cd6-4e7b-a5fe-e4701290a1b5"},"vehicle_type_id":"4","last_reported":1731949691,"current_range_meters":14800,"station_id":"ce4bh0h2rcd13ifvqd40","pricing_plan_id":"cebpf4jnsgd1na2vs0mg"},{"bike_id":"345685af-29c0-4ee4-9db6-18bc1bae0ded","system_id":"levelo_inurba_marseille","lat":43.30125,"lon":5.39855,"is_reserved":false,"is_disabled":false,"rental_uris":{"android":"levelo://app?vid=345685af-29c0-4ee4-9db6-18bc1bae0ded","ios":"levelo://app?vid=345685af-29c0-4ee4-9db6-18bc1bae0ded"},"vehicle_type_id":"4","last_reported":1731949691,"current_range_meters":11200,"station_id":"ce4bh0h2rcd13ifvqd40","pricing_plan_id":"cebpf4jnsgd1na2vs0mg"},{"bike_id":"e4a5532d-23c6-44a1-8a40-ea77917bd499","system_id":"levelo_inurba_marseille","lat":43.30133,"lon":5.39878,"is_reserved":false,"is_disabled":false,"rental_uris":{"android":"levelo://app?vid=e4a5532d-23c6-44a1-8a40-ea77917bd499","ios":"levelo://app?vid=e4a5532d-23c6-44a1-8a40-ea77917bd499"},"vehicle_type_id":"4","last_reported":1731949691,"current_range_meters":32800,"station_id":"ce4bh0h2rcd13ifvqd40","pricing_plan_id":"cebpf4jnsgd1na2vs0mg"},{"bike_id":"dd00d961-1c11-4494-b7de-da05988cd6ed","system_id":"levelo_inurba_marseille","lat":43.27831,"lon":5.39213,"is_reserved":false,"is_disabled":false,"rental_uris":{"android":"levelo://app?vid=dd00d961-1c11-4494-b7de-da05988cd6ed","ios":"levelo://app?vid=dd00d961-1c11-4494-b7de-da05988cd6ed"},"vehicle_type_id":"4","last_reported":1731949691,"current_range_meters":38800,"station_id":"ce4bhjp2rcd13ifvqga0","pricing_plan_id":"cebpf4jnsgd1na2vs0mg"},{"bike_id":"406b27d8-6247-424a-ac46-51ed04c17f48","system_id":"levelo_inurba_marseille","lat":43.3054,"lon":5.36552,"is_reserved":false,"is_disabled":true,"rental_uris":{"android":"levelo://app?vid=406b27d8-6247-424a-ac46-51ed04c17f48","ios":"levelo://app?vid=406b27d8-6247-424a-ac46-51ed04c17f48"},"vehicle_type_id":"4","last_reported":1731949691,"current_range_meters":0,"station_id":"ce4bgs12rcd13ifvqcag","pricing_plan_id":"cebpf4jnsgd1na2vs0mg"},{"bike_id":"54c3d008-9b23-449d-a09a-a7a7affe242f","system_id":"levelo_inurba_marseille","lat":43.31997,"lon":5.38166,"is_reserved":false,"is_disabled":false,"rental_uris":{"android":"levelo://app?vid=54c3d008-9b23-449d-a09a-a7a7affe242f","ios":"levelo://app?vid=54c3d008-9b23-449d-a09a-a7a7affe242f"},"vehicle_type_id":"4","last_reported":1731949691,"current_range_meters":20000,"station_id":"ce4bhr12rcd13ifvqhpg","pricing_plan_id":"cebpf4jnsgd1na2vs0mg"},{"bike_id":"746c26b3-b945-4191-b394-93c5195805c3","system_id":"levelo_inurba_marseille","lat":43.27942,"lon":5.41052,"is_reserved":false,"is_disabled":false,"rental_uris":{"android":"levelo://app?vid=746c26b3-b945-4191-b394-93c5195805c3","ios":"levelo://app?vid=746c26b3-b945-4191-b394-93c5195805c3"},"vehicle_type_id":"4","last_reported":1731949691,"current_range_meters":14800,"station_id":"ce4bhnp2rcd13ifvqh0g","pricing_plan_id":"cebpf4jnsgd1na2vs0mg"},{"bike_id":"f5a84274-fc7f-437a-af20-8497d519f6b5","system_id":"levelo_inurba_marseille","lat":43.30127,"lon":5.398339,"is_reserved":false,"is_disabled":false,"rental_uris":{"android":"levelo://app?vid=f5a84274-fc7f-437a-af20-8497d519f6b5","ios":"levelo://app?vid=f5a84274-fc7f-437a-af20-8497d519f6b5"},"vehicle_type_id":"4","last_reported":1731949691,"current_range_meters":27200,"station_id":"ce4bh0h2rcd13ifvqd40","pricing_plan_id":"cebpf4jnsgd1na2vs0mg"},{"bike_id":"75420037-a1a0-44de-85e1-44ce9ad329ea","system_id":"levelo_inurba_marseille","lat":43.28461,"lon":5.35888,"is_reserved":false,"is_disabled":false,"rental_uris":{"android":"levelo://app?vid=75420037-a1a0-44de-85e1-44ce9ad329ea","ios":"levelo://app?vid=75420037-a1a0-44de-85e1-44ce9ad329ea"},"vehicle_type_id":"4","last_reported":1731949691,"current_range_meters":37600,"station_id":"ce4bhah2rcd13ifvqei0","pricing_plan_id":"cebpf4jnsgd1na2vs0mg"},{"bike_id":"5ed0dcf0-c2ca-47d5-8497-b51c5d83f101","system_id":"levelo_inurba_marseille","lat":43.26686,"lon":5.38276,"is_reserved":false,"is_disabled":true,"rental_uris":{"android":"levelo://app?vid=5ed0dcf0-c2ca-47d5-8497-b51c5d83f101","ios":"levelo://app?vid=5ed0dcf0-c2ca-47d5-8497-b51c5d83f101"},"vehicle_type_id":"4","last_reported":1731949691,"current_range_meters":38800,"station_id":"ce4bhg92rcd13ifvqf90","pricing_plan_id":"cebpf4jnsgd1na2vs0mg"},{"bike_id":"b255d923-2499-4c8d-a4f2-ac8fd0e6b2d2","system_id":"levelo_inurba_marseille","lat":43.2621,"lon":5.37442,"is_reserved":false,"is_disabled":false,"rental_uris":{"android":"levelo://app?vid=b255d923-2499-4c8d-a4f2-ac8fd0e6b2d2","ios":"levelo://app?vid=b255d923-2499-4c8d-a4f2-ac8fd0e6b2d2"},"vehicle_type_id":"4","last_reported":1731949691,"current_range_meters":26800,"station_id":"ce4bhgp2rcd13ifvqfc0","pricing_plan_id":"cebpf4jnsgd1na2vs0mg"},{"bike_id":"18fded32-019c-421b-8db7-c4613bc1d599","system_id":"levelo_inurba_marseille","lat":43.25578,"lon":5.3823,"is_reserved":false,"is_disabled":false,"rental_uris":{"android":"levelo://app?vid=18fded32-019c-421b-8db7-c4613bc1d599","ios":"levelo://app?vid=18fded32-019c-421b-8db7-c4613bc1d599"},"vehicle_type_id":"4","last_reported":1731949691,"current_range_meters":23200,"station_id":"ce4bhih2rcd13ifvqfs0","pricing_plan_id":"cebpf4jnsgd1na2vs0mg"},{"bike_id":"7d471f91-b0b7-49b1-916d-a9b857737a16","system_id":"levelo_inurba_marseille","lat":43.29419,"lon":5.3861,"is_reserved":false,"is_disabled":false,"rental_uris":{"android":"levelo://app?vid=7d471f91-b0b7-49b1-916d-a9b857737a16","ios":"levelo://app?vid=7d471f91-b0b7-49b1-916d-a9b857737a16"},"vehicle_type_id":"4","last_reported":1731949691,"current_range_meters":36800,"station_id":"ce4bh2h2rcd13ifvqdh0","pricing_plan_id":"cebpf4jnsgd1na2vs0mg"},{"bike_id":"e173ea56-6ed3-42b7-a8aa-67a074bbc778","system_id":"levelo_inurba_marseille","lat":43.29785,"lon":5.37093,"is_reserved":false,"is_disabled":false,"rental_uris":{"android":"levelo://app?vid=e173ea56-6ed3-42b7-a8aa-67a074bbc778","ios":"levelo://app?vid=e173ea56-6ed3-42b7-a8aa-67a074bbc778"},"vehicle_type_id":"4","last_reported":1731949691,"current_range_meters":32800,"station_id":"ce4bgop2rcd13ifvqc1g","pricing_plan_id":"cebpf4jnsgd1na2vs0mg"},{"bike_id":"3edbf4db-accc-4b0d-aeaa-59b4b8f30e74","system_id":"levelo_inurba_marseille","lat":43.31115,"lon":5.37764,"is_reserved":false,"is_disabled":false,"rental_uris":{"android":"levelo://app?vid=3edbf4db-accc-4b0d-aeaa-59b4b8f30e74","ios":"levelo://app?vid=3edbf4db-accc-4b0d-aeaa-59b4b8f30e74"},"vehicle_type_id":"4","last_reported":1731949691,"current_range_meters":35200,"station_id":"ce4bgt92rcd13ifvqcg0","pricing_plan_id":"cebpf4jnsgd1na2vs0mg"},{"bike_id":"771ec3ee-fdbf-4aa7-895f-8f893fca4518","system_id":"levelo_inurba_marseille","lat":43.29635,"lon":5.40598,"is_reserved":false,"is_disabled":false,"rental_uris":{"android":"levelo://app?vid=771ec3ee-fdbf-4aa7-895f-8f893fca4518","ios":"levelo://app?vid=771ec3ee-fdbf-4aa7-895f-8f893fca4518"},"vehicle_type_id":"4","last_reported":1731949691,"current_range_meters":38800,"station_id":"ce4bh0h2rcd13ifvqd60","pricing_plan_id":"cebpf4jnsgd1na2vs0mg"},{"bike_id":"90f6d79d-dabe-48eb-8daf-aec3ccb288b3","system_id":"levelo_inurba_marseille","lat":43.28302,"lon":5.39147,"is_reserved":false,"is_disabled":false,"rental_uris":{"android":"levelo://app?vid=90f6d79d-dabe-48eb-8daf-aec3ccb288b3","ios":"levelo://app?vid=90f6d79d-dabe-48eb-8daf-aec3ccb288b3"},"vehicle_type_id":"4","last_reported":1731949691,"current_range_meters":17200,"station_id":"ce4bh512rcd13ifvqe2g","pricing_plan_id":"cebpf4jnsgd1na2vs0mg"},{"bike_id":"628384db-a629-44bc-856e-9d5ee504cce9","system_id":"levelo_inurba_marseille","lat":43.24997,"lon":5.3893,"is_reserved":false,"is_disabled":true,"rental_uris":{"android":"levelo://app?vid=628384db-a629-44bc-856e-9d5ee504cce9","ios":"levelo://app?vid=628384db-a629-44bc-856e-9d5ee504cce9"},"vehicle_type_id":"4","last_reported":1731949691,"current_range_meters":39200,"station_id":"ce4bhgp2rcd13ifvqfd0","pricing_plan_id":"cebpf4jnsgd1na2vs0mg"},{"bike_id":"3f32c9d6-8aed-4b6d-92f4-88b3106e6e04","system_id":"levelo_inurba_marseille","lat":43.25861,"lon":5.39901,"is_reserved":false,"is_disabled":true,"rental_uris":{"android":"levelo://app?vid=3f32c9d6-8aed-4b6d-92f4-88b3106e6e04","ios":"levelo://app?vid=3f32c9d6-8aed-4b6d-92f4-88b3106e6e04"},"vehicle_type_id":"4","last_reported":1731949691,"current_range_meters":12400,"station_id":"ce4bhl92rcd13ifvqghg","pricing_plan_id":"cebpf4jnsgd1na2vs0mg"},{"bike_id":"59282a02-6b4b-4617-b658-ff49c6291b10","system_id":"levelo_inurba_marseille","lat":43.28457,"lon":5.35886,"is_reserved":false,"is_disabled":false,"rental_uris":{"android":"levelo://app?vid=59282a02-6b4b-4617-b658-ff49c6291b10","ios":"levelo://app?vid=59282a02-6b4b-4617-b658-ff49c6291b10"},"vehicle_type_id":"4","last_reported":1731949691,"current_range_meters":16400,"station_id":"ce4bhah2rcd13ifvqei0","pricing_plan_id":"cebpf4jnsgd1na2vs0mg"},{"bike_id":"7c5ea3a8-a728-4c0b-a06a-05abd113adfd","system_id":"levelo_inurba_marseille","lat":43.25821,"lon":5.39437,"is_reserved":false,"is_disabled":true,"rental_uris":{"android":"levelo://app?vid=7c5ea3a8-a728-4c0b-a06a-05abd113adfd","ios":"levelo://app?vid=7c5ea3a8-a728-4c0b-a06a-05abd113adfd"},"vehicle_type_id":"4","last_reported":1731949691,"current_range_meters":1600,"station_id":"ce4bhip2rcd13ifvqft0","pricing_plan_id":"cebpf4jnsgd1na2vs0mg"},{"bike_id":"bec12e29-1589-4be2-adcb-48da2dc577d6","system_id":"levelo_inurba_marseille","lat":43.30783,"lon":5.37665,"is_reserved":false,"is_disabled":false,"rental_uris":{"android":"levelo://app?vid=bec12e29-1589-4be2-adcb-48da2dc577d6","ios":"levelo://app?vid=bec12e29-1589-4be2-adcb-48da2dc577d6"},"vehicle_type_id":"4","last_reported":1731949691,"current_range_meters":37600,"station_id":"ce4bgv92rcd13ifvqcq0","pricing_plan_id":"cebpf4jnsgd1na2vs0mg"},{"bike_id":"15b87b0f-f499-4405-8bf8-5911eac2cdec","system_id":"levelo_inurba_marseille","lat":43.29522,"lon":5.3854,"is_reserved":false,"is_disabled":false,"rental_uris":{"android":"levelo://app?vid=15b87b0f-f499-4405-8bf8-5911eac2cdec","ios":"levelo://app?vid=15b87b0f-f499-4405-8bf8-5911eac2cdec"},"vehicle_type_id":"4","last_reported":1731949691,"current_range_meters":39200,"station_id":"ce4bgih2rcd13ifvqba0","pricing_plan_id":"cebpf4jnsgd1na2vs0mg"},{"bike_id":"6ac87560-a741-407b-a63d-b1ca140a5b0a","system_id":"levelo_inurba_marseille","lat":43.29536,"lon":5.37509,"is_reserved":false,"is_disabled":false,"rental_uris":{"android":"levelo://app?vid=6ac87560-a741-407b-a63d-b1ca140a5b0a","ios":"levelo://app?vid=6ac87560-a741-407b-a63d-b1ca140a5b0a"},"vehicle_type_id":"4","last_reported":1731949691,"current_range_meters":24000,"station_id":"ce4bgkp2rcd13ifvqbmg","pricing_plan_id":"cebpf4jnsgd1na2vs0mg"},{"bike_id":"de242a91-a14d-428e-ac9a-a0fcc52f172e","system_id":"levelo_inurba_marseille","lat":43.31068,"lon":5.38355,"is_reserved":false,"is_disabled":false,"rental_uris":{"android":"levelo://app?vid=de242a91-a14d-428e-ac9a-a0fcc52f172e","ios":"levelo://app?vid=de242a91-a14d-428e-ac9a-a0fcc52f172e"},"vehicle_type_id":"4","last_reported":1731949691,"current_range_meters":24400,"station_id":"ce4bgv92rcd13ifvqcr0","pricing_plan_id":"cebpf4jnsgd1na2vs0mg"},{"bike_id":"4ff195aa-0e94-4780-a4e9-74e0f4125314","system_id":"levelo_inurba_marseille","lat":43.29796,"lon":5.39353,"is_reserved":false,"is_disabled":true,"rental_uris":{"android":"levelo://app?vid=4ff195aa-0e94-4780-a4e9-74e0f4125314","ios":"levelo://app?vid=4ff195aa-0e94-4780-a4e9-74e0f4125314"},"vehicle_type_id":"4","last_reported":1731949691,"current_range_meters":38400,"station_id":"chh1huq6cuj3fo74tm60","pricing_plan_id":"cebpf4jnsgd1na2vs0mg"},{"bike_id":"84add0bd-cb10-4dcb-82e1-3da91d21fda0","system_id":"levelo_inurba_marseille","lat":43.29901,"lon":5.43679,"is_reserved":false,"is_disabled":false,"rental_uris":{"android":"levelo://app?vid=84add0bd-cb10-4dcb-82e1-3da91d21fda0","ios":"levelo://app?vid=84add0bd-cb10-4dcb-82e1-3da91d21fda0"},"vehicle_type_id":"4","last_reported":1731949691,"current_range_meters":7200,"station_id":"ce4bhpp2rcd13ifvqhfg","pricing_plan_id":"cebpf4jnsgd1na2vs0mg"},{"bike_id":"026b8c68-bd26-4b3a-92e6-b0fa8d046556","system_id":"levelo_inurba_marseille","lat":43.26577,"lon":5.39025,"is_reserved":false,"is_disabled":true,"rental_uris":{"android":"levelo://app?vid=026b8c68-bd26-4b3a-92e6-b0fa8d046556","ios":"levelo://app?vid=026b8c68-bd26-4b3a-92e6-b0fa8d046556"},"vehicle_type_id":"4","last_reported":1731949691,"current_range_meters":1200,"station_id":"ce4bhe12rcd13ifvqf30","pricing_plan_id":"cebpf4jnsgd1na2vs0mg"},{"bike_id":"f083a413-eb9e-4f55-be04-9b8bcdf317d6","system_id":"levelo_inurba_marseille","lat":43.28152,"lon":5.40219,"is_reserved":false,"is_disabled":false,"rental_uris":{"android":"levelo://app?vid=f083a413-eb9e-4f55-be04-9b8bcdf317d6","ios":"levelo://app?vid=f083a413-eb9e-4f55-be04-9b8bcdf317d6"},"vehicle_type_id":"4","last_reported":1731949691,"current_range_meters":33200,"station_id":"ce4bgop2rcd13ifvqc1g","pricing_plan_id":"cebpf4jnsgd1na2vs0mg"},{"bike_id":"1c62f8c4-9326-4d1d-8576-5c03786ffc9f","system_id":"levelo_inurba_marseille","lat":43.301319,"lon":5.398532,"is_reserved":false,"is_disabled":false,"rental_uris":{"android":"levelo://app?vid=1c62f8c4-9326-4d1d-8576-5c03786ffc9f","ios":"levelo://app?vid=1c62f8c4-9326-4d1d-8576-5c03786ffc9f"},"vehicle_type_id":"4","last_reported":1731949691,"current_range_meters":18000,"station_id":"ce4bh0h2rcd13ifvqd40","pricing_plan_id":"cebpf4jnsgd1na2vs0mg"},{"bike_id":"6cef00de-0ab8-4422-b649-668d49ee05b7","system_id":"levelo_inurba_marseille","lat":43.24179,"lon":5.39729,"is_reserved":false,"is_disabled":false,"rental_uris":{"android":"levelo://app?vid=6cef00de-0ab8-4422-b649-668d49ee05b7","ios":"levelo://app?vid=6cef00de-0ab8-4422-b649-668d49ee05b7"},"vehicle_type_id":"4","last_reported":1731949691,"current_range_meters":30400,"station_id":"ce4bhn12rcd13ifvqgpg","pricing_plan_id":"cebpf4jnsgd1na2vs0mg"},{"bike_id":"cde5eb04-35f5-4971-aec4-8004f9b2dcd9","system_id":"levelo_inurba_marseille","lat":43.28275,"lon":5.35084,"is_reserved":false,"is_disabled":true,"rental_uris":{"android":"levelo://app?vid=cde5eb04-35f5-4971-aec4-8004f9b2dcd9","ios":"levelo://app?vid=cde5eb04-35f5-4971-aec4-8004f9b2dcd9"},"vehicle_type_id":"4","last_reported":1731949691,"current_range_meters":36400,"station_id":"ce4bhbp2rcd13ifvqerg","pricing_plan_id":"cebpf4jnsgd1na2vs0mg"},{"bike_id":"6d739aa8-a061-4504-96f0-05087cb36e8b","system_id":"levelo_inurba_marseille","lat":43.31122,"lon":5.37771,"is_reserved":false,"is_disabled":false,"rental_uris":{"android":"levelo://app?vid=6d739aa8-a061-4504-96f0-05087cb36e8b","ios":"levelo://app?vid=6d739aa8-a061-4504-96f0-05087cb36e8b"},"vehicle_type_id":"4","last_reported":1731949691,"current_range_meters":32400,"station_id":"ce4bgt92rcd13ifvqcg0","pricing_plan_id":"cebpf4jnsgd1na2vs0mg"},{"bike_id":"d9aaa99c-543f-4857-a768-c5d47f66986e","system_id":"levelo_inurba_marseille","lat":43.23182,"lon":5.39987,"is_reserved":false,"is_disabled":false,"rental_uris":{"android":"levelo://app?vid=d9aaa99c-543f-4857-a768-c5d47f66986e","ios":"levelo://app?vid=d9aaa99c-543f-4857-a768-c5d47f66986e"},"vehicle_type_id":"4","last_reported":1731949691,"current_range_meters":30400,"station_id":"ce4bhn12rcd13ifvqgqg","pricing_plan_id":"cebpf4jnsgd1na2vs0mg"},{"bike_id":"9149b744-3ab9-4c51-83ea-c9bdd28789c0","system_id":"levelo_inurba_marseille","lat":43.29552,"lon":5.42297,"is_reserved":false,"is_disabled":true,"rental_uris":{"android":"levelo://app?vid=9149b744-3ab9-4c51-83ea-c9bdd28789c0","ios":"levelo://app?vid=9149b744-3ab9-4c51-83ea-c9bdd28789c0"},"vehicle_type_id":"4","last_reported":1731949691,"current_range_meters":0,"station_id":"ce4bhph2rcd13ifvqhdg","pricing_plan_id":"cebpf4jnsgd1na2vs0mg"},{"bike_id":"5facb990-bb40-4c9f-a4aa-1ed9dcedde66","system_id":"levelo_inurba_marseille","lat":43.33022,"lon":5.39037,"is_reserved":false,"is_disabled":false,"rental_uris":{"android":"levelo://app?vid=5facb990-bb40-4c9f-a4aa-1ed9dcedde66","ios":"levelo://app?vid=5facb990-bb40-4c9f-a4aa-1ed9dcedde66"},"vehicle_type_id":"4","last_reported":1731949691,"current_range_meters":26000,"station_id":"ce4bhr92rcd13ifvqhrg","pricing_plan_id":"cebpf4jnsgd1na2vs0mg"},{"bike_id":"1a9b2b7f-bafc-4bc5-bab2-74e5a12548ab","system_id":"levelo_inurba_marseille","lat":43.31414,"lon":5.38202,"is_reserved":false,"is_disabled":false,"rental_uris":{"android":"levelo://app?vid=1a9b2b7f-bafc-4bc5-bab2-74e5a12548ab","ios":"levelo://app?vid=1a9b2b7f-bafc-4bc5-bab2-74e5a12548ab"},"vehicle_type_id":"4","last_reported":1731949691,"current_range_meters":38800,"station_id":"","pricing_plan_id":"cebpf4jnsgd1na2vs0mg"},{"bike_id":"0e2bbe61-8f31-47ba-b582-6a82d0b052e0","system_id":"levelo_inurba_marseille","lat":43.290222,"lon":5.383516,"is_reserved":false,"is_disabled":false,"rental_uris":{"android":"levelo://app?vid=0e2bbe61-8f31-47ba-b582-6a82d0b052e0","ios":"levelo://app?vid=0e2bbe61-8f31-47ba-b582-6a82d0b052e0"},"vehicle_type_id":"4","last_reported":1731949691,"current_range_meters":33200,"station_id":"ce4bgip2rcd13ifvqbb0","pricing_plan_id":"cebpf4jnsgd1na2vs0mg"},{"bike_id":"bff402ee-970d-46d4-8d25-a5216fd3bac3","system_id":"levelo_inurba_marseille","lat":43.25012,"lon":5.38926,"is_reserved":false,"is_disabled":true,"rental_uris":{"android":"levelo://app?vid=bff402ee-970d-46d4-8d25-a5216fd3bac3","ios":"levelo://app?vid=bff402ee-970d-46d4-8d25-a5216fd3bac3"},"vehicle_type_id":"4","last_reported":1731949691,"current_range_meters":8400,"station_id":"ce4bhgp2rcd13ifvqfd0","pricing_plan_id":"cebpf4jnsgd1na2vs0mg"},{"bike_id":"c3bc0f64-f384-48a7-9517-04f95522a7e3","system_id":"levelo_inurba_marseille","lat":43.318242,"lon":5.37611,"is_reserved":false,"is_disabled":false,"rental_uris":{"android":"levelo://app?vid=c3bc0f64-f384-48a7-9517-04f95522a7e3","ios":"levelo://app?vid=c3bc0f64-f384-48a7-9517-04f95522a7e3"},"vehicle_type_id":"4","last_reported":1731949691,"current_range_meters":19200,"station_id":"","pricing_plan_id":"cebpf4jnsgd1na2vs0mg"},{"bike_id":"c3adda95-8823-44a7-ab6f-ce72306eabe1","system_id":"levelo_inurba_marseille","lat":43.27423,"lon":5.39413,"is_reserved":false,"is_disabled":true,"rental_uris":{"android":"levelo://app?vid=c3adda95-8823-44a7-ab6f-ce72306eabe1","ios":"levelo://app?vid=c3adda95-8823-44a7-ab6f-ce72306eabe1"},"vehicle_type_id":"4","last_reported":1731949691,"current_range_meters":39200,"station_id":"ce4bhdp2rcd13ifvqf20","pricing_plan_id":"cebpf4jnsgd1na2vs0mg"},{"bike_id":"0a2e4fb8-7c8d-4eb2-b6fb-af8c2b7f3d40","system_id":"levelo_inurba_marseille","lat":43.30106,"lon":5.37332,"is_reserved":false,"is_disabled":false,"rental_uris":{"android":"levelo://app?vid=0a2e4fb8-7c8d-4eb2-b6fb-af8c2b7f3d40","ios":"levelo://app?vid=0a2e4fb8-7c8d-4eb2-b6fb-af8c2b7f3d40"},"vehicle_type_id":"4","last_reported":1731949691,"current_range_meters":16800,"station_id":"","pricing_plan_id":"cebpf4jnsgd1na2vs0mg"},{"bike_id":"8a4dd740-eed4-4cba-ab9f-bf5d59764355","system_id":"levelo_inurba_marseille","lat":43.245672,"lon":5.395126,"is_reserved":false,"is_disabled":false,"rental_uris":{"android":"levelo://app?vid=8a4dd740-eed4-4cba-ab9f-bf5d59764355","ios":"levelo://app?vid=8a4dd740-eed4-4cba-ab9f-bf5d59764355"},"vehicle_type_id":"4","last_reported":1731949691,"current_range_meters":16000,"station_id":"ce4bhlp2rcd13ifvqgjg","pricing_plan_id":"cebpf4jnsgd1na2vs0mg"},{"bike_id":"31b5db47-98d8-4e78-afb6-c1ea669c88bb","system_id":"levelo_inurba_marseille","lat":43.31079,"lon":5.3836,"is_reserved":false,"is_disabled":false,"rental_uris":{"android":"levelo://app?vid=31b5db47-98d8-4e78-afb6-c1ea669c88bb","ios":"levelo://app?vid=31b5db47-98d8-4e78-afb6-c1ea669c88bb"},"vehicle_type_id":"4","last_reported":1731949691,"current_range_meters":28400,"station_id":"ce4bgv92rcd13ifvqcr0","pricing_plan_id":"cebpf4jnsgd1na2vs0mg"},{"bike_id":"638f8d00-ceb3-4062-9f5f-ca647d7df496","system_id":"levelo_inurba_marseille","lat":43.27422,"lon":5.39413,"is_reserved":false,"is_disabled":true,"rental_uris":{"android":"levelo://app?vid=638f8d00-ceb3-4062-9f5f-ca647d7df496","ios":"levelo://app?vid=638f8d00-ceb3-4062-9f5f-ca647d7df496"},"vehicle_type_id":"4","last_reported":1731949691,"current_range_meters":32400,"station_id":"ce4bhdp2rcd13ifvqf20","pricing_plan_id":"cebpf4jnsgd1na2vs0mg"},{"bike_id":"1e42ec7c-f2d7-4887-aa3d-e07910ef0df7","system_id":"levelo_inurba_marseille","lat":43.24163,"lon":5.36408,"is_reserved":false,"is_disabled":false,"rental_uris":{"android":"levelo://app?vid=1e42ec7c-f2d7-4887-aa3d-e07910ef0df7","ios":"levelo://app?vid=1e42ec7c-f2d7-4887-aa3d-e07910ef0df7"},"vehicle_type_id":"4","last_reported":1731949691,"current_range_meters":17200,"station_id":"cpo36qri1sfpv3e86is0","pricing_plan_id":"cebpf4jnsgd1na2vs0mg"},{"bike_id":"4a4eab77-725b-412c-9743-c096390a45fd","system_id":"levelo_inurba_marseille","lat":43.28033,"lon":5.36964,"is_reserved":false,"is_disabled":false,"rental_uris":{"android":"levelo://app?vid=4a4eab77-725b-412c-9743-c096390a45fd","ios":"levelo://app?vid=4a4eab77-725b-412c-9743-c096390a45fd"},"vehicle_type_id":"4","last_reported":1731949691,"current_range_meters":38800,"station_id":"ce4bha12rcd13ifvqef0","pricing_plan_id":"cebpf4jnsgd1na2vs0mg"},{"bike_id":"c3dceee1-d5e0-4813-949a-2ce36b7dca37","system_id":"levelo_inurba_marseille","lat":43.27173,"lon":5.40993,"is_reserved":false,"is_disabled":false,"rental_uris":{"android":"levelo://app?vid=c3dceee1-d5e0-4813-949a-2ce36b7dca37","ios":"levelo://app?vid=c3dceee1-d5e0-4813-949a-2ce36b7dca37"},"vehicle_type_id":"4","last_reported":1731949691,"current_range_meters":18800,"station_id":"ce4bhl12rcd13ifvqgf0","pricing_plan_id":"cebpf4jnsgd1na2vs0mg"},{"bike_id":"f644b4fa-98a0-46e4-a37c-f692601dc455","system_id":"levelo_inurba_marseille","lat":43.25856,"lon":5.39908,"is_reserved":false,"is_disabled":true,"rental_uris":{"android":"levelo://app?vid=f644b4fa-98a0-46e4-a37c-f692601dc455","ios":"levelo://app?vid=f644b4fa-98a0-46e4-a37c-f692601dc455"},"vehicle_type_id":"4","last_reported":1731949691,"current_range_meters":0,"station_id":"ce4bhl92rcd13ifvqghg","pricing_plan_id":"cebpf4jnsgd1na2vs0mg"},{"bike_id":"5b6bc891-12ea-456b-be38-303af3a6bc51","system_id":"levelo_inurba_marseille","lat":43.27994,"lon":5.40005,"is_reserved":false,"is_disabled":false,"rental_uris":{"android":"levelo://app?vid=5b6bc891-12ea-456b-be38-303af3a6bc51","ios":"levelo://app?vid=5b6bc891-12ea-456b-be38-303af3a6bc51"},"vehicle_type_id":"4","last_reported":1731949691,"current_range_meters":38800,"station_id":"ce4bho92rcd13ifvqh4g","pricing_plan_id":"cebpf4jnsgd1na2vs0mg"},{"bike_id":"3f2e793f-445d-48e7-aed6-2086ced939b2","system_id":"levelo_inurba_marseille","lat":43.26494,"lon":5.3954,"is_reserved":false,"is_disabled":true,"rental_uris":{"android":"levelo://app?vid=3f2e793f-445d-48e7-aed6-2086ced939b2","ios":"levelo://app?vid=3f2e793f-445d-48e7-aed6-2086ced939b2"},"vehicle_type_id":"4","last_reported":1731949691,"current_range_meters":0,"station_id":"ce4bhi12rcd13ifvqfq0","pricing_plan_id":"cebpf4jnsgd1na2vs0mg"},{"bike_id":"3d25d818-80cf-415a-996a-afc2d01ce97b","system_id":"levelo_inurba_marseille","lat":43.27789,"lon":5.40736,"is_reserved":false,"is_disabled":false,"rental_uris":{"android":"levelo://app?vid=3d25d818-80cf-415a-996a-afc2d01ce97b","ios":"levelo://app?vid=3d25d818-80cf-415a-996a-afc2d01ce97b"},"vehicle_type_id":"4","last_reported":1731949691,"current_range_meters":20800,"station_id":"ce4bhnh2rcd13ifvqgtg","pricing_plan_id":"cebpf4jnsgd1na2vs0mg"},{"bike_id":"64ed23a0-3533-4dca-8fb9-650aaf2586c1","system_id":"levelo_inurba_marseille","lat":43.31715,"lon":5.42393,"is_reserved":false,"is_disabled":false,"rental_uris":{"android":"levelo://app?vid=64ed23a0-3533-4dca-8fb9-650aaf2586c1","ios":"levelo://app?vid=64ed23a0-3533-4dca-8fb9-650aaf2586c1"},"vehicle_type_id":"4","last_reported":1731949691,"current_range_meters":10800,"station_id":"ce4bhp92rcd13ifvqhbg","pricing_plan_id":"cebpf4jnsgd1na2vs0mg"},{"bike_id":"ca9dfd13-25d4-4cc5-bd21-a979990743ed","system_id":"levelo_inurba_marseille","lat":43.28725,"lon":5.36092,"is_reserved":false,"is_disabled":false,"rental_uris":{"android":"levelo://app?vid=ca9dfd13-25d4-4cc5-bd21-a979990743ed","ios":"levelo://app?vid=ca9dfd13-25d4-4cc5-bd21-a979990743ed"},"vehicle_type_id":"4","last_reported":1731949691,"current_range_meters":19600,"station_id":"cki0cbj6b192h4jlfktg","pricing_plan_id":"cebpf4jnsgd1na2vs0mg"},{"bike_id":"6bfed185-2939-4ace-be4f-98a3704ac759","system_id":"levelo_inurba_marseille","lat":43.2841,"lon":5.34977,"is_reserved":false,"is_disabled":false,"rental_uris":{"android":"levelo://app?vid=6bfed185-2939-4ace-be4f-98a3704ac759","ios":"levelo://app?vid=6bfed185-2939-4ace-be4f-98a3704ac759"},"vehicle_type_id":"4","last_reported":1731949691,"current_range_meters":26800,"station_id":"ce4bhbh2rcd13ifvqepg","pricing_plan_id":"cebpf4jnsgd1na2vs0mg"},{"bike_id":"5fbaf450-90c7-416c-a9b6-8e3b3003c75c","system_id":"levelo_inurba_marseille","lat":43.32483,"lon":5.36574,"is_reserved":false,"is_disabled":false,"rental_uris":{"android":"levelo://app?vid=5fbaf450-90c7-416c-a9b6-8e3b3003c75c","ios":"levelo://app?vid=5fbaf450-90c7-416c-a9b6-8e3b3003c75c"},"vehicle_type_id":"4","last_reported":1731949691,"current_range_meters":39200,"station_id":"ce4bhs12rcd13ifvqhvg","pricing_plan_id":"cebpf4jnsgd1na2vs0mg"},{"bike_id":"2f672a3e-037f-48fa-a067-881af3085117","system_id":"levelo_inurba_marseille","lat":43.3041,"lon":5.41288,"is_reserved":false,"is_disabled":false,"rental_uris":{"android":"levelo://app?vid=2f672a3e-037f-48fa-a067-881af3085117","ios":"levelo://app?vid=2f672a3e-037f-48fa-a067-881af3085117"},"vehicle_type_id":"4","last_reported":1731949691,"current_range_meters":17600,"station_id":"ce4bhop2rcd13ifvqh8g","pricing_plan_id":"cebpf4jnsgd1na2vs0mg"},{"bike_id":"8f9ff61b-d56a-4542-bf57-217372f154b2","system_id":"levelo_inurba_marseille","lat":43.31856,"lon":5.37509,"is_reserved":false,"is_disabled":false,"rental_uris":{"android":"levelo://app?vid=8f9ff61b-d56a-4542-bf57-217372f154b2","ios":"levelo://app?vid=8f9ff61b-d56a-4542-bf57-217372f154b2"},"vehicle_type_id":"4","last_reported":1731949691,"current_range_meters":24800,"station_id":"","pricing_plan_id":"cebpf4jnsgd1na2vs0mg"},{"bike_id":"64dbb36f-f0c2-4718-a476-4d9e6c73a06a","system_id":"levelo_inurba_marseille","lat":43.28459,"lon":5.35888,"is_reserved":false,"is_disabled":false,"rental_uris":{"android":"levelo://app?vid=64dbb36f-f0c2-4718-a476-4d9e6c73a06a","ios":"levelo://app?vid=64dbb36f-f0c2-4718-a476-4d9e6c73a06a"},"vehicle_type_id":"4","last_reported":1731949691,"current_range_meters":27600,"station_id":"ce4bhah2rcd13ifvqei0","pricing_plan_id":"cebpf4jnsgd1na2vs0mg"},{"bike_id":"72b11d75-b02c-447f-a92b-1ad2feab9475","system_id":"levelo_inurba_marseille","lat":43.2895,"lon":5.36378,"is_reserved":false,"is_disabled":false,"rental_uris":{"android":"levelo://app?vid=72b11d75-b02c-447f-a92b-1ad2feab9475","ios":"levelo://app?vid=72b11d75-b02c-447f-a92b-1ad2feab9475"},"vehicle_type_id":"4","last_reported":1731949691,"current_range_meters":37600,"station_id":"ce4bhc92rcd13ifvqetg","pricing_plan_id":"cebpf4jnsgd1na2vs0mg"},{"bike_id":"0823ce1e-3a8d-4721-be3f-8a0bc45c837b","system_id":"levelo_inurba_marseille","lat":43.26191,"lon":5.3745,"is_reserved":false,"is_disabled":false,"rental_uris":{"android":"levelo://app?vid=0823ce1e-3a8d-4721-be3f-8a0bc45c837b","ios":"levelo://app?vid=0823ce1e-3a8d-4721-be3f-8a0bc45c837b"},"vehicle_type_id":"4","last_reported":1731949691,"current_range_meters":35200,"station_id":"ce4bhgp2rcd13ifvqfc0","pricing_plan_id":"cebpf4jnsgd1na2vs0mg"},{"bike_id":"05eefbb4-1a18-4bc4-a220-9805f7a4d3fb","system_id":"levelo_inurba_marseille","lat":43.280189,"lon":5.400283,"is_reserved":false,"is_disabled":false,"rental_uris":{"android":"levelo://app?vid=05eefbb4-1a18-4bc4-a220-9805f7a4d3fb","ios":"levelo://app?vid=05eefbb4-1a18-4bc4-a220-9805f7a4d3fb"},"vehicle_type_id":"4","last_reported":1731949691,"current_range_meters":8000,"station_id":"ce4bho92rcd13ifvqh4g","pricing_plan_id":"cebpf4jnsgd1na2vs0mg"},{"bike_id":"0837b417-6298-4a4d-997f-bd298ccdaa0e","system_id":"levelo_inurba_marseille","lat":43.32663,"lon":5.40986,"is_reserved":false,"is_disabled":true,"rental_uris":{"android":"levelo://app?vid=0837b417-6298-4a4d-997f-bd298ccdaa0e","ios":"levelo://app?vid=0837b417-6298-4a4d-997f-bd298ccdaa0e"},"vehicle_type_id":"4","last_reported":1731949691,"current_range_meters":34000,"station_id":"ce4bhpp2rcd13ifvqhgg","pricing_plan_id":"cebpf4jnsgd1na2vs0mg"},{"bike_id":"1f7e3c58-5ede-43a9-8f8c-3dd90765cb5c","system_id":"levelo_inurba_marseille","lat":43.32478,"lon":5.36562,"is_reserved":false,"is_disabled":false,"rental_uris":{"android":"levelo://app?vid=1f7e3c58-5ede-43a9-8f8c-3dd90765cb5c","ios":"levelo://app?vid=1f7e3c58-5ede-43a9-8f8c-3dd90765cb5c"},"vehicle_type_id":"4","last_reported":1731949691,"current_range_meters":12800,"station_id":"ce4bhs12rcd13ifvqhvg","pricing_plan_id":"cebpf4jnsgd1na2vs0mg"},{"bike_id":"4eb3ef09-b0be-4e4e-985c-ba4d70229a8f","system_id":"levelo_inurba_marseille","lat":43.28941,"lon":5.36393,"is_reserved":false,"is_disabled":false,"rental_uris":{"android":"levelo://app?vid=4eb3ef09-b0be-4e4e-985c-ba4d70229a8f","ios":"levelo://app?vid=4eb3ef09-b0be-4e4e-985c-ba4d70229a8f"},"vehicle_type_id":"4","last_reported":1731949691,"current_range_meters":0,"station_id":"ce4bhc92rcd13ifvqetg","pricing_plan_id":"cebpf4jnsgd1na2vs0mg"},{"bike_id":"96e0da45-d2e7-4c79-bb74-70109f729dc1","system_id":"levelo_inurba_marseille","lat":43.28102,"lon":5.3784,"is_reserved":false,"is_disabled":false,"rental_uris":{"android":"levelo://app?vid=96e0da45-d2e7-4c79-bb74-70109f729dc1","ios":"levelo://app?vid=96e0da45-d2e7-4c79-bb74-70109f729dc1"},"vehicle_type_id":"4","last_reported":1731949691,"current_range_meters":11600,"station_id":"ce4bha12rcd13ifvqee0","pricing_plan_id":"cebpf4jnsgd1na2vs0mg"},{"bike_id":"121f8c61-7b63-45b5-9f2b-ef4e82809c10","system_id":"levelo_inurba_marseille","lat":43.337444,"lon":5.374475,"is_reserved":false,"is_disabled":false,"rental_uris":{"android":"levelo://app?vid=121f8c61-7b63-45b5-9f2b-ef4e82809c10","ios":"levelo://app?vid=121f8c61-7b63-45b5-9f2b-ef4e82809c10"},"vehicle_type_id":"4","last_reported":1731949691,"current_range_meters":28800,"station_id":"","pricing_plan_id":"cebpf4jnsgd1na2vs0mg"},{"bike_id":"383231f9-d044-43b6-9820-3e85e22d3baa","system_id":"levelo_inurba_marseille","lat":43.28071,"lon":5.3966,"is_reserved":false,"is_disabled":false,"rental_uris":{"android":"levelo://app?vid=383231f9-d044-43b6-9820-3e85e22d3baa","ios":"levelo://app?vid=383231f9-d044-43b6-9820-3e85e22d3baa"},"vehicle_type_id":"4","last_reported":1731949691,"current_range_meters":6400,"station_id":"ce4bho12rcd13ifvqh2g","pricing_plan_id":"cebpf4jnsgd1na2vs0mg"},{"bike_id":"e03a06b6-df6d-487f-8834-4cdb03f56f47","system_id":"levelo_inurba_marseille","lat":43.28101,"lon":5.4409,"is_reserved":false,"is_disabled":true,"rental_uris":{"android":"levelo://app?vid=e03a06b6-df6d-487f-8834-4cdb03f56f47","ios":"levelo://app?vid=e03a06b6-df6d-487f-8834-4cdb03f56f47"},"vehicle_type_id":"4","last_reported":1731949691,"current_range_meters":0,"station_id":"","pricing_plan_id":"cebpf4jnsgd1na2vs0mg"},{"bike_id":"95627989-bbe4-4b6e-b6d4-984853141d47","system_id":"levelo_inurba_marseille","lat":43.27669,"lon":5.38897,"is_reserved":false,"is_disabled":true,"rental_uris":{"android":"levelo://app?vid=95627989-bbe4-4b6e-b6d4-984853141d47","ios":"levelo://app?vid=95627989-bbe4-4b6e-b6d4-984853141d47"},"vehicle_type_id":"4","last_reported":1731949691,"current_range_meters":1200,"station_id":"ce4bhi12rcd13ifvqfo0","pricing_plan_id":"cebpf4jnsgd1na2vs0mg"},{"bike_id":"87a1679d-aa59-41b4-bd56-bc5165abd16a","system_id":"levelo_inurba_marseille","lat":43.27901,"lon":5.38006,"is_reserved":false,"is_disabled":true,"rental_uris":{"android":"levelo://app?vid=87a1679d-aa59-41b4-bd56-bc5165abd16a","ios":"levelo://app?vid=87a1679d-aa59-41b4-bd56-bc5165abd16a"},"vehicle_type_id":"4","last_reported":1731949691,"current_range_meters":0,"station_id":"","pricing_plan_id":"cebpf4jnsgd1na2vs0mg"},{"bike_id":"6c29ed1c-4c1e-4021-ad72-f057553f68b2","system_id":"levelo_inurba_marseille","lat":43.27808,"lon":5.40708,"is_reserved":false,"is_disabled":false,"rental_uris":{"android":"levelo://app?vid=6c29ed1c-4c1e-4021-ad72-f057553f68b2","ios":"levelo://app?vid=6c29ed1c-4c1e-4021-ad72-f057553f68b2"},"vehicle_type_id":"4","last_reported":1731949691,"current_range_meters":34800,"station_id":"ce4bhnh2rcd13ifvqgtg","pricing_plan_id":"cebpf4jnsgd1na2vs0mg"},{"bike_id":"fcc7cbbd-be90-4ea3-a2c0-a16cba99a374","system_id":"levelo_inurba_marseille","lat":43.32336,"lon":5.40633,"is_reserved":false,"is_disabled":false,"rental_uris":{"android":"levelo://app?vid=fcc7cbbd-be90-4ea3-a2c0-a16cba99a374","ios":"levelo://app?vid=fcc7cbbd-be90-4ea3-a2c0-a16cba99a374"},"vehicle_type_id":"4","last_reported":1731949691,"current_range_meters":16000,"station_id":"ce4bhq92rcd13ifvqhjg","pricing_plan_id":"cebpf4jnsgd1na2vs0mg"},{"bike_id":"ee65007b-8349-43fd-a430-c922c7e83b2d","system_id":"levelo_inurba_marseille","lat":43.29632,"lon":5.40599,"is_reserved":false,"is_disabled":true,"rental_uris":{"android":"levelo://app?vid=ee65007b-8349-43fd-a430-c922c7e83b2d","ios":"levelo://app?vid=ee65007b-8349-43fd-a430-c922c7e83b2d"},"vehicle_type_id":"4","last_reported":1731949691,"current_range_meters":1600,"station_id":"ce4bh0h2rcd13ifvqd60","pricing_plan_id":"cebpf4jnsgd1na2vs0mg"},{"bike_id":"3dcdd6a2-a267-4775-b1b7-956586464464","system_id":"levelo_inurba_marseille","lat":43.25855,"lon":5.39911,"is_reserved":false,"is_disabled":true,"rental_uris":{"android":"levelo://app?vid=3dcdd6a2-a267-4775-b1b7-956586464464","ios":"levelo://app?vid=3dcdd6a2-a267-4775-b1b7-956586464464"},"vehicle_type_id":"4","last_reported":1731949691,"current_range_meters":32000,"station_id":"ce4bhl92rcd13ifvqghg","pricing_plan_id":"cebpf4jnsgd1na2vs0mg"},{"bike_id":"be9ebb33-6ddc-465b-abdd-52cb66f3d554","system_id":"levelo_inurba_marseille","lat":43.2441,"lon":5.40331,"is_reserved":false,"is_disabled":true,"rental_uris":{"android":"levelo://app?vid=be9ebb33-6ddc-465b-abdd-52cb66f3d554","ios":"levelo://app?vid=be9ebb33-6ddc-465b-abdd-52cb66f3d554"},"vehicle_type_id":"4","last_reported":1731949691,"current_range_meters":400,"station_id":"","pricing_plan_id":"cebpf4jnsgd1na2vs0mg"},{"bike_id":"554e81b2-20d8-4607-b476-0014eeca1e11","system_id":"levelo_inurba_marseille","lat":43.30139,"lon":5.39877,"is_reserved":false,"is_disabled":false,"rental_uris":{"android":"levelo://app?vid=554e81b2-20d8-4607-b476-0014eeca1e11","ios":"levelo://app?vid=554e81b2-20d8-4607-b476-0014eeca1e11"},"vehicle_type_id":"4","last_reported":1731949691,"current_range_meters":16800,"station_id":"ce4bh0h2rcd13ifvqd40","pricing_plan_id":"cebpf4jnsgd1na2vs0mg"},{"bike_id":"6de9ddf5-0bdd-44b2-aef8-e14958f6c736","system_id":"levelo_inurba_marseille","lat":43.27177,"lon":5.40991,"is_reserved":false,"is_disabled":true,"rental_uris":{"android":"levelo://app?vid=6de9ddf5-0bdd-44b2-aef8-e14958f6c736","ios":"levelo://app?vid=6de9ddf5-0bdd-44b2-aef8-e14958f6c736"},"vehicle_type_id":"4","last_reported":1731949691,"current_range_meters":28800,"station_id":"ce4bhl12rcd13ifvqgf0","pricing_plan_id":"cebpf4jnsgd1na2vs0mg"},{"bike_id":"1feae83f-ad96-4e3f-9a90-500f4643de9d","system_id":"levelo_inurba_marseille","lat":43.29098,"lon":5.42649,"is_reserved":false,"is_disabled":true,"rental_uris":{"android":"levelo://app?vid=1feae83f-ad96-4e3f-9a90-500f4643de9d","ios":"levelo://app?vid=1feae83f-ad96-4e3f-9a90-500f4643de9d"},"vehicle_type_id":"4","last_reported":1731949691,"current_range_meters":0,"station_id":"","pricing_plan_id":"cebpf4jnsgd1na2vs0mg"},{"bike_id":"754ef73c-bfb1-447a-ad97-2ea7073aa147","system_id":"levelo_inurba_marseille","lat":43.31079,"lon":5.42432,"is_reserved":false,"is_disabled":false,"rental_uris":{"android":"levelo://app?vid=754ef73c-bfb1-447a-ad97-2ea7073aa147","ios":"levelo://app?vid=754ef73c-bfb1-447a-ad97-2ea7073aa147"},"vehicle_type_id":"4","last_reported":1731949691,"current_range_meters":31200,"station_id":"ce4bhp92rcd13ifvqhag","pricing_plan_id":"cebpf4jnsgd1na2vs0mg"},{"bike_id":"e040d2b2-5ca6-488f-b8a2-a9f2d805ca04","system_id":"levelo_inurba_marseille","lat":43.27996,"lon":5.4001,"is_reserved":false,"is_disabled":false,"rental_uris":{"android":"levelo://app?vid=e040d2b2-5ca6-488f-b8a2-a9f2d805ca04","ios":"levelo://app?vid=e040d2b2-5ca6-488f-b8a2-a9f2d805ca04"},"vehicle_type_id":"4","last_reported":1731949691,"current_range_meters":27200,"station_id":"ce4bho92rcd13ifvqh4g","pricing_plan_id":"cebpf4jnsgd1na2vs0mg"},{"bike_id":"e9a4f4fe-f27e-4d4f-8bea-f64458397547","system_id":"levelo_inurba_marseille","lat":43.29778,"lon":5.37106,"is_reserved":false,"is_disabled":false,"rental_uris":{"android":"levelo://app?vid=e9a4f4fe-f27e-4d4f-8bea-f64458397547","ios":"levelo://app?vid=e9a4f4fe-f27e-4d4f-8bea-f64458397547"},"vehicle_type_id":"4","last_reported":1731949691,"current_range_meters":22800,"station_id":"ce4bgop2rcd13ifvqc1g","pricing_plan_id":"cebpf4jnsgd1na2vs0mg"},{"bike_id":"a9c54843-4809-4a01-ae6d-0d882aa0a275","system_id":"levelo_inurba_marseille","lat":43.28003,"lon":5.40023,"is_reserved":false,"is_disabled":false,"rental_uris":{"android":"levelo://app?vid=a9c54843-4809-4a01-ae6d-0d882aa0a275","ios":"levelo://app?vid=a9c54843-4809-4a01-ae6d-0d882aa0a275"},"vehicle_type_id":"4","last_reported":1731949691,"current_range_meters":22800,"station_id":"ce4bho92rcd13ifvqh4g","pricing_plan_id":"cebpf4jnsgd1na2vs0mg"},{"bike_id":"905b3029-3887-4025-8568-a9d07618d038","system_id":"levelo_inurba_marseille","lat":43.27183,"lon":5.40992,"is_reserved":false,"is_disabled":false,"rental_uris":{"android":"levelo://app?vid=905b3029-3887-4025-8568-a9d07618d038","ios":"levelo://app?vid=905b3029-3887-4025-8568-a9d07618d038"},"vehicle_type_id":"4","last_reported":1731949691,"current_range_meters":39200,"station_id":"ce4bhl12rcd13ifvqgf0","pricing_plan_id":"cebpf4jnsgd1na2vs0mg"},{"bike_id":"09d0c9a4-1c9a-4ec8-b255-eb2867edcba4","system_id":"levelo_inurba_marseille","lat":43.28085,"lon":5.39664,"is_reserved":false,"is_disabled":true,"rental_uris":{"android":"levelo://app?vid=09d0c9a4-1c9a-4ec8-b255-eb2867edcba4","ios":"levelo://app?vid=09d0c9a4-1c9a-4ec8-b255-eb2867edcba4"},"vehicle_type_id":"4","last_reported":1731949691,"current_range_meters":24000,"station_id":"ce4bho12rcd13ifvqh2g","pricing_plan_id":"cebpf4jnsgd1na2vs0mg"},{"bike_id":"1453fdae-ebe7-4e68-a828-fc537931e82c","system_id":"levelo_inurba_marseille","lat":43.24171,"lon":5.36402,"is_reserved":false,"is_disabled":false,"rental_uris":{"android":"levelo://app?vid=1453fdae-ebe7-4e68-a828-fc537931e82c","ios":"levelo://app?vid=1453fdae-ebe7-4e68-a828-fc537931e82c"},"vehicle_type_id":"4","last_reported":1731949691,"current_range_meters":12000,"station_id":"cpo36qri1sfpv3e86is0","pricing_plan_id":"cebpf4jnsgd1na2vs0mg"},{"bike_id":"5f0ff2c4-06fa-4fca-8c33-df3add0c7d83","system_id":"levelo_inurba_marseille","lat":43.23192,"lon":5.35557,"is_reserved":false,"is_disabled":false,"rental_uris":{"android":"levelo://app?vid=5f0ff2c4-06fa-4fca-8c33-df3add0c7d83","ios":"levelo://app?vid=5f0ff2c4-06fa-4fca-8c33-df3add0c7d83"},"vehicle_type_id":"4","last_reported":1731949691,"current_range_meters":34800,"station_id":"ce4bhu92rcd13ifvqi70","pricing_plan_id":"cebpf4jnsgd1na2vs0mg"},{"bike_id":"8fa2381b-af56-40b3-9ae7-43720966ee84","system_id":"levelo_inurba_marseille","lat":43.28123,"lon":5.43934,"is_reserved":false,"is_disabled":false,"rental_uris":{"android":"levelo://app?vid=8fa2381b-af56-40b3-9ae7-43720966ee84","ios":"levelo://app?vid=8fa2381b-af56-40b3-9ae7-43720966ee84"},"vehicle_type_id":"4","last_reported":1731949691,"current_range_meters":22400,"station_id":"","pricing_plan_id":"cebpf4jnsgd1na2vs0mg"},{"bike_id":"f9974c5f-4b58-42cf-b3dc-39732b53bcff","system_id":"levelo_inurba_marseille","lat":43.28707,"lon":5.39998,"is_reserved":false,"is_disabled":false,"rental_uris":{"android":"levelo://app?vid=f9974c5f-4b58-42cf-b3dc-39732b53bcff","ios":"levelo://app?vid=f9974c5f-4b58-42cf-b3dc-39732b53bcff"},"vehicle_type_id":"4","last_reported":1731949691,"current_range_meters":35200,"station_id":"ce4bho92rcd13ifvqh3g","pricing_plan_id":"cebpf4jnsgd1na2vs0mg"},{"bike_id":"8350dcee-f2c0-4372-86e9-68c879d6e726","system_id":"levelo_inurba_marseille","lat":43.2794,"lon":5.41045,"is_reserved":false,"is_disabled":false,"rental_uris":{"android":"levelo://app?vid=8350dcee-f2c0-4372-86e9-68c879d6e726","ios":"levelo://app?vid=8350dcee-f2c0-4372-86e9-68c879d6e726"},"vehicle_type_id":"4","last_reported":1731949691,"current_range_meters":14400,"station_id":"ce4bhnp2rcd13ifvqh0g","pricing_plan_id":"cebpf4jnsgd1na2vs0mg"},{"bike_id":"8f1d1dc1-dde9-46ac-b5ad-fb75f5b6b862","system_id":"levelo_inurba_marseille","lat":43.270505,"lon":5.40262,"is_reserved":false,"is_disabled":true,"rental_uris":{"android":"levelo://app?vid=8f1d1dc1-dde9-46ac-b5ad-fb75f5b6b862","ios":"levelo://app?vid=8f1d1dc1-dde9-46ac-b5ad-fb75f5b6b862"},"vehicle_type_id":"4","last_reported":1731949691,"current_range_meters":800,"station_id":"ce4bhk92rcd13ifvqgc0","pricing_plan_id":"cebpf4jnsgd1na2vs0mg"},{"bike_id":"d8616a15-b9e1-4f28-82b8-a8a16fdd898b","system_id":"levelo_inurba_marseille","lat":43.31993,"lon":5.38173,"is_reserved":false,"is_disabled":false,"rental_uris":{"android":"levelo://app?vid=d8616a15-b9e1-4f28-82b8-a8a16fdd898b","ios":"levelo://app?vid=d8616a15-b9e1-4f28-82b8-a8a16fdd898b"},"vehicle_type_id":"4","last_reported":1731949691,"current_range_meters":24400,"station_id":"ce4bhr12rcd13ifvqhpg","pricing_plan_id":"cebpf4jnsgd1na2vs0mg"},{"bike_id":"fb841934-2ecc-441a-8077-399f3b5ac4fb","system_id":"levelo_inurba_marseille","lat":43.29871,"lon":5.3974,"is_reserved":false,"is_disabled":false,"rental_uris":{"android":"levelo://app?vid=fb841934-2ecc-441a-8077-399f3b5ac4fb","ios":"levelo://app?vid=fb841934-2ecc-441a-8077-399f3b5ac4fb"},"vehicle_type_id":"4","last_reported":1731949691,"current_range_meters":22000,"station_id":"ce4bh0h2rcd13ifvqd50","pricing_plan_id":"cebpf4jnsgd1na2vs0mg"},{"bike_id":"4baf58b3-b7dc-49cc-b808-7818218f0c68","system_id":"levelo_inurba_marseille","lat":43.26778,"lon":5.39421,"is_reserved":false,"is_disabled":false,"rental_uris":{"android":"levelo://app?vid=4baf58b3-b7dc-49cc-b808-7818218f0c68","ios":"levelo://app?vid=4baf58b3-b7dc-49cc-b808-7818218f0c68"},"vehicle_type_id":"4","last_reported":1731949691,"current_range_meters":22400,"station_id":"ce4bhh12rcd13ifvqfg0","pricing_plan_id":"cebpf4jnsgd1na2vs0mg"},{"bike_id":"5ea5c0c8-3541-4f99-a2b6-8df72de2c5db","system_id":"levelo_inurba_marseille","lat":43.28714,"lon":5.39998,"is_reserved":false,"is_disabled":true,"rental_uris":{"android":"levelo://app?vid=5ea5c0c8-3541-4f99-a2b6-8df72de2c5db","ios":"levelo://app?vid=5ea5c0c8-3541-4f99-a2b6-8df72de2c5db"},"vehicle_type_id":"4","last_reported":1731949691,"current_range_meters":35600,"station_id":"ce4bho92rcd13ifvqh3g","pricing_plan_id":"cebpf4jnsgd1na2vs0mg"},{"bike_id":"ba6e5da7-7f8f-4965-b59f-d557e0ed2e4c","system_id":"levelo_inurba_marseille","lat":43.33744,"lon":5.37454,"is_reserved":false,"is_disabled":false,"rental_uris":{"android":"levelo://app?vid=ba6e5da7-7f8f-4965-b59f-d557e0ed2e4c","ios":"levelo://app?vid=ba6e5da7-7f8f-4965-b59f-d557e0ed2e4c"},"vehicle_type_id":"4","last_reported":1731949691,"current_range_meters":34800,"station_id":"","pricing_plan_id":"cebpf4jnsgd1na2vs0mg"},{"bike_id":"48b58a72-9ff7-42fa-a429-29c3981fba3a","system_id":"levelo_inurba_marseille","lat":43.27053,"lon":5.40256,"is_reserved":false,"is_disabled":true,"rental_uris":{"android":"levelo://app?vid=48b58a72-9ff7-42fa-a429-29c3981fba3a","ios":"levelo://app?vid=48b58a72-9ff7-42fa-a429-29c3981fba3a"},"vehicle_type_id":"4","last_reported":1731949691,"current_range_meters":0,"station_id":"ce4bhk92rcd13ifvqgc0","pricing_plan_id":"cebpf4jnsgd1na2vs0mg"},{"bike_id":"afe63f95-1221-49c5-b51b-30563e340b3d","system_id":"levelo_inurba_marseille","lat":43.29524,"lon":5.39042,"is_reserved":false,"is_disabled":false,"rental_uris":{"android":"levelo://app?vid=afe63f95-1221-49c5-b51b-30563e340b3d","ios":"levelo://app?vid=afe63f95-1221-49c5-b51b-30563e340b3d"},"vehicle_type_id":"4","last_reported":1731949691,"current_range_meters":35200,"station_id":"ce4bh3p2rcd13ifvqdp0","pricing_plan_id":"cebpf4jnsgd1na2vs0mg"},{"bike_id":"fe37ed59-822c-4431-b1b4-68991867aea7","system_id":"levelo_inurba_marseille","lat":43.33724,"lon":5.39178,"is_reserved":false,"is_disabled":false,"rental_uris":{"android":"levelo://app?vid=fe37ed59-822c-4431-b1b4-68991867aea7","ios":"levelo://app?vid=fe37ed59-822c-4431-b1b4-68991867aea7"},"vehicle_type_id":"4","last_reported":1731949691,"current_range_meters":40000,"station_id":"ce4bhr92rcd13ifvqhsg","pricing_plan_id":"cebpf4jnsgd1na2vs0mg"},