{"last_updated":1686629299,"ttl":30,"version":"2.2","data":{"bikes":[{"bike_id":"2aa31a64-8af1-4eba-9ea5-4ae3a6b872f9","system_id":"levelo_inurba_marseille","lat":43.31341,"lon":5.367098,"is_reserved":false,"is_disabled":false,"rental_uris":{"android":"levelo://app?vid=2aa31a64-8af1-4eba-9ea5-4ae3a6b872f9","ios":"levelo://app?vid=2aa31a64-8af1-4eba-9ea5-4ae3a6b872f9"},"vehicle_type_id":"4","last_reported":1686629300,"current_range_meters":23600,"station_id":"ce4bgr92rcd13ifvqc6g","pricing_plan_id":"free"},{"bike_id":"a142fcc1-dd44-4e45-a4d3-f750f9811ffe","system_id":"levelo_inurba_marseille","lat":43.31221,"lon":5.36804,"is_reserved":false,"is_disabled":false,"rental_uris":{"android":"levelo://app?vid=a142fcc1-dd44-4e45-a4d3-f750f9811ffe","ios":"levelo://app?vid=a142fcc1-dd44-4e45-a4d3-f750f9811ffe"},"vehicle_type_id":"4","last_reported":1686629300,"current_range_meters":14000,"station_id":"","pricing_plan_id":"free"},{"bike_id":"2dadcc05-75e9-47d0-8162-0758a46c48fc","system_id":"levelo_inurba_marseille","lat":43.31256,"lon":5.36847,"is_reserved":false,"is_disabled":false,"rental_uris":{"android":"levelo://app?vid=2dadcc05-75e9-47d0-8162-0758a46c48fc","ios":"levelo://app?vid=2dadcc05-75e9-47d0-8162-0758a46c48fc"},"vehicle_type_id":"4","last_reported":1686629300,"current_range_meters":31200,"station_id":"ce4bgl92rcd13ifvqbq0","pricing_plan_id":"free"},{"bike_id":"9eb2e08a-4ca5-47a2-9f06-e6a1a08a18d5","system_id":"levelo_inurba_marseille","lat":43.31236,"lon":5.36855,"is_reserved":false,"is_disabled":false,"rental_uris":{"android":"levelo://app?vid=9eb2e08a-4ca5-47a2-9f06-e6a1a08a18d5","ios":"levelo://app?vid=9eb2e08a-4ca5-47a2-9f06-e6a1a08a18d5"},"vehicle_type_id":"4","last_reported":1686629300,"current_range_meters":28000,"station_id":"","pricing_plan_id":"free"},{"bike_id":"fe192283-2a24-46ac-bcd4-891495d3178f","system_id":"levelo_inurba_marseille","lat":43.312239,"lon":5.368562,"is_reserved":false,"is_disabled":false,"rental_uris":{"android":"levelo://app?vid=fe192283-2a24-46ac-bcd4-891495d3178f","ios":"levelo://app?vid=fe192283-2a24-46ac-bcd4-891495d3178f"},"vehicle_type_id":"4","last_reported":1686629300,"current_range_meters":28400,"station_id":"ce4bgl92rcd13ifvqbq0","pricing_plan_id":"free"},{"bike_id":"6b8d79da-c958-4bde-9a4c-4969c2856156","system_id":"levelo_inurba_marseille","lat":43.312239,"lon":5.368562,"is_reserved":false,"is_disabled":false,"rental_uris":{"android":"levelo://app?vid=6b8d79da-c958-4bde-9a4c-4969c2856156","ios":"levelo://app?vid=6b8d79da-c958-4bde-9a4c-4969c2856156"},"vehicle_type_id":"4","last_reported":1686629300,"current_range_meters":28800,"station_id":"ce4bgl92rcd13ifvqbq0","pricing_plan_id":"free"},{"bike_id":"867b115a-aaa4-4328-a048-2a630da4f67f","system_id":"levelo_inurba_marseille","lat":43.31232,"lon":5.36875,"is_reserved":false,"is_disabled":false,"rental_uris":{"android":"levelo://app?vid=867b115a-aaa4-4328-a048-2a630da4f67f","ios":"levelo://app?vid=867b115a-aaa4-4328-a048-2a630da4f67f"},"vehicle_type_id":"4","last_reported":1686629300,"current_range_meters":26800,"station_id":"ce4bgl92rcd13ifvqbq0","pricing_plan_id":"free"},{"bike_id":"012c2350-b326-4384-8394-a232bbae88e5","system_id":"levelo_inurba_marseille","lat":43.309076,"lon":5.368465,"is_reserved":false,"is_disabled":false,"rental_uris":{"android":"levelo://app?vid=012c2350-b326-4384-8394-a232bbae88e5","ios":"levelo://app?vid=012c2350-b326-4384-8394-a232bbae88e5"},"vehicle_type_id":"4","last_reported":1686629300,"current_range_meters":31200,"station_id":"ce4bgn92rcd13ifvqbvg","pricing_plan_id":"free"},{"bike_id":"a0528450-49d1-4056-81d4-d088a691b6df","system_id":"levelo_inurba_marseille","lat":43.309076,"lon":5.368465,"is_reserved":false,"is_disabled":false,"rental_uris":{"android":"levelo://app?vid=a0528450-49d1-4056-81d4-d088a691b6df","ios":"levelo://app?vid=a0528450-49d1-4056-81d4-d088a691b6df"},"vehicle_type_id":"4","last_reported":1686629300,"current_range_meters":31600,"station_id":"ce4bgn92rcd13ifvqbvg","pricing_plan_id":"free"},{"bike_id":"2236174f-9b48-4e77-bc47-17f9275c2cb6","system_id":"levelo_inurba_marseille","lat":43.309076,"lon":5.368465,"is_reserved":false,"is_disabled":false,"rental_uris":{"android":"levelo://app?vid=2236174f-9b48-4e77-bc47-17f9275c2cb6","ios":"levelo://app?vid=2236174f-9b48-4e77-bc47-17f9275c2cb6"},"vehicle_type_id":"4","last_reported":1686629300,"current_range_meters":3200,"station_id":"ce4bgn92rcd13ifvqbvg","pricing_plan_id":"free"},{"bike_id":"6e9f155c-e0dc-432c-8613-d280c7df3001","system_id":"levelo_inurba_marseille","lat":43.309076,"lon":5.368465,"is_reserved":false,"is_disabled":false,"rental_uris":{"android":"levelo://app?vid=6e9f155c-e0dc-432c-8613-d280c7df3001","ios":"levelo://app?vid=6e9f155c-e0dc-432c-8613-d280c7df3001"},"vehicle_type_id":"4","last_reported":1686629300,"current_range_meters":31200,"station_id":"ce4bgn92rcd13ifvqbvg","pricing_plan_id":"free"},{"bike_id":"cf90b152-ba3e-45f5-abd3-f4428137b255","system_id":"levelo_inurba_marseille","lat":43.309076,"lon":5.368465,"is_reserved":false,"is_disabled":false,"rental_uris":{"android":"levelo://app?vid=cf90b152-ba3e-45f5-abd3-f4428137b255","ios":"levelo://app?vid=cf90b152-ba3e-45f5-abd3-f4428137b255"},"vehicle_type_id":"4","last_reported":1686629300,"current_range_meters":29600,"station_id":"ce4bgn92rcd13ifvqbvg","pricing_plan_id":"free"},{"bike_id":"c467708f-edb2-41e1-9886-5f26b940ab77","system_id":"levelo_inurba_marseille","lat":43.309076,"lon":5.368465,"is_reserved":false,"is_disabled":false,"rental_uris":{"android":"levelo://app?vid=c467708f-edb2-41e1-9886-5f26b940ab77","ios":"levelo://app?vid=c467708f-edb2-41e1-9886-5f26b940ab77"},"vehicle_type_id":"4","last_reported":1686629300,"current_range_meters":27600,"station_id":"ce4bgn92rcd13ifvqbvg","pricing_plan_id":"free"},{"bike_id":"1fa4abf8-3d62-4ad0-b5f4-1277651ab4e9","system_id":"levelo_inurba_marseille","lat":43.309076,"lon":5.368465,"is_reserved":false,"is_disabled":false,"rental_uris":{"android":"levelo://app?vid=1fa4abf8-3d62-4ad0-b5f4-1277651ab4e9","ios":"levelo://app?vid=1fa4abf8-3d62-4ad0-b5f4-1277651ab4e9"},"vehicle_type_id":"4","last_reported":1686629300,"current_range_meters":20800,"station_id":"ce4bgn92rcd13ifvqbvg","pricing_plan_id":"free"},{"bike_id":"8964714b-f9e4-449c-8774-b185bb4d3892","system_id":"levelo_inurba_marseille","lat":43.314811,"lon":5.373103,"is_reserved":false,"is_disabled":false,"rental_uris":{"android":"levelo://app?vid=8964714b-f9e4-449c-8774-b185bb4d3892","ios":"levelo://app?vid=8964714b-f9e4-449c-8774-b185bb4d3892"},"vehicle_type_id":"4","last_reported":1686629300,"current_range_meters":26800,"station_id":"ce4bgt12rcd13ifvqcd0","pricing_plan_id":"free"},{"bike_id":"e94b5a11-31ef-4e8d-99c8-005532119ff4","system_id":"levelo_inurba_marseille","lat":43.314811,"lon":5.373104,"is_reserved":false,"is_disabled":false,"rental_uris":{"android":"levelo://app?vid=e94b5a11-31ef-4e8d-99c8-005532119ff4","ios":"levelo://app?vid=e94b5a11-31ef-4e8d-99c8-005532119ff4"},"vehicle_type_id":"4","last_reported":1686629300,"current_range_meters":31200,"station_id":"ce4bgt12rcd13ifvqcd0","pricing_plan_id":"free"},{"bike_id":"11af9f51-4f3f-4e93-8aef-86d0a2dc5435","system_id":"levelo_inurba_marseille","lat":43.314811,"lon":5.373103,"is_reserved":false,"is_disabled":false,"rental_uris":{"android":"levelo://app?vid=11af9f51-4f3f-4e93-8aef-86d0a2dc5435","ios":"levelo://app?vid=11af9f51-4f3f-4e93-8aef-86d0a2dc5435"},"vehicle_type_id":"4","last_reported":1686629300,"current_range_meters":31200,"station_id":"ce4bgt12rcd13ifvqcd0","pricing_plan_id":"free"},{"bike_id":"f8b8c0d1-cfb6-4495-a880-8d3f5fa4cd5d","system_id":"levelo_inurba_marseille","lat":43.314811,"lon":5.373104,"is_reserved":false,"is_disabled":false,"rental_uris":{"android":"levelo://app?vid=f8b8c0d1-cfb6-4495-a880-8d3f5fa4cd5d","ios":"levelo://app?vid=f8b8c0d1-cfb6-4495-a880-8d3f5fa4cd5d"},"vehicle_type_id":"4","last_reported":1686629300,"current_range_meters":18400,"station_id":"ce4bgt12rcd13ifvqcd0","pricing_plan_id":"free"},{"bike_id":"5611f110-de22-4ce7-9bbf-e07dc4dfc8af","system_id":"levelo_inurba_marseille","lat":43.314811,"lon":5.373103,"is_reserved":false,"is_disabled":false,"rental_uris":{"android":"levelo://app?vid=5611f110-de22-4ce7-9bbf-e07dc4dfc8af","ios":"levelo://app?vid=5611f110-de22-4ce7-9bbf-e07dc4dfc8af"},"vehicle_type_id":"4","last_reported":1686629300,"current_range_meters":28800,"station_id":"ce4bgt12rcd13ifvqcd0","pricing_plan_id":"free"},{"bike_id":"a3f9ecbe-c88c-4af9-af0c-2c2bc3f47b96","system_id":"levelo_inurba_marseille","lat":43.314811,"lon":5.373103,"is_reserved":false,"is_disabled":false,"rental_uris":{"android":"levelo://app?vid=a3f9ecbe-c88c-4af9-af0c-2c2bc3f47b96","ios":"levelo://app?vid=a3f9ecbe-c88c-4af9-af0c-2c2bc3f47b96"},"vehicle_type_id":"4","last_reported":1686629300,"current_range_meters":31200,"station_id":"ce4bgt12rcd13ifvqcd0","pricing_plan_id":"free"},{"bike_id":"8e2e7e47-cf31-41b4-ae0c-fe6634e13e82","system_id":"levelo_inurba_marseille","lat":43.314811,"lon":5.373103,"is_reserved":false,"is_disabled":false,"rental_uris":{"android":"levelo://app?vid=8e2e7e47-cf31-41b4-ae0c-fe6634e13e82","ios":"levelo://app?vid=8e2e7e47-cf31-41b4-ae0c-fe6634e13e82"},"vehicle_type_id":"4","last_reported":1686629300,"current_range_meters":31200,"station_id":"ce4bgt12rcd13ifvqcd0","pricing_plan_id":"free"},{"bike_id":"e97173c8-2e4b-466e-ad53-3e22453baabe","system_id":"levelo_inurba_marseille","lat":43.314811,"lon":5.373104,"is_reserved":false,"is_disabled":false,"rental_uris":{"android":"levelo://app?vid=e97173c8-2e4b-466e-ad53-3e22453baabe","ios":"levelo://app?vid=e97173c8-2e4b-466e-ad53-3e22453baabe"},"vehicle_type_id":"4","last_reported":1686629300,"current_range_meters":31200,"station_id":"ce4bgt12rcd13ifvqcd0","pricing_plan_id":"free"},{"bike_id":"b9655435-dbcb-4551-a012-29bead6f0b19","system_id":"levelo_inurba_marseille","lat":43.308606,"lon":5.372099,"is_reserved":false,"is_disabled":false,"rental_uris":{"android":"levelo://app?vid=b9655435-dbcb-4551-a012-29bead6f0b19","ios":"levelo://app?vid=b9655435-dbcb-4551-a012-29bead6f0b19"},"vehicle_type_id":"4","last_reported":1686629300,"current_range_meters":29200,"station_id":"ce4bguh2rcd13ifvqckg","pricing_plan_id":"free"},{"bike_id":"01a90b33-9a3b-4ac2-a1e3-31e11ec78eef","system_id":"levelo_inurba_marseille","lat":43.308606,"lon":5.372099,"is_reserved":false,"is_disabled":false,"rental_uris":{"android":"levelo://app?vid=01a90b33-9a3b-4ac2-a1e3-31e11ec78eef","ios":"levelo://app?vid=01a90b33-9a3b-4ac2-a1e3-31e11ec78eef"},"vehicle_type_id":"4","last_reported":1686629300,"current_range_meters":27600,"station_id":"ce4bguh2rcd13ifvqckg","pricing_plan_id":"free"},{"bike_id":"01613d7a-7b81-4c69-833b-21dcf87dfcd8","system_id":"levelo_inurba_marseille","lat":43.30893,"lon":5.37202,"is_reserved":false,"is_disabled":false,"rental_uris":{"android":"levelo://app?vid=01613d7a-7b81-4c69-833b-21dcf87dfcd8","ios":"levelo://app?vid=01613d7a-7b81-4c69-833b-21dcf87dfcd8"},"vehicle_type_id":"4","last_reported":1686629300,"current_range_meters":31200,"station_id":"ce4bguh2rcd13ifvqckg","pricing_plan_id":"free"},{"bike_id":"a217d2ad-89fa-442c-ae79-614cc2889ed2","system_id":"levelo_inurba_marseille","lat":43.30888,"lon":5.37206,"is_reserved":false,"is_disabled":false,"rental_uris":{"android":"levelo://app?vid=a217d2ad-89fa-442c-ae79-614cc2889ed2","ios":"levelo://app?vid=a217d2ad-89fa-442c-ae79-614cc2889ed2"},"vehicle_type_id":"4","last_reported":1686629300,"current_range_meters":24800,"station_id":"ce4bguh2rcd13ifvqckg","pricing_plan_id":"free"},{"bike_id":"1ed72478-da7f-4ce6-ae5f-e3076b4729cf","system_id":"levelo_inurba_marseille","lat":43.308606,"lon":5.372099,"is_reserved":false,"is_disabled":false,"rental_uris":{"android":"levelo://app?vid=1ed72478-da7f-4ce6-ae5f-e3076b4729cf","ios":"levelo://app?vid=1ed72478-da7f-4ce6-ae5f-e3076b4729cf"},"vehicle_type_id":"4","last_reported":1686629300,"current_range_meters":29600,"station_id":"ce4bguh2rcd13ifvqckg","pricing_plan_id":"free"},{"bike_id":"f5a95efa-4a0e-4739-b910-87411f936e51","system_id":"levelo_inurba_marseille","lat":43.30537,"lon":5.367345,"is_reserved":false,"is_disabled":false,"rental_uris":{"android":"levelo://app?vid=f5a95efa-4a0e-4739-b910-87411f936e51","ios":"levelo://app?vid=f5a95efa-4a0e-4739-b910-87411f936e51"},"vehicle_type_id":"4","last_reported":1686629300,"current_range_meters":21600,"station_id":"ce4bgrp2rcd13ifvqc9g","pricing_plan_id":"free"},{"bike_id":"6ca192a1-6c82-49d2-83f8-90c94c504a17","system_id":"levelo_inurba_marseille","lat":43.305706,"lon":5.365654,"is_reserved":false,"is_disabled":false,"rental_uris":{"android":"levelo://app?vid=6ca192a1-6c82-49d2-83f8-90c94c504a17","ios":"levelo://app?vid=6ca192a1-6c82-49d2-83f8-90c94c504a17"},"vehicle_type_id":"4","last_reported":1686629300,"current_range_meters":30000,"station_id":"ce4bgs12rcd13ifvqcag","pricing_plan_id":"free"},{"bike_id":"58c89153-f26f-46af-9459-8907686b3aa5","system_id":"levelo_inurba_marseille","lat":43.305706,"lon":5.365654,"is_reserved":false,"is_disabled":false,"rental_uris":{"android":"levelo://app?vid=58c89153-f26f-46af-9459-8907686b3aa5","ios":"levelo://app?vid=58c89153-f26f-46af-9459-8907686b3aa5"},"vehicle_type_id":"4","last_reported":1686629300,"current_range_meters":31200,"station_id":"ce4bgs12rcd13ifvqcag","pricing_plan_id":"free"},{"bike_id":"a905a992-ad3f-4a7f-a7f5-f77a27153810","system_id":"levelo_inurba_marseille","lat":43.311131,"lon":5.377651,"is_reserved":false,"is_disabled":false,"rental_uris":{"android":"levelo://app?vid=a905a992-ad3f-4a7f-a7f5-f77a27153810","ios":"levelo://app?vid=a905a992-ad3f-4a7f-a7f5-f77a27153810"},"vehicle_type_id":"4","last_reported":1686629300,"current_range_meters":31200,"station_id":"ce4bgt92rcd13ifvqcg0","pricing_plan_id":"free"},{"bike_id":"e7749677-c131-4bbf-9123-f9f5a30ab373","system_id":"levelo_inurba_marseille","lat":43.311131,"lon":5.377651,"is_reserved":false,"is_disabled":false,"rental_uris":{"android":"levelo://app?vid=e7749677-c131-4bbf-9123-f9f5a30ab373","ios":"levelo://app?vid=e7749677-c131-4bbf-9123-f9f5a30ab373"},"vehicle_type_id":"4","last_reported":1686629300,"current_range_meters":30400,"station_id":"ce4bgt92rcd13ifvqcg0","pricing_plan_id":"free"},{"bike_id":"b2307c51-0646-4ae1-ba6b-e144a937beb5","system_id":"levelo_inurba_marseille","lat":43.31122,"lon":5.37767,"is_reserved":false,"is_disabled":false,"rental_uris":{"android":"levelo://app?vid=b2307c51-0646-4ae1-ba6b-e144a937beb5","ios":"levelo://app?vid=b2307c51-0646-4ae1-ba6b-e144a937beb5"},"vehicle_type_id":"4","last_reported":1686629300,"current_range_meters":7200,"station_id":"ce4bgt92rcd13ifvqcg0","pricing_plan_id":"free"},{"bike_id":"34d8dbb2-f8ca-4539-8b65-734d1d7a9041","system_id":"levelo_inurba_marseille","lat":43.311131,"lon":5.377651,"is_reserved":false,"is_disabled":false,"rental_uris":{"android":"levelo://app?vid=34d8dbb2-f8ca-4539-8b65-734d1d7a9041","ios":"levelo://app?vid=34d8dbb2-f8ca-4539-8b65-734d1d7a9041"},"vehicle_type_id":"4","last_reported":1686629300,"current_range_meters":28000,"station_id":"ce4bgt92rcd13ifvqcg0","pricing_plan_id":"free"},{"bike_id":"d7b3f85f-67f9-4c87-b8b7-b1a8daf5ebcb","system_id":"levelo_inurba_marseille","lat":43.3112,"lon":5.37769,"is_reserved":false,"is_disabled":false,"rental_uris":{"android":"levelo://app?vid=d7b3f85f-67f9-4c87-b8b7-b1a8daf5ebcb","ios":"levelo://app?vid=d7b3f85f-67f9-4c87-b8b7-b1a8daf5ebcb"},"vehicle_type_id":"4","last_reported":1686629300,"current_range_meters":12000,"station_id":"ce4bgt92rcd13ifvqcg0","pricing_plan_id":"free"},{"bike_id":"58ebf723-9bd5-4961-89a8-ecfd6f15bf92","system_id":"levelo_inurba_marseille","lat":43.303046,"lon":5.368981,"is_reserved":false,"is_disabled":false,"rental_uris":{"android":"levelo://app?vid=58ebf723-9bd5-4961-89a8-ecfd6f15bf92","ios":"levelo://app?vid=58ebf723-9bd5-4961-89a8-ecfd6f15bf92"},"vehicle_type_id":"4","last_reported":1686629300,"current_range_meters":13600,"station_id":"ce4bgqh2rcd13ifvqc5g","pricing_plan_id":"free"},{"bike_id":"dc89bd7d-f1a3-47ff-9b50-5747ab437f1d","system_id":"levelo_inurba_marseille","lat":43.303046,"lon":5.368981,"is_reserved":false,"is_disabled":false,"rental_uris":{"android":"levelo://app?vid=dc89bd7d-f1a3-47ff-9b50-5747ab437f1d","ios":"levelo://app?vid=dc89bd7d-f1a3-47ff-9b50-5747ab437f1d"},"vehicle_type_id":"4","last_reported":1686629300,"current_range_meters":27600,"station_id":"ce4bgqh2rcd13ifvqc5g","pricing_plan_id":"free"},{"bike_id":"6569413d-633a-4f88-83bc-21912c25e6c1","system_id":"levelo_inurba_marseille","lat":43.315293,"lon":5.380349,"is_reserved":false,"is_disabled":false,"rental_uris":{"android":"levelo://app?vid=6569413d-633a-4f88-83bc-21912c25e6c1","ios":"levelo://app?vid=6569413d-633a-4f88-83bc-21912c25e6c1"},"vehicle_type_id":"4","last_reported":1686629300,"current_range_meters":31200,"station_id":"ce4bhsp2rcd13ifvqi50","pricing_plan_id":"free"},{"bike_id":"dca51342-8bf4-41e0-9791-952f3e247ea5","system_id":"levelo_inurba_marseille","lat":43.315293,"lon":5.380349,"is_reserved":false,"is_disabled":false,"rental_uris":{"android":"levelo://app?vid=dca51342-8bf4-41e0-9791-952f3e247ea5","ios":"levelo://app?vid=dca51342-8bf4-41e0-9791-952f3e247ea5"},"vehicle_type_id":"4","last_reported":1686629300,"current_range_meters":20800,"station_id":"ce4bhsp2rcd13ifvqi50","pricing_plan_id":"free"},{"bike_id":"12d71afa-8a20-4eaf-be5b-0500d7dc0dd7","system_id":"levelo_inurba_marseille","lat":43.315293,"lon":5.380349,"is_reserved":false,"is_disabled":false,"rental_uris":{"android":"levelo://app?vid=12d71afa-8a20-4eaf-be5b-0500d7dc0dd7","ios":"levelo://app?vid=12d71afa-8a20-4eaf-be5b-0500d7dc0dd7"},"vehicle_type_id":"4","last_reported":1686629300,"current_range_meters":30400,"station_id":"ce4bhsp2rcd13ifvqi50","pricing_plan_id":"free"},{"bike_id":"67f53162-9837-407d-81cf-fc3c4b765ca1","system_id":"levelo_inurba_marseille","lat":43.315293,"lon":5.380349,"is_reserved":false,"is_disabled":false,"rental_uris":{"android":"levelo://app?vid=67f53162-9837-407d-81cf-fc3c4b765ca1","ios":"levelo://app?vid=67f53162-9837-407d-81cf-fc3c4b765ca1"},"vehicle_type_id":"4","last_reported":1686629300,"current_range_meters":31200,"station_id":"ce4bhsp2rcd13ifvqi50","pricing_plan_id":"free"},{"bike_id":"ce27853c-3346-473e-99fb-e121615e6d3f","system_id":"levelo_inurba_marseille","lat":43.315293,"lon":5.380349,"is_reserved":false,"is_disabled":false,"rental_uris":{"android":"levelo://app?vid=ce27853c-3346-473e-99fb-e121615e6d3f","ios":"levelo://app?vid=ce27853c-3346-473e-99fb-e121615e6d3f"},"vehicle_type_id":"4","last_reported":1686629300,"current_range_meters":31200,"station_id":"ce4bhsp2rcd13ifvqi50","pricing_plan_id":"free"},{"bike_id":"078628ed-6d60-4525-a842-336742df7748","system_id":"levelo_inurba_marseille","lat":43.301939,"lon":5.366286,"is_reserved":false,"is_disabled":false,"rental_uris":{"android":"levelo://app?vid=078628ed-6d60-4525-a842-336742df7748","ios":"levelo://app?vid=078628ed-6d60-4525-a842-336742df7748"},"vehicle_type_id":"4","last_reported":1686629300,"current_range_meters":30400,"station_id":"ce4bgrh2rcd13ifvqc8g","pricing_plan_id":"free"},{"bike_id":"54091f13-ad77-4e04-b2cb-d4cf5d5f6ac2","system_id":"levelo_inurba_marseille","lat":43.308012,"lon":5.381511,"is_reserved":false,"is_disabled":false,"rental_uris":{"android":"levelo://app?vid=54091f13-ad77-4e04-b2cb-d4cf5d5f6ac2","ios":"levelo://app?vid=54091f13-ad77-4e04-b2cb-d4cf5d5f6ac2"},"vehicle_type_id":"4","last_reported":1686629300,"current_range_meters":16800,"station_id":"ce4bgt12rcd13ifvqce0","pricing_plan_id":"free"},{"bike_id":"25d805fd-1d61-401c-9657-537d969db265","system_id":"levelo_inurba_marseille","lat":43.308012,"lon":5.381511,"is_reserved":false,"is_disabled":false,"rental_uris":{"android":"levelo://app?vid=25d805fd-1d61-401c-9657-537d969db265","ios":"levelo://app?vid=25d805fd-1d61-401c-9657-537d969db265"},"vehicle_type_id":"4","last_reported":1686629300,"current_range_meters":23200,"station_id":"ce4bgt12rcd13ifvqce0","pricing_plan_id":"free"},{"bike_id":"e4eb563a-2d01-4fac-972d-7f62e590ead0","system_id":"levelo_inurba_marseille","lat":43.308012,"lon":5.381511,"is_reserved":false,"is_disabled":false,"rental_uris":{"android":"levelo://app?vid=e4eb563a-2d01-4fac-972d-7f62e590ead0","ios":"levelo://app?vid=e4eb563a-2d01-4fac-972d-7f62e590ead0"},"vehicle_type_id":"4","last_reported":1686629300,"current_range_meters":30800,"station_id":"ce4bgt12rcd13ifvqce0","pricing_plan_id":"free"},{"bike_id":"1e36a622-e626-4115-9d40-af0a5bfc0af1","system_id":"levelo_inurba_marseille","lat":43.308012,"lon":5.381511,"is_reserved":false,"is_disabled":false,"rental_uris":{"android":"levelo://app?vid=1e36a622-e626-4115-9d40-af0a5bfc0af1","ios":"levelo://app?vid=1e36a622-e626-4115-9d40-af0a5bfc0af1"},"vehicle_type_id":"4","last_reported":1686629300,"current_range_meters":9600,"station_id":"ce4bgt12rcd13ifvqce0","pricing_plan_id":"free"},{"bike_id":"f07de445-9260-4b0e-ad41-3caeda06d319","system_id":"levelo_inurba_marseille","lat":43.308012,"lon":5.381511,"is_reserved":false,"is_disabled":false,"rental_uris":{"android":"levelo://app?vid=f07de445-9260-4b0e-ad41-3caeda06d319","ios":"levelo://app?vid=f07de445-9260-4b0e-ad41-3caeda06d319"},"vehicle_type_id":"4","last_reported":1686629300,"current_range_meters":31200,"station_id":"ce4bgt12rcd13ifvqce0","pricing_plan_id":"free"},{"bike_id":"180adcf1-5ca4-4465-8525-2d0f746755f3","system_id":"levelo_inurba_marseille","lat":43.308012,"lon":5.381511,"is_reserved":false,"is_disabled":false,"rental_uris":{"android":"levelo://app?vid=180adcf1-5ca4-4465-8525-2d0f746755f3","ios":"levelo://app?vid=180adcf1-5ca4-4465-8525-2d0f746755f3"},"vehicle_type_id":"4","last_reported":1686629300,"current_range_meters":28800,"station_id":"ce4bgt12rcd13ifvqce0","pricing_plan_id":"free"},{"bike_id":"1bac387a-baa0-4faf-b9c8-002be9ad92b7","system_id":"levelo_inurba_marseille","lat":43.308012,"lon":5.381511,"is_reserved":false,"is_disabled":false,"rental_uris":{"android":"levelo://app?vid=1bac387a-baa0-4faf-b9c8-002be9ad92b7","ios":"levelo://app?vid=1bac387a-baa0-4faf-b9c8-002be9ad92b7"},"vehicle_type_id":"4","last_reported":1686629300,"current_range_meters":29200,"station_id":"ce4bgt12rcd13ifvqce0","pricing_plan_id":"free"},{"bike_id":"a0506264-6f91-48be-a35e-62ecb15edbe8","system_id":"levelo_inurba_marseille","lat":43.308012,"lon":5.381511,"is_reserved":false,"is_disabled":false,"rental_uris":{"android":"levelo://app?vid=a0506264-6f91-48be-a35e-62ecb15edbe8","ios":"levelo://app?vid=a0506264-6f91-48be-a35e-62ecb15edbe8"},"vehicle_type_id":"4","last_reported":1686629300,"current_range_meters":31200,"station_id":"ce4bgt12rcd13ifvqce0","pricing_plan_id":"free"},{"bike_id":"c8f80137-0337-439c-a3ac-78ffddd0b769","system_id":"levelo_inurba_marseille","lat":43.30494,"lon":5.37897,"is_reserved":false,"is_disabled":false,"rental_uris":{"android":"levelo://app?vid=c8f80137-0337-439c-a3ac-78ffddd0b769","ios":"levelo://app?vid=c8f80137-0337-439c-a3ac-78ffddd0b769"},"vehicle_type_id":"4","last_reported":1686629300,"current_range_meters":26800,"station_id":"","pricing_plan_id":"free"},{"bike_id":"e9556d91-6189-4203-8f01-ccae0efe1551","system_id":"levelo_inurba_marseille","lat":43.308012,"lon":5.381511,"is_reserved":false,"is_disabled":false,"rental_uris":{"android":"levelo://app?vid=e9556d91-6189-4203-8f01-ccae0efe1551","ios":"levelo://app?vid=e9556d91-6189-4203-8f01-ccae0efe1551"},"vehicle_type_id":"4","last_reported":1686629300,"current_range_meters":30800,"station_id":"ce4bgt12rcd13ifvqce0","pricing_plan_id":"free"},{"bike_id":"08e809ea-b5a6-45a2-b808-0c3c51becd58","system_id":"levelo_inurba_marseille","lat":43.308012,"lon":5.381511,"is_reserved":false,"is_disabled":false,"rental_uris":{"android":"levelo://app?vid=08e809ea-b5a6-45a2-b808-0c3c51becd58","ios":"levelo://app?vid=08e809ea-b5a6-45a2-b808-0c3c51becd58"},"vehicle_type_id":"4","last_reported":1686629300,"current_range_meters":22800,"station_id":"ce4bgt12rcd13ifvqce0","pricing_plan_id":"free"},{"bike_id":"3a346767-d910-4fb7-8197-7107a774f57c","system_id":"levelo_inurba_marseille","lat":43.304606,"lon":5.379026,"is_reserved":false,"is_disabled":false,"rental_uris":{"android":"levelo://app?vid=3a346767-d910-4fb7-8197-7107a774f57c","ios":"levelo://app?vid=3a346767-d910-4fb7-8197-7107a774f57c"},"vehicle_type_id":"4","last_reported":1686629300,"current_range_meters":30000,"station_id":"ce4bgup2rcd13ifvqcn0","pricing_plan_id":"free"},{"bike_id":"c550e9e7-a88a-41d7-812e-66564cb1c574","system_id":"levelo_inurba_marseille","lat":43.30469,"lon":5.37904,"is_reserved":false,"is_disabled":false,"rental_uris":{"android":"levelo://app?vid=c550e9e7-a88a-41d7-812e-66564cb1c574","ios":"levelo://app?vid=c550e9e7-a88a-41d7-812e-66564cb1c574"},"vehicle_type_id":"4","last_reported":1686629300,"current_range_meters":23600,"station_id":"ce4bgup2rcd13ifvqcn0","pricing_plan_id":"free"},{"bike_id":"b159ff37-3c3e-4a4b-9461-922f6656cc52","system_id":"levelo_inurba_marseille","lat":43.30471,"lon":5.37907,"is_reserved":false,"is_disabled":false,"rental_uris":{"android":"levelo://app?vid=b159ff37-3c3e-4a4b-9461-922f6656cc52","ios":"levelo://app?vid=b159ff37-3c3e-4a4b-9461-922f6656cc52"},"vehicle_type_id":"4","last_reported":1686629300,"current_range_meters":26000,"station_id":"ce4bgup2rcd13ifvqcn0","pricing_plan_id":"free"},{"bike_id":"3776f2c9-75ed-4f9d-8516-f1089b531ee6","system_id":"levelo_inurba_marseille","lat":43.304606,"lon":5.379026,"is_reserved":false,"is_disabled":false,"rental_uris":{"android":"levelo://app?vid=3776f2c9-75ed-4f9d-8516-f1089b531ee6","ios":"levelo://app?vid=3776f2c9-75ed-4f9d-8516-f1089b531ee6"},"vehicle_type_id":"4","last_reported":1686629300,"current_range_meters":27200,"station_id":"ce4bgup2rcd13ifvqcn0","pricing_plan_id":"free"},{"bike_id":"e287b895-bd3c-43f0-94f7-cbf0536696fa","system_id":"levelo_inurba_marseille","lat":43.3046,"lon":5.37902,"is_reserved":false,"is_disabled":false,"rental_uris":{"android":"levelo://app?vid=e287b895-bd3c-43f0-94f7-cbf0536696fa","ios":"levelo://app?vid=e287b895-bd3c-43f0-94f7-cbf0536696fa"},"vehicle_type_id":"4","last_reported":1686629300,"current_range_meters":26000,"station_id":"ce4bgup2rcd13ifvqcn0","pricing_plan_id":"free"},{"bike_id":"c2e5a478-4af9-4a31-ad88-961dbcc41cb9","system_id":"levelo_inurba_marseille","lat":43.304606,"lon":5.379026,"is_reserved":false,"is_disabled":false,"rental_uris":{"android":"levelo://app?vid=c2e5a478-4af9-4a31-ad88-961dbcc41cb9","ios":"levelo://app?vid=c2e5a478-4af9-4a31-ad88-961dbcc41cb9"},"vehicle_type_id":"4","last_reported":1686629300,"current_range_meters":26000,"station_id":"ce4bgup2rcd13ifvqcn0","pricing_plan_id":"free"},{"bike_id":"e1bef767-baa2-4cd3-b6b7-da70e2d35402","system_id":"levelo_inurba_marseille","lat":43.304606,"lon":5.379026,"is_reserved":false,"is_disabled":false,"rental_uris":{"android":"levelo://app?vid=e1bef767-baa2-4cd3-b6b7-da70e2d35402","ios":"levelo://app?vid=e1bef767-baa2-4cd3-b6b7-da70e2d35402"},"vehicle_type_id":"4","last_reported":1686629300,"current_range_meters":30000,"station_id":"ce4bgup2rcd13ifvqcn0","pricing_plan_id":"free"},{"bike_id":"2911ea6d-1263-4dc7-968c-8b9903a9f692","system_id":"levelo_inurba_marseille","lat":43.30459,"lon":5.37907,"is_reserved":false,"is_disabled":false,"rental_uris":{"android":"levelo://app?vid=2911ea6d-1263-4dc7-968c-8b9903a9f692","ios":"levelo://app?vid=2911ea6d-1263-4dc7-968c-8b9903a9f692"},"vehicle_type_id":"4","last_reported":1686629300,"current_range_meters":29600,"station_id":"ce4bgup2rcd13ifvqcn0","pricing_plan_id":"free"},{"bike_id":"86e14780-e972-4497-8fc8-61d461ac9f32","system_id":"levelo_inurba_marseille","lat":43.304606,"lon":5.379026,"is_reserved":false,"is_disabled":false,"rental_uris":{"android":"levelo://app?vid=86e14780-e972-4497-8fc8-61d461ac9f32","ios":"levelo://app?vid=86e14780-e972-4497-8fc8-61d461ac9f32"},"vehicle_type_id":"4","last_reported":1686629300,"current_range_meters":29600,"station_id":"ce4bgup2rcd13ifvqcn0","pricing_plan_id":"free"},{"bike_id":"8eabf04c-f168-462c-be9e-906f3c6b9f70","system_id":"levelo_inurba_marseille","lat":43.304606,"lon":5.379026,"is_reserved":false,"is_disabled":false,"rental_uris":{"android":"levelo://app?vid=8eabf04c-f168-462c-be9e-906f3c6b9f70","ios":"levelo://app?vid=8eabf04c-f168-462c-be9e-906f3c6b9f70"},"vehicle_type_id":"4","last_reported":1686629300,"current_range_meters":31200,"station_id":"ce4bgup2rcd13ifvqcn0","pricing_plan_id":"free"},{"bike_id":"1ca395e7-dcfa-45b9-8ba5-123cdc9220b4","system_id":"levelo_inurba_marseille","lat":43.302784,"lon":5.377158,"is_reserved":false,"is_disabled":false,"rental_uris":{"android":"levelo://app?vid=1ca395e7-dcfa-45b9-8ba5-123cdc9220b4","ios":"levelo://app?vid=1ca395e7-dcfa-45b9-8ba5-123cdc9220b4"},"vehicle_type_id":"4","last_reported":1686629300,"current_range_meters":18000,"station_id":"ce4bguh2rcd13ifvqcj0","pricing_plan_id":"free"},{"bike_id":"ee44cfba-696a-47bf-86e9-dc6cbdfb5991","system_id":"levelo_inurba_marseille","lat":43.3014,"lon":5.37421,"is_reserved":false,"is_disabled":false,"rental_uris":{"android":"levelo://app?vid=ee44cfba-696a-47bf-86e9-dc6cbdfb5991","ios":"levelo://app?vid=ee44cfba-696a-47bf-86e9-dc6cbdfb5991"},"vehicle_type_id":"4","last_reported":1686629300,"current_range_meters":17200,"station_id":"ce4bgs92rcd13ifvqcc0","pricing_plan_id":"free"},{"bike_id":"53be99d0-4300-4f33-aa2a-8622745e539e","system_id":"levelo_inurba_marseille","lat":43.31991,"lon":5.38152,"is_reserved":false,"is_disabled":false,"rental_uris":{"android":"levelo://app?vid=53be99d0-4300-4f33-aa2a-8622745e539e","ios":"levelo://app?vid=53be99d0-4300-4f33-aa2a-8622745e539e"},"vehicle_type_id":"4","last_reported":1686629300,"current_range_meters":24400,"station_id":"ce4bhr12rcd13ifvqhpg","pricing_plan_id":"free"},{"bike_id":"241479bc-85d3-4b05-8f6f-1c276f5686ac","system_id":"levelo_inurba_marseille","lat":43.31996,"lon":5.38155,"is_reserved":false,"is_disabled":false,"rental_uris":{"android":"levelo://app?vid=241479bc-85d3-4b05-8f6f-1c276f5686ac","ios":"levelo://app?vid=241479bc-85d3-4b05-8f6f-1c276f5686ac"},"vehicle_type_id":"4","last_reported":1686629300,"current_range_meters":28800,"station_id":"ce4bhr12rcd13ifvqhpg","pricing_plan_id":"free"},{"bike_id":"2d5679d1-779c-4c4e-afe1-5d38890a4d3b","system_id":"levelo_inurba_marseille","lat":43.31994,"lon":5.3816,"is_reserved":false,"is_disabled":false,"rental_uris":{"android":"levelo://app?vid=2d5679d1-779c-4c4e-afe1-5d38890a4d3b","ios":"levelo://app?vid=2d5679d1-779c-4c4e-afe1-5d38890a4d3b"},"vehicle_type_id":"4","last_reported":1686629300,"current_range_meters":30800,"station_id":"ce4bhr12rcd13ifvqhpg","pricing_plan_id":"free"},{"bike_id":"31a3da9b-f536-496b-af9a-79b9d3d919c9","system_id":"levelo_inurba_marseille","lat":43.32003,"lon":5.38157,"is_reserved":false,"is_disabled":false,"rental_uris":{"android":"levelo://app?vid=31a3da9b-f536-496b-af9a-79b9d3d919c9","ios":"levelo://app?vid=31a3da9b-f536-496b-af9a-79b9d3d919c9"},"vehicle_type_id":"4","last_reported":1686629300,"current_range_meters":30000,"station_id":"ce4bhr12rcd13ifvqhpg","pricing_plan_id":"free"},{"bike_id":"7ebb3b84-8461-4a02-a883-e30c4e7a95ab","system_id":"levelo_inurba_marseille","lat":43.313571,"lon":5.384829,"is_reserved":false,"is_disabled":false,"rental_uris":{"android":"levelo://app?vid=7ebb3b84-8461-4a02-a883-e30c4e7a95ab","ios":"levelo://app?vid=7ebb3b84-8461-4a02-a883-e30c4e7a95ab"},"vehicle_type_id":"4","last_reported":1686629300,"current_range_meters":30800,"station_id":"ce4bgt92rcd13ifvqcf0","pricing_plan_id":"free"},{"bike_id":"cb649b85-9306-4656-8ece-b7a47a24b371","system_id":"levelo_inurba_marseille","lat":43.313571,"lon":5.384829,"is_reserved":false,"is_disabled":false,"rental_uris":{"android":"levelo://app?vid=cb649b85-9306-4656-8ece-b7a47a24b371","ios":"levelo://app?vid=cb649b85-9306-4656-8ece-b7a47a24b371"},"vehicle_type_id":"4","last_reported":1686629300,"current_range_meters":28400,"station_id":"ce4bgt92rcd13ifvqcf0","pricing_plan_id":"free"},{"bike_id":"3f470675-5b24-4339-bf9f-faba94c5d3b8","system_id":"levelo_inurba_marseille","lat":43.313571,"lon":5.384829,"is_reserved":false,"is_disabled":false,"rental_uris":{"android":"levelo://app?vid=3f470675-5b24-4339-bf9f-faba94c5d3b8","ios":"levelo://app?vid=3f470675-5b24-4339-bf9f-faba94c5d3b8"},"vehicle_type_id":"4","last_reported":1686629300,"current_range_meters":28800,"station_id":"ce4bgt92rcd13ifvqcf0","pricing_plan_id":"free"},{"bike_id":"a4d105a5-3c82-4659-b281-f56532fcafe7","system_id":"levelo_inurba_marseille","lat":43.31364,"lon":5.38498,"is_reserved":false,"is_disabled":false,"rental_uris":{"android":"levelo://app?vid=a4d105a5-3c82-4659-b281-f56532fcafe7","ios":"levelo://app?vid=a4d105a5-3c82-4659-b281-f56532fcafe7"},"vehicle_type_id":"4","last_reported":1686629300,"current_range_meters":4400,"station_id":"ce4bgt92rcd13ifvqcf0","pricing_plan_id":"free"},{"bike_id":"223e2019-fce8-432d-b885-7860cc9c1b88","system_id":"levelo_inurba_marseille","lat":43.313571,"lon":5.384829,"is_reserved":false,"is_disabled":false,"rental_uris":{"android":"levelo://app?vid=223e2019-fce8-432d-b885-7860cc9c1b88","ios":"levelo://app?vid=223e2019-fce8-432d-b885-7860cc9c1b88"},"vehicle_type_id":"4","last_reported":1686629300,"current_range_meters":19200,"station_id":"ce4bgt92rcd13ifvqcf0","pricing_plan_id":"free"},{"bike_id":"490e6fdf-9942-430a-9b24-fbe525b281fd","system_id":"levelo_inurba_marseille","lat":43.313571,"lon":5.384829,"is_reserved":false,"is_disabled":false,"rental_uris":{"android":"levelo://app?vid=490e6fdf-9942-430a-9b24-fbe525b281fd","ios":"levelo://app?vid=490e6fdf-9942-430a-9b24-fbe525b281fd"},"vehicle_type_id":"4","last_reported":1686629300,"current_range_meters":26800,"station_id":"ce4bgt92rcd13ifvqcf0","pricing_plan_id":"free"},{"bike_id":"ea30fb80-eefa-4e03-b3c4-b1ab6f24d142","system_id":"levelo_inurba_marseille","lat":43.3006,"lon":5.37456,"is_reserved":false,"is_disabled":false,"rental_uris":{"android":"levelo://app?vid=ea30fb80-eefa-4e03-b3c4-b1ab6f24d142","ios":"levelo://app?vid=ea30fb80-eefa-4e03-b3c4-b1ab6f24d142"},"vehicle_type_id":"4","last_reported":1686629300,"current_range_meters":12000,"station_id":"","pricing_plan_id":"free"},{"bike_id":"e00f80a6-10a5-4342-9918-189d9827d2fa","system_id":"levelo_inurba_marseille","lat":43.299222,"lon":5.365554,"is_reserved":false,"is_disabled":false,"rental_uris":{"android":"levelo://app?vid=e00f80a6-10a5-4342-9918-189d9827d2fa","ios":"levelo://app?vid=e00f80a6-10a5-4342-9918-189d9827d2fa"},"vehicle_type_id":"4","last_reported":1686629300,"current_range_meters":31200,"station_id":"ce4bgm92rcd13ifvqbr0","pricing_plan_id":"free"},{"bike_id":"003b7c08-9cb6-4043-b5f6-c78cb2448dde","system_id":"levelo_inurba_marseille","lat":43.29858,"lon":5.36291,"is_reserved":false,"is_disabled":false,"rental_uris":{"android":"levelo://app?vid=003b7c08-9cb6-4043-b5f6-c78cb2448dde","ios":"levelo://app?vid=003b7c08-9cb6-4043-b5f6-c78cb2448dde"},"vehicle_type_id":"4","last_reported":1686629300,"current_range_meters":0,"station_id":"ce4bgpp2rcd13ifvqc3g","pricing_plan_id":"free"},{"bike_id":"bc02f6ad-8898-4750-9aa5-77aaaf4d7501","system_id":"levelo_inurba_marseille","lat":43.30538,"lon":5.38427,"is_reserved":false,"is_disabled":false,"rental_uris":{"android":"levelo://app?vid=bc02f6ad-8898-4750-9aa5-77aaaf4d7501","ios":"levelo://app?vid=bc02f6ad-8898-4750-9aa5-77aaaf4d7501"},"vehicle_type_id":"4","last_reported":1686629300,"current_range_meters":10800,"station_id":"ce4bgg92rcd13ifvqb30","pricing_plan_id":"free"},{"bike_id":"227202f2-7650-4c0c-b36b-010170ad8250","system_id":"levelo_inurba_marseille","lat":43.311722,"lon":5.387247,"is_reserved":false,"is_disabled":false,"rental_uris":{"android":"levelo://app?vid=227202f2-7650-4c0c-b36b-010170ad8250","ios":"levelo://app?vid=227202f2-7650-4c0c-b36b-010170ad8250"},"vehicle_type_id":"4","last_reported":1686629300,"current_range_meters":27200,"station_id":"ce4bgv12rcd13ifvqcp0","pricing_plan_id":"free"},{"bike_id":"7a6d8643-790d-43a5-acbb-b829fcfe6bf3","system_id":"levelo_inurba_marseille","lat":43.31174,"lon":5.38721,"is_reserved":false,"is_disabled":false,"rental_uris":{"android":"levelo://app?vid=7a6d8643-790d-43a5-acbb-b829fcfe6bf3","ios":"levelo://app?vid=7a6d8643-790d-43a5-acbb-b829fcfe6bf3"},"vehicle_type_id":"4","last_reported":1686629300,"current_range_meters":8400,"station_id":"ce4bgv12rcd13ifvqcp0","pricing_plan_id":"free"},{"bike_id":"8ea63606-1ebf-439b-b60b-4e4810d6f5fe","system_id":"levelo_inurba_marseille","lat":43.31174,"lon":5.38722,"is_reserved":false,"is_disabled":false,"rental_uris":{"android":"levelo://app?vid=8ea63606-1ebf-439b-b60b-4e4810d6f5fe","ios":"levelo://app?vid=8ea63606-1ebf-439b-b60b-4e4810d6f5fe"},"vehicle_type_id":"4","last_reported":1686629300,"current_range_meters":22400,"station_id":"ce4bgv12rcd13ifvqcp0","pricing_plan_id":"free"},{"bike_id":"5cbb820f-f31e-4097-8ea7-d2f05e07c3ef","system_id":"levelo_inurba_marseille","lat":43.311722,"lon":5.387247,"is_reserved":false,"is_disabled":false,"rental_uris":{"android":"levelo://app?vid=5cbb820f-f31e-4097-8ea7-d2f05e07c3ef","ios":"levelo://app?vid=5cbb820f-f31e-4097-8ea7-d2f05e07c3ef"},"vehicle_type_id":"4","last_reported":1686629300,"current_range_meters":29200,"station_id":"ce4bgv12rcd13ifvqcp0","pricing_plan_id":"free"},{"bike_id":"e7cf2b77-783e-4ab5-a8bc-113bf5670edd","system_id":"levelo_inurba_marseille","lat":43.31171,"lon":5.38723,"is_reserved":false,"is_disabled":false,"rental_uris":{"android":"levelo://app?vid=e7cf2b77-783e-4ab5-a8bc-113bf5670edd","ios":"levelo://app?vid=e7cf2b77-783e-4ab5-a8bc-113bf5670edd"},"vehicle_type_id":"4","last_reported":1686629300,"current_range_meters":10400,"station_id":"ce4bgv12rcd13ifvqcp0","pricing_plan_id":"free"},{"bike_id":"487f7a82-4fc4-481c-b0ea-f122c0254040","system_id":"levelo_inurba_marseille","lat":43.311722,"lon":5.387247,"is_reserved":false,"is_disabled":false,"rental_uris":{"android":"levelo://app?vid=487f7a82-4fc4-481c-b0ea-f122c0254040","ios":"levelo://app?vid=487f7a82-4fc4-481c-b0ea-f122c0254040"},"vehicle_type_id":"4","last_reported":1686629300,"current_range_meters":31200,"station_id":"ce4bgv12rcd13ifvqcp0","pricing_plan_id":"free"},{"bike_id":"10373a1f-7395-484b-9bf4-f643d1dc0ec7","system_id":"levelo_inurba_marseille","lat":43.32213,"lon":5.38284,"is_reserved":false,"is_disabled":false,"rental_uris":{"android":"levelo://app?vid=10373a1f-7395-484b-9bf4-f643d1dc0ec7","ios":"levelo://app?vid=10373a1f-7395-484b-9bf4-f643d1dc0ec7"},"vehicle_type_id":"4","last_reported":1686629300,"current_range_meters":22400,"station_id":"","pricing_plan_id":"free"},{"bike_id":"ef985e14-5f82-44fe-bc82-918b2737beb5","system_id":"levelo_inurba_marseille","lat":43.297774,"lon":5.370875,"is_reserved":false,"is_disabled":false,"rental_uris":{"android":"levelo://app?vid=ef985e14-5f82-44fe-bc82-918b2737beb5","ios":"levelo://app?vid=ef985e14-5f82-44fe-bc82-918b2737beb5"},"vehicle_type_id":"4","last_reported":1686629300,"current_range_meters":26000,"station_id":"ce4bgop2rcd13ifvqc1g","pricing_plan_id":"free"},{"bike_id":"d3b98649-a977-48c8-8435-99db980561c4","system_id":"levelo_inurba_marseille","lat":43.328371,"lon":5.366912,"is_reserved":false,"is_disabled":false,"rental_uris":{"android":"levelo://app?vid=d3b98649-a977-48c8-8435-99db980561c4","ios":"levelo://app?vid=d3b98649-a977-48c8-8435-99db980561c4"},"vehicle_type_id":"4","last_reported":1686629300,"current_range_meters":24800,"station_id":"ce4bhs92rcd13ifvqi0g","pricing_plan_id":"free"},{"bike_id":"88d0330c-5bb0-4a19-9b65-d4683b42e015","system_id":"levelo_inurba_marseille","lat":43.29683,"lon":5.36046,"is_reserved":false,"is_disabled":false,"rental_uris":{"android":"levelo://app?vid=88d0330c-5bb0-4a19-9b65-d4683b42e015","ios":"levelo://app?vid=88d0330c-5bb0-4a19-9b65-d4683b42e015"},"vehicle_type_id":"4","last_reported":1686629300,"current_range_meters":23200,"station_id":"ce4bgpp2rcd13ifvqc3g","pricing_plan_id":"free"},{"bike_id":"db88e538-31c5-4a22-8a4f-8fa5f3f109d3","system_id":"levelo_inurba_marseille","lat":43.296131,"lon":5.370791,"is_reserved":false,"is_disabled":false,"rental_uris":{"android":"levelo://app?vid=db88e538-31c5-4a22-8a4f-8fa5f3f109d3","ios":"levelo://app?vid=db88e538-31c5-4a22-8a4f-8fa5f3f109d3"},"vehicle_type_id":"4","last_reported":1686629300,"current_range_meters":25600,"station_id":"ce4bgnh2rcd13ifvqc0g","pricing_plan_id":"free"},{"bike_id":"60cba64f-8b25-451b-92db-d401801befc4","system_id":"levelo_inurba_marseille","lat":43.299028,"lon":5.381509,"is_reserved":false,"is_disabled":false,"rental_uris":{"android":"levelo://app?vid=60cba64f-8b25-451b-92db-d401801befc4","ios":"levelo://app?vid=60cba64f-8b25-451b-92db-d401801befc4"},"vehicle_type_id":"4","last_reported":1686629300,"current_range_meters":26800,"station_id":"ce4bgj12rcd13ifvqbc0","pricing_plan_id":"free"},{"bike_id":"44930093-0a10-4a26-8a7a-5a06349fc802","system_id":"levelo_inurba_marseille","lat":43.296935,"lon":5.376544,"is_reserved":false,"is_disabled":false,"rental_uris":{"android":"levelo://app?vid=44930093-0a10-4a26-8a7a-5a06349fc802","ios":"levelo://app?vid=44930093-0a10-4a26-8a7a-5a06349fc802"},"vehicle_type_id":"4","last_reported":1686629300,"current_range_meters":28800,"station_id":"ce4bgkh2rcd13ifvqbl0","pricing_plan_id":"free"},{"bike_id":"7644dde3-e0ac-4967-807d-17d7c7710fb2","system_id":"levelo_inurba_marseille","lat":43.2991,"lon":5.38136,"is_reserved":false,"is_disabled":false,"rental_uris":{"android":"levelo://app?vid=7644dde3-e0ac-4967-807d-17d7c7710fb2","ios":"levelo://app?vid=7644dde3-e0ac-4967-807d-17d7c7710fb2"},"vehicle_type_id":"4","last_reported":1686629300,"current_range_meters":17200,"station_id":"ce4bgj12rcd13ifvqbc0","pricing_plan_id":"free"},{"bike_id":"fdc0e6a4-a441-4ab8-be1c-71ad1aea5586","system_id":"levelo_inurba_marseille","lat":43.296921,"lon":5.376579,"is_reserved":false,"is_disabled":false,"rental_uris":{"android":"levelo://app?vid=fdc0e6a4-a441-4ab8-be1c-71ad1aea5586","ios":"levelo://app?vid=fdc0e6a4-a441-4ab8-be1c-71ad1aea5586"},"vehicle_type_id":"4","last_reported":1686629300,"current_range_meters":26800,"station_id":"ce4bgkh2rcd13ifvqbl0","pricing_plan_id":"free"},{"bike_id":"39eb588e-a8e6-4baf-8d39-bf56cc3eb436","system_id":"levelo_inurba_marseille","lat":43.309589,"lon":5.390258,"is_reserved":false,"is_disabled":false,"rental_uris":{"android":"levelo://app?vid=39eb588e-a8e6-4baf-8d39-bf56cc3eb436","ios":"levelo://app?vid=39eb588e-a8e6-4baf-8d39-bf56cc3eb436"},"vehicle_type_id":"4","last_reported":1686629300,"current_range_meters":31200,"station_id":"ce4bgup2rcd13ifvqco0","pricing_plan_id":"free"},{"bike_id":"d5697ef2-403f-41e4-a767-aca6744428ff","system_id":"levelo_inurba_marseille","lat":43.309589,"lon":5.390258,"is_reserved":false,"is_disabled":false,"rental_uris":{"android":"levelo://app?vid=d5697ef2-403f-41e4-a767-aca6744428ff","ios":"levelo://app?vid=d5697ef2-403f-41e4-a767-aca6744428ff"},"vehicle_type_id":"4","last_reported":1686629300,"current_range_meters":27200,"station_id":"ce4bgup2rcd13ifvqco0","pricing_plan_id":"free"},{"bike_id":"20708df1-5f69-48db-b566-f9d7f00e4e88","system_id":"levelo_inurba_marseille","lat":43.309589,"lon":5.390258,"is_reserved":false,"is_disabled":false,"rental_uris":{"android":"levelo://app?vid=20708df1-5f69-48db-b566-f9d7f00e4e88","ios":"levelo://app?vid=20708df1-5f69-48db-b566-f9d7f00e4e88"},"vehicle_type_id":"4","last_reported":1686629300,"current_range_meters":29200,"station_id":"ce4bgup2rcd13ifvqco0","pricing_plan_id":"free"},{"bike_id":"138d48b0-96a6-470c-be27-71a89d883193","system_id":"levelo_inurba_marseille","lat":43.309589,"lon":5.390258,"is_reserved":false,"is_disabled":false,"rental_uris":{"android":"levelo://app?vid=138d48b0-96a6-470c-be27-71a89d883193","ios":"levelo://app?vid=138d48b0-96a6-470c-be27-71a89d883193"},"vehicle_type_id":"4","last_reported":1686629300,"current_range_meters":29200,"station_id":"ce4bgup2rcd13ifvqco0","pricing_plan_id":"free"},{"bike_id":"a14f2b33-da3d-47cd-8554-f9f4dd9a5489","system_id":"levelo_inurba_marseille","lat":43.31756,"lon":5.39009,"is_reserved":false,"is_disabled":false,"rental_uris":{"android":"levelo://app?vid=a14f2b33-da3d-47cd-8554-f9f4dd9a5489","ios":"levelo://app?vid=a14f2b33-da3d-47cd-8554-f9f4dd9a5489"},"vehicle_type_id":"4","last_reported":1686629300,"current_range_meters":28000,"station_id":"ce4bhqp2rcd13ifvqhng","pricing_plan_id":"free"},{"bike_id":"225c7872-eaa4-4089-b361-77c4400a5087","system_id":"levelo_inurba_marseille","lat":43.317557,"lon":5.390173,"is_reserved":false,"is_disabled":false,"rental_uris":{"android":"levelo://app?vid=225c7872-eaa4-4089-b361-77c4400a5087","ios":"levelo://app?vid=225c7872-eaa4-4089-b361-77c4400a5087"},"vehicle_type_id":"4","last_reported":1686629300,"current_range_meters":31200,"station_id":"ce4bhqp2rcd13ifvqhng","pricing_plan_id":"free"},{"bike_id":"b909ed30-4755-4370-9370-327f2b4559b8","system_id":"levelo_inurba_marseille","lat":43.317557,"lon":5.390173,"is_reserved":false,"is_disabled":false,"rental_uris":{"android":"levelo://app?vid=b909ed30-4755-4370-9370-327f2b4559b8","ios":"levelo://app?vid=b909ed30-4755-4370-9370-327f2b4559b8"},"vehicle_type_id":"4","last_reported":1686629300,"current_range_meters":28800,"station_id":"ce4bhqp2rcd13ifvqhng","pricing_plan_id":"free"},{"bike_id":"6951d070-9d3f-4ea5-b286-dea3ca7933d7","system_id":"levelo_inurba_marseille","lat":43.29804,"lon":5.38104,"is_reserved":false,"is_disabled":false,"rental_uris":{"android":"levelo://app?vid=6951d070-9d3f-4ea5-b286-dea3ca7933d7","ios":"levelo://app?vid=6951d070-9d3f-4ea5-b286-dea3ca7933d7"},"vehicle_type_id":"4","last_reported":1686629300,"current_range_meters":31200,"station_id":"ce4bgip2rcd13ifvqbb0","pricing_plan_id":"free"},{"bike_id":"0ce8ecc1-b4b9-45e8-8cfb-87a86f59a93b","system_id":"levelo_inurba_marseille","lat":43.304278,"lon":5.388868,"is_reserved":false,"is_disabled":false,"rental_uris":{"android":"levelo://app?vid=0ce8ecc1-b4b9-45e8-8cfb-87a86f59a93b","ios":"levelo://app?vid=0ce8ecc1-b4b9-45e8-8cfb-87a86f59a93b"},"vehicle_type_id":"4","last_reported":1686629300,"current_range_meters":31200,"station_id":"ce4bgk12rcd13ifvqbi0","pricing_plan_id":"free"},{"bike_id":"64dad9a0-ddcf-42b6-b37e-d34955971d67","system_id":"levelo_inurba_marseille","lat":43.296263,"lon":5.377094,"is_reserved":false,"is_disabled":false,"rental_uris":{"android":"levelo://app?vid=64dad9a0-ddcf-42b6-b37e-d34955971d67","ios":"levelo://app?vid=64dad9a0-ddcf-42b6-b37e-d34955971d67"},"vehicle_type_id":"4","last_reported":1686629300,"current_range_meters":30000,"station_id":"ce4bgi92rcd13ifvqb90","pricing_plan_id":"free"},{"bike_id":"6b9182ba-f0a5-4a21-adff-767bb33c7e58","system_id":"levelo_inurba_marseille","lat":43.304274,"lon":5.388873,"is_reserved":false,"is_disabled":false,"rental_uris":{"android":"levelo://app?vid=6b9182ba-f0a5-4a21-adff-767bb33c7e58","ios":"levelo://app?vid=6b9182ba-f0a5-4a21-adff-767bb33c7e58"},"vehicle_type_id":"4","last_reported":1686629300,"current_range_meters":14800,"station_id":"ce4bgk12rcd13ifvqbi0","pricing_plan_id":"free"},{"bike_id":"52dd8ea2-2204-4ecc-9428-a7d7f3013d30","system_id":"levelo_inurba_marseille","lat":43.3043,"lon":5.38899,"is_reserved":false,"is_disabled":false,"rental_uris":{"android":"levelo://app?vid=52dd8ea2-2204-4ecc-9428-a7d7f3013d30","ios":"levelo://app?vid=52dd8ea2-2204-4ecc-9428-a7d7f3013d30"},"vehicle_type_id":"4","last_reported":1686629300,"current_range_meters":31200,"station_id":"ce4bgk12rcd13ifvqbi0","pricing_plan_id":"free"},{"bike_id":"38439d7f-f991-4d91-8b96-aafe0f544301","system_id":"levelo_inurba_marseille","lat":43.296277,"lon":5.377108,"is_reserved":false,"is_disabled":false,"rental_uris":{"android":"levelo://app?vid=38439d7f-f991-4d91-8b96-aafe0f544301","ios":"levelo://app?vid=38439d7f-f991-4d91-8b96-aafe0f544301"},"vehicle_type_id":"4","last_reported":1686629300,"current_range_meters":24400,"station_id":"ce4bgi92rcd13ifvqb90","pricing_plan_id":"free"},{"bike_id":"0559cc6c-da07-466d-bb10-e3c2e21e3cd3","system_id":"levelo_inurba_marseille","lat":43.29546,"lon":5.375,"is_reserved":false,"is_disabled":false,"rental_uris":{"android":"levelo://app?vid=0559cc6c-da07-466d-bb10-e3c2e21e3cd3","ios":"levelo://app?vid=0559cc6c-da07-466d-bb10-e3c2e21e3cd3"},"vehicle_type_id":"4","last_reported":1686629300,"current_range_meters":31200,"station_id":"ce4bgkp2rcd13ifvqbmg","pricing_plan_id":"free"},{"bike_id":"2cdb7efa-ccfe-4144-96af-f207853c9d2a","system_id":"levelo_inurba_marseille","lat":43.296263,"lon":5.377094,"is_reserved":false,"is_disabled":false,"rental_uris":{"android":"levelo://app?vid=2cdb7efa-ccfe-4144-96af-f207853c9d2a","ios":"levelo://app?vid=2cdb7efa-ccfe-4144-96af-f207853c9d2a"},"vehicle_type_id":"4","last_reported":1686629300,"current_range_meters":27600,"station_id":"ce4bgi92rcd13ifvqb90","pricing_plan_id":"free"},{"bike_id":"198bc4b9-6d6b-4c3e-a93a-28e0081138a2","system_id":"levelo_inurba_marseille","lat":43.29526,"lon":5.37506,"is_reserved":false,"is_disabled":false,"rental_uris":{"android":"levelo://app?vid=198bc4b9-6d6b-4c3e-a93a-28e0081138a2","ios":"levelo://app?vid=198bc4b9-6d6b-4c3e-a93a-28e0081138a2"},"vehicle_type_id":"4","last_reported":1686629300,"current_range_meters":31200,"station_id":"ce4bgkp2rcd13ifvqbmg","pricing_plan_id":"free"},{"bike_id":"c485f4be-f9a1-4c38-81ef-b8f07581202e","system_id":"levelo_inurba_marseille","lat":43.29524,"lon":5.37504,"is_reserved":false,"is_disabled":false,"rental_uris":{"android":"levelo://app?vid=c485f4be-f9a1-4c38-81ef-b8f07581202e","ios":"levelo://app?vid=c485f4be-f9a1-4c38-81ef-b8f07581202e"},"vehicle_type_id":"4","last_reported":1686629300,"current_range_meters":31200,"station_id":"ce4bgkp2rcd13ifvqbmg","pricing_plan_id":"free"},{"bike_id":"89e3501b-9f9b-4d6e-bb27-84f23c4130ab","system_id":"levelo_inurba_marseille","lat":43.299717,"lon":5.384845,"is_reserved":false,"is_disabled":false,"rental_uris":{"android":"levelo://app?vid=89e3501b-9f9b-4d6e-bb27-84f23c4130ab","ios":"levelo://app?vid=89e3501b-9f9b-4d6e-bb27-84f23c4130ab"},"vehicle_type_id":"4","last_reported":1686629300,"current_range_meters":29600,"station_id":"ce4bgj92rcd13ifvqbd0","pricing_plan_id":"free"},{"bike_id":"1fd1d391-eb65-4638-af11-6f9ced6060b6","system_id":"levelo_inurba_marseille","lat":43.2952,"lon":5.37505,"is_reserved":false,"is_disabled":false,"rental_uris":{"android":"levelo://app?vid=1fd1d391-eb65-4638-af11-6f9ced6060b6","ios":"levelo://app?vid=1fd1d391-eb65-4638-af11-6f9ced6060b6"},"vehicle_type_id":"4","last_reported":1686629300,"current_range_meters":30800,"station_id":"ce4bgkp2rcd13ifvqbmg","pricing_plan_id":"free"},{"bike_id":"e6a3dac9-7f09-471f-865b-75685d05e4ff","system_id":"levelo_inurba_marseille","lat":43.32367,"lon":5.388836,"is_reserved":false,"is_disabled":false,"rental_uris":{"android":"levelo://app?vid=e6a3dac9-7f09-471f-865b-75685d05e4ff","ios":"levelo://app?vid=e6a3dac9-7f09-471f-865b-75685d05e4ff"},"vehicle_type_id":"4","last_reported":1686629300,"current_range_meters":31200,"station_id":"ce4bhqp2rcd13ifvqhog","pricing_plan_id":"free"},{"bike_id":"9e6cb235-fe65-45fb-85e0-c410fab4b87f","system_id":"levelo_inurba_marseille","lat":43.32367,"lon":5.388836,"is_reserved":false,"is_disabled":false,"rental_uris":{"android":"levelo://app?vid=9e6cb235-fe65-45fb-85e0-c410fab4b87f","ios":"levelo://app?vid=9e6cb235-fe65-45fb-85e0-c410fab4b87f"},"vehicle_type_id":"4","last_reported":1686629300,"current_range_meters":27200,"station_id":"ce4bhqp2rcd13ifvqhog","pricing_plan_id":"free"},{"bike_id":"2c9ad911-25e0-4222-8751-d809dfadd582","system_id":"levelo_inurba_marseille","lat":43.32367,"lon":5.388836,"is_reserved":false,"is_disabled":false,"rental_uris":{"android":"levelo://app?vid=2c9ad911-25e0-4222-8751-d809dfadd582","ios":"levelo://app?vid=2c9ad911-25e0-4222-8751-d809dfadd582"},"vehicle_type_id":"4","last_reported":1686629300,"current_range_meters":22000,"station_id":"ce4bhqp2rcd13ifvqhog","pricing_plan_id":"free"},{"bike_id":"91e70a52-1e7d-4517-a1af-205b2fb62940","system_id":"levelo_inurba_marseille","lat":43.32367,"lon":5.388836,"is_reserved":false,"is_disabled":false,"rental_uris":{"android":"levelo://app?vid=91e70a52-1e7d-4517-a1af-205b2fb62940","ios":"levelo://app?vid=91e70a52-1e7d-4517-a1af-205b2fb62940"},"vehicle_type_id":"4","last_reported":1686629300,"current_range_meters":21600,"station_id":"ce4bhqp2rcd13ifvqhog","pricing_plan_id":"free"},{"bike_id":"ea6cfea9-3ee5-4e73-9098-b16615a56cd9","system_id":"levelo_inurba_marseille","lat":43.32367,"lon":5.388836,"is_reserved":false,"is_disabled":false,"rental_uris":{"android":"levelo://app?vid=ea6cfea9-3ee5-4e73-9098-b16615a56cd9","ios":"levelo://app?vid=ea6cfea9-3ee5-4e73-9098-b16615a56cd9"},"vehicle_type_id":"4","last_reported":1686629300,"current_range_meters":22000,"station_id":"ce4bhqp2rcd13ifvqhog","pricing_plan_id":"free"},{"bike_id":"46855f82-9c64-4051-920e-312c6a202b8d","system_id":"levelo_inurba_marseille","lat":43.32367,"lon":5.388836,"is_reserved":false,"is_disabled":false,"rental_uris":{"android":"levelo://app?vid=46855f82-9c64-4051-920e-312c6a202b8d","ios":"levelo://app?vid=46855f82-9c64-4051-920e-312c6a202b8d"},"vehicle_type_id":"4","last_reported":1686629300,"current_range_meters":31200,"station_id":"ce4bhqp2rcd13ifvqhog","pricing_plan_id":"free"},{"bike_id":"07b60d23-b49d-4d74-b476-85153d624d25","system_id":"levelo_inurba_marseille","lat":43.309076,"lon":5.368465,"is_reserved":false,"is_disabled":false,"rental_uris":{"android":"levelo://app?vid=07b60d23-b49d-4d74-b476-85153d624d25","ios":"levelo://app?vid=07b60d23-b49d-4d74-b476-85153d624d25"},"vehicle_type_id":"4","last_reported":1686629300,"current_range_meters":20000,"station_id":"ce4bgn92rcd13ifvqbvg","pricing_plan_id":"free"},{"bike_id":"433c3029-f897-4237-891c-337a518fb498","system_id":"levelo_inurba_marseille","lat":43.292749,"lon":5.368402,"is_reserved":false,"is_disabled":false,"rental_uris":{"android":"levelo://app?vid=433c3029-f897-4237-891c-337a518fb498","ios":"levelo://app?vid=433c3029-f897-4237-891c-337a518fb498"},"vehicle_type_id":"4","last_reported":1686629300,"current_range_meters":27600,"station_id":"ce4bhbp2rcd13ifvqesg","pricing_plan_id":"free"},{"bike_id":"3c2760fb-01b6-4831-857b-c1a1a9e52f56","system_id":"levelo_inurba_marseille","lat":43.292749,"lon":5.368402,"is_reserved":false,"is_disabled":false,"rental_uris":{"android":"levelo://app?vid=3c2760fb-01b6-4831-857b-c1a1a9e52f56","ios":"levelo://app?vid=3c2760fb-01b6-4831-857b-c1a1a9e52f56"},"vehicle_type_id":"4","last_reported":1686629300,"current_range_meters":31200,"station_id":"ce4bhbp2rcd13ifvqesg","pricing_plan_id":"free"},{"bike_id":"ca6ddf98-dd29-4509-8f69-5a53682c3746","system_id":"levelo_inurba_marseille","lat":43.292749,"lon":5.368398,"is_reserved":false,"is_disabled":false,"rental_uris":{"android":"levelo://app?vid=ca6ddf98-dd29-4509-8f69-5a53682c3746","ios":"levelo://app?vid=ca6ddf98-dd29-4509-8f69-5a53682c3746"},"vehicle_type_id":"4","last_reported":1686629300,"current_range_meters":18800,"station_id":"ce4bhbp2rcd13ifvqesg","pricing_plan_id":"free"},{"bike_id":"3c68e9bd-e411-49bd-b692-da44e41303d7","system_id":"levelo_inurba_marseille","lat":43.292749,"lon":5.368402,"is_reserved":false,"is_disabled":false,"rental_uris":{"android":"levelo://app?vid=3c68e9bd-e411-49bd-b692-da44e41303d7","ios":"levelo://app?vid=3c68e9bd-e411-49bd-b692-da44e41303d7"},"vehicle_type_id":"4","last_reported":1686629300,"current_range_meters":31200,"station_id":"ce4bhbp2rcd13ifvqesg","pricing_plan_id":"free"},{"bike_id":"6a40348d-bec4-4c9b-bc6f-b9ffc31ac7ca","system_id":"levelo_inurba_marseille","lat":43.293,"lon":5.37441,"is_reserved":false,"is_disabled":false,"rental_uris":{"android":"levelo://app?vid=6a40348d-bec4-4c9b-bc6f-b9ffc31ac7ca","ios":"levelo://app?vid=6a40348d-bec4-4c9b-bc6f-b9ffc31ac7ca"},"vehicle_type_id":"4","last_reported":1686629300,"current_range_meters":26000,"station_id":"ce4bgi12rcd13ifvqb70","pricing_plan_id":"free"},{"bike_id":"4c5075fc-602f-4e2a-b4ae-fbcaa539f7e1","system_id":"levelo_inurba_marseille","lat":43.29301,"lon":5.37448,"is_reserved":false,"is_disabled":false,"rental_uris":{"android":"levelo://app?vid=4c5075fc-602f-4e2a-b4ae-fbcaa539f7e1","ios":"levelo://app?vid=4c5075fc-602f-4e2a-b4ae-fbcaa539f7e1"},"vehicle_type_id":"4","last_reported":1686629300,"current_range_meters":31200,"station_id":"ce4bgi12rcd13ifvqb70","pricing_plan_id":"free"},{"bike_id":"036dc669-8506-4904-92f7-499c0e64215d","system_id":"levelo_inurba_marseille","lat":43.292311,"lon":5.360731,"is_reserved":false,"is_disabled":false,"rental_uris":{"android":"levelo://app?vid=036dc669-8506-4904-92f7-499c0e64215d","ios":"levelo://app?vid=036dc669-8506-4904-92f7-499c0e64215d"},"vehicle_type_id":"4","last_reported":1686629300,"current_range_meters":29600,"station_id":"ce4bhbh2rcd13ifvqeqg","pricing_plan_id":"free"},{"bike_id":"2cfe4556-9783-47b7-97f3-3ff1eb23ab2f","system_id":"levelo_inurba_marseille","lat":43.292311,"lon":5.360731,"is_reserved":false,"is_disabled":false,"rental_uris":{"android":"levelo://app?vid=2cfe4556-9783-47b7-97f3-3ff1eb23ab2f","ios":"levelo://app?vid=2cfe4556-9783-47b7-97f3-3ff1eb23ab2f"},"vehicle_type_id":"4","last_reported":1686629300,"current_range_meters":31200,"station_id":"ce4bhbh2rcd13ifvqeqg","pricing_plan_id":"free"},{"bike_id":"3f129459-4543-4bf6-adea-b9a006cb01c0","system_id":"levelo_inurba_marseille","lat":43.29174,"lon":5.37139,"is_reserved":false,"is_disabled":false,"rental_uris":{"android":"levelo://app?vid=3f129459-4543-4bf6-adea-b9a006cb01c0","ios":"levelo://app?vid=3f129459-4543-4bf6-adea-b9a006cb01c0"},"vehicle_type_id":"4","last_reported":1686629300,"current_range_meters":0,"station_id":"ce4bha92rcd13ifvqeh0","pricing_plan_id":"free"},{"bike_id":"a3eb6948-e18a-492a-bfaf-eb6b2272d28e","system_id":"levelo_inurba_marseille","lat":43.291994,"lon":5.357886,"is_reserved":false,"is_disabled":false,"rental_uris":{"android":"levelo://app?vid=a3eb6948-e18a-492a-bfaf-eb6b2272d28e","ios":"levelo://app?vid=a3eb6948-e18a-492a-bfaf-eb6b2272d28e"},"vehicle_type_id":"4","last_reported":1686629300,"current_range_meters":0,"station_id":"ce4bhb12rcd13ifvqel0","pricing_plan_id":"free"},{"bike_id":"affd90ed-07aa-404e-bbe7-000e196c9f5c","system_id":"levelo_inurba_marseille","lat":43.30887,"lon":5.39637,"is_reserved":false,"is_disabled":false,"rental_uris":{"android":"levelo://app?vid=affd90ed-07aa-404e-bbe7-000e196c9f5c","ios":"levelo://app?vid=affd90ed-07aa-404e-bbe7-000e196c9f5c"},"vehicle_type_id":"4","last_reported":1686629300,"current_range_meters":23200,"station_id":"ce4bh012rcd13ifvqcv0","pricing_plan_id":"free"},{"bike_id":"c72d399b-ce65-4e71-bb4e-5e55b53aff3e","system_id":"levelo_inurba_marseille","lat":43.313291,"lon":5.396838,"is_reserved":false,"is_disabled":false,"rental_uris":{"android":"levelo://app?vid=c72d399b-ce65-4e71-bb4e-5e55b53aff3e","ios":"levelo://app?vid=c72d399b-ce65-4e71-bb4e-5e55b53aff3e"},"vehicle_type_id":"4","last_reported":1686629300,"current_range_meters":28800,"station_id":"ce4bgvp2rcd13ifvqcu0","pricing_plan_id":"free"},{"bike_id":"302b4c6f-20a2-488f-9606-77baf8366192","system_id":"levelo_inurba_marseille","lat":43.309038,"lon":5.396546,"is_reserved":false,"is_disabled":false,"rental_uris":{"android":"levelo://app?vid=302b4c6f-20a2-488f-9606-77baf8366192","ios":"levelo://app?vid=302b4c6f-20a2-488f-9606-77baf8366192"},"vehicle_type_id":"4","last_reported":1686629300,"current_range_meters":28000,"station_id":"ce4bh012rcd13ifvqcv0","pricing_plan_id":"free"},{"bike_id":"cda0442e-64f4-4c8b-a697-13deaa53c9e8","system_id":"levelo_inurba_marseille","lat":43.313291,"lon":5.396838,"is_reserved":false,"is_disabled":false,"rental_uris":{"android":"levelo://app?vid=cda0442e-64f4-4c8b-a697-13deaa53c9e8","ios":"levelo://app?vid=cda0442e-64f4-4c8b-a697-13deaa53c9e8"},"vehicle_type_id":"4","last_reported":1686629300,"current_range_meters":15600,"station_id":"ce4bgvp2rcd13ifvqcu0","pricing_plan_id":"free"},{"bike_id":"89990272-6422-4295-b3a8-d62b83e87d21","system_id":"levelo_inurba_marseille","lat":43.309038,"lon":5.396546,"is_reserved":false,"is_disabled":false,"rental_uris":{"android":"levelo://app?vid=89990272-6422-4295-b3a8-d62b83e87d21","ios":"levelo://app?vid=89990272-6422-4295-b3a8-d62b83e87d21"},"vehicle_type_id":"4","last_reported":1686629300,"current_range_meters":28000,"station_id":"ce4bh012rcd13ifvqcv0","pricing_plan_id":"free"},{"bike_id":"2135837d-4fda-45b0-a0c3-27be307cb340","system_id":"levelo_inurba_marseille","lat":43.309038,"lon":5.396546,"is_reserved":false,"is_disabled":false,"rental_uris":{"android":"levelo://app?vid=2135837d-4fda-45b0-a0c3-27be307cb340","ios":"levelo://app?vid=2135837d-4fda-45b0-a0c3-27be307cb340"},"vehicle_type_id":"4","last_reported":1686629300,"current_range_meters":22400,"station_id":"ce4bh012rcd13ifvqcv0","pricing_plan_id":"free"},{"bike_id":"dad6d30e-66cc-4762-9d6c-98a79a4cfa97","system_id":"levelo_inurba_marseille","lat":43.309038,"lon":5.396546,"is_reserved":false,"is_disabled":false,"rental_uris":{"android":"levelo://app?vid=dad6d30e-66cc-4762-9d6c-98a79a4cfa97","ios":"levelo://app?vid=dad6d30e-66cc-4762-9d6c-98a79a4cfa97"},"vehicle_type_id":"4","last_reported":1686629300,"current_range_meters":12800,"station_id":"ce4bh012rcd13ifvqcv0","pricing_plan_id":"free"},{"bike_id":"df36824a-dcd9-445a-83a9-b8cc6eb3d6bd","system_id":"levelo_inurba_marseille","lat":43.309038,"lon":5.396546,"is_reserved":false,"is_disabled":false,"rental_uris":{"android":"levelo://app?vid=df36824a-dcd9-445a-83a9-b8cc6eb3d6bd","ios":"levelo://app?vid=df36824a-dcd9-445a-83a9-b8cc6eb3d6bd"},"vehicle_type_id":"4","last_reported":1686629300,"current_range_meters":28000,"station_id":"ce4bh012rcd13ifvqcv0","pricing_plan_id":"free"},{"bike_id":"2f1be7c7-b312-4957-946c-605052015bc2","system_id":"levelo_inurba_marseille","lat":43.313291,"lon":5.396838,"is_reserved":false,"is_disabled":false,"rental_uris":{"android":"levelo://app?vid=2f1be7c7-b312-4957-946c-605052015bc2","ios":"levelo://app?vid=2f1be7c7-b312-4957-946c-605052015bc2"},"vehicle_type_id":"4","last_reported":1686629300,"current_range_meters":30400,"station_id":"ce4bgvp2rcd13ifvqcu0","pricing_plan_id":"free"},{"bike_id":"427ddd4e-3469-48b9-9338-8592dce62526","system_id":"levelo_inurba_marseille","lat":43.309038,"lon":5.396546,"is_reserved":false,"is_disabled":false,"rental_uris":{"android":"levelo://app?vid=427ddd4e-3469-48b9-9338-8592dce62526","ios":"levelo://app?vid=427ddd4e-3469-48b9-9338-8592dce62526"},"vehicle_type_id":"4","last_reported":1686629300,"current_range_meters":5200,"station_id":"ce4bh012rcd13ifvqcv0","pricing_plan_id":"free"},{"bike_id":"3a51fbcd-54d9-4cb1-9d92-96f64cf1e204","system_id":"levelo_inurba_marseille","lat":43.309038,"lon":5.396546,"is_reserved":false,"is_disabled":false,"rental_uris":{"android":"levelo://app?vid=3a51fbcd-54d9-4cb1-9d92-96f64cf1e204","ios":"levelo://app?vid=3a51fbcd-54d9-4cb1-9d92-96f64cf1e204"},"vehicle_type_id":"4","last_reported":1686629300,"current_range_meters":26400,"station_id":"ce4bh012rcd13ifvqcv0","pricing_plan_id":"free"},{"bike_id":"7aa887fd-9509-4e3e-ae7f-76836a1f5c93","system_id":"levelo_inurba_marseille","lat":43.313291,"lon":5.396838,"is_reserved":false,"is_disabled":false,"rental_uris":{"android":"levelo://app?vid=7aa887fd-9509-4e3e-ae7f-76836a1f5c93","ios":"levelo://app?vid=7aa887fd-9509-4e3e-ae7f-76836a1f5c93"},"vehicle_type_id":"4","last_reported":1686629300,"current_range_meters":18800,"station_id":"ce4bgvp2rcd13ifvqcu0","pricing_plan_id":"free"},{"bike_id":"5fb96060-9ab4-4a4a-86d6-8a2df976c11a","system_id":"levelo_inurba_marseille","lat":43.309038,"lon":5.396546,"is_reserved":false,"is_disabled":false,"rental_uris":{"android":"levelo://app?vid=5fb96060-9ab4-4a4a-86d6-8a2df976c11a","ios":"levelo://app?vid=5fb96060-9ab4-4a4a-86d6-8a2df976c11a"},"vehicle_type_id":"4","last_reported":1686629300,"current_range_meters":30800,"station_id":"ce4bh012rcd13ifvqcv0","pricing_plan_id":"free"},{"bike_id":"37431231-1437-41ba-aede-a60c625cb93b","system_id":"levelo_inurba_marseille","lat":43.313291,"lon":5.396838,"is_reserved":false,"is_disabled":false,"rental_uris":{"android":"levelo://app?vid=37431231-1437-41ba-aede-a60c625cb93b","ios":"levelo://app?vid=37431231-1437-41ba-aede-a60c625cb93b"},"vehicle_type_id":"4","last_reported":1686629300,"current_range_meters":11600,"station_id":"ce4bgvp2rcd13ifvqcu0","pricing_plan_id":"free"},{"bike_id":"7f3131e1-f81e-4225-9a0c-130153a2a8a1","system_id":"levelo_inurba_marseille","lat":43.313291,"lon":5.396838,"is_reserved":false,"is_disabled":false,"rental_uris":{"android":"levelo://app?vid=7f3131e1-f81e-4225-9a0c-130153a2a8a1","ios":"levelo://app?vid=7f3131e1-f81e-4225-9a0c-130153a2a8a1"},"vehicle_type_id":"4","last_reported":1686629300,"current_range_meters":31200,"station_id":"ce4bgvp2rcd13ifvqcu0","pricing_plan_id":"free"},{"bike_id":"3cb5d608-4ca6-41a4-b687-86aad8b89ec8","system_id":"levelo_inurba_marseille","lat":43.309038,"lon":5.396546,"is_reserved":false,"is_disabled":false,"rental_uris":{"android":"levelo://app?vid=3cb5d608-4ca6-41a4-b687-86aad8b89ec8","ios":"levelo://app?vid=3cb5d608-4ca6-41a4-b687-86aad8b89ec8"},"vehicle_type_id":"4","last_reported":1686629300,"current_range_meters":17600,"station_id":"ce4bh012rcd13ifvqcv0","pricing_plan_id":"free"},{"bike_id":"6dd2cc0c-3b2b-458c-bf09-26335dc63dec","system_id":"levelo_inurba_marseille","lat":43.309038,"lon":5.396546,"is_reserved":false,"is_disabled":false,"rental_uris":{"android":"levelo://app?vid=6dd2cc0c-3b2b-458c-bf09-26335dc63dec","ios":"levelo://app?vid=6dd2cc0c-3b2b-458c-bf09-26335dc63dec"},"vehicle_type_id":"4","last_reported":1686629300,"current_range_meters":31200,"station_id":"ce4bh012rcd13ifvqcv0","pricing_plan_id":"free"},{"bike_id":"72475053-be63-4034-9945-5238c7431aee","system_id":"levelo_inurba_marseille","lat":43.309038,"lon":5.396546,"is_reserved":false,"is_disabled":false,"rental_uris":{"android":"levelo://app?vid=72475053-be63-4034-9945-5238c7431aee","ios":"levelo://app?vid=72475053-be63-4034-9945-5238c7431aee"},"vehicle_type_id":"4","last_reported":1686629300,"current_range_meters":31200,"station_id":"ce4bh012rcd13ifvqcv0","pricing_plan_id":"free"},{"bike_id":"ba3f57f0-4215-4b0a-8cfb-4b59494425a4","system_id":"levelo_inurba_marseille","lat":43.30877,"lon":5.39654,"is_reserved":false,"is_disabled":false,"rental_uris":{"android":"levelo://app?vid=ba3f57f0-4215-4b0a-8cfb-4b59494425a4","ios":"levelo://app?vid=ba3f57f0-4215-4b0a-8cfb-4b59494425a4"},"vehicle_type_id":"4","last_reported":1686629300,"current_range_meters":30800,"station_id":"","pricing_plan_id":"free"},{"bike_id":"14066299-bed7-4c02-a922-34eae844b8b1","system_id":"levelo_inurba_marseille","lat":43.309038,"lon":5.396546,"is_reserved":false,"is_disabled":false,"rental_uris":{"android":"levelo://app?vid=14066299-bed7-4c02-a922-34eae844b8b1","ios":"levelo://app?vid=14066299-bed7-4c02-a922-34eae844b8b1"},"vehicle_type_id":"4","last_reported":1686629300,"current_range_meters":25600,"station_id":"ce4bh012rcd13ifvqcv0","pricing_plan_id":"free"},{"bike_id":"13d90531-4643-471a-b61f-38d25bfdf8e8","system_id":"levelo_inurba_marseille","lat":43.309038,"lon":5.396546,"is_reserved":false,"is_disabled":false,"rental_uris":{"android":"levelo://app?vid=13d90531-4643-471a-b61f-38d25bfdf8e8","ios":"levelo://app?vid=13d90531-4643-471a-b61f-38d25bfdf8e8"},"vehicle_type_id":"4","last_reported":1686629300,"current_range_meters":30000,"station_id":"ce4bh012rcd13ifvqcv0","pricing_plan_id":"free"},{"bike_id":"0bef4b14-1fee-4703-82ce-5c570120e986","system_id":"levelo_inurba_marseille","lat":43.309038,"lon":5.396546,"is_reserved":false,"is_disabled":false,"rental_uris":{"android":"levelo://app?vid=0bef4b14-1fee-4703-82ce-5c570120e986","ios":"levelo://app?vid=0bef4b14-1fee-4703-82ce-5c570120e986"},"vehicle_type_id":"4","last_reported":1686629300,"current_range_meters":29600,"station_id":"ce4bh012rcd13ifvqcv0","pricing_plan_id":"free"},{"bike_id":"d9a8792c-345f-4f9d-9e41-7944afc7a3a1","system_id":"levelo_inurba_marseille","lat":43.302008,"lon":5.394694,"is_reserved":false,"is_disabled":false,"rental_uris":{"android":"levelo://app?vid=d9a8792c-345f-4f9d-9e41-7944afc7a3a1","ios":"levelo://app?vid=d9a8792c-345f-4f9d-9e41-7944afc7a3a1"},"vehicle_type_id":"4","last_reported":1686629300,"current_range_meters":26800,"station_id":"ce4bh0p2rcd13ifvqd70","pricing_plan_id":"free"},{"bike_id":"f4782246-5223-4da3-880f-94d1dbe606d4","system_id":"levelo_inurba_marseille","lat":43.302008,"lon":5.394694,"is_reserved":false,"is_disabled":false,"rental_uris":{"android":"levelo://app?vid=f4782246-5223-4da3-880f-94d1dbe606d4","ios":"levelo://app?vid=f4782246-5223-4da3-880f-94d1dbe606d4"},"vehicle_type_id":"4","last_reported":1686629300,"current_range_meters":28400,"station_id":"ce4bh0p2rcd13ifvqd70","pricing_plan_id":"free"},{"bike_id":"8d456b9e-aac3-4409-a7cc-d85961e73ef1","system_id":"levelo_inurba_marseille","lat":43.290631,"lon":5.359244,"is_reserved":false,"is_disabled":false,"rental_uris":{"android":"levelo://app?vid=8d456b9e-aac3-4409-a7cc-d85961e73ef1","ios":"levelo://app?vid=8d456b9e-aac3-4409-a7cc-d85961e73ef1"},"vehicle_type_id":"4","last_reported":1686629300,"current_range_meters":20000,"station_id":"ce4bha92rcd13ifvqeg0","pricing_plan_id":"free"},{"bike_id":"6fab9e1c-b92e-492e-99e2-2a0d029c44a7","system_id":"levelo_inurba_marseille","lat":43.290631,"lon":5.359244,"is_reserved":false,"is_disabled":false,"rental_uris":{"android":"levelo://app?vid=6fab9e1c-b92e-492e-99e2-2a0d029c44a7","ios":"levelo://app?vid=6fab9e1c-b92e-492e-99e2-2a0d029c44a7"},"vehicle_type_id":"4","last_reported":1686629300,"current_range_meters":30000,"station_id":"ce4bha92rcd13ifvqeg0","pricing_plan_id":"free"},{"bike_id":"3f4e0ca1-7de0-4f21-a89b-6fbfc9b4a43a","system_id":"levelo_inurba_marseille","lat":43.290631,"lon":5.359244,"is_reserved":false,"is_disabled":false,"rental_uris":{"android":"levelo://app?vid=3f4e0ca1-7de0-4f21-a89b-6fbfc9b4a43a","ios":"levelo://app?vid=3f4e0ca1-7de0-4f21-a89b-6fbfc9b4a43a"},"vehicle_type_id":"4","last_reported":1686629300,"current_range_meters":31200,"station_id":"ce4bha92rcd13ifvqeg0","pricing_plan_id":"free"},{"bike_id":"c6c9a4a9-c19d-4793-bb4c-546d7b5de601","system_id":"levelo_inurba_marseille","lat":43.290631,"lon":5.359244,"is_reserved":false,"is_disabled":false,"rental_uris":{"android":"levelo://app?vid=c6c9a4a9-c19d-4793-bb4c-546d7b5de601","ios":"levelo://app?vid=c6c9a4a9-c19d-4793-bb4c-546d7b5de601"},"vehicle_type_id":"4","last_reported":1686629300,"current_range_meters":30000,"station_id":"ce4bha92rcd13ifvqeg0","pricing_plan_id":"free"},{"bike_id":"124c8340-4cd2-4fde-b8b3-33787e3d8a70","system_id":"levelo_inurba_marseille","lat":43.2942,"lon":5.38632,"is_reserved":false,"is_disabled":false,"rental_uris":{"android":"levelo://app?vid=124c8340-4cd2-4fde-b8b3-33787e3d8a70","ios":"levelo://app?vid=124c8340-4cd2-4fde-b8b3-33787e3d8a70"},"vehicle_type_id":"4","last_reported":1686629300,"current_range_meters":0,"station_id":"ce4bh2h2rcd13ifvqdh0","pricing_plan_id":"free"},{"bike_id":"44ae5560-d43e-4b6b-ae3d-7ee245469fc4","system_id":"levelo_inurba_marseille","lat":43.289184,"lon":5.366408,"is_reserved":false,"is_disabled":false,"rental_uris":{"android":"levelo://app?vid=44ae5560-d43e-4b6b-ae3d-7ee245469fc4","ios":"levelo://app?vid=44ae5560-d43e-4b6b-ae3d-7ee245469fc4"},"vehicle_type_id":"4","last_reported":1686629300,"current_range_meters":30000,"station_id":"ce4bhap2rcd13ifvqek0","pricing_plan_id":"free"},{"bike_id":"0a4beee8-1d0b-40b6-a628-dd56857f4693","system_id":"levelo_inurba_marseille","lat":43.294032,"lon":5.386342,"is_reserved":false,"is_disabled":false,"rental_uris":{"android":"levelo://app?vid=0a4beee8-1d0b-40b6-a628-dd56857f4693","ios":"levelo://app?vid=0a4beee8-1d0b-40b6-a628-dd56857f4693"},"vehicle_type_id":"4","last_reported":1686629300,"current_range_meters":13600,"station_id":"","pricing_plan_id":"free"},{"bike_id":"ff87d75a-e069-4392-92a4-cab34378b065","system_id":"levelo_inurba_marseille","lat":43.289468,"lon":5.363719,"is_reserved":false,"is_disabled":false,"rental_uris":{"android":"levelo://app?vid=ff87d75a-e069-4392-92a4-cab34378b065","ios":"levelo://app?vid=ff87d75a-e069-4392-92a4-cab34378b065"},"vehicle_type_id":"4","last_reported":1686629300,"current_range_meters":29200,"station_id":"ce4bhc92rcd13ifvqetg","pricing_plan_id":"free"},{"bike_id":"495e3ef7-0c1e-4cf7-8997-3d68f94837c6","system_id":"levelo_inurba_marseille","lat":43.289184,"lon":5.366408,"is_reserved":false,"is_disabled":false,"rental_uris":{"android":"levelo://app?vid=495e3ef7-0c1e-4cf7-8997-3d68f94837c6","ios":"levelo://app?vid=495e3ef7-0c1e-4cf7-8997-3d68f94837c6"},"vehicle_type_id":"4","last_reported":1686629300,"current_range_meters":29600,"station_id":"ce4bhap2rcd13ifvqek0","pricing_plan_id":"free"},{"bike_id":"44e8790f-a645-41ba-b272-1d5a6396aa35","system_id":"levelo_inurba_marseille","lat":43.289468,"lon":5.363719,"is_reserved":false,"is_disabled":false,"rental_uris":{"android":"levelo://app?vid=44e8790f-a645-41ba-b272-1d5a6396aa35","ios":"levelo://app?vid=44e8790f-a645-41ba-b272-1d5a6396aa35"},"vehicle_type_id":"4","last_reported":1686629300,"current_range_meters":24400,"station_id":"ce4bhc92rcd13ifvqetg","pricing_plan_id":"free"},{"bike_id":"e2d53f80-0e95-41cf-803d-71aa5f41384e","system_id":"levelo_inurba_marseille","lat":43.304296,"lon":5.397513,"is_reserved":false,"is_disabled":false,"rental_uris":{"android":"levelo://app?vid=e2d53f80-0e95-41cf-803d-71aa5f41384e","ios":"levelo://app?vid=e2d53f80-0e95-41cf-803d-71aa5f41384e"},"vehicle_type_id":"4","last_reported":1686629300,"current_range_meters":30000,"station_id":"ce4bh092rcd13ifvqd20","pricing_plan_id":"free"},{"bike_id":"4e632f99-a7ad-4f2e-9dd7-c255ca77bfd2","system_id":"levelo_inurba_marseille","lat":43.33041,"lon":5.38916,"is_reserved":false,"is_disabled":false,"rental_uris":{"android":"levelo://app?vid=4e632f99-a7ad-4f2e-9dd7-c255ca77bfd2","ios":"levelo://app?vid=4e632f99-a7ad-4f2e-9dd7-c255ca77bfd2"},"vehicle_type_id":"4","last_reported":1686629300,"current_range_meters":31200,"station_id":"ce4bhr92rcd13ifvqhrg","pricing_plan_id":"free"},{"bike_id":"d411c1be-10b4-4838-a93f-35add8fed384","system_id":"levelo_inurba_marseille","lat":43.330442,"lon":5.389148,"is_reserved":false,"is_disabled":false,"rental_uris":{"android":"levelo://app?vid=d411c1be-10b4-4838-a93f-35add8fed384","ios":"levelo://app?vid=d411c1be-10b4-4838-a93f-35add8fed384"},"vehicle_type_id":"4","last_reported":1686629300,"current_range_meters":20800,"station_id":"ce4bhr92rcd13ifvqhrg","pricing_plan_id":"free"},{"bike_id":"1c096b92-d73b-48f3-b43c-8265fd1feca0","system_id":"levelo_inurba_marseille","lat":43.330442,"lon":5.389148,"is_reserved":false,"is_disabled":false,"rental_uris":{"android":"levelo://app?vid=1c096b92-d73b-48f3-b43c-8265fd1feca0","ios":"levelo://app?vid=1c096b92-d73b-48f3-b43c-8265fd1feca0"},"vehicle_type_id":"4","last_reported":1686629300,"current_range_meters":29200,"station_id":"ce4bhr92rcd13ifvqhrg","pricing_plan_id":"free"},{"bike_id":"47e48fe1-2121-418f-8170-14d4fdc060a7","system_id":"levelo_inurba_marseille","lat":43.2901,"lon":5.35608,"is_reserved":false,"is_disabled":false,"rental_uris":{"android":"levelo://app?vid=47e48fe1-2121-418f-8170-14d4fdc060a7","ios":"levelo://app?vid=47e48fe1-2121-418f-8170-14d4fdc060a7"},"vehicle_type_id":"4","last_reported":1686629300,"current_range_meters":18400,"station_id":"ce4bhb92rcd13ifvqen0","pricing_plan_id":"free"},{"bike_id":"3f1bd78a-f1dd-4e51-b7e6-2d86b6a5ac61","system_id":"levelo_inurba_marseille","lat":43.33045,"lon":5.38916,"is_reserved":false,"is_disabled":false,"rental_uris":{"android":"levelo://app?vid=3f1bd78a-f1dd-4e51-b7e6-2d86b6a5ac61","ios":"levelo://app?vid=3f1bd78a-f1dd-4e51-b7e6-2d86b6a5ac61"},"vehicle_type_id":"4","last_reported":1686629300,"current_range_meters":24000,"station_id":"ce4bhr92rcd13ifvqhrg","pricing_plan_id":"free"},{"bike_id":"120db851-e9ef-4590-a985-3b99c7af3653","system_id":"levelo_inurba_marseille","lat":43.33046,"lon":5.38917,"is_reserved":false,"is_disabled":false,"rental_uris":{"android":"levelo://app?vid=120db851-e9ef-4590-a985-3b99c7af3653","ios":"levelo://app?vid=120db851-e9ef-4590-a985-3b99c7af3653"},"vehicle_type_id":"4","last_reported":1686629300,"current_range_meters":31200,"station_id":"ce4bhr92rcd13ifvqhrg","pricing_plan_id":"free"},{"bike_id":"a1d92011-4991-4ad8-b4ee-a6379312b100","system_id":"levelo_inurba_marseille","lat":43.290995,"lon":5.381361,"is_reserved":false,"is_disabled":false,"rental_uris":{"android":"levelo://app?vid=a1d92011-4991-4ad8-b4ee-a6379312b100","ios":"levelo://app?vid=a1d92011-4991-4ad8-b4ee-a6379312b100"},"vehicle_type_id":"4","last_reported":1686629300,"current_range_meters":24800,"station_id":"ce4bh512rcd13ifvqe2g","pricing_plan_id":"free"},{"bike_id":"3058f4ee-ac1a-402d-8971-13008ca87a53","system_id":"levelo_inurba_marseille","lat":43.290995,"lon":5.381361,"is_reserved":false,"is_disabled":false,"rental_uris":{"android":"levelo://app?vid=3058f4ee-ac1a-402d-8971-13008ca87a53","ios":"levelo://app?vid=3058f4ee-ac1a-402d-8971-13008ca87a53"},"vehicle_type_id":"4","last_reported":1686629300,"current_range_meters":29600,"station_id":"ce4bh512rcd13ifvqe2g","pricing_plan_id":"free"},{"bike_id":"47a36022-3dbc-416f-9fb8-158825ed7971","system_id":"levelo_inurba_marseille","lat":43.289741,"lon":5.378306,"is_reserved":false,"is_disabled":false,"rental_uris":{"android":"levelo://app?vid=47a36022-3dbc-416f-9fb8-158825ed7971","ios":"levelo://app?vid=47a36022-3dbc-416f-9fb8-158825ed7971"},"vehicle_type_id":"4","last_reported":1686629300,"current_range_meters":23200,"station_id":"ce4bh9p2rcd13ifvqed0","pricing_plan_id":"free"},{"bike_id":"505d86b3-d3c5-4f16-981b-c1c048dd7e61","system_id":"levelo_inurba_marseille","lat":43.295169,"lon":5.390426,"is_reserved":false,"is_disabled":false,"rental_uris":{"android":"levelo://app?vid=505d86b3-d3c5-4f16-981b-c1c048dd7e61","ios":"levelo://app?vid=505d86b3-d3c5-4f16-981b-c1c048dd7e61"},"vehicle_type_id":"4","last_reported":1686629300,"current_range_meters":30000,"station_id":"ce4bh3p2rcd13ifvqdp0","pricing_plan_id":"free"},{"bike_id":"4a565c89-f240-4c01-b65d-2de3691eda17","system_id":"levelo_inurba_marseille","lat":43.289791,"lon":5.378395,"is_reserved":false,"is_disabled":false,"rental_uris":{"android":"levelo://app?vid=4a565c89-f240-4c01-b65d-2de3691eda17","ios":"levelo://app?vid=4a565c89-f240-4c01-b65d-2de3691eda17"},"vehicle_type_id":"4","last_reported":1686629300,"current_range_meters":31200,"station_id":"ce4bh9p2rcd13ifvqed0","pricing_plan_id":"free"},{"bike_id":"9ed0ba5c-29b6-46a7-9166-9aa4c101219d","system_id":"levelo_inurba_marseille","lat":43.289741,"lon":5.378306,"is_reserved":false,"is_disabled":false,"rental_uris":{"android":"levelo://app?vid=9ed0ba5c-29b6-46a7-9166-9aa4c101219d","ios":"levelo://app?vid=9ed0ba5c-29b6-46a7-9166-9aa4c101219d"},"vehicle_type_id":"4","last_reported":1686629300,"current_range_meters":31200,"station_id":"ce4bh9p2rcd13ifvqed0","pricing_plan_id":"free"},{"bike_id":"e31fdfa1-3831-4e58-a734-a3651cd5183f","system_id":"levelo_inurba_marseille","lat":43.297814,"lon":5.393513,"is_reserved":false,"is_disabled":false,"rental_uris":{"android":"levelo://app?vid=e31fdfa1-3831-4e58-a734-a3651cd5183f","ios":"levelo://app?vid=e31fdfa1-3831-4e58-a734-a3651cd5183f"},"vehicle_type_id":"4","last_reported":1686629300,"current_range_meters":30400,"station_id":"chh1huq6cuj3fo74tm60","pricing_plan_id":"free"},{"bike_id":"a3d749a1-32fe-407f-b26e-516fe9f5d529","system_id":"levelo_inurba_marseille","lat":43.289741,"lon":5.378306,"is_reserved":false,"is_disabled":false,"rental_uris":{"android":"levelo://app?vid=a3d749a1-32fe-407f-b26e-516fe9f5d529","ios":"levelo://app?vid=a3d749a1-32fe-407f-b26e-516fe9f5d529"},"vehicle_type_id":"4","last_reported":1686629300,"current_range_meters":31600,"station_id":"ce4bh9p2rcd13ifvqed0","pricing_plan_id":"free"},{"bike_id":"a79959ec-0e97-465f-b895-8844e9b311f3","system_id":"levelo_inurba_marseille","lat":43.297814,"lon":5.393513,"is_reserved":false,"is_disabled":false,"rental_uris":{"android":"levelo://app?vid=a79959ec-0e97-465f-b895-8844e9b311f3","ios":"levelo://app?vid=a79959ec-0e97-465f-b895-8844e9b311f3"},"vehicle_type_id":"4","last_reported":1686629300,"current_range_meters":31200,"station_id":"chh1huq6cuj3fo74tm60","pricing_plan_id":"free"},{"bike_id":"d8d60c99-f42b-4ad6-a473-b9c660090149","system_id":"levelo_inurba_marseille","lat":43.289741,"lon":5.378306,"is_reserved":false,"is_disabled":false,"rental_uris":{"android":"levelo://app?vid=d8d60c99-f42b-4ad6-a473-b9c660090149","ios":"levelo://app?vid=d8d60c99-f42b-4ad6-a473-b9c660090149"},"vehicle_type_id":"4","last_reported":1686629300,"current_range_meters":24000,"station_id":"ce4bh9p2rcd13ifvqed0","pricing_plan_id":"free"},{"bike_id":"67de8fd2-1605-4b9a-acb8-59e0c40ad4e8","system_id":"levelo_inurba_marseille","lat":43.289741,"lon":5.378306,"is_reserved":false,"is_disabled":false,"rental_uris":{"android":"levelo://app?vid=67de8fd2-1605-4b9a-acb8-59e0c40ad4e8","ios":"levelo://app?vid=67de8fd2-1605-4b9a-acb8-59e0c40ad4e8"},"vehicle_type_id":"4","last_reported":1686629300,"current_range_meters":22000,"station_id":"ce4bh9p2rcd13ifvqed0","pricing_plan_id":"free"},{"bike_id":"805214d1-bdee-4a1c-8d8c-85125938d4fe","system_id":"levelo_inurba_marseille","lat":43.28856,"lon":5.358371,"is_reserved":false,"is_disabled":false,"rental_uris":{"android":"levelo://app?vid=805214d1-bdee-4a1c-8d8c-85125938d4fe","ios":"levelo://app?vid=805214d1-bdee-4a1c-8d8c-85125938d4fe"},"vehicle_type_id":"4","last_reported":1686629300,"current_range_meters":22400,"station_id":"ce4bhb12rcd13ifvqem0","pricing_plan_id":"free"},{"bike_id":"896391c9-e482-450b-880a-d2cc3b8e2502","system_id":"levelo_inurba_marseille","lat":43.28856,"lon":5.358371,"is_reserved":false,"is_disabled":false,"rental_uris":{"android":"levelo://app?vid=896391c9-e482-450b-880a-d2cc3b8e2502","ios":"levelo://app?vid=896391c9-e482-450b-880a-d2cc3b8e2502"},"vehicle_type_id":"4","last_reported":1686629300,"current_range_meters":31200,"station_id":"ce4bhb12rcd13ifvqem0","pricing_plan_id":"free"},{"bike_id":"e6365a49-9810-43e7-80cd-009308fe7892","system_id":"levelo_inurba_marseille","lat":43.28856,"lon":5.358371,"is_reserved":false,"is_disabled":false,"rental_uris":{"android":"levelo://app?vid=e6365a49-9810-43e7-80cd-009308fe7892","ios":"levelo://app?vid=e6365a49-9810-43e7-80cd-009308fe7892"},"vehicle_type_id":"4","last_reported":1686629300,"current_range_meters":31200,"station_id":"ce4bhb12rcd13ifvqem0","pricing_plan_id":"free"},{"bike_id":"2ad8adca-07d0-4768-adfd-3546d05f6b19","system_id":"levelo_inurba_marseille","lat":43.29655,"lon":5.39297,"is_reserved":false,"is_disabled":false,"rental_uris":{"android":"levelo://app?vid=2ad8adca-07d0-4768-adfd-3546d05f6b19","ios":"levelo://app?vid=2ad8adca-07d0-4768-adfd-3546d05f6b19"},"vehicle_type_id":"4","last_reported":1686629300,"current_range_meters":27200,"station_id":"","pricing_plan_id":"free"},{"bike_id":"25638c5e-2ecb-4a4f-a24d-ba556ed8f7ee","system_id":"levelo_inurba_marseille","lat":43.290094,"lon":5.381264,"is_reserved":false,"is_disabled":false,"rental_uris":{"android":"levelo://app?vid=25638c5e-2ecb-4a4f-a24d-ba556ed8f7ee","ios":"levelo://app?vid=25638c5e-2ecb-4a4f-a24d-ba556ed8f7ee"},"vehicle_type_id":"4","last_reported":1686629300,"current_range_meters":31200,"station_id":"ce4bh4p2rcd13ifvqe1g","pricing_plan_id":"free"},{"bike_id":"7db606fa-1f23-4e47-96d3-2ee752540834","system_id":"levelo_inurba_marseille","lat":43.2901,"lon":5.381269,"is_reserved":false,"is_disabled":false,"rental_uris":{"android":"levelo://app?vid=7db606fa-1f23-4e47-96d3-2ee752540834","ios":"levelo://app?vid=7db606fa-1f23-4e47-96d3-2ee752540834"},"vehicle_type_id":"4","last_reported":1686629300,"current_range_meters":31200,"station_id":"ce4bh4p2rcd13ifvqe1g","pricing_plan_id":"free"},{"bike_id":"ddaac275-d211-4cec-85aa-b8105433af06","system_id":"levelo_inurba_marseille","lat":43.28856,"lon":5.358371,"is_reserved":false,"is_disabled":false,"rental_uris":{"android":"levelo://app?vid=ddaac275-d211-4cec-85aa-b8105433af06","ios":"levelo://app?vid=ddaac275-d211-4cec-85aa-b8105433af06"},"vehicle_type_id":"4","last_reported":1686629300,"current_range_meters":28800,"station_id":"ce4bhb12rcd13ifvqem0","pricing_plan_id":"free"},{"bike_id":"c0fb8083-e02d-4dec-b1b9-fa095e6c5b75","system_id":"levelo_inurba_marseille","lat":43.337396,"lon":5.374526,"is_reserved":false,"is_disabled":false,"rental_uris":{"android":"levelo://app?vid=c0fb8083-e02d-4dec-b1b9-fa095e6c5b75","ios":"levelo://app?vid=c0fb8083-e02d-4dec-b1b9-fa095e6c5b75"},"vehicle_type_id":"4","last_reported":1686629300,"current_range_meters":14400,"station_id":"ce4bhp92rcd13ifvqhag","pricing_plan_id":"free"},{"bike_id":"4b595522-b2ca-428f-8430-f7a669b29a2f","system_id":"levelo_inurba_marseille","lat":43.309371,"lon":5.401449,"is_reserved":false,"is_disabled":false,"rental_uris":{"android":"levelo://app?vid=4b595522-b2ca-428f-8430-f7a669b29a2f","ios":"levelo://app?vid=4b595522-b2ca-428f-8430-f7a669b29a2f"},"vehicle_type_id":"4","last_reported":1686629300,"current_range_meters":14000,"station_id":"ce4bgvp2rcd13ifvqct0","pricing_plan_id":"free"},{"bike_id":"9515db1f-7189-4b41-aafc-7ec7a5d887e3","system_id":"levelo_inurba_marseille","lat":43.30932,"lon":5.4014,"is_reserved":false,"is_disabled":false,"rental_uris":{"android":"levelo://app?vid=9515db1f-7189-4b41-aafc-7ec7a5d887e3","ios":"levelo://app?vid=9515db1f-7189-4b41-aafc-7ec7a5d887e3"},"vehicle_type_id":"4","last_reported":1686629300,"current_range_meters":26000,"station_id":"ce4bgvp2rcd13ifvqct0","pricing_plan_id":"free"},{"bike_id":"006d7dd6-3fac-4b09-8a63-0649611b1f98","system_id":"levelo_inurba_marseille","lat":43.30918,"lon":5.40144,"is_reserved":false,"is_disabled":false,"rental_uris":{"android":"levelo://app?vid=006d7dd6-3fac-4b09-8a63-0649611b1f98","ios":"levelo://app?vid=006d7dd6-3fac-4b09-8a63-0649611b1f98"},"vehicle_type_id":"4","last_reported":1686629300,"current_range_meters":19600,"station_id":"ce4bgvp2rcd13ifvqct0","pricing_plan_id":"free"},{"bike_id":"205655c2-8668-4ca9-bf9f-490ac0b528bd","system_id":"levelo_inurba_marseille","lat":43.30642,"lon":5.401031,"is_reserved":false,"is_disabled":false,"rental_uris":{"android":"levelo://app?vid=205655c2-8668-4ca9-bf9f-490ac0b528bd","ios":"levelo://app?vid=205655c2-8668-4ca9-bf9f-490ac0b528bd"},"vehicle_type_id":"4","last_reported":1686629300,"current_range_meters":31200,"station_id":"ce4bh112rcd13ifvqda0","pricing_plan_id":"free"},{"bike_id":"e1080713-e3e4-40c3-a6a0-f0479965244b","system_id":"levelo_inurba_marseille","lat":43.30642,"lon":5.401031,"is_reserved":false,"is_disabled":false,"rental_uris":{"android":"levelo://app?vid=e1080713-e3e4-40c3-a6a0-f0479965244b","ios":"levelo://app?vid=e1080713-e3e4-40c3-a6a0-f0479965244b"},"vehicle_type_id":"4","last_reported":1686629300,"current_range_meters":20000,"station_id":"ce4bh112rcd13ifvqda0","pricing_plan_id":"free"},{"bike_id":"4b760633-cb7e-4d64-9aa1-4817e31c6a9e","system_id":"levelo_inurba_marseille","lat":43.30642,"lon":5.401031,"is_reserved":false,"is_disabled":false,"rental_uris":{"android":"levelo://app?vid=4b760633-cb7e-4d64-9aa1-4817e31c6a9e","ios":"levelo://app?vid=4b760633-cb7e-4d64-9aa1-4817e31c6a9e"},"vehicle_type_id":"4","last_reported":1686629300,"current_range_meters":24800,"station_id":"ce4bh112rcd13ifvqda0","pricing_plan_id":"free"},{"bike_id":"1a1f8da4-88b0-4044-a437-5610219fa53c","system_id":"levelo_inurba_marseille","lat":43.30642,"lon":5.401031,"is_reserved":false,"is_disabled":false,"rental_uris":{"android":"levelo://app?vid=1a1f8da4-88b0-4044-a437-5610219fa53c","ios":"levelo://app?vid=1a1f8da4-88b0-4044-a437-5610219fa53c"},"vehicle_type_id":"4","last_reported":1686629300,"current_range_meters":26000,"station_id":"ce4bh112rcd13ifvqda0","pricing_plan_id":"free"},{"bike_id":"2a9bcae9-589b-4ca2-8f1c-28fbe468ead7","system_id":"levelo_inurba_marseille","lat":43.30642,"lon":5.401031,"is_reserved":false,"is_disabled":false,"rental_uris":{"android":"levelo://app?vid=2a9bcae9-589b-4ca2-8f1c-28fbe468ead7","ios":"levelo://app?vid=2a9bcae9-589b-4ca2-8f1c-28fbe468ead7"},"vehicle_type_id":"4","last_reported":1686629300,"current_range_meters":30000,"station_id":"ce4bh112rcd13ifvqda0","pricing_plan_id":"free"},{"bike_id":"9e8a0039-6974-4493-86ab-c762273116e4","system_id":"levelo_inurba_marseille","lat":43.30642,"lon":5.401031,"is_reserved":false,"is_disabled":false,"rental_uris":{"android":"levelo://app?vid=9e8a0039-6974-4493-86ab-c762273116e4","ios":"levelo://app?vid=9e8a0039-6974-4493-86ab-c762273116e4"},"vehicle_type_id":"4","last_reported":1686629300,"current_range_meters":16400,"station_id":"ce4bh112rcd13ifvqda0","pricing_plan_id":"free"},{"bike_id":"b9355282-1b19-4560-8893-c8d31e0e19e8","system_id":"levelo_inurba_marseille","lat":43.30642,"lon":5.401031,"is_reserved":false,"is_disabled":false,"rental_uris":{"android":"levelo://app?vid=b9355282-1b19-4560-8893-c8d31e0e19e8","ios":"levelo://app?vid=b9355282-1b19-4560-8893-c8d31e0e19e8"},"vehicle_type_id":"4","last_reported":1686629300,"current_range_meters":31200,"station_id":"ce4bh112rcd13ifvqda0","pricing_plan_id":"free"},{"bike_id":"5014e0e8-1091-4582-865b-ed616505b7c5","system_id":"levelo_inurba_marseille","lat":43.30642,"lon":5.401031,"is_reserved":false,"is_disabled":false,"rental_uris":{"android":"levelo://app?vid=5014e0e8-1091-4582-865b-ed616505b7c5","ios":"levelo://app?vid=5014e0e8-1091-4582-865b-ed616505b7c5"},"vehicle_type_id":"4","last_reported":1686629300,"current_range_meters":23200,"station_id":"ce4bh112rcd13ifvqda0","pricing_plan_id":"free"},{"bike_id":"999221cd-cfcd-468e-ac95-a381b876fef4","system_id":"levelo_inurba_marseille","lat":43.30642,"lon":5.401031,"is_reserved":false,"is_disabled":false,"rental_uris":{"android":"levelo://app?vid=999221cd-cfcd-468e-ac95-a381b876fef4","ios":"levelo://app?vid=999221cd-cfcd-468e-ac95-a381b876fef4"},"vehicle_type_id":"4","last_reported":1686629300,"current_range_meters":31200,"station_id":"ce4bh112rcd13ifvqda0","pricing_plan_id":"free"},{"bike_id":"16da788a-0d5b-40fe-9e75-796419818da2","system_id":"levelo_inurba_marseille","lat":43.301117,"lon":5.398795,"is_reserved":false,"is_disabled":false,"rental_uris":{"android":"levelo://app?vid=16da788a-0d5b-40fe-9e75-796419818da2","ios":"levelo://app?vid=16da788a-0d5b-40fe-9e75-796419818da2"},"vehicle_type_id":"4","last_reported":1686629300,"current_range_meters":28400,"station_id":"ce4bh0h2rcd13ifvqd40","pricing_plan_id":"free"},{"bike_id":"8bffc96a-ce82-4b93-90aa-a7beb255ac54","system_id":"levelo_inurba_marseille","lat":43.301117,"lon":5.398795,"is_reserved":false,"is_disabled":false,"rental_uris":{"android":"levelo://app?vid=8bffc96a-ce82-4b93-90aa-a7beb255ac54","ios":"levelo://app?vid=8bffc96a-ce82-4b93-90aa-a7beb255ac54"},"vehicle_type_id":"4","last_reported":1686629300,"current_range_meters":28000,"station_id":"ce4bh0h2rcd13ifvqd40","pricing_plan_id":"free"},{"bike_id":"acc9a16d-31a1-4915-802a-d90cd6285f4e","system_id":"levelo_inurba_marseille","lat":43.298681,"lon":5.397225,"is_reserved":false,"is_disabled":false,"rental_uris":{"android":"levelo://app?vid=acc9a16d-31a1-4915-802a-d90cd6285f4e","ios":"levelo://app?vid=acc9a16d-31a1-4915-802a-d90cd6285f4e"},"vehicle_type_id":"4","last_reported":1686629300,"current_range_meters":30000,"station_id":"ce4bh0h2rcd13ifvqd50","pricing_plan_id":"free"},{"bike_id":"ca3f33cb-eef3-46ad-ab42-0b4c12758ab1","system_id":"levelo_inurba_marseille","lat":43.298681,"lon":5.397225,"is_reserved":false,"is_disabled":false,"rental_uris":{"android":"levelo://app?vid=ca3f33cb-eef3-46ad-ab42-0b4c12758ab1","ios":"levelo://app?vid=ca3f33cb-eef3-46ad-ab42-0b4c12758ab1"},"vehicle_type_id":"4","last_reported":1686629300,"current_range_meters":14800,"station_id":"ce4bh0h2rcd13ifvqd50","pricing_plan_id":"free"},{"bike_id":"e308896f-13f0-4de1-8039-0cfd14ded282","system_id":"levelo_inurba_marseille","lat":43.286591,"lon":5.363346,"is_reserved":false,"is_disabled":false,"rental_uris":{"android":"levelo://app?vid=e308896f-13f0-4de1-8039-0cfd14ded282","ios":"levelo://app?vid=e308896f-13f0-4de1-8039-0cfd14ded282"},"vehicle_type_id":"4","last_reported":1686629300,"current_range_meters":31200,"station_id":"ce4bhah2rcd13ifvqej0","pricing_plan_id":"free"},{"bike_id":"af17827f-99ef-430a-aa42-4028060c2630","system_id":"levelo_inurba_marseille","lat":43.28703,"lon":5.3739,"is_reserved":false,"is_disabled":false,"rental_uris":{"android":"levelo://app?vid=af17827f-99ef-430a-aa42-4028060c2630","ios":"levelo://app?vid=af17827f-99ef-430a-aa42-4028060c2630"},"vehicle_type_id":"4","last_reported":1686629300,"current_range_meters":8400,"station_id":"","pricing_plan_id":"free"},{"bike_id":"56958d85-50df-486d-a009-88f3986a7f2d","system_id":"levelo_inurba_marseille","lat":43.286591,"lon":5.363346,"is_reserved":false,"is_disabled":false,"rental_uris":{"android":"levelo://app?vid=56958d85-50df-486d-a009-88f3986a7f2d","ios":"levelo://app?vid=56958d85-50df-486d-a009-88f3986a7f2d"},"vehicle_type_id":"4","last_reported":1686629300,"current_range_meters":31200,"station_id":"ce4bhah2rcd13ifvqej0","pricing_plan_id":"free"},{"bike_id":"b964de44-be59-4650-8aa6-29ea0b023e95","system_id":"levelo_inurba_marseille","lat":43.28701,"lon":5.37384,"is_reserved":false,"is_disabled":false,"rental_uris":{"android":"levelo://app?vid=b964de44-be59-4650-8aa6-29ea0b023e95","ios":"levelo://app?vid=b964de44-be59-4650-8aa6-29ea0b023e95"},"vehicle_type_id":"4","last_reported":1686629300,"current_range_meters":8000,"station_id":"","pricing_plan_id":"free"},{"bike_id":"0ffdba62-b146-49a2-9794-6558ea3c8f3d","system_id":"levelo_inurba_marseille","lat":43.28702,"lon":5.37392,"is_reserved":false,"is_disabled":false,"rental_uris":{"android":"levelo://app?vid=0ffdba62-b146-49a2-9794-6558ea3c8f3d","ios":"levelo://app?vid=0ffdba62-b146-49a2-9794-6558ea3c8f3d"},"vehicle_type_id":"4","last_reported":1686629300,"current_range_meters":6800,"station_id":"","pricing_plan_id":"free"},{"bike_id":"3b6187a6-68cb-46a2-8142-73bbd23e0808","system_id":"levelo_inurba_marseille","lat":43.286593,"lon":5.363346,"is_reserved":false,"is_disabled":false,"rental_uris":{"android":"levelo://app?vid=3b6187a6-68cb-46a2-8142-73bbd23e0808","ios":"levelo://app?vid=3b6187a6-68cb-46a2-8142-73bbd23e0808"},"vehicle_type_id":"4","last_reported":1686629300,"current_range_meters":11200,"station_id":"ce4bhah2rcd13ifvqej0","pricing_plan_id":"free"},{"bike_id":"8d88e11d-3425-417e-ae78-4786dbeced9a","system_id":"levelo_inurba_marseille","lat":43.286591,"lon":5.363346,"is_reserved":false,"is_disabled":false,"rental_uris":{"android":"levelo://app?vid=8d88e11d-3425-417e-ae78-4786dbeced9a","ios":"levelo://app?vid=8d88e11d-3425-417e-ae78-4786dbeced9a"},"vehicle_type_id":"4","last_reported":1686629300,"current_range_meters":31200,"station_id":"ce4bhah2rcd13ifvqej0","pricing_plan_id":"free"},{"bike_id":"353e4895-dd28-41ab-ad55-d8da5a359441","system_id":"levelo_inurba_marseille","lat":43.286593,"lon":5.363346,"is_reserved":false,"is_disabled":false,"rental_uris":{"android":"levelo://app?vid=353e4895-dd28-41ab-ad55-d8da5a359441","ios":"levelo://app?vid=353e4895-dd28-41ab-ad55-d8da5a359441"},"vehicle_type_id":"4","last_reported":1686629300,"current_range_meters":20800,"station_id":"ce4bhah2rcd13ifvqej0","pricing_plan_id":"free"},{"bike_id":"9ec89c63-2643-4a78-93fc-96f3bcf44694","system_id":"levelo_inurba_marseille","lat":43.28698,"lon":5.37392,"is_reserved":false,"is_disabled":false,"rental_uris":{"android":"levelo://app?vid=9ec89c63-2643-4a78-93fc-96f3bcf44694","ios":"levelo://app?vid=9ec89c63-2643-4a78-93fc-96f3bcf44694"},"vehicle_type_id":"4","last_reported":1686629300,"current_range_meters":26400,"station_id":"","pricing_plan_id":"free"},{"bike_id":"041e196a-4a3d-4949-a7af-8e42fd782eda","system_id":"levelo_inurba_marseille","lat":43.28698,"lon":5.37396,"is_reserved":false,"is_disabled":false,"rental_uris":{"android":"levelo://app?vid=041e196a-4a3d-4949-a7af-8e42fd782eda","ios":"levelo://app?vid=041e196a-4a3d-4949-a7af-8e42fd782eda"},"vehicle_type_id":"4","last_reported":1686629300,"current_range_meters":4000,"station_id":"","pricing_plan_id":"free"},{"bike_id":"cd5d29bd-a255-425c-9a12-6f6ca1903fa3","system_id":"levelo_inurba_marseille","lat":43.286593,"lon":5.363346,"is_reserved":false,"is_disabled":false,"rental_uris":{"android":"levelo://app?vid=cd5d29bd-a255-425c-9a12-6f6ca1903fa3","ios":"levelo://app?vid=cd5d29bd-a255-425c-9a12-6f6ca1903fa3"},"vehicle_type_id":"4","last_reported":1686629300,"current_range_meters":26800,"station_id":"ce4bhah2rcd13ifvqej0","pricing_plan_id":"free"},{"bike_id":"76a6be4b-0deb-4622-a947-3c511fe763e5","system_id":"levelo_inurba_marseille","lat":43.298681,"lon":5.397225,"is_reserved":false,"is_disabled":false,"rental_uris":{"android":"levelo://app?vid=76a6be4b-0deb-4622-a947-3c511fe763e5","ios":"levelo://app?vid=76a6be4b-0deb-4622-a947-3c511fe763e5"},"vehicle_type_id":"4","last_reported":1686629300,"current_range_meters":28400,"station_id":"ce4bh0h2rcd13ifvqd50","pricing_plan_id":"free"},{"bike_id":"6eadf27f-a6bc-42f1-83bf-78a707a40d3f","system_id":"levelo_inurba_marseille","lat":43.298681,"lon":5.397225,"is_reserved":false,"is_disabled":false,"rental_uris":{"android":"levelo://app?vid=6eadf27f-a6bc-42f1-83bf-78a707a40d3f","ios":"levelo://app?vid=6eadf27f-a6bc-42f1-83bf-78a707a40d3f"},"vehicle_type_id":"4","last_reported":1686629300,"current_range_meters":28800,"station_id":"ce4bh0h2rcd13ifvqd50","pricing_plan_id":"free"},{"bike_id":"80bc739a-9b6a-41cc-83b7-6ba44a310f21","system_id":"levelo_inurba_marseille","lat":43.28654,"lon":5.36374,"is_reserved":false,"is_disabled":false,"rental_uris":{"android":"levelo://app?vid=80bc739a-9b6a-41cc-83b7-6ba44a310f21","ios":"levelo://app?vid=80bc739a-9b6a-41cc-83b7-6ba44a310f21"},"vehicle_type_id":"4","last_reported":1686629300,"current_range_meters":29600,"station_id":"ce4bhah2rcd13ifvqej0","pricing_plan_id":"free"},{"bike_id":"f6f7f520-1291-4960-ba9e-219b19631321","system_id":"levelo_inurba_marseille","lat":43.28692,"lon":5.37391,"is_reserved":false,"is_disabled":false,"rental_uris":{"android":"levelo://app?vid=f6f7f520-1291-4960-ba9e-219b19631321","ios":"levelo://app?vid=f6f7f520-1291-4960-ba9e-219b19631321"},"vehicle_type_id":"4","last_reported":1686629300,"current_range_meters":20800,"station_id":"","pricing_plan_id":"free"},{"bike_id":"816a1246-ed89-4bff-8c59-7cfee34cbbe9","system_id":"levelo_inurba_marseille","lat":43.30259,"lon":5.40067,"is_reserved":false,"is_disabled":false,"rental_uris":{"android":"levelo://app?vid=816a1246-ed89-4bff-8c59-7cfee34cbbe9","ios":"levelo://app?vid=816a1246-ed89-4bff-8c59-7cfee34cbbe9"},"vehicle_type_id":"4","last_reported":1686629300,"current_range_meters":8400,"station_id":"ce4bgvh2rcd13ifvqcs0","pricing_plan_id":"free"},{"bike_id":"3c3db61b-a2c6-4d5b-90aa-9f028989d56a","system_id":"levelo_inurba_marseille","lat":43.30253,"lon":5.4007,"is_reserved":false,"is_disabled":false,"rental_uris":{"android":"levelo://app?vid=3c3db61b-a2c6-4d5b-90aa-9f028989d56a","ios":"levelo://app?vid=3c3db61b-a2c6-4d5b-90aa-9f028989d56a"},"vehicle_type_id":"4","last_reported":1686629300,"current_range_meters":4800,"station_id":"ce4bgvh2rcd13ifvqcs0","pricing_plan_id":"free"},{"bike_id":"533b80b0-641c-47be-b145-5f04821afae8","system_id":"levelo_inurba_marseille","lat":43.302759,"lon":5.400793,"is_reserved":false,"is_disabled":false,"rental_uris":{"android":"levelo://app?vid=533b80b0-641c-47be-b145-5f04821afae8","ios":"levelo://app?vid=533b80b0-641c-47be-b145-5f04821afae8"},"vehicle_type_id":"4","last_reported":1686629300,"current_range_meters":29600,"station_id":"ce4bgvh2rcd13ifvqcs0","pricing_plan_id":"free"},{"bike_id":"4c7b46bc-3c6b-465c-92a4-ddd258c874df","system_id":"levelo_inurba_marseille","lat":43.30258,"lon":5.40078,"is_reserved":false,"is_disabled":false,"rental_uris":{"android":"levelo://app?vid=4c7b46bc-3c6b-465c-92a4-ddd258c874df","ios":"levelo://app?vid=4c7b46bc-3c6b-465c-92a4-ddd258c874df"},"vehicle_type_id":"4","last_reported":1686629300,"current_range_meters":31200,"station_id":"ce4bgvh2rcd13ifvqcs0","pricing_plan_id":"free"},