{"last_updated":1729883252,"ttl":60,"version":"2.2","data":{"bikes":[{"bike_id":"05d435bf-231f-4a3c-8f63-0e8eaba7050b","system_id":"levelo_inurba_marseille","lat":43.29265,"lon":5.38431,"is_reserved":false,"is_disabled":false,"rental_uris":{"android":"levelo://app?vid=05d435bf-231f-4a3c-8f63-0e8eaba7050b","ios":"levelo://app?vid=05d435bf-231f-4a3c-8f63-0e8eaba7050b"},"vehicle_type_id":"4","last_reported":1729883252,"current_range_meters":38800,"station_id":"ce4bh692rcd13ifvqea0","pricing_plan_id":"cebpf4jnsgd1na2vs0mg"},{"bike_id":"e7acb64b-c61f-47b2-a8af-1a312a4d2a8b","system_id":"levelo_inurba_marseille","lat":43.2808,"lon":5.39662,"is_reserved":false,"is_disabled":false,"rental_uris":{"android":"levelo://app?vid=e7acb64b-c61f-47b2-a8af-1a312a4d2a8b","ios":"levelo://app?vid=e7acb64b-c61f-47b2-a8af-1a312a4d2a8b"},"vehicle_type_id":"4","last_reported":1729883252,"current_range_meters":22000,"station_id":"ce4bho12rcd13ifvqh2g","pricing_plan_id":"cebpf4jnsgd1na2vs0mg"},{"bike_id":"bddddada-322c-432e-a1b4-7a7503ec4a2e","system_id":"levelo_inurba_marseille","lat":43.291677,"lon":5.371527,"is_reserved":false,"is_disabled":false,"rental_uris":{"android":"levelo://app?vid=bddddada-322c-432e-a1b4-7a7503ec4a2e","ios":"levelo://app?vid=bddddada-322c-432e-a1b4-7a7503ec4a2e"},"vehicle_type_id":"4","last_reported":1729883252,"current_range_meters":4400,"station_id":"ce4bha92rcd13ifvqeh0","pricing_plan_id":"cebpf4jnsgd1na2vs0mg"},{"bike_id":"84524af5-cab8-45d6-a697-cd4124bee7ac","system_id":"levelo_inurba_marseille","lat":43.25122,"lon":5.40317,"is_reserved":false,"is_disabled":false,"rental_uris":{"android":"levelo://app?vid=84524af5-cab8-45d6-a697-cd4124bee7ac","ios":"levelo://app?vid=84524af5-cab8-45d6-a697-cd4124bee7ac"},"vehicle_type_id":"4","last_reported":1729883252,"current_range_meters":3200,"station_id":"ce4bhlh2rcd13ifvqgig","pricing_plan_id":"cebpf4jnsgd1na2vs0mg"},{"bike_id":"7dea3e7e-d097-49d0-a088-22b8f2f11a9f","system_id":"levelo_inurba_marseille","lat":43.291,"lon":5.38135,"is_reserved":false,"is_disabled":false,"rental_uris":{"android":"levelo://app?vid=7dea3e7e-d097-49d0-a088-22b8f2f11a9f","ios":"levelo://app?vid=7dea3e7e-d097-49d0-a088-22b8f2f11a9f"},"vehicle_type_id":"4","last_reported":1729883252,"current_range_meters":34000,"station_id":"ce4bh512rcd13ifvqe2g","pricing_plan_id":"cebpf4jnsgd1na2vs0mg"},{"bike_id":"cc10d90a-8fd3-4813-9fed-7294b27e63c1","system_id":"levelo_inurba_marseille","lat":43.29274,"lon":5.40119,"is_reserved":false,"is_disabled":false,"rental_uris":{"android":"levelo://app?vid=cc10d90a-8fd3-4813-9fed-7294b27e63c1","ios":"levelo://app?vid=cc10d90a-8fd3-4813-9fed-7294b27e63c1"},"vehicle_type_id":"4","last_reported":1729883252,"current_range_meters":14400,"station_id":"ce4bh312rcd13ifvqdk0","pricing_plan_id":"cebpf4jnsgd1na2vs0mg"},{"bike_id":"d2d822e6-ec68-4e1b-baa5-111771c24761","system_id":"levelo_inurba_marseille","lat":43.29897,"lon":5.43674,"is_reserved":false,"is_disabled":false,"rental_uris":{"android":"levelo://app?vid=d2d822e6-ec68-4e1b-baa5-111771c24761","ios":"levelo://app?vid=d2d822e6-ec68-4e1b-baa5-111771c24761"},"vehicle_type_id":"4","last_reported":1729883252,"current_range_meters":16800,"station_id":"ce4bhpp2rcd13ifvqhfg","pricing_plan_id":"cebpf4jnsgd1na2vs0mg"},{"bike_id":"658bfff3-7447-4dd6-9000-656b6647cd35","system_id":"levelo_inurba_marseille","lat":43.2987,"lon":5.39728,"is_reserved":false,"is_disabled":false,"rental_uris":{"android":"levelo://app?vid=658bfff3-7447-4dd6-9000-656b6647cd35","ios":"levelo://app?vid=658bfff3-7447-4dd6-9000-656b6647cd35"},"vehicle_type_id":"4","last_reported":1729883252,"current_range_meters":20000,"station_id":"ce4bh0h2rcd13ifvqd50","pricing_plan_id":"cebpf4jnsgd1na2vs0mg"},{"bike_id":"ba23ff9b-4577-427e-a1be-4c831a6f0132","system_id":"levelo_inurba_marseille","lat":43.28028,"lon":5.36954,"is_reserved":false,"is_disabled":false,"rental_uris":{"android":"levelo://app?vid=ba23ff9b-4577-427e-a1be-4c831a6f0132","ios":"levelo://app?vid=ba23ff9b-4577-427e-a1be-4c831a6f0132"},"vehicle_type_id":"4","last_reported":1729883252,"current_range_meters":26800,"station_id":"ce4bha12rcd13ifvqef0","pricing_plan_id":"cebpf4jnsgd1na2vs0mg"},{"bike_id":"9b32293b-81be-45fa-8866-6b871c88cbf7","system_id":"levelo_inurba_marseille","lat":43.29418,"lon":5.38635,"is_reserved":false,"is_disabled":false,"rental_uris":{"android":"levelo://app?vid=9b32293b-81be-45fa-8866-6b871c88cbf7","ios":"levelo://app?vid=9b32293b-81be-45fa-8866-6b871c88cbf7"},"vehicle_type_id":"4","last_reported":1729883252,"current_range_meters":35200,"station_id":"ce4bh2h2rcd13ifvqdh0","pricing_plan_id":"cebpf4jnsgd1na2vs0mg"},{"bike_id":"7cecb426-2ca1-4d59-b2aa-788960f2c1b8","system_id":"levelo_inurba_marseille","lat":43.27564,"lon":5.38426,"is_reserved":false,"is_disabled":false,"rental_uris":{"android":"levelo://app?vid=7cecb426-2ca1-4d59-b2aa-788960f2c1b8","ios":"levelo://app?vid=7cecb426-2ca1-4d59-b2aa-788960f2c1b8"},"vehicle_type_id":"4","last_reported":1729883252,"current_range_meters":27200,"station_id":"ce4bhh92rcd13ifvqfi0","pricing_plan_id":"cebpf4jnsgd1na2vs0mg"},{"bike_id":"2818ef3d-c10c-4252-882d-b244205aa826","system_id":"levelo_inurba_marseille","lat":43.29418,"lon":5.38628,"is_reserved":false,"is_disabled":false,"rental_uris":{"android":"levelo://app?vid=2818ef3d-c10c-4252-882d-b244205aa826","ios":"levelo://app?vid=2818ef3d-c10c-4252-882d-b244205aa826"},"vehicle_type_id":"4","last_reported":1729883252,"current_range_meters":38800,"station_id":"ce4bh2h2rcd13ifvqdh0","pricing_plan_id":"cebpf4jnsgd1na2vs0mg"},{"bike_id":"1542f6de-3dd1-481c-99dc-f28588a5d22a","system_id":"levelo_inurba_marseille","lat":43.31326,"lon":5.39701,"is_reserved":false,"is_disabled":false,"rental_uris":{"android":"levelo://app?vid=1542f6de-3dd1-481c-99dc-f28588a5d22a","ios":"levelo://app?vid=1542f6de-3dd1-481c-99dc-f28588a5d22a"},"vehicle_type_id":"4","last_reported":1729883252,"current_range_meters":14800,"station_id":"ce4bgvp2rcd13ifvqcu0","pricing_plan_id":"cebpf4jnsgd1na2vs0mg"},{"bike_id":"865124a8-5cf8-4f1f-ba5e-7dd42a2c84cc","system_id":"levelo_inurba_marseille","lat":43.28277,"lon":5.35071,"is_reserved":false,"is_disabled":false,"rental_uris":{"android":"levelo://app?vid=865124a8-5cf8-4f1f-ba5e-7dd42a2c84cc","ios":"levelo://app?vid=865124a8-5cf8-4f1f-ba5e-7dd42a2c84cc"},"vehicle_type_id":"4","last_reported":1729883252,"current_range_meters":17600,"station_id":"ce4bhbp2rcd13ifvqerg","pricing_plan_id":"cebpf4jnsgd1na2vs0mg"},{"bike_id":"b893605e-2698-47f4-bfcb-125d029c9738","system_id":"levelo_inurba_marseille","lat":43.28722,"lon":5.36087,"is_reserved":false,"is_disabled":false,"rental_uris":{"android":"levelo://app?vid=b893605e-2698-47f4-bfcb-125d029c9738","ios":"levelo://app?vid=b893605e-2698-47f4-bfcb-125d029c9738"},"vehicle_type_id":"4","last_reported":1729883252,"current_range_meters":27600,"station_id":"cki0cbj6b192h4jlfktg","pricing_plan_id":"cebpf4jnsgd1na2vs0mg"},{"bike_id":"1bebfdbd-c17c-441e-a4f8-3f500ea76e5c","system_id":"levelo_inurba_marseille","lat":43.29193,"lon":5.39332,"is_reserved":false,"is_disabled":false,"rental_uris":{"android":"levelo://app?vid=1bebfdbd-c17c-441e-a4f8-3f500ea76e5c","ios":"levelo://app?vid=1bebfdbd-c17c-441e-a4f8-3f500ea76e5c"},"vehicle_type_id":"4","last_reported":1729883252,"current_range_meters":30000,"station_id":"ce4bh192rcd13ifvqdd0","pricing_plan_id":"cebpf4jnsgd1na2vs0mg"},{"bike_id":"25bd0b0b-da11-4898-bb7a-5a9783ca8d9a","system_id":"levelo_inurba_marseille","lat":43.29525,"lon":5.38549,"is_reserved":false,"is_disabled":false,"rental_uris":{"android":"levelo://app?vid=25bd0b0b-da11-4898-bb7a-5a9783ca8d9a","ios":"levelo://app?vid=25bd0b0b-da11-4898-bb7a-5a9783ca8d9a"},"vehicle_type_id":"4","last_reported":1729883252,"current_range_meters":7200,"station_id":"ce4bgih2rcd13ifvqba0","pricing_plan_id":"cebpf4jnsgd1na2vs0mg"},{"bike_id":"9b63ee65-32d7-4702-869c-3c04224851e5","system_id":"levelo_inurba_marseille","lat":43.29419,"lon":5.38627,"is_reserved":false,"is_disabled":false,"rental_uris":{"android":"levelo://app?vid=9b63ee65-32d7-4702-869c-3c04224851e5","ios":"levelo://app?vid=9b63ee65-32d7-4702-869c-3c04224851e5"},"vehicle_type_id":"4","last_reported":1729883252,"current_range_meters":26800,"station_id":"ce4bh2h2rcd13ifvqdh0","pricing_plan_id":"cebpf4jnsgd1na2vs0mg"},{"bike_id":"343cd697-ef1f-4b30-b0a4-309c17b3c593","system_id":"levelo_inurba_marseille","lat":43.29365,"lon":5.37853,"is_reserved":false,"is_disabled":false,"rental_uris":{"android":"levelo://app?vid=343cd697-ef1f-4b30-b0a4-309c17b3c593","ios":"levelo://app?vid=343cd697-ef1f-4b30-b0a4-309c17b3c593"},"vehicle_type_id":"4","last_reported":1729883252,"current_range_meters":12400,"station_id":"ce4bgjh2rcd13ifvqbf0","pricing_plan_id":"cebpf4jnsgd1na2vs0mg"},{"bike_id":"b0ed08f1-3bc6-4da5-ad00-65687ed7db87","system_id":"levelo_inurba_marseille","lat":43.29868,"lon":5.39738,"is_reserved":false,"is_disabled":false,"rental_uris":{"android":"levelo://app?vid=b0ed08f1-3bc6-4da5-ad00-65687ed7db87","ios":"levelo://app?vid=b0ed08f1-3bc6-4da5-ad00-65687ed7db87"},"vehicle_type_id":"4","last_reported":1729883252,"current_range_meters":34800,"station_id":"ce4bh0h2rcd13ifvqd50","pricing_plan_id":"cebpf4jnsgd1na2vs0mg"},{"bike_id":"cbc5287e-dce8-418e-bac7-864a68889123","system_id":"levelo_inurba_marseille","lat":43.28406,"lon":5.34981,"is_reserved":false,"is_disabled":false,"rental_uris":{"android":"levelo://app?vid=cbc5287e-dce8-418e-bac7-864a68889123","ios":"levelo://app?vid=cbc5287e-dce8-418e-bac7-864a68889123"},"vehicle_type_id":"4","last_reported":1729883252,"current_range_meters":9200,"station_id":"ce4bhbh2rcd13ifvqepg","pricing_plan_id":"cebpf4jnsgd1na2vs0mg"},{"bike_id":"11f74dc2-d7f0-4370-95f5-87920a527352","system_id":"levelo_inurba_marseille","lat":43.26493,"lon":5.39547,"is_reserved":false,"is_disabled":false,"rental_uris":{"android":"levelo://app?vid=11f74dc2-d7f0-4370-95f5-87920a527352","ios":"levelo://app?vid=11f74dc2-d7f0-4370-95f5-87920a527352"},"vehicle_type_id":"4","last_reported":1729883252,"current_range_meters":13600,"station_id":"ce4bhi12rcd13ifvqfq0","pricing_plan_id":"cebpf4jnsgd1na2vs0mg"},{"bike_id":"d3ad0654-8b42-424b-9819-4bfe010ac5af","system_id":"levelo_inurba_marseille","lat":43.24545,"lon":5.39523,"is_reserved":false,"is_disabled":false,"rental_uris":{"android":"levelo://app?vid=d3ad0654-8b42-424b-9819-4bfe010ac5af","ios":"levelo://app?vid=d3ad0654-8b42-424b-9819-4bfe010ac5af"},"vehicle_type_id":"4","last_reported":1729883252,"current_range_meters":38000,"station_id":"ce4bhlp2rcd13ifvqgjg","pricing_plan_id":"cebpf4jnsgd1na2vs0mg"},{"bike_id":"66731e45-439d-4849-b312-3fecd8f11e42","system_id":"levelo_inurba_marseille","lat":43.29309,"lon":5.37181,"is_reserved":false,"is_disabled":false,"rental_uris":{"android":"levelo://app?vid=66731e45-439d-4849-b312-3fecd8f11e42","ios":"levelo://app?vid=66731e45-439d-4849-b312-3fecd8f11e42"},"vehicle_type_id":"4","last_reported":1729883252,"current_range_meters":8400,"station_id":"ce4bgh92rcd13ifvqb40","pricing_plan_id":"cebpf4jnsgd1na2vs0mg"},{"bike_id":"911987a0-1fc2-4e65-a7da-1d0539091a28","system_id":"levelo_inurba_marseille","lat":43.28153,"lon":5.42647,"is_reserved":false,"is_disabled":false,"rental_uris":{"android":"levelo://app?vid=911987a0-1fc2-4e65-a7da-1d0539091a28","ios":"levelo://app?vid=911987a0-1fc2-4e65-a7da-1d0539091a28"},"vehicle_type_id":"4","last_reported":1729883252,"current_range_meters":27200,"station_id":"ce4bhnh2rcd13ifvqgug","pricing_plan_id":"cebpf4jnsgd1na2vs0mg"},{"bike_id":"63a1a4b4-12bd-4f7e-833d-a9eb98822fc0","system_id":"levelo_inurba_marseille","lat":43.29252,"lon":5.3844,"is_reserved":false,"is_disabled":false,"rental_uris":{"android":"levelo://app?vid=63a1a4b4-12bd-4f7e-833d-a9eb98822fc0","ios":"levelo://app?vid=63a1a4b4-12bd-4f7e-833d-a9eb98822fc0"},"vehicle_type_id":"4","last_reported":1729883252,"current_range_meters":6000,"station_id":"ce4bh692rcd13ifvqea0","pricing_plan_id":"cebpf4jnsgd1na2vs0mg"},{"bike_id":"16f01b80-c7fb-4fde-83a6-d307c062a13d","system_id":"levelo_inurba_marseille","lat":43.2942,"lon":5.38623,"is_reserved":false,"is_disabled":false,"rental_uris":{"android":"levelo://app?vid=16f01b80-c7fb-4fde-83a6-d307c062a13d","ios":"levelo://app?vid=16f01b80-c7fb-4fde-83a6-d307c062a13d"},"vehicle_type_id":"4","last_reported":1729883252,"current_range_meters":22000,"station_id":"ce4bh2h2rcd13ifvqdh0","pricing_plan_id":"cebpf4jnsgd1na2vs0mg"},{"bike_id":"3b9afd7c-f306-4ffe-979c-f1c8f1b08b1b","system_id":"levelo_inurba_marseille","lat":43.2558,"lon":5.38239,"is_reserved":false,"is_disabled":false,"rental_uris":{"android":"levelo://app?vid=3b9afd7c-f306-4ffe-979c-f1c8f1b08b1b","ios":"levelo://app?vid=3b9afd7c-f306-4ffe-979c-f1c8f1b08b1b"},"vehicle_type_id":"4","last_reported":1729883252,"current_range_meters":8800,"station_id":"ce4bhih2rcd13ifvqfs0","pricing_plan_id":"cebpf4jnsgd1na2vs0mg"},{"bike_id":"bbbf1317-0cef-47f4-b80a-4dcb1e32720d","system_id":"levelo_inurba_marseille","lat":43.32342,"lon":5.40623,"is_reserved":false,"is_disabled":false,"rental_uris":{"android":"levelo://app?vid=bbbf1317-0cef-47f4-b80a-4dcb1e32720d","ios":"levelo://app?vid=bbbf1317-0cef-47f4-b80a-4dcb1e32720d"},"vehicle_type_id":"4","last_reported":1729883252,"current_range_meters":33200,"station_id":"ce4bhq92rcd13ifvqhjg","pricing_plan_id":"cebpf4jnsgd1na2vs0mg"},{"bike_id":"eab93d7d-fc8f-492f-af7f-152d6d7d49a9","system_id":"levelo_inurba_marseille","lat":43.29554,"lon":5.42296,"is_reserved":false,"is_disabled":false,"rental_uris":{"android":"levelo://app?vid=eab93d7d-fc8f-492f-af7f-152d6d7d49a9","ios":"levelo://app?vid=eab93d7d-fc8f-492f-af7f-152d6d7d49a9"},"vehicle_type_id":"4","last_reported":1729883252,"current_range_meters":22400,"station_id":"ce4bhph2rcd13ifvqhdg","pricing_plan_id":"cebpf4jnsgd1na2vs0mg"},{"bike_id":"67eb21e1-5129-42be-8058-7b9265204209","system_id":"levelo_inurba_marseille","lat":43.29251,"lon":5.4091,"is_reserved":false,"is_disabled":false,"rental_uris":{"android":"levelo://app?vid=67eb21e1-5129-42be-8058-7b9265204209","ios":"levelo://app?vid=67eb21e1-5129-42be-8058-7b9265204209"},"vehicle_type_id":"4","last_reported":1729883252,"current_range_meters":38800,"station_id":"ce4bh192rcd13ifvqdc0","pricing_plan_id":"cebpf4jnsgd1na2vs0mg"},{"bike_id":"0b5374f7-0cc3-4c6b-8cf2-ae4e1e1152d8","system_id":"levelo_inurba_marseille","lat":43.27812,"lon":5.40712,"is_reserved":false,"is_disabled":false,"rental_uris":{"android":"levelo://app?vid=0b5374f7-0cc3-4c6b-8cf2-ae4e1e1152d8","ios":"levelo://app?vid=0b5374f7-0cc3-4c6b-8cf2-ae4e1e1152d8"},"vehicle_type_id":"4","last_reported":1729883252,"current_range_meters":38800,"station_id":"ce4bhnh2rcd13ifvqgtg","pricing_plan_id":"cebpf4jnsgd1na2vs0mg"},{"bike_id":"914671d9-159b-452e-80e3-3092799d2235","system_id":"levelo_inurba_marseille","lat":43.32334,"lon":5.40618,"is_reserved":false,"is_disabled":false,"rental_uris":{"android":"levelo://app?vid=914671d9-159b-452e-80e3-3092799d2235","ios":"levelo://app?vid=914671d9-159b-452e-80e3-3092799d2235"},"vehicle_type_id":"4","last_reported":1729883252,"current_range_meters":27200,"station_id":"ce4bhq92rcd13ifvqhjg","pricing_plan_id":"cebpf4jnsgd1na2vs0mg"},{"bike_id":"6b76ac8a-2f64-4038-a52e-393f91d47280","system_id":"levelo_inurba_marseille","lat":43.29095,"lon":5.38127,"is_reserved":false,"is_disabled":false,"rental_uris":{"android":"levelo://app?vid=6b76ac8a-2f64-4038-a52e-393f91d47280","ios":"levelo://app?vid=6b76ac8a-2f64-4038-a52e-393f91d47280"},"vehicle_type_id":"4","last_reported":1729883252,"current_range_meters":30400,"station_id":"ce4bh512rcd13ifvqe2g","pricing_plan_id":"cebpf4jnsgd1na2vs0mg"},{"bike_id":"db7f3dcb-7f8d-40dc-8b80-c10b2d2d308b","system_id":"levelo_inurba_marseille","lat":43.27563,"lon":5.38413,"is_reserved":false,"is_disabled":false,"rental_uris":{"android":"levelo://app?vid=db7f3dcb-7f8d-40dc-8b80-c10b2d2d308b","ios":"levelo://app?vid=db7f3dcb-7f8d-40dc-8b80-c10b2d2d308b"},"vehicle_type_id":"4","last_reported":1729883252,"current_range_meters":32000,"station_id":"ce4bhh92rcd13ifvqfi0","pricing_plan_id":"cebpf4jnsgd1na2vs0mg"},{"bike_id":"574321db-1f88-46d0-ae4f-abf349feeaad","system_id":"levelo_inurba_marseille","lat":43.29422,"lon":5.38606,"is_reserved":false,"is_disabled":false,"rental_uris":{"android":"levelo://app?vid=574321db-1f88-46d0-ae4f-abf349feeaad","ios":"levelo://app?vid=574321db-1f88-46d0-ae4f-abf349feeaad"},"vehicle_type_id":"4","last_reported":1729883252,"current_range_meters":6400,"station_id":"ce4bh2h2rcd13ifvqdh0","pricing_plan_id":"cebpf4jnsgd1na2vs0mg"},{"bike_id":"89206673-fdc6-4c61-b767-c66677e18d0b","system_id":"levelo_inurba_marseille","lat":43.22931,"lon":5.35378,"is_reserved":false,"is_disabled":false,"rental_uris":{"android":"levelo://app?vid=89206673-fdc6-4c61-b767-c66677e18d0b","ios":"levelo://app?vid=89206673-fdc6-4c61-b767-c66677e18d0b"},"vehicle_type_id":"4","last_reported":1729883252,"current_range_meters":35600,"station_id":"cpo3532slgdg3j2ikp40","pricing_plan_id":"cebpf4jnsgd1na2vs0mg"},{"bike_id":"ced98659-8758-459e-b747-193d45b4c0dd","system_id":"levelo_inurba_marseille","lat":43.31687,"lon":5.40484,"is_reserved":false,"is_disabled":false,"rental_uris":{"android":"levelo://app?vid=ced98659-8758-459e-b747-193d45b4c0dd","ios":"levelo://app?vid=ced98659-8758-459e-b747-193d45b4c0dd"},"vehicle_type_id":"4","last_reported":1729883252,"current_range_meters":38800,"station_id":"ce4bh012rcd13ifvqd00","pricing_plan_id":"cebpf4jnsgd1na2vs0mg"},{"bike_id":"a8c759c2-8ab0-4ec9-aa09-a4fa585359a0","system_id":"levelo_inurba_marseille","lat":43.2656,"lon":5.37287,"is_reserved":false,"is_disabled":false,"rental_uris":{"android":"levelo://app?vid=a8c759c2-8ab0-4ec9-aa09-a4fa585359a0","ios":"levelo://app?vid=a8c759c2-8ab0-4ec9-aa09-a4fa585359a0"},"vehicle_type_id":"4","last_reported":1729883252,"current_range_meters":32000,"station_id":"ce4bhg12rcd13ifvqf70","pricing_plan_id":"cebpf4jnsgd1na2vs0mg"},{"bike_id":"eb102852-860a-4ff8-b6ac-2dfd67f8d52c","system_id":"levelo_inurba_marseille","lat":43.26929,"lon":5.38923,"is_reserved":false,"is_disabled":false,"rental_uris":{"android":"levelo://app?vid=eb102852-860a-4ff8-b6ac-2dfd67f8d52c","ios":"levelo://app?vid=eb102852-860a-4ff8-b6ac-2dfd67f8d52c"},"vehicle_type_id":"4","last_reported":1729883252,"current_range_meters":2800,"station_id":"ce4bhhh2rcd13ifvqfl0","pricing_plan_id":"cebpf4jnsgd1na2vs0mg"},{"bike_id":"3ac97ecd-17f9-479c-aded-a321e2968710","system_id":"levelo_inurba_marseille","lat":43.290375,"lon":5.359238,"is_reserved":false,"is_disabled":false,"rental_uris":{"android":"levelo://app?vid=3ac97ecd-17f9-479c-aded-a321e2968710","ios":"levelo://app?vid=3ac97ecd-17f9-479c-aded-a321e2968710"},"vehicle_type_id":"4","last_reported":1729883252,"current_range_meters":37600,"station_id":"ce4bha92rcd13ifvqeg0","pricing_plan_id":"cebpf4jnsgd1na2vs0mg"},{"bike_id":"b5dc267c-e761-492a-9989-34909870c100","system_id":"levelo_inurba_marseille","lat":43.29423,"lon":5.38636,"is_reserved":false,"is_disabled":false,"rental_uris":{"android":"levelo://app?vid=b5dc267c-e761-492a-9989-34909870c100","ios":"levelo://app?vid=b5dc267c-e761-492a-9989-34909870c100"},"vehicle_type_id":"4","last_reported":1729883252,"current_range_meters":38800,"station_id":"ce4bh2h2rcd13ifvqdh0","pricing_plan_id":"cebpf4jnsgd1na2vs0mg"},{"bike_id":"fbda76cf-ad32-44f5-8e46-a16eaabd2829","system_id":"levelo_inurba_marseille","lat":43.22936,"lon":5.35376,"is_reserved":false,"is_disabled":false,"rental_uris":{"android":"levelo://app?vid=fbda76cf-ad32-44f5-8e46-a16eaabd2829","ios":"levelo://app?vid=fbda76cf-ad32-44f5-8e46-a16eaabd2829"},"vehicle_type_id":"4","last_reported":1729883252,"current_range_meters":18000,"station_id":"cpo3532slgdg3j2ikp40","pricing_plan_id":"cebpf4jnsgd1na2vs0mg"},{"bike_id":"ace9e578-c8a4-4e9d-abde-1b3a8dadd10b","system_id":"levelo_inurba_marseille","lat":43.31711,"lon":5.43708,"is_reserved":false,"is_disabled":false,"rental_uris":{"android":"levelo://app?vid=ace9e578-c8a4-4e9d-abde-1b3a8dadd10b","ios":"levelo://app?vid=ace9e578-c8a4-4e9d-abde-1b3a8dadd10b"},"vehicle_type_id":"4","last_reported":1729883252,"current_range_meters":30000,"station_id":"ce4bhp92rcd13ifvqhcg","pricing_plan_id":"cebpf4jnsgd1na2vs0mg"},{"bike_id":"80f527fb-9c45-46f6-8b3a-38dc8685d303","system_id":"levelo_inurba_marseille","lat":43.29878,"lon":5.39737,"is_reserved":false,"is_disabled":false,"rental_uris":{"android":"levelo://app?vid=80f527fb-9c45-46f6-8b3a-38dc8685d303","ios":"levelo://app?vid=80f527fb-9c45-46f6-8b3a-38dc8685d303"},"vehicle_type_id":"4","last_reported":1729883252,"current_range_meters":38800,"station_id":"ce4bh0h2rcd13ifvqd50","pricing_plan_id":"cebpf4jnsgd1na2vs0mg"},{"bike_id":"83b8e81a-e015-4ae6-98b4-01767615cc21","system_id":"levelo_inurba_marseille","lat":43.3133,"lon":5.39695,"is_reserved":false,"is_disabled":false,"rental_uris":{"android":"levelo://app?vid=83b8e81a-e015-4ae6-98b4-01767615cc21","ios":"levelo://app?vid=83b8e81a-e015-4ae6-98b4-01767615cc21"},"vehicle_type_id":"4","last_reported":1729883252,"current_range_meters":30000,"station_id":"ce4bgvp2rcd13ifvqcu0","pricing_plan_id":"cebpf4jnsgd1na2vs0mg"},{"bike_id":"8fac51d6-c255-4d52-a52c-3a6892999a9d","system_id":"levelo_inurba_marseille","lat":43.29417,"lon":5.38621,"is_reserved":false,"is_disabled":false,"rental_uris":{"android":"levelo://app?vid=8fac51d6-c255-4d52-a52c-3a6892999a9d","ios":"levelo://app?vid=8fac51d6-c255-4d52-a52c-3a6892999a9d"},"vehicle_type_id":"4","last_reported":1729883252,"current_range_meters":15200,"station_id":"ce4bh2h2rcd13ifvqdh0","pricing_plan_id":"cebpf4jnsgd1na2vs0mg"},{"bike_id":"82264400-12db-4067-aca8-36b4ff500e2c","system_id":"levelo_inurba_marseille","lat":43.30418,"lon":5.39738,"is_reserved":false,"is_disabled":false,"rental_uris":{"android":"levelo://app?vid=82264400-12db-4067-aca8-36b4ff500e2c","ios":"levelo://app?vid=82264400-12db-4067-aca8-36b4ff500e2c"},"vehicle_type_id":"4","last_reported":1729883252,"current_range_meters":27600,"station_id":"ce4bh092rcd13ifvqd20","pricing_plan_id":"cebpf4jnsgd1na2vs0mg"},{"bike_id":"4b054ace-46f6-4f8b-aaba-77a01738729a","system_id":"levelo_inurba_marseille","lat":43.29266,"lon":5.38449,"is_reserved":false,"is_disabled":false,"rental_uris":{"android":"levelo://app?vid=4b054ace-46f6-4f8b-aaba-77a01738729a","ios":"levelo://app?vid=4b054ace-46f6-4f8b-aaba-77a01738729a"},"vehicle_type_id":"4","last_reported":1729883252,"current_range_meters":2800,"station_id":"ce4bh692rcd13ifvqea0","pricing_plan_id":"cebpf4jnsgd1na2vs0mg"},{"bike_id":"7a9bebfb-3ca8-461f-9edc-3e4de00c7841","system_id":"levelo_inurba_marseille","lat":43.25576,"lon":5.38236,"is_reserved":false,"is_disabled":false,"rental_uris":{"android":"levelo://app?vid=7a9bebfb-3ca8-461f-9edc-3e4de00c7841","ios":"levelo://app?vid=7a9bebfb-3ca8-461f-9edc-3e4de00c7841"},"vehicle_type_id":"4","last_reported":1729883252,"current_range_meters":36400,"station_id":"ce4bhih2rcd13ifvqfs0","pricing_plan_id":"cebpf4jnsgd1na2vs0mg"},{"bike_id":"43cb0e05-230d-4f5d-8413-443709149832","system_id":"levelo_inurba_marseille","lat":43.28482,"lon":5.3856,"is_reserved":false,"is_disabled":false,"rental_uris":{"android":"levelo://app?vid=43cb0e05-230d-4f5d-8413-443709149832","ios":"levelo://app?vid=43cb0e05-230d-4f5d-8413-443709149832"},"vehicle_type_id":"4","last_reported":1729883252,"current_range_meters":25200,"station_id":"ce4bh8p2rcd13ifvqeb0","pricing_plan_id":"cebpf4jnsgd1na2vs0mg"},{"bike_id":"a579f22c-42af-4cbb-b1a9-0cf86de7789f","system_id":"levelo_inurba_marseille","lat":43.2803,"lon":5.36946,"is_reserved":false,"is_disabled":false,"rental_uris":{"android":"levelo://app?vid=a579f22c-42af-4cbb-b1a9-0cf86de7789f","ios":"levelo://app?vid=a579f22c-42af-4cbb-b1a9-0cf86de7789f"},"vehicle_type_id":"4","last_reported":1729883252,"current_range_meters":19600,"station_id":"ce4bha12rcd13ifvqef0","pricing_plan_id":"cebpf4jnsgd1na2vs0mg"},{"bike_id":"b2a76e7c-6aed-4b52-80bb-a0bf382c76cd","system_id":"levelo_inurba_marseille","lat":43.309396,"lon":5.40137,"is_reserved":false,"is_disabled":false,"rental_uris":{"android":"levelo://app?vid=b2a76e7c-6aed-4b52-80bb-a0bf382c76cd","ios":"levelo://app?vid=b2a76e7c-6aed-4b52-80bb-a0bf382c76cd"},"vehicle_type_id":"4","last_reported":1729883252,"current_range_meters":29600,"station_id":"ce4bgvp2rcd13ifvqct0","pricing_plan_id":"cebpf4jnsgd1na2vs0mg"},{"bike_id":"30a58045-5e86-4621-8a97-37f74aea516a","system_id":"levelo_inurba_marseille","lat":43.32361,"lon":5.38718,"is_reserved":false,"is_disabled":false,"rental_uris":{"android":"levelo://app?vid=30a58045-5e86-4621-8a97-37f74aea516a","ios":"levelo://app?vid=30a58045-5e86-4621-8a97-37f74aea516a"},"vehicle_type_id":"4","last_reported":1729883252,"current_range_meters":12400,"station_id":"","pricing_plan_id":"cebpf4jnsgd1na2vs0mg"},{"bike_id":"585bddab-23a5-4e78-9e57-9779c242dddb","system_id":"levelo_inurba_marseille","lat":43.29414,"lon":5.38632,"is_reserved":false,"is_disabled":false,"rental_uris":{"android":"levelo://app?vid=585bddab-23a5-4e78-9e57-9779c242dddb","ios":"levelo://app?vid=585bddab-23a5-4e78-9e57-9779c242dddb"},"vehicle_type_id":"4","last_reported":1729883252,"current_range_meters":36800,"station_id":"ce4bh2h2rcd13ifvqdh0","pricing_plan_id":"cebpf4jnsgd1na2vs0mg"},{"bike_id":"e0b18b6e-ce93-4742-a184-6aa34e85b991","system_id":"levelo_inurba_marseille","lat":43.25931,"lon":5.40917,"is_reserved":false,"is_disabled":false,"rental_uris":{"android":"levelo://app?vid=e0b18b6e-ce93-4742-a184-6aa34e85b991","ios":"levelo://app?vid=e0b18b6e-ce93-4742-a184-6aa34e85b991"},"vehicle_type_id":"4","last_reported":1729883252,"current_range_meters":38000,"station_id":"ce4bhm92rcd13ifvqglg","pricing_plan_id":"cebpf4jnsgd1na2vs0mg"},{"bike_id":"3183b1f0-8de9-42eb-a2d1-513f4e36eb83","system_id":"levelo_inurba_marseille","lat":43.2988,"lon":5.38914,"is_reserved":false,"is_disabled":false,"rental_uris":{"android":"levelo://app?vid=3183b1f0-8de9-42eb-a2d1-513f4e36eb83","ios":"levelo://app?vid=3183b1f0-8de9-42eb-a2d1-513f4e36eb83"},"vehicle_type_id":"4","last_reported":1729883252,"current_range_meters":22400,"station_id":"ce4bh392rcd13ifvqdl0","pricing_plan_id":"cebpf4jnsgd1na2vs0mg"},{"bike_id":"471266a0-81c1-4fef-9c96-c8f89bbce9dc","system_id":"levelo_inurba_marseille","lat":43.27991,"lon":5.41663,"is_reserved":false,"is_disabled":false,"rental_uris":{"android":"levelo://app?vid=471266a0-81c1-4fef-9c96-c8f89bbce9dc","ios":"levelo://app?vid=471266a0-81c1-4fef-9c96-c8f89bbce9dc"},"vehicle_type_id":"4","last_reported":1729883252,"current_range_meters":4400,"station_id":"ce4bho12rcd13ifvqh1g","pricing_plan_id":"cebpf4jnsgd1na2vs0mg"},{"bike_id":"7fd9032d-6b0f-4d6b-b8e0-23495d7481ec","system_id":"levelo_inurba_marseille","lat":43.29532,"lon":5.38552,"is_reserved":false,"is_disabled":false,"rental_uris":{"android":"levelo://app?vid=7fd9032d-6b0f-4d6b-b8e0-23495d7481ec","ios":"levelo://app?vid=7fd9032d-6b0f-4d6b-b8e0-23495d7481ec"},"vehicle_type_id":"4","last_reported":1729883252,"current_range_meters":15200,"station_id":"ce4bgih2rcd13ifvqba0","pricing_plan_id":"cebpf4jnsgd1na2vs0mg"},{"bike_id":"4e22b1f2-b744-4471-9588-d46e48170dbb","system_id":"levelo_inurba_marseille","lat":43.29526,"lon":5.38535,"is_reserved":false,"is_disabled":false,"rental_uris":{"android":"levelo://app?vid=4e22b1f2-b744-4471-9588-d46e48170dbb","ios":"levelo://app?vid=4e22b1f2-b744-4471-9588-d46e48170dbb"},"vehicle_type_id":"4","last_reported":1729883252,"current_range_meters":8000,"station_id":"ce4bgih2rcd13ifvqba0","pricing_plan_id":"cebpf4jnsgd1na2vs0mg"},{"bike_id":"ec517bc8-aab9-4441-9a5a-13b6295f2e39","system_id":"levelo_inurba_marseille","lat":43.22933,"lon":5.35376,"is_reserved":false,"is_disabled":false,"rental_uris":{"android":"levelo://app?vid=ec517bc8-aab9-4441-9a5a-13b6295f2e39","ios":"levelo://app?vid=ec517bc8-aab9-4441-9a5a-13b6295f2e39"},"vehicle_type_id":"4","last_reported":1729883252,"current_range_meters":38800,"station_id":"cpo3532slgdg3j2ikp40","pricing_plan_id":"cebpf4jnsgd1na2vs0mg"},{"bike_id":"617d8327-ea66-4b6c-a4ce-69c12f6e8052","system_id":"levelo_inurba_marseille","lat":43.30675,"lon":5.38208,"is_reserved":false,"is_disabled":false,"rental_uris":{"android":"levelo://app?vid=617d8327-ea66-4b6c-a4ce-69c12f6e8052","ios":"levelo://app?vid=617d8327-ea66-4b6c-a4ce-69c12f6e8052"},"vehicle_type_id":"4","last_reported":1729883252,"current_range_meters":8800,"station_id":"ce4bgh92rcd13ifvqb50","pricing_plan_id":"cebpf4jnsgd1na2vs0mg"},{"bike_id":"868711b4-ff65-4012-8906-fe575fb2a462","system_id":"levelo_inurba_marseille","lat":43.304372,"lon":5.388946,"is_reserved":false,"is_disabled":false,"rental_uris":{"android":"levelo://app?vid=868711b4-ff65-4012-8906-fe575fb2a462","ios":"levelo://app?vid=868711b4-ff65-4012-8906-fe575fb2a462"},"vehicle_type_id":"4","last_reported":1729883252,"current_range_meters":6000,"station_id":"ce4bgk12rcd13ifvqbi0","pricing_plan_id":"cebpf4jnsgd1na2vs0mg"},{"bike_id":"94b6cc63-b376-42e2-a4f5-f421dd5b9574","system_id":"levelo_inurba_marseille","lat":43.280397,"lon":5.369433,"is_reserved":false,"is_disabled":false,"rental_uris":{"android":"levelo://app?vid=94b6cc63-b376-42e2-a4f5-f421dd5b9574","ios":"levelo://app?vid=94b6cc63-b376-42e2-a4f5-f421dd5b9574"},"vehicle_type_id":"4","last_reported":1729883252,"current_range_meters":16800,"station_id":"ce4bha12rcd13ifvqef0","pricing_plan_id":"cebpf4jnsgd1na2vs0mg"},{"bike_id":"b9a3d8f1-373e-496f-a603-3b8a7b2fe558","system_id":"levelo_inurba_marseille","lat":43.25002,"lon":5.3893,"is_reserved":false,"is_disabled":false,"rental_uris":{"android":"levelo://app?vid=b9a3d8f1-373e-496f-a603-3b8a7b2fe558","ios":"levelo://app?vid=b9a3d8f1-373e-496f-a603-3b8a7b2fe558"},"vehicle_type_id":"4","last_reported":1729883252,"current_range_meters":39200,"station_id":"ce4bhgp2rcd13ifvqfd0","pricing_plan_id":"cebpf4jnsgd1na2vs0mg"},{"bike_id":"8168df86-428d-49f4-a611-33e53935f7ba","system_id":"levelo_inurba_marseille","lat":43.30541,"lon":5.36699,"is_reserved":false,"is_disabled":false,"rental_uris":{"android":"levelo://app?vid=8168df86-428d-49f4-a611-33e53935f7ba","ios":"levelo://app?vid=8168df86-428d-49f4-a611-33e53935f7ba"},"vehicle_type_id":"4","last_reported":1729883252,"current_range_meters":37600,"station_id":"ce4bgrp2rcd13ifvqc9g","pricing_plan_id":"cebpf4jnsgd1na2vs0mg"},{"bike_id":"6cb0d09c-4434-41fe-bab7-3f2ab7b0ac84","system_id":"levelo_inurba_marseille","lat":43.23055,"lon":5.35495,"is_reserved":false,"is_disabled":false,"rental_uris":{"android":"levelo://app?vid=6cb0d09c-4434-41fe-bab7-3f2ab7b0ac84","ios":"levelo://app?vid=6cb0d09c-4434-41fe-bab7-3f2ab7b0ac84"},"vehicle_type_id":"4","last_reported":1729883252,"current_range_meters":19200,"station_id":"cpo3342slgdg3j2ifvpg","pricing_plan_id":"cebpf4jnsgd1na2vs0mg"},{"bike_id":"7cc97833-90ae-4e00-9215-cdb57d72734d","system_id":"levelo_inurba_marseille","lat":43.29523,"lon":5.39033,"is_reserved":false,"is_disabled":false,"rental_uris":{"android":"levelo://app?vid=7cc97833-90ae-4e00-9215-cdb57d72734d","ios":"levelo://app?vid=7cc97833-90ae-4e00-9215-cdb57d72734d"},"vehicle_type_id":"4","last_reported":1729883252,"current_range_meters":38400,"station_id":"ce4bh3p2rcd13ifvqdp0","pricing_plan_id":"cebpf4jnsgd1na2vs0mg"},{"bike_id":"93d9c1a5-13fa-4234-9322-cf08e4c097b5","system_id":"levelo_inurba_marseille","lat":43.2988,"lon":5.38919,"is_reserved":false,"is_disabled":false,"rental_uris":{"android":"levelo://app?vid=93d9c1a5-13fa-4234-9322-cf08e4c097b5","ios":"levelo://app?vid=93d9c1a5-13fa-4234-9322-cf08e4c097b5"},"vehicle_type_id":"4","last_reported":1729883252,"current_range_meters":33200,"station_id":"ce4bh392rcd13ifvqdl0","pricing_plan_id":"cebpf4jnsgd1na2vs0mg"},{"bike_id":"28714978-4dce-46c8-9c95-88092c7e6a13","system_id":"levelo_inurba_marseille","lat":43.23191,"lon":5.35555,"is_reserved":false,"is_disabled":false,"rental_uris":{"android":"levelo://app?vid=28714978-4dce-46c8-9c95-88092c7e6a13","ios":"levelo://app?vid=28714978-4dce-46c8-9c95-88092c7e6a13"},"vehicle_type_id":"4","last_reported":1729883252,"current_range_meters":18800,"station_id":"ce4bhu92rcd13ifvqi70","pricing_plan_id":"cebpf4jnsgd1na2vs0mg"},{"bike_id":"e10f95dc-fe34-432c-bf99-71a472152cef","system_id":"levelo_inurba_marseille","lat":43.26807,"lon":5.40275,"is_reserved":false,"is_disabled":false,"rental_uris":{"android":"levelo://app?vid=e10f95dc-fe34-432c-bf99-71a472152cef","ios":"levelo://app?vid=e10f95dc-fe34-432c-bf99-71a472152cef"},"vehicle_type_id":"4","last_reported":1729883252,"current_range_meters":2000,"station_id":"ce501612rcd8frsf0b60","pricing_plan_id":"cebpf4jnsgd1na2vs0mg"},{"bike_id":"18f9983c-e504-4972-83b2-9253edd9d60f","system_id":"levelo_inurba_marseille","lat":43.322296,"lon":5.382956,"is_reserved":false,"is_disabled":false,"rental_uris":{"android":"levelo://app?vid=18f9983c-e504-4972-83b2-9253edd9d60f","ios":"levelo://app?vid=18f9983c-e504-4972-83b2-9253edd9d60f"},"vehicle_type_id":"4","last_reported":1729883252,"current_range_meters":29600,"station_id":"ce4bhr12rcd13ifvqhqg","pricing_plan_id":"cebpf4jnsgd1na2vs0mg"},{"bike_id":"160558ac-2fe6-4c40-84d0-fde01b475e41","system_id":"levelo_inurba_marseille","lat":43.2911,"lon":5.38129,"is_reserved":false,"is_disabled":false,"rental_uris":{"android":"levelo://app?vid=160558ac-2fe6-4c40-84d0-fde01b475e41","ios":"levelo://app?vid=160558ac-2fe6-4c40-84d0-fde01b475e41"},"vehicle_type_id":"4","last_reported":1729883252,"current_range_meters":29600,"station_id":"ce4bh512rcd13ifvqe2g","pricing_plan_id":"cebpf4jnsgd1na2vs0mg"},{"bike_id":"3e2a84ff-24d0-488d-95a3-9e6c597db637","system_id":"levelo_inurba_marseille","lat":43.29962,"lon":5.385,"is_reserved":false,"is_disabled":false,"rental_uris":{"android":"levelo://app?vid=3e2a84ff-24d0-488d-95a3-9e6c597db637","ios":"levelo://app?vid=3e2a84ff-24d0-488d-95a3-9e6c597db637"},"vehicle_type_id":"4","last_reported":1729883252,"current_range_meters":36400,"station_id":"ce4bgj92rcd13ifvqbd0","pricing_plan_id":"cebpf4jnsgd1na2vs0mg"},{"bike_id":"1eddc096-4e0d-4a67-a58f-388b7ad23292","system_id":"levelo_inurba_marseille","lat":43.29261,"lon":5.38442,"is_reserved":false,"is_disabled":false,"rental_uris":{"android":"levelo://app?vid=1eddc096-4e0d-4a67-a58f-388b7ad23292","ios":"levelo://app?vid=1eddc096-4e0d-4a67-a58f-388b7ad23292"},"vehicle_type_id":"4","last_reported":1729883252,"current_range_meters":11200,"station_id":"ce4bh692rcd13ifvqea0","pricing_plan_id":"cebpf4jnsgd1na2vs0mg"},{"bike_id":"ca1e4ac5-242f-4879-a126-e3702864bf9f","system_id":"levelo_inurba_marseille","lat":43.2657,"lon":5.39014,"is_reserved":false,"is_disabled":false,"rental_uris":{"android":"levelo://app?vid=ca1e4ac5-242f-4879-a126-e3702864bf9f","ios":"levelo://app?vid=ca1e4ac5-242f-4879-a126-e3702864bf9f"},"vehicle_type_id":"4","last_reported":1729883252,"current_range_meters":39200,"station_id":"ce4bhe12rcd13ifvqf30","pricing_plan_id":"cebpf4jnsgd1na2vs0mg"},{"bike_id":"abd43e3d-ad3e-4ac4-b89e-484cd8d44879","system_id":"levelo_inurba_marseille","lat":43.27069,"lon":5.42283,"is_reserved":false,"is_disabled":false,"rental_uris":{"android":"levelo://app?vid=abd43e3d-ad3e-4ac4-b89e-484cd8d44879","ios":"levelo://app?vid=abd43e3d-ad3e-4ac4-b89e-484cd8d44879"},"vehicle_type_id":"4","last_reported":1729883252,"current_range_meters":27600,"station_id":"ce4bhk92rcd13ifvqgb0","pricing_plan_id":"cebpf4jnsgd1na2vs0mg"},{"bike_id":"3ed92a29-5c44-4b6c-b46b-0d6d23a4fe6a","system_id":"levelo_inurba_marseille","lat":43.29556,"lon":5.42282,"is_reserved":false,"is_disabled":false,"rental_uris":{"android":"levelo://app?vid=3ed92a29-5c44-4b6c-b46b-0d6d23a4fe6a","ios":"levelo://app?vid=3ed92a29-5c44-4b6c-b46b-0d6d23a4fe6a"},"vehicle_type_id":"4","last_reported":1729883252,"current_range_meters":35600,"station_id":"ce4bhph2rcd13ifvqhdg","pricing_plan_id":"cebpf4jnsgd1na2vs0mg"},{"bike_id":"07d1e332-63a2-467e-88d9-4eaaeb91b8fb","system_id":"levelo_inurba_marseille","lat":43.31727,"lon":5.42404,"is_reserved":false,"is_disabled":false,"rental_uris":{"android":"levelo://app?vid=07d1e332-63a2-467e-88d9-4eaaeb91b8fb","ios":"levelo://app?vid=07d1e332-63a2-467e-88d9-4eaaeb91b8fb"},"vehicle_type_id":"4","last_reported":1729883252,"current_range_meters":38000,"station_id":"ce4bhp92rcd13ifvqhbg","pricing_plan_id":"cebpf4jnsgd1na2vs0mg"},{"bike_id":"aff91f51-608d-4a47-ae2d-de8203292322","system_id":"levelo_inurba_marseille","lat":43.31084,"lon":5.42419,"is_reserved":false,"is_disabled":false,"rental_uris":{"android":"levelo://app?vid=aff91f51-608d-4a47-ae2d-de8203292322","ios":"levelo://app?vid=aff91f51-608d-4a47-ae2d-de8203292322"},"vehicle_type_id":"4","last_reported":1729883252,"current_range_meters":14000,"station_id":"ce4bhp92rcd13ifvqhag","pricing_plan_id":"cebpf4jnsgd1na2vs0mg"},{"bike_id":"49c8c9ac-0d23-4ffb-8845-ed7257616396","system_id":"levelo_inurba_marseille","lat":43.279172,"lon":5.395814,"is_reserved":false,"is_disabled":false,"rental_uris":{"android":"levelo://app?vid=49c8c9ac-0d23-4ffb-8845-ed7257616396","ios":"levelo://app?vid=49c8c9ac-0d23-4ffb-8845-ed7257616396"},"vehicle_type_id":"4","last_reported":1729883252,"current_range_meters":28000,"station_id":"ce4bhf92rcd13ifvqf40","pricing_plan_id":"cebpf4jnsgd1na2vs0mg"},{"bike_id":"c4329532-0090-472b-b592-010648eb41e0","system_id":"levelo_inurba_marseille","lat":43.25003,"lon":5.38916,"is_reserved":false,"is_disabled":false,"rental_uris":{"android":"levelo://app?vid=c4329532-0090-472b-b592-010648eb41e0","ios":"levelo://app?vid=c4329532-0090-472b-b592-010648eb41e0"},"vehicle_type_id":"4","last_reported":1729883252,"current_range_meters":38800,"station_id":"ce4bhgp2rcd13ifvqfd0","pricing_plan_id":"cebpf4jnsgd1na2vs0mg"},{"bike_id":"9b05d30e-22f3-443f-9318-a3360d301af1","system_id":"levelo_inurba_marseille","lat":43.2782,"lon":5.40723,"is_reserved":false,"is_disabled":false,"rental_uris":{"android":"levelo://app?vid=9b05d30e-22f3-443f-9318-a3360d301af1","ios":"levelo://app?vid=9b05d30e-22f3-443f-9318-a3360d301af1"},"vehicle_type_id":"4","last_reported":1729883252,"current_range_meters":32000,"station_id":"ce4bhnh2rcd13ifvqgtg","pricing_plan_id":"cebpf4jnsgd1na2vs0mg"},{"bike_id":"d27cec62-1d00-43c5-a294-6ec7896d59e3","system_id":"levelo_inurba_marseille","lat":43.2926,"lon":5.38436,"is_reserved":false,"is_disabled":false,"rental_uris":{"android":"levelo://app?vid=d27cec62-1d00-43c5-a294-6ec7896d59e3","ios":"levelo://app?vid=d27cec62-1d00-43c5-a294-6ec7896d59e3"},"vehicle_type_id":"4","last_reported":1729883252,"current_range_meters":38800,"station_id":"ce4bh692rcd13ifvqea0","pricing_plan_id":"cebpf4jnsgd1na2vs0mg"},{"bike_id":"9cd0e2b0-d9e9-4a98-8925-6cb42648b3f1","system_id":"levelo_inurba_marseille","lat":43.2453,"lon":5.39505,"is_reserved":false,"is_disabled":false,"rental_uris":{"android":"levelo://app?vid=9cd0e2b0-d9e9-4a98-8925-6cb42648b3f1","ios":"levelo://app?vid=9cd0e2b0-d9e9-4a98-8925-6cb42648b3f1"},"vehicle_type_id":"4","last_reported":1729883252,"current_range_meters":15200,"station_id":"ce4bhlp2rcd13ifvqgjg","pricing_plan_id":"cebpf4jnsgd1na2vs0mg"},{"bike_id":"777e4b73-f0d5-4a5c-bd73-c27bd3f1ea62","system_id":"levelo_inurba_marseille","lat":43.29158,"lon":5.37157,"is_reserved":false,"is_disabled":false,"rental_uris":{"android":"levelo://app?vid=777e4b73-f0d5-4a5c-bd73-c27bd3f1ea62","ios":"levelo://app?vid=777e4b73-f0d5-4a5c-bd73-c27bd3f1ea62"},"vehicle_type_id":"4","last_reported":1729883252,"current_range_meters":9200,"station_id":"ce4bha92rcd13ifvqeh0","pricing_plan_id":"cebpf4jnsgd1na2vs0mg"},{"bike_id":"6ff8afb5-4784-4247-ad42-fc6d5c3739a9","system_id":"levelo_inurba_marseille","lat":43.29423,"lon":5.38619,"is_reserved":false,"is_disabled":false,"rental_uris":{"android":"levelo://app?vid=6ff8afb5-4784-4247-ad42-fc6d5c3739a9","ios":"levelo://app?vid=6ff8afb5-4784-4247-ad42-fc6d5c3739a9"},"vehicle_type_id":"4","last_reported":1729883252,"current_range_meters":17600,"station_id":"ce4bh2h2rcd13ifvqdh0","pricing_plan_id":"cebpf4jnsgd1na2vs0mg"},{"bike_id":"0f63b7b6-e848-443e-8837-2bcdfd518641","system_id":"levelo_inurba_marseille","lat":43.2656,"lon":5.37288,"is_reserved":false,"is_disabled":false,"rental_uris":{"android":"levelo://app?vid=0f63b7b6-e848-443e-8837-2bcdfd518641","ios":"levelo://app?vid=0f63b7b6-e848-443e-8837-2bcdfd518641"},"vehicle_type_id":"4","last_reported":1729883252,"current_range_meters":35200,"station_id":"ce4bhg12rcd13ifvqf70","pricing_plan_id":"cebpf4jnsgd1na2vs0mg"},{"bike_id":"25596ccd-8388-452e-9656-2a293e16965b","system_id":"levelo_inurba_marseille","lat":43.29523,"lon":5.38536,"is_reserved":false,"is_disabled":false,"rental_uris":{"android":"levelo://app?vid=25596ccd-8388-452e-9656-2a293e16965b","ios":"levelo://app?vid=25596ccd-8388-452e-9656-2a293e16965b"},"vehicle_type_id":"4","last_reported":1729883252,"current_range_meters":18800,"station_id":"ce4bgih2rcd13ifvqba0","pricing_plan_id":"cebpf4jnsgd1na2vs0mg"},{"bike_id":"5602e2ca-6524-49d7-acee-1364e8d9af55","system_id":"levelo_inurba_marseille","lat":43.28037,"lon":5.36946,"is_reserved":false,"is_disabled":false,"rental_uris":{"android":"levelo://app?vid=5602e2ca-6524-49d7-acee-1364e8d9af55","ios":"levelo://app?vid=5602e2ca-6524-49d7-acee-1364e8d9af55"},"vehicle_type_id":"4","last_reported":1729883252,"current_range_meters":26800,"station_id":"ce4bha12rcd13ifvqef0","pricing_plan_id":"cebpf4jnsgd1na2vs0mg"},{"bike_id":"78f272a1-2c74-4489-8c36-83bc93a6d452","system_id":"levelo_inurba_marseille","lat":43.23968,"lon":5.36623,"is_reserved":false,"is_disabled":false,"rental_uris":{"android":"levelo://app?vid=78f272a1-2c74-4489-8c36-83bc93a6d452","ios":"levelo://app?vid=78f272a1-2c74-4489-8c36-83bc93a6d452"},"vehicle_type_id":"4","last_reported":1729883252,"current_range_meters":19600,"station_id":"ce4bhi12rcd13ifvqfp0","pricing_plan_id":"cebpf4jnsgd1na2vs0mg"},{"bike_id":"efdd3aa0-e144-46ca-b8b0-257cd2be71e6","system_id":"levelo_inurba_marseille","lat":43.25583,"lon":5.38237,"is_reserved":false,"is_disabled":false,"rental_uris":{"android":"levelo://app?vid=efdd3aa0-e144-46ca-b8b0-257cd2be71e6","ios":"levelo://app?vid=efdd3aa0-e144-46ca-b8b0-257cd2be71e6"},"vehicle_type_id":"4","last_reported":1729883252,"current_range_meters":38000,"station_id":"ce4bhih2rcd13ifvqfs0","pricing_plan_id":"cebpf4jnsgd1na2vs0mg"},{"bike_id":"027af216-550e-4286-b50e-405ddd4991f8","system_id":"levelo_inurba_marseille","lat":43.27423,"lon":5.39411,"is_reserved":false,"is_disabled":false,"rental_uris":{"android":"levelo://app?vid=027af216-550e-4286-b50e-405ddd4991f8","ios":"levelo://app?vid=027af216-550e-4286-b50e-405ddd4991f8"},"vehicle_type_id":"4","last_reported":1729883252,"current_range_meters":8000,"station_id":"ce4bhdp2rcd13ifvqf20","pricing_plan_id":"cebpf4jnsgd1na2vs0mg"},{"bike_id":"a42b0bdd-1f10-437f-813e-02df169ed0a9","system_id":"levelo_inurba_marseille","lat":43.22933,"lon":5.35386,"is_reserved":false,"is_disabled":false,"rental_uris":{"android":"levelo://app?vid=a42b0bdd-1f10-437f-813e-02df169ed0a9","ios":"levelo://app?vid=a42b0bdd-1f10-437f-813e-02df169ed0a9"},"vehicle_type_id":"4","last_reported":1729883252,"current_range_meters":26800,"station_id":"cpo3532slgdg3j2ikp40","pricing_plan_id":"cebpf4jnsgd1na2vs0mg"},{"bike_id":"bb3cf711-4b9a-4346-a21f-120ee676afb8","system_id":"levelo_inurba_marseille","lat":43.29531,"lon":5.38547,"is_reserved":false,"is_disabled":false,"rental_uris":{"android":"levelo://app?vid=bb3cf711-4b9a-4346-a21f-120ee676afb8","ios":"levelo://app?vid=bb3cf711-4b9a-4346-a21f-120ee676afb8"},"vehicle_type_id":"4","last_reported":1729883252,"current_range_meters":35200,"station_id":"ce4bgih2rcd13ifvqba0","pricing_plan_id":"cebpf4jnsgd1na2vs0mg"},{"bike_id":"62062e19-20b5-42ac-b3f8-88925491c596","system_id":"levelo_inurba_marseille","lat":43.29005,"lon":5.3561,"is_reserved":false,"is_disabled":false,"rental_uris":{"android":"levelo://app?vid=62062e19-20b5-42ac-b3f8-88925491c596","ios":"levelo://app?vid=62062e19-20b5-42ac-b3f8-88925491c596"},"vehicle_type_id":"4","last_reported":1729883252,"current_range_meters":19200,"station_id":"ce4bhb92rcd13ifvqen0","pricing_plan_id":"cebpf4jnsgd1na2vs0mg"},{"bike_id":"7c69ef53-da66-4dc4-af18-978542ec31bd","system_id":"levelo_inurba_marseille","lat":43.279969,"lon":5.386777,"is_reserved":false,"is_disabled":false,"rental_uris":{"android":"levelo://app?vid=7c69ef53-da66-4dc4-af18-978542ec31bd","ios":"levelo://app?vid=7c69ef53-da66-4dc4-af18-978542ec31bd"},"vehicle_type_id":"4","last_reported":1729883252,"current_range_meters":29600,"station_id":"","pricing_plan_id":"cebpf4jnsgd1na2vs0mg"},{"bike_id":"b2901409-8e6d-4646-8c82-cc27683679c3","system_id":"levelo_inurba_marseille","lat":43.29262,"lon":5.38442,"is_reserved":false,"is_disabled":false,"rental_uris":{"android":"levelo://app?vid=b2901409-8e6d-4646-8c82-cc27683679c3","ios":"levelo://app?vid=b2901409-8e6d-4646-8c82-cc27683679c3"},"vehicle_type_id":"4","last_reported":1729883252,"current_range_meters":12400,"station_id":"ce4bh692rcd13ifvqea0","pricing_plan_id":"cebpf4jnsgd1na2vs0mg"},{"bike_id":"5f358f61-67b4-483a-857c-d197db71c9c4","system_id":"levelo_inurba_marseille","lat":43.301,"lon":5.39079,"is_reserved":false,"is_disabled":false,"rental_uris":{"android":"levelo://app?vid=5f358f61-67b4-483a-857c-d197db71c9c4","ios":"levelo://app?vid=5f358f61-67b4-483a-857c-d197db71c9c4"},"vehicle_type_id":"4","last_reported":1729883252,"current_range_meters":7200,"station_id":"ce4bh192rcd13ifvqdb0","pricing_plan_id":"cebpf4jnsgd1na2vs0mg"},{"bike_id":"bea14d1a-0cb1-4cb7-a923-6a066fa454eb","system_id":"levelo_inurba_marseille","lat":43.31995,"lon":5.38155,"is_reserved":false,"is_disabled":false,"rental_uris":{"android":"levelo://app?vid=bea14d1a-0cb1-4cb7-a923-6a066fa454eb","ios":"levelo://app?vid=bea14d1a-0cb1-4cb7-a923-6a066fa454eb"},"vehicle_type_id":"4","last_reported":1729883252,"current_range_meters":34000,"station_id":"ce4bhr12rcd13ifvqhpg","pricing_plan_id":"cebpf4jnsgd1na2vs0mg"},{"bike_id":"c0e554d9-55fa-422b-a700-8138dfa6e81f","system_id":"levelo_inurba_marseille","lat":43.28111,"lon":5.37836,"is_reserved":false,"is_disabled":false,"rental_uris":{"android":"levelo://app?vid=c0e554d9-55fa-422b-a700-8138dfa6e81f","ios":"levelo://app?vid=c0e554d9-55fa-422b-a700-8138dfa6e81f"},"vehicle_type_id":"4","last_reported":1729883252,"current_range_meters":7200,"station_id":"ce4bha12rcd13ifvqee0","pricing_plan_id":"cebpf4jnsgd1na2vs0mg"},{"bike_id":"14b32013-16c9-4a3a-9b24-38e904708fdb","system_id":"levelo_inurba_marseille","lat":43.28278,"lon":5.35074,"is_reserved":false,"is_disabled":false,"rental_uris":{"android":"levelo://app?vid=14b32013-16c9-4a3a-9b24-38e904708fdb","ios":"levelo://app?vid=14b32013-16c9-4a3a-9b24-38e904708fdb"},"vehicle_type_id":"4","last_reported":1729883252,"current_range_meters":25600,"station_id":"ce4bhbp2rcd13ifvqerg","pricing_plan_id":"cebpf4jnsgd1na2vs0mg"},{"bike_id":"19c3aeb8-d560-4388-9e80-397e00ab5d14","system_id":"levelo_inurba_marseille","lat":43.30412,"lon":5.41285,"is_reserved":false,"is_disabled":false,"rental_uris":{"android":"levelo://app?vid=19c3aeb8-d560-4388-9e80-397e00ab5d14","ios":"levelo://app?vid=19c3aeb8-d560-4388-9e80-397e00ab5d14"},"vehicle_type_id":"4","last_reported":1729883252,"current_range_meters":11200,"station_id":"ce4bhop2rcd13ifvqh8g","pricing_plan_id":"cebpf4jnsgd1na2vs0mg"},{"bike_id":"353dd1d1-aedf-4e9f-b96e-2d6c13c12501","system_id":"levelo_inurba_marseille","lat":43.25005,"lon":5.38916,"is_reserved":false,"is_disabled":false,"rental_uris":{"android":"levelo://app?vid=353dd1d1-aedf-4e9f-b96e-2d6c13c12501","ios":"levelo://app?vid=353dd1d1-aedf-4e9f-b96e-2d6c13c12501"},"vehicle_type_id":"4","last_reported":1729883252,"current_range_meters":13600,"station_id":"ce4bhgp2rcd13ifvqfd0","pricing_plan_id":"cebpf4jnsgd1na2vs0mg"},{"bike_id":"c280d134-d9f0-4b63-868a-9b65ba385550","system_id":"levelo_inurba_marseille","lat":43.2791,"lon":5.39596,"is_reserved":false,"is_disabled":false,"rental_uris":{"android":"levelo://app?vid=c280d134-d9f0-4b63-868a-9b65ba385550","ios":"levelo://app?vid=c280d134-d9f0-4b63-868a-9b65ba385550"},"vehicle_type_id":"4","last_reported":1729883252,"current_range_meters":20800,"station_id":"ce4bhf92rcd13ifvqf40","pricing_plan_id":"cebpf4jnsgd1na2vs0mg"},{"bike_id":"9547fe9f-7da9-478b-9033-f446ea71bb69","system_id":"levelo_inurba_marseille","lat":43.31081,"lon":5.42429,"is_reserved":false,"is_disabled":false,"rental_uris":{"android":"levelo://app?vid=9547fe9f-7da9-478b-9033-f446ea71bb69","ios":"levelo://app?vid=9547fe9f-7da9-478b-9033-f446ea71bb69"},"vehicle_type_id":"4","last_reported":1729883252,"current_range_meters":36400,"station_id":"ce4bhp92rcd13ifvqhag","pricing_plan_id":"cebpf4jnsgd1na2vs0mg"},{"bike_id":"df68c236-3429-47dc-8d0d-da0fa7924a52","system_id":"levelo_inurba_marseille","lat":43.29424,"lon":5.3863,"is_reserved":false,"is_disabled":false,"rental_uris":{"android":"levelo://app?vid=df68c236-3429-47dc-8d0d-da0fa7924a52","ios":"levelo://app?vid=df68c236-3429-47dc-8d0d-da0fa7924a52"},"vehicle_type_id":"4","last_reported":1729883252,"current_range_meters":38800,"station_id":"ce4bh2h2rcd13ifvqdh0","pricing_plan_id":"cebpf4jnsgd1na2vs0mg"},{"bike_id":"914712da-9129-49a4-ad21-34c49f788602","system_id":"levelo_inurba_marseille","lat":43.30884,"lon":5.39639,"is_reserved":false,"is_disabled":false,"rental_uris":{"android":"levelo://app?vid=914712da-9129-49a4-ad21-34c49f788602","ios":"levelo://app?vid=914712da-9129-49a4-ad21-34c49f788602"},"vehicle_type_id":"4","last_reported":1729883252,"current_range_meters":36800,"station_id":"ce4bh012rcd13ifvqcv0","pricing_plan_id":"cebpf4jnsgd1na2vs0mg"},{"bike_id":"58afcffd-31ed-44e7-99ff-2fa445db19b3","system_id":"levelo_inurba_marseille","lat":43.29864,"lon":5.39728,"is_reserved":false,"is_disabled":false,"rental_uris":{"android":"levelo://app?vid=58afcffd-31ed-44e7-99ff-2fa445db19b3","ios":"levelo://app?vid=58afcffd-31ed-44e7-99ff-2fa445db19b3"},"vehicle_type_id":"4","last_reported":1729883252,"current_range_meters":22400,"station_id":"ce4bh0h2rcd13ifvqd50","pricing_plan_id":"cebpf4jnsgd1na2vs0mg"},{"bike_id":"866b0d50-2d2d-4bb2-aa91-ede19b59e424","system_id":"levelo_inurba_marseille","lat":43.32367,"lon":5.3888,"is_reserved":false,"is_disabled":false,"rental_uris":{"android":"levelo://app?vid=866b0d50-2d2d-4bb2-aa91-ede19b59e424","ios":"levelo://app?vid=866b0d50-2d2d-4bb2-aa91-ede19b59e424"},"vehicle_type_id":"4","last_reported":1729883252,"current_range_meters":12800,"station_id":"ce4bhqp2rcd13ifvqhog","pricing_plan_id":"cebpf4jnsgd1na2vs0mg"},{"bike_id":"e7171bfa-2706-4150-9123-4c723fc48a77","system_id":"levelo_inurba_marseille","lat":43.28489,"lon":5.3856,"is_reserved":false,"is_disabled":false,"rental_uris":{"android":"levelo://app?vid=e7171bfa-2706-4150-9123-4c723fc48a77","ios":"levelo://app?vid=e7171bfa-2706-4150-9123-4c723fc48a77"},"vehicle_type_id":"4","last_reported":1729883252,"current_range_meters":30400,"station_id":"ce4bh8p2rcd13ifvqeb0","pricing_plan_id":"cebpf4jnsgd1na2vs0mg"},{"bike_id":"8103576e-0269-406f-a494-64dbeba7bbc1","system_id":"levelo_inurba_marseille","lat":43.290199,"lon":5.37782,"is_reserved":false,"is_disabled":false,"rental_uris":{"android":"levelo://app?vid=8103576e-0269-406f-a494-64dbeba7bbc1","ios":"levelo://app?vid=8103576e-0269-406f-a494-64dbeba7bbc1"},"vehicle_type_id":"4","last_reported":1729883252,"current_range_meters":30800,"station_id":"ce4bh9p2rcd13ifvqed0","pricing_plan_id":"cebpf4jnsgd1na2vs0mg"},{"bike_id":"51eb24a5-d36b-4170-8fba-5def4da9dac7","system_id":"levelo_inurba_marseille","lat":43.29506,"lon":5.39042,"is_reserved":false,"is_disabled":false,"rental_uris":{"android":"levelo://app?vid=51eb24a5-d36b-4170-8fba-5def4da9dac7","ios":"levelo://app?vid=51eb24a5-d36b-4170-8fba-5def4da9dac7"},"vehicle_type_id":"4","last_reported":1729883252,"current_range_meters":38800,"station_id":"ce4bh3p2rcd13ifvqdp0","pricing_plan_id":"cebpf4jnsgd1na2vs0mg"},{"bike_id":"31b7db78-d83e-4bcc-a6e2-1a7a1428b1d6","system_id":"levelo_inurba_marseille","lat":43.32106,"lon":5.3677,"is_reserved":false,"is_disabled":false,"rental_uris":{"android":"levelo://app?vid=31b7db78-d83e-4bcc-a6e2-1a7a1428b1d6","ios":"levelo://app?vid=31b7db78-d83e-4bcc-a6e2-1a7a1428b1d6"},"vehicle_type_id":"4","last_reported":1729883252,"current_range_meters":6400,"station_id":"ce4bhrh2rcd13ifvqhug","pricing_plan_id":"cebpf4jnsgd1na2vs0mg"},{"bike_id":"9598a712-aa7d-43cb-9011-7a638f6120b9","system_id":"levelo_inurba_marseille","lat":43.29533,"lon":5.38549,"is_reserved":false,"is_disabled":false,"rental_uris":{"android":"levelo://app?vid=9598a712-aa7d-43cb-9011-7a638f6120b9","ios":"levelo://app?vid=9598a712-aa7d-43cb-9011-7a638f6120b9"},"vehicle_type_id":"4","last_reported":1729883252,"current_range_meters":38800,"station_id":"ce4bgih2rcd13ifvqba0","pricing_plan_id":"cebpf4jnsgd1na2vs0mg"},{"bike_id":"9560fb23-167e-4252-a9e6-2968b2b55f53","system_id":"levelo_inurba_marseille","lat":43.28455,"lon":5.35893,"is_reserved":false,"is_disabled":false,"rental_uris":{"android":"levelo://app?vid=9560fb23-167e-4252-a9e6-2968b2b55f53","ios":"levelo://app?vid=9560fb23-167e-4252-a9e6-2968b2b55f53"},"vehicle_type_id":"4","last_reported":1729883252,"current_range_meters":32000,"station_id":"ce4bhah2rcd13ifvqei0","pricing_plan_id":"cebpf4jnsgd1na2vs0mg"},{"bike_id":"a3eeba97-8d75-45c7-8ce4-166d75a9b74d","system_id":"levelo_inurba_marseille","lat":43.29526,"lon":5.38547,"is_reserved":false,"is_disabled":false,"rental_uris":{"android":"levelo://app?vid=a3eeba97-8d75-45c7-8ce4-166d75a9b74d","ios":"levelo://app?vid=a3eeba97-8d75-45c7-8ce4-166d75a9b74d"},"vehicle_type_id":"4","last_reported":1729883252,"current_range_meters":38800,"station_id":"ce4bgih2rcd13ifvqba0","pricing_plan_id":"cebpf4jnsgd1na2vs0mg"},{"bike_id":"7ed179a5-09db-442c-b1b3-3e5dd21573fb","system_id":"levelo_inurba_marseille","lat":43.29899,"lon":5.43665,"is_reserved":false,"is_disabled":false,"rental_uris":{"android":"levelo://app?vid=7ed179a5-09db-442c-b1b3-3e5dd21573fb","ios":"levelo://app?vid=7ed179a5-09db-442c-b1b3-3e5dd21573fb"},"vehicle_type_id":"4","last_reported":1729883252,"current_range_meters":6400,"station_id":"ce4bhpp2rcd13ifvqhfg","pricing_plan_id":"cebpf4jnsgd1na2vs0mg"},{"bike_id":"81bf64e0-fa04-4a2e-907a-c2ef7df0cc84","system_id":"levelo_inurba_marseille","lat":43.24653,"lon":5.38893,"is_reserved":false,"is_disabled":false,"rental_uris":{"android":"levelo://app?vid=81bf64e0-fa04-4a2e-907a-c2ef7df0cc84","ios":"levelo://app?vid=81bf64e0-fa04-4a2e-907a-c2ef7df0cc84"},"vehicle_type_id":"4","last_reported":1729883252,"current_range_meters":23200,"station_id":"ce4bhg12rcd13ifvqf60","pricing_plan_id":"cebpf4jnsgd1na2vs0mg"},{"bike_id":"8c58003e-4940-422f-9c3f-32a309a7b04c","system_id":"levelo_inurba_marseille","lat":43.27315,"lon":5.39072,"is_reserved":false,"is_disabled":false,"rental_uris":{"android":"levelo://app?vid=8c58003e-4940-422f-9c3f-32a309a7b04c","ios":"levelo://app?vid=8c58003e-4940-422f-9c3f-32a309a7b04c"},"vehicle_type_id":"4","last_reported":1729883252,"current_range_meters":16800,"station_id":"ce4bhgp2rcd13ifvqfe0","pricing_plan_id":"cebpf4jnsgd1na2vs0mg"},{"bike_id":"7691659f-eea1-4b4d-8db5-2728fcde3a23","system_id":"levelo_inurba_marseille","lat":43.29583,"lon":5.36562,"is_reserved":false,"is_disabled":false,"rental_uris":{"android":"levelo://app?vid=7691659f-eea1-4b4d-8db5-2728fcde3a23","ios":"levelo://app?vid=7691659f-eea1-4b4d-8db5-2728fcde3a23"},"vehicle_type_id":"4","last_reported":1729883252,"current_range_meters":27600,"station_id":"","pricing_plan_id":"cebpf4jnsgd1na2vs0mg"},{"bike_id":"f4dd5c52-4716-4541-bfaa-6c89b9978680","system_id":"levelo_inurba_marseille","lat":43.33022,"lon":5.39036,"is_reserved":false,"is_disabled":false,"rental_uris":{"android":"levelo://app?vid=f4dd5c52-4716-4541-bfaa-6c89b9978680","ios":"levelo://app?vid=f4dd5c52-4716-4541-bfaa-6c89b9978680"},"vehicle_type_id":"4","last_reported":1729883252,"current_range_meters":29600,"station_id":"ce4bhr92rcd13ifvqhrg","pricing_plan_id":"cebpf4jnsgd1na2vs0mg"},{"bike_id":"7d7d8885-dfec-4c17-bf5f-5ff0639a5634","system_id":"levelo_inurba_marseille","lat":43.28276,"lon":5.35065,"is_reserved":false,"is_disabled":false,"rental_uris":{"android":"levelo://app?vid=7d7d8885-dfec-4c17-bf5f-5ff0639a5634","ios":"levelo://app?vid=7d7d8885-dfec-4c17-bf5f-5ff0639a5634"},"vehicle_type_id":"4","last_reported":1729883252,"current_range_meters":38400,"station_id":"ce4bhbp2rcd13ifvqerg","pricing_plan_id":"cebpf4jnsgd1na2vs0mg"},{"bike_id":"56a7f1a0-f6e2-45e0-bad1-cf4d54572b54","system_id":"levelo_inurba_marseille","lat":43.32366,"lon":5.38883,"is_reserved":false,"is_disabled":false,"rental_uris":{"android":"levelo://app?vid=56a7f1a0-f6e2-45e0-bad1-cf4d54572b54","ios":"levelo://app?vid=56a7f1a0-f6e2-45e0-bad1-cf4d54572b54"},"vehicle_type_id":"4","last_reported":1729883252,"current_range_meters":28800,"station_id":"ce4bhqp2rcd13ifvqhog","pricing_plan_id":"cebpf4jnsgd1na2vs0mg"},{"bike_id":"a105fe2b-c050-45cc-8d79-e25758638f0b","system_id":"levelo_inurba_marseille","lat":43.25006,"lon":5.38935,"is_reserved":false,"is_disabled":false,"rental_uris":{"android":"levelo://app?vid=a105fe2b-c050-45cc-8d79-e25758638f0b","ios":"levelo://app?vid=a105fe2b-c050-45cc-8d79-e25758638f0b"},"vehicle_type_id":"4","last_reported":1729883252,"current_range_meters":38800,"station_id":"ce4bhgp2rcd13ifvqfd0","pricing_plan_id":"cebpf4jnsgd1na2vs0mg"},{"bike_id":"d8e378e4-0f82-45ca-815a-cf84f7dd6091","system_id":"levelo_inurba_marseille","lat":43.29879,"lon":5.39718,"is_reserved":false,"is_disabled":false,"rental_uris":{"android":"levelo://app?vid=d8e378e4-0f82-45ca-815a-cf84f7dd6091","ios":"levelo://app?vid=d8e378e4-0f82-45ca-815a-cf84f7dd6091"},"vehicle_type_id":"4","last_reported":1729883252,"current_range_meters":18000,"station_id":"ce4bh0h2rcd13ifvqd50","pricing_plan_id":"cebpf4jnsgd1na2vs0mg"},{"bike_id":"32366732-5f4b-4b66-8da6-abdbd8569264","system_id":"levelo_inurba_marseille","lat":43.33028,"lon":5.39039,"is_reserved":false,"is_disabled":false,"rental_uris":{"android":"levelo://app?vid=32366732-5f4b-4b66-8da6-abdbd8569264","ios":"levelo://app?vid=32366732-5f4b-4b66-8da6-abdbd8569264"},"vehicle_type_id":"4","last_reported":1729883252,"current_range_meters":38800,"station_id":"ce4bhr92rcd13ifvqhrg","pricing_plan_id":"cebpf4jnsgd1na2vs0mg"},{"bike_id":"ad57788a-4ef0-4e32-98d8-cb07c118f91d","system_id":"levelo_inurba_marseille","lat":43.29728,"lon":5.37693,"is_reserved":false,"is_disabled":false,"rental_uris":{"android":"levelo://app?vid=ad57788a-4ef0-4e32-98d8-cb07c118f91d","ios":"levelo://app?vid=ad57788a-4ef0-4e32-98d8-cb07c118f91d"},"vehicle_type_id":"4","last_reported":1729883252,"current_range_meters":36400,"station_id":"ce4bgi92rcd13ifvqb90","pricing_plan_id":"cebpf4jnsgd1na2vs0mg"},{"bike_id":"4e301a82-7f9f-42c2-b232-7bbee5f7fd6d","system_id":"levelo_inurba_marseille","lat":43.23779,"lon":5.37385,"is_reserved":false,"is_disabled":false,"rental_uris":{"android":"levelo://app?vid=4e301a82-7f9f-42c2-b232-7bbee5f7fd6d","ios":"levelo://app?vid=4e301a82-7f9f-42c2-b232-7bbee5f7fd6d"},"vehicle_type_id":"4","last_reported":1729883252,"current_range_meters":26000,"station_id":"","pricing_plan_id":"cebpf4jnsgd1na2vs0mg"},{"bike_id":"8ef51d86-e078-426f-a802-85b3dfb3859a","system_id":"levelo_inurba_marseille","lat":43.283608,"lon":5.386467,"is_reserved":false,"is_disabled":false,"rental_uris":{"android":"levelo://app?vid=8ef51d86-e078-426f-a802-85b3dfb3859a","ios":"levelo://app?vid=8ef51d86-e078-426f-a802-85b3dfb3859a"},"vehicle_type_id":"4","last_reported":1729883252,"current_range_meters":28800,"station_id":"ce4bh492rcd13ifvqdvg","pricing_plan_id":"cebpf4jnsgd1na2vs0mg"},{"bike_id":"18cd883a-f1cd-4f34-98dc-7580d7e4256d","system_id":"levelo_inurba_marseille","lat":43.24645,"lon":5.38894,"is_reserved":false,"is_disabled":false,"rental_uris":{"android":"levelo://app?vid=18cd883a-f1cd-4f34-98dc-7580d7e4256d","ios":"levelo://app?vid=18cd883a-f1cd-4f34-98dc-7580d7e4256d"},"vehicle_type_id":"4","last_reported":1729883252,"current_range_meters":30800,"station_id":"ce4bhg12rcd13ifvqf60","pricing_plan_id":"cebpf4jnsgd1na2vs0mg"},{"bike_id":"f0fc82ca-f5ec-4e02-8e94-135a203ff8d2","system_id":"levelo_inurba_marseille","lat":43.24812,"lon":5.37458,"is_reserved":false,"is_disabled":false,"rental_uris":{"android":"levelo://app?vid=f0fc82ca-f5ec-4e02-8e94-135a203ff8d2","ios":"levelo://app?vid=f0fc82ca-f5ec-4e02-8e94-135a203ff8d2"},"vehicle_type_id":"4","last_reported":1729883252,"current_range_meters":38800,"station_id":"ce4bhgh2rcd13ifvqfb0","pricing_plan_id":"cebpf4jnsgd1na2vs0mg"},{"bike_id":"4bed707c-d39c-4ff0-ab65-67885b0a805d","system_id":"levelo_inurba_marseille","lat":43.28482,"lon":5.38413,"is_reserved":false,"is_disabled":false,"rental_uris":{"android":"levelo://app?vid=4bed707c-d39c-4ff0-ab65-67885b0a805d","ios":"levelo://app?vid=4bed707c-d39c-4ff0-ab65-67885b0a805d"},"vehicle_type_id":"4","last_reported":1729883252,"current_range_meters":18000,"station_id":"ce4bh512rcd13ifvqe3g","pricing_plan_id":"cebpf4jnsgd1na2vs0mg"},{"bike_id":"66f020ae-5526-4ad0-8af9-6a968240ac52","system_id":"levelo_inurba_marseille","lat":43.32483,"lon":5.3657,"is_reserved":false,"is_disabled":false,"rental_uris":{"android":"levelo://app?vid=66f020ae-5526-4ad0-8af9-6a968240ac52","ios":"levelo://app?vid=66f020ae-5526-4ad0-8af9-6a968240ac52"},"vehicle_type_id":"4","last_reported":1729883252,"current_range_meters":36400,"station_id":"ce4bhs12rcd13ifvqhvg","pricing_plan_id":"cebpf4jnsgd1na2vs0mg"},{"bike_id":"20cf6f1c-7236-412b-8689-5f9328ef8039","system_id":"levelo_inurba_marseille","lat":43.29258,"lon":5.38447,"is_reserved":false,"is_disabled":false,"rental_uris":{"android":"levelo://app?vid=20cf6f1c-7236-412b-8689-5f9328ef8039","ios":"levelo://app?vid=20cf6f1c-7236-412b-8689-5f9328ef8039"},"vehicle_type_id":"4","last_reported":1729883252,"current_range_meters":8400,"station_id":"ce4bh692rcd13ifvqea0","pricing_plan_id":"cebpf4jnsgd1na2vs0mg"},{"bike_id":"1aac1f7a-a64c-43c7-9fea-28291f50e750","system_id":"levelo_inurba_marseille","lat":43.29527,"lon":5.38544,"is_reserved":false,"is_disabled":false,"rental_uris":{"android":"levelo://app?vid=1aac1f7a-a64c-43c7-9fea-28291f50e750","ios":"levelo://app?vid=1aac1f7a-a64c-43c7-9fea-28291f50e750"},"vehicle_type_id":"4","last_reported":1729883252,"current_range_meters":38800,"station_id":"ce4bgih2rcd13ifvqba0","pricing_plan_id":"cebpf4jnsgd1na2vs0mg"},{"bike_id":"a4916ca8-8cea-41ca-9bd0-83ea66e6f362","system_id":"levelo_inurba_marseille","lat":43.22937,"lon":5.35377,"is_reserved":false,"is_disabled":false,"rental_uris":{"android":"levelo://app?vid=a4916ca8-8cea-41ca-9bd0-83ea66e6f362","ios":"levelo://app?vid=a4916ca8-8cea-41ca-9bd0-83ea66e6f362"},"vehicle_type_id":"4","last_reported":1729883252,"current_range_meters":38800,"station_id":"cpo3532slgdg3j2ikp40","pricing_plan_id":"cebpf4jnsgd1na2vs0mg"},{"bike_id":"a9d80a19-88db-4d40-8b71-4a0311146273","system_id":"levelo_inurba_marseille","lat":43.28413,"lon":5.34978,"is_reserved":false,"is_disabled":false,"rental_uris":{"android":"levelo://app?vid=a9d80a19-88db-4d40-8b71-4a0311146273","ios":"levelo://app?vid=a9d80a19-88db-4d40-8b71-4a0311146273"},"vehicle_type_id":"4","last_reported":1729883252,"current_range_meters":7200,"station_id":"ce4bhbh2rcd13ifvqepg","pricing_plan_id":"cebpf4jnsgd1na2vs0mg"},{"bike_id":"56fb39bc-aaac-4d91-898d-044322bdc618","system_id":"levelo_inurba_marseille","lat":43.30805,"lon":5.43521,"is_reserved":false,"is_disabled":false,"rental_uris":{"android":"levelo://app?vid=56fb39bc-aaac-4d91-898d-044322bdc618","ios":"levelo://app?vid=56fb39bc-aaac-4d91-898d-044322bdc618"},"vehicle_type_id":"4","last_reported":1729883252,"current_range_meters":22000,"station_id":"ce4bhph2rcd13ifvqheg","pricing_plan_id":"cebpf4jnsgd1na2vs0mg"},{"bike_id":"19bd8ade-2c53-47ee-9430-afe5409ecd59","system_id":"levelo_inurba_marseille","lat":43.29861,"lon":5.3974,"is_reserved":false,"is_disabled":false,"rental_uris":{"android":"levelo://app?vid=19bd8ade-2c53-47ee-9430-afe5409ecd59","ios":"levelo://app?vid=19bd8ade-2c53-47ee-9430-afe5409ecd59"},"vehicle_type_id":"4","last_reported":1729883252,"current_range_meters":35200,"station_id":"ce4bh0h2rcd13ifvqd50","pricing_plan_id":"cebpf4jnsgd1na2vs0mg"},{"bike_id":"a3bda255-9938-4c59-b96b-910ba5463f40","system_id":"levelo_inurba_marseille","lat":43.29264,"lon":5.38445,"is_reserved":false,"is_disabled":false,"rental_uris":{"android":"levelo://app?vid=a3bda255-9938-4c59-b96b-910ba5463f40","ios":"levelo://app?vid=a3bda255-9938-4c59-b96b-910ba5463f40"},"vehicle_type_id":"4","last_reported":1729883252,"current_range_meters":18000,"station_id":"ce4bh692rcd13ifvqea0","pricing_plan_id":"cebpf4jnsgd1na2vs0mg"},{"bike_id":"08ae32d7-3fe4-4b3d-97a1-bb54eee5b5c5","system_id":"levelo_inurba_marseille","lat":43.29031,"lon":5.38646,"is_reserved":false,"is_disabled":false,"rental_uris":{"android":"levelo://app?vid=08ae32d7-3fe4-4b3d-97a1-bb54eee5b5c5","ios":"levelo://app?vid=08ae32d7-3fe4-4b3d-97a1-bb54eee5b5c5"},"vehicle_type_id":"4","last_reported":1729883252,"current_range_meters":36400,"station_id":"ce4bh4p2rcd13ifvqe0g","pricing_plan_id":"cebpf4jnsgd1na2vs0mg"},{"bike_id":"4251a455-6a51-4266-a828-feb5d7a95895","system_id":"levelo_inurba_marseille","lat":43.27065,"lon":5.42282,"is_reserved":false,"is_disabled":false,"rental_uris":{"android":"levelo://app?vid=4251a455-6a51-4266-a828-feb5d7a95895","ios":"levelo://app?vid=4251a455-6a51-4266-a828-feb5d7a95895"},"vehicle_type_id":"4","last_reported":1729883252,"current_range_meters":37600,"station_id":"ce4bhk92rcd13ifvqgb0","pricing_plan_id":"cebpf4jnsgd1na2vs0mg"},{"bike_id":"b69629f5-3119-4609-ab12-4016242cb5ca","system_id":"levelo_inurba_marseille","lat":43.27071,"lon":5.42274,"is_reserved":false,"is_disabled":false,"rental_uris":{"android":"levelo://app?vid=b69629f5-3119-4609-ab12-4016242cb5ca","ios":"levelo://app?vid=b69629f5-3119-4609-ab12-4016242cb5ca"},"vehicle_type_id":"4","last_reported":1729883252,"current_range_meters":39200,"station_id":"ce4bhk92rcd13ifvqgb0","pricing_plan_id":"cebpf4jnsgd1na2vs0mg"},{"bike_id":"a177cf92-fe46-44a6-8fe0-6df07ad8a3cd","system_id":"levelo_inurba_marseille","lat":43.27072,"lon":5.42279,"is_reserved":false,"is_disabled":false,"rental_uris":{"android":"levelo://app?vid=a177cf92-fe46-44a6-8fe0-6df07ad8a3cd","ios":"levelo://app?vid=a177cf92-fe46-44a6-8fe0-6df07ad8a3cd"},"vehicle_type_id":"4","last_reported":1729883252,"current_range_meters":35200,"station_id":"ce4bhk92rcd13ifvqgb0","pricing_plan_id":"cebpf4jnsgd1na2vs0mg"},{"bike_id":"f4aeffd8-297a-4b4d-b6de-b284ffe5d030","system_id":"levelo_inurba_marseille","lat":43.306399,"lon":5.400865,"is_reserved":false,"is_disabled":false,"rental_uris":{"android":"levelo://app?vid=f4aeffd8-297a-4b4d-b6de-b284ffe5d030","ios":"levelo://app?vid=f4aeffd8-297a-4b4d-b6de-b284ffe5d030"},"vehicle_type_id":"4","last_reported":1729883252,"current_range_meters":12800,"station_id":"ce4bh112rcd13ifvqda0","pricing_plan_id":"cebpf4jnsgd1na2vs0mg"},{"bike_id":"a7252672-a099-47a8-bf64-30cffbe35ff3","system_id":"levelo_inurba_marseille","lat":43.25724,"lon":5.41117,"is_reserved":false,"is_disabled":false,"rental_uris":{"android":"levelo://app?vid=a7252672-a099-47a8-bf64-30cffbe35ff3","ios":"levelo://app?vid=a7252672-a099-47a8-bf64-30cffbe35ff3"},"vehicle_type_id":"4","last_reported":1729883252,"current_range_meters":2000,"station_id":"ce4bhkp2rcd13ifvqgd0","pricing_plan_id":"cebpf4jnsgd1na2vs0mg"},{"bike_id":"796f8dd0-51fd-43ab-9f2a-34d09bce254c","system_id":"levelo_inurba_marseille","lat":43.29968,"lon":5.38499,"is_reserved":false,"is_disabled":false,"rental_uris":{"android":"levelo://app?vid=796f8dd0-51fd-43ab-9f2a-34d09bce254c","ios":"levelo://app?vid=796f8dd0-51fd-43ab-9f2a-34d09bce254c"},"vehicle_type_id":"4","last_reported":1729883252,"current_range_meters":13600,"station_id":"ce4bgj92rcd13ifvqbd0","pricing_plan_id":"cebpf4jnsgd1na2vs0mg"},{"bike_id":"a8be9e79-195a-451a-86ec-5c494e9f3ff8","system_id":"levelo_inurba_marseille","lat":43.30894,"lon":5.37196,"is_reserved":false,"is_disabled":false,"rental_uris":{"android":"levelo://app?vid=a8be9e79-195a-451a-86ec-5c494e9f3ff8","ios":"levelo://app?vid=a8be9e79-195a-451a-86ec-5c494e9f3ff8"},"vehicle_type_id":"4","last_reported":1729883252,"current_range_meters":8400,"station_id":"ce4bguh2rcd13ifvqckg","pricing_plan_id":"cebpf4jnsgd1na2vs0mg"},{"bike_id":"29120b34-ae3f-43b1-b9ac-3992580b64e2","system_id":"levelo_inurba_marseille","lat":43.30905,"lon":5.36849,"is_reserved":false,"is_disabled":false,"rental_uris":{"android":"levelo://app?vid=29120b34-ae3f-43b1-b9ac-3992580b64e2","ios":"levelo://app?vid=29120b34-ae3f-43b1-b9ac-3992580b64e2"},"vehicle_type_id":"4","last_reported":1729883252,"current_range_meters":15200,"station_id":"ce4bgn92rcd13ifvqbvg","pricing_plan_id":"cebpf4jnsgd1na2vs0mg"},{"bike_id":"f68f9a5d-9f6f-4e9b-a260-c646a873f52f","system_id":"levelo_inurba_marseille","lat":43.2481,"lon":5.37459,"is_reserved":false,"is_disabled":false,"rental_uris":{"android":"levelo://app?vid=f68f9a5d-9f6f-4e9b-a260-c646a873f52f","ios":"levelo://app?vid=f68f9a5d-9f6f-4e9b-a260-c646a873f52f"},"vehicle_type_id":"4","last_reported":1729883252,"current_range_meters":38800,"station_id":"ce4bhgh2rcd13ifvqfb0","pricing_plan_id":"cebpf4jnsgd1na2vs0mg"},{"bike_id":"8b34db6e-7ac5-421b-8140-e12375d73aa9","system_id":"levelo_inurba_marseille","lat":43.29534,"lon":5.38538,"is_reserved":false,"is_disabled":false,"rental_uris":{"android":"levelo://app?vid=8b34db6e-7ac5-421b-8140-e12375d73aa9","ios":"levelo://app?vid=8b34db6e-7ac5-421b-8140-e12375d73aa9"},"vehicle_type_id":"4","last_reported":1729883252,"current_range_meters":26000,"station_id":"ce4bgih2rcd13ifvqba0","pricing_plan_id":"cebpf4jnsgd1na2vs0mg"},{"bike_id":"c7397917-ecbe-40af-b69b-093ada4bcf72","system_id":"levelo_inurba_marseille","lat":43.27071,"lon":5.42284,"is_reserved":false,"is_disabled":false,"rental_uris":{"android":"levelo://app?vid=c7397917-ecbe-40af-b69b-093ada4bcf72","ios":"levelo://app?vid=c7397917-ecbe-40af-b69b-093ada4bcf72"},"vehicle_type_id":"4","last_reported":1729883252,"current_range_meters":15200,"station_id":"ce4bhk92rcd13ifvqgb0","pricing_plan_id":"cebpf4jnsgd1na2vs0mg"},{"bike_id":"a2c88912-f2d5-4af6-8b93-b4c6a4138c6c","system_id":"levelo_inurba_marseille","lat":43.2926,"lon":5.38442,"is_reserved":false,"is_disabled":false,"rental_uris":{"android":"levelo://app?vid=a2c88912-f2d5-4af6-8b93-b4c6a4138c6c","ios":"levelo://app?vid=a2c88912-f2d5-4af6-8b93-b4c6a4138c6c"},"vehicle_type_id":"4","last_reported":1729883252,"current_range_meters":8400,"station_id":"ce4bh692rcd13ifvqea0","pricing_plan_id":"cebpf4jnsgd1na2vs0mg"},{"bike_id":"a64b3754-53de-42eb-978d-641562e11181","system_id":"levelo_inurba_marseille","lat":43.25718,"lon":5.41102,"is_reserved":false,"is_disabled":false,"rental_uris":{"android":"levelo://app?vid=a64b3754-53de-42eb-978d-641562e11181","ios":"levelo://app?vid=a64b3754-53de-42eb-978d-641562e11181"},"vehicle_type_id":"4","last_reported":1729883252,"current_range_meters":28800,"station_id":"ce4bhkp2rcd13ifvqgd0","pricing_plan_id":"cebpf4jnsgd1na2vs0mg"},{"bike_id":"abecc21c-4a29-433f-85dd-76d259461fd8","system_id":"levelo_inurba_marseille","lat":43.2572,"lon":5.41111,"is_reserved":false,"is_disabled":false,"rental_uris":{"android":"levelo://app?vid=abecc21c-4a29-433f-85dd-76d259461fd8","ios":"levelo://app?vid=abecc21c-4a29-433f-85dd-76d259461fd8"},"vehicle_type_id":"4","last_reported":1729883252,"current_range_meters":14800,"station_id":"ce4bhkp2rcd13ifvqgd0","pricing_plan_id":"cebpf4jnsgd1na2vs0mg"},{"bike_id":"596be825-098f-44c6-8b18-f1ed8c1bf80b","system_id":"levelo_inurba_marseille","lat":43.28445,"lon":5.39186,"is_reserved":false,"is_disabled":false,"rental_uris":{"android":"levelo://app?vid=596be825-098f-44c6-8b18-f1ed8c1bf80b","ios":"levelo://app?vid=596be825-098f-44c6-8b18-f1ed8c1bf80b"},"vehicle_type_id":"4","last_reported":1729883252,"current_range_meters":36400,"station_id":"ce4bhoh2rcd13ifvqh5g","pricing_plan_id":"cebpf4jnsgd1na2vs0mg"},{"bike_id":"6e601e02-04b1-4d86-a624-63c4d347abbd","system_id":"levelo_inurba_marseille","lat":43.29034,"lon":5.35921,"is_reserved":false,"is_disabled":false,"rental_uris":{"android":"levelo://app?vid=6e601e02-04b1-4d86-a624-63c4d347abbd","ios":"levelo://app?vid=6e601e02-04b1-4d86-a624-63c4d347abbd"},"vehicle_type_id":"4","last_reported":1729883252,"current_range_meters":4400,"station_id":"ce4bha92rcd13ifvqeg0","pricing_plan_id":"cebpf4jnsgd1na2vs0mg"},{"bike_id":"11f0ba88-01b5-46af-893d-1b1f2b5b2c88","system_id":"levelo_inurba_marseille","lat":43.29024,"lon":5.38653,"is_reserved":false,"is_disabled":false,"rental_uris":{"android":"levelo://app?vid=11f0ba88-01b5-46af-893d-1b1f2b5b2c88","ios":"levelo://app?vid=11f0ba88-01b5-46af-893d-1b1f2b5b2c88"},"vehicle_type_id":"4","last_reported":1729883252,"current_range_meters":38800,"station_id":"ce4bh4p2rcd13ifvqe0g","pricing_plan_id":"cebpf4jnsgd1na2vs0mg"},{"bike_id":"f6e94602-f128-4d59-b87b-635dd33bbfc3","system_id":"levelo_inurba_marseille","lat":43.29539,"lon":5.38546,"is_reserved":false,"is_disabled":false,"rental_uris":{"android":"levelo://app?vid=f6e94602-f128-4d59-b87b-635dd33bbfc3","ios":"levelo://app?vid=f6e94602-f128-4d59-b87b-635dd33bbfc3"},"vehicle_type_id":"4","last_reported":1729883252,"current_range_meters":27200,"station_id":"ce4bgih2rcd13ifvqba0","pricing_plan_id":"cebpf4jnsgd1na2vs0mg"},{"bike_id":"3f0f2bc4-a0c4-4af9-a75d-1a43a8a53e9d","system_id":"levelo_inurba_marseille","lat":43.29875,"lon":5.39737,"is_reserved":false,"is_disabled":false,"rental_uris":{"android":"levelo://app?vid=3f0f2bc4-a0c4-4af9-a75d-1a43a8a53e9d","ios":"levelo://app?vid=3f0f2bc4-a0c4-4af9-a75d-1a43a8a53e9d"},"vehicle_type_id":"4","last_reported":1729883252,"current_range_meters":38800,"station_id":"ce4bh0h2rcd13ifvqd50","pricing_plan_id":"cebpf4jnsgd1na2vs0mg"},{"bike_id":"b53d7c26-5938-446a-8c50-462833c06a66","system_id":"levelo_inurba_marseille","lat":43.27996,"lon":5.40009,"is_reserved":false,"is_disabled":false,"rental_uris":{"android":"levelo://app?vid=b53d7c26-5938-446a-8c50-462833c06a66","ios":"levelo://app?vid=b53d7c26-5938-446a-8c50-462833c06a66"},"vehicle_type_id":"4","last_reported":1729883252,"current_range_meters":20800,"station_id":"ce4bho92rcd13ifvqh4g","pricing_plan_id":"cebpf4jnsgd1na2vs0mg"},{"bike_id":"87b59cb3-166c-4105-94af-4744f230dc70","system_id":"levelo_inurba_marseille","lat":43.30087,"lon":5.39071,"is_reserved":false,"is_disabled":false,"rental_uris":{"android":"levelo://app?vid=87b59cb3-166c-4105-94af-4744f230dc70","ios":"levelo://app?vid=87b59cb3-166c-4105-94af-4744f230dc70"},"vehicle_type_id":"4","last_reported":1729883252,"current_range_meters":24000,"station_id":"ce4bh192rcd13ifvqdb0","pricing_plan_id":"cebpf4jnsgd1na2vs0mg"},{"bike_id":"d598eb3f-76f9-42f0-96c5-6e4903d21d70","system_id":"levelo_inurba_marseille","lat":43.294403,"lon":5.397516,"is_reserved":false,"is_disabled":false,"rental_uris":{"android":"levelo://app?vid=d598eb3f-76f9-42f0-96c5-6e4903d21d70","ios":"levelo://app?vid=d598eb3f-76f9-42f0-96c5-6e4903d21d70"},"vehicle_type_id":"4","last_reported":1729883252,"current_range_meters":24400,"station_id":"ce4bh3h2rcd13ifvqdo0","pricing_plan_id":"cebpf4jnsgd1na2vs0mg"},{"bike_id":"993213e6-6063-466a-bdfd-588dc3c51d3c","system_id":"levelo_inurba_marseille","lat":43.28425,"lon":5.34985,"is_reserved":false,"is_disabled":false,"rental_uris":{"android":"levelo://app?vid=993213e6-6063-466a-bdfd-588dc3c51d3c","ios":"levelo://app?vid=993213e6-6063-466a-bdfd-588dc3c51d3c"},"vehicle_type_id":"4","last_reported":1729883252,"current_range_meters":38800,"station_id":"ce4bhbh2rcd13ifvqepg","pricing_plan_id":"cebpf4jnsgd1na2vs0mg"},{"bike_id":"44460db4-113d-4331-9546-a5ed508f442d","system_id":"levelo_inurba_marseille","lat":43.29255,"lon":5.38439,"is_reserved":false,"is_disabled":false,"rental_uris":{"android":"levelo://app?vid=44460db4-113d-4331-9546-a5ed508f442d","ios":"levelo://app?vid=44460db4-113d-4331-9546-a5ed508f442d"},"vehicle_type_id":"4","last_reported":1729883252,"current_range_meters":29600,"station_id":"ce4bh692rcd13ifvqea0","pricing_plan_id":"cebpf4jnsgd1na2vs0mg"},{"bike_id":"43e0342e-7c69-4ef3-9959-2e5c770bab9f","system_id":"levelo_inurba_marseille","lat":43.22937,"lon":5.35381,"is_reserved":false,"is_disabled":false,"rental_uris":{"android":"levelo://app?vid=43e0342e-7c69-4ef3-9959-2e5c770bab9f","ios":"levelo://app?vid=43e0342e-7c69-4ef3-9959-2e5c770bab9f"},"vehicle_type_id":"4","last_reported":1729883252,"current_range_meters":17200,"station_id":"cpo3532slgdg3j2ikp40","pricing_plan_id":"cebpf4jnsgd1na2vs0mg"},{"bike_id":"9b86e3d8-9c97-4cef-8892-16df11bbf7da","system_id":"levelo_inurba_marseille","lat":43.30146,"lon":5.387573,"is_reserved":false,"is_disabled":false,"rental_uris":{"android":"levelo://app?vid=9b86e3d8-9c97-4cef-8892-16df11bbf7da","ios":"levelo://app?vid=9b86e3d8-9c97-4cef-8892-16df11bbf7da"},"vehicle_type_id":"4","last_reported":1729883252,"current_range_meters":4400,"station_id":"ce4bgv12rcd13ifvqcp0","pricing_plan_id":"cebpf4jnsgd1na2vs0mg"},{"bike_id":"ed73ac36-0f3d-4415-af34-2f6d9b582f5d","system_id":"levelo_inurba_marseille","lat":43.29063,"lon":5.3716,"is_reserved":false,"is_disabled":false,"rental_uris":{"android":"levelo://app?vid=ed73ac36-0f3d-4415-af34-2f6d9b582f5d","ios":"levelo://app?vid=ed73ac36-0f3d-4415-af34-2f6d9b582f5d"},"vehicle_type_id":"4","last_reported":1729883252,"current_range_meters":22000,"station_id":"ce4bh5p2rcd13ifvqe4g","pricing_plan_id":"cebpf4jnsgd1na2vs0mg"},{"bike_id":"e0ff9feb-638f-4997-bb17-c8e055e04ced","system_id":"levelo_inurba_marseille","lat":43.29254,"lon":5.38443,"is_reserved":false,"is_disabled":false,"rental_uris":{"android":"levelo://app?vid=e0ff9feb-638f-4997-bb17-c8e055e04ced","ios":"levelo://app?vid=e0ff9feb-638f-4997-bb17-c8e055e04ced"},"vehicle_type_id":"4","last_reported":1729883252,"current_range_meters":38800,"station_id":"ce4bh692rcd13ifvqea0","pricing_plan_id":"cebpf4jnsgd1na2vs0mg"},{"bike_id":"90ced139-6bd8-448a-a9bc-8eca846b1d3f","system_id":"levelo_inurba_marseille","lat":43.24807,"lon":5.37461,"is_reserved":false,"is_disabled":false,"rental_uris":{"android":"levelo://app?vid=90ced139-6bd8-448a-a9bc-8eca846b1d3f","ios":"levelo://app?vid=90ced139-6bd8-448a-a9bc-8eca846b1d3f"},"vehicle_type_id":"4","last_reported":1729883252,"current_range_meters":38800,"station_id":"ce4bhgh2rcd13ifvqfb0","pricing_plan_id":"cebpf4jnsgd1na2vs0mg"},{"bike_id":"bd630f5b-03af-4f2e-9cf9-73efb8c3c229","system_id":"levelo_inurba_marseille","lat":43.29258,"lon":5.38427,"is_reserved":false,"is_disabled":false,"rental_uris":{"android":"levelo://app?vid=bd630f5b-03af-4f2e-9cf9-73efb8c3c229","ios":"levelo://app?vid=bd630f5b-03af-4f2e-9cf9-73efb8c3c229"},"vehicle_type_id":"4","last_reported":1729883252,"current_range_meters":28800,"station_id":"ce4bh692rcd13ifvqea0","pricing_plan_id":"cebpf4jnsgd1na2vs0mg"},{"bike_id":"365a5e76-e012-4983-b8a9-1a07480bde83","system_id":"levelo_inurba_marseille","lat":43.23193,"lon":5.35551,"is_reserved":false,"is_disabled":false,"rental_uris":{"android":"levelo://app?vid=365a5e76-e012-4983-b8a9-1a07480bde83","ios":"levelo://app?vid=365a5e76-e012-4983-b8a9-1a07480bde83"},"vehicle_type_id":"4","last_reported":1729883252,"current_range_meters":38800,"station_id":"ce4bhu92rcd13ifvqi70","pricing_plan_id":"cebpf4jnsgd1na2vs0mg"},{"bike_id":"51415f0c-2178-478b-9fba-4bd40eccdf40","system_id":"levelo_inurba_marseille","lat":43.30941,"lon":5.40142,"is_reserved":false,"is_disabled":false,"rental_uris":{"android":"levelo://app?vid=51415f0c-2178-478b-9fba-4bd40eccdf40","ios":"levelo://app?vid=51415f0c-2178-478b-9fba-4bd40eccdf40"},"vehicle_type_id":"4","last_reported":1729883252,"current_range_meters":20000,"station_id":"ce4bgvp2rcd13ifvqct0","pricing_plan_id":"cebpf4jnsgd1na2vs0mg"},{"bike_id":"bf7a5d18-d9bc-4381-81e7-d9447c9f9b92","system_id":"levelo_inurba_marseille","lat":43.31168,"lon":5.38728,"is_reserved":false,"is_disabled":false,"rental_uris":{"android":"levelo://app?vid=bf7a5d18-d9bc-4381-81e7-d9447c9f9b92","ios":"levelo://app?vid=bf7a5d18-d9bc-4381-81e7-d9447c9f9b92"},"vehicle_type_id":"4","last_reported":1729883252,"current_range_meters":9200,"station_id":"ce4bgv12rcd13ifvqcp0","pricing_plan_id":"cebpf4jnsgd1na2vs0mg"},{"bike_id":"96cdd95e-3482-4a43-addc-7928483a6278","system_id":"levelo_inurba_marseille","lat":43.23193,"lon":5.35561,"is_reserved":false,"is_disabled":false,"rental_uris":{"android":"levelo://app?vid=96cdd95e-3482-4a43-addc-7928483a6278","ios":"levelo://app?vid=96cdd95e-3482-4a43-addc-7928483a6278"},"vehicle_type_id":"4","last_reported":1729883252,"current_range_meters":24400,"station_id":"ce4bhu92rcd13ifvqi70","pricing_plan_id":"cebpf4jnsgd1na2vs0mg"},{"bike_id":"c31c4c4b-0fb4-4f38-9e10-adeba542265b","system_id":"levelo_inurba_marseille","lat":43.28847,"lon":5.35848,"is_reserved":false,"is_disabled":false,"rental_uris":{"android":"levelo://app?vid=c31c4c4b-0fb4-4f38-9e10-adeba542265b","ios":"levelo://app?vid=c31c4c4b-0fb4-4f38-9e10-adeba542265b"},"vehicle_type_id":"4","last_reported":1729883252,"current_range_meters":14000,"station_id":"ce4bhb12rcd13ifvqem0","pricing_plan_id":"cebpf4jnsgd1na2vs0mg"},{"bike_id":"12c608b5-8d08-402f-9740-14c729cb411d","system_id":"levelo_inurba_marseille","lat":43.32633,"lon":5.38881,"is_reserved":false,"is_disabled":false,"rental_uris":{"android":"levelo://app?vid=12c608b5-8d08-402f-9740-14c729cb411d","ios":"levelo://app?vid=12c608b5-8d08-402f-9740-14c729cb411d"},"vehicle_type_id":"4","last_reported":1729883252,"current_range_meters":24000,"station_id":"","pricing_plan_id":"cebpf4jnsgd1na2vs0mg"},{"bike_id":"25b56222-17a5-40f4-b2d7-0f34167f9053","system_id":"levelo_inurba_marseille","lat":43.2954,"lon":5.38548,"is_reserved":false,"is_disabled":false,"rental_uris":{"android":"levelo://app?vid=25b56222-17a5-40f4-b2d7-0f34167f9053","ios":"levelo://app?vid=25b56222-17a5-40f4-b2d7-0f34167f9053"},"vehicle_type_id":"4","last_reported":1729883252,"current_range_meters":18800,"station_id":"ce4bgih2rcd13ifvqba0","pricing_plan_id":"cebpf4jnsgd1na2vs0mg"},{"bike_id":"9080dd97-505a-4355-a316-f71e71f02496","system_id":"levelo_inurba_marseille","lat":43.27991,"lon":5.4001,"is_reserved":false,"is_disabled":false,"rental_uris":{"android":"levelo://app?vid=9080dd97-505a-4355-a316-f71e71f02496","ios":"levelo://app?vid=9080dd97-505a-4355-a316-f71e71f02496"},"vehicle_type_id":"4","last_reported":1729883252,"current_range_meters":5600,"station_id":"ce4bho92rcd13ifvqh4g","pricing_plan_id":"cebpf4jnsgd1na2vs0mg"},{"bike_id":"f074ad95-abf4-4520-b9c9-dcdd885b3148","system_id":"levelo_inurba_marseille","lat":43.28572,"lon":5.39496,"is_reserved":false,"is_disabled":false,"rental_uris":{"android":"levelo://app?vid=f074ad95-abf4-4520-b9c9-dcdd885b3148","ios":"levelo://app?vid=f074ad95-abf4-4520-b9c9-dcdd885b3148"},"vehicle_type_id":"4","last_reported":1729883252,"current_range_meters":10800,"station_id":"ce4bh292rcd13ifvqdg0","pricing_plan_id":"cebpf4jnsgd1na2vs0mg"},{"bike_id":"36fb0594-ea6d-4e03-8107-03cf576f3096","system_id":"levelo_inurba_marseille","lat":43.29418,"lon":5.38626,"is_reserved":false,"is_disabled":false,"rental_uris":{"android":"levelo://app?vid=36fb0594-ea6d-4e03-8107-03cf576f3096","ios":"levelo://app?vid=36fb0594-ea6d-4e03-8107-03cf576f3096"},"vehicle_type_id":"4","last_reported":1729883252,"current_range_meters":38800,"station_id":"ce4bh2h2rcd13ifvqdh0","pricing_plan_id":"cebpf4jnsgd1na2vs0mg"},{"bike_id":"5953bccf-ff76-4026-b5c3-fa0979ea07be","system_id":"levelo_inurba_marseille","lat":43.27993,"lon":5.41663,"is_reserved":false,"is_disabled":false,"rental_uris":{"android":"levelo://app?vid=5953bccf-ff76-4026-b5c3-fa0979ea07be","ios":"levelo://app?vid=5953bccf-ff76-4026-b5c3-fa0979ea07be"},"vehicle_type_id":"4","last_reported":1729883252,"current_range_meters":2800,"station_id":"ce4bho12rcd13ifvqh1g","pricing_plan_id":"cebpf4jnsgd1na2vs0mg"},{"bike_id":"8fbb5018-d780-4512-8f51-d9ee6b357ec0","system_id":"levelo_inurba_marseille","lat":43.2942,"lon":5.38628,"is_reserved":false,"is_disabled":false,"rental_uris":{"android":"levelo://app?vid=8fbb5018-d780-4512-8f51-d9ee6b357ec0","ios":"levelo://app?vid=8fbb5018-d780-4512-8f51-d9ee6b357ec0"},"vehicle_type_id":"4","last_reported":1729883252,"current_range_meters":7200,"station_id":"ce4bh2h2rcd13ifvqdh0","pricing_plan_id":"cebpf4jnsgd1na2vs0mg"},{"bike_id":"9a8a51ad-40a4-4fb4-9a3f-def9c436fed0","system_id":"levelo_inurba_marseille","lat":43.27916,"lon":5.39575,"is_reserved":false,"is_disabled":false,"rental_uris":{"android":"levelo://app?vid=9a8a51ad-40a4-4fb4-9a3f-def9c436fed0","ios":"levelo://app?vid=9a8a51ad-40a4-4fb4-9a3f-def9c436fed0"},"vehicle_type_id":"4","last_reported":1729883252,"current_range_meters":22400,"station_id":"ce4bhf92rcd13ifvqf40","pricing_plan_id":"cebpf4jnsgd1na2vs0mg"},{"bike_id":"2b4281d8-b1dc-4e57-b697-6c0850513590","system_id":"levelo_inurba_marseille","lat":43.298511,"lon":5.397307,"is_reserved":false,"is_disabled":false,"rental_uris":{"android":"levelo://app?vid=2b4281d8-b1dc-4e57-b697-6c0850513590","ios":"levelo://app?vid=2b4281d8-b1dc-4e57-b697-6c0850513590"},"vehicle_type_id":"4","last_reported":1729883252,"current_range_meters":3200,"station_id":"ce4bh0h2rcd13ifvqd50","pricing_plan_id":"cebpf4jnsgd1na2vs0mg"},{"bike_id":"0b1f8152-fa24-402f-b2cf-4a0283d5698f","system_id":"levelo_inurba_marseille","lat":43.29422,"lon":5.38623,"is_reserved":false,"is_disabled":false,"rental_uris":{"android":"levelo://app?vid=0b1f8152-fa24-402f-b2cf-4a0283d5698f","ios":"levelo://app?vid=0b1f8152-fa24-402f-b2cf-4a0283d5698f"},"vehicle_type_id":"4","last_reported":1729883252,"current_range_meters":38000,"station_id":"ce4bh2h2rcd13ifvqdh0","pricing_plan_id":"cebpf4jnsgd1na2vs0mg"},{"bike_id":"74aeede9-18fe-49de-9fcc-1499c59aa58b","system_id":"levelo_inurba_marseille","lat":43.26213,"lon":5.37439,"is_reserved":false,"is_disabled":false,"rental_uris":{"android":"levelo://app?vid=74aeede9-18fe-49de-9fcc-1499c59aa58b","ios":"levelo://app?vid=74aeede9-18fe-49de-9fcc-1499c59aa58b"},"vehicle_type_id":"4","last_reported":1729883252,"current_range_meters":17600,"station_id":"ce4bhgp2rcd13ifvqfc0","pricing_plan_id":"cebpf4jnsgd1na2vs0mg"},{"bike_id":"71cda5a0-571c-4b08-8476-48efcbdc28b3","system_id":"levelo_inurba_marseille","lat":43.24664,"lon":5.38167,"is_reserved":false,"is_disabled":false,"rental_uris":{"android":"levelo://app?vid=71cda5a0-571c-4b08-8476-48efcbdc28b3","ios":"levelo://app?vid=71cda5a0-571c-4b08-8476-48efcbdc28b3"},"vehicle_type_id":"4","last_reported":1729883252,"current_range_meters":6800,"station_id":"ce4bhih2rcd13ifvqfr0","pricing_plan_id":"cebpf4jnsgd1na2vs0mg"},{"bike_id":"08a2ab05-3f95-4a71-8a30-9173f725e207","system_id":"levelo_inurba_marseille","lat":43.22931,"lon":5.35375,"is_reserved":false,"is_disabled":false,"rental_uris":{"android":"levelo://app?vid=08a2ab05-3f95-4a71-8a30-9173f725e207","ios":"levelo://app?vid=08a2ab05-3f95-4a71-8a30-9173f725e207"},"vehicle_type_id":"4","last_reported":1729883252,"current_range_meters":17200,"station_id":"cpo3532slgdg3j2ikp40","pricing_plan_id":"cebpf4jnsgd1na2vs0mg"},{"bike_id":"6d463fef-3c81-4dc0-950e-a63a745d9b97","system_id":"levelo_inurba_marseille","lat":43.28196,"lon":5.40398,"is_reserved":false,"is_disabled":false,"rental_uris":{"android":"levelo://app?vid=6d463fef-3c81-4dc0-950e-a63a745d9b97","ios":"levelo://app?vid=6d463fef-3c81-4dc0-950e-a63a745d9b97"},"vehicle_type_id":"4","last_reported":1729883252,"current_range_meters":16400,"station_id":"","pricing_plan_id":"cebpf4jnsgd1na2vs0mg"},{"bike_id":"8282dbc9-ef98-4f76-bfe9-7b2d373ee239","system_id":"levelo_inurba_marseille","lat":43.24814,"lon":5.3746,"is_reserved":false,"is_disabled":false,"rental_uris":{"android":"levelo://app?vid=8282dbc9-ef98-4f76-bfe9-7b2d373ee239","ios":"levelo://app?vid=8282dbc9-ef98-4f76-bfe9-7b2d373ee239"},"vehicle_type_id":"4","last_reported":1729883252,"current_range_meters":38800,"station_id":"ce4bhgh2rcd13ifvqfb0","pricing_plan_id":"cebpf4jnsgd1na2vs0mg"},{"bike_id":"03950cf6-1bd2-414a-b90d-dfde2154bd42","system_id":"levelo_inurba_marseille","lat":43.26203,"lon":5.37931,"is_reserved":false,"is_disabled":false,"rental_uris":{"android":"levelo://app?vid=03950cf6-1bd2-414a-b90d-dfde2154bd42","ios":"levelo://app?vid=03950cf6-1bd2-414a-b90d-dfde2154bd42"},"vehicle_type_id":"4","last_reported":1729883252,"current_range_meters":29600,"station_id":"ce4bhjp2rcd13ifvqg90","pricing_plan_id":"cebpf4jnsgd1na2vs0mg"},{"bike_id":"82396d12-f8f0-47cf-8a72-3cdcc3a9bdc9","system_id":"levelo_inurba_marseille","lat":43.2397,"lon":5.36624,"is_reserved":false,"is_disabled":false,"rental_uris":{"android":"levelo://app?vid=82396d12-f8f0-47cf-8a72-3cdcc3a9bdc9","ios":"levelo://app?vid=82396d12-f8f0-47cf-8a72-3cdcc3a9bdc9"},"vehicle_type_id":"4","last_reported":1729883252,"current_range_meters":30800,"station_id":"ce4bhi12rcd13ifvqfp0","pricing_plan_id":"cebpf4jnsgd1na2vs0mg"},{"bike_id":"5505122f-cb50-4d28-b27e-e1481acf5e62","system_id":"levelo_inurba_marseille","lat":43.29418,"lon":5.38631,"is_reserved":false,"is_disabled":false,"rental_uris":{"android":"levelo://app?vid=5505122f-cb50-4d28-b27e-e1481acf5e62","ios":"levelo://app?vid=5505122f-cb50-4d28-b27e-e1481acf5e62"},"vehicle_type_id":"4","last_reported":1729883252,"current_range_meters":38800,"station_id":"ce4bh2h2rcd13ifvqdh0","pricing_plan_id":"cebpf4jnsgd1na2vs0mg"},{"bike_id":"f6dfc8dd-663b-4290-802f-77a9cb17d4f0","system_id":"levelo_inurba_marseille","lat":43.29439,"lon":5.39744,"is_reserved":false,"is_disabled":false,"rental_uris":{"android":"levelo://app?vid=f6dfc8dd-663b-4290-802f-77a9cb17d4f0","ios":"levelo://app?vid=f6dfc8dd-663b-4290-802f-77a9cb17d4f0"},"vehicle_type_id":"4","last_reported":1729883252,"current_range_meters":16800,"station_id":"ce4bh3h2rcd13ifvqdo0","pricing_plan_id":"cebpf4jnsgd1na2vs0mg"},{"bike_id":"615c03e8-8c89-42d4-ba8d-652106ecb49a","system_id":"levelo_inurba_marseille","lat":43.29268,"lon":5.38448,"is_reserved":false,"is_disabled":false,"rental_uris":{"android":"levelo://app?vid=615c03e8-8c89-42d4-ba8d-652106ecb49a","ios":"levelo://app?vid=615c03e8-8c89-42d4-ba8d-652106ecb49a"},"vehicle_type_id":"4","last_reported":1729883252,"current_range_meters":15200,"station_id":"ce4bh692rcd13ifvqea0","pricing_plan_id":"cebpf4jnsgd1na2vs0mg"},{"bike_id":"c101c88a-9aa2-42fc-9230-0cbb655efb72","system_id":"levelo_inurba_marseille","lat":43.31324,"lon":5.39695,"is_reserved":false,"is_disabled":false,"rental_uris":{"android":"levelo://app?vid=c101c88a-9aa2-42fc-9230-0cbb655efb72","ios":"levelo://app?vid=c101c88a-9aa2-42fc-9230-0cbb655efb72"},"vehicle_type_id":"4","last_reported":1729883252,"current_range_meters":38800,"station_id":"ce4bgvp2rcd13ifvqcu0","pricing_plan_id":"cebpf4jnsgd1na2vs0mg"},{"bike_id":"86b72578-3773-48da-b7b0-bcbad6d58c37","system_id":"levelo_inurba_marseille","lat":43.30675,"lon":5.38209,"is_reserved":false,"is_disabled":false,"rental_uris":{"android":"levelo://app?vid=86b72578-3773-48da-b7b0-bcbad6d58c37","ios":"levelo://app?vid=86b72578-3773-48da-b7b0-bcbad6d58c37"},"vehicle_type_id":"4","last_reported":1729883252,"current_range_meters":35200,"station_id":"","pricing_plan_id":"cebpf4jnsgd1na2vs0mg"},{"bike_id":"748175fc-06ab-4a0c-9926-5c6537d5d944","system_id":"levelo_inurba_marseille","lat":43.32365,"lon":5.38883,"is_reserved":false,"is_disabled":false,"rental_uris":{"android":"levelo://app?vid=748175fc-06ab-4a0c-9926-5c6537d5d944","ios":"levelo://app?vid=748175fc-06ab-4a0c-9926-5c6537d5d944"},"vehicle_type_id":"4","last_reported":1729883252,"current_range_meters":38800,"station_id":"ce4bhqp2rcd13ifvqhog","pricing_plan_id":"cebpf4jnsgd1na2vs0mg"},{"bike_id":"6980f02b-4404-4a9e-b957-8959d72800f4","system_id":"levelo_inurba_marseille","lat":43.29527,"lon":5.38544,"is_reserved":false,"is_disabled":false,"rental_uris":{"android":"levelo://app?vid=6980f02b-4404-4a9e-b957-8959d72800f4","ios":"levelo://app?vid=6980f02b-4404-4a9e-b957-8959d72800f4"},"vehicle_type_id":"4","last_reported":1729883252,"current_range_meters":8400,"station_id":"ce4bgih2rcd13ifvqba0","pricing_plan_id":"cebpf4jnsgd1na2vs0mg"},{"bike_id":"aeb0c5ad-b9dc-491d-a740-7b7fca587297","system_id":"levelo_inurba_marseille","lat":43.29737,"lon":5.38102,"is_reserved":false,"is_disabled":false,"rental_uris":{"android":"levelo://app?vid=aeb0c5ad-b9dc-491d-a740-7b7fca587297","ios":"levelo://app?vid=aeb0c5ad-b9dc-491d-a740-7b7fca587297"},"vehicle_type_id":"4","last_reported":1729883252,"current_range_meters":27200,"station_id":"","pricing_plan_id":"cebpf4jnsgd1na2vs0mg"},{"bike_id":"6bd52fa6-c8ce-46de-b2d1-303f100f2eef","system_id":"levelo_inurba_marseille","lat":43.29419,"lon":5.38627,"is_reserved":false,"is_disabled":false,"rental_uris":{"android":"levelo://app?vid=6bd52fa6-c8ce-46de-b2d1-303f100f2eef","ios":"levelo://app?vid=6bd52fa6-c8ce-46de-b2d1-303f100f2eef"},"vehicle_type_id":"4","last_reported":1729883252,"current_range_meters":38800,"station_id":"ce4bh2h2rcd13ifvqdh0","pricing_plan_id":"cebpf4jnsgd1na2vs0mg"},{"bike_id":"6e31f1de-92fc-48e4-a7b1-371833a18f14","system_id":"levelo_inurba_marseille","lat":43.25126,"lon":5.40318,"is_reserved":false,"is_disabled":false,"rental_uris":{"android":"levelo://app?vid=6e31f1de-92fc-48e4-a7b1-371833a18f14","ios":"levelo://app?vid=6e31f1de-92fc-48e4-a7b1-371833a18f14"},"vehicle_type_id":"4","last_reported":1729883252,"current_range_meters":17600,"station_id":"ce4bhlh2rcd13ifvqgig","pricing_plan_id":"cebpf4jnsgd1na2vs0mg"},{"bike_id":"52a4ce7d-eb4e-4eed-9e49-ddcd10f2c7fc","system_id":"levelo_inurba_marseille","lat":43.269255,"lon":5.389057,"is_reserved":false,"is_disabled":false,"rental_uris":{"android":"levelo://app?vid=52a4ce7d-eb4e-4eed-9e49-ddcd10f2c7fc","ios":"levelo://app?vid=52a4ce7d-eb4e-4eed-9e49-ddcd10f2c7fc"},"vehicle_type_id":"4","last_reported":1729883252,"current_range_meters":25200,"station_id":"","pricing_plan_id":"cebpf4jnsgd1na2vs0mg"},{"bike_id":"7b8b631b-05a1-4bd7-bbbf-6c9fbfe178ce","system_id":"levelo_inurba_marseille","lat":43.29267,"lon":5.38443,"is_reserved":false,"is_disabled":false,"rental_uris":{"android":"levelo://app?vid=7b8b631b-05a1-4bd7-bbbf-6c9fbfe178ce","ios":"levelo://app?vid=7b8b631b-05a1-4bd7-bbbf-6c9fbfe178ce"},"vehicle_type_id":"4","last_reported":1729883252,"current_range_meters":38800,"station_id":"ce4bh692rcd13ifvqea0","pricing_plan_id":"cebpf4jnsgd1na2vs0mg"},{"bike_id":"cfaa8929-01a1-4c32-a173-772b6c9c2f86","system_id":"levelo_inurba_marseille","lat":43.29964,"lon":5.4132,"is_reserved":false,"is_disabled":false,"rental_uris":{"android":"levelo://app?vid=cfaa8929-01a1-4c32-a173-772b6c9c2f86","ios":"levelo://app?vid=cfaa8929-01a1-4c32-a173-772b6c9c2f86"},"vehicle_type_id":"4","last_reported":1729883252,"current_range_meters":36400,"station_id":"ce4bhp12rcd13ifvqh9g","pricing_plan_id":"cebpf4jnsgd1na2vs0mg"},{"bike_id":"d9cf720f-2e05-402a-ac9c-2558cfe9b324","system_id":"levelo_inurba_marseille","lat":43.23757,"lon":5.36658,"is_reserved":false,"is_disabled":false,"rental_uris":{"android":"levelo://app?vid=d9cf720f-2e05-402a-ac9c-2558cfe9b324","ios":"levelo://app?vid=d9cf720f-2e05-402a-ac9c-2558cfe9b324"},"vehicle_type_id":"4","last_reported":1729883252,"current_range_meters":16000,"station_id":"","pricing_plan_id":"cebpf4jnsgd1na2vs0mg"},{"bike_id":"680fc5b5-fdce-4140-acfa-c983f765f98c","system_id":"levelo_inurba_marseille","lat":43.28152,"lon":5.42649,"is_reserved":false,"is_disabled":false,"rental_uris":{"android":"levelo://app?vid=680fc5b5-fdce-4140-acfa-c983f765f98c","ios":"levelo://app?vid=680fc5b5-fdce-4140-acfa-c983f765f98c"},"vehicle_type_id":"4","last_reported":1729883252,"current_range_meters":30800,"station_id":"ce4bhnh2rcd13ifvqgug","pricing_plan_id":"cebpf4jnsgd1na2vs0mg"},{"bike_id":"598ed19b-cb3e-45b4-bb49-09c2f6fe1902","system_id":"levelo_inurba_marseille","lat":43.29424,"lon":5.38621,"is_reserved":false,"is_disabled":false,"rental_uris":{"android":"levelo://app?vid=598ed19b-cb3e-45b4-bb49-09c2f6fe1902","ios":"levelo://app?vid=598ed19b-cb3e-45b4-bb49-09c2f6fe1902"},"vehicle_type_id":"4","last_reported":1729883252,"current_range_meters":33600,"station_id":"ce4bh2h2rcd13ifvqdh0","pricing_plan_id":"cebpf4jnsgd1na2vs0mg"},{"bike_id":"362f1c5f-92c1-4e49-a4eb-6f087f7bdb1f","system_id":"levelo_inurba_marseille","lat":43.29191,"lon":5.35809,"is_reserved":false,"is_disabled":false,"rental_uris":{"android":"levelo://app?vid=362f1c5f-92c1-4e49-a4eb-6f087f7bdb1f","ios":"levelo://app?vid=362f1c5f-92c1-4e49-a4eb-6f087f7bdb1f"},"vehicle_type_id":"4","last_reported":1729883252,"current_range_meters":11600,"station_id":"ce4bhb12rcd13ifvqel0","pricing_plan_id":"cebpf4jnsgd1na2vs0mg"},{"bike_id":"53058b10-7c79-43f4-963c-3acc4edad4eb","system_id":"levelo_inurba_marseille","lat":43.28422,"lon":5.34983,"is_reserved":false,"is_disabled":false,"rental_uris":{"android":"levelo://app?vid=53058b10-7c79-43f4-963c-3acc4edad4eb","ios":"levelo://app?vid=53058b10-7c79-43f4-963c-3acc4edad4eb"},"vehicle_type_id":"4","last_reported":1729883252,"current_range_meters":38800,"station_id":"ce4bhbh2rcd13ifvqepg","pricing_plan_id":"cebpf4jnsgd1na2vs0mg"},{"bike_id":"f72163a3-2487-47c2-a8da-ff90278e4df9","system_id":"levelo_inurba_marseille","lat":43.29421,"lon":5.38619,"is_reserved":false,"is_disabled":false,"rental_uris":{"android":"levelo://app?vid=f72163a3-2487-47c2-a8da-ff90278e4df9","ios":"levelo://app?vid=f72163a3-2487-47c2-a8da-ff90278e4df9"},"vehicle_type_id":"4","last_reported":1729883252,"current_range_meters":35200,"station_id":"ce4bh2h2rcd13ifvqdh0","pricing_plan_id":"cebpf4jnsgd1na2vs0mg"},{"bike_id":"d913e464-44d7-415a-809c-7925f19bf8b3","system_id":"levelo_inurba_marseille","lat":43.3172,"lon":5.42396,"is_reserved":false,"is_disabled":false,"rental_uris":{"android":"levelo://app?vid=d913e464-44d7-415a-809c-7925f19bf8b3","ios":"levelo://app?vid=d913e464-44d7-415a-809c-7925f19bf8b3"},"vehicle_type_id":"4","last_reported":1729883252,"current_range_meters":38400,"station_id":"ce4bhp92rcd13ifvqhbg","pricing_plan_id":"cebpf4jnsgd1na2vs0mg"},{"bike_id":"64828ab8-e119-4f4f-9930-4fb3dadc466b","system_id":"levelo_inurba_marseille","lat":43.28456,"lon":5.35891,"is_reserved":false,"is_disabled":false,"rental_uris":{"android":"levelo://app?vid=64828ab8-e119-4f4f-9930-4fb3dadc466b","ios":"levelo://app?vid=64828ab8-e119-4f4f-9930-4fb3dadc466b"},"vehicle_type_id":"4","last_reported":1729883252,"current_range_meters":28000,"station_id":"ce4bhah2rcd13ifvqei0","pricing_plan_id":"cebpf4jnsgd1na2vs0mg"},{"bike_id":"cde46f62-26c4-4005-ba1c-909a6e048f7a","system_id":"levelo_inurba_marseille","lat":43.27559,"lon":5.38421,"is_reserved":false,"is_disabled":false,"rental_uris":{"android":"levelo://app?vid=cde46f62-26c4-4005-ba1c-909a6e048f7a","ios":"levelo://app?vid=cde46f62-26c4-4005-ba1c-909a6e048f7a"},"vehicle_type_id":"4","last_reported":1729883252,"current_range_meters":38000,"station_id":"ce4bhh92rcd13ifvqfi0","pricing_plan_id":"cebpf4jnsgd1na2vs0mg"},{"bike_id":"06bbaaf8-e46c-41e3-ab97-d20b439283be","system_id":"levelo_inurba_marseille","lat":43.27573,"lon":5.38416,"is_reserved":false,"is_disabled":false,"rental_uris":{"android":"levelo://app?vid=06bbaaf8-e46c-41e3-ab97-d20b439283be","ios":"levelo://app?vid=06bbaaf8-e46c-41e3-ab97-d20b439283be"},"vehicle_type_id":"4","last_reported":1729883252,"current_range_meters":31200,"station_id":"ce4bhh92rcd13ifvqfi0","pricing_plan_id":"cebpf4jnsgd1na2vs0mg"},{"bike_id":"33eb15d2-2a4b-4536-bb57-a052e055e696","system_id":"levelo_inurba_marseille","lat":43.29537,"lon":5.38547,"is_reserved":false,"is_disabled":false,"rental_uris":{"android":"levelo://app?vid=33eb15d2-2a4b-4536-bb57-a052e055e696","ios":"levelo://app?vid=33eb15d2-2a4b-4536-bb57-a052e055e696"},"vehicle_type_id":"4","last_reported":1729883252,"current_range_meters":38800,"station_id":"ce4bgih2rcd13ifvqba0","pricing_plan_id":"cebpf4jnsgd1na2vs0mg"},{"bike_id":"0b524514-5679-4809-a7ab-95b2a53e968f","system_id":"levelo_inurba_marseille","lat":43.2964,"lon":5.40597,"is_reserved":false,"is_disabled":false,"rental_uris":{"android":"levelo://app?vid=0b524514-5679-4809-a7ab-95b2a53e968f","ios":"levelo://app?vid=0b524514-5679-4809-a7ab-95b2a53e968f"},"vehicle_type_id":"4","last_reported":1729883252,"current_range_meters":28400,"station_id":"ce4bh0h2rcd13ifvqd60","pricing_plan_id":"cebpf4jnsgd1na2vs0mg"},