{"last_updated":1730294275,"ttl":60,"version":"2.2","data":{"bikes":[{"bike_id":"e0594c9b-1912-4f09-958a-91f8a4561c29","system_id":"levelo_inurba_marseille","lat":43.24389,"lon":5.37045,"is_reserved":false,"is_disabled":false,"rental_uris":{"android":"levelo://app?vid=e0594c9b-1912-4f09-958a-91f8a4561c29","ios":"levelo://app?vid=e0594c9b-1912-4f09-958a-91f8a4561c29"},"vehicle_type_id":"4","last_reported":1730294276,"current_range_meters":39200,"station_id":"ce4bhhh2rcd13ifvqfk0","pricing_plan_id":"cebpf4jnsgd1na2vs0mg"},{"bike_id":"d713d74c-0963-4acd-a33e-f1ac027bc7af","system_id":"levelo_inurba_marseille","lat":43.27322,"lon":5.39095,"is_reserved":false,"is_disabled":false,"rental_uris":{"android":"levelo://app?vid=d713d74c-0963-4acd-a33e-f1ac027bc7af","ios":"levelo://app?vid=d713d74c-0963-4acd-a33e-f1ac027bc7af"},"vehicle_type_id":"4","last_reported":1730294276,"current_range_meters":18800,"station_id":"ce4bha12rcd13ifvqee0","pricing_plan_id":"cebpf4jnsgd1na2vs0mg"},{"bike_id":"9932cb1a-63a4-4e1c-a11b-c6a6ee00d266","system_id":"levelo_inurba_marseille","lat":43.31218,"lon":5.36857,"is_reserved":false,"is_disabled":false,"rental_uris":{"android":"levelo://app?vid=9932cb1a-63a4-4e1c-a11b-c6a6ee00d266","ios":"levelo://app?vid=9932cb1a-63a4-4e1c-a11b-c6a6ee00d266"},"vehicle_type_id":"4","last_reported":1730294276,"current_range_meters":10800,"station_id":"ce4bgl92rcd13ifvqbq0","pricing_plan_id":"cebpf4jnsgd1na2vs0mg"},{"bike_id":"6daefb7d-890b-4927-bca4-1e9b57c2727d","system_id":"levelo_inurba_marseille","lat":43.27174,"lon":5.40994,"is_reserved":false,"is_disabled":false,"rental_uris":{"android":"levelo://app?vid=6daefb7d-890b-4927-bca4-1e9b57c2727d","ios":"levelo://app?vid=6daefb7d-890b-4927-bca4-1e9b57c2727d"},"vehicle_type_id":"4","last_reported":1730294276,"current_range_meters":37600,"station_id":"ce4bhl12rcd13ifvqgf0","pricing_plan_id":"cebpf4jnsgd1na2vs0mg"},{"bike_id":"e1d18b81-986d-4e87-b61a-22535be9c7fe","system_id":"levelo_inurba_marseille","lat":43.27067,"lon":5.42276,"is_reserved":false,"is_disabled":false,"rental_uris":{"android":"levelo://app?vid=e1d18b81-986d-4e87-b61a-22535be9c7fe","ios":"levelo://app?vid=e1d18b81-986d-4e87-b61a-22535be9c7fe"},"vehicle_type_id":"4","last_reported":1730294276,"current_range_meters":39200,"station_id":"ce4bhk92rcd13ifvqgb0","pricing_plan_id":"cebpf4jnsgd1na2vs0mg"},{"bike_id":"a1bb42ca-48af-4ecf-84af-9ae8e4bb73f6","system_id":"levelo_inurba_marseille","lat":43.28421,"lon":5.35002,"is_reserved":false,"is_disabled":false,"rental_uris":{"android":"levelo://app?vid=a1bb42ca-48af-4ecf-84af-9ae8e4bb73f6","ios":"levelo://app?vid=a1bb42ca-48af-4ecf-84af-9ae8e4bb73f6"},"vehicle_type_id":"4","last_reported":1730294276,"current_range_meters":31200,"station_id":"ce4bhbh2rcd13ifvqepg","pricing_plan_id":"cebpf4jnsgd1na2vs0mg"},{"bike_id":"7f8f5e83-f5d9-43e5-a4a6-7fbe9cf5695f","system_id":"levelo_inurba_marseille","lat":43.30552,"lon":5.36546,"is_reserved":false,"is_disabled":false,"rental_uris":{"android":"levelo://app?vid=7f8f5e83-f5d9-43e5-a4a6-7fbe9cf5695f","ios":"levelo://app?vid=7f8f5e83-f5d9-43e5-a4a6-7fbe9cf5695f"},"vehicle_type_id":"4","last_reported":1730294276,"current_range_meters":17600,"station_id":"ce4bgs12rcd13ifvqcag","pricing_plan_id":"cebpf4jnsgd1na2vs0mg"},{"bike_id":"3e4c16d2-eccb-4413-8611-5d9c884f4c95","system_id":"levelo_inurba_marseille","lat":43.29367,"lon":5.37848,"is_reserved":false,"is_disabled":false,"rental_uris":{"android":"levelo://app?vid=3e4c16d2-eccb-4413-8611-5d9c884f4c95","ios":"levelo://app?vid=3e4c16d2-eccb-4413-8611-5d9c884f4c95"},"vehicle_type_id":"4","last_reported":1730294276,"current_range_meters":38800,"station_id":"ce4bgjh2rcd13ifvqbf0","pricing_plan_id":"cebpf4jnsgd1na2vs0mg"},{"bike_id":"35f83c08-ebc5-4846-95d6-0036239c76d8","system_id":"levelo_inurba_marseille","lat":43.33021,"lon":5.39043,"is_reserved":false,"is_disabled":false,"rental_uris":{"android":"levelo://app?vid=35f83c08-ebc5-4846-95d6-0036239c76d8","ios":"levelo://app?vid=35f83c08-ebc5-4846-95d6-0036239c76d8"},"vehicle_type_id":"4","last_reported":1730294276,"current_range_meters":24800,"station_id":"ce4bhr92rcd13ifvqhrg","pricing_plan_id":"cebpf4jnsgd1na2vs0mg"},{"bike_id":"b240039e-c50d-4884-bbaf-45c1fe416cf2","system_id":"levelo_inurba_marseille","lat":43.24164,"lon":5.36391,"is_reserved":false,"is_disabled":false,"rental_uris":{"android":"levelo://app?vid=b240039e-c50d-4884-bbaf-45c1fe416cf2","ios":"levelo://app?vid=b240039e-c50d-4884-bbaf-45c1fe416cf2"},"vehicle_type_id":"4","last_reported":1730294276,"current_range_meters":32000,"station_id":"cpo36qri1sfpv3e86is0","pricing_plan_id":"cebpf4jnsgd1na2vs0mg"},{"bike_id":"26432d3e-f103-4db8-a57c-9b92c5f2de94","system_id":"levelo_inurba_marseille","lat":43.30184,"lon":5.36618,"is_reserved":false,"is_disabled":false,"rental_uris":{"android":"levelo://app?vid=26432d3e-f103-4db8-a57c-9b92c5f2de94","ios":"levelo://app?vid=26432d3e-f103-4db8-a57c-9b92c5f2de94"},"vehicle_type_id":"4","last_reported":1730294276,"current_range_meters":28400,"station_id":"ce4bgrh2rcd13ifvqc8g","pricing_plan_id":"cebpf4jnsgd1na2vs0mg"},{"bike_id":"00921eba-fc92-4dd5-929d-6798685a28e5","system_id":"levelo_inurba_marseille","lat":43.29038,"lon":5.37562,"is_reserved":false,"is_disabled":false,"rental_uris":{"android":"levelo://app?vid=00921eba-fc92-4dd5-929d-6798685a28e5","ios":"levelo://app?vid=00921eba-fc92-4dd5-929d-6798685a28e5"},"vehicle_type_id":"4","last_reported":1730294276,"current_range_meters":38400,"station_id":"ce4bh692rcd13ifvqe90","pricing_plan_id":"cebpf4jnsgd1na2vs0mg"},{"bike_id":"133d183a-350c-47e4-9c67-6d5017038f3b","system_id":"levelo_inurba_marseille","lat":43.28732,"lon":5.36089,"is_reserved":false,"is_disabled":false,"rental_uris":{"android":"levelo://app?vid=133d183a-350c-47e4-9c67-6d5017038f3b","ios":"levelo://app?vid=133d183a-350c-47e4-9c67-6d5017038f3b"},"vehicle_type_id":"4","last_reported":1730294276,"current_range_meters":39200,"station_id":"cki0cbj6b192h4jlfktg","pricing_plan_id":"cebpf4jnsgd1na2vs0mg"},{"bike_id":"58ce08b5-61d6-4053-a653-c68db61c2fa6","system_id":"levelo_inurba_marseille","lat":43.23189,"lon":5.39997,"is_reserved":false,"is_disabled":false,"rental_uris":{"android":"levelo://app?vid=58ce08b5-61d6-4053-a653-c68db61c2fa6","ios":"levelo://app?vid=58ce08b5-61d6-4053-a653-c68db61c2fa6"},"vehicle_type_id":"4","last_reported":1730294276,"current_range_meters":9600,"station_id":"ce4bhn12rcd13ifvqgqg","pricing_plan_id":"cebpf4jnsgd1na2vs0mg"},{"bike_id":"eaa53304-badd-42f8-97bd-969a099b34cb","system_id":"levelo_inurba_marseille","lat":43.24655,"lon":5.38156,"is_reserved":false,"is_disabled":false,"rental_uris":{"android":"levelo://app?vid=eaa53304-badd-42f8-97bd-969a099b34cb","ios":"levelo://app?vid=eaa53304-badd-42f8-97bd-969a099b34cb"},"vehicle_type_id":"4","last_reported":1730294276,"current_range_meters":19200,"station_id":"ce4bhih2rcd13ifvqfr0","pricing_plan_id":"cebpf4jnsgd1na2vs0mg"},{"bike_id":"1e5f5fd6-ac8e-4f2d-a4df-86afe6de4225","system_id":"levelo_inurba_marseille","lat":43.30465,"lon":5.37908,"is_reserved":false,"is_disabled":false,"rental_uris":{"android":"levelo://app?vid=1e5f5fd6-ac8e-4f2d-a4df-86afe6de4225","ios":"levelo://app?vid=1e5f5fd6-ac8e-4f2d-a4df-86afe6de4225"},"vehicle_type_id":"4","last_reported":1730294276,"current_range_meters":38800,"station_id":"ce4bgup2rcd13ifvqcn0","pricing_plan_id":"cebpf4jnsgd1na2vs0mg"},{"bike_id":"eff57a1f-9fd5-418e-8ae9-348500a160ea","system_id":"levelo_inurba_marseille","lat":43.30208,"lon":5.39464,"is_reserved":false,"is_disabled":false,"rental_uris":{"android":"levelo://app?vid=eff57a1f-9fd5-418e-8ae9-348500a160ea","ios":"levelo://app?vid=eff57a1f-9fd5-418e-8ae9-348500a160ea"},"vehicle_type_id":"4","last_reported":1730294276,"current_range_meters":7200,"station_id":"ce4bh0p2rcd13ifvqd70","pricing_plan_id":"cebpf4jnsgd1na2vs0mg"},{"bike_id":"17cc3874-f1f0-46ed-bf04-ae37820d99df","system_id":"levelo_inurba_marseille","lat":43.30459,"lon":5.37902,"is_reserved":false,"is_disabled":false,"rental_uris":{"android":"levelo://app?vid=17cc3874-f1f0-46ed-bf04-ae37820d99df","ios":"levelo://app?vid=17cc3874-f1f0-46ed-bf04-ae37820d99df"},"vehicle_type_id":"4","last_reported":1730294276,"current_range_meters":36400,"station_id":"ce4bgup2rcd13ifvqcn0","pricing_plan_id":"cebpf4jnsgd1na2vs0mg"},{"bike_id":"fc8a8b80-934e-4729-8982-ed8c2ff44c4b","system_id":"levelo_inurba_marseille","lat":43.30888,"lon":5.37199,"is_reserved":false,"is_disabled":false,"rental_uris":{"android":"levelo://app?vid=fc8a8b80-934e-4729-8982-ed8c2ff44c4b","ios":"levelo://app?vid=fc8a8b80-934e-4729-8982-ed8c2ff44c4b"},"vehicle_type_id":"4","last_reported":1730294276,"current_range_meters":32000,"station_id":"ce4bguh2rcd13ifvqckg","pricing_plan_id":"cebpf4jnsgd1na2vs0mg"},{"bike_id":"897b9f0e-fdd3-4e93-9255-82d376a1e549","system_id":"levelo_inurba_marseille","lat":43.32111,"lon":5.36765,"is_reserved":false,"is_disabled":false,"rental_uris":{"android":"levelo://app?vid=897b9f0e-fdd3-4e93-9255-82d376a1e549","ios":"levelo://app?vid=897b9f0e-fdd3-4e93-9255-82d376a1e549"},"vehicle_type_id":"4","last_reported":1730294276,"current_range_meters":32800,"station_id":"ce4bhrh2rcd13ifvqhug","pricing_plan_id":"cebpf4jnsgd1na2vs0mg"},{"bike_id":"c6b8984c-4dca-4296-9a56-9a3d0a2c06e8","system_id":"levelo_inurba_marseille","lat":43.2656,"lon":5.37282,"is_reserved":false,"is_disabled":false,"rental_uris":{"android":"levelo://app?vid=c6b8984c-4dca-4296-9a56-9a3d0a2c06e8","ios":"levelo://app?vid=c6b8984c-4dca-4296-9a56-9a3d0a2c06e8"},"vehicle_type_id":"4","last_reported":1730294276,"current_range_meters":13600,"station_id":"ce4bhg12rcd13ifvqf70","pricing_plan_id":"cebpf4jnsgd1na2vs0mg"},{"bike_id":"88fe0c90-eedb-4e7c-802b-f13a3ca2ae30","system_id":"levelo_inurba_marseille","lat":43.26574,"lon":5.38999,"is_reserved":false,"is_disabled":false,"rental_uris":{"android":"levelo://app?vid=88fe0c90-eedb-4e7c-802b-f13a3ca2ae30","ios":"levelo://app?vid=88fe0c90-eedb-4e7c-802b-f13a3ca2ae30"},"vehicle_type_id":"4","last_reported":1730294276,"current_range_meters":32400,"station_id":"ce4bhe12rcd13ifvqf30","pricing_plan_id":"cebpf4jnsgd1na2vs0mg"},{"bike_id":"caf349c8-ed3b-4304-909b-160d602b00a5","system_id":"levelo_inurba_marseille","lat":43.317026,"lon":5.377452,"is_reserved":false,"is_disabled":false,"rental_uris":{"android":"levelo://app?vid=caf349c8-ed3b-4304-909b-160d602b00a5","ios":"levelo://app?vid=caf349c8-ed3b-4304-909b-160d602b00a5"},"vehicle_type_id":"4","last_reported":1730294276,"current_range_meters":37600,"station_id":"ce4bgth2rcd13ifvqch0","pricing_plan_id":"cebpf4jnsgd1na2vs0mg"},{"bike_id":"74df42bc-22c9-4384-8bbc-4904bc13c3d1","system_id":"levelo_inurba_marseille","lat":43.31459,"lon":5.37397,"is_reserved":false,"is_disabled":false,"rental_uris":{"android":"levelo://app?vid=74df42bc-22c9-4384-8bbc-4904bc13c3d1","ios":"levelo://app?vid=74df42bc-22c9-4384-8bbc-4904bc13c3d1"},"vehicle_type_id":"4","last_reported":1730294276,"current_range_meters":33200,"station_id":"","pricing_plan_id":"cebpf4jnsgd1na2vs0mg"},{"bike_id":"8d1620e7-e5ab-4df0-827f-1b7a5189e865","system_id":"levelo_inurba_marseille","lat":43.27996,"lon":5.40018,"is_reserved":false,"is_disabled":false,"rental_uris":{"android":"levelo://app?vid=8d1620e7-e5ab-4df0-827f-1b7a5189e865","ios":"levelo://app?vid=8d1620e7-e5ab-4df0-827f-1b7a5189e865"},"vehicle_type_id":"4","last_reported":1730294276,"current_range_meters":38000,"station_id":"ce4bho92rcd13ifvqh4g","pricing_plan_id":"cebpf4jnsgd1na2vs0mg"},{"bike_id":"82a16fa2-3542-4820-b609-018ed6790cc4","system_id":"levelo_inurba_marseille","lat":43.25576,"lon":5.38231,"is_reserved":false,"is_disabled":false,"rental_uris":{"android":"levelo://app?vid=82a16fa2-3542-4820-b609-018ed6790cc4","ios":"levelo://app?vid=82a16fa2-3542-4820-b609-018ed6790cc4"},"vehicle_type_id":"4","last_reported":1730294276,"current_range_meters":34000,"station_id":"ce4bhih2rcd13ifvqfs0","pricing_plan_id":"cebpf4jnsgd1na2vs0mg"},{"bike_id":"3bc032b3-6f92-4d20-918e-813d29881b9d","system_id":"levelo_inurba_marseille","lat":43.31489,"lon":5.37302,"is_reserved":false,"is_disabled":false,"rental_uris":{"android":"levelo://app?vid=3bc032b3-6f92-4d20-918e-813d29881b9d","ios":"levelo://app?vid=3bc032b3-6f92-4d20-918e-813d29881b9d"},"vehicle_type_id":"4","last_reported":1730294276,"current_range_meters":38400,"station_id":"ce4bgt12rcd13ifvqcd0","pricing_plan_id":"cebpf4jnsgd1na2vs0mg"},{"bike_id":"8d4cf426-06ed-4c49-996a-d2487a52e1d1","system_id":"levelo_inurba_marseille","lat":43.29581,"lon":5.37515,"is_reserved":false,"is_disabled":false,"rental_uris":{"android":"levelo://app?vid=8d4cf426-06ed-4c49-996a-d2487a52e1d1","ios":"levelo://app?vid=8d4cf426-06ed-4c49-996a-d2487a52e1d1"},"vehicle_type_id":"4","last_reported":1730294276,"current_range_meters":28000,"station_id":"ce4bgh92rcd13ifvqb50","pricing_plan_id":"cebpf4jnsgd1na2vs0mg"},{"bike_id":"0cc68399-e4c5-4e56-99fe-6218e60aedcd","system_id":"levelo_inurba_marseille","lat":43.26212,"lon":5.37449,"is_reserved":false,"is_disabled":false,"rental_uris":{"android":"levelo://app?vid=0cc68399-e4c5-4e56-99fe-6218e60aedcd","ios":"levelo://app?vid=0cc68399-e4c5-4e56-99fe-6218e60aedcd"},"vehicle_type_id":"4","last_reported":1730294276,"current_range_meters":38800,"station_id":"ce4bhgp2rcd13ifvqfc0","pricing_plan_id":"cebpf4jnsgd1na2vs0mg"},{"bike_id":"dddd6f82-50c1-487f-9ac3-ca4f03caeb90","system_id":"levelo_inurba_marseille","lat":43.29614,"lon":5.37729,"is_reserved":false,"is_disabled":false,"rental_uris":{"android":"levelo://app?vid=dddd6f82-50c1-487f-9ac3-ca4f03caeb90","ios":"levelo://app?vid=dddd6f82-50c1-487f-9ac3-ca4f03caeb90"},"vehicle_type_id":"4","last_reported":1730294276,"current_range_meters":32800,"station_id":"ce4bgi92rcd13ifvqb90","pricing_plan_id":"cebpf4jnsgd1na2vs0mg"},{"bike_id":"3bd430ea-f3a4-406f-95d7-17646a78b140","system_id":"levelo_inurba_marseille","lat":43.28276,"lon":5.35074,"is_reserved":false,"is_disabled":false,"rental_uris":{"android":"levelo://app?vid=3bd430ea-f3a4-406f-95d7-17646a78b140","ios":"levelo://app?vid=3bd430ea-f3a4-406f-95d7-17646a78b140"},"vehicle_type_id":"4","last_reported":1730294276,"current_range_meters":14400,"station_id":"ce4bhbp2rcd13ifvqerg","pricing_plan_id":"cebpf4jnsgd1na2vs0mg"},{"bike_id":"ee8959f1-cd29-4e03-8ebd-8fd830fbd2e7","system_id":"levelo_inurba_marseille","lat":43.24537,"lon":5.39514,"is_reserved":false,"is_disabled":false,"rental_uris":{"android":"levelo://app?vid=ee8959f1-cd29-4e03-8ebd-8fd830fbd2e7","ios":"levelo://app?vid=ee8959f1-cd29-4e03-8ebd-8fd830fbd2e7"},"vehicle_type_id":"4","last_reported":1730294276,"current_range_meters":18000,"station_id":"ce4bhlp2rcd13ifvqgjg","pricing_plan_id":"cebpf4jnsgd1na2vs0mg"},{"bike_id":"6d29150d-c64e-47ca-87b8-bd9eae66748b","system_id":"levelo_inurba_marseille","lat":43.29278,"lon":5.40126,"is_reserved":false,"is_disabled":false,"rental_uris":{"android":"levelo://app?vid=6d29150d-c64e-47ca-87b8-bd9eae66748b","ios":"levelo://app?vid=6d29150d-c64e-47ca-87b8-bd9eae66748b"},"vehicle_type_id":"4","last_reported":1730294276,"current_range_meters":26000,"station_id":"ce4bh312rcd13ifvqdk0","pricing_plan_id":"cebpf4jnsgd1na2vs0mg"},{"bike_id":"34630d18-75dd-4aec-9bb1-0ce7aab0afdf","system_id":"levelo_inurba_marseille","lat":43.24663,"lon":5.38163,"is_reserved":false,"is_disabled":false,"rental_uris":{"android":"levelo://app?vid=34630d18-75dd-4aec-9bb1-0ce7aab0afdf","ios":"levelo://app?vid=34630d18-75dd-4aec-9bb1-0ce7aab0afdf"},"vehicle_type_id":"4","last_reported":1730294276,"current_range_meters":40000,"station_id":"ce4bhih2rcd13ifvqfr0","pricing_plan_id":"cebpf4jnsgd1na2vs0mg"},{"bike_id":"fca70fb1-2c2b-46bb-a35c-c4971041e2df","system_id":"levelo_inurba_marseille","lat":43.23185,"lon":5.39986,"is_reserved":false,"is_disabled":false,"rental_uris":{"android":"levelo://app?vid=fca70fb1-2c2b-46bb-a35c-c4971041e2df","ios":"levelo://app?vid=fca70fb1-2c2b-46bb-a35c-c4971041e2df"},"vehicle_type_id":"4","last_reported":1730294276,"current_range_meters":20800,"station_id":"ce4bhn12rcd13ifvqgqg","pricing_plan_id":"cebpf4jnsgd1na2vs0mg"},{"bike_id":"8477b381-e582-4791-b9ad-e1bb7b648c5e","system_id":"levelo_inurba_marseille","lat":43.30788,"lon":5.37649,"is_reserved":false,"is_disabled":false,"rental_uris":{"android":"levelo://app?vid=8477b381-e582-4791-b9ad-e1bb7b648c5e","ios":"levelo://app?vid=8477b381-e582-4791-b9ad-e1bb7b648c5e"},"vehicle_type_id":"4","last_reported":1730294276,"current_range_meters":39200,"station_id":"ce4bgv92rcd13ifvqcq0","pricing_plan_id":"cebpf4jnsgd1na2vs0mg"},{"bike_id":"c5ab8f86-3c93-447c-b767-f885bdebd2ff","system_id":"levelo_inurba_marseille","lat":43.27071,"lon":5.42276,"is_reserved":false,"is_disabled":false,"rental_uris":{"android":"levelo://app?vid=c5ab8f86-3c93-447c-b767-f885bdebd2ff","ios":"levelo://app?vid=c5ab8f86-3c93-447c-b767-f885bdebd2ff"},"vehicle_type_id":"4","last_reported":1730294276,"current_range_meters":39200,"station_id":"ce4bhk92rcd13ifvqgb0","pricing_plan_id":"cebpf4jnsgd1na2vs0mg"},{"bike_id":"dbcc8fae-84a9-409b-8858-7a8145e12a90","system_id":"levelo_inurba_marseille","lat":43.29184,"lon":5.392579,"is_reserved":false,"is_disabled":false,"rental_uris":{"android":"levelo://app?vid=dbcc8fae-84a9-409b-8858-7a8145e12a90","ios":"levelo://app?vid=dbcc8fae-84a9-409b-8858-7a8145e12a90"},"vehicle_type_id":"4","last_reported":1730294276,"current_range_meters":24000,"station_id":"ce4bh192rcd13ifvqdd0","pricing_plan_id":"cebpf4jnsgd1na2vs0mg"},{"bike_id":"5044e17b-aeef-4727-8d16-1be9c2d9ac06","system_id":"levelo_inurba_marseille","lat":43.27371,"lon":5.36261,"is_reserved":false,"is_disabled":false,"rental_uris":{"android":"levelo://app?vid=5044e17b-aeef-4727-8d16-1be9c2d9ac06","ios":"levelo://app?vid=5044e17b-aeef-4727-8d16-1be9c2d9ac06"},"vehicle_type_id":"4","last_reported":1730294276,"current_range_meters":37600,"station_id":"ce4bhbh2rcd13ifvqeo0","pricing_plan_id":"cebpf4jnsgd1na2vs0mg"},{"bike_id":"70bb78fe-4bef-4d56-a833-affc0bdfc9f3","system_id":"levelo_inurba_marseille","lat":43.23193,"lon":5.35565,"is_reserved":false,"is_disabled":false,"rental_uris":{"android":"levelo://app?vid=70bb78fe-4bef-4d56-a833-affc0bdfc9f3","ios":"levelo://app?vid=70bb78fe-4bef-4d56-a833-affc0bdfc9f3"},"vehicle_type_id":"4","last_reported":1730294276,"current_range_meters":37600,"station_id":"ce4bhu92rcd13ifvqi70","pricing_plan_id":"cebpf4jnsgd1na2vs0mg"},{"bike_id":"4ddccad7-b3ed-4735-baf1-47b0efd4fcbb","system_id":"levelo_inurba_marseille","lat":43.25107,"lon":5.40327,"is_reserved":false,"is_disabled":false,"rental_uris":{"android":"levelo://app?vid=4ddccad7-b3ed-4735-baf1-47b0efd4fcbb","ios":"levelo://app?vid=4ddccad7-b3ed-4735-baf1-47b0efd4fcbb"},"vehicle_type_id":"4","last_reported":1730294276,"current_range_meters":16800,"station_id":"ce4bhlh2rcd13ifvqgig","pricing_plan_id":"cebpf4jnsgd1na2vs0mg"},{"bike_id":"5c244c3d-8fd7-4c95-b825-2f7fe2f15994","system_id":"levelo_inurba_marseille","lat":43.23185,"lon":5.35542,"is_reserved":false,"is_disabled":false,"rental_uris":{"android":"levelo://app?vid=5c244c3d-8fd7-4c95-b825-2f7fe2f15994","ios":"levelo://app?vid=5c244c3d-8fd7-4c95-b825-2f7fe2f15994"},"vehicle_type_id":"4","last_reported":1730294276,"current_range_meters":40000,"station_id":"ce4bhu92rcd13ifvqi70","pricing_plan_id":"cebpf4jnsgd1na2vs0mg"},{"bike_id":"5efd5148-f738-4c82-8164-c1739863b28d","system_id":"levelo_inurba_marseille","lat":43.26941,"lon":5.40241,"is_reserved":false,"is_disabled":false,"rental_uris":{"android":"levelo://app?vid=5efd5148-f738-4c82-8164-c1739863b28d","ios":"levelo://app?vid=5efd5148-f738-4c82-8164-c1739863b28d"},"vehicle_type_id":"4","last_reported":1730294276,"current_range_meters":15200,"station_id":"cjm6bp8fraef2m0cb0m0","pricing_plan_id":"cebpf4jnsgd1na2vs0mg"},{"bike_id":"1352da78-da71-4367-b774-6e458f486c56","system_id":"levelo_inurba_marseille","lat":43.28421,"lon":5.34976,"is_reserved":false,"is_disabled":false,"rental_uris":{"android":"levelo://app?vid=1352da78-da71-4367-b774-6e458f486c56","ios":"levelo://app?vid=1352da78-da71-4367-b774-6e458f486c56"},"vehicle_type_id":"4","last_reported":1730294276,"current_range_meters":14400,"station_id":"ce4bhbh2rcd13ifvqepg","pricing_plan_id":"cebpf4jnsgd1na2vs0mg"},{"bike_id":"d27b62e4-e99a-49d8-87b8-99826b82ab55","system_id":"levelo_inurba_marseille","lat":43.34143,"lon":5.40905,"is_reserved":false,"is_disabled":false,"rental_uris":{"android":"levelo://app?vid=d27b62e4-e99a-49d8-87b8-99826b82ab55","ios":"levelo://app?vid=d27b62e4-e99a-49d8-87b8-99826b82ab55"},"vehicle_type_id":"4","last_reported":1730294276,"current_range_meters":38000,"station_id":"ce4bhqh2rcd13ifvqhlg","pricing_plan_id":"cebpf4jnsgd1na2vs0mg"},{"bike_id":"bc2b1518-b95f-4acb-bf5e-9fea031dd0f6","system_id":"levelo_inurba_marseille","lat":43.23183,"lon":5.399935,"is_reserved":false,"is_disabled":false,"rental_uris":{"android":"levelo://app?vid=bc2b1518-b95f-4acb-bf5e-9fea031dd0f6","ios":"levelo://app?vid=bc2b1518-b95f-4acb-bf5e-9fea031dd0f6"},"vehicle_type_id":"4","last_reported":1730294276,"current_range_meters":8800,"station_id":"ce4bhn12rcd13ifvqgqg","pricing_plan_id":"cebpf4jnsgd1na2vs0mg"},{"bike_id":"c6472a4b-15fb-475c-a800-9db188055ce2","system_id":"levelo_inurba_marseille","lat":43.25827,"lon":5.39427,"is_reserved":false,"is_disabled":false,"rental_uris":{"android":"levelo://app?vid=c6472a4b-15fb-475c-a800-9db188055ce2","ios":"levelo://app?vid=c6472a4b-15fb-475c-a800-9db188055ce2"},"vehicle_type_id":"4","last_reported":1730294276,"current_range_meters":12400,"station_id":"ce4bhip2rcd13ifvqft0","pricing_plan_id":"cebpf4jnsgd1na2vs0mg"},{"bike_id":"2014248e-cd81-400c-bc55-98e87f2ed485","system_id":"levelo_inurba_marseille","lat":43.30461,"lon":5.37897,"is_reserved":false,"is_disabled":false,"rental_uris":{"android":"levelo://app?vid=2014248e-cd81-400c-bc55-98e87f2ed485","ios":"levelo://app?vid=2014248e-cd81-400c-bc55-98e87f2ed485"},"vehicle_type_id":"4","last_reported":1730294276,"current_range_meters":39200,"station_id":"ce4bgup2rcd13ifvqcn0","pricing_plan_id":"cebpf4jnsgd1na2vs0mg"},{"bike_id":"1e6ec50c-8e5b-409b-a05d-6eef792d2823","system_id":"levelo_inurba_marseille","lat":43.30423,"lon":5.39751,"is_reserved":false,"is_disabled":false,"rental_uris":{"android":"levelo://app?vid=1e6ec50c-8e5b-409b-a05d-6eef792d2823","ios":"levelo://app?vid=1e6ec50c-8e5b-409b-a05d-6eef792d2823"},"vehicle_type_id":"4","last_reported":1730294276,"current_range_meters":38400,"station_id":"ce4bh092rcd13ifvqd20","pricing_plan_id":"cebpf4jnsgd1na2vs0mg"},{"bike_id":"92adf987-4779-4b78-ad9c-8e29ab9175f3","system_id":"levelo_inurba_marseille","lat":43.23197,"lon":5.35554,"is_reserved":false,"is_disabled":false,"rental_uris":{"android":"levelo://app?vid=92adf987-4779-4b78-ad9c-8e29ab9175f3","ios":"levelo://app?vid=92adf987-4779-4b78-ad9c-8e29ab9175f3"},"vehicle_type_id":"4","last_reported":1730294276,"current_range_meters":12400,"station_id":"ce4bhu92rcd13ifvqi70","pricing_plan_id":"cebpf4jnsgd1na2vs0mg"},{"bike_id":"8378f529-fbe0-4807-a1be-ebc69d00a1f8","system_id":"levelo_inurba_marseille","lat":43.304535,"lon":5.378996,"is_reserved":false,"is_disabled":false,"rental_uris":{"android":"levelo://app?vid=8378f529-fbe0-4807-a1be-ebc69d00a1f8","ios":"levelo://app?vid=8378f529-fbe0-4807-a1be-ebc69d00a1f8"},"vehicle_type_id":"4","last_reported":1730294276,"current_range_meters":10000,"station_id":"ce4bgup2rcd13ifvqcn0","pricing_plan_id":"cebpf4jnsgd1na2vs0mg"},{"bike_id":"01a7c336-a198-4f0d-b075-7df680f9a2d2","system_id":"levelo_inurba_marseille","lat":43.29828,"lon":5.36254,"is_reserved":false,"is_disabled":false,"rental_uris":{"android":"levelo://app?vid=01a7c336-a198-4f0d-b075-7df680f9a2d2","ios":"levelo://app?vid=01a7c336-a198-4f0d-b075-7df680f9a2d2"},"vehicle_type_id":"4","last_reported":1730294276,"current_range_meters":38400,"station_id":"ce4bgpp2rcd13ifvqc3g","pricing_plan_id":"cebpf4jnsgd1na2vs0mg"},{"bike_id":"2f1c4426-f310-402d-b1c8-cfa2fb98b436","system_id":"levelo_inurba_marseille","lat":43.28104,"lon":5.37832,"is_reserved":false,"is_disabled":false,"rental_uris":{"android":"levelo://app?vid=2f1c4426-f310-402d-b1c8-cfa2fb98b436","ios":"levelo://app?vid=2f1c4426-f310-402d-b1c8-cfa2fb98b436"},"vehicle_type_id":"4","last_reported":1730294276,"current_range_meters":35600,"station_id":"ce4bha12rcd13ifvqee0","pricing_plan_id":"cebpf4jnsgd1na2vs0mg"},{"bike_id":"48ea6b16-c532-4fec-9e3c-c037b7803c09","system_id":"levelo_inurba_marseille","lat":43.30542,"lon":5.36527,"is_reserved":false,"is_disabled":false,"rental_uris":{"android":"levelo://app?vid=48ea6b16-c532-4fec-9e3c-c037b7803c09","ios":"levelo://app?vid=48ea6b16-c532-4fec-9e3c-c037b7803c09"},"vehicle_type_id":"4","last_reported":1730294276,"current_range_meters":28000,"station_id":"ce4bgs12rcd13ifvqcag","pricing_plan_id":"cebpf4jnsgd1na2vs0mg"},{"bike_id":"e8c7a8ed-d07d-4230-b4d3-5ad846607295","system_id":"levelo_inurba_marseille","lat":43.29002,"lon":5.35604,"is_reserved":false,"is_disabled":false,"rental_uris":{"android":"levelo://app?vid=e8c7a8ed-d07d-4230-b4d3-5ad846607295","ios":"levelo://app?vid=e8c7a8ed-d07d-4230-b4d3-5ad846607295"},"vehicle_type_id":"4","last_reported":1730294276,"current_range_meters":38800,"station_id":"ce4bhb92rcd13ifvqen0","pricing_plan_id":"cebpf4jnsgd1na2vs0mg"},{"bike_id":"269a4193-03a6-4fe1-93c0-2b8610ca1e7f","system_id":"levelo_inurba_marseille","lat":43.24393,"lon":5.37054,"is_reserved":false,"is_disabled":false,"rental_uris":{"android":"levelo://app?vid=269a4193-03a6-4fe1-93c0-2b8610ca1e7f","ios":"levelo://app?vid=269a4193-03a6-4fe1-93c0-2b8610ca1e7f"},"vehicle_type_id":"4","last_reported":1730294276,"current_range_meters":18800,"station_id":"ce4bhhh2rcd13ifvqfk0","pricing_plan_id":"cebpf4jnsgd1na2vs0mg"},{"bike_id":"402ccdbe-675b-4fa5-85ab-25efed180ee5","system_id":"levelo_inurba_marseille","lat":43.26202,"lon":5.3794,"is_reserved":false,"is_disabled":false,"rental_uris":{"android":"levelo://app?vid=402ccdbe-675b-4fa5-85ab-25efed180ee5","ios":"levelo://app?vid=402ccdbe-675b-4fa5-85ab-25efed180ee5"},"vehicle_type_id":"4","last_reported":1730294276,"current_range_meters":4400,"station_id":"ce4bhjp2rcd13ifvqg90","pricing_plan_id":"cebpf4jnsgd1na2vs0mg"},{"bike_id":"ec6bf2c6-81ba-4965-828b-92e734ee6e46","system_id":"levelo_inurba_marseille","lat":43.2319,"lon":5.35556,"is_reserved":false,"is_disabled":false,"rental_uris":{"android":"levelo://app?vid=ec6bf2c6-81ba-4965-828b-92e734ee6e46","ios":"levelo://app?vid=ec6bf2c6-81ba-4965-828b-92e734ee6e46"},"vehicle_type_id":"4","last_reported":1730294276,"current_range_meters":3600,"station_id":"ce4bhu92rcd13ifvqi70","pricing_plan_id":"cebpf4jnsgd1na2vs0mg"},{"bike_id":"08e6cee8-7b8f-450e-8f76-9c855ef87ef2","system_id":"levelo_inurba_marseille","lat":43.251225,"lon":5.403162,"is_reserved":false,"is_disabled":false,"rental_uris":{"android":"levelo://app?vid=08e6cee8-7b8f-450e-8f76-9c855ef87ef2","ios":"levelo://app?vid=08e6cee8-7b8f-450e-8f76-9c855ef87ef2"},"vehicle_type_id":"4","last_reported":1730294276,"current_range_meters":20400,"station_id":"ce4bhlh2rcd13ifvqgig","pricing_plan_id":"cebpf4jnsgd1na2vs0mg"},{"bike_id":"d7012743-7323-4d36-a6a0-94c8a1e5fc2c","system_id":"levelo_inurba_marseille","lat":43.28423,"lon":5.34994,"is_reserved":false,"is_disabled":false,"rental_uris":{"android":"levelo://app?vid=d7012743-7323-4d36-a6a0-94c8a1e5fc2c","ios":"levelo://app?vid=d7012743-7323-4d36-a6a0-94c8a1e5fc2c"},"vehicle_type_id":"4","last_reported":1730294276,"current_range_meters":40000,"station_id":"ce4bhbh2rcd13ifvqepg","pricing_plan_id":"cebpf4jnsgd1na2vs0mg"},{"bike_id":"cf4de1bc-890e-4482-b8fc-121976538360","system_id":"levelo_inurba_marseille","lat":43.29197,"lon":5.3932,"is_reserved":false,"is_disabled":false,"rental_uris":{"android":"levelo://app?vid=cf4de1bc-890e-4482-b8fc-121976538360","ios":"levelo://app?vid=cf4de1bc-890e-4482-b8fc-121976538360"},"vehicle_type_id":"4","last_reported":1730294276,"current_range_meters":20800,"station_id":"ce4bh192rcd13ifvqdd0","pricing_plan_id":"cebpf4jnsgd1na2vs0mg"},{"bike_id":"8b45daa8-6bb8-4296-9872-cd10867d1db0","system_id":"levelo_inurba_marseille","lat":43.31344,"lon":5.36708,"is_reserved":false,"is_disabled":false,"rental_uris":{"android":"levelo://app?vid=8b45daa8-6bb8-4296-9872-cd10867d1db0","ios":"levelo://app?vid=8b45daa8-6bb8-4296-9872-cd10867d1db0"},"vehicle_type_id":"4","last_reported":1730294276,"current_range_meters":39200,"station_id":"ce4bgr92rcd13ifvqc6g","pricing_plan_id":"cebpf4jnsgd1na2vs0mg"},{"bike_id":"90d01e10-6937-4289-bf41-0d1fbea124ff","system_id":"levelo_inurba_marseille","lat":43.31266,"lon":5.40169,"is_reserved":false,"is_disabled":false,"rental_uris":{"android":"levelo://app?vid=90d01e10-6937-4289-bf41-0d1fbea124ff","ios":"levelo://app?vid=90d01e10-6937-4289-bf41-0d1fbea124ff"},"vehicle_type_id":"4","last_reported":1730294276,"current_range_meters":24800,"station_id":"ce4bh092rcd13ifvqd30","pricing_plan_id":"cebpf4jnsgd1na2vs0mg"},{"bike_id":"5058221a-106c-4738-91d8-0e0e2a79e832","system_id":"levelo_inurba_marseille","lat":43.30892,"lon":5.3719,"is_reserved":false,"is_disabled":false,"rental_uris":{"android":"levelo://app?vid=5058221a-106c-4738-91d8-0e0e2a79e832","ios":"levelo://app?vid=5058221a-106c-4738-91d8-0e0e2a79e832"},"vehicle_type_id":"4","last_reported":1730294276,"current_range_meters":36400,"station_id":"ce4bguh2rcd13ifvqckg","pricing_plan_id":"cebpf4jnsgd1na2vs0mg"},{"bike_id":"c7fb082d-ee6c-488a-84cb-589d7a8e411b","system_id":"levelo_inurba_marseille","lat":43.2318,"lon":5.35537,"is_reserved":false,"is_disabled":false,"rental_uris":{"android":"levelo://app?vid=c7fb082d-ee6c-488a-84cb-589d7a8e411b","ios":"levelo://app?vid=c7fb082d-ee6c-488a-84cb-589d7a8e411b"},"vehicle_type_id":"4","last_reported":1730294276,"current_range_meters":25200,"station_id":"ce4bhu92rcd13ifvqi70","pricing_plan_id":"cebpf4jnsgd1na2vs0mg"},{"bike_id":"cc56b190-a750-485d-aeff-2e71c9ccd1de","system_id":"levelo_inurba_marseille","lat":43.31337,"lon":5.36716,"is_reserved":false,"is_disabled":false,"rental_uris":{"android":"levelo://app?vid=cc56b190-a750-485d-aeff-2e71c9ccd1de","ios":"levelo://app?vid=cc56b190-a750-485d-aeff-2e71c9ccd1de"},"vehicle_type_id":"4","last_reported":1730294276,"current_range_meters":21600,"station_id":"ce4bgr92rcd13ifvqc6g","pricing_plan_id":"cebpf4jnsgd1na2vs0mg"},{"bike_id":"38b8d321-8fd9-4111-be22-688ce65298c2","system_id":"levelo_inurba_marseille","lat":43.26571,"lon":5.39007,"is_reserved":false,"is_disabled":false,"rental_uris":{"android":"levelo://app?vid=38b8d321-8fd9-4111-be22-688ce65298c2","ios":"levelo://app?vid=38b8d321-8fd9-4111-be22-688ce65298c2"},"vehicle_type_id":"4","last_reported":1730294276,"current_range_meters":24000,"station_id":"ce4bhe12rcd13ifvqf30","pricing_plan_id":"cebpf4jnsgd1na2vs0mg"},{"bike_id":"77435c07-a404-440f-b5dc-eb1e0980b008","system_id":"levelo_inurba_marseille","lat":43.24391,"lon":5.37056,"is_reserved":false,"is_disabled":false,"rental_uris":{"android":"levelo://app?vid=77435c07-a404-440f-b5dc-eb1e0980b008","ios":"levelo://app?vid=77435c07-a404-440f-b5dc-eb1e0980b008"},"vehicle_type_id":"4","last_reported":1730294276,"current_range_meters":8800,"station_id":"ce4bhhh2rcd13ifvqfk0","pricing_plan_id":"cebpf4jnsgd1na2vs0mg"},{"bike_id":"2370a04e-d358-4a29-b67a-890bf50b34fd","system_id":"levelo_inurba_marseille","lat":43.24171,"lon":5.36403,"is_reserved":false,"is_disabled":false,"rental_uris":{"android":"levelo://app?vid=2370a04e-d358-4a29-b67a-890bf50b34fd","ios":"levelo://app?vid=2370a04e-d358-4a29-b67a-890bf50b34fd"},"vehicle_type_id":"4","last_reported":1730294276,"current_range_meters":6800,"station_id":"cpo36qri1sfpv3e86is0","pricing_plan_id":"cebpf4jnsgd1na2vs0mg"},{"bike_id":"5a3470ac-7831-4bac-92a0-8fcf659d9633","system_id":"levelo_inurba_marseille","lat":43.29905,"lon":5.37469,"is_reserved":false,"is_disabled":false,"rental_uris":{"android":"levelo://app?vid=5a3470ac-7831-4bac-92a0-8fcf659d9633","ios":"levelo://app?vid=5a3470ac-7831-4bac-92a0-8fcf659d9633"},"vehicle_type_id":"4","last_reported":1730294276,"current_range_meters":40000,"station_id":"ce4bgjh2rcd13ifvqbg0","pricing_plan_id":"cebpf4jnsgd1na2vs0mg"},{"bike_id":"5e0068b8-d5d6-4464-86a6-0050fa065169","system_id":"levelo_inurba_marseille","lat":43.29049,"lon":5.35913,"is_reserved":false,"is_disabled":false,"rental_uris":{"android":"levelo://app?vid=5e0068b8-d5d6-4464-86a6-0050fa065169","ios":"levelo://app?vid=5e0068b8-d5d6-4464-86a6-0050fa065169"},"vehicle_type_id":"4","last_reported":1730294276,"current_range_meters":24800,"station_id":"ce4bha92rcd13ifvqeg0","pricing_plan_id":"cebpf4jnsgd1na2vs0mg"},{"bike_id":"538c6c97-8738-4e40-afde-1ced2fc6b778","system_id":"levelo_inurba_marseille","lat":43.33717,"lon":5.39181,"is_reserved":false,"is_disabled":false,"rental_uris":{"android":"levelo://app?vid=538c6c97-8738-4e40-afde-1ced2fc6b778","ios":"levelo://app?vid=538c6c97-8738-4e40-afde-1ced2fc6b778"},"vehicle_type_id":"4","last_reported":1730294276,"current_range_meters":36400,"station_id":"ce4bhr92rcd13ifvqhsg","pricing_plan_id":"cebpf4jnsgd1na2vs0mg"},{"bike_id":"8cc8b0ff-bb01-4ce0-b5d9-2d3234179bc1","system_id":"levelo_inurba_marseille","lat":43.31351,"lon":5.367,"is_reserved":false,"is_disabled":false,"rental_uris":{"android":"levelo://app?vid=8cc8b0ff-bb01-4ce0-b5d9-2d3234179bc1","ios":"levelo://app?vid=8cc8b0ff-bb01-4ce0-b5d9-2d3234179bc1"},"vehicle_type_id":"4","last_reported":1730294276,"current_range_meters":6800,"station_id":"ce4bgr92rcd13ifvqc6g","pricing_plan_id":"cebpf4jnsgd1na2vs0mg"},{"bike_id":"03e26363-1adc-494c-8098-91070571fba5","system_id":"levelo_inurba_marseille","lat":43.23194,"lon":5.35551,"is_reserved":false,"is_disabled":false,"rental_uris":{"android":"levelo://app?vid=03e26363-1adc-494c-8098-91070571fba5","ios":"levelo://app?vid=03e26363-1adc-494c-8098-91070571fba5"},"vehicle_type_id":"4","last_reported":1730294276,"current_range_meters":30400,"station_id":"ce4bhu92rcd13ifvqi70","pricing_plan_id":"cebpf4jnsgd1na2vs0mg"},{"bike_id":"c497513d-9d1d-4320-a1e3-875a8b21d4c5","system_id":"levelo_inurba_marseille","lat":43.27172,"lon":5.40993,"is_reserved":false,"is_disabled":false,"rental_uris":{"android":"levelo://app?vid=c497513d-9d1d-4320-a1e3-875a8b21d4c5","ios":"levelo://app?vid=c497513d-9d1d-4320-a1e3-875a8b21d4c5"},"vehicle_type_id":"4","last_reported":1730294276,"current_range_meters":32400,"station_id":"ce4bhl12rcd13ifvqgf0","pricing_plan_id":"cebpf4jnsgd1na2vs0mg"},{"bike_id":"c7904cdf-9031-451b-986f-42f9fb8312cb","system_id":"levelo_inurba_marseille","lat":43.2903,"lon":5.37559,"is_reserved":false,"is_disabled":false,"rental_uris":{"android":"levelo://app?vid=c7904cdf-9031-451b-986f-42f9fb8312cb","ios":"levelo://app?vid=c7904cdf-9031-451b-986f-42f9fb8312cb"},"vehicle_type_id":"4","last_reported":1730294276,"current_range_meters":38000,"station_id":"ce4bh692rcd13ifvqe90","pricing_plan_id":"cebpf4jnsgd1na2vs0mg"},{"bike_id":"81e191dc-36a3-4dd3-a48a-138cae2d571f","system_id":"levelo_inurba_marseille","lat":43.23152,"lon":5.43708,"is_reserved":false,"is_disabled":false,"rental_uris":{"android":"levelo://app?vid=81e191dc-36a3-4dd3-a48a-138cae2d571f","ios":"levelo://app?vid=81e191dc-36a3-4dd3-a48a-138cae2d571f"},"vehicle_type_id":"4","last_reported":1730294276,"current_range_meters":39200,"station_id":"ce4bhmp2rcd13ifvqgog","pricing_plan_id":"cebpf4jnsgd1na2vs0mg"},{"bike_id":"e9141b44-30ab-459c-94b2-99dbe6b7a845","system_id":"levelo_inurba_marseille","lat":43.2955,"lon":5.42284,"is_reserved":false,"is_disabled":false,"rental_uris":{"android":"levelo://app?vid=e9141b44-30ab-459c-94b2-99dbe6b7a845","ios":"levelo://app?vid=e9141b44-30ab-459c-94b2-99dbe6b7a845"},"vehicle_type_id":"4","last_reported":1730294276,"current_range_meters":36400,"station_id":"ce4bhph2rcd13ifvqhdg","pricing_plan_id":"cebpf4jnsgd1na2vs0mg"},{"bike_id":"28de54ce-5fc5-46ae-b20b-432d9ecf7098","system_id":"levelo_inurba_marseille","lat":43.32545,"lon":5.41441,"is_reserved":false,"is_disabled":false,"rental_uris":{"android":"levelo://app?vid=28de54ce-5fc5-46ae-b20b-432d9ecf7098","ios":"levelo://app?vid=28de54ce-5fc5-46ae-b20b-432d9ecf7098"},"vehicle_type_id":"4","last_reported":1730294276,"current_range_meters":19600,"station_id":"ce4bhq12rcd13ifvqhhg","pricing_plan_id":"cebpf4jnsgd1na2vs0mg"},{"bike_id":"8fc8f69f-228e-4754-8013-e3713d197b92","system_id":"levelo_inurba_marseille","lat":43.24664,"lon":5.38166,"is_reserved":false,"is_disabled":false,"rental_uris":{"android":"levelo://app?vid=8fc8f69f-228e-4754-8013-e3713d197b92","ios":"levelo://app?vid=8fc8f69f-228e-4754-8013-e3713d197b92"},"vehicle_type_id":"4","last_reported":1730294276,"current_range_meters":40000,"station_id":"ce4bhih2rcd13ifvqfr0","pricing_plan_id":"cebpf4jnsgd1na2vs0mg"},{"bike_id":"bb2a7d96-9d28-4524-aeb4-a1488923c01a","system_id":"levelo_inurba_marseille","lat":43.30145,"lon":5.38099,"is_reserved":false,"is_disabled":false,"rental_uris":{"android":"levelo://app?vid=bb2a7d96-9d28-4524-aeb4-a1488923c01a","ios":"levelo://app?vid=bb2a7d96-9d28-4524-aeb4-a1488923c01a"},"vehicle_type_id":"4","last_reported":1730294276,"current_range_meters":38800,"station_id":"ce4bgjp2rcd13ifvqbh0","pricing_plan_id":"cebpf4jnsgd1na2vs0mg"},{"bike_id":"a306c469-7544-4489-af82-e9fb1e9b4215","system_id":"levelo_inurba_marseille","lat":43.23172,"lon":5.39979,"is_reserved":false,"is_disabled":false,"rental_uris":{"android":"levelo://app?vid=a306c469-7544-4489-af82-e9fb1e9b4215","ios":"levelo://app?vid=a306c469-7544-4489-af82-e9fb1e9b4215"},"vehicle_type_id":"4","last_reported":1730294276,"current_range_meters":38800,"station_id":"ce4bhn12rcd13ifvqgqg","pricing_plan_id":"cebpf4jnsgd1na2vs0mg"},{"bike_id":"307ff4f1-56ad-4889-a77d-481cad67856d","system_id":"levelo_inurba_marseille","lat":43.28107,"lon":5.37833,"is_reserved":false,"is_disabled":false,"rental_uris":{"android":"levelo://app?vid=307ff4f1-56ad-4889-a77d-481cad67856d","ios":"levelo://app?vid=307ff4f1-56ad-4889-a77d-481cad67856d"},"vehicle_type_id":"4","last_reported":1730294276,"current_range_meters":18800,"station_id":"ce4bha12rcd13ifvqee0","pricing_plan_id":"cebpf4jnsgd1na2vs0mg"},{"bike_id":"8b847a2d-b5f7-4be0-8235-f7dfa1837649","system_id":"levelo_inurba_marseille","lat":43.29514,"lon":5.394,"is_reserved":false,"is_disabled":false,"rental_uris":{"android":"levelo://app?vid=8b847a2d-b5f7-4be0-8235-f7dfa1837649","ios":"levelo://app?vid=8b847a2d-b5f7-4be0-8235-f7dfa1837649"},"vehicle_type_id":"4","last_reported":1730294276,"current_range_meters":29600,"station_id":"ce4bh292rcd13ifvqdf0","pricing_plan_id":"cebpf4jnsgd1na2vs0mg"},{"bike_id":"1c8653b8-822d-4908-8cf4-86271b095a05","system_id":"levelo_inurba_marseille","lat":43.23149,"lon":5.437,"is_reserved":false,"is_disabled":false,"rental_uris":{"android":"levelo://app?vid=1c8653b8-822d-4908-8cf4-86271b095a05","ios":"levelo://app?vid=1c8653b8-822d-4908-8cf4-86271b095a05"},"vehicle_type_id":"4","last_reported":1730294276,"current_range_meters":38800,"station_id":"ce4bhmp2rcd13ifvqgog","pricing_plan_id":"cebpf4jnsgd1na2vs0mg"},{"bike_id":"28be2e90-3ac6-4686-ae54-ecfc500be0fc","system_id":"levelo_inurba_marseille","lat":43.24807,"lon":5.37451,"is_reserved":false,"is_disabled":false,"rental_uris":{"android":"levelo://app?vid=28be2e90-3ac6-4686-ae54-ecfc500be0fc","ios":"levelo://app?vid=28be2e90-3ac6-4686-ae54-ecfc500be0fc"},"vehicle_type_id":"4","last_reported":1730294276,"current_range_meters":38800,"station_id":"ce4bhgh2rcd13ifvqfb0","pricing_plan_id":"cebpf4jnsgd1na2vs0mg"},{"bike_id":"56933eca-3bb3-4328-ad1a-ee76079e4187","system_id":"levelo_inurba_marseille","lat":43.28274,"lon":5.35058,"is_reserved":false,"is_disabled":false,"rental_uris":{"android":"levelo://app?vid=56933eca-3bb3-4328-ad1a-ee76079e4187","ios":"levelo://app?vid=56933eca-3bb3-4328-ad1a-ee76079e4187"},"vehicle_type_id":"4","last_reported":1730294276,"current_range_meters":29600,"station_id":"ce4bhbp2rcd13ifvqerg","pricing_plan_id":"cebpf4jnsgd1na2vs0mg"},{"bike_id":"ba131206-8f98-4bcf-a0d2-5799b4b8f3ac","system_id":"levelo_inurba_marseille","lat":43.23149,"lon":5.43702,"is_reserved":false,"is_disabled":false,"rental_uris":{"android":"levelo://app?vid=ba131206-8f98-4bcf-a0d2-5799b4b8f3ac","ios":"levelo://app?vid=ba131206-8f98-4bcf-a0d2-5799b4b8f3ac"},"vehicle_type_id":"4","last_reported":1730294276,"current_range_meters":19200,"station_id":"ce4bhmp2rcd13ifvqgog","pricing_plan_id":"cebpf4jnsgd1na2vs0mg"},{"bike_id":"9c28f2bc-4e6c-40ab-905e-4525a9d36cb1","system_id":"levelo_inurba_marseille","lat":43.30917,"lon":5.36853,"is_reserved":false,"is_disabled":false,"rental_uris":{"android":"levelo://app?vid=9c28f2bc-4e6c-40ab-905e-4525a9d36cb1","ios":"levelo://app?vid=9c28f2bc-4e6c-40ab-905e-4525a9d36cb1"},"vehicle_type_id":"4","last_reported":1730294276,"current_range_meters":36000,"station_id":"ce4bgn92rcd13ifvqbvg","pricing_plan_id":"cebpf4jnsgd1na2vs0mg"},{"bike_id":"ba7945cd-b1c9-49ae-a05d-e3eca1105fac","system_id":"levelo_inurba_marseille","lat":43.29003,"lon":5.35616,"is_reserved":false,"is_disabled":false,"rental_uris":{"android":"levelo://app?vid=ba7945cd-b1c9-49ae-a05d-e3eca1105fac","ios":"levelo://app?vid=ba7945cd-b1c9-49ae-a05d-e3eca1105fac"},"vehicle_type_id":"4","last_reported":1730294276,"current_range_meters":25200,"station_id":"ce4bhb92rcd13ifvqen0","pricing_plan_id":"cebpf4jnsgd1na2vs0mg"},{"bike_id":"a64c4bd1-0283-471c-9ad4-96f8bc63ef8b","system_id":"levelo_inurba_marseille","lat":43.3248,"lon":5.36578,"is_reserved":false,"is_disabled":false,"rental_uris":{"android":"levelo://app?vid=a64c4bd1-0283-471c-9ad4-96f8bc63ef8b","ios":"levelo://app?vid=a64c4bd1-0283-471c-9ad4-96f8bc63ef8b"},"vehicle_type_id":"4","last_reported":1730294276,"current_range_meters":24400,"station_id":"ce4bhs12rcd13ifvqhvg","pricing_plan_id":"cebpf4jnsgd1na2vs0mg"},{"bike_id":"12e86db8-55f6-4b22-a645-ced51b4e9e56","system_id":"levelo_inurba_marseille","lat":43.316905,"lon":5.404355,"is_reserved":false,"is_disabled":false,"rental_uris":{"android":"levelo://app?vid=12e86db8-55f6-4b22-a645-ced51b4e9e56","ios":"levelo://app?vid=12e86db8-55f6-4b22-a645-ced51b4e9e56"},"vehicle_type_id":"4","last_reported":1730294276,"current_range_meters":34000,"station_id":"ce4bh012rcd13ifvqd00","pricing_plan_id":"cebpf4jnsgd1na2vs0mg"},{"bike_id":"2fc444d6-d3d3-4fb9-b043-584538802c00","system_id":"levelo_inurba_marseille","lat":43.271562,"lon":5.391872,"is_reserved":false,"is_disabled":false,"rental_uris":{"android":"levelo://app?vid=2fc444d6-d3d3-4fb9-b043-584538802c00","ios":"levelo://app?vid=2fc444d6-d3d3-4fb9-b043-584538802c00"},"vehicle_type_id":"4","last_reported":1730294276,"current_range_meters":14800,"station_id":"ce4bhhp2rcd13ifvqfm0","pricing_plan_id":"cebpf4jnsgd1na2vs0mg"},{"bike_id":"92a0cdb5-b3e6-471e-ab89-c2b39b5e76d8","system_id":"levelo_inurba_marseille","lat":43.31347,"lon":5.36707,"is_reserved":false,"is_disabled":false,"rental_uris":{"android":"levelo://app?vid=92a0cdb5-b3e6-471e-ab89-c2b39b5e76d8","ios":"levelo://app?vid=92a0cdb5-b3e6-471e-ab89-c2b39b5e76d8"},"vehicle_type_id":"4","last_reported":1730294276,"current_range_meters":29600,"station_id":"ce4bgr92rcd13ifvqc6g","pricing_plan_id":"cebpf4jnsgd1na2vs0mg"},{"bike_id":"87deb56d-9fdf-4738-812a-5bd2bd7cc716","system_id":"levelo_inurba_marseille","lat":43.28421,"lon":5.34992,"is_reserved":false,"is_disabled":false,"rental_uris":{"android":"levelo://app?vid=87deb56d-9fdf-4738-812a-5bd2bd7cc716","ios":"levelo://app?vid=87deb56d-9fdf-4738-812a-5bd2bd7cc716"},"vehicle_type_id":"4","last_reported":1730294276,"current_range_meters":39200,"station_id":"ce4bhbh2rcd13ifvqepg","pricing_plan_id":"cebpf4jnsgd1na2vs0mg"},{"bike_id":"8f9da3e0-9bde-444e-99e0-327773e3853b","system_id":"levelo_inurba_marseille","lat":43.2827,"lon":5.35079,"is_reserved":false,"is_disabled":false,"rental_uris":{"android":"levelo://app?vid=8f9da3e0-9bde-444e-99e0-327773e3853b","ios":"levelo://app?vid=8f9da3e0-9bde-444e-99e0-327773e3853b"},"vehicle_type_id":"4","last_reported":1730294276,"current_range_meters":28800,"station_id":"ce4bhbp2rcd13ifvqerg","pricing_plan_id":"cebpf4jnsgd1na2vs0mg"},{"bike_id":"cbf335d6-8914-4849-afd4-00a2c70d26f6","system_id":"levelo_inurba_marseille","lat":43.29905,"lon":5.38134,"is_reserved":false,"is_disabled":false,"rental_uris":{"android":"levelo://app?vid=cbf335d6-8914-4849-afd4-00a2c70d26f6","ios":"levelo://app?vid=cbf335d6-8914-4849-afd4-00a2c70d26f6"},"vehicle_type_id":"4","last_reported":1730294276,"current_range_meters":33200,"station_id":"ce4bgj12rcd13ifvqbc0","pricing_plan_id":"cebpf4jnsgd1na2vs0mg"},{"bike_id":"b5308136-60cb-4d07-9dfe-1cf5b55c943e","system_id":"levelo_inurba_marseille","lat":43.31759,"lon":5.39016,"is_reserved":false,"is_disabled":false,"rental_uris":{"android":"levelo://app?vid=b5308136-60cb-4d07-9dfe-1cf5b55c943e","ios":"levelo://app?vid=b5308136-60cb-4d07-9dfe-1cf5b55c943e"},"vehicle_type_id":"4","last_reported":1730294276,"current_range_meters":8400,"station_id":"ce4bhqp2rcd13ifvqhng","pricing_plan_id":"cebpf4jnsgd1na2vs0mg"},{"bike_id":"9a9a7908-1e3b-4e98-8177-586035058191","system_id":"levelo_inurba_marseille","lat":43.24663,"lon":5.38158,"is_reserved":false,"is_disabled":false,"rental_uris":{"android":"levelo://app?vid=9a9a7908-1e3b-4e98-8177-586035058191","ios":"levelo://app?vid=9a9a7908-1e3b-4e98-8177-586035058191"},"vehicle_type_id":"4","last_reported":1730294276,"current_range_meters":19600,"station_id":"ce4bhih2rcd13ifvqfr0","pricing_plan_id":"cebpf4jnsgd1na2vs0mg"},{"bike_id":"582ae64c-c532-4642-8eb2-b5dc5a72020e","system_id":"levelo_inurba_marseille","lat":43.26056,"lon":5.39396,"is_reserved":false,"is_disabled":false,"rental_uris":{"android":"levelo://app?vid=582ae64c-c532-4642-8eb2-b5dc5a72020e","ios":"levelo://app?vid=582ae64c-c532-4642-8eb2-b5dc5a72020e"},"vehicle_type_id":"4","last_reported":1730294276,"current_range_meters":38000,"station_id":"ce4bhh92rcd13ifvqfj0","pricing_plan_id":"cebpf4jnsgd1na2vs0mg"},{"bike_id":"87d23bf7-4e73-43b2-8adf-83be3477f5aa","system_id":"levelo_inurba_marseille","lat":43.23194,"lon":5.35548,"is_reserved":false,"is_disabled":false,"rental_uris":{"android":"levelo://app?vid=87d23bf7-4e73-43b2-8adf-83be3477f5aa","ios":"levelo://app?vid=87d23bf7-4e73-43b2-8adf-83be3477f5aa"},"vehicle_type_id":"4","last_reported":1730294276,"current_range_meters":33600,"station_id":"ce4bhu92rcd13ifvqi70","pricing_plan_id":"cebpf4jnsgd1na2vs0mg"},{"bike_id":"58cb0e2b-51a5-4a68-945b-f2f5c9da1674","system_id":"levelo_inurba_marseille","lat":43.32481,"lon":5.36573,"is_reserved":false,"is_disabled":false,"rental_uris":{"android":"levelo://app?vid=58cb0e2b-51a5-4a68-945b-f2f5c9da1674","ios":"levelo://app?vid=58cb0e2b-51a5-4a68-945b-f2f5c9da1674"},"vehicle_type_id":"4","last_reported":1730294276,"current_range_meters":23200,"station_id":"ce4bhs12rcd13ifvqhvg","pricing_plan_id":"cebpf4jnsgd1na2vs0mg"},{"bike_id":"249f4139-b1bb-4fc2-87b9-dd8c4909e5b1","system_id":"levelo_inurba_marseille","lat":43.29549,"lon":5.42283,"is_reserved":false,"is_disabled":false,"rental_uris":{"android":"levelo://app?vid=249f4139-b1bb-4fc2-87b9-dd8c4909e5b1","ios":"levelo://app?vid=249f4139-b1bb-4fc2-87b9-dd8c4909e5b1"},"vehicle_type_id":"4","last_reported":1730294276,"current_range_meters":40000,"station_id":"ce4bhph2rcd13ifvqhdg","pricing_plan_id":"cebpf4jnsgd1na2vs0mg"},{"bike_id":"56f9575e-6123-4adf-aec2-325847413764","system_id":"levelo_inurba_marseille","lat":43.24545,"lon":5.39519,"is_reserved":false,"is_disabled":false,"rental_uris":{"android":"levelo://app?vid=56f9575e-6123-4adf-aec2-325847413764","ios":"levelo://app?vid=56f9575e-6123-4adf-aec2-325847413764"},"vehicle_type_id":"4","last_reported":1730294276,"current_range_meters":30000,"station_id":"ce4bhlp2rcd13ifvqgjg","pricing_plan_id":"cebpf4jnsgd1na2vs0mg"},{"bike_id":"d27513e5-416a-467b-a873-f37539a585c7","system_id":"levelo_inurba_marseille","lat":43.2994,"lon":5.36546,"is_reserved":false,"is_disabled":false,"rental_uris":{"android":"levelo://app?vid=d27513e5-416a-467b-a873-f37539a585c7","ios":"levelo://app?vid=d27513e5-416a-467b-a873-f37539a585c7"},"vehicle_type_id":"4","last_reported":1730294276,"current_range_meters":18800,"station_id":"ce4bgm92rcd13ifvqbr0","pricing_plan_id":"cebpf4jnsgd1na2vs0mg"},{"bike_id":"15e517f1-ebec-47c6-9ffd-2a035f728a02","system_id":"levelo_inurba_marseille","lat":43.24808,"lon":5.37457,"is_reserved":false,"is_disabled":false,"rental_uris":{"android":"levelo://app?vid=15e517f1-ebec-47c6-9ffd-2a035f728a02","ios":"levelo://app?vid=15e517f1-ebec-47c6-9ffd-2a035f728a02"},"vehicle_type_id":"4","last_reported":1730294276,"current_range_meters":26000,"station_id":"ce4bhgh2rcd13ifvqfb0","pricing_plan_id":"cebpf4jnsgd1na2vs0mg"},{"bike_id":"e6895f5f-e9a4-4da1-a3ae-1e541bf504db","system_id":"levelo_inurba_marseille","lat":43.29296,"lon":5.37443,"is_reserved":false,"is_disabled":false,"rental_uris":{"android":"levelo://app?vid=e6895f5f-e9a4-4da1-a3ae-1e541bf504db","ios":"levelo://app?vid=e6895f5f-e9a4-4da1-a3ae-1e541bf504db"},"vehicle_type_id":"4","last_reported":1730294276,"current_range_meters":12000,"station_id":"ce4bgi12rcd13ifvqb70","pricing_plan_id":"cebpf4jnsgd1na2vs0mg"},{"bike_id":"65b9b999-ee0a-4609-b9f6-796da6472af0","system_id":"levelo_inurba_marseille","lat":43.32349,"lon":5.3889,"is_reserved":false,"is_disabled":false,"rental_uris":{"android":"levelo://app?vid=65b9b999-ee0a-4609-b9f6-796da6472af0","ios":"levelo://app?vid=65b9b999-ee0a-4609-b9f6-796da6472af0"},"vehicle_type_id":"4","last_reported":1730294276,"current_range_meters":39200,"station_id":"ce4bhqp2rcd13ifvqhog","pricing_plan_id":"cebpf4jnsgd1na2vs0mg"},{"bike_id":"0ddf8415-d5c4-47b1-a8cb-ff0dc03d5696","system_id":"levelo_inurba_marseille","lat":43.29846,"lon":5.36283,"is_reserved":false,"is_disabled":false,"rental_uris":{"android":"levelo://app?vid=0ddf8415-d5c4-47b1-a8cb-ff0dc03d5696","ios":"levelo://app?vid=0ddf8415-d5c4-47b1-a8cb-ff0dc03d5696"},"vehicle_type_id":"4","last_reported":1730294276,"current_range_meters":24400,"station_id":"ce4bgpp2rcd13ifvqc3g","pricing_plan_id":"cebpf4jnsgd1na2vs0mg"},{"bike_id":"df65464c-1dee-4a9c-bf89-30c4e4c33ee3","system_id":"levelo_inurba_marseille","lat":43.289759,"lon":5.37836,"is_reserved":false,"is_disabled":false,"rental_uris":{"android":"levelo://app?vid=df65464c-1dee-4a9c-bf89-30c4e4c33ee3","ios":"levelo://app?vid=df65464c-1dee-4a9c-bf89-30c4e4c33ee3"},"vehicle_type_id":"4","last_reported":1730294276,"current_range_meters":32400,"station_id":"ce4bh9p2rcd13ifvqed0","pricing_plan_id":"cebpf4jnsgd1na2vs0mg"},{"bike_id":"9445a670-8cad-4552-a342-d1a968da3c5a","system_id":"levelo_inurba_marseille","lat":43.32057,"lon":5.41531,"is_reserved":false,"is_disabled":false,"rental_uris":{"android":"levelo://app?vid=9445a670-8cad-4552-a342-d1a968da3c5a","ios":"levelo://app?vid=9445a670-8cad-4552-a342-d1a968da3c5a"},"vehicle_type_id":"4","last_reported":1730294276,"current_range_meters":38800,"station_id":"ce4bhq92rcd13ifvqhkg","pricing_plan_id":"cebpf4jnsgd1na2vs0mg"},{"bike_id":"44d85ef2-c732-496c-8b36-57dd23a581fa","system_id":"levelo_inurba_marseille","lat":43.231533,"lon":5.437304,"is_reserved":false,"is_disabled":false,"rental_uris":{"android":"levelo://app?vid=44d85ef2-c732-496c-8b36-57dd23a581fa","ios":"levelo://app?vid=44d85ef2-c732-496c-8b36-57dd23a581fa"},"vehicle_type_id":"4","last_reported":1730294276,"current_range_meters":23200,"station_id":"ce4bhmp2rcd13ifvqgog","pricing_plan_id":"cebpf4jnsgd1na2vs0mg"},{"bike_id":"3cb9cba9-6f6a-4243-bd13-74a986e4b125","system_id":"levelo_inurba_marseille","lat":43.29222,"lon":5.36058,"is_reserved":false,"is_disabled":false,"rental_uris":{"android":"levelo://app?vid=3cb9cba9-6f6a-4243-bd13-74a986e4b125","ios":"levelo://app?vid=3cb9cba9-6f6a-4243-bd13-74a986e4b125"},"vehicle_type_id":"4","last_reported":1730294276,"current_range_meters":38800,"station_id":"ce4bhbh2rcd13ifvqeqg","pricing_plan_id":"cebpf4jnsgd1na2vs0mg"},{"bike_id":"0a4665aa-5f09-43f0-8c9c-ee7193e2915e","system_id":"levelo_inurba_marseille","lat":43.255,"lon":5.37651,"is_reserved":false,"is_disabled":false,"rental_uris":{"android":"levelo://app?vid=0a4665aa-5f09-43f0-8c9c-ee7193e2915e","ios":"levelo://app?vid=0a4665aa-5f09-43f0-8c9c-ee7193e2915e"},"vehicle_type_id":"4","last_reported":1730294276,"current_range_meters":34000,"station_id":"ce4bhh12rcd13ifvqff0","pricing_plan_id":"cebpf4jnsgd1na2vs0mg"},{"bike_id":"4fc7f475-2600-47d1-9781-722c83c9fb7e","system_id":"levelo_inurba_marseille","lat":43.24812,"lon":5.37462,"is_reserved":false,"is_disabled":false,"rental_uris":{"android":"levelo://app?vid=4fc7f475-2600-47d1-9781-722c83c9fb7e","ios":"levelo://app?vid=4fc7f475-2600-47d1-9781-722c83c9fb7e"},"vehicle_type_id":"4","last_reported":1730294276,"current_range_meters":24800,"station_id":"ce4bhgh2rcd13ifvqfb0","pricing_plan_id":"cebpf4jnsgd1na2vs0mg"},{"bike_id":"e90c9939-9935-4b96-ad64-cf417053a1c0","system_id":"levelo_inurba_marseille","lat":43.27314,"lon":5.39067,"is_reserved":false,"is_disabled":false,"rental_uris":{"android":"levelo://app?vid=e90c9939-9935-4b96-ad64-cf417053a1c0","ios":"levelo://app?vid=e90c9939-9935-4b96-ad64-cf417053a1c0"},"vehicle_type_id":"4","last_reported":1730294276,"current_range_meters":7200,"station_id":"ce4bhgp2rcd13ifvqfe0","pricing_plan_id":"cebpf4jnsgd1na2vs0mg"},{"bike_id":"c3a7ada5-589d-4115-8a5c-58536dff23e0","system_id":"levelo_inurba_marseille","lat":43.30907,"lon":5.36843,"is_reserved":false,"is_disabled":false,"rental_uris":{"android":"levelo://app?vid=c3a7ada5-589d-4115-8a5c-58536dff23e0","ios":"levelo://app?vid=c3a7ada5-589d-4115-8a5c-58536dff23e0"},"vehicle_type_id":"4","last_reported":1730294276,"current_range_meters":14800,"station_id":"ce4bgn92rcd13ifvqbvg","pricing_plan_id":"cebpf4jnsgd1na2vs0mg"},{"bike_id":"acd995ca-7afa-423d-8369-cb20906e705d","system_id":"levelo_inurba_marseille","lat":43.28404,"lon":5.3751,"is_reserved":false,"is_disabled":false,"rental_uris":{"android":"levelo://app?vid=acd995ca-7afa-423d-8369-cb20906e705d","ios":"levelo://app?vid=acd995ca-7afa-423d-8369-cb20906e705d"},"vehicle_type_id":"4","last_reported":1730294276,"current_range_meters":32800,"station_id":"ce4bh412rcd13ifvqds0","pricing_plan_id":"cebpf4jnsgd1na2vs0mg"},{"bike_id":"766801a5-7dbd-464a-bc56-398e14b9cf78","system_id":"levelo_inurba_marseille","lat":43.29805,"lon":5.37136,"is_reserved":false,"is_disabled":false,"rental_uris":{"android":"levelo://app?vid=766801a5-7dbd-464a-bc56-398e14b9cf78","ios":"levelo://app?vid=766801a5-7dbd-464a-bc56-398e14b9cf78"},"vehicle_type_id":"4","last_reported":1730294276,"current_range_meters":6000,"station_id":"","pricing_plan_id":"cebpf4jnsgd1na2vs0mg"},{"bike_id":"afc8a59e-718c-432c-b226-d6be0903e5fb","system_id":"levelo_inurba_marseille","lat":43.24388,"lon":5.3706,"is_reserved":false,"is_disabled":false,"rental_uris":{"android":"levelo://app?vid=afc8a59e-718c-432c-b226-d6be0903e5fb","ios":"levelo://app?vid=afc8a59e-718c-432c-b226-d6be0903e5fb"},"vehicle_type_id":"4","last_reported":1730294276,"current_range_meters":32800,"station_id":"ce4bhhh2rcd13ifvqfk0","pricing_plan_id":"cebpf4jnsgd1na2vs0mg"},{"bike_id":"c6d24e19-b858-4bcc-91b4-9221404bb4a6","system_id":"levelo_inurba_marseille","lat":43.29922,"lon":5.39337,"is_reserved":false,"is_disabled":false,"rental_uris":{"android":"levelo://app?vid=c6d24e19-b858-4bcc-91b4-9221404bb4a6","ios":"levelo://app?vid=c6d24e19-b858-4bcc-91b4-9221404bb4a6"},"vehicle_type_id":"4","last_reported":1730294276,"current_range_meters":38000,"station_id":"","pricing_plan_id":"cebpf4jnsgd1na2vs0mg"},{"bike_id":"72e37474-1bc8-4568-aec8-ce5464e6b828","system_id":"levelo_inurba_marseille","lat":43.23191,"lon":5.35545,"is_reserved":false,"is_disabled":false,"rental_uris":{"android":"levelo://app?vid=72e37474-1bc8-4568-aec8-ce5464e6b828","ios":"levelo://app?vid=72e37474-1bc8-4568-aec8-ce5464e6b828"},"vehicle_type_id":"4","last_reported":1730294276,"current_range_meters":28400,"station_id":"ce4bhu92rcd13ifvqi70","pricing_plan_id":"cebpf4jnsgd1na2vs0mg"},{"bike_id":"f60c22c9-8859-4064-a562-7bc4d70b8b13","system_id":"levelo_inurba_marseille","lat":43.28427,"lon":5.34988,"is_reserved":false,"is_disabled":false,"rental_uris":{"android":"levelo://app?vid=f60c22c9-8859-4064-a562-7bc4d70b8b13","ios":"levelo://app?vid=f60c22c9-8859-4064-a562-7bc4d70b8b13"},"vehicle_type_id":"4","last_reported":1730294276,"current_range_meters":39200,"station_id":"ce4bhbh2rcd13ifvqepg","pricing_plan_id":"cebpf4jnsgd1na2vs0mg"},{"bike_id":"c176bddd-5577-4bc3-9ed2-695bfedd8173","system_id":"levelo_inurba_marseille","lat":43.29971,"lon":5.3718,"is_reserved":false,"is_disabled":false,"rental_uris":{"android":"levelo://app?vid=c176bddd-5577-4bc3-9ed2-695bfedd8173","ios":"levelo://app?vid=c176bddd-5577-4bc3-9ed2-695bfedd8173"},"vehicle_type_id":"4","last_reported":1730294276,"current_range_meters":16800,"station_id":"ce4bgr92rcd13ifvqc7g","pricing_plan_id":"cebpf4jnsgd1na2vs0mg"},{"bike_id":"2de4fa94-4dcf-42af-8283-cb4da416bdd5","system_id":"levelo_inurba_marseille","lat":43.28358,"lon":5.38634,"is_reserved":false,"is_disabled":false,"rental_uris":{"android":"levelo://app?vid=2de4fa94-4dcf-42af-8283-cb4da416bdd5","ios":"levelo://app?vid=2de4fa94-4dcf-42af-8283-cb4da416bdd5"},"vehicle_type_id":"4","last_reported":1730294276,"current_range_meters":10800,"station_id":"ce4bh492rcd13ifvqdvg","pricing_plan_id":"cebpf4jnsgd1na2vs0mg"},{"bike_id":"3c4fdaca-256d-44a6-b622-e609cd237ae5","system_id":"levelo_inurba_marseille","lat":43.30423,"lon":5.39744,"is_reserved":false,"is_disabled":false,"rental_uris":{"android":"levelo://app?vid=3c4fdaca-256d-44a6-b622-e609cd237ae5","ios":"levelo://app?vid=3c4fdaca-256d-44a6-b622-e609cd237ae5"},"vehicle_type_id":"4","last_reported":1730294276,"current_range_meters":35600,"station_id":"ce4bh092rcd13ifvqd20","pricing_plan_id":"cebpf4jnsgd1na2vs0mg"},{"bike_id":"54d2e7c1-0997-4e85-b497-01eca9eb4f00","system_id":"levelo_inurba_marseille","lat":43.2319,"lon":5.35555,"is_reserved":false,"is_disabled":false,"rental_uris":{"android":"levelo://app?vid=54d2e7c1-0997-4e85-b497-01eca9eb4f00","ios":"levelo://app?vid=54d2e7c1-0997-4e85-b497-01eca9eb4f00"},"vehicle_type_id":"4","last_reported":1730294276,"current_range_meters":16400,"station_id":"ce4bhu92rcd13ifvqi70","pricing_plan_id":"cebpf4jnsgd1na2vs0mg"},{"bike_id":"e675a6fb-cdb1-482c-beca-19b0cf026634","system_id":"levelo_inurba_marseille","lat":43.23064,"lon":5.35488,"is_reserved":false,"is_disabled":false,"rental_uris":{"android":"levelo://app?vid=e675a6fb-cdb1-482c-beca-19b0cf026634","ios":"levelo://app?vid=e675a6fb-cdb1-482c-beca-19b0cf026634"},"vehicle_type_id":"4","last_reported":1730294276,"current_range_meters":26000,"station_id":"cpo3342slgdg3j2ifvpg","pricing_plan_id":"cebpf4jnsgd1na2vs0mg"},{"bike_id":"06c0f560-8272-40b5-9b56-aad1e3768786","system_id":"levelo_inurba_marseille","lat":43.29929,"lon":5.36526,"is_reserved":false,"is_disabled":false,"rental_uris":{"android":"levelo://app?vid=06c0f560-8272-40b5-9b56-aad1e3768786","ios":"levelo://app?vid=06c0f560-8272-40b5-9b56-aad1e3768786"},"vehicle_type_id":"4","last_reported":1730294276,"current_range_meters":38800,"station_id":"ce4bgm92rcd13ifvqbr0","pricing_plan_id":"cebpf4jnsgd1na2vs0mg"},{"bike_id":"cf1bf93e-b987-4f03-9549-b984bb838aa3","system_id":"levelo_inurba_marseille","lat":43.26783,"lon":5.39417,"is_reserved":false,"is_disabled":false,"rental_uris":{"android":"levelo://app?vid=cf1bf93e-b987-4f03-9549-b984bb838aa3","ios":"levelo://app?vid=cf1bf93e-b987-4f03-9549-b984bb838aa3"},"vehicle_type_id":"4","last_reported":1730294276,"current_range_meters":37600,"station_id":"ce4bhh12rcd13ifvqfg0","pricing_plan_id":"cebpf4jnsgd1na2vs0mg"},{"bike_id":"e74d5bb5-71e1-4c61-a5ef-f3253bb4afbf","system_id":"levelo_inurba_marseille","lat":43.23065,"lon":5.354915,"is_reserved":false,"is_disabled":false,"rental_uris":{"android":"levelo://app?vid=e74d5bb5-71e1-4c61-a5ef-f3253bb4afbf","ios":"levelo://app?vid=e74d5bb5-71e1-4c61-a5ef-f3253bb4afbf"},"vehicle_type_id":"4","last_reported":1730294276,"current_range_meters":28400,"station_id":"cpo3342slgdg3j2ifvpg","pricing_plan_id":"cebpf4jnsgd1na2vs0mg"},{"bike_id":"ae30f0e4-509e-44a9-a275-eda04247b6f3","system_id":"levelo_inurba_marseille","lat":43.23141,"lon":5.43711,"is_reserved":false,"is_disabled":false,"rental_uris":{"android":"levelo://app?vid=ae30f0e4-509e-44a9-a275-eda04247b6f3","ios":"levelo://app?vid=ae30f0e4-509e-44a9-a275-eda04247b6f3"},"vehicle_type_id":"4","last_reported":1730294276,"current_range_meters":28800,"station_id":"ce4bhmp2rcd13ifvqgog","pricing_plan_id":"cebpf4jnsgd1na2vs0mg"},{"bike_id":"3e7ccb55-c2c4-4413-99cd-f5ca3288a764","system_id":"levelo_inurba_marseille","lat":43.30139,"lon":5.37429,"is_reserved":false,"is_disabled":false,"rental_uris":{"android":"levelo://app?vid=3e7ccb55-c2c4-4413-99cd-f5ca3288a764","ios":"levelo://app?vid=3e7ccb55-c2c4-4413-99cd-f5ca3288a764"},"vehicle_type_id":"4","last_reported":1730294276,"current_range_meters":30000,"station_id":"ce4bgs92rcd13ifvqcc0","pricing_plan_id":"cebpf4jnsgd1na2vs0mg"},{"bike_id":"ed4542ec-a766-43c5-bc78-9617bcbbe71c","system_id":"levelo_inurba_marseille","lat":43.2587,"lon":5.39899,"is_reserved":false,"is_disabled":false,"rental_uris":{"android":"levelo://app?vid=ed4542ec-a766-43c5-bc78-9617bcbbe71c","ios":"levelo://app?vid=ed4542ec-a766-43c5-bc78-9617bcbbe71c"},"vehicle_type_id":"4","last_reported":1730294276,"current_range_meters":9200,"station_id":"ce4bhl92rcd13ifvqghg","pricing_plan_id":"cebpf4jnsgd1na2vs0mg"},{"bike_id":"52719170-d1b5-45cd-a89c-ec619cbbf1a9","system_id":"levelo_inurba_marseille","lat":43.30352,"lon":5.41883,"is_reserved":false,"is_disabled":false,"rental_uris":{"android":"levelo://app?vid=52719170-d1b5-45cd-a89c-ec619cbbf1a9","ios":"levelo://app?vid=52719170-d1b5-45cd-a89c-ec619cbbf1a9"},"vehicle_type_id":"4","last_reported":1730294276,"current_range_meters":38400,"station_id":"ce4bhop2rcd13ifvqh7g","pricing_plan_id":"cebpf4jnsgd1na2vs0mg"},{"bike_id":"5b4c909b-9d9c-4237-8a92-f687edd55aa3","system_id":"levelo_inurba_marseille","lat":43.29003,"lon":5.35615,"is_reserved":false,"is_disabled":false,"rental_uris":{"android":"levelo://app?vid=5b4c909b-9d9c-4237-8a92-f687edd55aa3","ios":"levelo://app?vid=5b4c909b-9d9c-4237-8a92-f687edd55aa3"},"vehicle_type_id":"4","last_reported":1730294276,"current_range_meters":6800,"station_id":"ce4bhb92rcd13ifvqen0","pricing_plan_id":"cebpf4jnsgd1na2vs0mg"},{"bike_id":"00721fdb-1f2a-420c-8a22-6b5f358e7cc9","system_id":"levelo_inurba_marseille","lat":43.29293,"lon":5.37455,"is_reserved":false,"is_disabled":false,"rental_uris":{"android":"levelo://app?vid=00721fdb-1f2a-420c-8a22-6b5f358e7cc9","ios":"levelo://app?vid=00721fdb-1f2a-420c-8a22-6b5f358e7cc9"},"vehicle_type_id":"4","last_reported":1730294276,"current_range_meters":26000,"station_id":"ce4bgi12rcd13ifvqb70","pricing_plan_id":"cebpf4jnsgd1na2vs0mg"},{"bike_id":"90b87ab5-0676-4c7a-bd4c-c425937fd4a5","system_id":"levelo_inurba_marseille","lat":43.29932,"lon":5.36534,"is_reserved":false,"is_disabled":false,"rental_uris":{"android":"levelo://app?vid=90b87ab5-0676-4c7a-bd4c-c425937fd4a5","ios":"levelo://app?vid=90b87ab5-0676-4c7a-bd4c-c425937fd4a5"},"vehicle_type_id":"4","last_reported":1730294276,"current_range_meters":22400,"station_id":"ce4bgm92rcd13ifvqbr0","pricing_plan_id":"cebpf4jnsgd1na2vs0mg"},{"bike_id":"d3834406-5180-48ae-986e-7eca8f9a66e3","system_id":"levelo_inurba_marseille","lat":43.27066,"lon":5.42269,"is_reserved":false,"is_disabled":false,"rental_uris":{"android":"levelo://app?vid=d3834406-5180-48ae-986e-7eca8f9a66e3","ios":"levelo://app?vid=d3834406-5180-48ae-986e-7eca8f9a66e3"},"vehicle_type_id":"4","last_reported":1730294276,"current_range_meters":19600,"station_id":"ce4bhk92rcd13ifvqgb0","pricing_plan_id":"cebpf4jnsgd1na2vs0mg"},{"bike_id":"1995d42f-9bb2-423e-a419-1706f5fab24e","system_id":"levelo_inurba_marseille","lat":43.27067,"lon":5.42272,"is_reserved":false,"is_disabled":false,"rental_uris":{"android":"levelo://app?vid=1995d42f-9bb2-423e-a419-1706f5fab24e","ios":"levelo://app?vid=1995d42f-9bb2-423e-a419-1706f5fab24e"},"vehicle_type_id":"4","last_reported":1730294276,"current_range_meters":33600,"station_id":"ce4bhk92rcd13ifvqgb0","pricing_plan_id":"cebpf4jnsgd1na2vs0mg"},{"bike_id":"5b54ae5c-2f67-41f3-8035-2314f9596429","system_id":"levelo_inurba_marseille","lat":43.23144,"lon":5.43714,"is_reserved":false,"is_disabled":false,"rental_uris":{"android":"levelo://app?vid=5b54ae5c-2f67-41f3-8035-2314f9596429","ios":"levelo://app?vid=5b54ae5c-2f67-41f3-8035-2314f9596429"},"vehicle_type_id":"4","last_reported":1730294276,"current_range_meters":30400,"station_id":"ce4bhmp2rcd13ifvqgog","pricing_plan_id":"cebpf4jnsgd1na2vs0mg"},{"bike_id":"4e202761-f484-4f98-a2c5-f29995d30b81","system_id":"levelo_inurba_marseille","lat":43.2622,"lon":5.37441,"is_reserved":false,"is_disabled":false,"rental_uris":{"android":"levelo://app?vid=4e202761-f484-4f98-a2c5-f29995d30b81","ios":"levelo://app?vid=4e202761-f484-4f98-a2c5-f29995d30b81"},"vehicle_type_id":"4","last_reported":1730294276,"current_range_meters":14000,"station_id":"ce4bhgp2rcd13ifvqfc0","pricing_plan_id":"cebpf4jnsgd1na2vs0mg"},{"bike_id":"20ae553e-1577-4adc-a637-9138aeb3ce1b","system_id":"levelo_inurba_marseille","lat":43.31227,"lon":5.36848,"is_reserved":false,"is_disabled":false,"rental_uris":{"android":"levelo://app?vid=20ae553e-1577-4adc-a637-9138aeb3ce1b","ios":"levelo://app?vid=20ae553e-1577-4adc-a637-9138aeb3ce1b"},"vehicle_type_id":"4","last_reported":1730294276,"current_range_meters":16400,"station_id":"ce4bgl92rcd13ifvqbq0","pricing_plan_id":"cebpf4jnsgd1na2vs0mg"},{"bike_id":"8162e4a8-23c1-4020-bbef-be4a2e70aefe","system_id":"levelo_inurba_marseille","lat":43.23187,"lon":5.35545,"is_reserved":false,"is_disabled":false,"rental_uris":{"android":"levelo://app?vid=8162e4a8-23c1-4020-bbef-be4a2e70aefe","ios":"levelo://app?vid=8162e4a8-23c1-4020-bbef-be4a2e70aefe"},"vehicle_type_id":"4","last_reported":1730294276,"current_range_meters":9200,"station_id":"ce4bhu92rcd13ifvqi70","pricing_plan_id":"cebpf4jnsgd1na2vs0mg"},{"bike_id":"cf6e46fb-07e4-4259-8796-fece3f1717ca","system_id":"levelo_inurba_marseille","lat":43.2657,"lon":5.39,"is_reserved":false,"is_disabled":false,"rental_uris":{"android":"levelo://app?vid=cf6e46fb-07e4-4259-8796-fece3f1717ca","ios":"levelo://app?vid=cf6e46fb-07e4-4259-8796-fece3f1717ca"},"vehicle_type_id":"4","last_reported":1730294276,"current_range_meters":37600,"station_id":"ce4bhe12rcd13ifvqf30","pricing_plan_id":"cebpf4jnsgd1na2vs0mg"},{"bike_id":"e8dd3cc7-b96d-42c4-a5e2-d2c05b842b5e","system_id":"levelo_inurba_marseille","lat":43.2844,"lon":5.392,"is_reserved":false,"is_disabled":false,"rental_uris":{"android":"levelo://app?vid=e8dd3cc7-b96d-42c4-a5e2-d2c05b842b5e","ios":"levelo://app?vid=e8dd3cc7-b96d-42c4-a5e2-d2c05b842b5e"},"vehicle_type_id":"4","last_reported":1730294276,"current_range_meters":34000,"station_id":"ce4bhoh2rcd13ifvqh5g","pricing_plan_id":"cebpf4jnsgd1na2vs0mg"},{"bike_id":"59c7403a-36af-4ab9-a8fb-4e8f180bdcbe","system_id":"levelo_inurba_marseille","lat":43.2408,"lon":5.37748,"is_reserved":false,"is_disabled":false,"rental_uris":{"android":"levelo://app?vid=59c7403a-36af-4ab9-a8fb-4e8f180bdcbe","ios":"levelo://app?vid=59c7403a-36af-4ab9-a8fb-4e8f180bdcbe"},"vehicle_type_id":"4","last_reported":1730294276,"current_range_meters":7200,"station_id":"ce4bhnp2rcd13ifvqgvg","pricing_plan_id":"cebpf4jnsgd1na2vs0mg"},{"bike_id":"628bbd23-90df-42e0-ba53-565c28ef6305","system_id":"levelo_inurba_marseille","lat":43.29098,"lon":5.38128,"is_reserved":false,"is_disabled":false,"rental_uris":{"android":"levelo://app?vid=628bbd23-90df-42e0-ba53-565c28ef6305","ios":"levelo://app?vid=628bbd23-90df-42e0-ba53-565c28ef6305"},"vehicle_type_id":"4","last_reported":1730294276,"current_range_meters":22800,"station_id":"ce4bh512rcd13ifvqe2g","pricing_plan_id":"cebpf4jnsgd1na2vs0mg"},{"bike_id":"2a59e468-664b-4487-a13d-372ee2a99421","system_id":"levelo_inurba_marseille","lat":43.30272,"lon":5.37691,"is_reserved":false,"is_disabled":false,"rental_uris":{"android":"levelo://app?vid=2a59e468-664b-4487-a13d-372ee2a99421","ios":"levelo://app?vid=2a59e468-664b-4487-a13d-372ee2a99421"},"vehicle_type_id":"4","last_reported":1730294276,"current_range_meters":39200,"station_id":"ce4bguh2rcd13ifvqcj0","pricing_plan_id":"cebpf4jnsgd1na2vs0mg"},{"bike_id":"9dacdad8-0a44-49eb-98f5-702daced0b65","system_id":"levelo_inurba_marseille","lat":43.2827,"lon":5.35074,"is_reserved":false,"is_disabled":false,"rental_uris":{"android":"levelo://app?vid=9dacdad8-0a44-49eb-98f5-702daced0b65","ios":"levelo://app?vid=9dacdad8-0a44-49eb-98f5-702daced0b65"},"vehicle_type_id":"4","last_reported":1730294276,"current_range_meters":36800,"station_id":"ce4bhbp2rcd13ifvqerg","pricing_plan_id":"cebpf4jnsgd1na2vs0mg"},{"bike_id":"b4d42bc3-7f8c-4f43-9381-013fc48a6128","system_id":"levelo_inurba_marseille","lat":43.30152,"lon":5.38082,"is_reserved":false,"is_disabled":false,"rental_uris":{"android":"levelo://app?vid=b4d42bc3-7f8c-4f43-9381-013fc48a6128","ios":"levelo://app?vid=b4d42bc3-7f8c-4f43-9381-013fc48a6128"},"vehicle_type_id":"4","last_reported":1730294276,"current_range_meters":38800,"station_id":"ce4bgjp2rcd13ifvqbh0","pricing_plan_id":"cebpf4jnsgd1na2vs0mg"},{"bike_id":"6d1a8af2-f4de-48cb-a977-7b302720a352","system_id":"levelo_inurba_marseille","lat":43.27375,"lon":5.36253,"is_reserved":false,"is_disabled":false,"rental_uris":{"android":"levelo://app?vid=6d1a8af2-f4de-48cb-a977-7b302720a352","ios":"levelo://app?vid=6d1a8af2-f4de-48cb-a977-7b302720a352"},"vehicle_type_id":"4","last_reported":1730294276,"current_range_meters":21600,"station_id":"ce4bhbh2rcd13ifvqeo0","pricing_plan_id":"cebpf4jnsgd1na2vs0mg"},{"bike_id":"ba5a49fc-006f-45a5-944c-9f2bfa802466","system_id":"levelo_inurba_marseille","lat":43.292327,"lon":5.360671,"is_reserved":false,"is_disabled":false,"rental_uris":{"android":"levelo://app?vid=ba5a49fc-006f-45a5-944c-9f2bfa802466","ios":"levelo://app?vid=ba5a49fc-006f-45a5-944c-9f2bfa802466"},"vehicle_type_id":"4","last_reported":1730294276,"current_range_meters":22800,"station_id":"ce4bhbh2rcd13ifvqeqg","pricing_plan_id":"cebpf4jnsgd1na2vs0mg"},{"bike_id":"058a0702-c32e-49f5-984b-97b04873e696","system_id":"levelo_inurba_marseille","lat":43.28462,"lon":5.358894,"is_reserved":false,"is_disabled":false,"rental_uris":{"android":"levelo://app?vid=058a0702-c32e-49f5-984b-97b04873e696","ios":"levelo://app?vid=058a0702-c32e-49f5-984b-97b04873e696"},"vehicle_type_id":"4","last_reported":1730294276,"current_range_meters":21600,"station_id":"ce4bhah2rcd13ifvqei0","pricing_plan_id":"cebpf4jnsgd1na2vs0mg"},{"bike_id":"3a58aead-6e7f-468c-9d9d-4429d714b1be","system_id":"levelo_inurba_marseille","lat":43.27424,"lon":5.39418,"is_reserved":false,"is_disabled":false,"rental_uris":{"android":"levelo://app?vid=3a58aead-6e7f-468c-9d9d-4429d714b1be","ios":"levelo://app?vid=3a58aead-6e7f-468c-9d9d-4429d714b1be"},"vehicle_type_id":"4","last_reported":1730294276,"current_range_meters":39200,"station_id":"ce4bhdp2rcd13ifvqf20","pricing_plan_id":"cebpf4jnsgd1na2vs0mg"},{"bike_id":"90d46870-9f40-4b4b-88a4-7acd7fb37a95","system_id":"levelo_inurba_marseille","lat":43.30527,"lon":5.36523,"is_reserved":false,"is_disabled":false,"rental_uris":{"android":"levelo://app?vid=90d46870-9f40-4b4b-88a4-7acd7fb37a95","ios":"levelo://app?vid=90d46870-9f40-4b4b-88a4-7acd7fb37a95"},"vehicle_type_id":"4","last_reported":1730294276,"current_range_meters":27600,"station_id":"","pricing_plan_id":"cebpf4jnsgd1na2vs0mg"},{"bike_id":"d721ff6d-485d-48c6-84c6-b1a6b8d95c72","system_id":"levelo_inurba_marseille","lat":43.30531,"lon":5.36528,"is_reserved":false,"is_disabled":false,"rental_uris":{"android":"levelo://app?vid=d721ff6d-485d-48c6-84c6-b1a6b8d95c72","ios":"levelo://app?vid=d721ff6d-485d-48c6-84c6-b1a6b8d95c72"},"vehicle_type_id":"4","last_reported":1730294276,"current_range_meters":38800,"station_id":"ce4bgs12rcd13ifvqcag","pricing_plan_id":"cebpf4jnsgd1na2vs0mg"},{"bike_id":"c30c20a3-a003-4e47-981b-d4a01d18b8ed","system_id":"levelo_inurba_marseille","lat":43.24172,"lon":5.364,"is_reserved":false,"is_disabled":false,"rental_uris":{"android":"levelo://app?vid=c30c20a3-a003-4e47-981b-d4a01d18b8ed","ios":"levelo://app?vid=c30c20a3-a003-4e47-981b-d4a01d18b8ed"},"vehicle_type_id":"4","last_reported":1730294276,"current_range_meters":13600,"station_id":"cpo36qri1sfpv3e86is0","pricing_plan_id":"cebpf4jnsgd1na2vs0mg"},{"bike_id":"ca5947f3-f8c7-4501-8fcf-25546b008bb3","system_id":"levelo_inurba_marseille","lat":43.23139,"lon":5.43719,"is_reserved":false,"is_disabled":false,"rental_uris":{"android":"levelo://app?vid=ca5947f3-f8c7-4501-8fcf-25546b008bb3","ios":"levelo://app?vid=ca5947f3-f8c7-4501-8fcf-25546b008bb3"},"vehicle_type_id":"4","last_reported":1730294276,"current_range_meters":14000,"station_id":"ce4bhmp2rcd13ifvqgog","pricing_plan_id":"cebpf4jnsgd1na2vs0mg"},{"bike_id":"8958c76a-8603-47f0-9de6-f136e66058e0","system_id":"levelo_inurba_marseille","lat":43.28937,"lon":5.36639,"is_reserved":false,"is_disabled":false,"rental_uris":{"android":"levelo://app?vid=8958c76a-8603-47f0-9de6-f136e66058e0","ios":"levelo://app?vid=8958c76a-8603-47f0-9de6-f136e66058e0"},"vehicle_type_id":"4","last_reported":1730294276,"current_range_meters":15200,"station_id":"ce4bhap2rcd13ifvqek0","pricing_plan_id":"cebpf4jnsgd1na2vs0mg"},{"bike_id":"72b220b0-b000-49ef-9068-321f901337c6","system_id":"levelo_inurba_marseille","lat":43.30146,"lon":5.38084,"is_reserved":false,"is_disabled":false,"rental_uris":{"android":"levelo://app?vid=72b220b0-b000-49ef-9068-321f901337c6","ios":"levelo://app?vid=72b220b0-b000-49ef-9068-321f901337c6"},"vehicle_type_id":"4","last_reported":1730294276,"current_range_meters":38800,"station_id":"ce4bgjp2rcd13ifvqbh0","pricing_plan_id":"cebpf4jnsgd1na2vs0mg"},{"bike_id":"a3355cf1-61b3-474a-bd04-4451e98e44dc","system_id":"levelo_inurba_marseille","lat":43.299097,"lon":5.374721,"is_reserved":false,"is_disabled":false,"rental_uris":{"android":"levelo://app?vid=a3355cf1-61b3-474a-bd04-4451e98e44dc","ios":"levelo://app?vid=a3355cf1-61b3-474a-bd04-4451e98e44dc"},"vehicle_type_id":"4","last_reported":1730294276,"current_range_meters":40000,"station_id":"ce4bgjh2rcd13ifvqbg0","pricing_plan_id":"cebpf4jnsgd1na2vs0mg"},{"bike_id":"74ade056-17c0-4f14-9024-98d6978abe9b","system_id":"levelo_inurba_marseille","lat":43.229279,"lon":5.353723,"is_reserved":false,"is_disabled":false,"rental_uris":{"android":"levelo://app?vid=74ade056-17c0-4f14-9024-98d6978abe9b","ios":"levelo://app?vid=74ade056-17c0-4f14-9024-98d6978abe9b"},"vehicle_type_id":"4","last_reported":1730294276,"current_range_meters":4800,"station_id":"cpo3532slgdg3j2ikp40","pricing_plan_id":"cebpf4jnsgd1na2vs0mg"},{"bike_id":"c6a35247-63e9-4da5-814a-fe016b6293a6","system_id":"levelo_inurba_marseille","lat":43.30383,"lon":5.367,"is_reserved":false,"is_disabled":false,"rental_uris":{"android":"levelo://app?vid=c6a35247-63e9-4da5-814a-fe016b6293a6","ios":"levelo://app?vid=c6a35247-63e9-4da5-814a-fe016b6293a6"},"vehicle_type_id":"4","last_reported":1730294276,"current_range_meters":28400,"station_id":"ce4bgrh2rcd13ifvqc8g","pricing_plan_id":"cebpf4jnsgd1na2vs0mg"},{"bike_id":"fea23d88-9bbb-4ffa-af08-7b03ca37348f","system_id":"levelo_inurba_marseille","lat":43.23178,"lon":5.39994,"is_reserved":false,"is_disabled":false,"rental_uris":{"android":"levelo://app?vid=fea23d88-9bbb-4ffa-af08-7b03ca37348f","ios":"levelo://app?vid=fea23d88-9bbb-4ffa-af08-7b03ca37348f"},"vehicle_type_id":"4","last_reported":1730294276,"current_range_meters":30400,"station_id":"ce4bhn12rcd13ifvqgqg","pricing_plan_id":"cebpf4jnsgd1na2vs0mg"},{"bike_id":"a0a2b278-3c52-4c26-9330-91fb0b590d02","system_id":"levelo_inurba_marseille","lat":43.30146,"lon":5.38083,"is_reserved":false,"is_disabled":false,"rental_uris":{"android":"levelo://app?vid=a0a2b278-3c52-4c26-9330-91fb0b590d02","ios":"levelo://app?vid=a0a2b278-3c52-4c26-9330-91fb0b590d02"},"vehicle_type_id":"4","last_reported":1730294276,"current_range_meters":31200,"station_id":"ce4bgjp2rcd13ifvqbh0","pricing_plan_id":"cebpf4jnsgd1na2vs0mg"},{"bike_id":"adb36387-229d-40be-a8df-84069eb22e9f","system_id":"levelo_inurba_marseille","lat":43.28272,"lon":5.35067,"is_reserved":false,"is_disabled":false,"rental_uris":{"android":"levelo://app?vid=adb36387-229d-40be-a8df-84069eb22e9f","ios":"levelo://app?vid=adb36387-229d-40be-a8df-84069eb22e9f"},"vehicle_type_id":"4","last_reported":1730294276,"current_range_meters":16000,"station_id":"ce4bhbp2rcd13ifvqerg","pricing_plan_id":"cebpf4jnsgd1na2vs0mg"},{"bike_id":"160c3125-d109-49e3-a687-ede78b99dea2","system_id":"levelo_inurba_marseille","lat":43.2319,"lon":5.3554,"is_reserved":false,"is_disabled":false,"rental_uris":{"android":"levelo://app?vid=160c3125-d109-49e3-a687-ede78b99dea2","ios":"levelo://app?vid=160c3125-d109-49e3-a687-ede78b99dea2"},"vehicle_type_id":"4","last_reported":1730294276,"current_range_meters":10000,"station_id":"ce4bhu92rcd13ifvqi70","pricing_plan_id":"cebpf4jnsgd1na2vs0mg"},{"bike_id":"d15e5a3a-5812-42ae-8a22-b064b9e316b7","system_id":"levelo_inurba_marseille","lat":43.27994,"lon":5.40014,"is_reserved":false,"is_disabled":false,"rental_uris":{"android":"levelo://app?vid=d15e5a3a-5812-42ae-8a22-b064b9e316b7","ios":"levelo://app?vid=d15e5a3a-5812-42ae-8a22-b064b9e316b7"},"vehicle_type_id":"4","last_reported":1730294276,"current_range_meters":36000,"station_id":"ce4bho92rcd13ifvqh4g","pricing_plan_id":"cebpf4jnsgd1na2vs0mg"},{"bike_id":"739b4853-178e-41f7-83b4-94764ed98225","system_id":"levelo_inurba_marseille","lat":43.29034,"lon":5.37569,"is_reserved":false,"is_disabled":false,"rental_uris":{"android":"levelo://app?vid=739b4853-178e-41f7-83b4-94764ed98225","ios":"levelo://app?vid=739b4853-178e-41f7-83b4-94764ed98225"},"vehicle_type_id":"4","last_reported":1730294276,"current_range_meters":23200,"station_id":"ce4bh692rcd13ifvqe90","pricing_plan_id":"cebpf4jnsgd1na2vs0mg"},{"bike_id":"143aba29-6707-47df-82a7-64aa905bf1ee","system_id":"levelo_inurba_marseille","lat":43.29928,"lon":5.36527,"is_reserved":false,"is_disabled":false,"rental_uris":{"android":"levelo://app?vid=143aba29-6707-47df-82a7-64aa905bf1ee","ios":"levelo://app?vid=143aba29-6707-47df-82a7-64aa905bf1ee"},"vehicle_type_id":"4","last_reported":1730294276,"current_range_meters":27200,"station_id":"ce4bgm92rcd13ifvqbr0","pricing_plan_id":"cebpf4jnsgd1na2vs0mg"},{"bike_id":"e2d4115b-a10b-40c0-92fd-0391ecfda5ff","system_id":"levelo_inurba_marseille","lat":43.30468,"lon":5.37906,"is_reserved":false,"is_disabled":false,"rental_uris":{"android":"levelo://app?vid=e2d4115b-a10b-40c0-92fd-0391ecfda5ff","ios":"levelo://app?vid=e2d4115b-a10b-40c0-92fd-0391ecfda5ff"},"vehicle_type_id":"4","last_reported":1730294276,"current_range_meters":38800,"station_id":"ce4bgup2rcd13ifvqcn0","pricing_plan_id":"cebpf4jnsgd1na2vs0mg"},{"bike_id":"76ae65e7-1304-4c14-b23b-fa35af4a2ade","system_id":"levelo_inurba_marseille","lat":43.28431,"lon":5.34988,"is_reserved":false,"is_disabled":false,"rental_uris":{"android":"levelo://app?vid=76ae65e7-1304-4c14-b23b-fa35af4a2ade","ios":"levelo://app?vid=76ae65e7-1304-4c14-b23b-fa35af4a2ade"},"vehicle_type_id":"4","last_reported":1730294276,"current_range_meters":40000,"station_id":"ce4bhbh2rcd13ifvqepg","pricing_plan_id":"cebpf4jnsgd1na2vs0mg"},{"bike_id":"2346f741-e452-4ec8-9217-82e1ad8c4d35","system_id":"levelo_inurba_marseille","lat":43.26065,"lon":5.39398,"is_reserved":false,"is_disabled":false,"rental_uris":{"android":"levelo://app?vid=2346f741-e452-4ec8-9217-82e1ad8c4d35","ios":"levelo://app?vid=2346f741-e452-4ec8-9217-82e1ad8c4d35"},"vehicle_type_id":"4","last_reported":1730294276,"current_range_meters":35600,"station_id":"ce4bhh92rcd13ifvqfj0","pricing_plan_id":"cebpf4jnsgd1na2vs0mg"},{"bike_id":"76747b5b-9fa8-452f-af0f-a2fae509655b","system_id":"levelo_inurba_marseille","lat":43.29004,"lon":5.35611,"is_reserved":false,"is_disabled":false,"rental_uris":{"android":"levelo://app?vid=76747b5b-9fa8-452f-af0f-a2fae509655b","ios":"levelo://app?vid=76747b5b-9fa8-452f-af0f-a2fae509655b"},"vehicle_type_id":"4","last_reported":1730294276,"current_range_meters":14400,"station_id":"ce4bhb92rcd13ifvqen0","pricing_plan_id":"cebpf4jnsgd1na2vs0mg"},{"bike_id":"ccdfd319-6908-4ad8-9315-50628bb4a478","system_id":"levelo_inurba_marseille","lat":43.27173,"lon":5.40987,"is_reserved":false,"is_disabled":false,"rental_uris":{"android":"levelo://app?vid=ccdfd319-6908-4ad8-9315-50628bb4a478","ios":"levelo://app?vid=ccdfd319-6908-4ad8-9315-50628bb4a478"},"vehicle_type_id":"4","last_reported":1730294276,"current_range_meters":39200,"station_id":"ce4bhl12rcd13ifvqgf0","pricing_plan_id":"cebpf4jnsgd1na2vs0mg"},{"bike_id":"b1a99226-ccc1-4db9-a7fd-eb25c9449489","system_id":"levelo_inurba_marseille","lat":43.32049,"lon":5.4153,"is_reserved":false,"is_disabled":false,"rental_uris":{"android":"levelo://app?vid=b1a99226-ccc1-4db9-a7fd-eb25c9449489","ios":"levelo://app?vid=b1a99226-ccc1-4db9-a7fd-eb25c9449489"},"vehicle_type_id":"4","last_reported":1730294276,"current_range_meters":30400,"station_id":"ce4bhq92rcd13ifvqhkg","pricing_plan_id":"cebpf4jnsgd1na2vs0mg"},{"bike_id":"83346ad2-1f5f-479d-843e-899ab63acbfd","system_id":"levelo_inurba_marseille","lat":43.30889,"lon":5.37192,"is_reserved":false,"is_disabled":false,"rental_uris":{"android":"levelo://app?vid=83346ad2-1f5f-479d-843e-899ab63acbfd","ios":"levelo://app?vid=83346ad2-1f5f-479d-843e-899ab63acbfd"},"vehicle_type_id":"4","last_reported":1730294276,"current_range_meters":11200,"station_id":"ce4bguh2rcd13ifvqckg","pricing_plan_id":"cebpf4jnsgd1na2vs0mg"},{"bike_id":"845fc2f1-dbef-4df3-8638-f69b027d71e7","system_id":"levelo_inurba_marseille","lat":43.29371,"lon":5.3787,"is_reserved":false,"is_disabled":false,"rental_uris":{"android":"levelo://app?vid=845fc2f1-dbef-4df3-8638-f69b027d71e7","ios":"levelo://app?vid=845fc2f1-dbef-4df3-8638-f69b027d71e7"},"vehicle_type_id":"4","last_reported":1730294276,"current_range_meters":24000,"station_id":"ce4bgjh2rcd13ifvqbf0","pricing_plan_id":"cebpf4jnsgd1na2vs0mg"},{"bike_id":"f4f0c396-6a67-4f18-9402-88b4f8a3a765","system_id":"levelo_inurba_marseille","lat":43.28977,"lon":5.37841,"is_reserved":false,"is_disabled":false,"rental_uris":{"android":"levelo://app?vid=f4f0c396-6a67-4f18-9402-88b4f8a3a765","ios":"levelo://app?vid=f4f0c396-6a67-4f18-9402-88b4f8a3a765"},"vehicle_type_id":"4","last_reported":1730294276,"current_range_meters":28800,"station_id":"ce4bh9p2rcd13ifvqed0","pricing_plan_id":"cebpf4jnsgd1na2vs0mg"},{"bike_id":"d4ec8797-581e-4e49-88d0-5a443b3525c7","system_id":"levelo_inurba_marseille","lat":43.26949,"lon":5.38629,"is_reserved":false,"is_disabled":false,"rental_uris":{"android":"levelo://app?vid=d4ec8797-581e-4e49-88d0-5a443b3525c7","ios":"levelo://app?vid=d4ec8797-581e-4e49-88d0-5a443b3525c7"},"vehicle_type_id":"4","last_reported":1730294276,"current_range_meters":10800,"station_id":"ce4bhh92rcd13ifvqfh0","pricing_plan_id":"cebpf4jnsgd1na2vs0mg"},{"bike_id":"2b7478b7-886e-4bf0-9251-71e385d862fb","system_id":"levelo_inurba_marseille","lat":43.29551,"lon":5.42273,"is_reserved":false,"is_disabled":false,"rental_uris":{"android":"levelo://app?vid=2b7478b7-886e-4bf0-9251-71e385d862fb","ios":"levelo://app?vid=2b7478b7-886e-4bf0-9251-71e385d862fb"},"vehicle_type_id":"4","last_reported":1730294276,"current_range_meters":38800,"station_id":"ce4bhph2rcd13ifvqhdg","pricing_plan_id":"cebpf4jnsgd1na2vs0mg"},{"bike_id":"bfb1a2f2-5dd7-404a-90bb-be56759f829f","system_id":"levelo_inurba_marseille","lat":43.27998,"lon":5.41653,"is_reserved":false,"is_disabled":false,"rental_uris":{"android":"levelo://app?vid=bfb1a2f2-5dd7-404a-90bb-be56759f829f","ios":"levelo://app?vid=bfb1a2f2-5dd7-404a-90bb-be56759f829f"},"vehicle_type_id":"4","last_reported":1730294276,"current_range_meters":36800,"station_id":"ce4bho12rcd13ifvqh1g","pricing_plan_id":"cebpf4jnsgd1na2vs0mg"},{"bike_id":"c10359e4-d1ad-4465-8363-8bbf244ac8cc","system_id":"levelo_inurba_marseille","lat":43.28269,"lon":5.35074,"is_reserved":false,"is_disabled":false,"rental_uris":{"android":"levelo://app?vid=c10359e4-d1ad-4465-8363-8bbf244ac8cc","ios":"levelo://app?vid=c10359e4-d1ad-4465-8363-8bbf244ac8cc"},"vehicle_type_id":"4","last_reported":1730294276,"current_range_meters":16000,"station_id":"ce4bhbp2rcd13ifvqerg","pricing_plan_id":"cebpf4jnsgd1na2vs0mg"},{"bike_id":"edc2c4f2-a74a-4f92-82fa-e83bc203bcf1","system_id":"levelo_inurba_marseille","lat":43.31165,"lon":5.38719,"is_reserved":false,"is_disabled":false,"rental_uris":{"android":"levelo://app?vid=edc2c4f2-a74a-4f92-82fa-e83bc203bcf1","ios":"levelo://app?vid=edc2c4f2-a74a-4f92-82fa-e83bc203bcf1"},"vehicle_type_id":"4","last_reported":1730294276,"current_range_meters":37600,"station_id":"ce4bgv12rcd13ifvqcp0","pricing_plan_id":"cebpf4jnsgd1na2vs0mg"},{"bike_id":"9248cf01-eb15-4e68-bcac-901a03c5bf70","system_id":"levelo_inurba_marseille","lat":43.312203,"lon":5.368513,"is_reserved":false,"is_disabled":false,"rental_uris":{"android":"levelo://app?vid=9248cf01-eb15-4e68-bcac-901a03c5bf70","ios":"levelo://app?vid=9248cf01-eb15-4e68-bcac-901a03c5bf70"},"vehicle_type_id":"4","last_reported":1730294276,"current_range_meters":38800,"station_id":"ce4bgl92rcd13ifvqbq0","pricing_plan_id":"cebpf4jnsgd1na2vs0mg"},{"bike_id":"d89741ea-d183-4a0d-bccf-a835833bf0e6","system_id":"levelo_inurba_marseille","lat":43.28421,"lon":5.34995,"is_reserved":false,"is_disabled":false,"rental_uris":{"android":"levelo://app?vid=d89741ea-d183-4a0d-bccf-a835833bf0e6","ios":"levelo://app?vid=d89741ea-d183-4a0d-bccf-a835833bf0e6"},"vehicle_type_id":"4","last_reported":1730294276,"current_range_meters":36800,"station_id":"ce4bhbh2rcd13ifvqepg","pricing_plan_id":"cebpf4jnsgd1na2vs0mg"},{"bike_id":"3fd7dec0-2b1a-46d7-8a51-6998889d12db","system_id":"levelo_inurba_marseille","lat":43.27844,"lon":5.39215,"is_reserved":false,"is_disabled":false,"rental_uris":{"android":"levelo://app?vid=3fd7dec0-2b1a-46d7-8a51-6998889d12db","ios":"levelo://app?vid=3fd7dec0-2b1a-46d7-8a51-6998889d12db"},"vehicle_type_id":"4","last_reported":1730294276,"current_range_meters":16400,"station_id":"ce4bhjp2rcd13ifvqga0","pricing_plan_id":"cebpf4jnsgd1na2vs0mg"},{"bike_id":"f645c90b-4ed6-4548-8c44-d6aa748cbf89","system_id":"levelo_inurba_marseille","lat":43.28099,"lon":5.37839,"is_reserved":false,"is_disabled":false,"rental_uris":{"android":"levelo://app?vid=f645c90b-4ed6-4548-8c44-d6aa748cbf89","ios":"levelo://app?vid=f645c90b-4ed6-4548-8c44-d6aa748cbf89"},"vehicle_type_id":"4","last_reported":1730294276,"current_range_meters":6800,"station_id":"ce4bha12rcd13ifvqee0","pricing_plan_id":"cebpf4jnsgd1na2vs0mg"},{"bike_id":"0e92daca-d2a5-4dc1-8671-285db531f27f","system_id":"levelo_inurba_marseille","lat":43.3089,"lon":5.37193,"is_reserved":false,"is_disabled":false,"rental_uris":{"android":"levelo://app?vid=0e92daca-d2a5-4dc1-8671-285db531f27f","ios":"levelo://app?vid=0e92daca-d2a5-4dc1-8671-285db531f27f"},"vehicle_type_id":"4","last_reported":1730294276,"current_range_meters":36800,"station_id":"ce4bguh2rcd13ifvqckg","pricing_plan_id":"cebpf4jnsgd1na2vs0mg"},{"bike_id":"2fec06cf-9d64-4a42-8b48-e61a5f55109c","system_id":"levelo_inurba_marseille","lat":43.31991,"lon":5.38142,"is_reserved":false,"is_disabled":false,"rental_uris":{"android":"levelo://app?vid=2fec06cf-9d64-4a42-8b48-e61a5f55109c","ios":"levelo://app?vid=2fec06cf-9d64-4a42-8b48-e61a5f55109c"},"vehicle_type_id":"4","last_reported":1730294276,"current_range_meters":37600,"station_id":"ce4bhr12rcd13ifvqhpg","pricing_plan_id":"cebpf4jnsgd1na2vs0mg"},{"bike_id":"d3a1e5e8-1688-4710-8963-f96e0a682875","system_id":"levelo_inurba_marseille","lat":43.30948,"lon":5.39043,"is_reserved":false,"is_disabled":false,"rental_uris":{"android":"levelo://app?vid=d3a1e5e8-1688-4710-8963-f96e0a682875","ios":"levelo://app?vid=d3a1e5e8-1688-4710-8963-f96e0a682875"},"vehicle_type_id":"4","last_reported":1730294276,"current_range_meters":22800,"station_id":"ce4bhoh2rcd13ifvqh5g","pricing_plan_id":"cebpf4jnsgd1na2vs0mg"},{"bike_id":"9a79c046-ffbd-430c-9b08-0a56da8292f5","system_id":"levelo_inurba_marseille","lat":43.23174,"lon":5.3998,"is_reserved":false,"is_disabled":false,"rental_uris":{"android":"levelo://app?vid=9a79c046-ffbd-430c-9b08-0a56da8292f5","ios":"levelo://app?vid=9a79c046-ffbd-430c-9b08-0a56da8292f5"},"vehicle_type_id":"4","last_reported":1730294276,"current_range_meters":39200,"station_id":"ce4bhn12rcd13ifvqgqg","pricing_plan_id":"cebpf4jnsgd1na2vs0mg"},{"bike_id":"00570a9a-70dc-4fd9-a21d-b33665529146","system_id":"levelo_inurba_marseille","lat":43.23968,"lon":5.36634,"is_reserved":false,"is_disabled":false,"rental_uris":{"android":"levelo://app?vid=00570a9a-70dc-4fd9-a21d-b33665529146","ios":"levelo://app?vid=00570a9a-70dc-4fd9-a21d-b33665529146"},"vehicle_type_id":"4","last_reported":1730294276,"current_range_meters":40000,"station_id":"ce4bhi12rcd13ifvqfp0","pricing_plan_id":"cebpf4jnsgd1na2vs0mg"},{"bike_id":"13733b6d-2562-481b-8b69-d205523f08c4","system_id":"levelo_inurba_marseille","lat":43.32049,"lon":5.41523,"is_reserved":false,"is_disabled":false,"rental_uris":{"android":"levelo://app?vid=13733b6d-2562-481b-8b69-d205523f08c4","ios":"levelo://app?vid=13733b6d-2562-481b-8b69-d205523f08c4"},"vehicle_type_id":"4","last_reported":1730294276,"current_range_meters":37600,"station_id":"ce4bhq92rcd13ifvqhkg","pricing_plan_id":"cebpf4jnsgd1na2vs0mg"},{"bike_id":"9592eb1a-4a46-4535-b3fe-0af141dace43","system_id":"levelo_inurba_marseille","lat":43.23959,"lon":5.36629,"is_reserved":false,"is_disabled":false,"rental_uris":{"android":"levelo://app?vid=9592eb1a-4a46-4535-b3fe-0af141dace43","ios":"levelo://app?vid=9592eb1a-4a46-4535-b3fe-0af141dace43"},"vehicle_type_id":"4","last_reported":1730294276,"current_range_meters":32000,"station_id":"ce4bhi12rcd13ifvqfp0","pricing_plan_id":"cebpf4jnsgd1na2vs0mg"},{"bike_id":"88a62173-a4f1-405d-bc63-184987848dc1","system_id":"levelo_inurba_marseille","lat":43.29679,"lon":5.3729,"is_reserved":false,"is_disabled":false,"rental_uris":{"android":"levelo://app?vid=88a62173-a4f1-405d-bc63-184987848dc1","ios":"levelo://app?vid=88a62173-a4f1-405d-bc63-184987848dc1"},"vehicle_type_id":"4","last_reported":1730294276,"current_range_meters":38000,"station_id":"ce4bgk12rcd13ifvqbj0","pricing_plan_id":"cebpf4jnsgd1na2vs0mg"},{"bike_id":"9e46708d-d725-4de5-b98b-401586e420e4","system_id":"levelo_inurba_marseille","lat":43.32542,"lon":5.41452,"is_reserved":false,"is_disabled":false,"rental_uris":{"android":"levelo://app?vid=9e46708d-d725-4de5-b98b-401586e420e4","ios":"levelo://app?vid=9e46708d-d725-4de5-b98b-401586e420e4"},"vehicle_type_id":"4","last_reported":1730294276,"current_range_meters":39200,"station_id":"ce4bhq12rcd13ifvqhhg","pricing_plan_id":"cebpf4jnsgd1na2vs0mg"},{"bike_id":"edf12170-3785-4ee7-9afc-827b9cbdff54","system_id":"levelo_inurba_marseille","lat":43.28268,"lon":5.35065,"is_reserved":false,"is_disabled":false,"rental_uris":{"android":"levelo://app?vid=edf12170-3785-4ee7-9afc-827b9cbdff54","ios":"levelo://app?vid=edf12170-3785-4ee7-9afc-827b9cbdff54"},"vehicle_type_id":"4","last_reported":1730294276,"current_range_meters":32000,"station_id":"ce4bhbp2rcd13ifvqerg","pricing_plan_id":"cebpf4jnsgd1na2vs0mg"},{"bike_id":"b8d0303d-abed-418a-bba4-b9e591c0e5d6","system_id":"levelo_inurba_marseille","lat":43.30349,"lon":5.4188,"is_reserved":false,"is_disabled":false,"rental_uris":{"android":"levelo://app?vid=b8d0303d-abed-418a-bba4-b9e591c0e5d6","ios":"levelo://app?vid=b8d0303d-abed-418a-bba4-b9e591c0e5d6"},"vehicle_type_id":"4","last_reported":1730294276,"current_range_meters":36400,"station_id":"ce4bhop2rcd13ifvqh7g","pricing_plan_id":"cebpf4jnsgd1na2vs0mg"},{"bike_id":"5b3308d1-11b3-40cf-802c-22e8d37b959a","system_id":"levelo_inurba_marseille","lat":43.22927,"lon":5.35371,"is_reserved":false,"is_disabled":false,"rental_uris":{"android":"levelo://app?vid=5b3308d1-11b3-40cf-802c-22e8d37b959a","ios":"levelo://app?vid=5b3308d1-11b3-40cf-802c-22e8d37b959a"},"vehicle_type_id":"4","last_reported":1730294276,"current_range_meters":24000,"station_id":"cpo3532slgdg3j2ikp40","pricing_plan_id":"cebpf4jnsgd1na2vs0mg"},{"bike_id":"00230415-7e52-4c44-be9f-c7b241250dcc","system_id":"levelo_inurba_marseille","lat":43.2656,"lon":5.39001,"is_reserved":false,"is_disabled":false,"rental_uris":{"android":"levelo://app?vid=00230415-7e52-4c44-be9f-c7b241250dcc","ios":"levelo://app?vid=00230415-7e52-4c44-be9f-c7b241250dcc"},"vehicle_type_id":"4","last_reported":1730294276,"current_range_meters":38000,"station_id":"ce4bhe12rcd13ifvqf30","pricing_plan_id":"cebpf4jnsgd1na2vs0mg"},{"bike_id":"e3cd6848-1b39-42a6-a77f-3f37adf1b23a","system_id":"levelo_inurba_marseille","lat":43.27497,"lon":5.4245,"is_reserved":false,"is_disabled":false,"rental_uris":{"android":"levelo://app?vid=e3cd6848-1b39-42a6-a77f-3f37adf1b23a","ios":"levelo://app?vid=e3cd6848-1b39-42a6-a77f-3f37adf1b23a"},"vehicle_type_id":"4","last_reported":1730294276,"current_range_meters":37600,"station_id":"ce4bhn92rcd13ifvqgrg","pricing_plan_id":"cebpf4jnsgd1na2vs0mg"},{"bike_id":"520a9551-b03c-4322-a45b-0362c62d111e","system_id":"levelo_inurba_marseille","lat":43.27379,"lon":5.36255,"is_reserved":false,"is_disabled":false,"rental_uris":{"android":"levelo://app?vid=520a9551-b03c-4322-a45b-0362c62d111e","ios":"levelo://app?vid=520a9551-b03c-4322-a45b-0362c62d111e"},"vehicle_type_id":"4","last_reported":1730294276,"current_range_meters":3200,"station_id":"ce4bhbh2rcd13ifvqeo0","pricing_plan_id":"cebpf4jnsgd1na2vs0mg"},{"bike_id":"8cdf364b-bace-48cf-9f26-c4aba9ec8c52","system_id":"levelo_inurba_marseille","lat":43.28276,"lon":5.35068,"is_reserved":false,"is_disabled":false,"rental_uris":{"android":"levelo://app?vid=8cdf364b-bace-48cf-9f26-c4aba9ec8c52","ios":"levelo://app?vid=8cdf364b-bace-48cf-9f26-c4aba9ec8c52"},"vehicle_type_id":"4","last_reported":1730294276,"current_range_meters":38800,"station_id":"ce4bhbp2rcd13ifvqerg","pricing_plan_id":"cebpf4jnsgd1na2vs0mg"},{"bike_id":"4efb6372-d10f-42b7-876f-c8aaff325b26","system_id":"levelo_inurba_marseille","lat":43.293024,"lon":5.374645,"is_reserved":false,"is_disabled":false,"rental_uris":{"android":"levelo://app?vid=4efb6372-d10f-42b7-876f-c8aaff325b26","ios":"levelo://app?vid=4efb6372-d10f-42b7-876f-c8aaff325b26"},"vehicle_type_id":"4","last_reported":1730294276,"current_range_meters":38400,"station_id":"ce4bhh92rcd13ifvqfi0","pricing_plan_id":"cebpf4jnsgd1na2vs0mg"},{"bike_id":"a2b6022a-9f66-43a6-9e47-d94a4ec3e315","system_id":"levelo_inurba_marseille","lat":43.31688,"lon":5.37755,"is_reserved":false,"is_disabled":false,"rental_uris":{"android":"levelo://app?vid=a2b6022a-9f66-43a6-9e47-d94a4ec3e315","ios":"levelo://app?vid=a2b6022a-9f66-43a6-9e47-d94a4ec3e315"},"vehicle_type_id":"4","last_reported":1730294276,"current_range_meters":30800,"station_id":"ce4bgth2rcd13ifvqch0","pricing_plan_id":"cebpf4jnsgd1na2vs0mg"},{"bike_id":"73d42e0b-9525-492e-bf61-64f82da78778","system_id":"levelo_inurba_marseille","lat":43.28704,"lon":5.37381,"is_reserved":false,"is_disabled":false,"rental_uris":{"android":"levelo://app?vid=73d42e0b-9525-492e-bf61-64f82da78778","ios":"levelo://app?vid=73d42e0b-9525-492e-bf61-64f82da78778"},"vehicle_type_id":"4","last_reported":1730294276,"current_range_meters":31200,"station_id":"ce4bh3p2rcd13ifvqdq0","pricing_plan_id":"cebpf4jnsgd1na2vs0mg"},{"bike_id":"9459a7dd-c92a-47c4-b71b-78b36fb6f34e","system_id":"levelo_inurba_marseille","lat":43.30547,"lon":5.36558,"is_reserved":false,"is_disabled":false,"rental_uris":{"android":"levelo://app?vid=9459a7dd-c92a-47c4-b71b-78b36fb6f34e","ios":"levelo://app?vid=9459a7dd-c92a-47c4-b71b-78b36fb6f34e"},"vehicle_type_id":"4","last_reported":1730294276,"current_range_meters":16800,"station_id":"ce4bgs12rcd13ifvqcag","pricing_plan_id":"cebpf4jnsgd1na2vs0mg"},{"bike_id":"0ab80378-e623-43e3-bf65-f49164c84b9d","system_id":"levelo_inurba_marseille","lat":43.29621,"lon":5.37169,"is_reserved":false,"is_disabled":false,"rental_uris":{"android":"levelo://app?vid=0ab80378-e623-43e3-bf65-f49164c84b9d","ios":"levelo://app?vid=0ab80378-e623-43e3-bf65-f49164c84b9d"},"vehicle_type_id":"4","last_reported":1730294276,"current_range_meters":37600,"station_id":"ce4bgnh2rcd13ifvqc0g","pricing_plan_id":"cebpf4jnsgd1na2vs0mg"},{"bike_id":"53aa556c-7b61-48a2-bca8-63feccc4bf60","system_id":"levelo_inurba_marseille","lat":43.33737,"lon":5.37451,"is_reserved":false,"is_disabled":false,"rental_uris":{"android":"levelo://app?vid=53aa556c-7b61-48a2-bca8-63feccc4bf60","ios":"levelo://app?vid=53aa556c-7b61-48a2-bca8-63feccc4bf60"},"vehicle_type_id":"4","last_reported":1730294276,"current_range_meters":3200,"station_id":"","pricing_plan_id":"cebpf4jnsgd1na2vs0mg"},{"bike_id":"0cebe45a-7302-469a-b861-6fd094a95414","system_id":"levelo_inurba_marseille","lat":43.23193,"lon":5.35556,"is_reserved":false,"is_disabled":false,"rental_uris":{"android":"levelo://app?vid=0cebe45a-7302-469a-b861-6fd094a95414","ios":"levelo://app?vid=0cebe45a-7302-469a-b861-6fd094a95414"},"vehicle_type_id":"4","last_reported":1730294276,"current_range_meters":2800,"station_id":"ce4bhu92rcd13ifvqi70","pricing_plan_id":"cebpf4jnsgd1na2vs0mg"},{"bike_id":"6e3382d2-08e1-4424-9d9f-ac2adc3de780","system_id":"levelo_inurba_marseille","lat":43.301514,"lon":5.379815,"is_reserved":false,"is_disabled":false,"rental_uris":{"android":"levelo://app?vid=6e3382d2-08e1-4424-9d9f-ac2adc3de780","ios":"levelo://app?vid=6e3382d2-08e1-4424-9d9f-ac2adc3de780"},"vehicle_type_id":"4","last_reported":1730294276,"current_range_meters":7200,"station_id":"","pricing_plan_id":"cebpf4jnsgd1na2vs0mg"},{"bike_id":"b55c79c6-cb86-4a49-b99f-dae8963d0dc6","system_id":"levelo_inurba_marseille","lat":43.27991,"lon":5.41654,"is_reserved":false,"is_disabled":false,"rental_uris":{"android":"levelo://app?vid=b55c79c6-cb86-4a49-b99f-dae8963d0dc6","ios":"levelo://app?vid=b55c79c6-cb86-4a49-b99f-dae8963d0dc6"},"vehicle_type_id":"4","last_reported":1730294276,"current_range_meters":36800,"station_id":"ce4bho12rcd13ifvqh1g","pricing_plan_id":"cebpf4jnsgd1na2vs0mg"},{"bike_id":"92a16815-2534-4a5c-a78b-b3c806135f93","system_id":"levelo_inurba_marseille","lat":43.2894,"lon":5.36641,"is_reserved":false,"is_disabled":false,"rental_uris":{"android":"levelo://app?vid=92a16815-2534-4a5c-a78b-b3c806135f93","ios":"levelo://app?vid=92a16815-2534-4a5c-a78b-b3c806135f93"},"vehicle_type_id":"4","last_reported":1730294276,"current_range_meters":23200,"station_id":"ce4bhap2rcd13ifvqek0","pricing_plan_id":"cebpf4jnsgd1na2vs0mg"},{"bike_id":"4d0fc6c7-49c2-4a91-9b86-8d55c78979b0","system_id":"levelo_inurba_marseille","lat":43.24187,"lon":5.39727,"is_reserved":false,"is_disabled":false,"rental_uris":{"android":"levelo://app?vid=4d0fc6c7-49c2-4a91-9b86-8d55c78979b0","ios":"levelo://app?vid=4d0fc6c7-49c2-4a91-9b86-8d55c78979b0"},"vehicle_type_id":"4","last_reported":1730294276,"current_range_meters":22800,"station_id":"ce4bhn12rcd13ifvqgpg","pricing_plan_id":"cebpf4jnsgd1na2vs0mg"},{"bike_id":"24cc416b-507d-4ce2-a65f-4869b81c2c4c","system_id":"levelo_inurba_marseille","lat":43.26563,"lon":5.39008,"is_reserved":false,"is_disabled":false,"rental_uris":{"android":"levelo://app?vid=24cc416b-507d-4ce2-a65f-4869b81c2c4c","ios":"levelo://app?vid=24cc416b-507d-4ce2-a65f-4869b81c2c4c"},"vehicle_type_id":"4","last_reported":1730294276,"current_range_meters":37600,"station_id":"ce4bhe12rcd13ifvqf30","pricing_plan_id":"cebpf4jnsgd1na2vs0mg"},{"bike_id":"954b87dc-b9ce-44e5-ab9c-c48b03fade3e","system_id":"levelo_inurba_marseille","lat":43.29265,"lon":5.38442,"is_reserved":false,"is_disabled":false,"rental_uris":{"android":"levelo://app?vid=954b87dc-b9ce-44e5-ab9c-c48b03fade3e","ios":"levelo://app?vid=954b87dc-b9ce-44e5-ab9c-c48b03fade3e"},"vehicle_type_id":"4","last_reported":1730294276,"current_range_meters":2000,"station_id":"ce4bh692rcd13ifvqea0","pricing_plan_id":"cebpf4jnsgd1na2vs0mg"},{"bike_id":"5aa37497-0f6c-4277-bea3-7587ff3033b1","system_id":"levelo_inurba_marseille","lat":43.29566,"lon":5.37525,"is_reserved":false,"is_disabled":false,"rental_uris":{"android":"levelo://app?vid=5aa37497-0f6c-4277-bea3-7587ff3033b1","ios":"levelo://app?vid=5aa37497-0f6c-4277-bea3-7587ff3033b1"},"vehicle_type_id":"4","last_reported":1730294276,"current_range_meters":2800,"station_id":"ce4bgh92rcd13ifvqb50","pricing_plan_id":"cebpf4jnsgd1na2vs0mg"},