{"last_updated":1744301540,"ttl":60,"version":"2.2","data":{"bikes":[{"bike_id":"0dcf29c5-4ce6-4296-918c-a7e199bc1d46","system_id":"levelo_inurba_marseille","lat":43.337444,"lon":5.374475,"is_reserved":false,"is_disabled":false,"rental_uris":{"android":"levelo://app?vid=0dcf29c5-4ce6-4296-918c-a7e199bc1d46","ios":"levelo://app?vid=0dcf29c5-4ce6-4296-918c-a7e199bc1d46"},"vehicle_type_id":"4","last_reported":1744301540,"current_range_meters":2800,"station_id":"","pricing_plan_id":"cebpf4jnsgd1na2vs0mg"},{"bike_id":"8d4c60b2-de63-4390-996c-7cfba845c3d1","system_id":"levelo_inurba_marseille","lat":43.29372,"lon":5.37859,"is_reserved":false,"is_disabled":false,"rental_uris":{"android":"levelo://app?vid=8d4c60b2-de63-4390-996c-7cfba845c3d1","ios":"levelo://app?vid=8d4c60b2-de63-4390-996c-7cfba845c3d1"},"vehicle_type_id":"4","last_reported":1744301540,"current_range_meters":2800,"station_id":"ce4bgjh2rcd13ifvqbf0","pricing_plan_id":"cebpf4jnsgd1na2vs0mg"},{"bike_id":"90ef2e11-952a-4e45-8210-5a83a5c00ad6","system_id":"levelo_inurba_marseille","lat":43.300507,"lon":5.389717,"is_reserved":false,"is_disabled":false,"rental_uris":{"android":"levelo://app?vid=90ef2e11-952a-4e45-8210-5a83a5c00ad6","ios":"levelo://app?vid=90ef2e11-952a-4e45-8210-5a83a5c00ad6"},"vehicle_type_id":"4","last_reported":1744301540,"current_range_meters":2000,"station_id":"ce4bh192rcd13ifvqdb0","pricing_plan_id":"cebpf4jnsgd1na2vs0mg"},{"bike_id":"35a83c88-6b54-475d-8817-1d866e4fdbfd","system_id":"levelo_inurba_marseille","lat":43.25504,"lon":5.37655,"is_reserved":false,"is_disabled":false,"rental_uris":{"android":"levelo://app?vid=35a83c88-6b54-475d-8817-1d866e4fdbfd","ios":"levelo://app?vid=35a83c88-6b54-475d-8817-1d866e4fdbfd"},"vehicle_type_id":"4","last_reported":1744301540,"current_range_meters":2800,"station_id":"ce4bhh12rcd13ifvqff0","pricing_plan_id":"cebpf4jnsgd1na2vs0mg"},{"bike_id":"f9fde33d-3e05-4f24-9670-2ad2d1cacdc1","system_id":"levelo_inurba_marseille","lat":43.281005,"lon":5.378623,"is_reserved":false,"is_disabled":true,"rental_uris":{"android":"levelo://app?vid=f9fde33d-3e05-4f24-9670-2ad2d1cacdc1","ios":"levelo://app?vid=f9fde33d-3e05-4f24-9670-2ad2d1cacdc1"},"vehicle_type_id":"4","last_reported":1744301540,"current_range_meters":2800,"station_id":"ce4bha12rcd13ifvqee0","pricing_plan_id":"cebpf4jnsgd1na2vs0mg"},{"bike_id":"670bd9fe-2fe2-4c5d-8b0e-08d03e9952b7","system_id":"levelo_inurba_marseille","lat":43.30929,"lon":5.40138,"is_reserved":false,"is_disabled":false,"rental_uris":{"android":"levelo://app?vid=670bd9fe-2fe2-4c5d-8b0e-08d03e9952b7","ios":"levelo://app?vid=670bd9fe-2fe2-4c5d-8b0e-08d03e9952b7"},"vehicle_type_id":"4","last_reported":1744301540,"current_range_meters":3200,"station_id":"ce4bgvp2rcd13ifvqct0","pricing_plan_id":"cebpf4jnsgd1na2vs0mg"},{"bike_id":"b187f08a-3275-4e53-9a81-c3f8d8f5bb53","system_id":"levelo_inurba_marseille","lat":43.30949,"lon":5.39033,"is_reserved":false,"is_disabled":false,"rental_uris":{"android":"levelo://app?vid=b187f08a-3275-4e53-9a81-c3f8d8f5bb53","ios":"levelo://app?vid=b187f08a-3275-4e53-9a81-c3f8d8f5bb53"},"vehicle_type_id":"4","last_reported":1744301540,"current_range_meters":2800,"station_id":"ce4bgup2rcd13ifvqco0","pricing_plan_id":"cebpf4jnsgd1na2vs0mg"},{"bike_id":"97d9f5c7-5601-4024-8218-e080850705e4","system_id":"levelo_inurba_marseille","lat":43.28433,"lon":5.34977,"is_reserved":false,"is_disabled":true,"rental_uris":{"android":"levelo://app?vid=97d9f5c7-5601-4024-8218-e080850705e4","ios":"levelo://app?vid=97d9f5c7-5601-4024-8218-e080850705e4"},"vehicle_type_id":"4","last_reported":1744301540,"current_range_meters":3200,"station_id":"ce4bhbh2rcd13ifvqepg","pricing_plan_id":"cebpf4jnsgd1na2vs0mg"},{"bike_id":"89ccef7f-3da7-4cac-8489-4227ec1b7084","system_id":"levelo_inurba_marseille","lat":43.287947,"lon":5.382653,"is_reserved":false,"is_disabled":false,"rental_uris":{"android":"levelo://app?vid=89ccef7f-3da7-4cac-8489-4227ec1b7084","ios":"levelo://app?vid=89ccef7f-3da7-4cac-8489-4227ec1b7084"},"vehicle_type_id":"4","last_reported":1744301540,"current_range_meters":3200,"station_id":"ce4bh612rcd13ifvqe6g","pricing_plan_id":"cebpf4jnsgd1na2vs0mg"},{"bike_id":"4d0652f5-5f9a-4d40-a540-d8b0d7f8dfa6","system_id":"levelo_inurba_marseille","lat":43.31488,"lon":5.37305,"is_reserved":false,"is_disabled":false,"rental_uris":{"android":"levelo://app?vid=4d0652f5-5f9a-4d40-a540-d8b0d7f8dfa6","ios":"levelo://app?vid=4d0652f5-5f9a-4d40-a540-d8b0d7f8dfa6"},"vehicle_type_id":"4","last_reported":1744301540,"current_range_meters":2800,"station_id":"ce4bgt12rcd13ifvqcd0","pricing_plan_id":"cebpf4jnsgd1na2vs0mg"},{"bike_id":"e668d751-7052-4140-915c-0403277227cd","system_id":"levelo_inurba_marseille","lat":43.29369,"lon":5.37838,"is_reserved":false,"is_disabled":false,"rental_uris":{"android":"levelo://app?vid=e668d751-7052-4140-915c-0403277227cd","ios":"levelo://app?vid=e668d751-7052-4140-915c-0403277227cd"},"vehicle_type_id":"4","last_reported":1744301540,"current_range_meters":3600,"station_id":"ce4bgjh2rcd13ifvqbf0","pricing_plan_id":"cebpf4jnsgd1na2vs0mg"},{"bike_id":"80663e12-6b64-446d-88c9-20255bde1a8a","system_id":"levelo_inurba_marseille","lat":43.30901,"lon":5.39626,"is_reserved":false,"is_disabled":true,"rental_uris":{"android":"levelo://app?vid=80663e12-6b64-446d-88c9-20255bde1a8a","ios":"levelo://app?vid=80663e12-6b64-446d-88c9-20255bde1a8a"},"vehicle_type_id":"4","last_reported":1744301540,"current_range_meters":3600,"station_id":"ce4bh012rcd13ifvqcv0","pricing_plan_id":"cebpf4jnsgd1na2vs0mg"},{"bike_id":"e6d602c6-b3e7-49ed-a916-4fcac53926e1","system_id":"levelo_inurba_marseille","lat":43.256962,"lon":5.410942,"is_reserved":false,"is_disabled":false,"rental_uris":{"android":"levelo://app?vid=e6d602c6-b3e7-49ed-a916-4fcac53926e1","ios":"levelo://app?vid=e6d602c6-b3e7-49ed-a916-4fcac53926e1"},"vehicle_type_id":"4","last_reported":1744301540,"current_range_meters":3600,"station_id":"ce4bhkp2rcd13ifvqgd0","pricing_plan_id":"cebpf4jnsgd1na2vs0mg"},{"bike_id":"1ba6451c-cbe4-4b09-920c-dc83229b4496","system_id":"levelo_inurba_marseille","lat":43.28041,"lon":5.36945,"is_reserved":false,"is_disabled":false,"rental_uris":{"android":"levelo://app?vid=1ba6451c-cbe4-4b09-920c-dc83229b4496","ios":"levelo://app?vid=1ba6451c-cbe4-4b09-920c-dc83229b4496"},"vehicle_type_id":"4","last_reported":1744301540,"current_range_meters":3600,"station_id":"ce4bha12rcd13ifvqef0","pricing_plan_id":"cebpf4jnsgd1na2vs0mg"},{"bike_id":"0b7a3195-7f8a-44cd-a2d4-5872f4f34736","system_id":"levelo_inurba_marseille","lat":43.28717,"lon":5.3793,"is_reserved":false,"is_disabled":false,"rental_uris":{"android":"levelo://app?vid=0b7a3195-7f8a-44cd-a2d4-5872f4f34736","ios":"levelo://app?vid=0b7a3195-7f8a-44cd-a2d4-5872f4f34736"},"vehicle_type_id":"4","last_reported":1744301540,"current_range_meters":3600,"station_id":"ce4bh9p2rcd13ifvqec0","pricing_plan_id":"cebpf4jnsgd1na2vs0mg"},{"bike_id":"5e023a8a-a2ad-40b3-8b91-e4018f652bb9","system_id":"levelo_inurba_marseille","lat":43.25113,"lon":5.40338,"is_reserved":false,"is_disabled":true,"rental_uris":{"android":"levelo://app?vid=5e023a8a-a2ad-40b3-8b91-e4018f652bb9","ios":"levelo://app?vid=5e023a8a-a2ad-40b3-8b91-e4018f652bb9"},"vehicle_type_id":"4","last_reported":1744301540,"current_range_meters":3600,"station_id":"ce4bhlh2rcd13ifvqgig","pricing_plan_id":"cebpf4jnsgd1na2vs0mg"},{"bike_id":"6fb010ff-2577-4050-a3e5-2516080bddb0","system_id":"levelo_inurba_marseille","lat":43.28697,"lon":5.37396,"is_reserved":false,"is_disabled":false,"rental_uris":{"android":"levelo://app?vid=6fb010ff-2577-4050-a3e5-2516080bddb0","ios":"levelo://app?vid=6fb010ff-2577-4050-a3e5-2516080bddb0"},"vehicle_type_id":"4","last_reported":1744301540,"current_range_meters":3600,"station_id":"ce4bh3p2rcd13ifvqdq0","pricing_plan_id":"cebpf4jnsgd1na2vs0mg"},{"bike_id":"2fabe86c-e6f6-4469-afe8-3d660f28562a","system_id":"levelo_inurba_marseille","lat":43.27618,"lon":5.36114,"is_reserved":false,"is_disabled":false,"rental_uris":{"android":"levelo://app?vid=2fabe86c-e6f6-4469-afe8-3d660f28562a","ios":"levelo://app?vid=2fabe86c-e6f6-4469-afe8-3d660f28562a"},"vehicle_type_id":"4","last_reported":1744301540,"current_range_meters":3600,"station_id":"ce4bgj92rcd13ifvqbe0","pricing_plan_id":"cebpf4jnsgd1na2vs0mg"},{"bike_id":"50f87690-96b1-448b-860f-d50f95c80802","system_id":"levelo_inurba_marseille","lat":43.25492,"lon":5.37648,"is_reserved":false,"is_disabled":false,"rental_uris":{"android":"levelo://app?vid=50f87690-96b1-448b-860f-d50f95c80802","ios":"levelo://app?vid=50f87690-96b1-448b-860f-d50f95c80802"},"vehicle_type_id":"4","last_reported":1744301540,"current_range_meters":4400,"station_id":"ce4bhh12rcd13ifvqff0","pricing_plan_id":"cebpf4jnsgd1na2vs0mg"},{"bike_id":"2467f179-5c7a-409d-8234-f67eedf40155","system_id":"levelo_inurba_marseille","lat":43.29004,"lon":5.35602,"is_reserved":false,"is_disabled":false,"rental_uris":{"android":"levelo://app?vid=2467f179-5c7a-409d-8234-f67eedf40155","ios":"levelo://app?vid=2467f179-5c7a-409d-8234-f67eedf40155"},"vehicle_type_id":"4","last_reported":1744301540,"current_range_meters":4000,"station_id":"ce4bhb92rcd13ifvqen0","pricing_plan_id":"cebpf4jnsgd1na2vs0mg"},{"bike_id":"c17839c0-3db3-4cc1-8392-fd5f9d1ad1bb","system_id":"levelo_inurba_marseille","lat":43.285761,"lon":5.394987,"is_reserved":false,"is_disabled":false,"rental_uris":{"android":"levelo://app?vid=c17839c0-3db3-4cc1-8392-fd5f9d1ad1bb","ios":"levelo://app?vid=c17839c0-3db3-4cc1-8392-fd5f9d1ad1bb"},"vehicle_type_id":"4","last_reported":1744301540,"current_range_meters":4000,"station_id":"ce4bho12rcd13ifvqh1g","pricing_plan_id":"cebpf4jnsgd1na2vs0mg"},{"bike_id":"b317976b-8958-435d-ad6d-78efe2b4a29e","system_id":"levelo_inurba_marseille","lat":43.273755,"lon":5.362613,"is_reserved":false,"is_disabled":false,"rental_uris":{"android":"levelo://app?vid=b317976b-8958-435d-ad6d-78efe2b4a29e","ios":"levelo://app?vid=b317976b-8958-435d-ad6d-78efe2b4a29e"},"vehicle_type_id":"4","last_reported":1744301540,"current_range_meters":4400,"station_id":"ce4bhbh2rcd13ifvqeo0","pricing_plan_id":"cebpf4jnsgd1na2vs0mg"},{"bike_id":"c882d9c3-52fb-4c88-93e8-2da5ab6a38f1","system_id":"levelo_inurba_marseille","lat":43.27668,"lon":5.38878,"is_reserved":false,"is_disabled":false,"rental_uris":{"android":"levelo://app?vid=c882d9c3-52fb-4c88-93e8-2da5ab6a38f1","ios":"levelo://app?vid=c882d9c3-52fb-4c88-93e8-2da5ab6a38f1"},"vehicle_type_id":"4","last_reported":1744301540,"current_range_meters":4400,"station_id":"ce4bhi12rcd13ifvqfo0","pricing_plan_id":"cebpf4jnsgd1na2vs0mg"},{"bike_id":"be0033a5-bf34-4205-8b0e-a757724275a7","system_id":"levelo_inurba_marseille","lat":43.27378,"lon":5.36234,"is_reserved":false,"is_disabled":false,"rental_uris":{"android":"levelo://app?vid=be0033a5-bf34-4205-8b0e-a757724275a7","ios":"levelo://app?vid=be0033a5-bf34-4205-8b0e-a757724275a7"},"vehicle_type_id":"4","last_reported":1744301540,"current_range_meters":4800,"station_id":"ce4bhbh2rcd13ifvqeo0","pricing_plan_id":"cebpf4jnsgd1na2vs0mg"},{"bike_id":"08f9c0c8-8b33-4578-8a03-20f44d582241","system_id":"levelo_inurba_marseille","lat":43.30539,"lon":5.3695,"is_reserved":false,"is_disabled":false,"rental_uris":{"android":"levelo://app?vid=08f9c0c8-8b33-4578-8a03-20f44d582241","ios":"levelo://app?vid=08f9c0c8-8b33-4578-8a03-20f44d582241"},"vehicle_type_id":"4","last_reported":1744301540,"current_range_meters":4800,"station_id":"","pricing_plan_id":"cebpf4jnsgd1na2vs0mg"},{"bike_id":"daa31218-1400-4c5d-85b0-1081b5e7371a","system_id":"levelo_inurba_marseille","lat":43.28266,"lon":5.35058,"is_reserved":false,"is_disabled":false,"rental_uris":{"android":"levelo://app?vid=daa31218-1400-4c5d-85b0-1081b5e7371a","ios":"levelo://app?vid=daa31218-1400-4c5d-85b0-1081b5e7371a"},"vehicle_type_id":"4","last_reported":1744301540,"current_range_meters":4800,"station_id":"ce4bhbp2rcd13ifvqerg","pricing_plan_id":"cebpf4jnsgd1na2vs0mg"},{"bike_id":"feef58e7-1788-4b12-a494-0fba55b250eb","system_id":"levelo_inurba_marseille","lat":43.26209,"lon":5.37921,"is_reserved":false,"is_disabled":false,"rental_uris":{"android":"levelo://app?vid=feef58e7-1788-4b12-a494-0fba55b250eb","ios":"levelo://app?vid=feef58e7-1788-4b12-a494-0fba55b250eb"},"vehicle_type_id":"4","last_reported":1744301540,"current_range_meters":5600,"station_id":"ce4bhjp2rcd13ifvqg90","pricing_plan_id":"cebpf4jnsgd1na2vs0mg"},{"bike_id":"1d51e0f7-178c-4ae3-88a2-488d4f01b826","system_id":"levelo_inurba_marseille","lat":43.28195,"lon":5.42299,"is_reserved":false,"is_disabled":false,"rental_uris":{"android":"levelo://app?vid=1d51e0f7-178c-4ae3-88a2-488d4f01b826","ios":"levelo://app?vid=1d51e0f7-178c-4ae3-88a2-488d4f01b826"},"vehicle_type_id":"4","last_reported":1744301540,"current_range_meters":5600,"station_id":"","pricing_plan_id":"cebpf4jnsgd1na2vs0mg"},{"bike_id":"1a20f09b-6248-444a-a7cd-48a0de02116b","system_id":"levelo_inurba_marseille","lat":43.30927,"lon":5.40144,"is_reserved":false,"is_disabled":false,"rental_uris":{"android":"levelo://app?vid=1a20f09b-6248-444a-a7cd-48a0de02116b","ios":"levelo://app?vid=1a20f09b-6248-444a-a7cd-48a0de02116b"},"vehicle_type_id":"4","last_reported":1744301540,"current_range_meters":5600,"station_id":"ce4bgvp2rcd13ifvqct0","pricing_plan_id":"cebpf4jnsgd1na2vs0mg"},{"bike_id":"082cb1a8-aa86-45c1-a52a-3fb6ab7f856c","system_id":"levelo_inurba_marseille","lat":43.27378,"lon":5.36257,"is_reserved":false,"is_disabled":false,"rental_uris":{"android":"levelo://app?vid=082cb1a8-aa86-45c1-a52a-3fb6ab7f856c","ios":"levelo://app?vid=082cb1a8-aa86-45c1-a52a-3fb6ab7f856c"},"vehicle_type_id":"4","last_reported":1744301540,"current_range_meters":5600,"station_id":"ce4bhbh2rcd13ifvqeo0","pricing_plan_id":"cebpf4jnsgd1na2vs0mg"},{"bike_id":"f98af297-4a07-4b5e-839f-da236bd782c5","system_id":"levelo_inurba_marseille","lat":43.29713,"lon":5.377,"is_reserved":false,"is_disabled":false,"rental_uris":{"android":"levelo://app?vid=f98af297-4a07-4b5e-839f-da236bd782c5","ios":"levelo://app?vid=f98af297-4a07-4b5e-839f-da236bd782c5"},"vehicle_type_id":"4","last_reported":1744301540,"current_range_meters":6000,"station_id":"ce4bgkh2rcd13ifvqbl0","pricing_plan_id":"cebpf4jnsgd1na2vs0mg"},{"bike_id":"4b48f93e-9649-425c-8bab-9b597815c179","system_id":"levelo_inurba_marseille","lat":43.30641,"lon":5.40095,"is_reserved":false,"is_disabled":false,"rental_uris":{"android":"levelo://app?vid=4b48f93e-9649-425c-8bab-9b597815c179","ios":"levelo://app?vid=4b48f93e-9649-425c-8bab-9b597815c179"},"vehicle_type_id":"4","last_reported":1744301540,"current_range_meters":5600,"station_id":"ce4bh112rcd13ifvqda0","pricing_plan_id":"cebpf4jnsgd1na2vs0mg"},{"bike_id":"2409ab21-797f-4e0a-af44-d2b1a07b66af","system_id":"levelo_inurba_marseille","lat":43.29366,"lon":5.37854,"is_reserved":false,"is_disabled":false,"rental_uris":{"android":"levelo://app?vid=2409ab21-797f-4e0a-af44-d2b1a07b66af","ios":"levelo://app?vid=2409ab21-797f-4e0a-af44-d2b1a07b66af"},"vehicle_type_id":"4","last_reported":1744301540,"current_range_meters":6400,"station_id":"ce4bgjh2rcd13ifvqbf0","pricing_plan_id":"cebpf4jnsgd1na2vs0mg"},{"bike_id":"6db89dc6-baf0-422e-9e35-67d39bf70310","system_id":"levelo_inurba_marseille","lat":43.27373,"lon":5.36242,"is_reserved":false,"is_disabled":false,"rental_uris":{"android":"levelo://app?vid=6db89dc6-baf0-422e-9e35-67d39bf70310","ios":"levelo://app?vid=6db89dc6-baf0-422e-9e35-67d39bf70310"},"vehicle_type_id":"4","last_reported":1744301540,"current_range_meters":6400,"station_id":"ce4bhbh2rcd13ifvqeo0","pricing_plan_id":"cebpf4jnsgd1na2vs0mg"},{"bike_id":"c8ecb344-7861-490e-9253-bb818d621f56","system_id":"levelo_inurba_marseille","lat":43.26208,"lon":5.37925,"is_reserved":false,"is_disabled":false,"rental_uris":{"android":"levelo://app?vid=c8ecb344-7861-490e-9253-bb818d621f56","ios":"levelo://app?vid=c8ecb344-7861-490e-9253-bb818d621f56"},"vehicle_type_id":"4","last_reported":1744301540,"current_range_meters":6000,"station_id":"ce4bhjp2rcd13ifvqg90","pricing_plan_id":"cebpf4jnsgd1na2vs0mg"},{"bike_id":"32259305-3cda-4490-936a-e5c68c2acfc4","system_id":"levelo_inurba_marseille","lat":43.27384,"lon":5.36259,"is_reserved":false,"is_disabled":false,"rental_uris":{"android":"levelo://app?vid=32259305-3cda-4490-936a-e5c68c2acfc4","ios":"levelo://app?vid=32259305-3cda-4490-936a-e5c68c2acfc4"},"vehicle_type_id":"4","last_reported":1744301540,"current_range_meters":6400,"station_id":"ce4bhbh2rcd13ifvqeo0","pricing_plan_id":"cebpf4jnsgd1na2vs0mg"},{"bike_id":"2c761475-c972-4d9b-af27-c9d6def40179","system_id":"levelo_inurba_marseille","lat":43.28704,"lon":5.384199,"is_reserved":false,"is_disabled":false,"rental_uris":{"android":"levelo://app?vid=2c761475-c972-4d9b-af27-c9d6def40179","ios":"levelo://app?vid=2c761475-c972-4d9b-af27-c9d6def40179"},"vehicle_type_id":"4","last_reported":1744301540,"current_range_meters":6400,"station_id":"ce4bh9p2rcd13ifvqec0","pricing_plan_id":"cebpf4jnsgd1na2vs0mg"},{"bike_id":"4bc0cd76-6d76-4beb-8f60-5be8c3333bce","system_id":"levelo_inurba_marseille","lat":43.27208,"lon":5.39184,"is_reserved":false,"is_disabled":false,"rental_uris":{"android":"levelo://app?vid=4bc0cd76-6d76-4beb-8f60-5be8c3333bce","ios":"levelo://app?vid=4bc0cd76-6d76-4beb-8f60-5be8c3333bce"},"vehicle_type_id":"4","last_reported":1744301540,"current_range_meters":6400,"station_id":"ce4bhhp2rcd13ifvqfm0","pricing_plan_id":"cebpf4jnsgd1na2vs0mg"},{"bike_id":"d859d519-fac5-4801-9cd6-4ff7db50151b","system_id":"levelo_inurba_marseille","lat":43.28438,"lon":5.35,"is_reserved":false,"is_disabled":false,"rental_uris":{"android":"levelo://app?vid=d859d519-fac5-4801-9cd6-4ff7db50151b","ios":"levelo://app?vid=d859d519-fac5-4801-9cd6-4ff7db50151b"},"vehicle_type_id":"4","last_reported":1744301540,"current_range_meters":6400,"station_id":"ce4bhbh2rcd13ifvqepg","pricing_plan_id":"cebpf4jnsgd1na2vs0mg"},{"bike_id":"dd6c18f1-b02a-42a5-a6cd-409de6a23de0","system_id":"levelo_inurba_marseille","lat":43.28938,"lon":5.36392,"is_reserved":false,"is_disabled":false,"rental_uris":{"android":"levelo://app?vid=dd6c18f1-b02a-42a5-a6cd-409de6a23de0","ios":"levelo://app?vid=dd6c18f1-b02a-42a5-a6cd-409de6a23de0"},"vehicle_type_id":"4","last_reported":1744301540,"current_range_meters":6000,"station_id":"ce4bhc92rcd13ifvqetg","pricing_plan_id":"cebpf4jnsgd1na2vs0mg"},{"bike_id":"df2cdc58-88ab-4255-bb6f-452f8fd1d430","system_id":"levelo_inurba_marseille","lat":43.2843,"lon":5.35,"is_reserved":false,"is_disabled":false,"rental_uris":{"android":"levelo://app?vid=df2cdc58-88ab-4255-bb6f-452f8fd1d430","ios":"levelo://app?vid=df2cdc58-88ab-4255-bb6f-452f8fd1d430"},"vehicle_type_id":"4","last_reported":1744301540,"current_range_meters":6800,"station_id":"ce4bhbh2rcd13ifvqepg","pricing_plan_id":"cebpf4jnsgd1na2vs0mg"},{"bike_id":"1b2d3826-bfab-43a6-a374-a0168bab3f39","system_id":"levelo_inurba_marseille","lat":43.2937,"lon":5.37851,"is_reserved":false,"is_disabled":false,"rental_uris":{"android":"levelo://app?vid=1b2d3826-bfab-43a6-a374-a0168bab3f39","ios":"levelo://app?vid=1b2d3826-bfab-43a6-a374-a0168bab3f39"},"vehicle_type_id":"4","last_reported":1744301540,"current_range_meters":6800,"station_id":"ce4bgjh2rcd13ifvqbf0","pricing_plan_id":"cebpf4jnsgd1na2vs0mg"},{"bike_id":"dd13b160-d20e-4a29-9af3-720a1520a2f8","system_id":"levelo_inurba_marseille","lat":43.23182,"lon":5.39986,"is_reserved":false,"is_disabled":false,"rental_uris":{"android":"levelo://app?vid=dd13b160-d20e-4a29-9af3-720a1520a2f8","ios":"levelo://app?vid=dd13b160-d20e-4a29-9af3-720a1520a2f8"},"vehicle_type_id":"4","last_reported":1744301540,"current_range_meters":6800,"station_id":"ce4bhn12rcd13ifvqgqg","pricing_plan_id":"cebpf4jnsgd1na2vs0mg"},{"bike_id":"df7b87ef-0696-44af-9e02-6545b8e35d91","system_id":"levelo_inurba_marseille","lat":43.28156,"lon":5.4264,"is_reserved":false,"is_disabled":false,"rental_uris":{"android":"levelo://app?vid=df7b87ef-0696-44af-9e02-6545b8e35d91","ios":"levelo://app?vid=df7b87ef-0696-44af-9e02-6545b8e35d91"},"vehicle_type_id":"4","last_reported":1744301540,"current_range_meters":6800,"station_id":"ce4bhnh2rcd13ifvqgug","pricing_plan_id":"cebpf4jnsgd1na2vs0mg"},{"bike_id":"f5f0af69-a014-46c5-a367-8669341311c2","system_id":"levelo_inurba_marseille","lat":43.28409,"lon":5.35018,"is_reserved":false,"is_disabled":false,"rental_uris":{"android":"levelo://app?vid=f5f0af69-a014-46c5-a367-8669341311c2","ios":"levelo://app?vid=f5f0af69-a014-46c5-a367-8669341311c2"},"vehicle_type_id":"4","last_reported":1744301540,"current_range_meters":7200,"station_id":"ce4bhbh2rcd13ifvqepg","pricing_plan_id":"cebpf4jnsgd1na2vs0mg"},{"bike_id":"0034db4b-efd6-4119-a358-80e858a45e83","system_id":"levelo_inurba_marseille","lat":43.31764,"lon":5.3891,"is_reserved":false,"is_disabled":false,"rental_uris":{"android":"levelo://app?vid=0034db4b-efd6-4119-a358-80e858a45e83","ios":"levelo://app?vid=0034db4b-efd6-4119-a358-80e858a45e83"},"vehicle_type_id":"4","last_reported":1744301540,"current_range_meters":7200,"station_id":"","pricing_plan_id":"cebpf4jnsgd1na2vs0mg"},{"bike_id":"3945b849-6d84-4bce-9e3f-b728c519d443","system_id":"levelo_inurba_marseille","lat":43.27372,"lon":5.36263,"is_reserved":false,"is_disabled":false,"rental_uris":{"android":"levelo://app?vid=3945b849-6d84-4bce-9e3f-b728c519d443","ios":"levelo://app?vid=3945b849-6d84-4bce-9e3f-b728c519d443"},"vehicle_type_id":"4","last_reported":1744301540,"current_range_meters":7200,"station_id":"ce4bhbh2rcd13ifvqeo0","pricing_plan_id":"cebpf4jnsgd1na2vs0mg"},{"bike_id":"e0f54127-7d2c-4ae9-9dc0-77f4e1883c57","system_id":"levelo_inurba_marseille","lat":43.2942,"lon":5.38626,"is_reserved":false,"is_disabled":false,"rental_uris":{"android":"levelo://app?vid=e0f54127-7d2c-4ae9-9dc0-77f4e1883c57","ios":"levelo://app?vid=e0f54127-7d2c-4ae9-9dc0-77f4e1883c57"},"vehicle_type_id":"4","last_reported":1744301540,"current_range_meters":7200,"station_id":"ce4bh2h2rcd13ifvqdh0","pricing_plan_id":"cebpf4jnsgd1na2vs0mg"},{"bike_id":"18a2e260-b19b-4afc-baf3-481f9307c726","system_id":"levelo_inurba_marseille","lat":43.29526,"lon":5.39404,"is_reserved":false,"is_disabled":false,"rental_uris":{"android":"levelo://app?vid=18a2e260-b19b-4afc-baf3-481f9307c726","ios":"levelo://app?vid=18a2e260-b19b-4afc-baf3-481f9307c726"},"vehicle_type_id":"4","last_reported":1744301540,"current_range_meters":7200,"station_id":"ce4bh292rcd13ifvqdf0","pricing_plan_id":"cebpf4jnsgd1na2vs0mg"},{"bike_id":"3f7441a9-12af-45d3-9dd6-e3c2dd4f34a8","system_id":"levelo_inurba_marseille","lat":43.29116,"lon":5.37395,"is_reserved":false,"is_disabled":false,"rental_uris":{"android":"levelo://app?vid=3f7441a9-12af-45d3-9dd6-e3c2dd4f34a8","ios":"levelo://app?vid=3f7441a9-12af-45d3-9dd6-e3c2dd4f34a8"},"vehicle_type_id":"4","last_reported":1744301540,"current_range_meters":8000,"station_id":"","pricing_plan_id":"cebpf4jnsgd1na2vs0mg"},{"bike_id":"4ac909e4-67c4-4220-8632-9fc2a81d05f2","system_id":"levelo_inurba_marseille","lat":43.30934,"lon":5.40137,"is_reserved":false,"is_disabled":false,"rental_uris":{"android":"levelo://app?vid=4ac909e4-67c4-4220-8632-9fc2a81d05f2","ios":"levelo://app?vid=4ac909e4-67c4-4220-8632-9fc2a81d05f2"},"vehicle_type_id":"4","last_reported":1744301540,"current_range_meters":8000,"station_id":"ce4bgvp2rcd13ifvqct0","pricing_plan_id":"cebpf4jnsgd1na2vs0mg"},{"bike_id":"0b9096fd-da97-4969-94d4-a682bd65d7b6","system_id":"levelo_inurba_marseille","lat":43.29024,"lon":5.38137,"is_reserved":false,"is_disabled":false,"rental_uris":{"android":"levelo://app?vid=0b9096fd-da97-4969-94d4-a682bd65d7b6","ios":"levelo://app?vid=0b9096fd-da97-4969-94d4-a682bd65d7b6"},"vehicle_type_id":"4","last_reported":1744301540,"current_range_meters":7200,"station_id":"ce4bh4p2rcd13ifvqe1g","pricing_plan_id":"cebpf4jnsgd1na2vs0mg"},{"bike_id":"b7dcf25f-735f-4684-89ce-67892b37a2b5","system_id":"levelo_inurba_marseille","lat":43.27367,"lon":5.36252,"is_reserved":false,"is_disabled":false,"rental_uris":{"android":"levelo://app?vid=b7dcf25f-735f-4684-89ce-67892b37a2b5","ios":"levelo://app?vid=b7dcf25f-735f-4684-89ce-67892b37a2b5"},"vehicle_type_id":"4","last_reported":1744301540,"current_range_meters":8000,"station_id":"ce4bhbh2rcd13ifvqeo0","pricing_plan_id":"cebpf4jnsgd1na2vs0mg"},{"bike_id":"6846c503-f31e-4854-8925-fa3c5f1f845a","system_id":"levelo_inurba_marseille","lat":43.2407,"lon":5.37764,"is_reserved":false,"is_disabled":false,"rental_uris":{"android":"levelo://app?vid=6846c503-f31e-4854-8925-fa3c5f1f845a","ios":"levelo://app?vid=6846c503-f31e-4854-8925-fa3c5f1f845a"},"vehicle_type_id":"4","last_reported":1744301540,"current_range_meters":8000,"station_id":"ce4bhnp2rcd13ifvqgvg","pricing_plan_id":"cebpf4jnsgd1na2vs0mg"},{"bike_id":"86b097fb-e550-485e-8775-70a223d383cc","system_id":"levelo_inurba_marseille","lat":43.30216,"lon":5.39466,"is_reserved":false,"is_disabled":false,"rental_uris":{"android":"levelo://app?vid=86b097fb-e550-485e-8775-70a223d383cc","ios":"levelo://app?vid=86b097fb-e550-485e-8775-70a223d383cc"},"vehicle_type_id":"4","last_reported":1744301540,"current_range_meters":8000,"station_id":"ce4bh0p2rcd13ifvqd70","pricing_plan_id":"cebpf4jnsgd1na2vs0mg"},{"bike_id":"6a7d874e-2ae6-4c0f-8abb-ed1b4ad58194","system_id":"levelo_inurba_marseille","lat":43.28961,"lon":5.36685,"is_reserved":false,"is_disabled":false,"rental_uris":{"android":"levelo://app?vid=6a7d874e-2ae6-4c0f-8abb-ed1b4ad58194","ios":"levelo://app?vid=6a7d874e-2ae6-4c0f-8abb-ed1b4ad58194"},"vehicle_type_id":"4","last_reported":1744301540,"current_range_meters":8400,"station_id":"","pricing_plan_id":"cebpf4jnsgd1na2vs0mg"},{"bike_id":"01e31f15-bc9b-4d18-bebd-edf19bcedef2","system_id":"levelo_inurba_marseille","lat":43.28733,"lon":5.37977,"is_reserved":false,"is_disabled":true,"rental_uris":{"android":"levelo://app?vid=01e31f15-bc9b-4d18-bebd-edf19bcedef2","ios":"levelo://app?vid=01e31f15-bc9b-4d18-bebd-edf19bcedef2"},"vehicle_type_id":"4","last_reported":1744301540,"current_range_meters":8400,"station_id":"ce4bh9p2rcd13ifvqec0","pricing_plan_id":"cebpf4jnsgd1na2vs0mg"},{"bike_id":"5f30a5a4-de9f-499e-b151-b811ebb3b43a","system_id":"levelo_inurba_marseille","lat":43.31085,"lon":5.38366,"is_reserved":false,"is_disabled":true,"rental_uris":{"android":"levelo://app?vid=5f30a5a4-de9f-499e-b151-b811ebb3b43a","ios":"levelo://app?vid=5f30a5a4-de9f-499e-b151-b811ebb3b43a"},"vehicle_type_id":"4","last_reported":1744301540,"current_range_meters":8400,"station_id":"ce4bgv92rcd13ifvqcr0","pricing_plan_id":"cebpf4jnsgd1na2vs0mg"},{"bike_id":"422c0315-5002-4fc1-9bde-5f6acb11bc81","system_id":"levelo_inurba_marseille","lat":43.28859,"lon":5.35852,"is_reserved":false,"is_disabled":false,"rental_uris":{"android":"levelo://app?vid=422c0315-5002-4fc1-9bde-5f6acb11bc81","ios":"levelo://app?vid=422c0315-5002-4fc1-9bde-5f6acb11bc81"},"vehicle_type_id":"4","last_reported":1744301540,"current_range_meters":8400,"station_id":"ce4bhb12rcd13ifvqem0","pricing_plan_id":"cebpf4jnsgd1na2vs0mg"},{"bike_id":"f8b66c3e-f5f0-4c85-9702-5896cc2ec3b7","system_id":"levelo_inurba_marseille","lat":43.26194,"lon":5.37448,"is_reserved":false,"is_disabled":false,"rental_uris":{"android":"levelo://app?vid=f8b66c3e-f5f0-4c85-9702-5896cc2ec3b7","ios":"levelo://app?vid=f8b66c3e-f5f0-4c85-9702-5896cc2ec3b7"},"vehicle_type_id":"4","last_reported":1744301540,"current_range_meters":8400,"station_id":"ce4bhgp2rcd13ifvqfc0","pricing_plan_id":"cebpf4jnsgd1na2vs0mg"},{"bike_id":"4a11f9f6-66be-4d3a-a85f-a75268bd5816","system_id":"levelo_inurba_marseille","lat":43.28379,"lon":5.38615,"is_reserved":false,"is_disabled":false,"rental_uris":{"android":"levelo://app?vid=4a11f9f6-66be-4d3a-a85f-a75268bd5816","ios":"levelo://app?vid=4a11f9f6-66be-4d3a-a85f-a75268bd5816"},"vehicle_type_id":"4","last_reported":1744301540,"current_range_meters":8800,"station_id":"ce4bh492rcd13ifvqdvg","pricing_plan_id":"cebpf4jnsgd1na2vs0mg"},{"bike_id":"7768aff2-24c3-4f7c-aab7-81a0b6eeb740","system_id":"levelo_inurba_marseille","lat":43.22521,"lon":5.34804,"is_reserved":false,"is_disabled":false,"rental_uris":{"android":"levelo://app?vid=7768aff2-24c3-4f7c-aab7-81a0b6eeb740","ios":"levelo://app?vid=7768aff2-24c3-4f7c-aab7-81a0b6eeb740"},"vehicle_type_id":"4","last_reported":1744301540,"current_range_meters":8800,"station_id":"st_cvj5dfep6f1abm77gieg","pricing_plan_id":"cebpf4jnsgd1na2vs0mg"},{"bike_id":"5fc27393-5739-4e1d-9760-ea105741401a","system_id":"levelo_inurba_marseille","lat":43.292749,"lon":5.368461,"is_reserved":false,"is_disabled":false,"rental_uris":{"android":"levelo://app?vid=5fc27393-5739-4e1d-9760-ea105741401a","ios":"levelo://app?vid=5fc27393-5739-4e1d-9760-ea105741401a"},"vehicle_type_id":"4","last_reported":1744301540,"current_range_meters":8800,"station_id":"ce4bhhh2rcd13ifvqfk0","pricing_plan_id":"cebpf4jnsgd1na2vs0mg"},{"bike_id":"6c7d5e54-00d1-4e7a-9fc2-c1cc00435bdb","system_id":"levelo_inurba_marseille","lat":43.29566,"lon":5.37521,"is_reserved":false,"is_disabled":false,"rental_uris":{"android":"levelo://app?vid=6c7d5e54-00d1-4e7a-9fc2-c1cc00435bdb","ios":"levelo://app?vid=6c7d5e54-00d1-4e7a-9fc2-c1cc00435bdb"},"vehicle_type_id":"4","last_reported":1744301540,"current_range_meters":8800,"station_id":"ce4bgh92rcd13ifvqb50","pricing_plan_id":"cebpf4jnsgd1na2vs0mg"},{"bike_id":"3b11e471-e31a-4fc0-bf49-56302b6d4017","system_id":"levelo_inurba_marseille","lat":43.2511,"lon":5.40321,"is_reserved":false,"is_disabled":false,"rental_uris":{"android":"levelo://app?vid=3b11e471-e31a-4fc0-bf49-56302b6d4017","ios":"levelo://app?vid=3b11e471-e31a-4fc0-bf49-56302b6d4017"},"vehicle_type_id":"4","last_reported":1744301540,"current_range_meters":8800,"station_id":"ce4bhlh2rcd13ifvqgig","pricing_plan_id":"cebpf4jnsgd1na2vs0mg"},{"bike_id":"767c070c-0576-43fe-a5e5-a303ef114529","system_id":"levelo_inurba_marseille","lat":43.29537,"lon":5.38553,"is_reserved":false,"is_disabled":false,"rental_uris":{"android":"levelo://app?vid=767c070c-0576-43fe-a5e5-a303ef114529","ios":"levelo://app?vid=767c070c-0576-43fe-a5e5-a303ef114529"},"vehicle_type_id":"4","last_reported":1744301540,"current_range_meters":8800,"station_id":"ce4bgih2rcd13ifvqba0","pricing_plan_id":"cebpf4jnsgd1na2vs0mg"},{"bike_id":"26d22334-eeb8-4ada-a9a5-6b8fcd9bf3fb","system_id":"levelo_inurba_marseille","lat":43.29422,"lon":5.38622,"is_reserved":false,"is_disabled":false,"rental_uris":{"android":"levelo://app?vid=26d22334-eeb8-4ada-a9a5-6b8fcd9bf3fb","ios":"levelo://app?vid=26d22334-eeb8-4ada-a9a5-6b8fcd9bf3fb"},"vehicle_type_id":"4","last_reported":1744301540,"current_range_meters":8800,"station_id":"ce4bh2h2rcd13ifvqdh0","pricing_plan_id":"cebpf4jnsgd1na2vs0mg"},{"bike_id":"8c0eb012-a181-485f-9d2f-13ec7fc58e90","system_id":"levelo_inurba_marseille","lat":43.27379,"lon":5.3627,"is_reserved":false,"is_disabled":false,"rental_uris":{"android":"levelo://app?vid=8c0eb012-a181-485f-9d2f-13ec7fc58e90","ios":"levelo://app?vid=8c0eb012-a181-485f-9d2f-13ec7fc58e90"},"vehicle_type_id":"4","last_reported":1744301540,"current_range_meters":8800,"station_id":"ce4bhbh2rcd13ifvqeo0","pricing_plan_id":"cebpf4jnsgd1na2vs0mg"},{"bike_id":"c243072f-6bd2-4d94-ba83-04162cf2a05c","system_id":"levelo_inurba_marseille","lat":43.271838,"lon":5.401446,"is_reserved":false,"is_disabled":false,"rental_uris":{"android":"levelo://app?vid=c243072f-6bd2-4d94-ba83-04162cf2a05c","ios":"levelo://app?vid=c243072f-6bd2-4d94-ba83-04162cf2a05c"},"vehicle_type_id":"4","last_reported":1744301540,"current_range_meters":8800,"station_id":"","pricing_plan_id":"cebpf4jnsgd1na2vs0mg"},{"bike_id":"dc1d1f51-a4b3-4074-bd95-aa6a7c0311ef","system_id":"levelo_inurba_marseille","lat":43.32044,"lon":5.41544,"is_reserved":false,"is_disabled":false,"rental_uris":{"android":"levelo://app?vid=dc1d1f51-a4b3-4074-bd95-aa6a7c0311ef","ios":"levelo://app?vid=dc1d1f51-a4b3-4074-bd95-aa6a7c0311ef"},"vehicle_type_id":"4","last_reported":1744301540,"current_range_meters":8800,"station_id":"ce4bhq92rcd13ifvqhkg","pricing_plan_id":"cebpf4jnsgd1na2vs0mg"},{"bike_id":"eb316935-c36e-4ea4-8a6e-7f5fb6df0d76","system_id":"levelo_inurba_marseille","lat":43.28734,"lon":5.37947,"is_reserved":false,"is_disabled":false,"rental_uris":{"android":"levelo://app?vid=eb316935-c36e-4ea4-8a6e-7f5fb6df0d76","ios":"levelo://app?vid=eb316935-c36e-4ea4-8a6e-7f5fb6df0d76"},"vehicle_type_id":"4","last_reported":1744301540,"current_range_meters":9200,"station_id":"ce4bh9p2rcd13ifvqec0","pricing_plan_id":"cebpf4jnsgd1na2vs0mg"},{"bike_id":"8166bcaf-283b-4982-b916-72f05853ce4c","system_id":"levelo_inurba_marseille","lat":43.24076,"lon":5.3776,"is_reserved":false,"is_disabled":false,"rental_uris":{"android":"levelo://app?vid=8166bcaf-283b-4982-b916-72f05853ce4c","ios":"levelo://app?vid=8166bcaf-283b-4982-b916-72f05853ce4c"},"vehicle_type_id":"4","last_reported":1744301540,"current_range_meters":8800,"station_id":"ce4bhnp2rcd13ifvqgvg","pricing_plan_id":"cebpf4jnsgd1na2vs0mg"},{"bike_id":"0a09c61c-a667-4936-a631-e22ea2d4c809","system_id":"levelo_inurba_marseille","lat":43.26483,"lon":5.39553,"is_reserved":false,"is_disabled":false,"rental_uris":{"android":"levelo://app?vid=0a09c61c-a667-4936-a631-e22ea2d4c809","ios":"levelo://app?vid=0a09c61c-a667-4936-a631-e22ea2d4c809"},"vehicle_type_id":"4","last_reported":1744301540,"current_range_meters":9200,"station_id":"ce4bhi12rcd13ifvqfq0","pricing_plan_id":"cebpf4jnsgd1na2vs0mg"},{"bike_id":"990e9060-73e1-4262-bd0a-00a336aabeef","system_id":"levelo_inurba_marseille","lat":43.28414,"lon":5.34997,"is_reserved":false,"is_disabled":false,"rental_uris":{"android":"levelo://app?vid=990e9060-73e1-4262-bd0a-00a336aabeef","ios":"levelo://app?vid=990e9060-73e1-4262-bd0a-00a336aabeef"},"vehicle_type_id":"4","last_reported":1744301540,"current_range_meters":9200,"station_id":"ce4bhbh2rcd13ifvqepg","pricing_plan_id":"cebpf4jnsgd1na2vs0mg"},{"bike_id":"f937e947-44e0-43e3-96e0-3cc376e71e34","system_id":"levelo_inurba_marseille","lat":43.29195,"lon":5.39325,"is_reserved":false,"is_disabled":false,"rental_uris":{"android":"levelo://app?vid=f937e947-44e0-43e3-96e0-3cc376e71e34","ios":"levelo://app?vid=f937e947-44e0-43e3-96e0-3cc376e71e34"},"vehicle_type_id":"4","last_reported":1744301540,"current_range_meters":8800,"station_id":"ce4bh192rcd13ifvqdd0","pricing_plan_id":"cebpf4jnsgd1na2vs0mg"},{"bike_id":"d8b72099-6f77-4855-ab52-14d20ba3241b","system_id":"levelo_inurba_marseille","lat":43.28618,"lon":5.35143,"is_reserved":false,"is_disabled":false,"rental_uris":{"android":"levelo://app?vid=d8b72099-6f77-4855-ab52-14d20ba3241b","ios":"levelo://app?vid=d8b72099-6f77-4855-ab52-14d20ba3241b"},"vehicle_type_id":"4","last_reported":1744301540,"current_range_meters":9200,"station_id":"ce4bhch2rcd13ifvqeug","pricing_plan_id":"cebpf4jnsgd1na2vs0mg"},{"bike_id":"8720a9b2-2132-4f49-946b-3800277c45b7","system_id":"levelo_inurba_marseille","lat":43.28618,"lon":5.35107,"is_reserved":false,"is_disabled":false,"rental_uris":{"android":"levelo://app?vid=8720a9b2-2132-4f49-946b-3800277c45b7","ios":"levelo://app?vid=8720a9b2-2132-4f49-946b-3800277c45b7"},"vehicle_type_id":"4","last_reported":1744301540,"current_range_meters":9200,"station_id":"ce4bhch2rcd13ifvqeug","pricing_plan_id":"cebpf4jnsgd1na2vs0mg"},{"bike_id":"d857623b-dcb0-4162-b803-6f5a7f8da6e1","system_id":"levelo_inurba_marseille","lat":43.2549,"lon":5.37656,"is_reserved":false,"is_disabled":false,"rental_uris":{"android":"levelo://app?vid=d857623b-dcb0-4162-b803-6f5a7f8da6e1","ios":"levelo://app?vid=d857623b-dcb0-4162-b803-6f5a7f8da6e1"},"vehicle_type_id":"4","last_reported":1744301540,"current_range_meters":9600,"station_id":"ce4bhh12rcd13ifvqff0","pricing_plan_id":"cebpf4jnsgd1na2vs0mg"},{"bike_id":"245ce5fe-7351-4dcf-baad-550d47ea2d8a","system_id":"levelo_inurba_marseille","lat":43.217613,"lon":5.34606,"is_reserved":false,"is_disabled":false,"rental_uris":{"android":"levelo://app?vid=245ce5fe-7351-4dcf-baad-550d47ea2d8a","ios":"levelo://app?vid=245ce5fe-7351-4dcf-baad-550d47ea2d8a"},"vehicle_type_id":"4","last_reported":1744301540,"current_range_meters":9600,"station_id":"","pricing_plan_id":"cebpf4jnsgd1na2vs0mg"},{"bike_id":"e6b27e51-7a6f-4c87-9cdb-e0dbaf392783","system_id":"levelo_inurba_marseille","lat":43.30976,"lon":5.39697,"is_reserved":false,"is_disabled":false,"rental_uris":{"android":"levelo://app?vid=e6b27e51-7a6f-4c87-9cdb-e0dbaf392783","ios":"levelo://app?vid=e6b27e51-7a6f-4c87-9cdb-e0dbaf392783"},"vehicle_type_id":"4","last_reported":1744301540,"current_range_meters":9600,"station_id":"","pricing_plan_id":"cebpf4jnsgd1na2vs0mg"},{"bike_id":"87602d75-397b-4118-9c85-2a9cc71e44a2","system_id":"levelo_inurba_marseille","lat":43.28413,"lon":5.34975,"is_reserved":false,"is_disabled":false,"rental_uris":{"android":"levelo://app?vid=87602d75-397b-4118-9c85-2a9cc71e44a2","ios":"levelo://app?vid=87602d75-397b-4118-9c85-2a9cc71e44a2"},"vehicle_type_id":"4","last_reported":1744301540,"current_range_meters":9600,"station_id":"ce4bhbh2rcd13ifvqepg","pricing_plan_id":"cebpf4jnsgd1na2vs0mg"},{"bike_id":"56e391c7-099b-40ac-a2d1-71fc0116dca8","system_id":"levelo_inurba_marseille","lat":43.29419,"lon":5.38621,"is_reserved":false,"is_disabled":false,"rental_uris":{"android":"levelo://app?vid=56e391c7-099b-40ac-a2d1-71fc0116dca8","ios":"levelo://app?vid=56e391c7-099b-40ac-a2d1-71fc0116dca8"},"vehicle_type_id":"4","last_reported":1744301540,"current_range_meters":9600,"station_id":"ce4bh2h2rcd13ifvqdh0","pricing_plan_id":"cebpf4jnsgd1na2vs0mg"},{"bike_id":"c66e0227-8dab-43f7-959d-ad39878fa71f","system_id":"levelo_inurba_marseille","lat":43.230587,"lon":5.354907,"is_reserved":false,"is_disabled":false,"rental_uris":{"android":"levelo://app?vid=c66e0227-8dab-43f7-959d-ad39878fa71f","ios":"levelo://app?vid=c66e0227-8dab-43f7-959d-ad39878fa71f"},"vehicle_type_id":"4","last_reported":1744301540,"current_range_meters":10000,"station_id":"cpo3342slgdg3j2ifvpg","pricing_plan_id":"cebpf4jnsgd1na2vs0mg"},{"bike_id":"a08fdf65-f7c3-4eb9-83c1-6d1abed3497e","system_id":"levelo_inurba_marseille","lat":43.286966,"lon":5.39983,"is_reserved":false,"is_disabled":true,"rental_uris":{"android":"levelo://app?vid=a08fdf65-f7c3-4eb9-83c1-6d1abed3497e","ios":"levelo://app?vid=a08fdf65-f7c3-4eb9-83c1-6d1abed3497e"},"vehicle_type_id":"4","last_reported":1744301540,"current_range_meters":10000,"station_id":"ce4bho92rcd13ifvqh3g","pricing_plan_id":"cebpf4jnsgd1na2vs0mg"},{"bike_id":"bff67837-c676-4b88-9fdc-8db7fe587121","system_id":"levelo_inurba_marseille","lat":43.30235,"lon":5.40051,"is_reserved":false,"is_disabled":true,"rental_uris":{"android":"levelo://app?vid=bff67837-c676-4b88-9fdc-8db7fe587121","ios":"levelo://app?vid=bff67837-c676-4b88-9fdc-8db7fe587121"},"vehicle_type_id":"4","last_reported":1744301540,"current_range_meters":10000,"station_id":"ce4bgvh2rcd13ifvqcs0","pricing_plan_id":"cebpf4jnsgd1na2vs0mg"},{"bike_id":"6db24551-0630-44c7-918f-428a46518bf6","system_id":"levelo_inurba_marseille","lat":43.28855,"lon":5.35849,"is_reserved":false,"is_disabled":false,"rental_uris":{"android":"levelo://app?vid=6db24551-0630-44c7-918f-428a46518bf6","ios":"levelo://app?vid=6db24551-0630-44c7-918f-428a46518bf6"},"vehicle_type_id":"4","last_reported":1744301540,"current_range_meters":9600,"station_id":"ce4bhb12rcd13ifvqem0","pricing_plan_id":"cebpf4jnsgd1na2vs0mg"},{"bike_id":"3bbab229-dfac-4668-b450-c0267aedba80","system_id":"levelo_inurba_marseille","lat":43.29631,"lon":5.40588,"is_reserved":false,"is_disabled":false,"rental_uris":{"android":"levelo://app?vid=3bbab229-dfac-4668-b450-c0267aedba80","ios":"levelo://app?vid=3bbab229-dfac-4668-b450-c0267aedba80"},"vehicle_type_id":"4","last_reported":1744301540,"current_range_meters":10800,"station_id":"ce4bh0h2rcd13ifvqd60","pricing_plan_id":"cebpf4jnsgd1na2vs0mg"},{"bike_id":"fab67251-e52e-449c-8727-c29155faddab","system_id":"levelo_inurba_marseille","lat":43.23183,"lon":5.39987,"is_reserved":false,"is_disabled":false,"rental_uris":{"android":"levelo://app?vid=fab67251-e52e-449c-8727-c29155faddab","ios":"levelo://app?vid=fab67251-e52e-449c-8727-c29155faddab"},"vehicle_type_id":"4","last_reported":1744301540,"current_range_meters":10800,"station_id":"ce4bhn12rcd13ifvqgqg","pricing_plan_id":"cebpf4jnsgd1na2vs0mg"},{"bike_id":"c7922c9e-df40-4d6f-92a1-640cc6bd2ff7","system_id":"levelo_inurba_marseille","lat":43.24168,"lon":5.36375,"is_reserved":false,"is_disabled":false,"rental_uris":{"android":"levelo://app?vid=c7922c9e-df40-4d6f-92a1-640cc6bd2ff7","ios":"levelo://app?vid=c7922c9e-df40-4d6f-92a1-640cc6bd2ff7"},"vehicle_type_id":"4","last_reported":1744301540,"current_range_meters":10800,"station_id":"cpo36qri1sfpv3e86is0","pricing_plan_id":"cebpf4jnsgd1na2vs0mg"},{"bike_id":"34a2f5d8-ec72-44cb-adc7-644db274612f","system_id":"levelo_inurba_marseille","lat":43.27389,"lon":5.36258,"is_reserved":false,"is_disabled":false,"rental_uris":{"android":"levelo://app?vid=34a2f5d8-ec72-44cb-adc7-644db274612f","ios":"levelo://app?vid=34a2f5d8-ec72-44cb-adc7-644db274612f"},"vehicle_type_id":"4","last_reported":1744301540,"current_range_meters":10800,"station_id":"ce4bhbh2rcd13ifvqeo0","pricing_plan_id":"cebpf4jnsgd1na2vs0mg"},{"bike_id":"fd750a98-50b8-4407-add6-bf9d280d2fb3","system_id":"levelo_inurba_marseille","lat":43.29547,"lon":5.39414,"is_reserved":false,"is_disabled":false,"rental_uris":{"android":"levelo://app?vid=fd750a98-50b8-4407-add6-bf9d280d2fb3","ios":"levelo://app?vid=fd750a98-50b8-4407-add6-bf9d280d2fb3"},"vehicle_type_id":"4","last_reported":1744301540,"current_range_meters":10800,"station_id":"ce4bh292rcd13ifvqdf0","pricing_plan_id":"cebpf4jnsgd1na2vs0mg"},{"bike_id":"b5fe3bea-1b02-455f-b65b-0c6d3071ab9e","system_id":"levelo_inurba_marseille","lat":43.24996,"lon":5.38927,"is_reserved":false,"is_disabled":false,"rental_uris":{"android":"levelo://app?vid=b5fe3bea-1b02-455f-b65b-0c6d3071ab9e","ios":"levelo://app?vid=b5fe3bea-1b02-455f-b65b-0c6d3071ab9e"},"vehicle_type_id":"4","last_reported":1744301540,"current_range_meters":10800,"station_id":"ce4bhgp2rcd13ifvqfd0","pricing_plan_id":"cebpf4jnsgd1na2vs0mg"},{"bike_id":"526c7c1b-546b-4b39-bb32-dbc27c5d4a9e","system_id":"levelo_inurba_marseille","lat":43.28611,"lon":5.35102,"is_reserved":false,"is_disabled":false,"rental_uris":{"android":"levelo://app?vid=526c7c1b-546b-4b39-bb32-dbc27c5d4a9e","ios":"levelo://app?vid=526c7c1b-546b-4b39-bb32-dbc27c5d4a9e"},"vehicle_type_id":"4","last_reported":1744301540,"current_range_meters":11200,"station_id":"ce4bhch2rcd13ifvqeug","pricing_plan_id":"cebpf4jnsgd1na2vs0mg"},{"bike_id":"9ce80678-2ca4-4baa-a7d2-19d4fc944020","system_id":"levelo_inurba_marseille","lat":43.24166,"lon":5.36389,"is_reserved":false,"is_disabled":false,"rental_uris":{"android":"levelo://app?vid=9ce80678-2ca4-4baa-a7d2-19d4fc944020","ios":"levelo://app?vid=9ce80678-2ca4-4baa-a7d2-19d4fc944020"},"vehicle_type_id":"4","last_reported":1744301540,"current_range_meters":11200,"station_id":"cpo36qri1sfpv3e86is0","pricing_plan_id":"cebpf4jnsgd1na2vs0mg"},{"bike_id":"87bee66d-0393-4194-a2fc-76a18ebc7c28","system_id":"levelo_inurba_marseille","lat":43.26032,"lon":5.37545,"is_reserved":false,"is_disabled":false,"rental_uris":{"android":"levelo://app?vid=87bee66d-0393-4194-a2fc-76a18ebc7c28","ios":"levelo://app?vid=87bee66d-0393-4194-a2fc-76a18ebc7c28"},"vehicle_type_id":"4","last_reported":1744301540,"current_range_meters":10800,"station_id":"ce4bhgh2rcd13ifvqfa0","pricing_plan_id":"cebpf4jnsgd1na2vs0mg"},{"bike_id":"a1fdd794-2cd0-4fb6-96b3-8dafaa593e65","system_id":"levelo_inurba_marseille","lat":43.22501,"lon":5.34797,"is_reserved":false,"is_disabled":true,"rental_uris":{"android":"levelo://app?vid=a1fdd794-2cd0-4fb6-96b3-8dafaa593e65","ios":"levelo://app?vid=a1fdd794-2cd0-4fb6-96b3-8dafaa593e65"},"vehicle_type_id":"4","last_reported":1744301540,"current_range_meters":12400,"station_id":"st_cvj5dfep6f1abm77gieg","pricing_plan_id":"cebpf4jnsgd1na2vs0mg"},{"bike_id":"283a4619-e99c-4331-bef2-69647975e256","system_id":"levelo_inurba_marseille","lat":43.23187,"lon":5.39982,"is_reserved":false,"is_disabled":false,"rental_uris":{"android":"levelo://app?vid=283a4619-e99c-4331-bef2-69647975e256","ios":"levelo://app?vid=283a4619-e99c-4331-bef2-69647975e256"},"vehicle_type_id":"4","last_reported":1744301540,"current_range_meters":11600,"station_id":"ce4bhn12rcd13ifvqgqg","pricing_plan_id":"cebpf4jnsgd1na2vs0mg"},{"bike_id":"65f52e07-c7c1-4b0b-a98a-2cb0cb6e9ef2","system_id":"levelo_inurba_marseille","lat":43.24082,"lon":5.37748,"is_reserved":false,"is_disabled":false,"rental_uris":{"android":"levelo://app?vid=65f52e07-c7c1-4b0b-a98a-2cb0cb6e9ef2","ios":"levelo://app?vid=65f52e07-c7c1-4b0b-a98a-2cb0cb6e9ef2"},"vehicle_type_id":"4","last_reported":1744301540,"current_range_meters":11600,"station_id":"ce4bhnp2rcd13ifvqgvg","pricing_plan_id":"cebpf4jnsgd1na2vs0mg"},{"bike_id":"3e58da7c-0b93-42d0-948d-03024e6020c2","system_id":"levelo_inurba_marseille","lat":43.29263,"lon":5.38463,"is_reserved":false,"is_disabled":false,"rental_uris":{"android":"levelo://app?vid=3e58da7c-0b93-42d0-948d-03024e6020c2","ios":"levelo://app?vid=3e58da7c-0b93-42d0-948d-03024e6020c2"},"vehicle_type_id":"4","last_reported":1744301540,"current_range_meters":12000,"station_id":"ce4bh692rcd13ifvqea0","pricing_plan_id":"cebpf4jnsgd1na2vs0mg"},{"bike_id":"504c2fab-99d3-4c82-a41a-44309011827f","system_id":"levelo_inurba_marseille","lat":43.29585,"lon":5.36736,"is_reserved":false,"is_disabled":false,"rental_uris":{"android":"levelo://app?vid=504c2fab-99d3-4c82-a41a-44309011827f","ios":"levelo://app?vid=504c2fab-99d3-4c82-a41a-44309011827f"},"vehicle_type_id":"4","last_reported":1744301540,"current_range_meters":12000,"station_id":"ce4bgph2rcd13ifvqc2g","pricing_plan_id":"cebpf4jnsgd1na2vs0mg"},{"bike_id":"d230c627-64c0-46c4-a600-7d68b33ee702","system_id":"levelo_inurba_marseille","lat":43.27065,"lon":5.4228,"is_reserved":false,"is_disabled":false,"rental_uris":{"android":"levelo://app?vid=d230c627-64c0-46c4-a600-7d68b33ee702","ios":"levelo://app?vid=d230c627-64c0-46c4-a600-7d68b33ee702"},"vehicle_type_id":"4","last_reported":1744301540,"current_range_meters":12000,"station_id":"ce4bhk92rcd13ifvqgb0","pricing_plan_id":"cebpf4jnsgd1na2vs0mg"},{"bike_id":"7963b9f7-0d91-4bfa-bfd3-c26d7ce1ae5d","system_id":"levelo_inurba_marseille","lat":43.30646,"lon":5.40069,"is_reserved":false,"is_disabled":false,"rental_uris":{"android":"levelo://app?vid=7963b9f7-0d91-4bfa-bfd3-c26d7ce1ae5d","ios":"levelo://app?vid=7963b9f7-0d91-4bfa-bfd3-c26d7ce1ae5d"},"vehicle_type_id":"4","last_reported":1744301540,"current_range_meters":12000,"station_id":"ce4bh112rcd13ifvqda0","pricing_plan_id":"cebpf4jnsgd1na2vs0mg"},{"bike_id":"cac4ef63-0f1e-4b47-b13a-159320e320c3","system_id":"levelo_inurba_marseille","lat":43.30778,"lon":5.37649,"is_reserved":false,"is_disabled":false,"rental_uris":{"android":"levelo://app?vid=cac4ef63-0f1e-4b47-b13a-159320e320c3","ios":"levelo://app?vid=cac4ef63-0f1e-4b47-b13a-159320e320c3"},"vehicle_type_id":"4","last_reported":1744301540,"current_range_meters":12000,"station_id":"ce4bgv92rcd13ifvqcq0","pricing_plan_id":"cebpf4jnsgd1na2vs0mg"},{"bike_id":"58a06d5c-23f8-466b-a88d-449307d0c901","system_id":"levelo_inurba_marseille","lat":43.314982,"lon":5.368632,"is_reserved":false,"is_disabled":false,"rental_uris":{"android":"levelo://app?vid=58a06d5c-23f8-466b-a88d-449307d0c901","ios":"levelo://app?vid=58a06d5c-23f8-466b-a88d-449307d0c901"},"vehicle_type_id":"4","last_reported":1744301540,"current_range_meters":12000,"station_id":"","pricing_plan_id":"cebpf4jnsgd1na2vs0mg"},{"bike_id":"f8be9081-c514-460d-9be3-4d086fbd951f","system_id":"levelo_inurba_marseille","lat":43.28614,"lon":5.35099,"is_reserved":false,"is_disabled":false,"rental_uris":{"android":"levelo://app?vid=f8be9081-c514-460d-9be3-4d086fbd951f","ios":"levelo://app?vid=f8be9081-c514-460d-9be3-4d086fbd951f"},"vehicle_type_id":"4","last_reported":1744301540,"current_range_meters":12400,"station_id":"ce4bhch2rcd13ifvqeug","pricing_plan_id":"cebpf4jnsgd1na2vs0mg"},{"bike_id":"7a9b5539-9721-4a4e-b824-aad30fb05d8c","system_id":"levelo_inurba_marseille","lat":43.27072,"lon":5.4227,"is_reserved":false,"is_disabled":false,"rental_uris":{"android":"levelo://app?vid=7a9b5539-9721-4a4e-b824-aad30fb05d8c","ios":"levelo://app?vid=7a9b5539-9721-4a4e-b824-aad30fb05d8c"},"vehicle_type_id":"4","last_reported":1744301540,"current_range_meters":12400,"station_id":"ce4bhk92rcd13ifvqgb0","pricing_plan_id":"cebpf4jnsgd1na2vs0mg"},{"bike_id":"3f06c361-a68b-4a1c-bf9d-1ac886160f29","system_id":"levelo_inurba_marseille","lat":43.29229,"lon":5.36075,"is_reserved":false,"is_disabled":false,"rental_uris":{"android":"levelo://app?vid=3f06c361-a68b-4a1c-bf9d-1ac886160f29","ios":"levelo://app?vid=3f06c361-a68b-4a1c-bf9d-1ac886160f29"},"vehicle_type_id":"4","last_reported":1744301540,"current_range_meters":12400,"station_id":"ce4bhbh2rcd13ifvqeqg","pricing_plan_id":"cebpf4jnsgd1na2vs0mg"},{"bike_id":"cd4448b8-2a70-43a5-b4bb-c668355648d6","system_id":"levelo_inurba_marseille","lat":43.27908,"lon":5.37994,"is_reserved":false,"is_disabled":false,"rental_uris":{"android":"levelo://app?vid=cd4448b8-2a70-43a5-b4bb-c668355648d6","ios":"levelo://app?vid=cd4448b8-2a70-43a5-b4bb-c668355648d6"},"vehicle_type_id":"4","last_reported":1744301540,"current_range_meters":12800,"station_id":"ce4bhf92rcd13ifvqf50","pricing_plan_id":"cebpf4jnsgd1na2vs0mg"},{"bike_id":"b5fed91b-ee4b-43e5-b6ec-6656fcf5713e","system_id":"levelo_inurba_marseille","lat":43.295166,"lon":5.394043,"is_reserved":false,"is_disabled":false,"rental_uris":{"android":"levelo://app?vid=b5fed91b-ee4b-43e5-b6ec-6656fcf5713e","ios":"levelo://app?vid=b5fed91b-ee4b-43e5-b6ec-6656fcf5713e"},"vehicle_type_id":"4","last_reported":1744301540,"current_range_meters":12800,"station_id":"ce4bh292rcd13ifvqdf0","pricing_plan_id":"cebpf4jnsgd1na2vs0mg"},{"bike_id":"24061725-51cd-45d7-89b7-ab06be483b30","system_id":"levelo_inurba_marseille","lat":43.295141,"lon":5.390408,"is_reserved":false,"is_disabled":false,"rental_uris":{"android":"levelo://app?vid=24061725-51cd-45d7-89b7-ab06be483b30","ios":"levelo://app?vid=24061725-51cd-45d7-89b7-ab06be483b30"},"vehicle_type_id":"4","last_reported":1744301540,"current_range_meters":12800,"station_id":"ce4bh3p2rcd13ifvqdp0","pricing_plan_id":"cebpf4jnsgd1na2vs0mg"},{"bike_id":"47753f4b-6d26-421c-9673-9afca40ad2d1","system_id":"levelo_inurba_marseille","lat":43.27997,"lon":5.40025,"is_reserved":false,"is_disabled":false,"rental_uris":{"android":"levelo://app?vid=47753f4b-6d26-421c-9673-9afca40ad2d1","ios":"levelo://app?vid=47753f4b-6d26-421c-9673-9afca40ad2d1"},"vehicle_type_id":"4","last_reported":1744301540,"current_range_meters":12400,"station_id":"ce4bho92rcd13ifvqh4g","pricing_plan_id":"cebpf4jnsgd1na2vs0mg"},{"bike_id":"39af071c-9d87-48f6-84ce-9da0a4a6adce","system_id":"levelo_inurba_marseille","lat":43.27916,"lon":5.39578,"is_reserved":false,"is_disabled":false,"rental_uris":{"android":"levelo://app?vid=39af071c-9d87-48f6-84ce-9da0a4a6adce","ios":"levelo://app?vid=39af071c-9d87-48f6-84ce-9da0a4a6adce"},"vehicle_type_id":"4","last_reported":1744301540,"current_range_meters":12800,"station_id":"ce4bhf92rcd13ifvqf40","pricing_plan_id":"cebpf4jnsgd1na2vs0mg"},{"bike_id":"0a949417-0018-412e-956b-3a379db12c2a","system_id":"levelo_inurba_marseille","lat":43.247819,"lon":5.37399,"is_reserved":false,"is_disabled":false,"rental_uris":{"android":"levelo://app?vid=0a949417-0018-412e-956b-3a379db12c2a","ios":"levelo://app?vid=0a949417-0018-412e-956b-3a379db12c2a"},"vehicle_type_id":"4","last_reported":1744301540,"current_range_meters":14800,"station_id":"ce4bhi12rcd13ifvqfp0","pricing_plan_id":"cebpf4jnsgd1na2vs0mg"},{"bike_id":"e3c3a051-8134-4ed3-913b-374aa217874c","system_id":"levelo_inurba_marseille","lat":43.256115,"lon":5.405147,"is_reserved":false,"is_disabled":false,"rental_uris":{"android":"levelo://app?vid=e3c3a051-8134-4ed3-913b-374aa217874c","ios":"levelo://app?vid=e3c3a051-8134-4ed3-913b-374aa217874c"},"vehicle_type_id":"4","last_reported":1744301540,"current_range_meters":13600,"station_id":"","pricing_plan_id":"cebpf4jnsgd1na2vs0mg"},{"bike_id":"f43f02fc-73bc-4c91-9fea-f796de6eb2b9","system_id":"levelo_inurba_marseille","lat":43.296854,"lon":5.372886,"is_reserved":false,"is_disabled":false,"rental_uris":{"android":"levelo://app?vid=f43f02fc-73bc-4c91-9fea-f796de6eb2b9","ios":"levelo://app?vid=f43f02fc-73bc-4c91-9fea-f796de6eb2b9"},"vehicle_type_id":"4","last_reported":1744301540,"current_range_meters":13600,"station_id":"ce4bgk12rcd13ifvqbj0","pricing_plan_id":"cebpf4jnsgd1na2vs0mg"},{"bike_id":"1a697f20-593e-4a36-bfeb-e65c1bad56d4","system_id":"levelo_inurba_marseille","lat":43.247402,"lon":5.390662,"is_reserved":false,"is_disabled":false,"rental_uris":{"android":"levelo://app?vid=1a697f20-593e-4a36-bfeb-e65c1bad56d4","ios":"levelo://app?vid=1a697f20-593e-4a36-bfeb-e65c1bad56d4"},"vehicle_type_id":"4","last_reported":1744301540,"current_range_meters":12800,"station_id":"ce4bhg12rcd13ifvqf60","pricing_plan_id":"cebpf4jnsgd1na2vs0mg"},{"bike_id":"7c86ebaf-c9fe-4bc4-bc7c-bb16ccfd1fa7","system_id":"levelo_inurba_marseille","lat":43.27374,"lon":5.36226,"is_reserved":false,"is_disabled":false,"rental_uris":{"android":"levelo://app?vid=7c86ebaf-c9fe-4bc4-bc7c-bb16ccfd1fa7","ios":"levelo://app?vid=7c86ebaf-c9fe-4bc4-bc7c-bb16ccfd1fa7"},"vehicle_type_id":"4","last_reported":1744301540,"current_range_meters":13600,"station_id":"ce4bhbh2rcd13ifvqeo0","pricing_plan_id":"cebpf4jnsgd1na2vs0mg"},{"bike_id":"dbed5158-18de-4e5b-8769-192429d9a469","system_id":"levelo_inurba_marseille","lat":43.27379,"lon":5.36258,"is_reserved":false,"is_disabled":false,"rental_uris":{"android":"levelo://app?vid=dbed5158-18de-4e5b-8769-192429d9a469","ios":"levelo://app?vid=dbed5158-18de-4e5b-8769-192429d9a469"},"vehicle_type_id":"4","last_reported":1744301540,"current_range_meters":14000,"station_id":"ce4bhbh2rcd13ifvqeo0","pricing_plan_id":"cebpf4jnsgd1na2vs0mg"},{"bike_id":"7cc9ba28-b17b-4764-972f-908f30e26c9f","system_id":"levelo_inurba_marseille","lat":43.28854,"lon":5.35844,"is_reserved":false,"is_disabled":false,"rental_uris":{"android":"levelo://app?vid=7cc9ba28-b17b-4764-972f-908f30e26c9f","ios":"levelo://app?vid=7cc9ba28-b17b-4764-972f-908f30e26c9f"},"vehicle_type_id":"4","last_reported":1744301540,"current_range_meters":14000,"station_id":"ce4bhb12rcd13ifvqem0","pricing_plan_id":"cebpf4jnsgd1na2vs0mg"},{"bike_id":"d35e45c1-f848-4254-a3e4-531709350aa5","system_id":"levelo_inurba_marseille","lat":43.2738,"lon":5.3626,"is_reserved":false,"is_disabled":false,"rental_uris":{"android":"levelo://app?vid=d35e45c1-f848-4254-a3e4-531709350aa5","ios":"levelo://app?vid=d35e45c1-f848-4254-a3e4-531709350aa5"},"vehicle_type_id":"4","last_reported":1744301540,"current_range_meters":14000,"station_id":"ce4bhbh2rcd13ifvqeo0","pricing_plan_id":"cebpf4jnsgd1na2vs0mg"},{"bike_id":"5ecc0588-2f4e-49c8-a805-1104841caebe","system_id":"levelo_inurba_marseille","lat":43.24383,"lon":5.37096,"is_reserved":false,"is_disabled":false,"rental_uris":{"android":"levelo://app?vid=5ecc0588-2f4e-49c8-a805-1104841caebe","ios":"levelo://app?vid=5ecc0588-2f4e-49c8-a805-1104841caebe"},"vehicle_type_id":"4","last_reported":1744301540,"current_range_meters":14000,"station_id":"ce4bhhh2rcd13ifvqfk0","pricing_plan_id":"cebpf4jnsgd1na2vs0mg"},{"bike_id":"9be72c3e-c010-41e3-8e01-5292cebc5314","system_id":"levelo_inurba_marseille","lat":43.29634,"lon":5.4059,"is_reserved":false,"is_disabled":false,"rental_uris":{"android":"levelo://app?vid=9be72c3e-c010-41e3-8e01-5292cebc5314","ios":"levelo://app?vid=9be72c3e-c010-41e3-8e01-5292cebc5314"},"vehicle_type_id":"4","last_reported":1744301540,"current_range_meters":13600,"station_id":"ce4bh0h2rcd13ifvqd60","pricing_plan_id":"cebpf4jnsgd1na2vs0mg"},{"bike_id":"f78bf8a8-b506-43e9-9fc4-9ec4cb688e82","system_id":"levelo_inurba_marseille","lat":43.321059,"lon":5.367647,"is_reserved":false,"is_disabled":false,"rental_uris":{"android":"levelo://app?vid=f78bf8a8-b506-43e9-9fc4-9ec4cb688e82","ios":"levelo://app?vid=f78bf8a8-b506-43e9-9fc4-9ec4cb688e82"},"vehicle_type_id":"4","last_reported":1744301540,"current_range_meters":14400,"station_id":"ce4bhrh2rcd13ifvqhug","pricing_plan_id":"cebpf4jnsgd1na2vs0mg"},{"bike_id":"0fc464d9-9e87-4595-b3a9-3f5b38e017d7","system_id":"levelo_inurba_marseille","lat":43.27683,"lon":5.38886,"is_reserved":false,"is_disabled":false,"rental_uris":{"android":"levelo://app?vid=0fc464d9-9e87-4595-b3a9-3f5b38e017d7","ios":"levelo://app?vid=0fc464d9-9e87-4595-b3a9-3f5b38e017d7"},"vehicle_type_id":"4","last_reported":1744301540,"current_range_meters":14400,"station_id":"ce4bhi12rcd13ifvqfo0","pricing_plan_id":"cebpf4jnsgd1na2vs0mg"},{"bike_id":"784f6f6f-9f28-47b2-878e-a7ec8d21c437","system_id":"levelo_inurba_marseille","lat":43.30493,"lon":5.37316,"is_reserved":false,"is_disabled":false,"rental_uris":{"android":"levelo://app?vid=784f6f6f-9f28-47b2-878e-a7ec8d21c437","ios":"levelo://app?vid=784f6f6f-9f28-47b2-878e-a7ec8d21c437"},"vehicle_type_id":"4","last_reported":1744301540,"current_range_meters":14800,"station_id":"","pricing_plan_id":"cebpf4jnsgd1na2vs0mg"},{"bike_id":"eab6cbfa-cb8e-47d7-b0d6-226ab7facec7","system_id":"levelo_inurba_marseille","lat":43.31713,"lon":5.42405,"is_reserved":false,"is_disabled":true,"rental_uris":{"android":"levelo://app?vid=eab6cbfa-cb8e-47d7-b0d6-226ab7facec7","ios":"levelo://app?vid=eab6cbfa-cb8e-47d7-b0d6-226ab7facec7"},"vehicle_type_id":"4","last_reported":1744301540,"current_range_meters":14800,"station_id":"ce4bhp92rcd13ifvqhbg","pricing_plan_id":"cebpf4jnsgd1na2vs0mg"},{"bike_id":"36dd2f5e-4014-41b9-8f6e-aa54636e0b8b","system_id":"levelo_inurba_marseille","lat":43.24165,"lon":5.36392,"is_reserved":false,"is_disabled":false,"rental_uris":{"android":"levelo://app?vid=36dd2f5e-4014-41b9-8f6e-aa54636e0b8b","ios":"levelo://app?vid=36dd2f5e-4014-41b9-8f6e-aa54636e0b8b"},"vehicle_type_id":"4","last_reported":1744301540,"current_range_meters":14800,"station_id":"cpo36qri1sfpv3e86is0","pricing_plan_id":"cebpf4jnsgd1na2vs0mg"},{"bike_id":"7d0e50b3-b7c9-4183-82d3-92c0a048a72b","system_id":"levelo_inurba_marseille","lat":43.30516,"lon":5.3696,"is_reserved":false,"is_disabled":false,"rental_uris":{"android":"levelo://app?vid=7d0e50b3-b7c9-4183-82d3-92c0a048a72b","ios":"levelo://app?vid=7d0e50b3-b7c9-4183-82d3-92c0a048a72b"},"vehicle_type_id":"4","last_reported":1744301540,"current_range_meters":15200,"station_id":"","pricing_plan_id":"cebpf4jnsgd1na2vs0mg"},{"bike_id":"9c07b687-0cca-4a28-82f6-66c50d295640","system_id":"levelo_inurba_marseille","lat":43.32308,"lon":5.38686,"is_reserved":false,"is_disabled":false,"rental_uris":{"android":"levelo://app?vid=9c07b687-0cca-4a28-82f6-66c50d295640","ios":"levelo://app?vid=9c07b687-0cca-4a28-82f6-66c50d295640"},"vehicle_type_id":"4","last_reported":1744301540,"current_range_meters":15200,"station_id":"","pricing_plan_id":"cebpf4jnsgd1na2vs0mg"},{"bike_id":"9844548a-9480-4aaf-858b-33cf3441f642","system_id":"levelo_inurba_marseille","lat":43.26778,"lon":5.39424,"is_reserved":false,"is_disabled":false,"rental_uris":{"android":"levelo://app?vid=9844548a-9480-4aaf-858b-33cf3441f642","ios":"levelo://app?vid=9844548a-9480-4aaf-858b-33cf3441f642"},"vehicle_type_id":"4","last_reported":1744301540,"current_range_meters":15200,"station_id":"ce4bhh12rcd13ifvqfg0","pricing_plan_id":"cebpf4jnsgd1na2vs0mg"},{"bike_id":"ee8e886d-f9ba-4065-a48e-b86022609d03","system_id":"levelo_inurba_marseille","lat":43.24808,"lon":5.37459,"is_reserved":false,"is_disabled":false,"rental_uris":{"android":"levelo://app?vid=ee8e886d-f9ba-4065-a48e-b86022609d03","ios":"levelo://app?vid=ee8e886d-f9ba-4065-a48e-b86022609d03"},"vehicle_type_id":"4","last_reported":1744301540,"current_range_meters":15200,"station_id":"ce4bhgh2rcd13ifvqfb0","pricing_plan_id":"cebpf4jnsgd1na2vs0mg"},{"bike_id":"27cb9a06-2015-4aa6-b653-fbdb0a41000f","system_id":"levelo_inurba_marseille","lat":43.26194,"lon":5.37448,"is_reserved":false,"is_disabled":false,"rental_uris":{"android":"levelo://app?vid=27cb9a06-2015-4aa6-b653-fbdb0a41000f","ios":"levelo://app?vid=27cb9a06-2015-4aa6-b653-fbdb0a41000f"},"vehicle_type_id":"4","last_reported":1744301540,"current_range_meters":15200,"station_id":"ce4bhgp2rcd13ifvqfc0","pricing_plan_id":"cebpf4jnsgd1na2vs0mg"},{"bike_id":"76c40392-9eb2-47c4-a019-9089b3da5207","system_id":"levelo_inurba_marseille","lat":43.27375,"lon":5.36263,"is_reserved":false,"is_disabled":false,"rental_uris":{"android":"levelo://app?vid=76c40392-9eb2-47c4-a019-9089b3da5207","ios":"levelo://app?vid=76c40392-9eb2-47c4-a019-9089b3da5207"},"vehicle_type_id":"4","last_reported":1744301540,"current_range_meters":16000,"station_id":"ce4bhbh2rcd13ifvqeo0","pricing_plan_id":"cebpf4jnsgd1na2vs0mg"},{"bike_id":"8c01c616-33d3-4f21-a94b-3bf76ab48ae7","system_id":"levelo_inurba_marseille","lat":43.28976,"lon":5.36684,"is_reserved":false,"is_disabled":true,"rental_uris":{"android":"levelo://app?vid=8c01c616-33d3-4f21-a94b-3bf76ab48ae7","ios":"levelo://app?vid=8c01c616-33d3-4f21-a94b-3bf76ab48ae7"},"vehicle_type_id":"4","last_reported":1744301540,"current_range_meters":16000,"station_id":"ce4bhap2rcd13ifvqek0","pricing_plan_id":"cebpf4jnsgd1na2vs0mg"},{"bike_id":"397d570a-d883-46c7-b22c-ffa648a40a8d","system_id":"levelo_inurba_marseille","lat":43.2842,"lon":5.34999,"is_reserved":false,"is_disabled":false,"rental_uris":{"android":"levelo://app?vid=397d570a-d883-46c7-b22c-ffa648a40a8d","ios":"levelo://app?vid=397d570a-d883-46c7-b22c-ffa648a40a8d"},"vehicle_type_id":"4","last_reported":1744301540,"current_range_meters":16000,"station_id":"ce4bhbh2rcd13ifvqepg","pricing_plan_id":"cebpf4jnsgd1na2vs0mg"},{"bike_id":"4dab948e-7be1-4a14-9dd5-c804865c1f74","system_id":"levelo_inurba_marseille","lat":43.30788,"lon":5.37647,"is_reserved":false,"is_disabled":false,"rental_uris":{"android":"levelo://app?vid=4dab948e-7be1-4a14-9dd5-c804865c1f74","ios":"levelo://app?vid=4dab948e-7be1-4a14-9dd5-c804865c1f74"},"vehicle_type_id":"4","last_reported":1744301540,"current_range_meters":16000,"station_id":"ce4bgv92rcd13ifvqcq0","pricing_plan_id":"cebpf4jnsgd1na2vs0mg"},{"bike_id":"8d928683-fd19-4e85-a705-949f44a3bf51","system_id":"levelo_inurba_marseille","lat":43.276046,"lon":5.361058,"is_reserved":false,"is_disabled":false,"rental_uris":{"android":"levelo://app?vid=8d928683-fd19-4e85-a705-949f44a3bf51","ios":"levelo://app?vid=8d928683-fd19-4e85-a705-949f44a3bf51"},"vehicle_type_id":"4","last_reported":1744301540,"current_range_meters":16000,"station_id":"ce4bgj92rcd13ifvqbe0","pricing_plan_id":"cebpf4jnsgd1na2vs0mg"},{"bike_id":"7928f85f-6603-4b62-a9f0-1785aa6fb49a","system_id":"levelo_inurba_marseille","lat":43.30801,"lon":5.373872,"is_reserved":false,"is_disabled":false,"rental_uris":{"android":"levelo://app?vid=7928f85f-6603-4b62-a9f0-1785aa6fb49a","ios":"levelo://app?vid=7928f85f-6603-4b62-a9f0-1785aa6fb49a"},"vehicle_type_id":"4","last_reported":1744301540,"current_range_meters":16000,"station_id":"","pricing_plan_id":"cebpf4jnsgd1na2vs0mg"},{"bike_id":"0b8c9072-08d9-4741-a501-31478256ca5c","system_id":"levelo_inurba_marseille","lat":43.25587,"lon":5.38219,"is_reserved":false,"is_disabled":false,"rental_uris":{"android":"levelo://app?vid=0b8c9072-08d9-4741-a501-31478256ca5c","ios":"levelo://app?vid=0b8c9072-08d9-4741-a501-31478256ca5c"},"vehicle_type_id":"4","last_reported":1744301540,"current_range_meters":16000,"station_id":"ce4bhih2rcd13ifvqfs0","pricing_plan_id":"cebpf4jnsgd1na2vs0mg"},{"bike_id":"f65dbe6f-a8a0-4aa1-87a6-a3a7af51000d","system_id":"levelo_inurba_marseille","lat":43.28613,"lon":5.35103,"is_reserved":false,"is_disabled":false,"rental_uris":{"android":"levelo://app?vid=f65dbe6f-a8a0-4aa1-87a6-a3a7af51000d","ios":"levelo://app?vid=f65dbe6f-a8a0-4aa1-87a6-a3a7af51000d"},"vehicle_type_id":"4","last_reported":1744301540,"current_range_meters":16000,"station_id":"ce4bhch2rcd13ifvqeug","pricing_plan_id":"cebpf4jnsgd1na2vs0mg"},{"bike_id":"0922821c-4e1d-4817-9469-860e55f8f0d1","system_id":"levelo_inurba_marseille","lat":43.337444,"lon":5.374475,"is_reserved":false,"is_disabled":false,"rental_uris":{"android":"levelo://app?vid=0922821c-4e1d-4817-9469-860e55f8f0d1","ios":"levelo://app?vid=0922821c-4e1d-4817-9469-860e55f8f0d1"},"vehicle_type_id":"4","last_reported":1744301540,"current_range_meters":16000,"station_id":"","pricing_plan_id":"cebpf4jnsgd1na2vs0mg"},{"bike_id":"82d64577-1e8e-4e31-89dc-fba0559087e4","system_id":"levelo_inurba_marseille","lat":43.23074,"lon":5.35507,"is_reserved":false,"is_disabled":false,"rental_uris":{"android":"levelo://app?vid=82d64577-1e8e-4e31-89dc-fba0559087e4","ios":"levelo://app?vid=82d64577-1e8e-4e31-89dc-fba0559087e4"},"vehicle_type_id":"4","last_reported":1744301540,"current_range_meters":16400,"station_id":"cpo3342slgdg3j2ifvpg","pricing_plan_id":"cebpf4jnsgd1na2vs0mg"},{"bike_id":"23718e9a-5ce7-4d28-99a5-8f754f56e13c","system_id":"levelo_inurba_marseille","lat":43.22517,"lon":5.34783,"is_reserved":false,"is_disabled":false,"rental_uris":{"android":"levelo://app?vid=23718e9a-5ce7-4d28-99a5-8f754f56e13c","ios":"levelo://app?vid=23718e9a-5ce7-4d28-99a5-8f754f56e13c"},"vehicle_type_id":"4","last_reported":1744301540,"current_range_meters":16400,"station_id":"","pricing_plan_id":"cebpf4jnsgd1na2vs0mg"},{"bike_id":"a034f737-c7d2-4943-9d22-7ee87c8de504","system_id":"levelo_inurba_marseille","lat":43.2844,"lon":5.35014,"is_reserved":false,"is_disabled":false,"rental_uris":{"android":"levelo://app?vid=a034f737-c7d2-4943-9d22-7ee87c8de504","ios":"levelo://app?vid=a034f737-c7d2-4943-9d22-7ee87c8de504"},"vehicle_type_id":"4","last_reported":1744301540,"current_range_meters":16400,"station_id":"ce4bhbh2rcd13ifvqepg","pricing_plan_id":"cebpf4jnsgd1na2vs0mg"},{"bike_id":"992d1ab1-2ef4-454c-a3db-15c7eedd594f","system_id":"levelo_inurba_marseille","lat":43.28864,"lon":5.35843,"is_reserved":false,"is_disabled":false,"rental_uris":{"android":"levelo://app?vid=992d1ab1-2ef4-454c-a3db-15c7eedd594f","ios":"levelo://app?vid=992d1ab1-2ef4-454c-a3db-15c7eedd594f"},"vehicle_type_id":"4","last_reported":1744301540,"current_range_meters":16400,"station_id":"ce4bhb12rcd13ifvqem0","pricing_plan_id":"cebpf4jnsgd1na2vs0mg"},{"bike_id":"28e54c9b-8293-44c7-a775-d7a5e5b57902","system_id":"levelo_inurba_marseille","lat":43.29977,"lon":5.38463,"is_reserved":false,"is_disabled":false,"rental_uris":{"android":"levelo://app?vid=28e54c9b-8293-44c7-a775-d7a5e5b57902","ios":"levelo://app?vid=28e54c9b-8293-44c7-a775-d7a5e5b57902"},"vehicle_type_id":"4","last_reported":1744301540,"current_range_meters":16400,"station_id":"ce4bgj92rcd13ifvqbd0","pricing_plan_id":"cebpf4jnsgd1na2vs0mg"},{"bike_id":"2ce0e4f8-a024-47eb-bc7b-eb19d14eb60d","system_id":"levelo_inurba_marseille","lat":43.28419,"lon":5.35002,"is_reserved":false,"is_disabled":false,"rental_uris":{"android":"levelo://app?vid=2ce0e4f8-a024-47eb-bc7b-eb19d14eb60d","ios":"levelo://app?vid=2ce0e4f8-a024-47eb-bc7b-eb19d14eb60d"},"vehicle_type_id":"4","last_reported":1744301540,"current_range_meters":16400,"station_id":"ce4bhbh2rcd13ifvqepg","pricing_plan_id":"cebpf4jnsgd1na2vs0mg"},{"bike_id":"0e6b6ddc-db08-40bd-975c-baac19ecf571","system_id":"levelo_inurba_marseille","lat":43.3023,"lon":5.3947,"is_reserved":false,"is_disabled":false,"rental_uris":{"android":"levelo://app?vid=0e6b6ddc-db08-40bd-975c-baac19ecf571","ios":"levelo://app?vid=0e6b6ddc-db08-40bd-975c-baac19ecf571"},"vehicle_type_id":"4","last_reported":1744301540,"current_range_meters":16400,"station_id":"ce4bh0p2rcd13ifvqd70","pricing_plan_id":"cebpf4jnsgd1na2vs0mg"},{"bike_id":"83617bea-4c74-41fd-92dd-cb793152ce4a","system_id":"levelo_inurba_marseille","lat":43.299688,"lon":5.384924,"is_reserved":false,"is_disabled":false,"rental_uris":{"android":"levelo://app?vid=83617bea-4c74-41fd-92dd-cb793152ce4a","ios":"levelo://app?vid=83617bea-4c74-41fd-92dd-cb793152ce4a"},"vehicle_type_id":"4","last_reported":1744301540,"current_range_meters":16400,"station_id":"ce4bgj92rcd13ifvqbd0","pricing_plan_id":"cebpf4jnsgd1na2vs0mg"},{"bike_id":"cb7c1180-3dd2-4117-b2f8-6af14e765160","system_id":"levelo_inurba_marseille","lat":43.27378,"lon":5.36261,"is_reserved":false,"is_disabled":false,"rental_uris":{"android":"levelo://app?vid=cb7c1180-3dd2-4117-b2f8-6af14e765160","ios":"levelo://app?vid=cb7c1180-3dd2-4117-b2f8-6af14e765160"},"vehicle_type_id":"4","last_reported":1744301540,"current_range_meters":16400,"station_id":"ce4bhbh2rcd13ifvqeo0","pricing_plan_id":"cebpf4jnsgd1na2vs0mg"},{"bike_id":"ca245232-bd2a-421d-a33d-9a77a7ac2842","system_id":"levelo_inurba_marseille","lat":43.28675,"lon":5.38669,"is_reserved":false,"is_disabled":false,"rental_uris":{"android":"levelo://app?vid=ca245232-bd2a-421d-a33d-9a77a7ac2842","ios":"levelo://app?vid=ca245232-bd2a-421d-a33d-9a77a7ac2842"},"vehicle_type_id":"4","last_reported":1744301540,"current_range_meters":16400,"station_id":"ce4bh492rcd13ifvqdug","pricing_plan_id":"cebpf4jnsgd1na2vs0mg"},{"bike_id":"52dc2361-453c-4817-a706-b017252ee48d","system_id":"levelo_inurba_marseille","lat":43.32107,"lon":5.36791,"is_reserved":false,"is_disabled":false,"rental_uris":{"android":"levelo://app?vid=52dc2361-453c-4817-a706-b017252ee48d","ios":"levelo://app?vid=52dc2361-453c-4817-a706-b017252ee48d"},"vehicle_type_id":"4","last_reported":1744301540,"current_range_meters":16400,"station_id":"ce4bhrh2rcd13ifvqhug","pricing_plan_id":"cebpf4jnsgd1na2vs0mg"},{"bike_id":"84d13eab-964b-4991-8e49-de71913e2947","system_id":"levelo_inurba_marseille","lat":43.27618,"lon":5.36092,"is_reserved":false,"is_disabled":false,"rental_uris":{"android":"levelo://app?vid=84d13eab-964b-4991-8e49-de71913e2947","ios":"levelo://app?vid=84d13eab-964b-4991-8e49-de71913e2947"},"vehicle_type_id":"4","last_reported":1744301540,"current_range_meters":16400,"station_id":"ce4bgj92rcd13ifvqbe0","pricing_plan_id":"cebpf4jnsgd1na2vs0mg"},{"bike_id":"97f02549-0ae7-44d8-8f3e-31816b57dfb4","system_id":"levelo_inurba_marseille","lat":43.28267,"lon":5.35056,"is_reserved":false,"is_disabled":false,"rental_uris":{"android":"levelo://app?vid=97f02549-0ae7-44d8-8f3e-31816b57dfb4","ios":"levelo://app?vid=97f02549-0ae7-44d8-8f3e-31816b57dfb4"},"vehicle_type_id":"4","last_reported":1744301540,"current_range_meters":16400,"station_id":"ce4bhbp2rcd13ifvqerg","pricing_plan_id":"cebpf4jnsgd1na2vs0mg"},{"bike_id":"f6a58693-d60d-42fc-b156-39110150b9a8","system_id":"levelo_inurba_marseille","lat":43.29278,"lon":5.36843,"is_reserved":false,"is_disabled":false,"rental_uris":{"android":"levelo://app?vid=f6a58693-d60d-42fc-b156-39110150b9a8","ios":"levelo://app?vid=f6a58693-d60d-42fc-b156-39110150b9a8"},"vehicle_type_id":"4","last_reported":1744301540,"current_range_meters":16800,"station_id":"ce4bhbp2rcd13ifvqesg","pricing_plan_id":"cebpf4jnsgd1na2vs0mg"},{"bike_id":"572c239e-c7a9-441e-bd9d-2667f4375dd1","system_id":"levelo_inurba_marseille","lat":43.28421,"lon":5.34988,"is_reserved":false,"is_disabled":false,"rental_uris":{"android":"levelo://app?vid=572c239e-c7a9-441e-bd9d-2667f4375dd1","ios":"levelo://app?vid=572c239e-c7a9-441e-bd9d-2667f4375dd1"},"vehicle_type_id":"4","last_reported":1744301540,"current_range_meters":16800,"station_id":"ce4bhbh2rcd13ifvqepg","pricing_plan_id":"cebpf4jnsgd1na2vs0mg"},{"bike_id":"dfe6a43d-11f3-4b6c-a02a-d6a8d9dba9a7","system_id":"levelo_inurba_marseille","lat":43.29794,"lon":5.39344,"is_reserved":false,"is_disabled":false,"rental_uris":{"android":"levelo://app?vid=dfe6a43d-11f3-4b6c-a02a-d6a8d9dba9a7","ios":"levelo://app?vid=dfe6a43d-11f3-4b6c-a02a-d6a8d9dba9a7"},"vehicle_type_id":"4","last_reported":1744301540,"current_range_meters":16800,"station_id":"chh1huq6cuj3fo74tm60","pricing_plan_id":"cebpf4jnsgd1na2vs0mg"},{"bike_id":"52c3b748-b29e-4ce9-aba4-2948b8a19d23","system_id":"levelo_inurba_marseille","lat":43.28416,"lon":5.34996,"is_reserved":false,"is_disabled":false,"rental_uris":{"android":"levelo://app?vid=52c3b748-b29e-4ce9-aba4-2948b8a19d23","ios":"levelo://app?vid=52c3b748-b29e-4ce9-aba4-2948b8a19d23"},"vehicle_type_id":"4","last_reported":1744301540,"current_range_meters":16800,"station_id":"ce4bhbh2rcd13ifvqepg","pricing_plan_id":"cebpf4jnsgd1na2vs0mg"},{"bike_id":"59315a64-e11b-43cc-9ef7-418272d90b40","system_id":"levelo_inurba_marseille","lat":43.28851,"lon":5.35854,"is_reserved":false,"is_disabled":false,"rental_uris":{"android":"levelo://app?vid=59315a64-e11b-43cc-9ef7-418272d90b40","ios":"levelo://app?vid=59315a64-e11b-43cc-9ef7-418272d90b40"},"vehicle_type_id":"4","last_reported":1744301540,"current_range_meters":16800,"station_id":"ce4bhb12rcd13ifvqem0","pricing_plan_id":"cebpf4jnsgd1na2vs0mg"},{"bike_id":"6d2c5da6-93dc-4637-8ac0-c0511d532e5d","system_id":"levelo_inurba_marseille","lat":43.24071,"lon":5.37761,"is_reserved":false,"is_disabled":false,"rental_uris":{"android":"levelo://app?vid=6d2c5da6-93dc-4637-8ac0-c0511d532e5d","ios":"levelo://app?vid=6d2c5da6-93dc-4637-8ac0-c0511d532e5d"},"vehicle_type_id":"4","last_reported":1744301540,"current_range_meters":16800,"station_id":"ce4bhnp2rcd13ifvqgvg","pricing_plan_id":"cebpf4jnsgd1na2vs0mg"},{"bike_id":"94455896-0f19-4fae-bd72-9879f01fcd6e","system_id":"levelo_inurba_marseille","lat":43.29588,"lon":5.42288,"is_reserved":false,"is_disabled":true,"rental_uris":{"android":"levelo://app?vid=94455896-0f19-4fae-bd72-9879f01fcd6e","ios":"levelo://app?vid=94455896-0f19-4fae-bd72-9879f01fcd6e"},"vehicle_type_id":"4","last_reported":1744301540,"current_range_meters":16800,"station_id":"ce4bhph2rcd13ifvqhdg","pricing_plan_id":"cebpf4jnsgd1na2vs0mg"},{"bike_id":"1a8675f7-96a5-4fc2-8fd4-53f39f26b59b","system_id":"levelo_inurba_marseille","lat":43.32397,"lon":5.38997,"is_reserved":false,"is_disabled":false,"rental_uris":{"android":"levelo://app?vid=1a8675f7-96a5-4fc2-8fd4-53f39f26b59b","ios":"levelo://app?vid=1a8675f7-96a5-4fc2-8fd4-53f39f26b59b"},"vehicle_type_id":"4","last_reported":1744301540,"current_range_meters":16800,"station_id":"ce4bhr12rcd13ifvqhqg","pricing_plan_id":"cebpf4jnsgd1na2vs0mg"},{"bike_id":"cbc4d964-4d58-4891-a1a0-a908875052fd","system_id":"levelo_inurba_marseille","lat":43.260273,"lon":5.375541,"is_reserved":false,"is_disabled":false,"rental_uris":{"android":"levelo://app?vid=cbc4d964-4d58-4891-a1a0-a908875052fd","ios":"levelo://app?vid=cbc4d964-4d58-4891-a1a0-a908875052fd"},"vehicle_type_id":"4","last_reported":1744301540,"current_range_meters":16800,"station_id":"ce4bhgh2rcd13ifvqfa0","pricing_plan_id":"cebpf4jnsgd1na2vs0mg"},{"bike_id":"46284da2-a346-413b-9e8a-dc4fd07691e4","system_id":"levelo_inurba_marseille","lat":43.289947,"lon":5.366556,"is_reserved":false,"is_disabled":false,"rental_uris":{"android":"levelo://app?vid=46284da2-a346-413b-9e8a-dc4fd07691e4","ios":"levelo://app?vid=46284da2-a346-413b-9e8a-dc4fd07691e4"},"vehicle_type_id":"4","last_reported":1744301540,"current_range_meters":17200,"station_id":"ce4bhap2rcd13ifvqek0","pricing_plan_id":"cebpf4jnsgd1na2vs0mg"},{"bike_id":"a737f5db-dfb3-4dd8-aeff-67617975e190","system_id":"levelo_inurba_marseille","lat":43.29626,"lon":5.377023,"is_reserved":false,"is_disabled":true,"rental_uris":{"android":"levelo://app?vid=a737f5db-dfb3-4dd8-aeff-67617975e190","ios":"levelo://app?vid=a737f5db-dfb3-4dd8-aeff-67617975e190"},"vehicle_type_id":"4","last_reported":1744301540,"current_range_meters":17200,"station_id":"ce4bgi92rcd13ifvqb90","pricing_plan_id":"cebpf4jnsgd1na2vs0mg"},{"bike_id":"467924d9-889a-4591-a26d-c954ba0abb33","system_id":"levelo_inurba_marseille","lat":43.32381,"lon":5.38992,"is_reserved":false,"is_disabled":false,"rental_uris":{"android":"levelo://app?vid=467924d9-889a-4591-a26d-c954ba0abb33","ios":"levelo://app?vid=467924d9-889a-4591-a26d-c954ba0abb33"},"vehicle_type_id":"4","last_reported":1744301540,"current_range_meters":17200,"station_id":"","pricing_plan_id":"cebpf4jnsgd1na2vs0mg"},{"bike_id":"3e48affb-8de6-401c-a955-9837881028b7","system_id":"levelo_inurba_marseille","lat":43.26779,"lon":5.39423,"is_reserved":false,"is_disabled":false,"rental_uris":{"android":"levelo://app?vid=3e48affb-8de6-401c-a955-9837881028b7","ios":"levelo://app?vid=3e48affb-8de6-401c-a955-9837881028b7"},"vehicle_type_id":"4","last_reported":1744301540,"current_range_meters":17200,"station_id":"ce4bhh12rcd13ifvqfg0","pricing_plan_id":"cebpf4jnsgd1na2vs0mg"},{"bike_id":"190ccf45-f6d7-44e6-9e2f-1c431d6689b3","system_id":"levelo_inurba_marseille","lat":43.26214,"lon":5.37926,"is_reserved":false,"is_disabled":false,"rental_uris":{"android":"levelo://app?vid=190ccf45-f6d7-44e6-9e2f-1c431d6689b3","ios":"levelo://app?vid=190ccf45-f6d7-44e6-9e2f-1c431d6689b3"},"vehicle_type_id":"4","last_reported":1744301540,"current_range_meters":17200,"station_id":"ce4bhjp2rcd13ifvqg90","pricing_plan_id":"cebpf4jnsgd1na2vs0mg"},{"bike_id":"f9dcbc79-ec45-429d-860c-2bf84717a35c","system_id":"levelo_inurba_marseille","lat":43.28423,"lon":5.37504,"is_reserved":false,"is_disabled":false,"rental_uris":{"android":"levelo://app?vid=f9dcbc79-ec45-429d-860c-2bf84717a35c","ios":"levelo://app?vid=f9dcbc79-ec45-429d-860c-2bf84717a35c"},"vehicle_type_id":"4","last_reported":1744301540,"current_range_meters":17200,"station_id":"ce4bh412rcd13ifvqds0","pricing_plan_id":"cebpf4jnsgd1na2vs0mg"},{"bike_id":"182650a6-9433-4951-80ba-44b6e3878dab","system_id":"levelo_inurba_marseille","lat":43.30539,"lon":5.38435,"is_reserved":false,"is_disabled":true,"rental_uris":{"android":"levelo://app?vid=182650a6-9433-4951-80ba-44b6e3878dab","ios":"levelo://app?vid=182650a6-9433-4951-80ba-44b6e3878dab"},"vehicle_type_id":"4","last_reported":1744301540,"current_range_meters":17200,"station_id":"ce4bgg92rcd13ifvqb30","pricing_plan_id":"cebpf4jnsgd1na2vs0mg"},{"bike_id":"33e4ce6c-cd2f-480e-a85f-acce435dbca5","system_id":"levelo_inurba_marseille","lat":43.26194,"lon":5.37447,"is_reserved":false,"is_disabled":false,"rental_uris":{"android":"levelo://app?vid=33e4ce6c-cd2f-480e-a85f-acce435dbca5","ios":"levelo://app?vid=33e4ce6c-cd2f-480e-a85f-acce435dbca5"},"vehicle_type_id":"4","last_reported":1744301540,"current_range_meters":17600,"station_id":"ce4bhgp2rcd13ifvqfc0","pricing_plan_id":"cebpf4jnsgd1na2vs0mg"},{"bike_id":"36d0039c-1cc6-4462-ab63-3d06d8acdca9","system_id":"levelo_inurba_marseille","lat":43.28365,"lon":5.38621,"is_reserved":false,"is_disabled":false,"rental_uris":{"android":"levelo://app?vid=36d0039c-1cc6-4462-ab63-3d06d8acdca9","ios":"levelo://app?vid=36d0039c-1cc6-4462-ab63-3d06d8acdca9"},"vehicle_type_id":"4","last_reported":1744301540,"current_range_meters":17600,"station_id":"ce4bh492rcd13ifvqdvg","pricing_plan_id":"cebpf4jnsgd1na2vs0mg"},{"bike_id":"90948ee9-c53a-4f0a-8fc7-81adb525f292","system_id":"levelo_inurba_marseille","lat":43.2762,"lon":5.36102,"is_reserved":false,"is_disabled":false,"rental_uris":{"android":"levelo://app?vid=90948ee9-c53a-4f0a-8fc7-81adb525f292","ios":"levelo://app?vid=90948ee9-c53a-4f0a-8fc7-81adb525f292"},"vehicle_type_id":"4","last_reported":1744301540,"current_range_meters":17200,"station_id":"ce4bgj92rcd13ifvqbe0","pricing_plan_id":"cebpf4jnsgd1na2vs0mg"},{"bike_id":"463b41fd-37bb-48c0-a6e4-12f737a3d7cf","system_id":"levelo_inurba_marseille","lat":43.26989,"lon":5.40289,"is_reserved":false,"is_disabled":true,"rental_uris":{"android":"levelo://app?vid=463b41fd-37bb-48c0-a6e4-12f737a3d7cf","ios":"levelo://app?vid=463b41fd-37bb-48c0-a6e4-12f737a3d7cf"},"vehicle_type_id":"4","last_reported":1744301540,"current_range_meters":17600,"station_id":"cjm6bp8fraef2m0cb0m0","pricing_plan_id":"cebpf4jnsgd1na2vs0mg"},{"bike_id":"549918be-d79a-4899-a870-6473907900ee","system_id":"levelo_inurba_marseille","lat":43.29852,"lon":5.36288,"is_reserved":false,"is_disabled":true,"rental_uris":{"android":"levelo://app?vid=549918be-d79a-4899-a870-6473907900ee","ios":"levelo://app?vid=549918be-d79a-4899-a870-6473907900ee"},"vehicle_type_id":"4","last_reported":1744301540,"current_range_meters":17600,"station_id":"ce4bgpp2rcd13ifvqc3g","pricing_plan_id":"cebpf4jnsgd1na2vs0mg"},{"bike_id":"9ecea778-7468-44ed-bf94-627f6eb2c8b3","system_id":"levelo_inurba_marseille","lat":43.28416,"lon":5.34982,"is_reserved":false,"is_disabled":false,"rental_uris":{"android":"levelo://app?vid=9ecea778-7468-44ed-bf94-627f6eb2c8b3","ios":"levelo://app?vid=9ecea778-7468-44ed-bf94-627f6eb2c8b3"},"vehicle_type_id":"4","last_reported":1744301540,"current_range_meters":17600,"station_id":"ce4bhbh2rcd13ifvqepg","pricing_plan_id":"cebpf4jnsgd1na2vs0mg"},{"bike_id":"0ca6a7e5-1f85-44ea-92f9-432b82e6527b","system_id":"levelo_inurba_marseille","lat":43.26248,"lon":5.379723,"is_reserved":false,"is_disabled":false,"rental_uris":{"android":"levelo://app?vid=0ca6a7e5-1f85-44ea-92f9-432b82e6527b","ios":"levelo://app?vid=0ca6a7e5-1f85-44ea-92f9-432b82e6527b"},"vehicle_type_id":"4","last_reported":1744301540,"current_range_meters":17600,"station_id":"ce4bhjp2rcd13ifvqg90","pricing_plan_id":"cebpf4jnsgd1na2vs0mg"},{"bike_id":"9bccee7f-0d62-450b-bb2f-6b801cea27af","system_id":"levelo_inurba_marseille","lat":43.33605,"lon":5.41031,"is_reserved":false,"is_disabled":false,"rental_uris":{"android":"levelo://app?vid=9bccee7f-0d62-450b-bb2f-6b801cea27af","ios":"levelo://app?vid=9bccee7f-0d62-450b-bb2f-6b801cea27af"},"vehicle_type_id":"4","last_reported":1744301540,"current_range_meters":19600,"station_id":"ce4bhqh2rcd13ifvqhmg","pricing_plan_id":"cebpf4jnsgd1na2vs0mg"},{"bike_id":"b19e5786-8da6-4fa6-89f5-e943e8791bb3","system_id":"levelo_inurba_marseille","lat":43.2737,"lon":5.36261,"is_reserved":false,"is_disabled":false,"rental_uris":{"android":"levelo://app?vid=b19e5786-8da6-4fa6-89f5-e943e8791bb3","ios":"levelo://app?vid=b19e5786-8da6-4fa6-89f5-e943e8791bb3"},"vehicle_type_id":"4","last_reported":1744301540,"current_range_meters":17600,"station_id":"ce4bhbh2rcd13ifvqeo0","pricing_plan_id":"cebpf4jnsgd1na2vs0mg"},{"bike_id":"68f7adb9-7134-4cbd-9956-194e1fbfaa40","system_id":"levelo_inurba_marseille","lat":43.29255,"lon":5.37602,"is_reserved":false,"is_disabled":false,"rental_uris":{"android":"levelo://app?vid=68f7adb9-7134-4cbd-9956-194e1fbfaa40","ios":"levelo://app?vid=68f7adb9-7134-4cbd-9956-194e1fbfaa40"},"vehicle_type_id":"4","last_reported":1744301540,"current_range_meters":17600,"station_id":"ce4bgi12rcd13ifvqb80","pricing_plan_id":"cebpf4jnsgd1na2vs0mg"},{"bike_id":"18cdc994-d025-4283-a7a0-bff1ef255c20","system_id":"levelo_inurba_marseille","lat":43.31328,"lon":5.39691,"is_reserved":false,"is_disabled":false,"rental_uris":{"android":"levelo://app?vid=18cdc994-d025-4283-a7a0-bff1ef255c20","ios":"levelo://app?vid=18cdc994-d025-4283-a7a0-bff1ef255c20"},"vehicle_type_id":"4","last_reported":1744301540,"current_range_meters":17200,"station_id":"ce4bgvp2rcd13ifvqcu0","pricing_plan_id":"cebpf4jnsgd1na2vs0mg"},{"bike_id":"b5fef04d-d69d-45fd-9171-a8dcb60a59c3","system_id":"levelo_inurba_marseille","lat":43.28719,"lon":5.37935,"is_reserved":false,"is_disabled":false,"rental_uris":{"android":"levelo://app?vid=b5fef04d-d69d-45fd-9171-a8dcb60a59c3","ios":"levelo://app?vid=b5fef04d-d69d-45fd-9171-a8dcb60a59c3"},"vehicle_type_id":"4","last_reported":1744301540,"current_range_meters":18000,"station_id":"ce4bh9p2rcd13ifvqec0","pricing_plan_id":"cebpf4jnsgd1na2vs0mg"},{"bike_id":"4fe9ed65-30de-44b3-91d2-ec2f30ea1d86","system_id":"levelo_inurba_marseille","lat":43.27376,"lon":5.3625,"is_reserved":false,"is_disabled":false,"rental_uris":{"android":"levelo://app?vid=4fe9ed65-30de-44b3-91d2-ec2f30ea1d86","ios":"levelo://app?vid=4fe9ed65-30de-44b3-91d2-ec2f30ea1d86"},"vehicle_type_id":"4","last_reported":1744301540,"current_range_meters":18000,"station_id":"ce4bhbh2rcd13ifvqeo0","pricing_plan_id":"cebpf4jnsgd1na2vs0mg"},{"bike_id":"ce1c82e4-2ab0-456b-9391-c9519ed40ac3","system_id":"levelo_inurba_marseille","lat":43.27374,"lon":5.36266,"is_reserved":false,"is_disabled":false,"rental_uris":{"android":"levelo://app?vid=ce1c82e4-2ab0-456b-9391-c9519ed40ac3","ios":"levelo://app?vid=ce1c82e4-2ab0-456b-9391-c9519ed40ac3"},"vehicle_type_id":"4","last_reported":1744301540,"current_range_meters":18000,"station_id":"ce4bhbh2rcd13ifvqeo0","pricing_plan_id":"cebpf4jnsgd1na2vs0mg"},{"bike_id":"6850bdc8-c131-4c80-860c-034f72fcc225","system_id":"levelo_inurba_marseille","lat":43.27374,"lon":5.36241,"is_reserved":false,"is_disabled":false,"rental_uris":{"android":"levelo://app?vid=6850bdc8-c131-4c80-860c-034f72fcc225","ios":"levelo://app?vid=6850bdc8-c131-4c80-860c-034f72fcc225"},"vehicle_type_id":"4","last_reported":1744301540,"current_range_meters":18000,"station_id":"ce4bhbh2rcd13ifvqeo0","pricing_plan_id":"cebpf4jnsgd1na2vs0mg"},{"bike_id":"1b28a96e-ff57-4bf5-85d0-8da089b3d3cd","system_id":"levelo_inurba_marseille","lat":43.266893,"lon":5.38274,"is_reserved":false,"is_disabled":true,"rental_uris":{"android":"levelo://app?vid=1b28a96e-ff57-4bf5-85d0-8da089b3d3cd","ios":"levelo://app?vid=1b28a96e-ff57-4bf5-85d0-8da089b3d3cd"},"vehicle_type_id":"4","last_reported":1744301540,"current_range_meters":18000,"station_id":"ce4bhg92rcd13ifvqf90","pricing_plan_id":"cebpf4jnsgd1na2vs0mg"},{"bike_id":"6d1f80b1-80e0-4012-99d1-3f8172cadb63","system_id":"levelo_inurba_marseille","lat":43.24204,"lon":5.36401,"is_reserved":false,"is_disabled":false,"rental_uris":{"android":"levelo://app?vid=6d1f80b1-80e0-4012-99d1-3f8172cadb63","ios":"levelo://app?vid=6d1f80b1-80e0-4012-99d1-3f8172cadb63"},"vehicle_type_id":"4","last_reported":1744301540,"current_range_meters":18000,"station_id":"cpo36qri1sfpv3e86is0","pricing_plan_id":"cebpf4jnsgd1na2vs0mg"},{"bike_id":"d37408de-b5d7-4466-8973-ab7c2a7000bc","system_id":"levelo_inurba_marseille","lat":43.29266,"lon":5.3684,"is_reserved":false,"is_disabled":true,"rental_uris":{"android":"levelo://app?vid=d37408de-b5d7-4466-8973-ab7c2a7000bc","ios":"levelo://app?vid=d37408de-b5d7-4466-8973-ab7c2a7000bc"},"vehicle_type_id":"4","last_reported":1744301540,"current_range_meters":18800,"station_id":"ce4bhbp2rcd13ifvqesg","pricing_plan_id":"cebpf4jnsgd1na2vs0mg"},{"bike_id":"ff42e720-a5cd-4862-a292-72d987eaa644","system_id":"levelo_inurba_marseille","lat":43.24804,"lon":5.37454,"is_reserved":false,"is_disabled":false,"rental_uris":{"android":"levelo://app?vid=ff42e720-a5cd-4862-a292-72d987eaa644","ios":"levelo://app?vid=ff42e720-a5cd-4862-a292-72d987eaa644"},"vehicle_type_id":"4","last_reported":1744301540,"current_range_meters":18800,"station_id":"ce4bhgh2rcd13ifvqfb0","pricing_plan_id":"cebpf4jnsgd1na2vs0mg"},{"bike_id":"430c7a17-f4ba-4123-bda7-cc0a01c30950","system_id":"levelo_inurba_marseille","lat":43.27376,"lon":5.36257,"is_reserved":false,"is_disabled":false,"rental_uris":{"android":"levelo://app?vid=430c7a17-f4ba-4123-bda7-cc0a01c30950","ios":"levelo://app?vid=430c7a17-f4ba-4123-bda7-cc0a01c30950"},"vehicle_type_id":"4","last_reported":1744301540,"current_range_meters":18800,"station_id":"ce4bhbh2rcd13ifvqeo0","pricing_plan_id":"cebpf4jnsgd1na2vs0mg"},{"bike_id":"90248019-1973-4cc7-bba8-4c21b7cb3805","system_id":"levelo_inurba_marseille","lat":43.24839,"lon":5.37453,"is_reserved":false,"is_disabled":false,"rental_uris":{"android":"levelo://app?vid=90248019-1973-4cc7-bba8-4c21b7cb3805","ios":"levelo://app?vid=90248019-1973-4cc7-bba8-4c21b7cb3805"},"vehicle_type_id":"4","last_reported":1744301540,"current_range_meters":18800,"station_id":"ce4bhgh2rcd13ifvqfb0","pricing_plan_id":"cebpf4jnsgd1na2vs0mg"},{"bike_id":"41296d85-37fc-42bb-838c-0d3e19348df6","system_id":"levelo_inurba_marseille","lat":43.22501,"lon":5.34784,"is_reserved":false,"is_disabled":false,"rental_uris":{"android":"levelo://app?vid=41296d85-37fc-42bb-838c-0d3e19348df6","ios":"levelo://app?vid=41296d85-37fc-42bb-838c-0d3e19348df6"},"vehicle_type_id":"4","last_reported":1744301540,"current_range_meters":18800,"station_id":"st_cvj5dfep6f1abm77gieg","pricing_plan_id":"cebpf4jnsgd1na2vs0mg"},{"bike_id":"f9000f33-49e8-4d5b-b36b-98eef27f8236","system_id":"levelo_inurba_marseille","lat":43.31712,"lon":5.37742,"is_reserved":false,"is_disabled":false,"rental_uris":{"android":"levelo://app?vid=f9000f33-49e8-4d5b-b36b-98eef27f8236","ios":"levelo://app?vid=f9000f33-49e8-4d5b-b36b-98eef27f8236"},"vehicle_type_id":"4","last_reported":1744301540,"current_range_meters":18800,"station_id":"ce4bgth2rcd13ifvqch0","pricing_plan_id":"cebpf4jnsgd1na2vs0mg"},{"bike_id":"4ee7f4b9-da4a-44e4-98f2-dee1c3fc8f83","system_id":"levelo_inurba_marseille","lat":43.29569,"lon":5.37514,"is_reserved":false,"is_disabled":false,"rental_uris":{"android":"levelo://app?vid=4ee7f4b9-da4a-44e4-98f2-dee1c3fc8f83","ios":"levelo://app?vid=4ee7f4b9-da4a-44e4-98f2-dee1c3fc8f83"},"vehicle_type_id":"4","last_reported":1744301540,"current_range_meters":19200,"station_id":"ce4bgh92rcd13ifvqb50","pricing_plan_id":"cebpf4jnsgd1na2vs0mg"},{"bike_id":"4c893399-b4ed-40ed-a49f-713da320f269","system_id":"levelo_inurba_marseille","lat":43.29861,"lon":5.37841,"is_reserved":false,"is_disabled":false,"rental_uris":{"android":"levelo://app?vid=4c893399-b4ed-40ed-a49f-713da320f269","ios":"levelo://app?vid=4c893399-b4ed-40ed-a49f-713da320f269"},"vehicle_type_id":"4","last_reported":1744301540,"current_range_meters":19200,"station_id":"","pricing_plan_id":"cebpf4jnsgd1na2vs0mg"},{"bike_id":"3c53328f-c052-4ab5-a6af-5f80da3d34e9","system_id":"levelo_inurba_marseille","lat":43.27375,"lon":5.36253,"is_reserved":false,"is_disabled":false,"rental_uris":{"android":"levelo://app?vid=3c53328f-c052-4ab5-a6af-5f80da3d34e9","ios":"levelo://app?vid=3c53328f-c052-4ab5-a6af-5f80da3d34e9"},"vehicle_type_id":"4","last_reported":1744301540,"current_range_meters":19200,"station_id":"ce4bhbh2rcd13ifvqeo0","pricing_plan_id":"cebpf4jnsgd1na2vs0mg"},{"bike_id":"49614e5b-a75c-46bc-bd3b-ba259be95ea8","system_id":"levelo_inurba_marseille","lat":43.28428,"lon":5.34995,"is_reserved":false,"is_disabled":false,"rental_uris":{"android":"levelo://app?vid=49614e5b-a75c-46bc-bd3b-ba259be95ea8","ios":"levelo://app?vid=49614e5b-a75c-46bc-bd3b-ba259be95ea8"},"vehicle_type_id":"4","last_reported":1744301540,"current_range_meters":19200,"station_id":"ce4bhbh2rcd13ifvqepg","pricing_plan_id":"cebpf4jnsgd1na2vs0mg"},{"bike_id":"afe1ece2-9ef2-45e1-87a0-6ee3585187c3","system_id":"levelo_inurba_marseille","lat":43.28941,"lon":5.366,"is_reserved":false,"is_disabled":false,"rental_uris":{"android":"levelo://app?vid=afe1ece2-9ef2-45e1-87a0-6ee3585187c3","ios":"levelo://app?vid=afe1ece2-9ef2-45e1-87a0-6ee3585187c3"},"vehicle_type_id":"4","last_reported":1744301540,"current_range_meters":19200,"station_id":"ce4bhap2rcd13ifvqek0","pricing_plan_id":"cebpf4jnsgd1na2vs0mg"},{"bike_id":"8970a559-23dd-4a79-81d4-b1d8b6134717","system_id":"levelo_inurba_marseille","lat":43.27377,"lon":5.36264,"is_reserved":false,"is_disabled":false,"rental_uris":{"android":"levelo://app?vid=8970a559-23dd-4a79-81d4-b1d8b6134717","ios":"levelo://app?vid=8970a559-23dd-4a79-81d4-b1d8b6134717"},"vehicle_type_id":"4","last_reported":1744301540,"current_range_meters":19600,"station_id":"ce4bhbh2rcd13ifvqeo0","pricing_plan_id":"cebpf4jnsgd1na2vs0mg"},{"bike_id":"c0b2f9c1-a233-47cc-a8b1-01870726a30c","system_id":"levelo_inurba_marseille","lat":43.27381,"lon":5.36246,"is_reserved":false,"is_disabled":false,"rental_uris":{"android":"levelo://app?vid=c0b2f9c1-a233-47cc-a8b1-01870726a30c","ios":"levelo://app?vid=c0b2f9c1-a233-47cc-a8b1-01870726a30c"},"vehicle_type_id":"4","last_reported":1744301540,"current_range_meters":19600,"station_id":"ce4bhbh2rcd13ifvqeo0","pricing_plan_id":"cebpf4jnsgd1na2vs0mg"},{"bike_id":"152a5d0e-d260-4e54-a377-167aa225cbec","system_id":"levelo_inurba_marseille","lat":43.27066,"lon":5.42254,"is_reserved":false,"is_disabled":false,"rental_uris":{"android":"levelo://app?vid=152a5d0e-d260-4e54-a377-167aa225cbec","ios":"levelo://app?vid=152a5d0e-d260-4e54-a377-167aa225cbec"},"vehicle_type_id":"4","last_reported":1744301540,"current_range_meters":19600,"station_id":"ce4bhk92rcd13ifvqgb0","pricing_plan_id":"cebpf4jnsgd1na2vs0mg"},{"bike_id":"3184e0b3-4ab8-4348-9679-fb84c43d9309","system_id":"levelo_inurba_marseille","lat":43.28425,"lon":5.35,"is_reserved":false,"is_disabled":false,"rental_uris":{"android":"levelo://app?vid=3184e0b3-4ab8-4348-9679-fb84c43d9309","ios":"levelo://app?vid=3184e0b3-4ab8-4348-9679-fb84c43d9309"},"vehicle_type_id":"4","last_reported":1744301540,"current_range_meters":19600,"station_id":"ce4bhbh2rcd13ifvqepg","pricing_plan_id":"cebpf4jnsgd1na2vs0mg"},{"bike_id":"b493d9df-4c23-4677-9287-935c5c131174","system_id":"levelo_inurba_marseille","lat":43.28292,"lon":5.35073,"is_reserved":false,"is_disabled":false,"rental_uris":{"android":"levelo://app?vid=b493d9df-4c23-4677-9287-935c5c131174","ios":"levelo://app?vid=b493d9df-4c23-4677-9287-935c5c131174"},"vehicle_type_id":"4","last_reported":1744301540,"current_range_meters":19600,"station_id":"ce4bhbp2rcd13ifvqerg","pricing_plan_id":"cebpf4jnsgd1na2vs0mg"},{"bike_id":"ef291804-1477-432e-b153-82ea15725418","system_id":"levelo_inurba_marseille","lat":43.33742,"lon":5.37454,"is_reserved":false,"is_disabled":false,"rental_uris":{"android":"levelo://app?vid=ef291804-1477-432e-b153-82ea15725418","ios":"levelo://app?vid=ef291804-1477-432e-b153-82ea15725418"},"vehicle_type_id":"4","last_reported":1744301540,"current_range_meters":19600,"station_id":"","pricing_plan_id":"cebpf4jnsgd1na2vs0mg"},{"bike_id":"20c7761f-6d64-45bf-aba2-84086738f8fd","system_id":"levelo_inurba_marseille","lat":43.28083,"lon":5.39645,"is_reserved":false,"is_disabled":false,"rental_uris":{"android":"levelo://app?vid=20c7761f-6d64-45bf-aba2-84086738f8fd","ios":"levelo://app?vid=20c7761f-6d64-45bf-aba2-84086738f8fd"},"vehicle_type_id":"4","last_reported":1744301540,"current_range_meters":19600,"station_id":"ce4bho12rcd13ifvqh2g","pricing_plan_id":"cebpf4jnsgd1na2vs0mg"},{"bike_id":"8c58f2fa-99e1-41f8-bf90-9c1648b679b1","system_id":"levelo_inurba_marseille","lat":43.27304,"lon":5.41416,"is_reserved":false,"is_disabled":false,"rental_uris":{"android":"levelo://app?vid=8c58f2fa-99e1-41f8-bf90-9c1648b679b1","ios":"levelo://app?vid=8c58f2fa-99e1-41f8-bf90-9c1648b679b1"},"vehicle_type_id":"4","last_reported":1744301540,"current_range_meters":19600,"station_id":"","pricing_plan_id":"cebpf4jnsgd1na2vs0mg"},{"bike_id":"014ae910-601d-4e1c-87c7-5863caff4612","system_id":"levelo_inurba_marseille","lat":43.29802,"lon":5.40405,"is_reserved":false,"is_disabled":false,"rental_uris":{"android":"levelo://app?vid=014ae910-601d-4e1c-87c7-5863caff4612","ios":"levelo://app?vid=014ae910-601d-4e1c-87c7-5863caff4612"},"vehicle_type_id":"4","last_reported":1744301540,"current_range_meters":20000,"station_id":"ce4bh112rcd13ifvqd90","pricing_plan_id":"cebpf4jnsgd1na2vs0mg"},{"bike_id":"7666c6b6-ae34-4f36-9c4b-dad790a698bc","system_id":"levelo_inurba_marseille","lat":43.273893,"lon":5.362643,"is_reserved":false,"is_disabled":false,"rental_uris":{"android":"levelo://app?vid=7666c6b6-ae34-4f36-9c4b-dad790a698bc","ios":"levelo://app?vid=7666c6b6-ae34-4f36-9c4b-dad790a698bc"},"vehicle_type_id":"4","last_reported":1744301540,"current_range_meters":20000,"station_id":"ce4bhbh2rcd13ifvqeo0","pricing_plan_id":"cebpf4jnsgd1na2vs0mg"},{"bike_id":"1e3a4019-1a98-4c54-9f03-048c0c783f55","system_id":"levelo_inurba_marseille","lat":43.29628,"lon":5.40604,"is_reserved":false,"is_disabled":false,"rental_uris":{"android":"levelo://app?vid=1e3a4019-1a98-4c54-9f03-048c0c783f55","ios":"levelo://app?vid=1e3a4019-1a98-4c54-9f03-048c0c783f55"},"vehicle_type_id":"4","last_reported":1744301540,"current_range_meters":20000,"station_id":"ce4bh0h2rcd13ifvqd60","pricing_plan_id":"cebpf4jnsgd1na2vs0mg"},{"bike_id":"52fad851-c799-4f65-b2f4-8ae46b143445","system_id":"levelo_inurba_marseille","lat":43.2762,"lon":5.36105,"is_reserved":false,"is_disabled":false,"rental_uris":{"android":"levelo://app?vid=52fad851-c799-4f65-b2f4-8ae46b143445","ios":"levelo://app?vid=52fad851-c799-4f65-b2f4-8ae46b143445"},"vehicle_type_id":"4","last_reported":1744301540,"current_range_meters":20000,"station_id":"ce4bgj92rcd13ifvqbe0","pricing_plan_id":"cebpf4jnsgd1na2vs0mg"},{"bike_id":"b1f7b03d-c30d-481d-8ff5-02f4c5b401c0","system_id":"levelo_inurba_marseille","lat":43.29312,"lon":5.3746,"is_reserved":false,"is_disabled":false,"rental_uris":{"android":"levelo://app?vid=b1f7b03d-c30d-481d-8ff5-02f4c5b401c0","ios":"levelo://app?vid=b1f7b03d-c30d-481d-8ff5-02f4c5b401c0"},"vehicle_type_id":"4","last_reported":1744301540,"current_range_meters":19600,"station_id":"ce4bgi12rcd13ifvqb70","pricing_plan_id":"cebpf4jnsgd1na2vs0mg"},{"bike_id":"3aeefde0-86c5-43d9-90a0-a9727b88a833","system_id":"levelo_inurba_marseille","lat":43.30291,"lon":5.3922,"is_reserved":false,"is_disabled":false,"rental_uris":{"android":"levelo://app?vid=3aeefde0-86c5-43d9-90a0-a9727b88a833","ios":"levelo://app?vid=3aeefde0-86c5-43d9-90a0-a9727b88a833"},"vehicle_type_id":"4","last_reported":1744301540,"current_range_meters":20000,"station_id":"ce4bgkh2rcd13ifvqbk0","pricing_plan_id":"cebpf4jnsgd1na2vs0mg"},{"bike_id":"9d8fbc44-12ad-49a8-85e6-784aeb55b51c","system_id":"levelo_inurba_marseille","lat":43.30945,"lon":5.40161,"is_reserved":false,"is_disabled":false,"rental_uris":{"android":"levelo://app?vid=9d8fbc44-12ad-49a8-85e6-784aeb55b51c","ios":"levelo://app?vid=9d8fbc44-12ad-49a8-85e6-784aeb55b51c"},"vehicle_type_id":"4","last_reported":1744301540,"current_range_meters":20000,"station_id":"ce4bgvp2rcd13ifvqct0","pricing_plan_id":"cebpf4jnsgd1na2vs0mg"},{"bike_id":"51221f15-f87a-4e01-aa26-57a833c53c9c","system_id":"levelo_inurba_marseille","lat":43.282667,"lon":5.350574,"is_reserved":false,"is_disabled":false,"rental_uris":{"android":"levelo://app?vid=51221f15-f87a-4e01-aa26-57a833c53c9c","ios":"levelo://app?vid=51221f15-f87a-4e01-aa26-57a833c53c9c"},"vehicle_type_id":"4","last_reported":1744301540,"current_range_meters":20000,"station_id":"ce4bgih2rcd13ifvqba0","pricing_plan_id":"cebpf4jnsgd1na2vs0mg"},{"bike_id":"e4e67622-b0d8-4f09-affe-60de3787151a","system_id":"levelo_inurba_marseille","lat":43.28028,"lon":5.36939,"is_reserved":false,"is_disabled":false,"rental_uris":{"android":"levelo://app?vid=e4e67622-b0d8-4f09-affe-60de3787151a","ios":"levelo://app?vid=e4e67622-b0d8-4f09-affe-60de3787151a"},"vehicle_type_id":"4","last_reported":1744301540,"current_range_meters":20000,"station_id":"ce4bha12rcd13ifvqef0","pricing_plan_id":"cebpf4jnsgd1na2vs0mg"},{"bike_id":"c8e26c76-e99e-461f-a2f4-f526524f0f50","system_id":"levelo_inurba_marseille","lat":43.26561,"lon":5.37284,"is_reserved":false,"is_disabled":false,"rental_uris":{"android":"levelo://app?vid=c8e26c76-e99e-461f-a2f4-f526524f0f50","ios":"levelo://app?vid=c8e26c76-e99e-461f-a2f4-f526524f0f50"},"vehicle_type_id":"4","last_reported":1744301540,"current_range_meters":20400,"station_id":"ce4bhg12rcd13ifvqf70","pricing_plan_id":"cebpf4jnsgd1na2vs0mg"},{"bike_id":"b2abdc21-a330-4671-a1ed-c6f3fc8b0209","system_id":"levelo_inurba_marseille","lat":43.2841,"lon":5.35005,"is_reserved":false,"is_disabled":false,"rental_uris":{"android":"levelo://app?vid=b2abdc21-a330-4671-a1ed-c6f3fc8b0209","ios":"levelo://app?vid=b2abdc21-a330-4671-a1ed-c6f3fc8b0209"},"vehicle_type_id":"4","last_reported":1744301540,"current_range_meters":20400,"station_id":"ce4bhbh2rcd13ifvqepg","pricing_plan_id":"cebpf4jnsgd1na2vs0mg"},{"bike_id":"41a08f13-8890-4d9d-b753-288047048068","system_id":"levelo_inurba_marseille","lat":43.27382,"lon":5.36292,"is_reserved":false,"is_disabled":false,"rental_uris":{"android":"levelo://app?vid=41a08f13-8890-4d9d-b753-288047048068","ios":"levelo://app?vid=41a08f13-8890-4d9d-b753-288047048068"},"vehicle_type_id":"4","last_reported":1744301540,"current_range_meters":20400,"station_id":"ce4bhbh2rcd13ifvqeo0","pricing_plan_id":"cebpf4jnsgd1na2vs0mg"},{"bike_id":"dbd0cb4b-b116-40a0-96b9-ae7492b93d1a","system_id":"levelo_inurba_marseille","lat":43.29785,"lon":5.3935,"is_reserved":false,"is_disabled":false,"rental_uris":{"android":"levelo://app?vid=dbd0cb4b-b116-40a0-96b9-ae7492b93d1a","ios":"levelo://app?vid=dbd0cb4b-b116-40a0-96b9-ae7492b93d1a"},"vehicle_type_id":"4","last_reported":1744301540,"current_range_meters":20400,"station_id":"chh1huq6cuj3fo74tm60","pricing_plan_id":"cebpf4jnsgd1na2vs0mg"},{"bike_id":"0f4875fa-48b8-4c9f-b590-4b3b1e51c5d8","system_id":"levelo_inurba_marseille","lat":43.28421,"lon":5.34973,"is_reserved":false,"is_disabled":false,"rental_uris":{"android":"levelo://app?vid=0f4875fa-48b8-4c9f-b590-4b3b1e51c5d8","ios":"levelo://app?vid=0f4875fa-48b8-4c9f-b590-4b3b1e51c5d8"},