{"last_updated":1717243995,"ttl":30,"version":"2.2","data":{"bikes":[{"bike_id":"bae96671-fe4f-42d1-a985-71b32feddb17","system_id":"levelo_inurba_marseille","lat":43.313391,"lon":5.36706,"is_reserved":false,"is_disabled":false,"rental_uris":{"android":"levelo://app?vid=bae96671-fe4f-42d1-a985-71b32feddb17","ios":"levelo://app?vid=bae96671-fe4f-42d1-a985-71b32feddb17"},"vehicle_type_id":"4","last_reported":1717243995,"current_range_meters":26800,"station_id":"ce4bgr92rcd13ifvqc6g","pricing_plan_id":"cebpf4jnsgd1na2vs0mg"},{"bike_id":"578d900a-f88b-4da2-ad35-ff2bbd11eb8f","system_id":"levelo_inurba_marseille","lat":43.31341,"lon":5.367098,"is_reserved":false,"is_disabled":false,"rental_uris":{"android":"levelo://app?vid=578d900a-f88b-4da2-ad35-ff2bbd11eb8f","ios":"levelo://app?vid=578d900a-f88b-4da2-ad35-ff2bbd11eb8f"},"vehicle_type_id":"4","last_reported":1717243995,"current_range_meters":24800,"station_id":"ce4bgr92rcd13ifvqc6g","pricing_plan_id":"cebpf4jnsgd1na2vs0mg"},{"bike_id":"4c8feb69-d09a-4b26-b00d-849f4cccd218","system_id":"levelo_inurba_marseille","lat":43.31341,"lon":5.367098,"is_reserved":false,"is_disabled":false,"rental_uris":{"android":"levelo://app?vid=4c8feb69-d09a-4b26-b00d-849f4cccd218","ios":"levelo://app?vid=4c8feb69-d09a-4b26-b00d-849f4cccd218"},"vehicle_type_id":"4","last_reported":1717243995,"current_range_meters":17600,"station_id":"ce4bgr92rcd13ifvqc6g","pricing_plan_id":"cebpf4jnsgd1na2vs0mg"},{"bike_id":"74f49e7d-df27-4222-ad53-531666b3a6a6","system_id":"levelo_inurba_marseille","lat":43.313391,"lon":5.36706,"is_reserved":false,"is_disabled":false,"rental_uris":{"android":"levelo://app?vid=74f49e7d-df27-4222-ad53-531666b3a6a6","ios":"levelo://app?vid=74f49e7d-df27-4222-ad53-531666b3a6a6"},"vehicle_type_id":"4","last_reported":1717243995,"current_range_meters":29200,"station_id":"ce4bgr92rcd13ifvqc6g","pricing_plan_id":"cebpf4jnsgd1na2vs0mg"},{"bike_id":"207960f0-816b-4d2b-adf8-b9adce403efc","system_id":"levelo_inurba_marseille","lat":43.312239,"lon":5.368562,"is_reserved":false,"is_disabled":false,"rental_uris":{"android":"levelo://app?vid=207960f0-816b-4d2b-adf8-b9adce403efc","ios":"levelo://app?vid=207960f0-816b-4d2b-adf8-b9adce403efc"},"vehicle_type_id":"4","last_reported":1717243995,"current_range_meters":21200,"station_id":"ce4bgl92rcd13ifvqbq0","pricing_plan_id":"cebpf4jnsgd1na2vs0mg"},{"bike_id":"03bccedd-5e85-4735-8649-c0c4f12c1228","system_id":"levelo_inurba_marseille","lat":43.31232,"lon":5.368457,"is_reserved":false,"is_disabled":false,"rental_uris":{"android":"levelo://app?vid=03bccedd-5e85-4735-8649-c0c4f12c1228","ios":"levelo://app?vid=03bccedd-5e85-4735-8649-c0c4f12c1228"},"vehicle_type_id":"4","last_reported":1717243995,"current_range_meters":2000,"station_id":"ce4bgl92rcd13ifvqbq0","pricing_plan_id":"cebpf4jnsgd1na2vs0mg"},{"bike_id":"9741f965-7903-4e61-a16c-54a75e0cd2b0","system_id":"levelo_inurba_marseille","lat":43.312239,"lon":5.368562,"is_reserved":false,"is_disabled":false,"rental_uris":{"android":"levelo://app?vid=9741f965-7903-4e61-a16c-54a75e0cd2b0","ios":"levelo://app?vid=9741f965-7903-4e61-a16c-54a75e0cd2b0"},"vehicle_type_id":"4","last_reported":1717243995,"current_range_meters":23200,"station_id":"ce4bgl92rcd13ifvqbq0","pricing_plan_id":"cebpf4jnsgd1na2vs0mg"},{"bike_id":"1946689c-75f0-40ec-b598-90b8c0ec71f8","system_id":"levelo_inurba_marseille","lat":43.312239,"lon":5.368562,"is_reserved":false,"is_disabled":false,"rental_uris":{"android":"levelo://app?vid=1946689c-75f0-40ec-b598-90b8c0ec71f8","ios":"levelo://app?vid=1946689c-75f0-40ec-b598-90b8c0ec71f8"},"vehicle_type_id":"4","last_reported":1717243995,"current_range_meters":22800,"station_id":"ce4bgl92rcd13ifvqbq0","pricing_plan_id":"cebpf4jnsgd1na2vs0mg"},{"bike_id":"f472ffd6-6e89-4b3f-a7dc-3f6c7ec1f7ea","system_id":"levelo_inurba_marseille","lat":43.312239,"lon":5.368562,"is_reserved":false,"is_disabled":false,"rental_uris":{"android":"levelo://app?vid=f472ffd6-6e89-4b3f-a7dc-3f6c7ec1f7ea","ios":"levelo://app?vid=f472ffd6-6e89-4b3f-a7dc-3f6c7ec1f7ea"},"vehicle_type_id":"4","last_reported":1717243995,"current_range_meters":25200,"station_id":"ce4bgl92rcd13ifvqbq0","pricing_plan_id":"cebpf4jnsgd1na2vs0mg"},{"bike_id":"2f911429-33d5-4376-b514-8ce591c04d5e","system_id":"levelo_inurba_marseille","lat":43.312239,"lon":5.368562,"is_reserved":false,"is_disabled":false,"rental_uris":{"android":"levelo://app?vid=2f911429-33d5-4376-b514-8ce591c04d5e","ios":"levelo://app?vid=2f911429-33d5-4376-b514-8ce591c04d5e"},"vehicle_type_id":"4","last_reported":1717243995,"current_range_meters":24000,"station_id":"ce4bgl92rcd13ifvqbq0","pricing_plan_id":"cebpf4jnsgd1na2vs0mg"},{"bike_id":"0353bda5-5314-4cf2-879d-20651a7b0a80","system_id":"levelo_inurba_marseille","lat":43.312239,"lon":5.368562,"is_reserved":false,"is_disabled":false,"rental_uris":{"android":"levelo://app?vid=0353bda5-5314-4cf2-879d-20651a7b0a80","ios":"levelo://app?vid=0353bda5-5314-4cf2-879d-20651a7b0a80"},"vehicle_type_id":"4","last_reported":1717243995,"current_range_meters":22000,"station_id":"ce4bgl92rcd13ifvqbq0","pricing_plan_id":"cebpf4jnsgd1na2vs0mg"},{"bike_id":"7d1d7f30-e999-48b5-bef7-5f58014d9a20","system_id":"levelo_inurba_marseille","lat":43.312239,"lon":5.368562,"is_reserved":false,"is_disabled":false,"rental_uris":{"android":"levelo://app?vid=7d1d7f30-e999-48b5-bef7-5f58014d9a20","ios":"levelo://app?vid=7d1d7f30-e999-48b5-bef7-5f58014d9a20"},"vehicle_type_id":"4","last_reported":1717243995,"current_range_meters":4400,"station_id":"ce4bgl92rcd13ifvqbq0","pricing_plan_id":"cebpf4jnsgd1na2vs0mg"},{"bike_id":"2fb7fed1-8d46-4367-9fac-3416c2e76661","system_id":"levelo_inurba_marseille","lat":43.309076,"lon":5.368465,"is_reserved":false,"is_disabled":false,"rental_uris":{"android":"levelo://app?vid=2fb7fed1-8d46-4367-9fac-3416c2e76661","ios":"levelo://app?vid=2fb7fed1-8d46-4367-9fac-3416c2e76661"},"vehicle_type_id":"4","last_reported":1717243995,"current_range_meters":22800,"station_id":"ce4bgn92rcd13ifvqbvg","pricing_plan_id":"cebpf4jnsgd1na2vs0mg"},{"bike_id":"916fe8fd-a652-438a-9326-9c1e100d4940","system_id":"levelo_inurba_marseille","lat":43.314811,"lon":5.373104,"is_reserved":false,"is_disabled":false,"rental_uris":{"android":"levelo://app?vid=916fe8fd-a652-438a-9326-9c1e100d4940","ios":"levelo://app?vid=916fe8fd-a652-438a-9326-9c1e100d4940"},"vehicle_type_id":"4","last_reported":1717243995,"current_range_meters":30400,"station_id":"ce4bgt12rcd13ifvqcd0","pricing_plan_id":"cebpf4jnsgd1na2vs0mg"},{"bike_id":"ee221e19-7f10-4e80-96c7-d85f3e8e72db","system_id":"levelo_inurba_marseille","lat":43.309034,"lon":5.371783,"is_reserved":false,"is_disabled":false,"rental_uris":{"android":"levelo://app?vid=ee221e19-7f10-4e80-96c7-d85f3e8e72db","ios":"levelo://app?vid=ee221e19-7f10-4e80-96c7-d85f3e8e72db"},"vehicle_type_id":"4","last_reported":1717243995,"current_range_meters":14800,"station_id":"ce4bguh2rcd13ifvqckg","pricing_plan_id":"cebpf4jnsgd1na2vs0mg"},{"bike_id":"a066b891-2dd6-4236-a4a2-82a677a513db","system_id":"levelo_inurba_marseille","lat":43.309034,"lon":5.371783,"is_reserved":false,"is_disabled":false,"rental_uris":{"android":"levelo://app?vid=a066b891-2dd6-4236-a4a2-82a677a513db","ios":"levelo://app?vid=a066b891-2dd6-4236-a4a2-82a677a513db"},"vehicle_type_id":"4","last_reported":1717243995,"current_range_meters":6000,"station_id":"ce4bguh2rcd13ifvqckg","pricing_plan_id":"cebpf4jnsgd1na2vs0mg"},{"bike_id":"4d2f32a2-68c1-4c58-9a2c-6edd6d7aadd7","system_id":"levelo_inurba_marseille","lat":43.309034,"lon":5.371783,"is_reserved":false,"is_disabled":false,"rental_uris":{"android":"levelo://app?vid=4d2f32a2-68c1-4c58-9a2c-6edd6d7aadd7","ios":"levelo://app?vid=4d2f32a2-68c1-4c58-9a2c-6edd6d7aadd7"},"vehicle_type_id":"4","last_reported":1717243995,"current_range_meters":30800,"station_id":"ce4bguh2rcd13ifvqckg","pricing_plan_id":"cebpf4jnsgd1na2vs0mg"},{"bike_id":"3f5661a6-5dc7-447d-9dce-cdfb9840777f","system_id":"levelo_inurba_marseille","lat":43.309034,"lon":5.371783,"is_reserved":false,"is_disabled":false,"rental_uris":{"android":"levelo://app?vid=3f5661a6-5dc7-447d-9dce-cdfb9840777f","ios":"levelo://app?vid=3f5661a6-5dc7-447d-9dce-cdfb9840777f"},"vehicle_type_id":"4","last_reported":1717243995,"current_range_meters":24400,"station_id":"ce4bguh2rcd13ifvqckg","pricing_plan_id":"cebpf4jnsgd1na2vs0mg"},{"bike_id":"31451bee-a762-4806-8835-8064dd493be8","system_id":"levelo_inurba_marseille","lat":43.305368,"lon":5.367343,"is_reserved":false,"is_disabled":false,"rental_uris":{"android":"levelo://app?vid=31451bee-a762-4806-8835-8064dd493be8","ios":"levelo://app?vid=31451bee-a762-4806-8835-8064dd493be8"},"vehicle_type_id":"4","last_reported":1717243995,"current_range_meters":27600,"station_id":"ce4bgrp2rcd13ifvqc9g","pricing_plan_id":"cebpf4jnsgd1na2vs0mg"},{"bike_id":"0a1faccf-895f-4111-85af-2fa70fd03cce","system_id":"levelo_inurba_marseille","lat":43.305712,"lon":5.365641,"is_reserved":false,"is_disabled":false,"rental_uris":{"android":"levelo://app?vid=0a1faccf-895f-4111-85af-2fa70fd03cce","ios":"levelo://app?vid=0a1faccf-895f-4111-85af-2fa70fd03cce"},"vehicle_type_id":"4","last_reported":1717243995,"current_range_meters":9200,"station_id":"ce4bgs12rcd13ifvqcag","pricing_plan_id":"cebpf4jnsgd1na2vs0mg"},{"bike_id":"e7e798d3-0729-4d95-b98a-dbd53f59e915","system_id":"levelo_inurba_marseille","lat":43.30601,"lon":5.37211,"is_reserved":false,"is_disabled":false,"rental_uris":{"android":"levelo://app?vid=e7e798d3-0729-4d95-b98a-dbd53f59e915","ios":"levelo://app?vid=e7e798d3-0729-4d95-b98a-dbd53f59e915"},"vehicle_type_id":"4","last_reported":1717243995,"current_range_meters":5600,"station_id":"ce4bgqh2rcd13ifvqc4g","pricing_plan_id":"cebpf4jnsgd1na2vs0mg"},{"bike_id":"f305fecb-55c8-4f80-a115-d4268a65e7c6","system_id":"levelo_inurba_marseille","lat":43.305989,"lon":5.37225,"is_reserved":false,"is_disabled":false,"rental_uris":{"android":"levelo://app?vid=f305fecb-55c8-4f80-a115-d4268a65e7c6","ios":"levelo://app?vid=f305fecb-55c8-4f80-a115-d4268a65e7c6"},"vehicle_type_id":"4","last_reported":1717243995,"current_range_meters":30400,"station_id":"ce4bgqh2rcd13ifvqc4g","pricing_plan_id":"cebpf4jnsgd1na2vs0mg"},{"bike_id":"c67b984f-6635-4c44-a421-fa8d75892616","system_id":"levelo_inurba_marseille","lat":43.305989,"lon":5.37225,"is_reserved":false,"is_disabled":false,"rental_uris":{"android":"levelo://app?vid=c67b984f-6635-4c44-a421-fa8d75892616","ios":"levelo://app?vid=c67b984f-6635-4c44-a421-fa8d75892616"},"vehicle_type_id":"4","last_reported":1717243995,"current_range_meters":32000,"station_id":"ce4bgqh2rcd13ifvqc4g","pricing_plan_id":"cebpf4jnsgd1na2vs0mg"},{"bike_id":"32f2cc59-fe47-41b0-b0dd-3da3856986fe","system_id":"levelo_inurba_marseille","lat":43.305989,"lon":5.37225,"is_reserved":false,"is_disabled":false,"rental_uris":{"android":"levelo://app?vid=32f2cc59-fe47-41b0-b0dd-3da3856986fe","ios":"levelo://app?vid=32f2cc59-fe47-41b0-b0dd-3da3856986fe"},"vehicle_type_id":"4","last_reported":1717243995,"current_range_meters":31600,"station_id":"ce4bgqh2rcd13ifvqc4g","pricing_plan_id":"cebpf4jnsgd1na2vs0mg"},{"bike_id":"c49bf669-436d-46db-baca-51cc64ff536d","system_id":"levelo_inurba_marseille","lat":43.305989,"lon":5.37225,"is_reserved":false,"is_disabled":false,"rental_uris":{"android":"levelo://app?vid=c49bf669-436d-46db-baca-51cc64ff536d","ios":"levelo://app?vid=c49bf669-436d-46db-baca-51cc64ff536d"},"vehicle_type_id":"4","last_reported":1717243995,"current_range_meters":31600,"station_id":"ce4bgqh2rcd13ifvqc4g","pricing_plan_id":"cebpf4jnsgd1na2vs0mg"},{"bike_id":"608f50c6-657d-49b2-996c-e86c13baf5f6","system_id":"levelo_inurba_marseille","lat":43.30604,"lon":5.37229,"is_reserved":false,"is_disabled":false,"rental_uris":{"android":"levelo://app?vid=608f50c6-657d-49b2-996c-e86c13baf5f6","ios":"levelo://app?vid=608f50c6-657d-49b2-996c-e86c13baf5f6"},"vehicle_type_id":"4","last_reported":1717243995,"current_range_meters":22800,"station_id":"ce4bgqh2rcd13ifvqc4g","pricing_plan_id":"cebpf4jnsgd1na2vs0mg"},{"bike_id":"1de427b0-9cb6-47cd-9c09-6b71dff4d5e1","system_id":"levelo_inurba_marseille","lat":43.30595,"lon":5.37219,"is_reserved":false,"is_disabled":false,"rental_uris":{"android":"levelo://app?vid=1de427b0-9cb6-47cd-9c09-6b71dff4d5e1","ios":"levelo://app?vid=1de427b0-9cb6-47cd-9c09-6b71dff4d5e1"},"vehicle_type_id":"4","last_reported":1717243995,"current_range_meters":17200,"station_id":"ce4bgqh2rcd13ifvqc4g","pricing_plan_id":"cebpf4jnsgd1na2vs0mg"},{"bike_id":"342093c9-2bb0-4f63-a881-f5bb0d74f4b5","system_id":"levelo_inurba_marseille","lat":43.305989,"lon":5.37225,"is_reserved":false,"is_disabled":false,"rental_uris":{"android":"levelo://app?vid=342093c9-2bb0-4f63-a881-f5bb0d74f4b5","ios":"levelo://app?vid=342093c9-2bb0-4f63-a881-f5bb0d74f4b5"},"vehicle_type_id":"4","last_reported":1717243995,"current_range_meters":24400,"station_id":"ce4bgqh2rcd13ifvqc4g","pricing_plan_id":"cebpf4jnsgd1na2vs0mg"},{"bike_id":"18d93614-2f7a-40f8-acbe-b2826fb82f09","system_id":"levelo_inurba_marseille","lat":43.305989,"lon":5.37225,"is_reserved":false,"is_disabled":false,"rental_uris":{"android":"levelo://app?vid=18d93614-2f7a-40f8-acbe-b2826fb82f09","ios":"levelo://app?vid=18d93614-2f7a-40f8-acbe-b2826fb82f09"},"vehicle_type_id":"4","last_reported":1717243995,"current_range_meters":13600,"station_id":"ce4bgqh2rcd13ifvqc4g","pricing_plan_id":"cebpf4jnsgd1na2vs0mg"},{"bike_id":"dcc19095-6afd-4334-89fc-e18122ed3f0d","system_id":"levelo_inurba_marseille","lat":43.311125,"lon":5.377624,"is_reserved":false,"is_disabled":false,"rental_uris":{"android":"levelo://app?vid=dcc19095-6afd-4334-89fc-e18122ed3f0d","ios":"levelo://app?vid=dcc19095-6afd-4334-89fc-e18122ed3f0d"},"vehicle_type_id":"4","last_reported":1717243995,"current_range_meters":1200,"station_id":"ce4bgt92rcd13ifvqcg0","pricing_plan_id":"cebpf4jnsgd1na2vs0mg"},{"bike_id":"ba81ac85-e390-4f46-a716-df3980c0963e","system_id":"levelo_inurba_marseille","lat":43.307945,"lon":5.376487,"is_reserved":false,"is_disabled":false,"rental_uris":{"android":"levelo://app?vid=ba81ac85-e390-4f46-a716-df3980c0963e","ios":"levelo://app?vid=ba81ac85-e390-4f46-a716-df3980c0963e"},"vehicle_type_id":"4","last_reported":1717243995,"current_range_meters":7600,"station_id":"ce4bgv92rcd13ifvqcq0","pricing_plan_id":"cebpf4jnsgd1na2vs0mg"},{"bike_id":"84a1a43c-7b7e-4a76-b75f-bc45619f4086","system_id":"levelo_inurba_marseille","lat":43.307945,"lon":5.376487,"is_reserved":false,"is_disabled":false,"rental_uris":{"android":"levelo://app?vid=84a1a43c-7b7e-4a76-b75f-bc45619f4086","ios":"levelo://app?vid=84a1a43c-7b7e-4a76-b75f-bc45619f4086"},"vehicle_type_id":"4","last_reported":1717243995,"current_range_meters":30000,"station_id":"ce4bgv92rcd13ifvqcq0","pricing_plan_id":"cebpf4jnsgd1na2vs0mg"},{"bike_id":"29b1fa51-a54a-468d-9049-6a45d6e1e743","system_id":"levelo_inurba_marseille","lat":43.317155,"lon":5.377418,"is_reserved":false,"is_disabled":false,"rental_uris":{"android":"levelo://app?vid=29b1fa51-a54a-468d-9049-6a45d6e1e743","ios":"levelo://app?vid=29b1fa51-a54a-468d-9049-6a45d6e1e743"},"vehicle_type_id":"4","last_reported":1717243995,"current_range_meters":29200,"station_id":"ce4bgth2rcd13ifvqch0","pricing_plan_id":"cebpf4jnsgd1na2vs0mg"},{"bike_id":"cf99b40d-f588-48bf-90e7-89980ea0172a","system_id":"levelo_inurba_marseille","lat":43.317075,"lon":5.377367,"is_reserved":false,"is_disabled":false,"rental_uris":{"android":"levelo://app?vid=cf99b40d-f588-48bf-90e7-89980ea0172a","ios":"levelo://app?vid=cf99b40d-f588-48bf-90e7-89980ea0172a"},"vehicle_type_id":"4","last_reported":1717243995,"current_range_meters":17600,"station_id":"ce4bgth2rcd13ifvqch0","pricing_plan_id":"cebpf4jnsgd1na2vs0mg"},{"bike_id":"d2554a6a-a675-43d8-bc69-61542699c42d","system_id":"levelo_inurba_marseille","lat":43.303046,"lon":5.368981,"is_reserved":false,"is_disabled":false,"rental_uris":{"android":"levelo://app?vid=d2554a6a-a675-43d8-bc69-61542699c42d","ios":"levelo://app?vid=d2554a6a-a675-43d8-bc69-61542699c42d"},"vehicle_type_id":"4","last_reported":1717243995,"current_range_meters":800,"station_id":"ce4bgqh2rcd13ifvqc5g","pricing_plan_id":"cebpf4jnsgd1na2vs0mg"},{"bike_id":"129d64c9-9732-4603-a8eb-cb1c9a42c5c7","system_id":"levelo_inurba_marseille","lat":43.30306,"lon":5.36901,"is_reserved":false,"is_disabled":false,"rental_uris":{"android":"levelo://app?vid=129d64c9-9732-4603-a8eb-cb1c9a42c5c7","ios":"levelo://app?vid=129d64c9-9732-4603-a8eb-cb1c9a42c5c7"},"vehicle_type_id":"4","last_reported":1717243995,"current_range_meters":0,"station_id":"ce4bgqh2rcd13ifvqc5g","pricing_plan_id":"cebpf4jnsgd1na2vs0mg"},{"bike_id":"624aecae-4b6e-4515-81dd-6d1c01530ccc","system_id":"levelo_inurba_marseille","lat":43.315293,"lon":5.380349,"is_reserved":false,"is_disabled":false,"rental_uris":{"android":"levelo://app?vid=624aecae-4b6e-4515-81dd-6d1c01530ccc","ios":"levelo://app?vid=624aecae-4b6e-4515-81dd-6d1c01530ccc"},"vehicle_type_id":"4","last_reported":1717243995,"current_range_meters":0,"station_id":"ce4bhsp2rcd13ifvqi50","pricing_plan_id":"cebpf4jnsgd1na2vs0mg"},{"bike_id":"3d593d6f-52bd-4125-9c7c-76d52cd6e820","system_id":"levelo_inurba_marseille","lat":43.315293,"lon":5.380349,"is_reserved":false,"is_disabled":false,"rental_uris":{"android":"levelo://app?vid=3d593d6f-52bd-4125-9c7c-76d52cd6e820","ios":"levelo://app?vid=3d593d6f-52bd-4125-9c7c-76d52cd6e820"},"vehicle_type_id":"4","last_reported":1717243995,"current_range_meters":2000,"station_id":"ce4bhsp2rcd13ifvqi50","pricing_plan_id":"cebpf4jnsgd1na2vs0mg"},{"bike_id":"e7f997a1-8a45-4fc8-b49f-56d978c50731","system_id":"levelo_inurba_marseille","lat":43.301939,"lon":5.366286,"is_reserved":false,"is_disabled":false,"rental_uris":{"android":"levelo://app?vid=e7f997a1-8a45-4fc8-b49f-56d978c50731","ios":"levelo://app?vid=e7f997a1-8a45-4fc8-b49f-56d978c50731"},"vehicle_type_id":"4","last_reported":1717243995,"current_range_meters":29200,"station_id":"ce4bgrh2rcd13ifvqc8g","pricing_plan_id":"cebpf4jnsgd1na2vs0mg"},{"bike_id":"ff5fa241-217f-46c7-9db5-0600f833ad7a","system_id":"levelo_inurba_marseille","lat":43.301939,"lon":5.366286,"is_reserved":false,"is_disabled":false,"rental_uris":{"android":"levelo://app?vid=ff5fa241-217f-46c7-9db5-0600f833ad7a","ios":"levelo://app?vid=ff5fa241-217f-46c7-9db5-0600f833ad7a"},"vehicle_type_id":"4","last_reported":1717243995,"current_range_meters":6400,"station_id":"ce4bgrh2rcd13ifvqc8g","pricing_plan_id":"cebpf4jnsgd1na2vs0mg"},{"bike_id":"f7681ffa-fede-4693-ab88-9d2e20f853d8","system_id":"levelo_inurba_marseille","lat":43.304606,"lon":5.379026,"is_reserved":false,"is_disabled":false,"rental_uris":{"android":"levelo://app?vid=f7681ffa-fede-4693-ab88-9d2e20f853d8","ios":"levelo://app?vid=f7681ffa-fede-4693-ab88-9d2e20f853d8"},"vehicle_type_id":"4","last_reported":1717243995,"current_range_meters":23600,"station_id":"ce4bgup2rcd13ifvqcn0","pricing_plan_id":"cebpf4jnsgd1na2vs0mg"},{"bike_id":"66e91302-d8ad-451b-8297-e17edd42aec7","system_id":"levelo_inurba_marseille","lat":43.304787,"lon":5.379125,"is_reserved":false,"is_disabled":false,"rental_uris":{"android":"levelo://app?vid=66e91302-d8ad-451b-8297-e17edd42aec7","ios":"levelo://app?vid=66e91302-d8ad-451b-8297-e17edd42aec7"},"vehicle_type_id":"4","last_reported":1717243995,"current_range_meters":13200,"station_id":"ce4bgup2rcd13ifvqcn0","pricing_plan_id":"cebpf4jnsgd1na2vs0mg"},{"bike_id":"376d21fb-c6a5-4e45-a9fb-b1b5a5daab7a","system_id":"levelo_inurba_marseille","lat":43.304606,"lon":5.379026,"is_reserved":false,"is_disabled":false,"rental_uris":{"android":"levelo://app?vid=376d21fb-c6a5-4e45-a9fb-b1b5a5daab7a","ios":"levelo://app?vid=376d21fb-c6a5-4e45-a9fb-b1b5a5daab7a"},"vehicle_type_id":"4","last_reported":1717243995,"current_range_meters":10000,"station_id":"ce4bgup2rcd13ifvqcn0","pricing_plan_id":"cebpf4jnsgd1na2vs0mg"},{"bike_id":"24511d53-b8ea-4e4e-bb2f-5ebdf2ac7519","system_id":"levelo_inurba_marseille","lat":43.304606,"lon":5.379026,"is_reserved":false,"is_disabled":false,"rental_uris":{"android":"levelo://app?vid=24511d53-b8ea-4e4e-bb2f-5ebdf2ac7519","ios":"levelo://app?vid=24511d53-b8ea-4e4e-bb2f-5ebdf2ac7519"},"vehicle_type_id":"4","last_reported":1717243995,"current_range_meters":30400,"station_id":"ce4bgup2rcd13ifvqcn0","pricing_plan_id":"cebpf4jnsgd1na2vs0mg"},{"bike_id":"fe4a2d04-95c7-4bdf-91b4-6b842392b1ca","system_id":"levelo_inurba_marseille","lat":43.304606,"lon":5.379026,"is_reserved":false,"is_disabled":false,"rental_uris":{"android":"levelo://app?vid=fe4a2d04-95c7-4bdf-91b4-6b842392b1ca","ios":"levelo://app?vid=fe4a2d04-95c7-4bdf-91b4-6b842392b1ca"},"vehicle_type_id":"4","last_reported":1717243995,"current_range_meters":32000,"station_id":"ce4bgup2rcd13ifvqcn0","pricing_plan_id":"cebpf4jnsgd1na2vs0mg"},{"bike_id":"b5afe5fd-422a-4278-b0ad-a757e538dc57","system_id":"levelo_inurba_marseille","lat":43.304606,"lon":5.379026,"is_reserved":false,"is_disabled":false,"rental_uris":{"android":"levelo://app?vid=b5afe5fd-422a-4278-b0ad-a757e538dc57","ios":"levelo://app?vid=b5afe5fd-422a-4278-b0ad-a757e538dc57"},"vehicle_type_id":"4","last_reported":1717243995,"current_range_meters":26400,"station_id":"ce4bgup2rcd13ifvqcn0","pricing_plan_id":"cebpf4jnsgd1na2vs0mg"},{"bike_id":"dbda0271-004f-4b48-8656-5e1fb89c83b8","system_id":"levelo_inurba_marseille","lat":43.304606,"lon":5.379026,"is_reserved":false,"is_disabled":false,"rental_uris":{"android":"levelo://app?vid=dbda0271-004f-4b48-8656-5e1fb89c83b8","ios":"levelo://app?vid=dbda0271-004f-4b48-8656-5e1fb89c83b8"},"vehicle_type_id":"4","last_reported":1717243995,"current_range_meters":19600,"station_id":"ce4bgup2rcd13ifvqcn0","pricing_plan_id":"cebpf4jnsgd1na2vs0mg"},{"bike_id":"0cce203b-70e1-4c12-bec8-e995b59c42de","system_id":"levelo_inurba_marseille","lat":43.324771,"lon":5.36557,"is_reserved":false,"is_disabled":false,"rental_uris":{"android":"levelo://app?vid=0cce203b-70e1-4c12-bec8-e995b59c42de","ios":"levelo://app?vid=0cce203b-70e1-4c12-bec8-e995b59c42de"},"vehicle_type_id":"4","last_reported":1717243995,"current_range_meters":13200,"station_id":"ce4bhs12rcd13ifvqhvg","pricing_plan_id":"cebpf4jnsgd1na2vs0mg"},{"bike_id":"5ac55069-c473-4e58-903a-883dbf71189d","system_id":"levelo_inurba_marseille","lat":43.304606,"lon":5.379026,"is_reserved":false,"is_disabled":false,"rental_uris":{"android":"levelo://app?vid=5ac55069-c473-4e58-903a-883dbf71189d","ios":"levelo://app?vid=5ac55069-c473-4e58-903a-883dbf71189d"},"vehicle_type_id":"4","last_reported":1717243995,"current_range_meters":2800,"station_id":"ce4bgup2rcd13ifvqcn0","pricing_plan_id":"cebpf4jnsgd1na2vs0mg"},{"bike_id":"b4ad3187-f971-4443-87f1-31a2b0875754","system_id":"levelo_inurba_marseille","lat":43.30456,"lon":5.37913,"is_reserved":false,"is_disabled":false,"rental_uris":{"android":"levelo://app?vid=b4ad3187-f971-4443-87f1-31a2b0875754","ios":"levelo://app?vid=b4ad3187-f971-4443-87f1-31a2b0875754"},"vehicle_type_id":"4","last_reported":1717243995,"current_range_meters":8400,"station_id":"ce4bgup2rcd13ifvqcn0","pricing_plan_id":"cebpf4jnsgd1na2vs0mg"},{"bike_id":"f2c7c6b5-2d9a-4db7-945d-61e5fa04d04f","system_id":"levelo_inurba_marseille","lat":43.304606,"lon":5.379026,"is_reserved":false,"is_disabled":false,"rental_uris":{"android":"levelo://app?vid=f2c7c6b5-2d9a-4db7-945d-61e5fa04d04f","ios":"levelo://app?vid=f2c7c6b5-2d9a-4db7-945d-61e5fa04d04f"},"vehicle_type_id":"4","last_reported":1717243995,"current_range_meters":6000,"station_id":"ce4bgup2rcd13ifvqcn0","pricing_plan_id":"cebpf4jnsgd1na2vs0mg"},{"bike_id":"9f514648-82e4-44e5-97cb-4fbaa7cf396b","system_id":"levelo_inurba_marseille","lat":43.324771,"lon":5.36557,"is_reserved":false,"is_disabled":false,"rental_uris":{"android":"levelo://app?vid=9f514648-82e4-44e5-97cb-4fbaa7cf396b","ios":"levelo://app?vid=9f514648-82e4-44e5-97cb-4fbaa7cf396b"},"vehicle_type_id":"4","last_reported":1717243995,"current_range_meters":6000,"station_id":"ce4bhs12rcd13ifvqhvg","pricing_plan_id":"cebpf4jnsgd1na2vs0mg"},{"bike_id":"09a23f3e-71cb-406c-a41d-682846d49308","system_id":"levelo_inurba_marseille","lat":43.324771,"lon":5.36557,"is_reserved":false,"is_disabled":false,"rental_uris":{"android":"levelo://app?vid=09a23f3e-71cb-406c-a41d-682846d49308","ios":"levelo://app?vid=09a23f3e-71cb-406c-a41d-682846d49308"},"vehicle_type_id":"4","last_reported":1717243995,"current_range_meters":19600,"station_id":"ce4bhs12rcd13ifvqhvg","pricing_plan_id":"cebpf4jnsgd1na2vs0mg"},{"bike_id":"e7b5d43e-79e3-471c-8dbb-1d88bd546cd5","system_id":"levelo_inurba_marseille","lat":43.324771,"lon":5.36557,"is_reserved":false,"is_disabled":false,"rental_uris":{"android":"levelo://app?vid=e7b5d43e-79e3-471c-8dbb-1d88bd546cd5","ios":"levelo://app?vid=e7b5d43e-79e3-471c-8dbb-1d88bd546cd5"},"vehicle_type_id":"4","last_reported":1717243995,"current_range_meters":16000,"station_id":"ce4bhs12rcd13ifvqhvg","pricing_plan_id":"cebpf4jnsgd1na2vs0mg"},{"bike_id":"43164aca-1fb2-448b-8cee-a63ae8cc3f73","system_id":"levelo_inurba_marseille","lat":43.324771,"lon":5.36557,"is_reserved":false,"is_disabled":false,"rental_uris":{"android":"levelo://app?vid=43164aca-1fb2-448b-8cee-a63ae8cc3f73","ios":"levelo://app?vid=43164aca-1fb2-448b-8cee-a63ae8cc3f73"},"vehicle_type_id":"4","last_reported":1717243995,"current_range_meters":19200,"station_id":"ce4bhs12rcd13ifvqhvg","pricing_plan_id":"cebpf4jnsgd1na2vs0mg"},{"bike_id":"c1f0be89-1064-4e29-a1e8-f822d8063f1a","system_id":"levelo_inurba_marseille","lat":43.324771,"lon":5.36557,"is_reserved":false,"is_disabled":false,"rental_uris":{"android":"levelo://app?vid=c1f0be89-1064-4e29-a1e8-f822d8063f1a","ios":"levelo://app?vid=c1f0be89-1064-4e29-a1e8-f822d8063f1a"},"vehicle_type_id":"4","last_reported":1717243995,"current_range_meters":28000,"station_id":"ce4bhs12rcd13ifvqhvg","pricing_plan_id":"cebpf4jnsgd1na2vs0mg"},{"bike_id":"bcbe4e8c-399a-4c3a-ad31-e31bd96e25bf","system_id":"levelo_inurba_marseille","lat":43.324771,"lon":5.36557,"is_reserved":false,"is_disabled":false,"rental_uris":{"android":"levelo://app?vid=bcbe4e8c-399a-4c3a-ad31-e31bd96e25bf","ios":"levelo://app?vid=bcbe4e8c-399a-4c3a-ad31-e31bd96e25bf"},"vehicle_type_id":"4","last_reported":1717243995,"current_range_meters":19200,"station_id":"ce4bhs12rcd13ifvqhvg","pricing_plan_id":"cebpf4jnsgd1na2vs0mg"},{"bike_id":"baf119c8-71e9-43af-aaef-d7f8a1c924b2","system_id":"levelo_inurba_marseille","lat":43.310804,"lon":5.38359,"is_reserved":false,"is_disabled":false,"rental_uris":{"android":"levelo://app?vid=baf119c8-71e9-43af-aaef-d7f8a1c924b2","ios":"levelo://app?vid=baf119c8-71e9-43af-aaef-d7f8a1c924b2"},"vehicle_type_id":"4","last_reported":1717243995,"current_range_meters":0,"station_id":"ce4bgv92rcd13ifvqcr0","pricing_plan_id":"cebpf4jnsgd1na2vs0mg"},{"bike_id":"1df55bc5-0a66-458c-9977-c13c5fbd83d7","system_id":"levelo_inurba_marseille","lat":43.302786,"lon":5.376996,"is_reserved":false,"is_disabled":false,"rental_uris":{"android":"levelo://app?vid=1df55bc5-0a66-458c-9977-c13c5fbd83d7","ios":"levelo://app?vid=1df55bc5-0a66-458c-9977-c13c5fbd83d7"},"vehicle_type_id":"4","last_reported":1717243995,"current_range_meters":0,"station_id":"ce4bguh2rcd13ifvqcj0","pricing_plan_id":"cebpf4jnsgd1na2vs0mg"},{"bike_id":"f5e8933f-0f05-4c85-9b5c-a132288b09e4","system_id":"levelo_inurba_marseille","lat":43.302784,"lon":5.377158,"is_reserved":false,"is_disabled":false,"rental_uris":{"android":"levelo://app?vid=f5e8933f-0f05-4c85-9b5c-a132288b09e4","ios":"levelo://app?vid=f5e8933f-0f05-4c85-9b5c-a132288b09e4"},"vehicle_type_id":"4","last_reported":1717243995,"current_range_meters":1600,"station_id":"ce4bguh2rcd13ifvqcj0","pricing_plan_id":"cebpf4jnsgd1na2vs0mg"},{"bike_id":"56792101-54a1-4ebd-83ef-9b399eb8b64f","system_id":"levelo_inurba_marseille","lat":43.319935,"lon":5.381699,"is_reserved":false,"is_disabled":false,"rental_uris":{"android":"levelo://app?vid=56792101-54a1-4ebd-83ef-9b399eb8b64f","ios":"levelo://app?vid=56792101-54a1-4ebd-83ef-9b399eb8b64f"},"vehicle_type_id":"4","last_reported":1717243995,"current_range_meters":18800,"station_id":"ce4bhr12rcd13ifvqhpg","pricing_plan_id":"cebpf4jnsgd1na2vs0mg"},{"bike_id":"33734fac-2d8c-46e2-b98b-4c151ede08b2","system_id":"levelo_inurba_marseille","lat":43.319935,"lon":5.381699,"is_reserved":false,"is_disabled":false,"rental_uris":{"android":"levelo://app?vid=33734fac-2d8c-46e2-b98b-4c151ede08b2","ios":"levelo://app?vid=33734fac-2d8c-46e2-b98b-4c151ede08b2"},"vehicle_type_id":"4","last_reported":1717243995,"current_range_meters":26400,"station_id":"ce4bhr12rcd13ifvqhpg","pricing_plan_id":"cebpf4jnsgd1na2vs0mg"},{"bike_id":"4b49286c-f107-4c0d-9c16-2854d01b8341","system_id":"levelo_inurba_marseille","lat":43.319935,"lon":5.381699,"is_reserved":false,"is_disabled":false,"rental_uris":{"android":"levelo://app?vid=4b49286c-f107-4c0d-9c16-2854d01b8341","ios":"levelo://app?vid=4b49286c-f107-4c0d-9c16-2854d01b8341"},"vehicle_type_id":"4","last_reported":1717243995,"current_range_meters":14000,"station_id":"ce4bhr12rcd13ifvqhpg","pricing_plan_id":"cebpf4jnsgd1na2vs0mg"},{"bike_id":"ad242788-8c89-42bf-9f1e-e97d1e87ecb4","system_id":"levelo_inurba_marseille","lat":43.31995,"lon":5.38161,"is_reserved":false,"is_disabled":false,"rental_uris":{"android":"levelo://app?vid=ad242788-8c89-42bf-9f1e-e97d1e87ecb4","ios":"levelo://app?vid=ad242788-8c89-42bf-9f1e-e97d1e87ecb4"},"vehicle_type_id":"4","last_reported":1717243995,"current_range_meters":3200,"station_id":"ce4bhr12rcd13ifvqhpg","pricing_plan_id":"cebpf4jnsgd1na2vs0mg"},{"bike_id":"a1b324c3-4672-4178-8f46-8f15d360dea8","system_id":"levelo_inurba_marseille","lat":43.30324,"lon":5.37927,"is_reserved":false,"is_disabled":false,"rental_uris":{"android":"levelo://app?vid=a1b324c3-4672-4178-8f46-8f15d360dea8","ios":"levelo://app?vid=a1b324c3-4672-4178-8f46-8f15d360dea8"},"vehicle_type_id":"4","last_reported":1717243995,"current_range_meters":22400,"station_id":"","pricing_plan_id":"cebpf4jnsgd1na2vs0mg"},{"bike_id":"4fc8293c-d141-4ed8-9b58-e1dff4f56d40","system_id":"levelo_inurba_marseille","lat":43.313536,"lon":5.384958,"is_reserved":false,"is_disabled":false,"rental_uris":{"android":"levelo://app?vid=4fc8293c-d141-4ed8-9b58-e1dff4f56d40","ios":"levelo://app?vid=4fc8293c-d141-4ed8-9b58-e1dff4f56d40"},"vehicle_type_id":"4","last_reported":1717243995,"current_range_meters":0,"station_id":"ce4bgt92rcd13ifvqcf0","pricing_plan_id":"cebpf4jnsgd1na2vs0mg"},{"bike_id":"3016f594-ed08-4894-b683-3e45a982dd86","system_id":"levelo_inurba_marseille","lat":43.299222,"lon":5.365554,"is_reserved":false,"is_disabled":false,"rental_uris":{"android":"levelo://app?vid=3016f594-ed08-4894-b683-3e45a982dd86","ios":"levelo://app?vid=3016f594-ed08-4894-b683-3e45a982dd86"},"vehicle_type_id":"4","last_reported":1717243995,"current_range_meters":12800,"station_id":"ce4bgm92rcd13ifvqbr0","pricing_plan_id":"cebpf4jnsgd1na2vs0mg"},{"bike_id":"cbd0d848-29b8-4058-aa67-2adaea09434a","system_id":"levelo_inurba_marseille","lat":43.299222,"lon":5.365554,"is_reserved":false,"is_disabled":false,"rental_uris":{"android":"levelo://app?vid=cbd0d848-29b8-4058-aa67-2adaea09434a","ios":"levelo://app?vid=cbd0d848-29b8-4058-aa67-2adaea09434a"},"vehicle_type_id":"4","last_reported":1717243995,"current_range_meters":16400,"station_id":"ce4bgm92rcd13ifvqbr0","pricing_plan_id":"cebpf4jnsgd1na2vs0mg"},{"bike_id":"18d3bd46-f719-4413-92b4-64a0c0a5325b","system_id":"levelo_inurba_marseille","lat":43.299222,"lon":5.365554,"is_reserved":false,"is_disabled":false,"rental_uris":{"android":"levelo://app?vid=18d3bd46-f719-4413-92b4-64a0c0a5325b","ios":"levelo://app?vid=18d3bd46-f719-4413-92b4-64a0c0a5325b"},"vehicle_type_id":"4","last_reported":1717243995,"current_range_meters":16000,"station_id":"ce4bgm92rcd13ifvqbr0","pricing_plan_id":"cebpf4jnsgd1na2vs0mg"},{"bike_id":"f025dc9d-4b38-460e-8bc6-ca1e71a9a031","system_id":"levelo_inurba_marseille","lat":43.313571,"lon":5.384829,"is_reserved":false,"is_disabled":false,"rental_uris":{"android":"levelo://app?vid=f025dc9d-4b38-460e-8bc6-ca1e71a9a031","ios":"levelo://app?vid=f025dc9d-4b38-460e-8bc6-ca1e71a9a031"},"vehicle_type_id":"4","last_reported":1717243995,"current_range_meters":3200,"station_id":"ce4bgt92rcd13ifvqcf0","pricing_plan_id":"cebpf4jnsgd1na2vs0mg"},{"bike_id":"93259572-2553-4af0-80f6-548e62a0f4b8","system_id":"levelo_inurba_marseille","lat":43.299724,"lon":5.371829,"is_reserved":false,"is_disabled":false,"rental_uris":{"android":"levelo://app?vid=93259572-2553-4af0-80f6-548e62a0f4b8","ios":"levelo://app?vid=93259572-2553-4af0-80f6-548e62a0f4b8"},"vehicle_type_id":"4","last_reported":1717243995,"current_range_meters":27600,"station_id":"ce4bgr92rcd13ifvqc7g","pricing_plan_id":"cebpf4jnsgd1na2vs0mg"},{"bike_id":"d79f09a6-b239-4400-8690-824698b446d6","system_id":"levelo_inurba_marseille","lat":43.299724,"lon":5.371829,"is_reserved":false,"is_disabled":false,"rental_uris":{"android":"levelo://app?vid=d79f09a6-b239-4400-8690-824698b446d6","ios":"levelo://app?vid=d79f09a6-b239-4400-8690-824698b446d6"},"vehicle_type_id":"4","last_reported":1717243995,"current_range_meters":17200,"station_id":"ce4bgr92rcd13ifvqc7g","pricing_plan_id":"cebpf4jnsgd1na2vs0mg"},{"bike_id":"a6220985-dbb5-4b1f-b6d0-bf29ea1fe193","system_id":"levelo_inurba_marseille","lat":43.299222,"lon":5.365554,"is_reserved":false,"is_disabled":false,"rental_uris":{"android":"levelo://app?vid=a6220985-dbb5-4b1f-b6d0-bf29ea1fe193","ios":"levelo://app?vid=a6220985-dbb5-4b1f-b6d0-bf29ea1fe193"},"vehicle_type_id":"4","last_reported":1717243995,"current_range_meters":26400,"station_id":"ce4bgm92rcd13ifvqbr0","pricing_plan_id":"cebpf4jnsgd1na2vs0mg"},{"bike_id":"47979ab3-2b44-4d82-b25d-acb0ab470592","system_id":"levelo_inurba_marseille","lat":43.298433,"lon":5.362774,"is_reserved":false,"is_disabled":false,"rental_uris":{"android":"levelo://app?vid=47979ab3-2b44-4d82-b25d-acb0ab470592","ios":"levelo://app?vid=47979ab3-2b44-4d82-b25d-acb0ab470592"},"vehicle_type_id":"4","last_reported":1717243995,"current_range_meters":23600,"station_id":"ce4bgpp2rcd13ifvqc3g","pricing_plan_id":"cebpf4jnsgd1na2vs0mg"},{"bike_id":"31ef2f51-db88-4c6e-b155-a06b8ee2239a","system_id":"levelo_inurba_marseille","lat":43.2985,"lon":5.36284,"is_reserved":false,"is_disabled":false,"rental_uris":{"android":"levelo://app?vid=31ef2f51-db88-4c6e-b155-a06b8ee2239a","ios":"levelo://app?vid=31ef2f51-db88-4c6e-b155-a06b8ee2239a"},"vehicle_type_id":"4","last_reported":1717243995,"current_range_meters":0,"station_id":"","pricing_plan_id":"cebpf4jnsgd1na2vs0mg"},{"bike_id":"d19c12ca-2e94-49be-b1f1-49c8899ec80d","system_id":"levelo_inurba_marseille","lat":43.298433,"lon":5.362774,"is_reserved":false,"is_disabled":false,"rental_uris":{"android":"levelo://app?vid=d19c12ca-2e94-49be-b1f1-49c8899ec80d","ios":"levelo://app?vid=d19c12ca-2e94-49be-b1f1-49c8899ec80d"},"vehicle_type_id":"4","last_reported":1717243995,"current_range_meters":6000,"station_id":"ce4bgpp2rcd13ifvqc3g","pricing_plan_id":"cebpf4jnsgd1na2vs0mg"},{"bike_id":"f84d3df7-fb22-4209-908f-3dea0bb2eff9","system_id":"levelo_inurba_marseille","lat":43.298433,"lon":5.362774,"is_reserved":false,"is_disabled":false,"rental_uris":{"android":"levelo://app?vid=f84d3df7-fb22-4209-908f-3dea0bb2eff9","ios":"levelo://app?vid=f84d3df7-fb22-4209-908f-3dea0bb2eff9"},"vehicle_type_id":"4","last_reported":1717243995,"current_range_meters":16800,"station_id":"ce4bgpp2rcd13ifvqc3g","pricing_plan_id":"cebpf4jnsgd1na2vs0mg"},{"bike_id":"eb4c9fca-7836-4c42-91ce-f556fc0b4a22","system_id":"levelo_inurba_marseille","lat":43.298433,"lon":5.362774,"is_reserved":false,"is_disabled":false,"rental_uris":{"android":"levelo://app?vid=eb4c9fca-7836-4c42-91ce-f556fc0b4a22","ios":"levelo://app?vid=eb4c9fca-7836-4c42-91ce-f556fc0b4a22"},"vehicle_type_id":"4","last_reported":1717243995,"current_range_meters":6800,"station_id":"ce4bgpp2rcd13ifvqc3g","pricing_plan_id":"cebpf4jnsgd1na2vs0mg"},{"bike_id":"ef00ccf0-362c-42e8-9aa9-4e542a3278f6","system_id":"levelo_inurba_marseille","lat":43.305364,"lon":5.384119,"is_reserved":false,"is_disabled":false,"rental_uris":{"android":"levelo://app?vid=ef00ccf0-362c-42e8-9aa9-4e542a3278f6","ios":"levelo://app?vid=ef00ccf0-362c-42e8-9aa9-4e542a3278f6"},"vehicle_type_id":"4","last_reported":1717243995,"current_range_meters":29200,"station_id":"ce4bgg92rcd13ifvqb30","pricing_plan_id":"cebpf4jnsgd1na2vs0mg"},{"bike_id":"762e1ef7-8c2d-4c13-a619-d3a8e1875c25","system_id":"levelo_inurba_marseille","lat":43.298433,"lon":5.362774,"is_reserved":false,"is_disabled":false,"rental_uris":{"android":"levelo://app?vid=762e1ef7-8c2d-4c13-a619-d3a8e1875c25","ios":"levelo://app?vid=762e1ef7-8c2d-4c13-a619-d3a8e1875c25"},"vehicle_type_id":"4","last_reported":1717243995,"current_range_meters":31600,"station_id":"ce4bgpp2rcd13ifvqc3g","pricing_plan_id":"cebpf4jnsgd1na2vs0mg"},{"bike_id":"3eeb4ae6-831c-4d43-8616-36134cddaa5d","system_id":"levelo_inurba_marseille","lat":43.298433,"lon":5.362774,"is_reserved":false,"is_disabled":false,"rental_uris":{"android":"levelo://app?vid=3eeb4ae6-831c-4d43-8616-36134cddaa5d","ios":"levelo://app?vid=3eeb4ae6-831c-4d43-8616-36134cddaa5d"},"vehicle_type_id":"4","last_reported":1717243995,"current_range_meters":2400,"station_id":"ce4bgpp2rcd13ifvqc3g","pricing_plan_id":"cebpf4jnsgd1na2vs0mg"},{"bike_id":"1c9364ee-a431-47d4-b3f2-87e55795a12e","system_id":"levelo_inurba_marseille","lat":43.298433,"lon":5.362774,"is_reserved":false,"is_disabled":false,"rental_uris":{"android":"levelo://app?vid=1c9364ee-a431-47d4-b3f2-87e55795a12e","ios":"levelo://app?vid=1c9364ee-a431-47d4-b3f2-87e55795a12e"},"vehicle_type_id":"4","last_reported":1717243995,"current_range_meters":28800,"station_id":"ce4bgpp2rcd13ifvqc3g","pricing_plan_id":"cebpf4jnsgd1na2vs0mg"},{"bike_id":"c2eabe5b-4092-4126-b4c7-531c06a60f82","system_id":"levelo_inurba_marseille","lat":43.298433,"lon":5.362774,"is_reserved":false,"is_disabled":false,"rental_uris":{"android":"levelo://app?vid=c2eabe5b-4092-4126-b4c7-531c06a60f82","ios":"levelo://app?vid=c2eabe5b-4092-4126-b4c7-531c06a60f82"},"vehicle_type_id":"4","last_reported":1717243995,"current_range_meters":0,"station_id":"ce4bgpp2rcd13ifvqc3g","pricing_plan_id":"cebpf4jnsgd1na2vs0mg"},{"bike_id":"7c0279c4-785e-41cc-9875-11b1aa5697b0","system_id":"levelo_inurba_marseille","lat":43.298433,"lon":5.362774,"is_reserved":false,"is_disabled":false,"rental_uris":{"android":"levelo://app?vid=7c0279c4-785e-41cc-9875-11b1aa5697b0","ios":"levelo://app?vid=7c0279c4-785e-41cc-9875-11b1aa5697b0"},"vehicle_type_id":"4","last_reported":1717243995,"current_range_meters":30800,"station_id":"ce4bgpp2rcd13ifvqc3g","pricing_plan_id":"cebpf4jnsgd1na2vs0mg"},{"bike_id":"d1fc60b6-c97f-4090-8d1e-7701b07fcd81","system_id":"levelo_inurba_marseille","lat":43.298433,"lon":5.362774,"is_reserved":false,"is_disabled":false,"rental_uris":{"android":"levelo://app?vid=d1fc60b6-c97f-4090-8d1e-7701b07fcd81","ios":"levelo://app?vid=d1fc60b6-c97f-4090-8d1e-7701b07fcd81"},"vehicle_type_id":"4","last_reported":1717243995,"current_range_meters":9600,"station_id":"ce4bgpp2rcd13ifvqc3g","pricing_plan_id":"cebpf4jnsgd1na2vs0mg"},{"bike_id":"35d1f0d9-c12a-4ffd-b70b-faff209c1c16","system_id":"levelo_inurba_marseille","lat":43.298433,"lon":5.362774,"is_reserved":false,"is_disabled":false,"rental_uris":{"android":"levelo://app?vid=35d1f0d9-c12a-4ffd-b70b-faff209c1c16","ios":"levelo://app?vid=35d1f0d9-c12a-4ffd-b70b-faff209c1c16"},"vehicle_type_id":"4","last_reported":1717243995,"current_range_meters":32000,"station_id":"ce4bgpp2rcd13ifvqc3g","pricing_plan_id":"cebpf4jnsgd1na2vs0mg"},{"bike_id":"917ecc7c-1e59-49f5-8454-55120c1a023d","system_id":"levelo_inurba_marseille","lat":43.298433,"lon":5.362774,"is_reserved":false,"is_disabled":false,"rental_uris":{"android":"levelo://app?vid=917ecc7c-1e59-49f5-8454-55120c1a023d","ios":"levelo://app?vid=917ecc7c-1e59-49f5-8454-55120c1a023d"},"vehicle_type_id":"4","last_reported":1717243995,"current_range_meters":30800,"station_id":"ce4bgpp2rcd13ifvqc3g","pricing_plan_id":"cebpf4jnsgd1na2vs0mg"},{"bike_id":"f454c5a6-0af1-4cdd-ad2c-6562fccee135","system_id":"levelo_inurba_marseille","lat":43.298433,"lon":5.362774,"is_reserved":false,"is_disabled":false,"rental_uris":{"android":"levelo://app?vid=f454c5a6-0af1-4cdd-ad2c-6562fccee135","ios":"levelo://app?vid=f454c5a6-0af1-4cdd-ad2c-6562fccee135"},"vehicle_type_id":"4","last_reported":1717243995,"current_range_meters":27200,"station_id":"ce4bgpp2rcd13ifvqc3g","pricing_plan_id":"cebpf4jnsgd1na2vs0mg"},{"bike_id":"f319de5a-1b82-462f-8a87-193cb412c09f","system_id":"levelo_inurba_marseille","lat":43.298433,"lon":5.362774,"is_reserved":false,"is_disabled":false,"rental_uris":{"android":"levelo://app?vid=f319de5a-1b82-462f-8a87-193cb412c09f","ios":"levelo://app?vid=f319de5a-1b82-462f-8a87-193cb412c09f"},"vehicle_type_id":"4","last_reported":1717243995,"current_range_meters":26400,"station_id":"ce4bgpp2rcd13ifvqc3g","pricing_plan_id":"cebpf4jnsgd1na2vs0mg"},{"bike_id":"dc6102c1-8748-49ac-8b78-3c247e76394d","system_id":"levelo_inurba_marseille","lat":43.298433,"lon":5.362774,"is_reserved":false,"is_disabled":false,"rental_uris":{"android":"levelo://app?vid=dc6102c1-8748-49ac-8b78-3c247e76394d","ios":"levelo://app?vid=dc6102c1-8748-49ac-8b78-3c247e76394d"},"vehicle_type_id":"4","last_reported":1717243995,"current_range_meters":27200,"station_id":"ce4bgpp2rcd13ifvqc3g","pricing_plan_id":"cebpf4jnsgd1na2vs0mg"},{"bike_id":"a86c3da4-3436-4bc9-af91-f981c683adb8","system_id":"levelo_inurba_marseille","lat":43.297794,"lon":5.370888,"is_reserved":false,"is_disabled":false,"rental_uris":{"android":"levelo://app?vid=a86c3da4-3436-4bc9-af91-f981c683adb8","ios":"levelo://app?vid=a86c3da4-3436-4bc9-af91-f981c683adb8"},"vehicle_type_id":"4","last_reported":1717243995,"current_range_meters":27600,"station_id":"ce4bgop2rcd13ifvqc1g","pricing_plan_id":"cebpf4jnsgd1na2vs0mg"},{"bike_id":"879d4e1a-1645-4cda-8496-662c04fcbcf4","system_id":"levelo_inurba_marseille","lat":43.297794,"lon":5.370888,"is_reserved":false,"is_disabled":false,"rental_uris":{"android":"levelo://app?vid=879d4e1a-1645-4cda-8496-662c04fcbcf4","ios":"levelo://app?vid=879d4e1a-1645-4cda-8496-662c04fcbcf4"},"vehicle_type_id":"4","last_reported":1717243995,"current_range_meters":20000,"station_id":"ce4bgop2rcd13ifvqc1g","pricing_plan_id":"cebpf4jnsgd1na2vs0mg"},{"bike_id":"10fb4334-c940-4455-979b-d3f1ca32e262","system_id":"levelo_inurba_marseille","lat":43.297774,"lon":5.370875,"is_reserved":false,"is_disabled":false,"rental_uris":{"android":"levelo://app?vid=10fb4334-c940-4455-979b-d3f1ca32e262","ios":"levelo://app?vid=10fb4334-c940-4455-979b-d3f1ca32e262"},"vehicle_type_id":"4","last_reported":1717243995,"current_range_meters":30000,"station_id":"ce4bgop2rcd13ifvqc1g","pricing_plan_id":"cebpf4jnsgd1na2vs0mg"},{"bike_id":"ab8eb3f1-230c-4004-9dc6-82c8da2deadd","system_id":"levelo_inurba_marseille","lat":43.297794,"lon":5.370888,"is_reserved":false,"is_disabled":false,"rental_uris":{"android":"levelo://app?vid=ab8eb3f1-230c-4004-9dc6-82c8da2deadd","ios":"levelo://app?vid=ab8eb3f1-230c-4004-9dc6-82c8da2deadd"},"vehicle_type_id":"4","last_reported":1717243995,"current_range_meters":25600,"station_id":"ce4bgop2rcd13ifvqc1g","pricing_plan_id":"cebpf4jnsgd1na2vs0mg"},{"bike_id":"f8ce1b5f-5027-4665-8476-cf7c87d76799","system_id":"levelo_inurba_marseille","lat":43.297794,"lon":5.370888,"is_reserved":false,"is_disabled":false,"rental_uris":{"android":"levelo://app?vid=f8ce1b5f-5027-4665-8476-cf7c87d76799","ios":"levelo://app?vid=f8ce1b5f-5027-4665-8476-cf7c87d76799"},"vehicle_type_id":"4","last_reported":1717243995,"current_range_meters":23600,"station_id":"ce4bgop2rcd13ifvqc1g","pricing_plan_id":"cebpf4jnsgd1na2vs0mg"},{"bike_id":"a6850727-00b1-4dd8-bb80-3e158c4e1090","system_id":"levelo_inurba_marseille","lat":43.322872,"lon":5.382756,"is_reserved":false,"is_disabled":false,"rental_uris":{"android":"levelo://app?vid=a6850727-00b1-4dd8-bb80-3e158c4e1090","ios":"levelo://app?vid=a6850727-00b1-4dd8-bb80-3e158c4e1090"},"vehicle_type_id":"4","last_reported":1717243995,"current_range_meters":30400,"station_id":"ce4bhr12rcd13ifvqhqg","pricing_plan_id":"cebpf4jnsgd1na2vs0mg"},{"bike_id":"80fd1f2d-4ca2-4000-8cf8-adf4f3ab4e49","system_id":"levelo_inurba_marseille","lat":43.2968,"lon":5.37291,"is_reserved":false,"is_disabled":false,"rental_uris":{"android":"levelo://app?vid=80fd1f2d-4ca2-4000-8cf8-adf4f3ab4e49","ios":"levelo://app?vid=80fd1f2d-4ca2-4000-8cf8-adf4f3ab4e49"},"vehicle_type_id":"4","last_reported":1717243995,"current_range_meters":10400,"station_id":"ce4bgk12rcd13ifvqbj0","pricing_plan_id":"cebpf4jnsgd1na2vs0mg"},{"bike_id":"a470d90a-599a-4534-bf0b-b04028d9c3c5","system_id":"levelo_inurba_marseille","lat":43.2968,"lon":5.37291,"is_reserved":false,"is_disabled":false,"rental_uris":{"android":"levelo://app?vid=a470d90a-599a-4534-bf0b-b04028d9c3c5","ios":"levelo://app?vid=a470d90a-599a-4534-bf0b-b04028d9c3c5"},"vehicle_type_id":"4","last_reported":1717243995,"current_range_meters":17600,"station_id":"ce4bgk12rcd13ifvqbj0","pricing_plan_id":"cebpf4jnsgd1na2vs0mg"},{"bike_id":"53c8de9d-e4a3-45a1-a669-04a45782bb0f","system_id":"levelo_inurba_marseille","lat":43.296131,"lon":5.370791,"is_reserved":false,"is_disabled":false,"rental_uris":{"android":"levelo://app?vid=53c8de9d-e4a3-45a1-a669-04a45782bb0f","ios":"levelo://app?vid=53c8de9d-e4a3-45a1-a669-04a45782bb0f"},"vehicle_type_id":"4","last_reported":1717243995,"current_range_meters":30400,"station_id":"ce4bgnh2rcd13ifvqc0g","pricing_plan_id":"cebpf4jnsgd1na2vs0mg"},{"bike_id":"fbbaa171-fd7e-4f41-8aac-f4c5de709d42","system_id":"levelo_inurba_marseille","lat":43.296131,"lon":5.370791,"is_reserved":false,"is_disabled":false,"rental_uris":{"android":"levelo://app?vid=fbbaa171-fd7e-4f41-8aac-f4c5de709d42","ios":"levelo://app?vid=fbbaa171-fd7e-4f41-8aac-f4c5de709d42"},"vehicle_type_id":"4","last_reported":1717243995,"current_range_meters":14000,"station_id":"ce4bgnh2rcd13ifvqc0g","pricing_plan_id":"cebpf4jnsgd1na2vs0mg"},{"bike_id":"fdbe0e2f-f437-4eaf-bbfe-1019eddc57b5","system_id":"levelo_inurba_marseille","lat":43.29573,"lon":5.367355,"is_reserved":false,"is_disabled":false,"rental_uris":{"android":"levelo://app?vid=fdbe0e2f-f437-4eaf-bbfe-1019eddc57b5","ios":"levelo://app?vid=fdbe0e2f-f437-4eaf-bbfe-1019eddc57b5"},"vehicle_type_id":"4","last_reported":1717243995,"current_range_meters":27600,"station_id":"ce4bgph2rcd13ifvqc2g","pricing_plan_id":"cebpf4jnsgd1na2vs0mg"},{"bike_id":"04334ee7-d52f-4cc8-8094-da52845aad68","system_id":"levelo_inurba_marseille","lat":43.29573,"lon":5.367355,"is_reserved":false,"is_disabled":false,"rental_uris":{"android":"levelo://app?vid=04334ee7-d52f-4cc8-8094-da52845aad68","ios":"levelo://app?vid=04334ee7-d52f-4cc8-8094-da52845aad68"},"vehicle_type_id":"4","last_reported":1717243995,"current_range_meters":32000,"station_id":"ce4bgph2rcd13ifvqc2g","pricing_plan_id":"cebpf4jnsgd1na2vs0mg"},{"bike_id":"0a3c0939-ea63-433a-ab2f-93f711b01e7f","system_id":"levelo_inurba_marseille","lat":43.29573,"lon":5.367355,"is_reserved":false,"is_disabled":false,"rental_uris":{"android":"levelo://app?vid=0a3c0939-ea63-433a-ab2f-93f711b01e7f","ios":"levelo://app?vid=0a3c0939-ea63-433a-ab2f-93f711b01e7f"},"vehicle_type_id":"4","last_reported":1717243995,"current_range_meters":23200,"station_id":"ce4bgph2rcd13ifvqc2g","pricing_plan_id":"cebpf4jnsgd1na2vs0mg"},{"bike_id":"f295568e-6148-444a-ba1e-a1de35211195","system_id":"levelo_inurba_marseille","lat":43.29573,"lon":5.367355,"is_reserved":false,"is_disabled":false,"rental_uris":{"android":"levelo://app?vid=f295568e-6148-444a-ba1e-a1de35211195","ios":"levelo://app?vid=f295568e-6148-444a-ba1e-a1de35211195"},"vehicle_type_id":"4","last_reported":1717243995,"current_range_meters":17200,"station_id":"ce4bgph2rcd13ifvqc2g","pricing_plan_id":"cebpf4jnsgd1na2vs0mg"},{"bike_id":"4d725659-5fea-4b08-8987-9b8836a5e6c6","system_id":"levelo_inurba_marseille","lat":43.309589,"lon":5.390258,"is_reserved":false,"is_disabled":false,"rental_uris":{"android":"levelo://app?vid=4d725659-5fea-4b08-8987-9b8836a5e6c6","ios":"levelo://app?vid=4d725659-5fea-4b08-8987-9b8836a5e6c6"},"vehicle_type_id":"4","last_reported":1717243995,"current_range_meters":0,"station_id":"ce4bgup2rcd13ifvqco0","pricing_plan_id":"cebpf4jnsgd1na2vs0mg"},{"bike_id":"8d55849e-59d3-485e-8bd2-0a2bd10d8965","system_id":"levelo_inurba_marseille","lat":43.29716,"lon":5.3769,"is_reserved":false,"is_disabled":false,"rental_uris":{"android":"levelo://app?vid=8d55849e-59d3-485e-8bd2-0a2bd10d8965","ios":"levelo://app?vid=8d55849e-59d3-485e-8bd2-0a2bd10d8965"},"vehicle_type_id":"4","last_reported":1717243995,"current_range_meters":10800,"station_id":"ce4bgkh2rcd13ifvqbl0","pricing_plan_id":"cebpf4jnsgd1na2vs0mg"},{"bike_id":"ccbf8300-ed24-4819-9608-440028f1ff56","system_id":"levelo_inurba_marseille","lat":43.298037,"lon":5.381066,"is_reserved":false,"is_disabled":false,"rental_uris":{"android":"levelo://app?vid=ccbf8300-ed24-4819-9608-440028f1ff56","ios":"levelo://app?vid=ccbf8300-ed24-4819-9608-440028f1ff56"},"vehicle_type_id":"4","last_reported":1717243995,"current_range_meters":28400,"station_id":"ce4bgip2rcd13ifvqbb0","pricing_plan_id":"cebpf4jnsgd1na2vs0mg"},{"bike_id":"7e33508c-4233-4f59-8aa7-a5ec5a08dee9","system_id":"levelo_inurba_marseille","lat":43.309589,"lon":5.390258,"is_reserved":false,"is_disabled":false,"rental_uris":{"android":"levelo://app?vid=7e33508c-4233-4f59-8aa7-a5ec5a08dee9","ios":"levelo://app?vid=7e33508c-4233-4f59-8aa7-a5ec5a08dee9"},"vehicle_type_id":"4","last_reported":1717243995,"current_range_meters":1200,"station_id":"ce4bgup2rcd13ifvqco0","pricing_plan_id":"cebpf4jnsgd1na2vs0mg"},{"bike_id":"642a5d59-ee52-4b16-8f30-d0c525e0c6aa","system_id":"levelo_inurba_marseille","lat":43.299028,"lon":5.381509,"is_reserved":false,"is_disabled":false,"rental_uris":{"android":"levelo://app?vid=642a5d59-ee52-4b16-8f30-d0c525e0c6aa","ios":"levelo://app?vid=642a5d59-ee52-4b16-8f30-d0c525e0c6aa"},"vehicle_type_id":"4","last_reported":1717243995,"current_range_meters":6400,"station_id":"ce4bgj12rcd13ifvqbc0","pricing_plan_id":"cebpf4jnsgd1na2vs0mg"},{"bike_id":"d22cbe9a-588d-4a49-8995-cba91ac76804","system_id":"levelo_inurba_marseille","lat":43.299028,"lon":5.381509,"is_reserved":false,"is_disabled":false,"rental_uris":{"android":"levelo://app?vid=d22cbe9a-588d-4a49-8995-cba91ac76804","ios":"levelo://app?vid=d22cbe9a-588d-4a49-8995-cba91ac76804"},"vehicle_type_id":"4","last_reported":1717243995,"current_range_meters":7600,"station_id":"ce4bgj12rcd13ifvqbc0","pricing_plan_id":"cebpf4jnsgd1na2vs0mg"},{"bike_id":"2a04ef74-0464-4667-ad9e-97352688149c","system_id":"levelo_inurba_marseille","lat":43.299028,"lon":5.381509,"is_reserved":false,"is_disabled":false,"rental_uris":{"android":"levelo://app?vid=2a04ef74-0464-4667-ad9e-97352688149c","ios":"levelo://app?vid=2a04ef74-0464-4667-ad9e-97352688149c"},"vehicle_type_id":"4","last_reported":1717243995,"current_range_meters":13200,"station_id":"ce4bgj12rcd13ifvqbc0","pricing_plan_id":"cebpf4jnsgd1na2vs0mg"},{"bike_id":"9974ca2c-2982-4fd3-b2a0-4212c67e59e6","system_id":"levelo_inurba_marseille","lat":43.299028,"lon":5.381509,"is_reserved":false,"is_disabled":false,"rental_uris":{"android":"levelo://app?vid=9974ca2c-2982-4fd3-b2a0-4212c67e59e6","ios":"levelo://app?vid=9974ca2c-2982-4fd3-b2a0-4212c67e59e6"},"vehicle_type_id":"4","last_reported":1717243995,"current_range_meters":20000,"station_id":"ce4bgj12rcd13ifvqbc0","pricing_plan_id":"cebpf4jnsgd1na2vs0mg"},{"bike_id":"2c06de57-8894-4c1b-ae49-f6ac7cca09fd","system_id":"levelo_inurba_marseille","lat":43.299028,"lon":5.381509,"is_reserved":false,"is_disabled":false,"rental_uris":{"android":"levelo://app?vid=2c06de57-8894-4c1b-ae49-f6ac7cca09fd","ios":"levelo://app?vid=2c06de57-8894-4c1b-ae49-f6ac7cca09fd"},"vehicle_type_id":"4","last_reported":1717243995,"current_range_meters":19200,"station_id":"ce4bgj12rcd13ifvqbc0","pricing_plan_id":"cebpf4jnsgd1na2vs0mg"},{"bike_id":"d37705ca-6a51-412d-b7cf-817b88c5f44d","system_id":"levelo_inurba_marseille","lat":43.309589,"lon":5.390258,"is_reserved":false,"is_disabled":false,"rental_uris":{"android":"levelo://app?vid=d37705ca-6a51-412d-b7cf-817b88c5f44d","ios":"levelo://app?vid=d37705ca-6a51-412d-b7cf-817b88c5f44d"},"vehicle_type_id":"4","last_reported":1717243995,"current_range_meters":16400,"station_id":"ce4bgup2rcd13ifvqco0","pricing_plan_id":"cebpf4jnsgd1na2vs0mg"},{"bike_id":"573419c0-ca67-42a9-886f-0e9349faf6a5","system_id":"levelo_inurba_marseille","lat":43.30953,"lon":5.3905,"is_reserved":false,"is_disabled":false,"rental_uris":{"android":"levelo://app?vid=573419c0-ca67-42a9-886f-0e9349faf6a5","ios":"levelo://app?vid=573419c0-ca67-42a9-886f-0e9349faf6a5"},"vehicle_type_id":"4","last_reported":1717243995,"current_range_meters":12000,"station_id":"ce4bgup2rcd13ifvqco0","pricing_plan_id":"cebpf4jnsgd1na2vs0mg"},{"bike_id":"ffe7e4ba-62c6-4208-9158-f0083131206b","system_id":"levelo_inurba_marseille","lat":43.296829,"lon":5.377781,"is_reserved":false,"is_disabled":false,"rental_uris":{"android":"levelo://app?vid=ffe7e4ba-62c6-4208-9158-f0083131206b","ios":"levelo://app?vid=ffe7e4ba-62c6-4208-9158-f0083131206b"},"vehicle_type_id":"4","last_reported":1717243995,"current_range_meters":27600,"station_id":"ce4bgkh2rcd13ifvqbl0","pricing_plan_id":"cebpf4jnsgd1na2vs0mg"},{"bike_id":"e9d7f8eb-8712-4356-b02b-c90416985fac","system_id":"levelo_inurba_marseille","lat":43.298037,"lon":5.381066,"is_reserved":false,"is_disabled":false,"rental_uris":{"android":"levelo://app?vid=e9d7f8eb-8712-4356-b02b-c90416985fac","ios":"levelo://app?vid=e9d7f8eb-8712-4356-b02b-c90416985fac"},"vehicle_type_id":"4","last_reported":1717243995,"current_range_meters":31600,"station_id":"ce4bgip2rcd13ifvqbb0","pricing_plan_id":"cebpf4jnsgd1na2vs0mg"},{"bike_id":"b25e22be-7b05-4755-85c5-826dfdd1c23f","system_id":"levelo_inurba_marseille","lat":43.298037,"lon":5.381066,"is_reserved":false,"is_disabled":false,"rental_uris":{"android":"levelo://app?vid=b25e22be-7b05-4755-85c5-826dfdd1c23f","ios":"levelo://app?vid=b25e22be-7b05-4755-85c5-826dfdd1c23f"},"vehicle_type_id":"4","last_reported":1717243995,"current_range_meters":27200,"station_id":"ce4bgip2rcd13ifvqbb0","pricing_plan_id":"cebpf4jnsgd1na2vs0mg"},{"bike_id":"f83201b5-99a4-454e-98ff-83de504aaeec","system_id":"levelo_inurba_marseille","lat":43.298037,"lon":5.381066,"is_reserved":false,"is_disabled":false,"rental_uris":{"android":"levelo://app?vid=f83201b5-99a4-454e-98ff-83de504aaeec","ios":"levelo://app?vid=f83201b5-99a4-454e-98ff-83de504aaeec"},"vehicle_type_id":"4","last_reported":1717243995,"current_range_meters":18800,"station_id":"ce4bgip2rcd13ifvqbb0","pricing_plan_id":"cebpf4jnsgd1na2vs0mg"},{"bike_id":"66936375-603b-4aef-9071-caadcd8b9095","system_id":"levelo_inurba_marseille","lat":43.298037,"lon":5.381066,"is_reserved":false,"is_disabled":false,"rental_uris":{"android":"levelo://app?vid=66936375-603b-4aef-9071-caadcd8b9095","ios":"levelo://app?vid=66936375-603b-4aef-9071-caadcd8b9095"},"vehicle_type_id":"4","last_reported":1717243995,"current_range_meters":3600,"station_id":"ce4bgip2rcd13ifvqbb0","pricing_plan_id":"cebpf4jnsgd1na2vs0mg"},{"bike_id":"cc580481-a919-4d89-bac5-2fa76c121175","system_id":"levelo_inurba_marseille","lat":43.296277,"lon":5.377108,"is_reserved":false,"is_disabled":false,"rental_uris":{"android":"levelo://app?vid=cc580481-a919-4d89-bac5-2fa76c121175","ios":"levelo://app?vid=cc580481-a919-4d89-bac5-2fa76c121175"},"vehicle_type_id":"4","last_reported":1717243995,"current_range_meters":31200,"station_id":"ce4bgi92rcd13ifvqb90","pricing_plan_id":"cebpf4jnsgd1na2vs0mg"},{"bike_id":"aefa3d9a-53f7-48a6-8951-2d4d01c829e9","system_id":"levelo_inurba_marseille","lat":43.296277,"lon":5.377108,"is_reserved":false,"is_disabled":false,"rental_uris":{"android":"levelo://app?vid=aefa3d9a-53f7-48a6-8951-2d4d01c829e9","ios":"levelo://app?vid=aefa3d9a-53f7-48a6-8951-2d4d01c829e9"},"vehicle_type_id":"4","last_reported":1717243995,"current_range_meters":23600,"station_id":"ce4bgi92rcd13ifvqb90","pricing_plan_id":"cebpf4jnsgd1na2vs0mg"},{"bike_id":"1ce6e1f6-4a27-43b2-9f77-7984116f35a4","system_id":"levelo_inurba_marseille","lat":43.295748,"lon":5.37522,"is_reserved":false,"is_disabled":false,"rental_uris":{"android":"levelo://app?vid=1ce6e1f6-4a27-43b2-9f77-7984116f35a4","ios":"levelo://app?vid=1ce6e1f6-4a27-43b2-9f77-7984116f35a4"},"vehicle_type_id":"4","last_reported":1717243995,"current_range_meters":11600,"station_id":"ce4bgh92rcd13ifvqb50","pricing_plan_id":"cebpf4jnsgd1na2vs0mg"},{"bike_id":"7495899f-3e1a-408d-a221-3532b516ca93","system_id":"levelo_inurba_marseille","lat":43.296263,"lon":5.377094,"is_reserved":false,"is_disabled":false,"rental_uris":{"android":"levelo://app?vid=7495899f-3e1a-408d-a221-3532b516ca93","ios":"levelo://app?vid=7495899f-3e1a-408d-a221-3532b516ca93"},"vehicle_type_id":"4","last_reported":1717243995,"current_range_meters":25600,"station_id":"ce4bgi92rcd13ifvqb90","pricing_plan_id":"cebpf4jnsgd1na2vs0mg"},{"bike_id":"a291b308-1b9e-4b9c-88b3-54b23ae1792d","system_id":"levelo_inurba_marseille","lat":43.29616,"lon":5.37729,"is_reserved":false,"is_disabled":false,"rental_uris":{"android":"levelo://app?vid=a291b308-1b9e-4b9c-88b3-54b23ae1792d","ios":"levelo://app?vid=a291b308-1b9e-4b9c-88b3-54b23ae1792d"},"vehicle_type_id":"4","last_reported":1717243995,"current_range_meters":0,"station_id":"ce4bgi92rcd13ifvqb90","pricing_plan_id":"cebpf4jnsgd1na2vs0mg"},{"bike_id":"8e434aa9-594f-4a8b-839b-d4a7d7c6b4e5","system_id":"levelo_inurba_marseille","lat":43.296263,"lon":5.377094,"is_reserved":false,"is_disabled":false,"rental_uris":{"android":"levelo://app?vid=8e434aa9-594f-4a8b-839b-d4a7d7c6b4e5","ios":"levelo://app?vid=8e434aa9-594f-4a8b-839b-d4a7d7c6b4e5"},"vehicle_type_id":"4","last_reported":1717243995,"current_range_meters":8400,"station_id":"ce4bgi92rcd13ifvqb90","pricing_plan_id":"cebpf4jnsgd1na2vs0mg"},{"bike_id":"5ccbb57c-c968-467b-96e9-62410171fbd9","system_id":"levelo_inurba_marseille","lat":43.299707,"lon":5.384859,"is_reserved":false,"is_disabled":false,"rental_uris":{"android":"levelo://app?vid=5ccbb57c-c968-467b-96e9-62410171fbd9","ios":"levelo://app?vid=5ccbb57c-c968-467b-96e9-62410171fbd9"},"vehicle_type_id":"4","last_reported":1717243995,"current_range_meters":28800,"station_id":"ce4bgj92rcd13ifvqbd0","pricing_plan_id":"cebpf4jnsgd1na2vs0mg"},{"bike_id":"2636bfaf-4a20-4a49-97cf-f57755a8dcea","system_id":"levelo_inurba_marseille","lat":43.29534,"lon":5.37501,"is_reserved":false,"is_disabled":false,"rental_uris":{"android":"levelo://app?vid=2636bfaf-4a20-4a49-97cf-f57755a8dcea","ios":"levelo://app?vid=2636bfaf-4a20-4a49-97cf-f57755a8dcea"},"vehicle_type_id":"4","last_reported":1717243995,"current_range_meters":24800,"station_id":"ce4bgkp2rcd13ifvqbmg","pricing_plan_id":"cebpf4jnsgd1na2vs0mg"},{"bike_id":"75feee62-131b-4eff-bfeb-a2b0e0a25b29","system_id":"levelo_inurba_marseille","lat":43.295279,"lon":5.375048,"is_reserved":false,"is_disabled":false,"rental_uris":{"android":"levelo://app?vid=75feee62-131b-4eff-bfeb-a2b0e0a25b29","ios":"levelo://app?vid=75feee62-131b-4eff-bfeb-a2b0e0a25b29"},"vehicle_type_id":"4","last_reported":1717243995,"current_range_meters":10800,"station_id":"ce4bgkp2rcd13ifvqbmg","pricing_plan_id":"cebpf4jnsgd1na2vs0mg"},{"bike_id":"89b107a1-746d-4bb9-88bb-e70e1ab42072","system_id":"levelo_inurba_marseille","lat":43.296092,"lon":5.377625,"is_reserved":false,"is_disabled":false,"rental_uris":{"android":"levelo://app?vid=89b107a1-746d-4bb9-88bb-e70e1ab42072","ios":"levelo://app?vid=89b107a1-746d-4bb9-88bb-e70e1ab42072"},"vehicle_type_id":"4","last_reported":1717243995,"current_range_meters":15600,"station_id":"ce4bgi92rcd13ifvqb90","pricing_plan_id":"cebpf4jnsgd1na2vs0mg"},{"bike_id":"43efc9c5-00b4-4788-a766-c38589015975","system_id":"levelo_inurba_marseille","lat":43.295331,"lon":5.375052,"is_reserved":false,"is_disabled":false,"rental_uris":{"android":"levelo://app?vid=43efc9c5-00b4-4788-a766-c38589015975","ios":"levelo://app?vid=43efc9c5-00b4-4788-a766-c38589015975"},"vehicle_type_id":"4","last_reported":1717243995,"current_range_meters":29200,"station_id":"ce4bgkp2rcd13ifvqbmg","pricing_plan_id":"cebpf4jnsgd1na2vs0mg"},{"bike_id":"fa2aa99a-b2f5-4ae1-9cea-9c5d7bee4b7b","system_id":"levelo_inurba_marseille","lat":43.29588,"lon":5.37733,"is_reserved":false,"is_disabled":false,"rental_uris":{"android":"levelo://app?vid=fa2aa99a-b2f5-4ae1-9cea-9c5d7bee4b7b","ios":"levelo://app?vid=fa2aa99a-b2f5-4ae1-9cea-9c5d7bee4b7b"},"vehicle_type_id":"4","last_reported":1717243995,"current_range_meters":16000,"station_id":"ce4bgi92rcd13ifvqb90","pricing_plan_id":"cebpf4jnsgd1na2vs0mg"},{"bike_id":"f37573f3-8e48-469e-900e-b4c284e75e40","system_id":"levelo_inurba_marseille","lat":43.295154,"lon":5.375157,"is_reserved":false,"is_disabled":false,"rental_uris":{"android":"levelo://app?vid=f37573f3-8e48-469e-900e-b4c284e75e40","ios":"levelo://app?vid=f37573f3-8e48-469e-900e-b4c284e75e40"},"vehicle_type_id":"4","last_reported":1717243995,"current_range_meters":9600,"station_id":"ce4bgkp2rcd13ifvqbmg","pricing_plan_id":"cebpf4jnsgd1na2vs0mg"},{"bike_id":"70c8f227-47c7-4e33-bf2f-92e3c2bff11f","system_id":"levelo_inurba_marseille","lat":43.299724,"lon":5.384848,"is_reserved":false,"is_disabled":false,"rental_uris":{"android":"levelo://app?vid=70c8f227-47c7-4e33-bf2f-92e3c2bff11f","ios":"levelo://app?vid=70c8f227-47c7-4e33-bf2f-92e3c2bff11f"},"vehicle_type_id":"4","last_reported":1717243995,"current_range_meters":14000,"station_id":"ce4bgj92rcd13ifvqbd0","pricing_plan_id":"cebpf4jnsgd1na2vs0mg"},{"bike_id":"fdedc26c-24be-4d0d-8e8c-7b5868fc7762","system_id":"levelo_inurba_marseille","lat":43.303002,"lon":5.392142,"is_reserved":false,"is_disabled":false,"rental_uris":{"android":"levelo://app?vid=fdedc26c-24be-4d0d-8e8c-7b5868fc7762","ios":"levelo://app?vid=fdedc26c-24be-4d0d-8e8c-7b5868fc7762"},"vehicle_type_id":"4","last_reported":1717243995,"current_range_meters":25200,"station_id":"ce4bgkh2rcd13ifvqbk0","pricing_plan_id":"cebpf4jnsgd1na2vs0mg"},{"bike_id":"4cafb3db-0a16-4772-9dc4-f9907f434638","system_id":"levelo_inurba_marseille","lat":43.29602,"lon":5.381084,"is_reserved":false,"is_disabled":false,"rental_uris":{"android":"levelo://app?vid=4cafb3db-0a16-4772-9dc4-f9907f434638","ios":"levelo://app?vid=4cafb3db-0a16-4772-9dc4-f9907f434638"},"vehicle_type_id":"4","last_reported":1717243995,"current_range_meters":8800,"station_id":"ce4bgl12rcd13ifvqbo0","pricing_plan_id":"cebpf4jnsgd1na2vs0mg"},{"bike_id":"95a82b63-49b0-498a-98da-b174453149a3","system_id":"levelo_inurba_marseille","lat":43.29602,"lon":5.381084,"is_reserved":false,"is_disabled":false,"rental_uris":{"android":"levelo://app?vid=95a82b63-49b0-498a-98da-b174453149a3","ios":"levelo://app?vid=95a82b63-49b0-498a-98da-b174453149a3"},"vehicle_type_id":"4","last_reported":1717243995,"current_range_meters":0,"station_id":"ce4bgl12rcd13ifvqbo0","pricing_plan_id":"cebpf4jnsgd1na2vs0mg"},{"bike_id":"f23f56a2-3f22-4322-8dea-15cba24a0b53","system_id":"levelo_inurba_marseille","lat":43.29602,"lon":5.381084,"is_reserved":false,"is_disabled":false,"rental_uris":{"android":"levelo://app?vid=f23f56a2-3f22-4322-8dea-15cba24a0b53","ios":"levelo://app?vid=f23f56a2-3f22-4322-8dea-15cba24a0b53"},"vehicle_type_id":"4","last_reported":1717243995,"current_range_meters":8400,"station_id":"ce4bgl12rcd13ifvqbo0","pricing_plan_id":"cebpf4jnsgd1na2vs0mg"},{"bike_id":"53c4f62c-4c19-4004-b6ca-d4989b18e409","system_id":"levelo_inurba_marseille","lat":43.293259,"lon":5.371586,"is_reserved":false,"is_disabled":false,"rental_uris":{"android":"levelo://app?vid=53c4f62c-4c19-4004-b6ca-d4989b18e409","ios":"levelo://app?vid=53c4f62c-4c19-4004-b6ca-d4989b18e409"},"vehicle_type_id":"4","last_reported":1717243995,"current_range_meters":2400,"station_id":"ce4bgh92rcd13ifvqb40","pricing_plan_id":"cebpf4jnsgd1na2vs0mg"},{"bike_id":"8f631f9d-b1cb-4e61-af02-5db0ca6c7cf1","system_id":"levelo_inurba_marseille","lat":43.292988,"lon":5.374573,"is_reserved":false,"is_disabled":false,"rental_uris":{"android":"levelo://app?vid=8f631f9d-b1cb-4e61-af02-5db0ca6c7cf1","ios":"levelo://app?vid=8f631f9d-b1cb-4e61-af02-5db0ca6c7cf1"},"vehicle_type_id":"4","last_reported":1717243995,"current_range_meters":26400,"station_id":"ce4bgi12rcd13ifvqb70","pricing_plan_id":"cebpf4jnsgd1na2vs0mg"},{"bike_id":"c1391ff3-a6db-4c5d-8339-4cb9e8e85fe2","system_id":"levelo_inurba_marseille","lat":43.293009,"lon":5.374584,"is_reserved":false,"is_disabled":false,"rental_uris":{"android":"levelo://app?vid=c1391ff3-a6db-4c5d-8339-4cb9e8e85fe2","ios":"levelo://app?vid=c1391ff3-a6db-4c5d-8339-4cb9e8e85fe2"},"vehicle_type_id":"4","last_reported":1717243995,"current_range_meters":400,"station_id":"ce4bgi12rcd13ifvqb70","pricing_plan_id":"cebpf4jnsgd1na2vs0mg"},{"bike_id":"770bca92-cf51-4ac3-ba02-e0895e3a0a07","system_id":"levelo_inurba_marseille","lat":43.305994,"lon":5.393687,"is_reserved":false,"is_disabled":false,"rental_uris":{"android":"levelo://app?vid=770bca92-cf51-4ac3-ba02-e0895e3a0a07","ios":"levelo://app?vid=770bca92-cf51-4ac3-ba02-e0895e3a0a07"},"vehicle_type_id":"4","last_reported":1717243995,"current_range_meters":14000,"station_id":"ce4bh0p2rcd13ifvqd80","pricing_plan_id":"cebpf4jnsgd1na2vs0mg"},{"bike_id":"13a03f03-b986-4c04-a11c-1360acaa13db","system_id":"levelo_inurba_marseille","lat":43.303002,"lon":5.392142,"is_reserved":false,"is_disabled":false,"rental_uris":{"android":"levelo://app?vid=13a03f03-b986-4c04-a11c-1360acaa13db","ios":"levelo://app?vid=13a03f03-b986-4c04-a11c-1360acaa13db"},"vehicle_type_id":"4","last_reported":1717243995,"current_range_meters":29200,"station_id":"ce4bgkh2rcd13ifvqbk0","pricing_plan_id":"cebpf4jnsgd1na2vs0mg"},{"bike_id":"95a6f55f-5e03-4497-b2b3-9b8171a5d84f","system_id":"levelo_inurba_marseille","lat":43.30308,"lon":5.39207,"is_reserved":false,"is_disabled":false,"rental_uris":{"android":"levelo://app?vid=95a6f55f-5e03-4497-b2b3-9b8171a5d84f","ios":"levelo://app?vid=95a6f55f-5e03-4497-b2b3-9b8171a5d84f"},"vehicle_type_id":"4","last_reported":1717243995,"current_range_meters":0,"station_id":"ce4bgkh2rcd13ifvqbk0","pricing_plan_id":"cebpf4jnsgd1na2vs0mg"},{"bike_id":"3b602e71-a5b7-4f01-b6a5-e5c3fc2b973a","system_id":"levelo_inurba_marseille","lat":43.29371,"lon":5.37854,"is_reserved":false,"is_disabled":false,"rental_uris":{"android":"levelo://app?vid=3b602e71-a5b7-4f01-b6a5-e5c3fc2b973a","ios":"levelo://app?vid=3b602e71-a5b7-4f01-b6a5-e5c3fc2b973a"},"vehicle_type_id":"4","last_reported":1717243995,"current_range_meters":29200,"station_id":"ce4bgjh2rcd13ifvqbf0","pricing_plan_id":"cebpf4jnsgd1na2vs0mg"},{"bike_id":"16821cf3-bd0b-418c-98ee-a685e4ea7d10","system_id":"levelo_inurba_marseille","lat":43.302994,"lon":5.392232,"is_reserved":false,"is_disabled":false,"rental_uris":{"android":"levelo://app?vid=16821cf3-bd0b-418c-98ee-a685e4ea7d10","ios":"levelo://app?vid=16821cf3-bd0b-418c-98ee-a685e4ea7d10"},"vehicle_type_id":"4","last_reported":1717243995,"current_range_meters":17600,"station_id":"","pricing_plan_id":"cebpf4jnsgd1na2vs0mg"},{"bike_id":"40a0c4f3-8a33-4a9e-876e-7897411a9811","system_id":"levelo_inurba_marseille","lat":43.2936,"lon":5.37835,"is_reserved":false,"is_disabled":false,"rental_uris":{"android":"levelo://app?vid=40a0c4f3-8a33-4a9e-876e-7897411a9811","ios":"levelo://app?vid=40a0c4f3-8a33-4a9e-876e-7897411a9811"},"vehicle_type_id":"4","last_reported":1717243995,"current_range_meters":16800,"station_id":"ce4bgjh2rcd13ifvqbf0","pricing_plan_id":"cebpf4jnsgd1na2vs0mg"},{"bike_id":"63f56ece-77db-4606-ac3c-e668e07024f4","system_id":"levelo_inurba_marseille","lat":43.29235,"lon":5.3605,"is_reserved":false,"is_disabled":false,"rental_uris":{"android":"levelo://app?vid=63f56ece-77db-4606-ac3c-e668e07024f4","ios":"levelo://app?vid=63f56ece-77db-4606-ac3c-e668e07024f4"},"vehicle_type_id":"4","last_reported":1717243995,"current_range_meters":0,"station_id":"ce4bhbh2rcd13ifvqeqg","pricing_plan_id":"cebpf4jnsgd1na2vs0mg"},{"bike_id":"b60d7c02-7e25-41c0-aca7-d37753d991a7","system_id":"levelo_inurba_marseille","lat":43.292311,"lon":5.360731,"is_reserved":false,"is_disabled":false,"rental_uris":{"android":"levelo://app?vid=b60d7c02-7e25-41c0-aca7-d37753d991a7","ios":"levelo://app?vid=b60d7c02-7e25-41c0-aca7-d37753d991a7"},"vehicle_type_id":"4","last_reported":1717243995,"current_range_meters":22000,"station_id":"ce4bhbh2rcd13ifvqeqg","pricing_plan_id":"cebpf4jnsgd1na2vs0mg"},{"bike_id":"db4818b3-8267-440b-8872-2667883e55fb","system_id":"levelo_inurba_marseille","lat":43.292318,"lon":5.360617,"is_reserved":false,"is_disabled":false,"rental_uris":{"android":"levelo://app?vid=db4818b3-8267-440b-8872-2667883e55fb","ios":"levelo://app?vid=db4818b3-8267-440b-8872-2667883e55fb"},"vehicle_type_id":"4","last_reported":1717243995,"current_range_meters":7200,"station_id":"ce4bhbh2rcd13ifvqeqg","pricing_plan_id":"cebpf4jnsgd1na2vs0mg"},{"bike_id":"bc1598f8-97ac-4866-b886-36c076d90b5f","system_id":"levelo_inurba_marseille","lat":43.29233,"lon":5.36048,"is_reserved":false,"is_disabled":false,"rental_uris":{"android":"levelo://app?vid=bc1598f8-97ac-4866-b886-36c076d90b5f","ios":"levelo://app?vid=bc1598f8-97ac-4866-b886-36c076d90b5f"},"vehicle_type_id":"4","last_reported":1717243995,"current_range_meters":11600,"station_id":"ce4bhbh2rcd13ifvqeqg","pricing_plan_id":"cebpf4jnsgd1na2vs0mg"},{"bike_id":"19c2ee64-c1e5-48b5-b25b-999a42d36361","system_id":"levelo_inurba_marseille","lat":43.29226,"lon":5.36064,"is_reserved":false,"is_disabled":false,"rental_uris":{"android":"levelo://app?vid=19c2ee64-c1e5-48b5-b25b-999a42d36361","ios":"levelo://app?vid=19c2ee64-c1e5-48b5-b25b-999a42d36361"},"vehicle_type_id":"4","last_reported":1717243995,"current_range_meters":14000,"station_id":"ce4bhbh2rcd13ifvqeqg","pricing_plan_id":"cebpf4jnsgd1na2vs0mg"},{"bike_id":"738a1a36-3024-4912-9261-26b52496e6e8","system_id":"levelo_inurba_marseille","lat":43.29224,"lon":5.36075,"is_reserved":false,"is_disabled":false,"rental_uris":{"android":"levelo://app?vid=738a1a36-3024-4912-9261-26b52496e6e8","ios":"levelo://app?vid=738a1a36-3024-4912-9261-26b52496e6e8"},"vehicle_type_id":"4","last_reported":1717243995,"current_range_meters":2000,"station_id":"ce4bhbh2rcd13ifvqeqg","pricing_plan_id":"cebpf4jnsgd1na2vs0mg"},{"bike_id":"34f82f60-b5c7-4184-a559-dbae2f16d31c","system_id":"levelo_inurba_marseille","lat":43.292311,"lon":5.360731,"is_reserved":false,"is_disabled":false,"rental_uris":{"android":"levelo://app?vid=34f82f60-b5c7-4184-a559-dbae2f16d31c","ios":"levelo://app?vid=34f82f60-b5c7-4184-a559-dbae2f16d31c"},"vehicle_type_id":"4","last_reported":1717243995,"current_range_meters":28000,"station_id":"ce4bhbh2rcd13ifvqeqg","pricing_plan_id":"cebpf4jnsgd1na2vs0mg"},{"bike_id":"71a6a312-d90c-4977-b520-a2e3d79de9b1","system_id":"levelo_inurba_marseille","lat":43.292311,"lon":5.360731,"is_reserved":false,"is_disabled":false,"rental_uris":{"android":"levelo://app?vid=71a6a312-d90c-4977-b520-a2e3d79de9b1","ios":"levelo://app?vid=71a6a312-d90c-4977-b520-a2e3d79de9b1"},"vehicle_type_id":"4","last_reported":1717243995,"current_range_meters":10000,"station_id":"ce4bhbh2rcd13ifvqeqg","pricing_plan_id":"cebpf4jnsgd1na2vs0mg"},{"bike_id":"a471c294-4fae-4da8-bd9d-eef97dbfb8fd","system_id":"levelo_inurba_marseille","lat":43.298764,"lon":5.388973,"is_reserved":false,"is_disabled":false,"rental_uris":{"android":"levelo://app?vid=a471c294-4fae-4da8-bd9d-eef97dbfb8fd","ios":"levelo://app?vid=a471c294-4fae-4da8-bd9d-eef97dbfb8fd"},"vehicle_type_id":"4","last_reported":1717243995,"current_range_meters":12000,"station_id":"ce4bh392rcd13ifvqdl0","pricing_plan_id":"cebpf4jnsgd1na2vs0mg"},{"bike_id":"c2561abb-13d1-4656-9a6e-244191aec242","system_id":"levelo_inurba_marseille","lat":43.292005,"lon":5.357875,"is_reserved":false,"is_disabled":false,"rental_uris":{"android":"levelo://app?vid=c2561abb-13d1-4656-9a6e-244191aec242","ios":"levelo://app?vid=c2561abb-13d1-4656-9a6e-244191aec242"},"vehicle_type_id":"4","last_reported":1717243995,"current_range_meters":0,"station_id":"ce4bhb12rcd13ifvqel0","pricing_plan_id":"cebpf4jnsgd1na2vs0mg"},{"bike_id":"924b4191-c3e7-400a-887a-dd1e0a44ec47","system_id":"levelo_inurba_marseille","lat":43.291994,"lon":5.357886,"is_reserved":false,"is_disabled":false,"rental_uris":{"android":"levelo://app?vid=924b4191-c3e7-400a-887a-dd1e0a44ec47","ios":"levelo://app?vid=924b4191-c3e7-400a-887a-dd1e0a44ec47"},"vehicle_type_id":"4","last_reported":1717243995,"current_range_meters":31600,"station_id":"ce4bhb12rcd13ifvqel0","pricing_plan_id":"cebpf4jnsgd1na2vs0mg"},{"bike_id":"7a9b7777-7b94-42e3-b25c-4dbc5d64880d","system_id":"levelo_inurba_marseille","lat":43.291994,"lon":5.357886,"is_reserved":false,"is_disabled":false,"rental_uris":{"android":"levelo://app?vid=7a9b7777-7b94-42e3-b25c-4dbc5d64880d","ios":"levelo://app?vid=7a9b7777-7b94-42e3-b25c-4dbc5d64880d"},"vehicle_type_id":"4","last_reported":1717243995,"current_range_meters":15600,"station_id":"ce4bhb12rcd13ifvqel0","pricing_plan_id":"cebpf4jnsgd1na2vs0mg"},{"bike_id":"f87e40e3-2c36-47a4-a080-ec7a5ada86b7","system_id":"levelo_inurba_marseille","lat":43.291994,"lon":5.357886,"is_reserved":false,"is_disabled":false,"rental_uris":{"android":"levelo://app?vid=f87e40e3-2c36-47a4-a080-ec7a5ada86b7","ios":"levelo://app?vid=f87e40e3-2c36-47a4-a080-ec7a5ada86b7"},"vehicle_type_id":"4","last_reported":1717243995,"current_range_meters":0,"station_id":"ce4bhb12rcd13ifvqel0","pricing_plan_id":"cebpf4jnsgd1na2vs0mg"},{"bike_id":"5f55bbc5-5f84-4002-b8b7-a88d71e1667e","system_id":"levelo_inurba_marseille","lat":43.292005,"lon":5.357875,"is_reserved":false,"is_disabled":false,"rental_uris":{"android":"levelo://app?vid=5f55bbc5-5f84-4002-b8b7-a88d71e1667e","ios":"levelo://app?vid=5f55bbc5-5f84-4002-b8b7-a88d71e1667e"},"vehicle_type_id":"4","last_reported":1717243995,"current_range_meters":800,"station_id":"ce4bhb12rcd13ifvqel0","pricing_plan_id":"cebpf4jnsgd1na2vs0mg"},{"bike_id":"cfaffeb3-26be-402f-960b-c8e2b09720e1","system_id":"levelo_inurba_marseille","lat":43.291994,"lon":5.357886,"is_reserved":false,"is_disabled":false,"rental_uris":{"android":"levelo://app?vid=cfaffeb3-26be-402f-960b-c8e2b09720e1","ios":"levelo://app?vid=cfaffeb3-26be-402f-960b-c8e2b09720e1"},"vehicle_type_id":"4","last_reported":1717243995,"current_range_meters":10000,"station_id":"ce4bhb12rcd13ifvqel0","pricing_plan_id":"cebpf4jnsgd1na2vs0mg"},{"bike_id":"4d3c82a3-c6c6-4d5c-a61a-301f82f9bcdc","system_id":"levelo_inurba_marseille","lat":43.313291,"lon":5.396838,"is_reserved":false,"is_disabled":false,"rental_uris":{"android":"levelo://app?vid=4d3c82a3-c6c6-4d5c-a61a-301f82f9bcdc","ios":"levelo://app?vid=4d3c82a3-c6c6-4d5c-a61a-301f82f9bcdc"},"vehicle_type_id":"4","last_reported":1717243995,"current_range_meters":28800,"station_id":"ce4bgvp2rcd13ifvqcu0","pricing_plan_id":"cebpf4jnsgd1na2vs0mg"},{"bike_id":"a9dbcc31-a0ca-4146-8a1a-a71d41f62f94","system_id":"levelo_inurba_marseille","lat":43.291994,"lon":5.357886,"is_reserved":false,"is_disabled":false,"rental_uris":{"android":"levelo://app?vid=a9dbcc31-a0ca-4146-8a1a-a71d41f62f94","ios":"levelo://app?vid=a9dbcc31-a0ca-4146-8a1a-a71d41f62f94"},"vehicle_type_id":"4","last_reported":1717243995,"current_range_meters":9600,"station_id":"ce4bhb12rcd13ifvqel0","pricing_plan_id":"cebpf4jnsgd1na2vs0mg"},{"bike_id":"3d7c8304-c982-427b-af27-e54bde6fef60","system_id":"levelo_inurba_marseille","lat":43.29189,"lon":5.35801,"is_reserved":false,"is_disabled":false,"rental_uris":{"android":"levelo://app?vid=3d7c8304-c982-427b-af27-e54bde6fef60","ios":"levelo://app?vid=3d7c8304-c982-427b-af27-e54bde6fef60"},"vehicle_type_id":"4","last_reported":1717243995,"current_range_meters":24000,"station_id":"ce4bhb12rcd13ifvqel0","pricing_plan_id":"cebpf4jnsgd1na2vs0mg"},{"bike_id":"23f70405-f77c-46fc-93da-36d3e0d93336","system_id":"levelo_inurba_marseille","lat":43.291994,"lon":5.357886,"is_reserved":false,"is_disabled":false,"rental_uris":{"android":"levelo://app?vid=23f70405-f77c-46fc-93da-36d3e0d93336","ios":"levelo://app?vid=23f70405-f77c-46fc-93da-36d3e0d93336"},"vehicle_type_id":"4","last_reported":1717243995,"current_range_meters":18800,"station_id":"ce4bhb12rcd13ifvqel0","pricing_plan_id":"cebpf4jnsgd1na2vs0mg"},{"bike_id":"13677fed-8d60-471f-a1fa-48820be06d41","system_id":"levelo_inurba_marseille","lat":43.313291,"lon":5.396838,"is_reserved":false,"is_disabled":false,"rental_uris":{"android":"levelo://app?vid=13677fed-8d60-471f-a1fa-48820be06d41","ios":"levelo://app?vid=13677fed-8d60-471f-a1fa-48820be06d41"},"vehicle_type_id":"4","last_reported":1717243995,"current_range_meters":0,"station_id":"ce4bgvp2rcd13ifvqcu0","pricing_plan_id":"cebpf4jnsgd1na2vs0mg"},{"bike_id":"0cd869b6-86c1-4aed-a055-7483cea3b85d","system_id":"levelo_inurba_marseille","lat":43.292936,"lon":5.379776,"is_reserved":false,"is_disabled":false,"rental_uris":{"android":"levelo://app?vid=0cd869b6-86c1-4aed-a055-7483cea3b85d","ios":"levelo://app?vid=0cd869b6-86c1-4aed-a055-7483cea3b85d"},"vehicle_type_id":"4","last_reported":1717243995,"current_range_meters":15200,"station_id":"ce4bh4p2rcd13ifvqe1g","pricing_plan_id":"cebpf4jnsgd1na2vs0mg"},{"bike_id":"8a58ab94-a6bf-44dc-a587-29eca055e3ff","system_id":"levelo_inurba_marseille","lat":43.309038,"lon":5.396546,"is_reserved":false,"is_disabled":false,"rental_uris":{"android":"levelo://app?vid=8a58ab94-a6bf-44dc-a587-29eca055e3ff","ios":"levelo://app?vid=8a58ab94-a6bf-44dc-a587-29eca055e3ff"},"vehicle_type_id":"4","last_reported":1717243995,"current_range_meters":13600,"station_id":"ce4bh012rcd13ifvqcv0","pricing_plan_id":"cebpf4jnsgd1na2vs0mg"},{"bike_id":"0013e667-c939-45d5-a7e8-bd44ec4b4816","system_id":"levelo_inurba_marseille","lat":43.29529,"lon":5.385581,"is_reserved":false,"is_disabled":false,"rental_uris":{"android":"levelo://app?vid=0013e667-c939-45d5-a7e8-bd44ec4b4816","ios":"levelo://app?vid=0013e667-c939-45d5-a7e8-bd44ec4b4816"},"vehicle_type_id":"4","last_reported":1717243995,"current_range_meters":11600,"station_id":"ce4bgih2rcd13ifvqba0","pricing_plan_id":"cebpf4jnsgd1na2vs0mg"},{"bike_id":"733ce059-1cf8-453f-b120-538dad9e9664","system_id":"levelo_inurba_marseille","lat":43.290779,"lon":5.371482,"is_reserved":false,"is_disabled":false,"rental_uris":{"android":"levelo://app?vid=733ce059-1cf8-453f-b120-538dad9e9664","ios":"levelo://app?vid=733ce059-1cf8-453f-b120-538dad9e9664"},"vehicle_type_id":"4","last_reported":1717243995,"current_range_meters":0,"station_id":"ce4bh5p2rcd13ifvqe4g","pricing_plan_id":"cebpf4jnsgd1na2vs0mg"},{"bike_id":"6efe6800-fc77-4061-b219-4dd84fb891c9","system_id":"levelo_inurba_marseille","lat":43.302008,"lon":5.394694,"is_reserved":false,"is_disabled":false,"rental_uris":{"android":"levelo://app?vid=6efe6800-fc77-4061-b219-4dd84fb891c9","ios":"levelo://app?vid=6efe6800-fc77-4061-b219-4dd84fb891c9"},"vehicle_type_id":"4","last_reported":1717243995,"current_range_meters":7600,"station_id":"ce4bh0p2rcd13ifvqd70","pricing_plan_id":"cebpf4jnsgd1na2vs0mg"},{"bike_id":"eb8ebd5e-3647-40d7-9e75-e633cfd93ca1","system_id":"levelo_inurba_marseille","lat":43.290319,"lon":5.375732,"is_reserved":false,"is_disabled":false,"rental_uris":{"android":"levelo://app?vid=eb8ebd5e-3647-40d7-9e75-e633cfd93ca1","ios":"levelo://app?vid=eb8ebd5e-3647-40d7-9e75-e633cfd93ca1"},"vehicle_type_id":"4","last_reported":1717243995,"current_range_meters":16800,"station_id":"ce4bh692rcd13ifvqe90","pricing_plan_id":"cebpf4jnsgd1na2vs0mg"},{"bike_id":"832d3f9c-96d9-43a7-b72b-ff103d983e5d","system_id":"levelo_inurba_marseille","lat":43.29414,"lon":5.386247,"is_reserved":false,"is_disabled":false,"rental_uris":{"android":"levelo://app?vid=832d3f9c-96d9-43a7-b72b-ff103d983e5d","ios":"levelo://app?vid=832d3f9c-96d9-43a7-b72b-ff103d983e5d"},"vehicle_type_id":"4","last_reported":1717243995,"current_range_meters":31200,"station_id":"ce4bh2h2rcd13ifvqdh0","pricing_plan_id":"cebpf4jnsgd1na2vs0mg"},{"bike_id":"eef1e4c7-3b2c-4acb-9996-f3d12b8fe78e","system_id":"levelo_inurba_marseille","lat":43.289468,"lon":5.363719,"is_reserved":false,"is_disabled":false,"rental_uris":{"android":"levelo://app?vid=eef1e4c7-3b2c-4acb-9996-f3d12b8fe78e","ios":"levelo://app?vid=eef1e4c7-3b2c-4acb-9996-f3d12b8fe78e"},"vehicle_type_id":"4","last_reported":1717243995,"current_range_meters":8800,"station_id":"ce4bhc92rcd13ifvqetg","pricing_plan_id":"cebpf4jnsgd1na2vs0mg"},{"bike_id":"36e21970-037c-4112-8eed-3244cb858947","system_id":"levelo_inurba_marseille","lat":43.289468,"lon":5.363719,"is_reserved":false,"is_disabled":false,"rental_uris":{"android":"levelo://app?vid=36e21970-037c-4112-8eed-3244cb858947","ios":"levelo://app?vid=36e21970-037c-4112-8eed-3244cb858947"},"vehicle_type_id":"4","last_reported":1717243995,"current_range_meters":11200,"station_id":"ce4bhc92rcd13ifvqetg","pricing_plan_id":"cebpf4jnsgd1na2vs0mg"},{"bike_id":"3c318e46-aabe-40f2-9852-0dd5b2a36652","system_id":"levelo_inurba_marseille","lat":43.304274,"lon":5.397513,"is_reserved":false,"is_disabled":false,"rental_uris":{"android":"levelo://app?vid=3c318e46-aabe-40f2-9852-0dd5b2a36652","ios":"levelo://app?vid=3c318e46-aabe-40f2-9852-0dd5b2a36652"},"vehicle_type_id":"4","last_reported":1717243995,"current_range_meters":7200,"station_id":"ce4bh092rcd13ifvqd20","pricing_plan_id":"cebpf4jnsgd1na2vs0mg"},{"bike_id":"180e818c-10e2-4cbb-84e4-95e181d46056","system_id":"levelo_inurba_marseille","lat":43.290104,"lon":5.356111,"is_reserved":false,"is_disabled":false,"rental_uris":{"android":"levelo://app?vid=180e818c-10e2-4cbb-84e4-95e181d46056","ios":"levelo://app?vid=180e818c-10e2-4cbb-84e4-95e181d46056"},"vehicle_type_id":"4","last_reported":1717243995,"current_range_meters":14000,"station_id":"ce4bhb92rcd13ifvqen0","pricing_plan_id":"cebpf4jnsgd1na2vs0mg"},{"bike_id":"8217dbcf-120d-4895-b151-634fbc8c40e9","system_id":"levelo_inurba_marseille","lat":43.292642,"lon":5.384254,"is_reserved":false,"is_disabled":false,"rental_uris":{"android":"levelo://app?vid=8217dbcf-120d-4895-b151-634fbc8c40e9","ios":"levelo://app?vid=8217dbcf-120d-4895-b151-634fbc8c40e9"},"vehicle_type_id":"4","last_reported":1717243995,"current_range_meters":0,"station_id":"ce4bh692rcd13ifvqea0","pricing_plan_id":"cebpf4jnsgd1na2vs0mg"},{"bike_id":"0f9eb665-ec2e-413b-a333-788df147e6ca","system_id":"levelo_inurba_marseille","lat":43.290104,"lon":5.356111,"is_reserved":false,"is_disabled":false,"rental_uris":{"android":"levelo://app?vid=0f9eb665-ec2e-413b-a333-788df147e6ca","ios":"levelo://app?vid=0f9eb665-ec2e-413b-a333-788df147e6ca"},"vehicle_type_id":"4","last_reported":1717243995,"current_range_meters":19200,"station_id":"ce4bhb92rcd13ifvqen0","pricing_plan_id":"cebpf4jnsgd1na2vs0mg"},{"bike_id":"310fca2c-e4d2-49e0-bda0-11b08b0e6efe","system_id":"levelo_inurba_marseille","lat":43.290103,"lon":5.356114,"is_reserved":false,"is_disabled":false,"rental_uris":{"android":"levelo://app?vid=310fca2c-e4d2-49e0-bda0-11b08b0e6efe","ios":"levelo://app?vid=310fca2c-e4d2-49e0-bda0-11b08b0e6efe"},"vehicle_type_id":"4","last_reported":1717243995,"current_range_meters":22000,"station_id":"ce4bhb92rcd13ifvqen0","pricing_plan_id":"cebpf4jnsgd1na2vs0mg"},{"bike_id":"460e3c13-27eb-4a7d-8d76-864468616609","system_id":"levelo_inurba_marseille","lat":43.290104,"lon":5.356111,"is_reserved":false,"is_disabled":false,"rental_uris":{"android":"levelo://app?vid=460e3c13-27eb-4a7d-8d76-864468616609","ios":"levelo://app?vid=460e3c13-27eb-4a7d-8d76-864468616609"},"vehicle_type_id":"4","last_reported":1717243995,"current_range_meters":12800,"station_id":"ce4bhb92rcd13ifvqen0","pricing_plan_id":"cebpf4jnsgd1na2vs0mg"},{"bike_id":"c78dc9e0-c127-447f-9d10-3af5ce0f9298","system_id":"levelo_inurba_marseille","lat":43.290103,"lon":5.356114,"is_reserved":false,"is_disabled":false,"rental_uris":{"android":"levelo://app?vid=c78dc9e0-c127-447f-9d10-3af5ce0f9298","ios":"levelo://app?vid=c78dc9e0-c127-447f-9d10-3af5ce0f9298"},"vehicle_type_id":"4","last_reported":1717243995,"current_range_meters":1600,"station_id":"ce4bhb92rcd13ifvqen0","pricing_plan_id":"cebpf4jnsgd1na2vs0mg"},{"bike_id":"44550c54-c9ef-4567-a4ec-32cfdb3726e2","system_id":"levelo_inurba_marseille","lat":43.290104,"lon":5.356111,"is_reserved":false,"is_disabled":false,"rental_uris":{"android":"levelo://app?vid=44550c54-c9ef-4567-a4ec-32cfdb3726e2","ios":"levelo://app?vid=44550c54-c9ef-4567-a4ec-32cfdb3726e2"},"vehicle_type_id":"4","last_reported":1717243995,"current_range_meters":10800,"station_id":"ce4bhb92rcd13ifvqen0","pricing_plan_id":"cebpf4jnsgd1na2vs0mg"},{"bike_id":"53db6029-87dd-4ae4-9048-ba428f2d317d","system_id":"levelo_inurba_marseille","lat":43.290103,"lon":5.356114,"is_reserved":false,"is_disabled":false,"rental_uris":{"android":"levelo://app?vid=53db6029-87dd-4ae4-9048-ba428f2d317d","ios":"levelo://app?vid=53db6029-87dd-4ae4-9048-ba428f2d317d"},"vehicle_type_id":"4","last_reported":1717243995,"current_range_meters":26800,"station_id":"ce4bhb92rcd13ifvqen0","pricing_plan_id":"cebpf4jnsgd1na2vs0mg"},{"bike_id":"b44ead1d-0c43-47ec-a30e-fcaa686c6ad2","system_id":"levelo_inurba_marseille","lat":43.290103,"lon":5.356114,"is_reserved":false,"is_disabled":false,"rental_uris":{"android":"levelo://app?vid=b44ead1d-0c43-47ec-a30e-fcaa686c6ad2","ios":"levelo://app?vid=b44ead1d-0c43-47ec-a30e-fcaa686c6ad2"},"vehicle_type_id":"4","last_reported":1717243995,"current_range_meters":26800,"station_id":"ce4bhb92rcd13ifvqen0","pricing_plan_id":"cebpf4jnsgd1na2vs0mg"},{"bike_id":"dfd084ca-f9f4-4559-ae88-f42862c433ce","system_id":"levelo_inurba_marseille","lat":43.290103,"lon":5.356114,"is_reserved":false,"is_disabled":false,"rental_uris":{"android":"levelo://app?vid=dfd084ca-f9f4-4559-ae88-f42862c433ce","ios":"levelo://app?vid=dfd084ca-f9f4-4559-ae88-f42862c433ce"},"vehicle_type_id":"4","last_reported":1717243995,"current_range_meters":15600,"station_id":"ce4bhb92rcd13ifvqen0","pricing_plan_id":"cebpf4jnsgd1na2vs0mg"},{"bike_id":"db0381e5-fad4-4ff4-b1e9-7e11626f22ba","system_id":"levelo_inurba_marseille","lat":43.290103,"lon":5.356114,"is_reserved":false,"is_disabled":false,"rental_uris":{"android":"levelo://app?vid=db0381e5-fad4-4ff4-b1e9-7e11626f22ba","ios":"levelo://app?vid=db0381e5-fad4-4ff4-b1e9-7e11626f22ba"},"vehicle_type_id":"4","last_reported":1717243995,"current_range_meters":16400,"station_id":"ce4bhb92rcd13ifvqen0","pricing_plan_id":"cebpf4jnsgd1na2vs0mg"},{"bike_id":"1bd06ff9-dffc-4418-ac7d-ee59bf044751","system_id":"levelo_inurba_marseille","lat":43.290103,"lon":5.356114,"is_reserved":false,"is_disabled":false,"rental_uris":{"android":"levelo://app?vid=1bd06ff9-dffc-4418-ac7d-ee59bf044751","ios":"levelo://app?vid=1bd06ff9-dffc-4418-ac7d-ee59bf044751"},"vehicle_type_id":"4","last_reported":1717243995,"current_range_meters":1200,"station_id":"ce4bhb92rcd13ifvqen0","pricing_plan_id":"cebpf4jnsgd1na2vs0mg"},{"bike_id":"fbd2acee-fdd4-476b-bea2-102dedb26ea1","system_id":"levelo_inurba_marseille","lat":43.290104,"lon":5.356111,"is_reserved":false,"is_disabled":false,"rental_uris":{"android":"levelo://app?vid=fbd2acee-fdd4-476b-bea2-102dedb26ea1","ios":"levelo://app?vid=fbd2acee-fdd4-476b-bea2-102dedb26ea1"},"vehicle_type_id":"4","last_reported":1717243995,"current_range_meters":7600,"station_id":"ce4bhb92rcd13ifvqen0","pricing_plan_id":"cebpf4jnsgd1na2vs0mg"},{"bike_id":"20963d01-d23a-449e-9a33-88e56a217b56","system_id":"levelo_inurba_marseille","lat":43.291297,"lon":5.382089,"is_reserved":false,"is_disabled":false,"rental_uris":{"android":"levelo://app?vid=20963d01-d23a-449e-9a33-88e56a217b56","ios":"levelo://app?vid=20963d01-d23a-449e-9a33-88e56a217b56"},"vehicle_type_id":"4","last_reported":1717243995,"current_range_meters":0,"station_id":"ce4bh512rcd13ifvqe2g","pricing_plan_id":"cebpf4jnsgd1na2vs0mg"},{"bike_id":"5bfbba38-3450-4d02-bf5d-4def3c691d1f","system_id":"levelo_inurba_marseille","lat":43.2978,"lon":5.39333,"is_reserved":false,"is_disabled":false,"rental_uris":{"android":"levelo://app?vid=5bfbba38-3450-4d02-bf5d-4def3c691d1f","ios":"levelo://app?vid=5bfbba38-3450-4d02-bf5d-4def3c691d1f"},"vehicle_type_id":"4","last_reported":1717243995,"current_range_meters":0,"station_id":"chh1huq6cuj3fo74tm60","pricing_plan_id":"cebpf4jnsgd1na2vs0mg"},{"bike_id":"8dff74c2-aa65-44aa-9f58-fa4146b87370","system_id":"levelo_inurba_marseille","lat":43.295169,"lon":5.390426,"is_reserved":false,"is_disabled":false,"rental_uris":{"android":"levelo://app?vid=8dff74c2-aa65-44aa-9f58-fa4146b87370","ios":"levelo://app?vid=8dff74c2-aa65-44aa-9f58-fa4146b87370"},"vehicle_type_id":"4","last_reported":1717243995,"current_range_meters":0,"station_id":"ce4bh3p2rcd13ifvqdp0","pricing_plan_id":"cebpf4jnsgd1na2vs0mg"},{"bike_id":"d3195316-b15a-490a-b6b5-bdc6bc78d7a7","system_id":"levelo_inurba_marseille","lat":43.295169,"lon":5.390426,"is_reserved":false,"is_disabled":false,"rental_uris":{"android":"levelo://app?vid=d3195316-b15a-490a-b6b5-bdc6bc78d7a7","ios":"levelo://app?vid=d3195316-b15a-490a-b6b5-bdc6bc78d7a7"},"vehicle_type_id":"4","last_reported":1717243995,"current_range_meters":25600,"station_id":"ce4bh3p2rcd13ifvqdp0","pricing_plan_id":"cebpf4jnsgd1na2vs0mg"},{"bike_id":"8b73d0b1-63b8-45c3-bff6-510f7f234bc0","system_id":"levelo_inurba_marseille","lat":43.330442,"lon":5.389148,"is_reserved":false,"is_disabled":false,"rental_uris":{"android":"levelo://app?vid=8b73d0b1-63b8-45c3-bff6-510f7f234bc0","ios":"levelo://app?vid=8b73d0b1-63b8-45c3-bff6-510f7f234bc0"},"vehicle_type_id":"4","last_reported":1717243995,"current_range_meters":10000,"station_id":"ce4bhr92rcd13ifvqhrg","pricing_plan_id":"cebpf4jnsgd1na2vs0mg"},{"bike_id":"47b031e1-32d6-4931-b9d2-1df8cf773bad","system_id":"levelo_inurba_marseille","lat":43.290103,"lon":5.356114,"is_reserved":false,"is_disabled":false,"rental_uris":{"android":"levelo://app?vid=47b031e1-32d6-4931-b9d2-1df8cf773bad","ios":"levelo://app?vid=47b031e1-32d6-4931-b9d2-1df8cf773bad"},"vehicle_type_id":"4","last_reported":1717243995,"current_range_meters":16400,"station_id":"ce4bhb92rcd13ifvqen0","pricing_plan_id":"cebpf4jnsgd1na2vs0mg"},{"bike_id":"ab0a1b0d-7a9c-468c-9924-100f169df7fe","system_id":"levelo_inurba_marseille","lat":43.330442,"lon":5.389148,"is_reserved":false,"is_disabled":false,"rental_uris":{"android":"levelo://app?vid=ab0a1b0d-7a9c-468c-9924-100f169df7fe","ios":"levelo://app?vid=ab0a1b0d-7a9c-468c-9924-100f169df7fe"},"vehicle_type_id":"4","last_reported":1717243995,"current_range_meters":4800,"station_id":"ce4bhr92rcd13ifvqhrg","pricing_plan_id":"cebpf4jnsgd1na2vs0mg"},{"bike_id":"10fb7c04-d2e9-4f0c-99a2-85add278f636","system_id":"levelo_inurba_marseille","lat":43.29522,"lon":5.39039,"is_reserved":false,"is_disabled":false,"rental_uris":{"android":"levelo://app?vid=10fb7c04-d2e9-4f0c-99a2-85add278f636","ios":"levelo://app?vid=10fb7c04-d2e9-4f0c-99a2-85add278f636"},"vehicle_type_id":"4","last_reported":1717243995,"current_range_meters":19200,"station_id":"ce4bh3p2rcd13ifvqdp0","pricing_plan_id":"cebpf4jnsgd1na2vs0mg"},{"bike_id":"10c2d636-7b6b-4ea7-b4a0-ed43894ac529","system_id":"levelo_inurba_marseille","lat":43.28856,"lon":5.358371,"is_reserved":false,"is_disabled":false,"rental_uris":{"android":"levelo://app?vid=10c2d636-7b6b-4ea7-b4a0-ed43894ac529","ios":"levelo://app?vid=10c2d636-7b6b-4ea7-b4a0-ed43894ac529"},"vehicle_type_id":"4","last_reported":1717243995,"current_range_meters":23600,"station_id":"ce4bhb12rcd13ifvqem0","pricing_plan_id":"cebpf4jnsgd1na2vs0mg"},{"bike_id":"5d0b9c3e-934f-48ee-873b-3e48b3607cf6","system_id":"levelo_inurba_marseille","lat":43.295169,"lon":5.390426,"is_reserved":false,"is_disabled":false,"rental_uris":{"android":"levelo://app?vid=5d0b9c3e-934f-48ee-873b-3e48b3607cf6","ios":"levelo://app?vid=5d0b9c3e-934f-48ee-873b-3e48b3607cf6"},"vehicle_type_id":"4","last_reported":1717243995,"current_range_meters":12000,"station_id":"ce4bh3p2rcd13ifvqdp0","pricing_plan_id":"cebpf4jnsgd1na2vs0mg"},{"bike_id":"7d4726c8-2651-4416-acad-00665b0fbdd7","system_id":"levelo_inurba_marseille","lat":43.29022,"lon":5.3814,"is_reserved":false,"is_disabled":false,"rental_uris":{"android":"levelo://app?vid=7d4726c8-2651-4416-acad-00665b0fbdd7","ios":"levelo://app?vid=7d4726c8-2651-4416-acad-00665b0fbdd7"},"vehicle_type_id":"4","last_reported":1717243995,"current_range_meters":18800,"station_id":"ce4bh4p2rcd13ifvqe1g","pricing_plan_id":"cebpf4jnsgd1na2vs0mg"},{"bike_id":"51ea659b-d550-4edf-ba63-5daa39ca06b7","system_id":"levelo_inurba_marseille","lat":43.312609,"lon":5.401662,"is_reserved":false,"is_disabled":false,"rental_uris":{"android":"levelo://app?vid=51ea659b-d550-4edf-ba63-5daa39ca06b7","ios":"levelo://app?vid=51ea659b-d550-4edf-ba63-5daa39ca06b7"},"vehicle_type_id":"4","last_reported":1717243995,"current_range_meters":21600,"station_id":"ce4bh092rcd13ifvqd30","pricing_plan_id":"cebpf4jnsgd1na2vs0mg"},{"bike_id":"6f3b2936-ac99-4a78-92ec-00c9110b27f2","system_id":"levelo_inurba_marseille","lat":43.31269,"lon":5.40167,"is_reserved":false,"is_disabled":false,"rental_uris":{"android":"levelo://app?vid=6f3b2936-ac99-4a78-92ec-00c9110b27f2","ios":"levelo://app?vid=6f3b2936-ac99-4a78-92ec-00c9110b27f2"},"vehicle_type_id":"4","last_reported":1717243995,"current_range_meters":20400,"station_id":"ce4bh092rcd13ifvqd30","pricing_plan_id":"cebpf4jnsgd1na2vs0mg"},{"bike_id":"1348e59a-4f7d-49c0-80b6-1c32a95a2d10","system_id":"levelo_inurba_marseille","lat":43.312676,"lon":5.401671,"is_reserved":false,"is_disabled":false,"rental_uris":{"android":"levelo://app?vid=1348e59a-4f7d-49c0-80b6-1c32a95a2d10","ios":"levelo://app?vid=1348e59a-4f7d-49c0-80b6-1c32a95a2d10"},"vehicle_type_id":"4","last_reported":1717243995,"current_range_meters":30000,"station_id":"ce4bh092rcd13ifvqd30","pricing_plan_id":"cebpf4jnsgd1na2vs0mg"},{"bike_id":"2c5c78f2-d74b-420e-b5c4-21bb10c02d53","system_id":"levelo_inurba_marseille","lat":43.31274,"lon":5.401677,"is_reserved":false,"is_disabled":false,"rental_uris":{"android":"levelo://app?vid=2c5c78f2-d74b-420e-b5c4-21bb10c02d53","ios":"levelo://app?vid=2c5c78f2-d74b-420e-b5c4-21bb10c02d53"},"vehicle_type_id":"4","last_reported":1717243995,"current_range_meters":28000,"station_id":"ce4bh092rcd13ifvqd30","pricing_plan_id":"cebpf4jnsgd1na2vs0mg"},{"bike_id":"a3ea2339-7f28-4c31-b37f-725883015fe3","system_id":"levelo_inurba_marseille","lat":43.312609,"lon":5.401662,"is_reserved":false,"is_disabled":false,"rental_uris":{"android":"levelo://app?vid=a3ea2339-7f28-4c31-b37f-725883015fe3","ios":"levelo://app?vid=a3ea2339-7f28-4c31-b37f-725883015fe3"},"vehicle_type_id":"4","last_reported":1717243995,"current_range_meters":31600,"station_id":"ce4bh092rcd13ifvqd30","pricing_plan_id":"cebpf4jnsgd1na2vs0mg"},{"bike_id":"947a7518-63e2-42d1-a77d-be632baca7e9","system_id":"levelo_inurba_marseille","lat":43.312609,"lon":5.401662,"is_reserved":false,"is_disabled":false,"rental_uris":{"android":"levelo://app?vid=947a7518-63e2-42d1-a77d-be632baca7e9","ios":"levelo://app?vid=947a7518-63e2-42d1-a77d-be632baca7e9"},"vehicle_type_id":"4","last_reported":1717243995,"current_range_meters":32000,"station_id":"ce4bh092rcd13ifvqd30","pricing_plan_id":"cebpf4jnsgd1na2vs0mg"},{"bike_id":"0da2cf25-a920-481d-bf88-e81ec7a30c70","system_id":"levelo_inurba_marseille","lat":43.31271,"lon":5.401686,"is_reserved":false,"is_disabled":false,"rental_uris":{"android":"levelo://app?vid=0da2cf25-a920-481d-bf88-e81ec7a30c70","ios":"levelo://app?vid=0da2cf25-a920-481d-bf88-e81ec7a30c70"},"vehicle_type_id":"4","last_reported":1717243995,"current_range_meters":23600,"station_id":"ce4bh092rcd13ifvqd30","pricing_plan_id":"cebpf4jnsgd1na2vs0mg"},{"bike_id":"42c6b038-e7a1-499a-a000-dd6b49e410e3","system_id":"levelo_inurba_marseille","lat":43.312723,"lon":5.401687,"is_reserved":false,"is_disabled":false,"rental_uris":{"android":"levelo://app?vid=42c6b038-e7a1-499a-a000-dd6b49e410e3","ios":"levelo://app?vid=42c6b038-e7a1-499a-a000-dd6b49e410e3"},"vehicle_type_id":"4","last_reported":1717243995,"current_range_meters":9600,"station_id":"ce4bh092rcd13ifvqd30","pricing_plan_id":"cebpf4jnsgd1na2vs0mg"},{"bike_id":"d3354710-0ad2-4905-a79c-9e2f58c84f1e","system_id":"levelo_inurba_marseille","lat":43.312609,"lon":5.401662,"is_reserved":false,"is_disabled":false,"rental_uris":{"android":"levelo://app?vid=d3354710-0ad2-4905-a79c-9e2f58c84f1e","ios":"levelo://app?vid=d3354710-0ad2-4905-a79c-9e2f58c84f1e"},"vehicle_type_id":"4","last_reported":1717243995,"current_range_meters":4000,"station_id":"ce4bh092rcd13ifvqd30","pricing_plan_id":"cebpf4jnsgd1na2vs0mg"},{"bike_id":"b6871d30-1fe0-4b38-a514-969a352f0f6b","system_id":"levelo_inurba_marseille","lat":43.31277,"lon":5.4017,"is_reserved":false,"is_disabled":false,"rental_uris":{"android":"levelo://app?vid=b6871d30-1fe0-4b38-a514-969a352f0f6b","ios":"levelo://app?vid=b6871d30-1fe0-4b38-a514-969a352f0f6b"},"vehicle_type_id":"4","last_reported":1717243995,"current_range_meters":16800,"station_id":"ce4bh092rcd13ifvqd30","pricing_plan_id":"cebpf4jnsgd1na2vs0mg"},{"bike_id":"8d6b5f3f-5e13-4997-8ff6-e9ae7f3469c5","system_id":"levelo_inurba_marseille","lat":43.312609,"lon":5.401662,"is_reserved":false,"is_disabled":false,"rental_uris":{"android":"levelo://app?vid=8d6b5f3f-5e13-4997-8ff6-e9ae7f3469c5","ios":"levelo://app?vid=8d6b5f3f-5e13-4997-8ff6-e9ae7f3469c5"},"vehicle_type_id":"4","last_reported":1717243995,"current_range_meters":30000,"station_id":"ce4bh092rcd13ifvqd30","pricing_plan_id":"cebpf4jnsgd1na2vs0mg"},{"bike_id":"19577074-1fd4-446f-8830-dcad536643a1","system_id":"levelo_inurba_marseille","lat":43.312609,"lon":5.401662,"is_reserved":false,"is_disabled":false,"rental_uris":{"android":"levelo://app?vid=19577074-1fd4-446f-8830-dcad536643a1","ios":"levelo://app?vid=19577074-1fd4-446f-8830-dcad536643a1"},"vehicle_type_id":"4","last_reported":1717243995,"current_range_meters":8400,"station_id":"ce4bh092rcd13ifvqd30","pricing_plan_id":"cebpf4jnsgd1na2vs0mg"},{"bike_id":"d4d12527-2d6c-4fb1-b9c3-542d32be32cb","system_id":"levelo_inurba_marseille","lat":43.309371,"lon":5.401449,"is_reserved":false,"is_disabled":false,"rental_uris":{"android":"levelo://app?vid=d4d12527-2d6c-4fb1-b9c3-542d32be32cb","ios":"levelo://app?vid=d4d12527-2d6c-4fb1-b9c3-542d32be32cb"},"vehicle_type_id":"4","last_reported":1717243995,"current_range_meters":23200,"station_id":"ce4bgvp2rcd13ifvqct0","pricing_plan_id":"cebpf4jnsgd1na2vs0mg"},{"bike_id":"0b867614-37f1-4342-a557-65f83abaf8d4","system_id":"levelo_inurba_marseille","lat":43.312609,"lon":5.401662,"is_reserved":false,"is_disabled":false,"rental_uris":{"android":"levelo://app?vid=0b867614-37f1-4342-a557-65f83abaf8d4","ios":"levelo://app?vid=0b867614-37f1-4342-a557-65f83abaf8d4"},"vehicle_type_id":"4","last_reported":1717243995,"current_range_meters":23600,"station_id":"ce4bh092rcd13ifvqd30","pricing_plan_id":"cebpf4jnsgd1na2vs0mg"},{"bike_id":"8086e4ef-9b61-43a9-96e2-90da19ac6c08","system_id":"levelo_inurba_marseille","lat":43.31271,"lon":5.40175,"is_reserved":false,"is_disabled":false,"rental_uris":{"android":"levelo://app?vid=8086e4ef-9b61-43a9-96e2-90da19ac6c08","ios":"levelo://app?vid=8086e4ef-9b61-43a9-96e2-90da19ac6c08"},"vehicle_type_id":"4","last_reported":1717243995,"current_range_meters":27200,"station_id":"ce4bh092rcd13ifvqd30","pricing_plan_id":"cebpf4jnsgd1na2vs0mg"},{"bike_id":"731022de-88ca-4ef8-8d5c-733f0b8ba82c","system_id":"levelo_inurba_marseille","lat":43.312609,"lon":5.401662,"is_reserved":false,"is_disabled":false,"rental_uris":{"android":"levelo://app?vid=731022de-88ca-4ef8-8d5c-733f0b8ba82c","ios":"levelo://app?vid=731022de-88ca-4ef8-8d5c-733f0b8ba82c"},"vehicle_type_id":"4","last_reported":1717243995,"current_range_meters":18800,"station_id":"ce4bh092rcd13ifvqd30","pricing_plan_id":"cebpf4jnsgd1na2vs0mg"},{"bike_id":"572fa4ce-327d-4ab1-8db6-e70f7e1cf413","system_id":"levelo_inurba_marseille","lat":43.312609,"lon":5.401662,"is_reserved":false,"is_disabled":false,"rental_uris":{"android":"levelo://app?vid=572fa4ce-327d-4ab1-8db6-e70f7e1cf413","ios":"levelo://app?vid=572fa4ce-327d-4ab1-8db6-e70f7e1cf413"},"vehicle_type_id":"4","last_reported":1717243995,"current_range_meters":19200,"station_id":"ce4bh092rcd13ifvqd30","pricing_plan_id":"cebpf4jnsgd1na2vs0mg"},