{"last_updated":1753830658,"ttl":60,"version":"2.2","data":{"bikes":[{"bike_id":"ede0cdf0-2195-4268-9e55-cafe94d3a25a","system_id":"levelo_inurba_marseille","lat":43.27575,"lon":5.38436,"is_reserved":false,"is_disabled":true,"rental_uris":{"android":"levelo://app?vid=ede0cdf0-2195-4268-9e55-cafe94d3a25a","ios":"levelo://app?vid=ede0cdf0-2195-4268-9e55-cafe94d3a25a"},"vehicle_type_id":"4","last_reported":1753830658,"current_range_meters":2800,"station_id":"ce4bhh92rcd13ifvqfi0","pricing_plan_id":"cebpf4jnsgd1na2vs0mg"},{"bike_id":"9d5f658d-bcef-4eaa-b287-a01916bf1536","system_id":"levelo_inurba_marseille","lat":43.25728,"lon":5.4111,"is_reserved":false,"is_disabled":false,"rental_uris":{"android":"levelo://app?vid=9d5f658d-bcef-4eaa-b287-a01916bf1536","ios":"levelo://app?vid=9d5f658d-bcef-4eaa-b287-a01916bf1536"},"vehicle_type_id":"4","last_reported":1753830658,"current_range_meters":2800,"station_id":"ce4bhkp2rcd13ifvqgd0","pricing_plan_id":"cebpf4jnsgd1na2vs0mg"},{"bike_id":"da0dea9a-07a2-4249-aa7c-2489e28d40de","system_id":"levelo_inurba_marseille","lat":43.29683,"lon":5.36239,"is_reserved":false,"is_disabled":false,"rental_uris":{"android":"levelo://app?vid=da0dea9a-07a2-4249-aa7c-2489e28d40de","ios":"levelo://app?vid=da0dea9a-07a2-4249-aa7c-2489e28d40de"},"vehicle_type_id":"4","last_reported":1753830658,"current_range_meters":3600,"station_id":"","pricing_plan_id":"cebpf4jnsgd1na2vs0mg"},{"bike_id":"6fe4f646-b75b-4e51-99c9-25f3c1f3f3ab","system_id":"levelo_inurba_marseille","lat":43.273767,"lon":5.362587,"is_reserved":false,"is_disabled":true,"rental_uris":{"android":"levelo://app?vid=6fe4f646-b75b-4e51-99c9-25f3c1f3f3ab","ios":"levelo://app?vid=6fe4f646-b75b-4e51-99c9-25f3c1f3f3ab"},"vehicle_type_id":"4","last_reported":1753830658,"current_range_meters":3600,"station_id":"ce4bhbh2rcd13ifvqeo0","pricing_plan_id":"cebpf4jnsgd1na2vs0mg"},{"bike_id":"5a67886b-2f40-46df-b0be-1179491cb0a7","system_id":"levelo_inurba_marseille","lat":43.299683,"lon":5.386239,"is_reserved":false,"is_disabled":false,"rental_uris":{"android":"levelo://app?vid=5a67886b-2f40-46df-b0be-1179491cb0a7","ios":"levelo://app?vid=5a67886b-2f40-46df-b0be-1179491cb0a7"},"vehicle_type_id":"4","last_reported":1753830658,"current_range_meters":3600,"station_id":"","pricing_plan_id":"cebpf4jnsgd1na2vs0mg"},{"bike_id":"d26365d2-3cd7-4e3c-808d-3362d6bbfb56","system_id":"levelo_inurba_marseille","lat":43.3377,"lon":5.37483,"is_reserved":false,"is_disabled":false,"rental_uris":{"android":"levelo://app?vid=d26365d2-3cd7-4e3c-808d-3362d6bbfb56","ios":"levelo://app?vid=d26365d2-3cd7-4e3c-808d-3362d6bbfb56"},"vehicle_type_id":"4","last_reported":1753830658,"current_range_meters":3600,"station_id":"","pricing_plan_id":"cebpf4jnsgd1na2vs0mg"},{"bike_id":"6cb11f4f-f451-4a1b-a7c5-61054d6b97f6","system_id":"levelo_inurba_marseille","lat":43.23647,"lon":5.41005,"is_reserved":false,"is_disabled":false,"rental_uris":{"android":"levelo://app?vid=6cb11f4f-f451-4a1b-a7c5-61054d6b97f6","ios":"levelo://app?vid=6cb11f4f-f451-4a1b-a7c5-61054d6b97f6"},"vehicle_type_id":"4","last_reported":1753830658,"current_range_meters":3600,"station_id":"","pricing_plan_id":"cebpf4jnsgd1na2vs0mg"},{"bike_id":"a5ffa286-ffb1-4f55-bfbe-7821ace3a066","system_id":"levelo_inurba_marseille","lat":43.21178,"lon":5.35112,"is_reserved":false,"is_disabled":false,"rental_uris":{"android":"levelo://app?vid=a5ffa286-ffb1-4f55-bfbe-7821ace3a066","ios":"levelo://app?vid=a5ffa286-ffb1-4f55-bfbe-7821ace3a066"},"vehicle_type_id":"4","last_reported":1753830658,"current_range_meters":4000,"station_id":"st_cvj6sg6p6f1abm77japg","pricing_plan_id":"cebpf4jnsgd1na2vs0mg"},{"bike_id":"dfeef013-405d-4d83-bff9-fe3d4f9e6756","system_id":"levelo_inurba_marseille","lat":43.31738,"lon":5.40466,"is_reserved":false,"is_disabled":true,"rental_uris":{"android":"levelo://app?vid=dfeef013-405d-4d83-bff9-fe3d4f9e6756","ios":"levelo://app?vid=dfeef013-405d-4d83-bff9-fe3d4f9e6756"},"vehicle_type_id":"4","last_reported":1753830658,"current_range_meters":4000,"station_id":"ce4bh012rcd13ifvqd00","pricing_plan_id":"cebpf4jnsgd1na2vs0mg"},{"bike_id":"28186bbb-58c9-4919-a469-c2fe74078b8c","system_id":"levelo_inurba_marseille","lat":43.27441,"lon":5.39426,"is_reserved":false,"is_disabled":false,"rental_uris":{"android":"levelo://app?vid=28186bbb-58c9-4919-a469-c2fe74078b8c","ios":"levelo://app?vid=28186bbb-58c9-4919-a469-c2fe74078b8c"},"vehicle_type_id":"4","last_reported":1753830658,"current_range_meters":4400,"station_id":"ce4bhdp2rcd13ifvqf20","pricing_plan_id":"cebpf4jnsgd1na2vs0mg"},{"bike_id":"e9f335ee-4b1a-494e-bfbe-b78428bad704","system_id":"levelo_inurba_marseille","lat":43.29554,"lon":5.42288,"is_reserved":false,"is_disabled":false,"rental_uris":{"android":"levelo://app?vid=e9f335ee-4b1a-494e-bfbe-b78428bad704","ios":"levelo://app?vid=e9f335ee-4b1a-494e-bfbe-b78428bad704"},"vehicle_type_id":"4","last_reported":1753830658,"current_range_meters":4400,"station_id":"ce4bhph2rcd13ifvqhdg","pricing_plan_id":"cebpf4jnsgd1na2vs0mg"},{"bike_id":"3152576e-d602-4c3f-980e-717f41aed773","system_id":"levelo_inurba_marseille","lat":43.33737,"lon":5.37465,"is_reserved":false,"is_disabled":false,"rental_uris":{"android":"levelo://app?vid=3152576e-d602-4c3f-980e-717f41aed773","ios":"levelo://app?vid=3152576e-d602-4c3f-980e-717f41aed773"},"vehicle_type_id":"4","last_reported":1753830658,"current_range_meters":4400,"station_id":"","pricing_plan_id":"cebpf4jnsgd1na2vs0mg"},{"bike_id":"2de7d425-5580-4386-978d-d1d692bfd451","system_id":"levelo_inurba_marseille","lat":43.31364,"lon":5.38492,"is_reserved":false,"is_disabled":false,"rental_uris":{"android":"levelo://app?vid=2de7d425-5580-4386-978d-d1d692bfd451","ios":"levelo://app?vid=2de7d425-5580-4386-978d-d1d692bfd451"},"vehicle_type_id":"4","last_reported":1753830658,"current_range_meters":5600,"station_id":"ce4bgt92rcd13ifvqcf0","pricing_plan_id":"cebpf4jnsgd1na2vs0mg"},{"bike_id":"83fdb9f2-ef9d-4a70-8333-65f103ec90ae","system_id":"levelo_inurba_marseille","lat":43.27368,"lon":5.36252,"is_reserved":false,"is_disabled":true,"rental_uris":{"android":"levelo://app?vid=83fdb9f2-ef9d-4a70-8333-65f103ec90ae","ios":"levelo://app?vid=83fdb9f2-ef9d-4a70-8333-65f103ec90ae"},"vehicle_type_id":"4","last_reported":1753830658,"current_range_meters":5600,"station_id":"ce4bhbh2rcd13ifvqeo0","pricing_plan_id":"cebpf4jnsgd1na2vs0mg"},{"bike_id":"b9b447f4-afe9-4e23-aaf0-b35a30289b9a","system_id":"levelo_inurba_marseille","lat":43.27502,"lon":5.42466,"is_reserved":false,"is_disabled":false,"rental_uris":{"android":"levelo://app?vid=b9b447f4-afe9-4e23-aaf0-b35a30289b9a","ios":"levelo://app?vid=b9b447f4-afe9-4e23-aaf0-b35a30289b9a"},"vehicle_type_id":"4","last_reported":1753830658,"current_range_meters":5600,"station_id":"ce4bhn92rcd13ifvqgrg","pricing_plan_id":"cebpf4jnsgd1na2vs0mg"},{"bike_id":"64f258c6-1e92-4dd0-a4f6-11b336a5b138","system_id":"levelo_inurba_marseille","lat":43.225059,"lon":5.347945,"is_reserved":false,"is_disabled":false,"rental_uris":{"android":"levelo://app?vid=64f258c6-1e92-4dd0-a4f6-11b336a5b138","ios":"levelo://app?vid=64f258c6-1e92-4dd0-a4f6-11b336a5b138"},"vehicle_type_id":"4","last_reported":1753830658,"current_range_meters":6000,"station_id":"st_cvj5dfep6f1abm77gieg","pricing_plan_id":"cebpf4jnsgd1na2vs0mg"},{"bike_id":"5915c484-bd7c-435f-bca1-185e1e80dfcf","system_id":"levelo_inurba_marseille","lat":43.23156,"lon":5.43708,"is_reserved":false,"is_disabled":false,"rental_uris":{"android":"levelo://app?vid=5915c484-bd7c-435f-bca1-185e1e80dfcf","ios":"levelo://app?vid=5915c484-bd7c-435f-bca1-185e1e80dfcf"},"vehicle_type_id":"4","last_reported":1753830658,"current_range_meters":6400,"station_id":"ce4bhmp2rcd13ifvqgog","pricing_plan_id":"cebpf4jnsgd1na2vs0mg"},{"bike_id":"8213e88e-8210-4aed-bb0d-85857865bba8","system_id":"levelo_inurba_marseille","lat":43.297302,"lon":5.374166,"is_reserved":false,"is_disabled":false,"rental_uris":{"android":"levelo://app?vid=8213e88e-8210-4aed-bb0d-85857865bba8","ios":"levelo://app?vid=8213e88e-8210-4aed-bb0d-85857865bba8"},"vehicle_type_id":"4","last_reported":1753830658,"current_range_meters":6400,"station_id":"","pricing_plan_id":"cebpf4jnsgd1na2vs0mg"},{"bike_id":"1155135b-6b25-4eba-931d-4835b7d455cc","system_id":"levelo_inurba_marseille","lat":43.32547,"lon":5.4143,"is_reserved":false,"is_disabled":false,"rental_uris":{"android":"levelo://app?vid=1155135b-6b25-4eba-931d-4835b7d455cc","ios":"levelo://app?vid=1155135b-6b25-4eba-931d-4835b7d455cc"},"vehicle_type_id":"4","last_reported":1753830658,"current_range_meters":6400,"station_id":"ce4bhq12rcd13ifvqhhg","pricing_plan_id":"cebpf4jnsgd1na2vs0mg"},{"bike_id":"370ae9b0-a2a5-4171-8a99-35a3daa5d2ab","system_id":"levelo_inurba_marseille","lat":43.28418,"lon":5.34992,"is_reserved":false,"is_disabled":true,"rental_uris":{"android":"levelo://app?vid=370ae9b0-a2a5-4171-8a99-35a3daa5d2ab","ios":"levelo://app?vid=370ae9b0-a2a5-4171-8a99-35a3daa5d2ab"},"vehicle_type_id":"4","last_reported":1753830658,"current_range_meters":6400,"station_id":"ce4bhbh2rcd13ifvqepg","pricing_plan_id":"cebpf4jnsgd1na2vs0mg"},{"bike_id":"d99716cc-03d7-4ec6-9afb-f243b2d67578","system_id":"levelo_inurba_marseille","lat":43.33781,"lon":5.37496,"is_reserved":false,"is_disabled":false,"rental_uris":{"android":"levelo://app?vid=d99716cc-03d7-4ec6-9afb-f243b2d67578","ios":"levelo://app?vid=d99716cc-03d7-4ec6-9afb-f243b2d67578"},"vehicle_type_id":"4","last_reported":1753830658,"current_range_meters":6400,"station_id":"","pricing_plan_id":"cebpf4jnsgd1na2vs0mg"},{"bike_id":"42b616a9-efe8-4f5f-bb23-ae33bece1773","system_id":"levelo_inurba_marseille","lat":43.30934,"lon":5.40138,"is_reserved":false,"is_disabled":false,"rental_uris":{"android":"levelo://app?vid=42b616a9-efe8-4f5f-bb23-ae33bece1773","ios":"levelo://app?vid=42b616a9-efe8-4f5f-bb23-ae33bece1773"},"vehicle_type_id":"4","last_reported":1753830658,"current_range_meters":6400,"station_id":"ce4bgvp2rcd13ifvqct0","pricing_plan_id":"cebpf4jnsgd1na2vs0mg"},{"bike_id":"80915a30-ef88-4d81-b5d1-969d1c17a42d","system_id":"levelo_inurba_marseille","lat":43.30419,"lon":5.40833,"is_reserved":false,"is_disabled":false,"rental_uris":{"android":"levelo://app?vid=80915a30-ef88-4d81-b5d1-969d1c17a42d","ios":"levelo://app?vid=80915a30-ef88-4d81-b5d1-969d1c17a42d"},"vehicle_type_id":"4","last_reported":1753830658,"current_range_meters":7200,"station_id":"","pricing_plan_id":"cebpf4jnsgd1na2vs0mg"},{"bike_id":"95dd70e4-879c-49e7-b318-a6c71b22a43e","system_id":"levelo_inurba_marseille","lat":43.2703,"lon":5.39295,"is_reserved":false,"is_disabled":false,"rental_uris":{"android":"levelo://app?vid=95dd70e4-879c-49e7-b318-a6c71b22a43e","ios":"levelo://app?vid=95dd70e4-879c-49e7-b318-a6c71b22a43e"},"vehicle_type_id":"4","last_reported":1753830658,"current_range_meters":6800,"station_id":"","pricing_plan_id":"cebpf4jnsgd1na2vs0mg"},{"bike_id":"209c73e6-1f69-4d13-9fed-77cb46eecd05","system_id":"levelo_inurba_marseille","lat":43.34681,"lon":5.38065,"is_reserved":false,"is_disabled":false,"rental_uris":{"android":"levelo://app?vid=209c73e6-1f69-4d13-9fed-77cb46eecd05","ios":"levelo://app?vid=209c73e6-1f69-4d13-9fed-77cb46eecd05"},"vehicle_type_id":"4","last_reported":1753830658,"current_range_meters":6800,"station_id":"","pricing_plan_id":"cebpf4jnsgd1na2vs0mg"},{"bike_id":"3b513104-0304-493c-9215-438a9d2db08a","system_id":"levelo_inurba_marseille","lat":43.29532,"lon":5.39268,"is_reserved":false,"is_disabled":false,"rental_uris":{"android":"levelo://app?vid=3b513104-0304-493c-9215-438a9d2db08a","ios":"levelo://app?vid=3b513104-0304-493c-9215-438a9d2db08a"},"vehicle_type_id":"4","last_reported":1753830658,"current_range_meters":7200,"station_id":"","pricing_plan_id":"cebpf4jnsgd1na2vs0mg"},{"bike_id":"65e3db07-f188-422b-b687-3d06cfe2bcf8","system_id":"levelo_inurba_marseille","lat":43.2804,"lon":5.35008,"is_reserved":false,"is_disabled":false,"rental_uris":{"android":"levelo://app?vid=65e3db07-f188-422b-b687-3d06cfe2bcf8","ios":"levelo://app?vid=65e3db07-f188-422b-b687-3d06cfe2bcf8"},"vehicle_type_id":"4","last_reported":1753830658,"current_range_meters":7200,"station_id":"","pricing_plan_id":"cebpf4jnsgd1na2vs0mg"},{"bike_id":"3377d6b9-003a-4a11-884f-743e15ed547d","system_id":"levelo_inurba_marseille","lat":43.312548,"lon":5.414778,"is_reserved":false,"is_disabled":false,"rental_uris":{"android":"levelo://app?vid=3377d6b9-003a-4a11-884f-743e15ed547d","ios":"levelo://app?vid=3377d6b9-003a-4a11-884f-743e15ed547d"},"vehicle_type_id":"4","last_reported":1753830658,"current_range_meters":7200,"station_id":"ce4bhp92rcd13ifvqhag","pricing_plan_id":"cebpf4jnsgd1na2vs0mg"},{"bike_id":"b4e8af3c-c937-4b7c-8c2d-b395715d0ea3","system_id":"levelo_inurba_marseille","lat":43.31356,"lon":5.38516,"is_reserved":false,"is_disabled":false,"rental_uris":{"android":"levelo://app?vid=b4e8af3c-c937-4b7c-8c2d-b395715d0ea3","ios":"levelo://app?vid=b4e8af3c-c937-4b7c-8c2d-b395715d0ea3"},"vehicle_type_id":"4","last_reported":1753830658,"current_range_meters":7200,"station_id":"ce4bgt92rcd13ifvqcf0","pricing_plan_id":"cebpf4jnsgd1na2vs0mg"},{"bike_id":"3c1a6a31-f23a-40b2-b944-a5783fa6fa93","system_id":"levelo_inurba_marseille","lat":43.27995,"lon":5.41158,"is_reserved":false,"is_disabled":true,"rental_uris":{"android":"levelo://app?vid=3c1a6a31-f23a-40b2-b944-a5783fa6fa93","ios":"levelo://app?vid=3c1a6a31-f23a-40b2-b944-a5783fa6fa93"},"vehicle_type_id":"4","last_reported":1753830658,"current_range_meters":7200,"station_id":"ce4bhnp2rcd13ifvqh0g","pricing_plan_id":"cebpf4jnsgd1na2vs0mg"},{"bike_id":"63c0baa2-16a1-4377-a1c3-c59cf270a640","system_id":"levelo_inurba_marseille","lat":43.279414,"lon":5.410468,"is_reserved":false,"is_disabled":false,"rental_uris":{"android":"levelo://app?vid=63c0baa2-16a1-4377-a1c3-c59cf270a640","ios":"levelo://app?vid=63c0baa2-16a1-4377-a1c3-c59cf270a640"},"vehicle_type_id":"4","last_reported":1753830658,"current_range_meters":7200,"station_id":"ce4bhnp2rcd13ifvqh0g","pricing_plan_id":"cebpf4jnsgd1na2vs0mg"},{"bike_id":"a738d821-aeb2-4de2-ba56-0507bc6dc2ec","system_id":"levelo_inurba_marseille","lat":43.31905,"lon":5.40745,"is_reserved":false,"is_disabled":false,"rental_uris":{"android":"levelo://app?vid=a738d821-aeb2-4de2-ba56-0507bc6dc2ec","ios":"levelo://app?vid=a738d821-aeb2-4de2-ba56-0507bc6dc2ec"},"vehicle_type_id":"4","last_reported":1753830658,"current_range_meters":8000,"station_id":"ce4bhq12rcd13ifvqhig","pricing_plan_id":"cebpf4jnsgd1na2vs0mg"},{"bike_id":"37fcf059-83b8-4b6e-bc28-0c83f77e3c05","system_id":"levelo_inurba_marseille","lat":43.22501,"lon":5.3479,"is_reserved":false,"is_disabled":false,"rental_uris":{"android":"levelo://app?vid=37fcf059-83b8-4b6e-bc28-0c83f77e3c05","ios":"levelo://app?vid=37fcf059-83b8-4b6e-bc28-0c83f77e3c05"},"vehicle_type_id":"4","last_reported":1753830658,"current_range_meters":8000,"station_id":"st_cvj5dfep6f1abm77gieg","pricing_plan_id":"cebpf4jnsgd1na2vs0mg"},{"bike_id":"b901885e-d831-4ce9-9641-44f44e9e96b9","system_id":"levelo_inurba_marseille","lat":43.27806,"lon":5.40705,"is_reserved":false,"is_disabled":false,"rental_uris":{"android":"levelo://app?vid=b901885e-d831-4ce9-9641-44f44e9e96b9","ios":"levelo://app?vid=b901885e-d831-4ce9-9641-44f44e9e96b9"},"vehicle_type_id":"4","last_reported":1753830658,"current_range_meters":8000,"station_id":"ce4bhnh2rcd13ifvqgtg","pricing_plan_id":"cebpf4jnsgd1na2vs0mg"},{"bike_id":"175941c2-2011-491a-8f10-41b1358418aa","system_id":"levelo_inurba_marseille","lat":43.30798,"lon":5.38147,"is_reserved":false,"is_disabled":false,"rental_uris":{"android":"levelo://app?vid=175941c2-2011-491a-8f10-41b1358418aa","ios":"levelo://app?vid=175941c2-2011-491a-8f10-41b1358418aa"},"vehicle_type_id":"4","last_reported":1753830658,"current_range_meters":8000,"station_id":"ce4bgt12rcd13ifvqce0","pricing_plan_id":"cebpf4jnsgd1na2vs0mg"},{"bike_id":"6fdfdb8a-9f9e-4a21-8068-b9b4d99f980c","system_id":"levelo_inurba_marseille","lat":43.31057,"lon":5.38359,"is_reserved":false,"is_disabled":false,"rental_uris":{"android":"levelo://app?vid=6fdfdb8a-9f9e-4a21-8068-b9b4d99f980c","ios":"levelo://app?vid=6fdfdb8a-9f9e-4a21-8068-b9b4d99f980c"},"vehicle_type_id":"4","last_reported":1753830658,"current_range_meters":8000,"station_id":"ce4bgv92rcd13ifvqcr0","pricing_plan_id":"cebpf4jnsgd1na2vs0mg"},{"bike_id":"5c4808cb-eabc-4062-81f9-53939cb1d87d","system_id":"levelo_inurba_marseille","lat":43.30893,"lon":5.39615,"is_reserved":false,"is_disabled":false,"rental_uris":{"android":"levelo://app?vid=5c4808cb-eabc-4062-81f9-53939cb1d87d","ios":"levelo://app?vid=5c4808cb-eabc-4062-81f9-53939cb1d87d"},"vehicle_type_id":"4","last_reported":1753830658,"current_range_meters":8000,"station_id":"ce4bh012rcd13ifvqcv0","pricing_plan_id":"cebpf4jnsgd1na2vs0mg"},{"bike_id":"92db98ca-d4ed-4283-aa1d-890ffeea64dc","system_id":"levelo_inurba_marseille","lat":43.23153,"lon":5.43716,"is_reserved":false,"is_disabled":false,"rental_uris":{"android":"levelo://app?vid=92db98ca-d4ed-4283-aa1d-890ffeea64dc","ios":"levelo://app?vid=92db98ca-d4ed-4283-aa1d-890ffeea64dc"},"vehicle_type_id":"4","last_reported":1753830658,"current_range_meters":7200,"station_id":"ce4bhmp2rcd13ifvqgog","pricing_plan_id":"cebpf4jnsgd1na2vs0mg"},{"bike_id":"bdf67702-004a-4c8b-b39a-f38cdbedb46b","system_id":"levelo_inurba_marseille","lat":43.286756,"lon":5.386773,"is_reserved":false,"is_disabled":false,"rental_uris":{"android":"levelo://app?vid=bdf67702-004a-4c8b-b39a-f38cdbedb46b","ios":"levelo://app?vid=bdf67702-004a-4c8b-b39a-f38cdbedb46b"},"vehicle_type_id":"4","last_reported":1753830658,"current_range_meters":8400,"station_id":"","pricing_plan_id":"cebpf4jnsgd1na2vs0mg"},{"bike_id":"7ead535a-e7f2-4489-9051-59e4f5eeec8a","system_id":"levelo_inurba_marseille","lat":43.3069,"lon":5.37351,"is_reserved":false,"is_disabled":false,"rental_uris":{"android":"levelo://app?vid=7ead535a-e7f2-4489-9051-59e4f5eeec8a","ios":"levelo://app?vid=7ead535a-e7f2-4489-9051-59e4f5eeec8a"},"vehicle_type_id":"4","last_reported":1753830658,"current_range_meters":8400,"station_id":"","pricing_plan_id":"cebpf4jnsgd1na2vs0mg"},{"bike_id":"149fbe11-3bce-47a0-b584-c7c7bd6bb12f","system_id":"levelo_inurba_marseille","lat":43.2162,"lon":5.3445,"is_reserved":false,"is_disabled":false,"rental_uris":{"android":"levelo://app?vid=149fbe11-3bce-47a0-b584-c7c7bd6bb12f","ios":"levelo://app?vid=149fbe11-3bce-47a0-b584-c7c7bd6bb12f"},"vehicle_type_id":"4","last_reported":1753830658,"current_range_meters":8400,"station_id":"","pricing_plan_id":"cebpf4jnsgd1na2vs0mg"},{"bike_id":"fa4e0e2e-0be2-44bb-a9da-d8a8fff38aff","system_id":"levelo_inurba_marseille","lat":43.31207,"lon":5.38647,"is_reserved":false,"is_disabled":false,"rental_uris":{"android":"levelo://app?vid=fa4e0e2e-0be2-44bb-a9da-d8a8fff38aff","ios":"levelo://app?vid=fa4e0e2e-0be2-44bb-a9da-d8a8fff38aff"},"vehicle_type_id":"4","last_reported":1753830658,"current_range_meters":8800,"station_id":"","pricing_plan_id":"cebpf4jnsgd1na2vs0mg"},{"bike_id":"882bdff1-651a-41c1-9ab0-596f43205cf1","system_id":"levelo_inurba_marseille","lat":43.337444,"lon":5.374475,"is_reserved":false,"is_disabled":false,"rental_uris":{"android":"levelo://app?vid=882bdff1-651a-41c1-9ab0-596f43205cf1","ios":"levelo://app?vid=882bdff1-651a-41c1-9ab0-596f43205cf1"},"vehicle_type_id":"4","last_reported":1753830658,"current_range_meters":8800,"station_id":"ce4bgkp2rcd13ifvqbmg","pricing_plan_id":"cebpf4jnsgd1na2vs0mg"},{"bike_id":"7ebcc3f5-5031-4be1-8d42-04a8fe6871c2","system_id":"levelo_inurba_marseille","lat":43.27949,"lon":5.38703,"is_reserved":false,"is_disabled":false,"rental_uris":{"android":"levelo://app?vid=7ebcc3f5-5031-4be1-8d42-04a8fe6871c2","ios":"levelo://app?vid=7ebcc3f5-5031-4be1-8d42-04a8fe6871c2"},"vehicle_type_id":"4","last_reported":1753830658,"current_range_meters":8800,"station_id":"ce4bhg12rcd13ifvqf80","pricing_plan_id":"cebpf4jnsgd1na2vs0mg"},{"bike_id":"2a3a9f20-00d1-4c95-a093-ba8e28724bc0","system_id":"levelo_inurba_marseille","lat":43.30657,"lon":5.37548,"is_reserved":false,"is_disabled":false,"rental_uris":{"android":"levelo://app?vid=2a3a9f20-00d1-4c95-a093-ba8e28724bc0","ios":"levelo://app?vid=2a3a9f20-00d1-4c95-a093-ba8e28724bc0"},"vehicle_type_id":"4","last_reported":1753830658,"current_range_meters":8800,"station_id":"","pricing_plan_id":"cebpf4jnsgd1na2vs0mg"},{"bike_id":"dd85e0a3-346f-46f5-801a-1e3a74e02628","system_id":"levelo_inurba_marseille","lat":43.25107,"lon":5.40322,"is_reserved":false,"is_disabled":false,"rental_uris":{"android":"levelo://app?vid=dd85e0a3-346f-46f5-801a-1e3a74e02628","ios":"levelo://app?vid=dd85e0a3-346f-46f5-801a-1e3a74e02628"},"vehicle_type_id":"4","last_reported":1753830658,"current_range_meters":8800,"station_id":"ce4bhlh2rcd13ifvqgig","pricing_plan_id":"cebpf4jnsgd1na2vs0mg"},{"bike_id":"da913aa8-3d8c-4ab2-b48f-187998fd2a99","system_id":"levelo_inurba_marseille","lat":43.3377,"lon":5.37521,"is_reserved":false,"is_disabled":false,"rental_uris":{"android":"levelo://app?vid=da913aa8-3d8c-4ab2-b48f-187998fd2a99","ios":"levelo://app?vid=da913aa8-3d8c-4ab2-b48f-187998fd2a99"},"vehicle_type_id":"4","last_reported":1753830658,"current_range_meters":9200,"station_id":"","pricing_plan_id":"cebpf4jnsgd1na2vs0mg"},{"bike_id":"5969a80c-0f85-4ae2-b1de-6dfe236afa65","system_id":"levelo_inurba_marseille","lat":43.28737,"lon":5.3609,"is_reserved":false,"is_disabled":false,"rental_uris":{"android":"levelo://app?vid=5969a80c-0f85-4ae2-b1de-6dfe236afa65","ios":"levelo://app?vid=5969a80c-0f85-4ae2-b1de-6dfe236afa65"},"vehicle_type_id":"4","last_reported":1753830658,"current_range_meters":9200,"station_id":"cki0cbj6b192h4jlfktg","pricing_plan_id":"cebpf4jnsgd1na2vs0mg"},{"bike_id":"3b08c7fe-da62-4fb4-8da1-3e8b0064e2d8","system_id":"levelo_inurba_marseille","lat":43.308826,"lon":5.396443,"is_reserved":false,"is_disabled":true,"rental_uris":{"android":"levelo://app?vid=3b08c7fe-da62-4fb4-8da1-3e8b0064e2d8","ios":"levelo://app?vid=3b08c7fe-da62-4fb4-8da1-3e8b0064e2d8"},"vehicle_type_id":"4","last_reported":1753830658,"current_range_meters":9200,"station_id":"ce4bh012rcd13ifvqcv0","pricing_plan_id":"cebpf4jnsgd1na2vs0mg"},{"bike_id":"d4b0442d-37e3-4887-8827-87b59f4e9086","system_id":"levelo_inurba_marseille","lat":43.2977,"lon":5.38108,"is_reserved":false,"is_disabled":false,"rental_uris":{"android":"levelo://app?vid=d4b0442d-37e3-4887-8827-87b59f4e9086","ios":"levelo://app?vid=d4b0442d-37e3-4887-8827-87b59f4e9086"},"vehicle_type_id":"4","last_reported":1753830658,"current_range_meters":9200,"station_id":"","pricing_plan_id":"cebpf4jnsgd1na2vs0mg"},{"bike_id":"d8e6094c-0de7-412e-bab8-3969f4a35524","system_id":"levelo_inurba_marseille","lat":43.29905,"lon":5.3761,"is_reserved":false,"is_disabled":false,"rental_uris":{"android":"levelo://app?vid=d8e6094c-0de7-412e-bab8-3969f4a35524","ios":"levelo://app?vid=d8e6094c-0de7-412e-bab8-3969f4a35524"},"vehicle_type_id":"4","last_reported":1753830658,"current_range_meters":9200,"station_id":"","pricing_plan_id":"cebpf4jnsgd1na2vs0mg"},{"bike_id":"26568eed-d863-4fcb-85e0-9fcb319482f6","system_id":"levelo_inurba_marseille","lat":43.28084,"lon":5.39665,"is_reserved":false,"is_disabled":false,"rental_uris":{"android":"levelo://app?vid=26568eed-d863-4fcb-85e0-9fcb319482f6","ios":"levelo://app?vid=26568eed-d863-4fcb-85e0-9fcb319482f6"},"vehicle_type_id":"4","last_reported":1753830658,"current_range_meters":9600,"station_id":"ce4bho12rcd13ifvqh2g","pricing_plan_id":"cebpf4jnsgd1na2vs0mg"},{"bike_id":"7e9aeb8e-f66f-43c2-a59d-c0e42783ddbc","system_id":"levelo_inurba_marseille","lat":43.25385,"lon":5.41924,"is_reserved":false,"is_disabled":false,"rental_uris":{"android":"levelo://app?vid=7e9aeb8e-f66f-43c2-a59d-c0e42783ddbc","ios":"levelo://app?vid=7e9aeb8e-f66f-43c2-a59d-c0e42783ddbc"},"vehicle_type_id":"4","last_reported":1753830658,"current_range_meters":9600,"station_id":"","pricing_plan_id":"cebpf4jnsgd1na2vs0mg"},{"bike_id":"d72421b8-3411-486c-a49e-680c846f73bc","system_id":"levelo_inurba_marseille","lat":43.30732,"lon":5.4246,"is_reserved":false,"is_disabled":false,"rental_uris":{"android":"levelo://app?vid=d72421b8-3411-486c-a49e-680c846f73bc","ios":"levelo://app?vid=d72421b8-3411-486c-a49e-680c846f73bc"},"vehicle_type_id":"4","last_reported":1753830658,"current_range_meters":9600,"station_id":"st_cvj6ca6bvosntc0bfgr0","pricing_plan_id":"cebpf4jnsgd1na2vs0mg"},{"bike_id":"b91eea8e-5bfd-4015-80e3-c6a73f1ee420","system_id":"levelo_inurba_marseille","lat":43.32106,"lon":5.367662,"is_reserved":false,"is_disabled":false,"rental_uris":{"android":"levelo://app?vid=b91eea8e-5bfd-4015-80e3-c6a73f1ee420","ios":"levelo://app?vid=b91eea8e-5bfd-4015-80e3-c6a73f1ee420"},"vehicle_type_id":"4","last_reported":1753830658,"current_range_meters":9600,"station_id":"ce4bhrh2rcd13ifvqhug","pricing_plan_id":"cebpf4jnsgd1na2vs0mg"},{"bike_id":"d7918252-9ded-43fa-9c14-191d8e290ecf","system_id":"levelo_inurba_marseille","lat":43.31691,"lon":5.40479,"is_reserved":false,"is_disabled":false,"rental_uris":{"android":"levelo://app?vid=d7918252-9ded-43fa-9c14-191d8e290ecf","ios":"levelo://app?vid=d7918252-9ded-43fa-9c14-191d8e290ecf"},"vehicle_type_id":"4","last_reported":1753830658,"current_range_meters":10000,"station_id":"ce4bh012rcd13ifvqd00","pricing_plan_id":"cebpf4jnsgd1na2vs0mg"},{"bike_id":"9a9f7ee4-cd30-4503-882e-9e36249bea47","system_id":"levelo_inurba_marseille","lat":43.29513,"lon":5.39036,"is_reserved":false,"is_disabled":true,"rental_uris":{"android":"levelo://app?vid=9a9f7ee4-cd30-4503-882e-9e36249bea47","ios":"levelo://app?vid=9a9f7ee4-cd30-4503-882e-9e36249bea47"},"vehicle_type_id":"4","last_reported":1753830658,"current_range_meters":10000,"station_id":"ce4bh3p2rcd13ifvqdp0","pricing_plan_id":"cebpf4jnsgd1na2vs0mg"},{"bike_id":"8a0ff05e-151b-4e50-84e5-cbd3dc78cbb7","system_id":"levelo_inurba_marseille","lat":43.28147,"lon":5.42643,"is_reserved":false,"is_disabled":false,"rental_uris":{"android":"levelo://app?vid=8a0ff05e-151b-4e50-84e5-cbd3dc78cbb7","ios":"levelo://app?vid=8a0ff05e-151b-4e50-84e5-cbd3dc78cbb7"},"vehicle_type_id":"4","last_reported":1753830658,"current_range_meters":10000,"station_id":"ce4bhnh2rcd13ifvqgug","pricing_plan_id":"cebpf4jnsgd1na2vs0mg"},{"bike_id":"7279efb2-baa4-48eb-8b27-c4ab3207904d","system_id":"levelo_inurba_marseille","lat":43.3079,"lon":5.376575,"is_reserved":false,"is_disabled":false,"rental_uris":{"android":"levelo://app?vid=7279efb2-baa4-48eb-8b27-c4ab3207904d","ios":"levelo://app?vid=7279efb2-baa4-48eb-8b27-c4ab3207904d"},"vehicle_type_id":"4","last_reported":1753830658,"current_range_meters":10000,"station_id":"ce4bgv92rcd13ifvqcq0","pricing_plan_id":"cebpf4jnsgd1na2vs0mg"},{"bike_id":"2df3f21c-76b0-48ea-b087-29f8b935f571","system_id":"levelo_inurba_marseille","lat":43.28634,"lon":5.4068,"is_reserved":false,"is_disabled":false,"rental_uris":{"android":"levelo://app?vid=2df3f21c-76b0-48ea-b087-29f8b935f571","ios":"levelo://app?vid=2df3f21c-76b0-48ea-b087-29f8b935f571"},"vehicle_type_id":"4","last_reported":1753830658,"current_range_meters":10000,"station_id":"","pricing_plan_id":"cebpf4jnsgd1na2vs0mg"},{"bike_id":"190b63e1-d80b-47e1-898c-0c120aaa9723","system_id":"levelo_inurba_marseille","lat":43.306463,"lon":5.401073,"is_reserved":false,"is_disabled":false,"rental_uris":{"android":"levelo://app?vid=190b63e1-d80b-47e1-898c-0c120aaa9723","ios":"levelo://app?vid=190b63e1-d80b-47e1-898c-0c120aaa9723"},"vehicle_type_id":"4","last_reported":1753830658,"current_range_meters":10000,"station_id":"ce4bh112rcd13ifvqda0","pricing_plan_id":"cebpf4jnsgd1na2vs0mg"},{"bike_id":"b6c1096b-d915-4a56-9f0a-4188874faa14","system_id":"levelo_inurba_marseille","lat":43.29951,"lon":5.37484,"is_reserved":false,"is_disabled":false,"rental_uris":{"android":"levelo://app?vid=b6c1096b-d915-4a56-9f0a-4188874faa14","ios":"levelo://app?vid=b6c1096b-d915-4a56-9f0a-4188874faa14"},"vehicle_type_id":"4","last_reported":1753830658,"current_range_meters":10800,"station_id":"ce4bgjh2rcd13ifvqbg0","pricing_plan_id":"cebpf4jnsgd1na2vs0mg"},{"bike_id":"50427cb4-f7c5-45fa-9402-39ede650aa5c","system_id":"levelo_inurba_marseille","lat":43.31296,"lon":5.40183,"is_reserved":false,"is_disabled":true,"rental_uris":{"android":"levelo://app?vid=50427cb4-f7c5-45fa-9402-39ede650aa5c","ios":"levelo://app?vid=50427cb4-f7c5-45fa-9402-39ede650aa5c"},"vehicle_type_id":"4","last_reported":1753830658,"current_range_meters":10800,"station_id":"ce4bh092rcd13ifvqd30","pricing_plan_id":"cebpf4jnsgd1na2vs0mg"},{"bike_id":"43348ea9-7f7d-45e7-9344-a5a742188c65","system_id":"levelo_inurba_marseille","lat":43.28685,"lon":5.37394,"is_reserved":false,"is_disabled":true,"rental_uris":{"android":"levelo://app?vid=43348ea9-7f7d-45e7-9344-a5a742188c65","ios":"levelo://app?vid=43348ea9-7f7d-45e7-9344-a5a742188c65"},"vehicle_type_id":"4","last_reported":1753830658,"current_range_meters":10800,"station_id":"ce4bh3p2rcd13ifvqdq0","pricing_plan_id":"cebpf4jnsgd1na2vs0mg"},{"bike_id":"640a8b1a-9c8b-4b70-90e8-259658766739","system_id":"levelo_inurba_marseille","lat":43.30886,"lon":5.39639,"is_reserved":false,"is_disabled":false,"rental_uris":{"android":"levelo://app?vid=640a8b1a-9c8b-4b70-90e8-259658766739","ios":"levelo://app?vid=640a8b1a-9c8b-4b70-90e8-259658766739"},"vehicle_type_id":"4","last_reported":1753830658,"current_range_meters":10800,"station_id":"ce4bh012rcd13ifvqcv0","pricing_plan_id":"cebpf4jnsgd1na2vs0mg"},{"bike_id":"b907c6b0-1ead-4598-8218-49f79a83ed45","system_id":"levelo_inurba_marseille","lat":43.30163,"lon":5.36634,"is_reserved":false,"is_disabled":false,"rental_uris":{"android":"levelo://app?vid=b907c6b0-1ead-4598-8218-49f79a83ed45","ios":"levelo://app?vid=b907c6b0-1ead-4598-8218-49f79a83ed45"},"vehicle_type_id":"4","last_reported":1753830658,"current_range_meters":10800,"station_id":"ce4bgrh2rcd13ifvqc8g","pricing_plan_id":"cebpf4jnsgd1na2vs0mg"},{"bike_id":"54aaeb1b-cd16-4b4f-bc5a-99abeaa2c81a","system_id":"levelo_inurba_marseille","lat":43.30937,"lon":5.40142,"is_reserved":false,"is_disabled":false,"rental_uris":{"android":"levelo://app?vid=54aaeb1b-cd16-4b4f-bc5a-99abeaa2c81a","ios":"levelo://app?vid=54aaeb1b-cd16-4b4f-bc5a-99abeaa2c81a"},"vehicle_type_id":"4","last_reported":1753830658,"current_range_meters":10800,"station_id":"ce4bgvp2rcd13ifvqct0","pricing_plan_id":"cebpf4jnsgd1na2vs0mg"},{"bike_id":"55201a9e-328f-452a-8b58-b76f0e5a4511","system_id":"levelo_inurba_marseille","lat":43.23181,"lon":5.400041,"is_reserved":false,"is_disabled":true,"rental_uris":{"android":"levelo://app?vid=55201a9e-328f-452a-8b58-b76f0e5a4511","ios":"levelo://app?vid=55201a9e-328f-452a-8b58-b76f0e5a4511"},"vehicle_type_id":"4","last_reported":1753830658,"current_range_meters":10800,"station_id":"ce4bhn12rcd13ifvqgqg","pricing_plan_id":"cebpf4jnsgd1na2vs0mg"},{"bike_id":"5139116d-9424-4cef-93b3-b66d7928b57c","system_id":"levelo_inurba_marseille","lat":43.29258,"lon":5.40115,"is_reserved":false,"is_disabled":true,"rental_uris":{"android":"levelo://app?vid=5139116d-9424-4cef-93b3-b66d7928b57c","ios":"levelo://app?vid=5139116d-9424-4cef-93b3-b66d7928b57c"},"vehicle_type_id":"4","last_reported":1753830658,"current_range_meters":11200,"station_id":"ce4bh312rcd13ifvqdk0","pricing_plan_id":"cebpf4jnsgd1na2vs0mg"},{"bike_id":"56d1ed2d-9c6f-4bd8-9c29-f6948ae0d806","system_id":"levelo_inurba_marseille","lat":43.27912,"lon":5.38006,"is_reserved":false,"is_disabled":false,"rental_uris":{"android":"levelo://app?vid=56d1ed2d-9c6f-4bd8-9c29-f6948ae0d806","ios":"levelo://app?vid=56d1ed2d-9c6f-4bd8-9c29-f6948ae0d806"},"vehicle_type_id":"4","last_reported":1753830658,"current_range_meters":11200,"station_id":"ce4bhf92rcd13ifvqf50","pricing_plan_id":"cebpf4jnsgd1na2vs0mg"},{"bike_id":"f9504f6c-61d8-473b-842b-e1b80906387e","system_id":"levelo_inurba_marseille","lat":43.26576,"lon":5.38993,"is_reserved":false,"is_disabled":false,"rental_uris":{"android":"levelo://app?vid=f9504f6c-61d8-473b-842b-e1b80906387e","ios":"levelo://app?vid=f9504f6c-61d8-473b-842b-e1b80906387e"},"vehicle_type_id":"4","last_reported":1753830658,"current_range_meters":11200,"station_id":"ce4bhe12rcd13ifvqf30","pricing_plan_id":"cebpf4jnsgd1na2vs0mg"},{"bike_id":"f73f8966-8b7e-457a-8b9d-c5b89ce65a5c","system_id":"levelo_inurba_marseille","lat":43.28428,"lon":5.34988,"is_reserved":false,"is_disabled":true,"rental_uris":{"android":"levelo://app?vid=f73f8966-8b7e-457a-8b9d-c5b89ce65a5c","ios":"levelo://app?vid=f73f8966-8b7e-457a-8b9d-c5b89ce65a5c"},"vehicle_type_id":"4","last_reported":1753830658,"current_range_meters":11200,"station_id":"ce4bhbh2rcd13ifvqepg","pricing_plan_id":"cebpf4jnsgd1na2vs0mg"},{"bike_id":"7b438956-ff79-4fbf-ab1f-0ba90390aa3b","system_id":"levelo_inurba_marseille","lat":43.24665,"lon":5.38929,"is_reserved":false,"is_disabled":false,"rental_uris":{"android":"levelo://app?vid=7b438956-ff79-4fbf-ab1f-0ba90390aa3b","ios":"levelo://app?vid=7b438956-ff79-4fbf-ab1f-0ba90390aa3b"},"vehicle_type_id":"4","last_reported":1753830658,"current_range_meters":11200,"station_id":"ce4bhg12rcd13ifvqf60","pricing_plan_id":"cebpf4jnsgd1na2vs0mg"},{"bike_id":"3cb6cda6-e066-4f39-a1cb-0e57a99000aa","system_id":"levelo_inurba_marseille","lat":43.3171,"lon":5.37744,"is_reserved":false,"is_disabled":false,"rental_uris":{"android":"levelo://app?vid=3cb6cda6-e066-4f39-a1cb-0e57a99000aa","ios":"levelo://app?vid=3cb6cda6-e066-4f39-a1cb-0e57a99000aa"},"vehicle_type_id":"4","last_reported":1753830658,"current_range_meters":11200,"station_id":"ce4bgth2rcd13ifvqch0","pricing_plan_id":"cebpf4jnsgd1na2vs0mg"},{"bike_id":"5e5998bf-cceb-43f9-82ba-8abad7b416c1","system_id":"levelo_inurba_marseille","lat":43.29518,"lon":5.39402,"is_reserved":false,"is_disabled":false,"rental_uris":{"android":"levelo://app?vid=5e5998bf-cceb-43f9-82ba-8abad7b416c1","ios":"levelo://app?vid=5e5998bf-cceb-43f9-82ba-8abad7b416c1"},"vehicle_type_id":"4","last_reported":1753830658,"current_range_meters":11200,"station_id":"ce4bh292rcd13ifvqdf0","pricing_plan_id":"cebpf4jnsgd1na2vs0mg"},{"bike_id":"b0f2b2c1-b378-4164-a22b-6eceaa434acc","system_id":"levelo_inurba_marseille","lat":43.29218,"lon":5.42671,"is_reserved":false,"is_disabled":false,"rental_uris":{"android":"levelo://app?vid=b0f2b2c1-b378-4164-a22b-6eceaa434acc","ios":"levelo://app?vid=b0f2b2c1-b378-4164-a22b-6eceaa434acc"},"vehicle_type_id":"4","last_reported":1753830658,"current_range_meters":11200,"station_id":"","pricing_plan_id":"cebpf4jnsgd1na2vs0mg"},{"bike_id":"036b9385-ac6e-4636-91bb-e02909e77d53","system_id":"levelo_inurba_marseille","lat":43.32086,"lon":5.36769,"is_reserved":false,"is_disabled":false,"rental_uris":{"android":"levelo://app?vid=036b9385-ac6e-4636-91bb-e02909e77d53","ios":"levelo://app?vid=036b9385-ac6e-4636-91bb-e02909e77d53"},"vehicle_type_id":"4","last_reported":1753830658,"current_range_meters":11200,"station_id":"ce4bhrh2rcd13ifvqhug","pricing_plan_id":"cebpf4jnsgd1na2vs0mg"},{"bike_id":"913a9f6d-20be-461b-9b43-0e59b72b03d6","system_id":"levelo_inurba_marseille","lat":43.341432,"lon":5.408969,"is_reserved":false,"is_disabled":false,"rental_uris":{"android":"levelo://app?vid=913a9f6d-20be-461b-9b43-0e59b72b03d6","ios":"levelo://app?vid=913a9f6d-20be-461b-9b43-0e59b72b03d6"},"vehicle_type_id":"4","last_reported":1753830658,"current_range_meters":11200,"station_id":"ce4bhqh2rcd13ifvqhlg","pricing_plan_id":"cebpf4jnsgd1na2vs0mg"},{"bike_id":"7fe0f4b6-8a96-4826-ad84-06e252356128","system_id":"levelo_inurba_marseille","lat":43.30329,"lon":5.40434,"is_reserved":false,"is_disabled":false,"rental_uris":{"android":"levelo://app?vid=7fe0f4b6-8a96-4826-ad84-06e252356128","ios":"levelo://app?vid=7fe0f4b6-8a96-4826-ad84-06e252356128"},"vehicle_type_id":"4","last_reported":1753830658,"current_range_meters":11200,"station_id":"ce4bh012rcd13ifvqd10","pricing_plan_id":"cebpf4jnsgd1na2vs0mg"},{"bike_id":"1c2cee29-6d27-4bdf-b97c-eecf71616341","system_id":"levelo_inurba_marseille","lat":43.231901,"lon":5.355539,"is_reserved":false,"is_disabled":false,"rental_uris":{"android":"levelo://app?vid=1c2cee29-6d27-4bdf-b97c-eecf71616341","ios":"levelo://app?vid=1c2cee29-6d27-4bdf-b97c-eecf71616341"},"vehicle_type_id":"4","last_reported":1753830658,"current_range_meters":11600,"station_id":"ce4bhu92rcd13ifvqi70","pricing_plan_id":"cebpf4jnsgd1na2vs0mg"},{"bike_id":"73c28b44-fb9a-4083-b9eb-e60de241e4cb","system_id":"levelo_inurba_marseille","lat":43.323656,"lon":5.3889,"is_reserved":false,"is_disabled":false,"rental_uris":{"android":"levelo://app?vid=73c28b44-fb9a-4083-b9eb-e60de241e4cb","ios":"levelo://app?vid=73c28b44-fb9a-4083-b9eb-e60de241e4cb"},"vehicle_type_id":"4","last_reported":1753830658,"current_range_meters":11600,"station_id":"ce4bhqp2rcd13ifvqhog","pricing_plan_id":"cebpf4jnsgd1na2vs0mg"},{"bike_id":"84aafa29-819a-4c13-b11f-1f4e655bdc98","system_id":"levelo_inurba_marseille","lat":43.295947,"lon":5.380935,"is_reserved":false,"is_disabled":true,"rental_uris":{"android":"levelo://app?vid=84aafa29-819a-4c13-b11f-1f4e655bdc98","ios":"levelo://app?vid=84aafa29-819a-4c13-b11f-1f4e655bdc98"},"vehicle_type_id":"4","last_reported":1753830658,"current_range_meters":11600,"station_id":"ce4bgl12rcd13ifvqbo0","pricing_plan_id":"cebpf4jnsgd1na2vs0mg"},{"bike_id":"21cda18a-6622-4197-befa-7523a69dcfaf","system_id":"levelo_inurba_marseille","lat":43.28141,"lon":5.44198,"is_reserved":false,"is_disabled":false,"rental_uris":{"android":"levelo://app?vid=21cda18a-6622-4197-befa-7523a69dcfaf","ios":"levelo://app?vid=21cda18a-6622-4197-befa-7523a69dcfaf"},"vehicle_type_id":"4","last_reported":1753830658,"current_range_meters":11600,"station_id":"","pricing_plan_id":"cebpf4jnsgd1na2vs0mg"},{"bike_id":"b93dae78-470d-4000-9099-70fac2544d9a","system_id":"levelo_inurba_marseille","lat":43.30145,"lon":5.38787,"is_reserved":false,"is_disabled":false,"rental_uris":{"android":"levelo://app?vid=b93dae78-470d-4000-9099-70fac2544d9a","ios":"levelo://app?vid=b93dae78-470d-4000-9099-70fac2544d9a"},"vehicle_type_id":"4","last_reported":1753830658,"current_range_meters":11600,"station_id":"ce4bghh2rcd13ifvqb60","pricing_plan_id":"cebpf4jnsgd1na2vs0mg"},{"bike_id":"8f94ed7e-9e68-4024-9cb6-c46ff7707eb0","system_id":"levelo_inurba_marseille","lat":43.30792,"lon":5.38155,"is_reserved":false,"is_disabled":false,"rental_uris":{"android":"levelo://app?vid=8f94ed7e-9e68-4024-9cb6-c46ff7707eb0","ios":"levelo://app?vid=8f94ed7e-9e68-4024-9cb6-c46ff7707eb0"},"vehicle_type_id":"4","last_reported":1753830658,"current_range_meters":11600,"station_id":"ce4bgt12rcd13ifvqce0","pricing_plan_id":"cebpf4jnsgd1na2vs0mg"},{"bike_id":"a5d21f19-a2f8-4c79-9341-84f97b97beb0","system_id":"levelo_inurba_marseille","lat":43.33428,"lon":5.40087,"is_reserved":false,"is_disabled":false,"rental_uris":{"android":"levelo://app?vid=a5d21f19-a2f8-4c79-9341-84f97b97beb0","ios":"levelo://app?vid=a5d21f19-a2f8-4c79-9341-84f97b97beb0"},"vehicle_type_id":"4","last_reported":1753830658,"current_range_meters":11600,"station_id":"","pricing_plan_id":"cebpf4jnsgd1na2vs0mg"},{"bike_id":"0dc99cab-1546-4588-8ef9-e9c6ae8e0a6f","system_id":"levelo_inurba_marseille","lat":43.23059,"lon":5.35489,"is_reserved":false,"is_disabled":false,"rental_uris":{"android":"levelo://app?vid=0dc99cab-1546-4588-8ef9-e9c6ae8e0a6f","ios":"levelo://app?vid=0dc99cab-1546-4588-8ef9-e9c6ae8e0a6f"},"vehicle_type_id":"4","last_reported":1753830658,"current_range_meters":11600,"station_id":"cpo3342slgdg3j2ifvpg","pricing_plan_id":"cebpf4jnsgd1na2vs0mg"},{"bike_id":"e9624a09-b572-4bcb-944b-ef4683557984","system_id":"levelo_inurba_marseille","lat":43.230672,"lon":5.355012,"is_reserved":false,"is_disabled":false,"rental_uris":{"android":"levelo://app?vid=e9624a09-b572-4bcb-944b-ef4683557984","ios":"levelo://app?vid=e9624a09-b572-4bcb-944b-ef4683557984"},"vehicle_type_id":"4","last_reported":1753830658,"current_range_meters":11600,"station_id":"cpo3342slgdg3j2ifvpg","pricing_plan_id":"cebpf4jnsgd1na2vs0mg"},{"bike_id":"38228362-ec1b-46e2-a29d-38221a3a9a77","system_id":"levelo_inurba_marseille","lat":43.28569,"lon":5.39509,"is_reserved":false,"is_disabled":false,"rental_uris":{"android":"levelo://app?vid=38228362-ec1b-46e2-a29d-38221a3a9a77","ios":"levelo://app?vid=38228362-ec1b-46e2-a29d-38221a3a9a77"},"vehicle_type_id":"4","last_reported":1753830658,"current_range_meters":12000,"station_id":"ce4bh292rcd13ifvqdg0","pricing_plan_id":"cebpf4jnsgd1na2vs0mg"},{"bike_id":"2f5a766e-3ece-4a36-9442-eef7b36a8a22","system_id":"levelo_inurba_marseille","lat":43.24812,"lon":5.37473,"is_reserved":false,"is_disabled":false,"rental_uris":{"android":"levelo://app?vid=2f5a766e-3ece-4a36-9442-eef7b36a8a22","ios":"levelo://app?vid=2f5a766e-3ece-4a36-9442-eef7b36a8a22"},"vehicle_type_id":"4","last_reported":1753830658,"current_range_meters":12000,"station_id":"ce4bhgh2rcd13ifvqfb0","pricing_plan_id":"cebpf4jnsgd1na2vs0mg"},{"bike_id":"4de2faf7-ee85-4ea4-9814-679996e90896","system_id":"levelo_inurba_marseille","lat":43.31708,"lon":5.37759,"is_reserved":false,"is_disabled":false,"rental_uris":{"android":"levelo://app?vid=4de2faf7-ee85-4ea4-9814-679996e90896","ios":"levelo://app?vid=4de2faf7-ee85-4ea4-9814-679996e90896"},"vehicle_type_id":"4","last_reported":1753830658,"current_range_meters":12000,"station_id":"","pricing_plan_id":"cebpf4jnsgd1na2vs0mg"},{"bike_id":"b7234136-bf62-4ef1-9964-a9c43529d354","system_id":"levelo_inurba_marseille","lat":43.31843,"lon":5.39411,"is_reserved":false,"is_disabled":false,"rental_uris":{"android":"levelo://app?vid=b7234136-bf62-4ef1-9964-a9c43529d354","ios":"levelo://app?vid=b7234136-bf62-4ef1-9964-a9c43529d354"},"vehicle_type_id":"4","last_reported":1753830658,"current_range_meters":12000,"station_id":"","pricing_plan_id":"cebpf4jnsgd1na2vs0mg"},{"bike_id":"413a38a6-da08-40e1-81c5-505fab518daf","system_id":"levelo_inurba_marseille","lat":43.29542,"lon":5.38541,"is_reserved":false,"is_disabled":false,"rental_uris":{"android":"levelo://app?vid=413a38a6-da08-40e1-81c5-505fab518daf","ios":"levelo://app?vid=413a38a6-da08-40e1-81c5-505fab518daf"},"vehicle_type_id":"4","last_reported":1753830658,"current_range_meters":12000,"station_id":"ce4bgih2rcd13ifvqba0","pricing_plan_id":"cebpf4jnsgd1na2vs0mg"},{"bike_id":"bcf4de34-2c38-4ed7-93cc-b57b7799e34a","system_id":"levelo_inurba_marseille","lat":43.323732,"lon":5.38885,"is_reserved":false,"is_disabled":false,"rental_uris":{"android":"levelo://app?vid=bcf4de34-2c38-4ed7-93cc-b57b7799e34a","ios":"levelo://app?vid=bcf4de34-2c38-4ed7-93cc-b57b7799e34a"},"vehicle_type_id":"4","last_reported":1753830658,"current_range_meters":12000,"station_id":"ce4bhqp2rcd13ifvqhog","pricing_plan_id":"cebpf4jnsgd1na2vs0mg"},{"bike_id":"0c78749a-5428-4fb8-802b-98f57c51ba3d","system_id":"levelo_inurba_marseille","lat":43.30376,"lon":5.42493,"is_reserved":false,"is_disabled":false,"rental_uris":{"android":"levelo://app?vid=0c78749a-5428-4fb8-802b-98f57c51ba3d","ios":"levelo://app?vid=0c78749a-5428-4fb8-802b-98f57c51ba3d"},"vehicle_type_id":"4","last_reported":1753830658,"current_range_meters":12000,"station_id":"ce4bhoh2rcd13ifvqh6g","pricing_plan_id":"cebpf4jnsgd1na2vs0mg"},{"bike_id":"996fe539-42e6-4511-a382-9c507d4c6b32","system_id":"levelo_inurba_marseille","lat":43.29544,"lon":5.38541,"is_reserved":false,"is_disabled":false,"rental_uris":{"android":"levelo://app?vid=996fe539-42e6-4511-a382-9c507d4c6b32","ios":"levelo://app?vid=996fe539-42e6-4511-a382-9c507d4c6b32"},"vehicle_type_id":"4","last_reported":1753830658,"current_range_meters":12000,"station_id":"ce4bgih2rcd13ifvqba0","pricing_plan_id":"cebpf4jnsgd1na2vs0mg"},{"bike_id":"e137dc03-26cf-440c-b3ea-1ea522645199","system_id":"levelo_inurba_marseille","lat":43.280815,"lon":5.396626,"is_reserved":false,"is_disabled":false,"rental_uris":{"android":"levelo://app?vid=e137dc03-26cf-440c-b3ea-1ea522645199","ios":"levelo://app?vid=e137dc03-26cf-440c-b3ea-1ea522645199"},"vehicle_type_id":"4","last_reported":1753830658,"current_range_meters":12000,"station_id":"","pricing_plan_id":"cebpf4jnsgd1na2vs0mg"},{"bike_id":"0ebb9117-5d97-4030-90be-862d0bb2dfbc","system_id":"levelo_inurba_marseille","lat":43.32048,"lon":5.41547,"is_reserved":false,"is_disabled":false,"rental_uris":{"android":"levelo://app?vid=0ebb9117-5d97-4030-90be-862d0bb2dfbc","ios":"levelo://app?vid=0ebb9117-5d97-4030-90be-862d0bb2dfbc"},"vehicle_type_id":"4","last_reported":1753830658,"current_range_meters":12000,"station_id":"ce4bhq92rcd13ifvqhkg","pricing_plan_id":"cebpf4jnsgd1na2vs0mg"},{"bike_id":"372cc281-1277-44e7-b2b4-070055061ede","system_id":"levelo_inurba_marseille","lat":43.274716,"lon":5.424727,"is_reserved":false,"is_disabled":false,"rental_uris":{"android":"levelo://app?vid=372cc281-1277-44e7-b2b4-070055061ede","ios":"levelo://app?vid=372cc281-1277-44e7-b2b4-070055061ede"},"vehicle_type_id":"4","last_reported":1753830658,"current_range_meters":12000,"station_id":"ce4bhn92rcd13ifvqgrg","pricing_plan_id":"cebpf4jnsgd1na2vs0mg"},{"bike_id":"63cb52bd-5539-4bdd-a943-0c152aa27823","system_id":"levelo_inurba_marseille","lat":43.290432,"lon":5.386135,"is_reserved":false,"is_disabled":false,"rental_uris":{"android":"levelo://app?vid=63cb52bd-5539-4bdd-a943-0c152aa27823","ios":"levelo://app?vid=63cb52bd-5539-4bdd-a943-0c152aa27823"},"vehicle_type_id":"4","last_reported":1753830658,"current_range_meters":12000,"station_id":"ce4bh4p2rcd13ifvqe0g","pricing_plan_id":"cebpf4jnsgd1na2vs0mg"},{"bike_id":"b93ce78a-91c6-4fce-9307-3a583d277b06","system_id":"levelo_inurba_marseille","lat":43.28745,"lon":5.3795,"is_reserved":false,"is_disabled":true,"rental_uris":{"android":"levelo://app?vid=b93ce78a-91c6-4fce-9307-3a583d277b06","ios":"levelo://app?vid=b93ce78a-91c6-4fce-9307-3a583d277b06"},"vehicle_type_id":"4","last_reported":1753830658,"current_range_meters":12400,"station_id":"ce4bh9p2rcd13ifvqec0","pricing_plan_id":"cebpf4jnsgd1na2vs0mg"},{"bike_id":"904ff37a-bf45-4a91-859e-5c28c84620f8","system_id":"levelo_inurba_marseille","lat":43.23196,"lon":5.40007,"is_reserved":false,"is_disabled":false,"rental_uris":{"android":"levelo://app?vid=904ff37a-bf45-4a91-859e-5c28c84620f8","ios":"levelo://app?vid=904ff37a-bf45-4a91-859e-5c28c84620f8"},"vehicle_type_id":"4","last_reported":1753830658,"current_range_meters":12400,"station_id":"ce4bhn12rcd13ifvqgqg","pricing_plan_id":"cebpf4jnsgd1na2vs0mg"},{"bike_id":"1ae5d7eb-1e99-401d-bdff-f20d11a3625e","system_id":"levelo_inurba_marseille","lat":43.30319,"lon":5.40445,"is_reserved":false,"is_disabled":true,"rental_uris":{"android":"levelo://app?vid=1ae5d7eb-1e99-401d-bdff-f20d11a3625e","ios":"levelo://app?vid=1ae5d7eb-1e99-401d-bdff-f20d11a3625e"},"vehicle_type_id":"4","last_reported":1753830658,"current_range_meters":12400,"station_id":"ce4bh012rcd13ifvqd10","pricing_plan_id":"cebpf4jnsgd1na2vs0mg"},{"bike_id":"d29b62cf-4142-4fac-87d5-e64841551607","system_id":"levelo_inurba_marseille","lat":43.25086,"lon":5.39522,"is_reserved":false,"is_disabled":false,"rental_uris":{"android":"levelo://app?vid=d29b62cf-4142-4fac-87d5-e64841551607","ios":"levelo://app?vid=d29b62cf-4142-4fac-87d5-e64841551607"},"vehicle_type_id":"4","last_reported":1753830658,"current_range_meters":12800,"station_id":"ce4bhm12rcd13ifvqgkg","pricing_plan_id":"cebpf4jnsgd1na2vs0mg"},{"bike_id":"938c16e4-dc7a-407a-b088-a048160d8de5","system_id":"levelo_inurba_marseille","lat":43.212,"lon":5.3511,"is_reserved":false,"is_disabled":false,"rental_uris":{"android":"levelo://app?vid=938c16e4-dc7a-407a-b088-a048160d8de5","ios":"levelo://app?vid=938c16e4-dc7a-407a-b088-a048160d8de5"},"vehicle_type_id":"4","last_reported":1753830658,"current_range_meters":12800,"station_id":"st_cvj6sg6p6f1abm77japg","pricing_plan_id":"cebpf4jnsgd1na2vs0mg"},{"bike_id":"6f9e6bbb-593d-4070-9a34-8bc5260eae69","system_id":"levelo_inurba_marseille","lat":43.3033,"lon":5.40438,"is_reserved":false,"is_disabled":false,"rental_uris":{"android":"levelo://app?vid=6f9e6bbb-593d-4070-9a34-8bc5260eae69","ios":"levelo://app?vid=6f9e6bbb-593d-4070-9a34-8bc5260eae69"},"vehicle_type_id":"4","last_reported":1753830658,"current_range_meters":12800,"station_id":"ce4bh012rcd13ifvqd10","pricing_plan_id":"cebpf4jnsgd1na2vs0mg"},{"bike_id":"a027973f-c8c9-4811-a512-806c935b4c27","system_id":"levelo_inurba_marseille","lat":43.211902,"lon":5.350898,"is_reserved":false,"is_disabled":true,"rental_uris":{"android":"levelo://app?vid=a027973f-c8c9-4811-a512-806c935b4c27","ios":"levelo://app?vid=a027973f-c8c9-4811-a512-806c935b4c27"},"vehicle_type_id":"4","last_reported":1753830658,"current_range_meters":12800,"station_id":"st_cvj6sg6p6f1abm77japg","pricing_plan_id":"cebpf4jnsgd1na2vs0mg"},{"bike_id":"4c9becfb-b223-42b2-8f64-37550aec8781","system_id":"levelo_inurba_marseille","lat":43.32665,"lon":5.40974,"is_reserved":false,"is_disabled":false,"rental_uris":{"android":"levelo://app?vid=4c9becfb-b223-42b2-8f64-37550aec8781","ios":"levelo://app?vid=4c9becfb-b223-42b2-8f64-37550aec8781"},"vehicle_type_id":"4","last_reported":1753830658,"current_range_meters":12800,"station_id":"ce4bhpp2rcd13ifvqhgg","pricing_plan_id":"cebpf4jnsgd1na2vs0mg"},{"bike_id":"2ed28334-e2e8-4399-8505-80cc232e6b4b","system_id":"levelo_inurba_marseille","lat":43.28405,"lon":5.37516,"is_reserved":false,"is_disabled":false,"rental_uris":{"android":"levelo://app?vid=2ed28334-e2e8-4399-8505-80cc232e6b4b","ios":"levelo://app?vid=2ed28334-e2e8-4399-8505-80cc232e6b4b"},"vehicle_type_id":"4","last_reported":1753830658,"current_range_meters":12800,"station_id":"ce4bh412rcd13ifvqds0","pricing_plan_id":"cebpf4jnsgd1na2vs0mg"},{"bike_id":"df12338b-d013-4f63-ab4c-a73a6173c766","system_id":"levelo_inurba_marseille","lat":43.28982,"lon":5.37848,"is_reserved":false,"is_disabled":false,"rental_uris":{"android":"levelo://app?vid=df12338b-d013-4f63-ab4c-a73a6173c766","ios":"levelo://app?vid=df12338b-d013-4f63-ab4c-a73a6173c766"},"vehicle_type_id":"4","last_reported":1753830658,"current_range_meters":12800,"station_id":"ce4bh9p2rcd13ifvqed0","pricing_plan_id":"cebpf4jnsgd1na2vs0mg"},{"bike_id":"87643289-7fcc-4967-a971-052d80094536","system_id":"levelo_inurba_marseille","lat":43.27176,"lon":5.40993,"is_reserved":false,"is_disabled":false,"rental_uris":{"android":"levelo://app?vid=87643289-7fcc-4967-a971-052d80094536","ios":"levelo://app?vid=87643289-7fcc-4967-a971-052d80094536"},"vehicle_type_id":"4","last_reported":1753830658,"current_range_meters":12800,"station_id":"ce4bhl12rcd13ifvqgf0","pricing_plan_id":"cebpf4jnsgd1na2vs0mg"},{"bike_id":"ed2653a8-cef8-419b-b19a-e1a7f6058aa9","system_id":"levelo_inurba_marseille","lat":43.2317,"lon":5.35545,"is_reserved":false,"is_disabled":false,"rental_uris":{"android":"levelo://app?vid=ed2653a8-cef8-419b-b19a-e1a7f6058aa9","ios":"levelo://app?vid=ed2653a8-cef8-419b-b19a-e1a7f6058aa9"},"vehicle_type_id":"4","last_reported":1753830658,"current_range_meters":13600,"station_id":"ce4bhu92rcd13ifvqi70","pricing_plan_id":"cebpf4jnsgd1na2vs0mg"},{"bike_id":"620f409e-381c-4d36-a97b-a5623700e615","system_id":"levelo_inurba_marseille","lat":43.29889,"lon":5.43664,"is_reserved":false,"is_disabled":false,"rental_uris":{"android":"levelo://app?vid=620f409e-381c-4d36-a97b-a5623700e615","ios":"levelo://app?vid=620f409e-381c-4d36-a97b-a5623700e615"},"vehicle_type_id":"4","last_reported":1753830658,"current_range_meters":13600,"station_id":"ce4bhpp2rcd13ifvqhfg","pricing_plan_id":"cebpf4jnsgd1na2vs0mg"},{"bike_id":"e8a0c05d-7272-4138-a1f4-e9de17058e9b","system_id":"levelo_inurba_marseille","lat":43.282737,"lon":5.350599,"is_reserved":false,"is_disabled":true,"rental_uris":{"android":"levelo://app?vid=e8a0c05d-7272-4138-a1f4-e9de17058e9b","ios":"levelo://app?vid=e8a0c05d-7272-4138-a1f4-e9de17058e9b"},"vehicle_type_id":"4","last_reported":1753830658,"current_range_meters":13600,"station_id":"ce4bhbp2rcd13ifvqerg","pricing_plan_id":"cebpf4jnsgd1na2vs0mg"},{"bike_id":"ef65f066-de96-432a-a3bf-b1b3ad0e62a1","system_id":"levelo_inurba_marseille","lat":43.32099,"lon":5.36771,"is_reserved":false,"is_disabled":false,"rental_uris":{"android":"levelo://app?vid=ef65f066-de96-432a-a3bf-b1b3ad0e62a1","ios":"levelo://app?vid=ef65f066-de96-432a-a3bf-b1b3ad0e62a1"},"vehicle_type_id":"4","last_reported":1753830658,"current_range_meters":13600,"station_id":"ce4bhrh2rcd13ifvqhug","pricing_plan_id":"cebpf4jnsgd1na2vs0mg"},{"bike_id":"ab666d87-3e70-4814-9ff2-9c4c5eb8d522","system_id":"levelo_inurba_marseille","lat":43.32112,"lon":5.3678,"is_reserved":false,"is_disabled":false,"rental_uris":{"android":"levelo://app?vid=ab666d87-3e70-4814-9ff2-9c4c5eb8d522","ios":"levelo://app?vid=ab666d87-3e70-4814-9ff2-9c4c5eb8d522"},"vehicle_type_id":"4","last_reported":1753830658,"current_range_meters":14000,"station_id":"ce4bhrh2rcd13ifvqhug","pricing_plan_id":"cebpf4jnsgd1na2vs0mg"},{"bike_id":"b48f5dd0-6dba-4454-bab2-8fe0e77c0439","system_id":"levelo_inurba_marseille","lat":43.24165,"lon":5.36392,"is_reserved":false,"is_disabled":false,"rental_uris":{"android":"levelo://app?vid=b48f5dd0-6dba-4454-bab2-8fe0e77c0439","ios":"levelo://app?vid=b48f5dd0-6dba-4454-bab2-8fe0e77c0439"},"vehicle_type_id":"4","last_reported":1753830658,"current_range_meters":14400,"station_id":"cpo36qri1sfpv3e86is0","pricing_plan_id":"cebpf4jnsgd1na2vs0mg"},{"bike_id":"91e673d4-c8d9-4e81-a0e8-9221155bd169","system_id":"levelo_inurba_marseille","lat":43.29254,"lon":5.40205,"is_reserved":false,"is_disabled":false,"rental_uris":{"android":"levelo://app?vid=91e673d4-c8d9-4e81-a0e8-9221155bd169","ios":"levelo://app?vid=91e673d4-c8d9-4e81-a0e8-9221155bd169"},"vehicle_type_id":"4","last_reported":1753830658,"current_range_meters":14000,"station_id":"ce4bh312rcd13ifvqdk0","pricing_plan_id":"cebpf4jnsgd1na2vs0mg"},{"bike_id":"671701a9-7243-46ba-9df9-fa49b6935265","system_id":"levelo_inurba_marseille","lat":43.2598,"lon":5.37242,"is_reserved":false,"is_disabled":false,"rental_uris":{"android":"levelo://app?vid=671701a9-7243-46ba-9df9-fa49b6935265","ios":"levelo://app?vid=671701a9-7243-46ba-9df9-fa49b6935265"},"vehicle_type_id":"4","last_reported":1753830658,"current_range_meters":14000,"station_id":"","pricing_plan_id":"cebpf4jnsgd1na2vs0mg"},{"bike_id":"7f3262f8-b9db-4ce0-9f33-68bc0d73023a","system_id":"levelo_inurba_marseille","lat":43.29291,"lon":5.36133,"is_reserved":false,"is_disabled":false,"rental_uris":{"android":"levelo://app?vid=7f3262f8-b9db-4ce0-9f33-68bc0d73023a","ios":"levelo://app?vid=7f3262f8-b9db-4ce0-9f33-68bc0d73023a"},"vehicle_type_id":"4","last_reported":1753830658,"current_range_meters":14000,"station_id":"","pricing_plan_id":"cebpf4jnsgd1na2vs0mg"},{"bike_id":"3e632e67-e785-475b-93e1-b0a668624c02","system_id":"levelo_inurba_marseille","lat":43.28162,"lon":5.42638,"is_reserved":false,"is_disabled":false,"rental_uris":{"android":"levelo://app?vid=3e632e67-e785-475b-93e1-b0a668624c02","ios":"levelo://app?vid=3e632e67-e785-475b-93e1-b0a668624c02"},"vehicle_type_id":"4","last_reported":1753830658,"current_range_meters":14000,"station_id":"ce4bhnh2rcd13ifvqgug","pricing_plan_id":"cebpf4jnsgd1na2vs0mg"},{"bike_id":"78360323-48b6-4c4e-b563-a9abfd01f51a","system_id":"levelo_inurba_marseille","lat":43.30878,"lon":5.39658,"is_reserved":false,"is_disabled":false,"rental_uris":{"android":"levelo://app?vid=78360323-48b6-4c4e-b563-a9abfd01f51a","ios":"levelo://app?vid=78360323-48b6-4c4e-b563-a9abfd01f51a"},"vehicle_type_id":"4","last_reported":1753830658,"current_range_meters":14000,"station_id":"ce4bh012rcd13ifvqcv0","pricing_plan_id":"cebpf4jnsgd1na2vs0mg"},{"bike_id":"6b88e0bd-edb6-4227-a97f-5a60c6743409","system_id":"levelo_inurba_marseille","lat":43.2928,"lon":5.38539,"is_reserved":false,"is_disabled":false,"rental_uris":{"android":"levelo://app?vid=6b88e0bd-edb6-4227-a97f-5a60c6743409","ios":"levelo://app?vid=6b88e0bd-edb6-4227-a97f-5a60c6743409"},"vehicle_type_id":"4","last_reported":1753830658,"current_range_meters":14400,"station_id":"ce4bh092rcd13ifvqd20","pricing_plan_id":"cebpf4jnsgd1na2vs0mg"},{"bike_id":"ab9c577b-9cc3-4d9b-9e71-2ee231744295","system_id":"levelo_inurba_marseille","lat":43.28094,"lon":5.38321,"is_reserved":false,"is_disabled":false,"rental_uris":{"android":"levelo://app?vid=ab9c577b-9cc3-4d9b-9e71-2ee231744295","ios":"levelo://app?vid=ab9c577b-9cc3-4d9b-9e71-2ee231744295"},"vehicle_type_id":"4","last_reported":1753830658,"current_range_meters":14400,"station_id":"","pricing_plan_id":"cebpf4jnsgd1na2vs0mg"},{"bike_id":"d1b5741b-f1d6-456c-920c-6ab57a202ddb","system_id":"levelo_inurba_marseille","lat":43.29881,"lon":5.38897,"is_reserved":false,"is_disabled":false,"rental_uris":{"android":"levelo://app?vid=d1b5741b-f1d6-456c-920c-6ab57a202ddb","ios":"levelo://app?vid=d1b5741b-f1d6-456c-920c-6ab57a202ddb"},"vehicle_type_id":"4","last_reported":1753830658,"current_range_meters":14400,"station_id":"ce4bh392rcd13ifvqdl0","pricing_plan_id":"cebpf4jnsgd1na2vs0mg"},{"bike_id":"a16d408b-87b7-4ea5-b6d0-ce9b4fba403c","system_id":"levelo_inurba_marseille","lat":43.28615,"lon":5.37067,"is_reserved":false,"is_disabled":false,"rental_uris":{"android":"levelo://app?vid=a16d408b-87b7-4ea5-b6d0-ce9b4fba403c","ios":"levelo://app?vid=a16d408b-87b7-4ea5-b6d0-ce9b4fba403c"},"vehicle_type_id":"4","last_reported":1753830658,"current_range_meters":14400,"station_id":"ce4bht12rcd13ifvqi60","pricing_plan_id":"cebpf4jnsgd1na2vs0mg"},{"bike_id":"58d60ef7-501e-48a0-a97f-c0e09ff3aab0","system_id":"levelo_inurba_marseille","lat":43.222792,"lon":5.345958,"is_reserved":false,"is_disabled":false,"rental_uris":{"android":"levelo://app?vid=58d60ef7-501e-48a0-a97f-c0e09ff3aab0","ios":"levelo://app?vid=58d60ef7-501e-48a0-a97f-c0e09ff3aab0"},"vehicle_type_id":"4","last_reported":1753830658,"current_range_meters":14400,"station_id":"ce4bhp92rcd13ifvqhag","pricing_plan_id":"cebpf4jnsgd1na2vs0mg"},{"bike_id":"7affa337-61a5-473f-b69b-b897050ac690","system_id":"levelo_inurba_marseille","lat":43.28751,"lon":5.36079,"is_reserved":false,"is_disabled":false,"rental_uris":{"android":"levelo://app?vid=7affa337-61a5-473f-b69b-b897050ac690","ios":"levelo://app?vid=7affa337-61a5-473f-b69b-b897050ac690"},"vehicle_type_id":"4","last_reported":1753830658,"current_range_meters":14400,"station_id":"cki0cbj6b192h4jlfktg","pricing_plan_id":"cebpf4jnsgd1na2vs0mg"},{"bike_id":"00de3457-bb26-4f86-be97-d29604933a4d","system_id":"levelo_inurba_marseille","lat":43.28643,"lon":5.37183,"is_reserved":false,"is_disabled":false,"rental_uris":{"android":"levelo://app?vid=00de3457-bb26-4f86-be97-d29604933a4d","ios":"levelo://app?vid=00de3457-bb26-4f86-be97-d29604933a4d"},"vehicle_type_id":"4","last_reported":1753830658,"current_range_meters":14400,"station_id":"","pricing_plan_id":"cebpf4jnsgd1na2vs0mg"},{"bike_id":"1732663e-811d-4acd-bd58-479a3cda7d47","system_id":"levelo_inurba_marseille","lat":43.30423,"lon":5.39752,"is_reserved":false,"is_disabled":false,"rental_uris":{"android":"levelo://app?vid=1732663e-811d-4acd-bd58-479a3cda7d47","ios":"levelo://app?vid=1732663e-811d-4acd-bd58-479a3cda7d47"},"vehicle_type_id":"4","last_reported":1753830658,"current_range_meters":14800,"station_id":"ce4bh092rcd13ifvqd20","pricing_plan_id":"cebpf4jnsgd1na2vs0mg"},{"bike_id":"315c9151-78e7-4a20-807d-3a2290e78225","system_id":"levelo_inurba_marseille","lat":43.28413,"lon":5.37505,"is_reserved":false,"is_disabled":false,"rental_uris":{"android":"levelo://app?vid=315c9151-78e7-4a20-807d-3a2290e78225","ios":"levelo://app?vid=315c9151-78e7-4a20-807d-3a2290e78225"},"vehicle_type_id":"4","last_reported":1753830658,"current_range_meters":14800,"station_id":"ce4bh412rcd13ifvqds0","pricing_plan_id":"cebpf4jnsgd1na2vs0mg"},{"bike_id":"7ae9a301-af81-4c61-b264-f97fbac78c92","system_id":"levelo_inurba_marseille","lat":43.248125,"lon":5.374589,"is_reserved":false,"is_disabled":false,"rental_uris":{"android":"levelo://app?vid=7ae9a301-af81-4c61-b264-f97fbac78c92","ios":"levelo://app?vid=7ae9a301-af81-4c61-b264-f97fbac78c92"},"vehicle_type_id":"4","last_reported":1753830658,"current_range_meters":14800,"station_id":"ce4bhgh2rcd13ifvqfb0","pricing_plan_id":"cebpf4jnsgd1na2vs0mg"},{"bike_id":"0bdbae00-c3b8-4601-960f-1c9eb444ba0a","system_id":"levelo_inurba_marseille","lat":43.29276,"lon":5.40114,"is_reserved":false,"is_disabled":false,"rental_uris":{"android":"levelo://app?vid=0bdbae00-c3b8-4601-960f-1c9eb444ba0a","ios":"levelo://app?vid=0bdbae00-c3b8-4601-960f-1c9eb444ba0a"},"vehicle_type_id":"4","last_reported":1753830658,"current_range_meters":14800,"station_id":"ce4bh312rcd13ifvqdk0","pricing_plan_id":"cebpf4jnsgd1na2vs0mg"},{"bike_id":"3c65e3a4-d98b-4db2-8d36-951b9612ba65","system_id":"levelo_inurba_marseille","lat":43.231931,"lon":5.355689,"is_reserved":false,"is_disabled":false,"rental_uris":{"android":"levelo://app?vid=3c65e3a4-d98b-4db2-8d36-951b9612ba65","ios":"levelo://app?vid=3c65e3a4-d98b-4db2-8d36-951b9612ba65"},"vehicle_type_id":"4","last_reported":1753830658,"current_range_meters":14800,"station_id":"ce4bhu92rcd13ifvqi70","pricing_plan_id":"cebpf4jnsgd1na2vs0mg"},{"bike_id":"74a75414-a993-47e8-9f4a-1404e33b13ef","system_id":"levelo_inurba_marseille","lat":43.24073,"lon":5.3775,"is_reserved":false,"is_disabled":false,"rental_uris":{"android":"levelo://app?vid=74a75414-a993-47e8-9f4a-1404e33b13ef","ios":"levelo://app?vid=74a75414-a993-47e8-9f4a-1404e33b13ef"},"vehicle_type_id":"4","last_reported":1753830658,"current_range_meters":14800,"station_id":"ce4bhnp2rcd13ifvqgvg","pricing_plan_id":"cebpf4jnsgd1na2vs0mg"},{"bike_id":"006989d0-e964-4aa4-ad1e-5b81a65c337e","system_id":"levelo_inurba_marseille","lat":43.30803,"lon":5.38158,"is_reserved":false,"is_disabled":true,"rental_uris":{"android":"levelo://app?vid=006989d0-e964-4aa4-ad1e-5b81a65c337e","ios":"levelo://app?vid=006989d0-e964-4aa4-ad1e-5b81a65c337e"},"vehicle_type_id":"4","last_reported":1753830658,"current_range_meters":14800,"station_id":"ce4bgt12rcd13ifvqce0","pricing_plan_id":"cebpf4jnsgd1na2vs0mg"},{"bike_id":"8e636ccc-6fcd-4bdc-8a89-ed20c26deba9","system_id":"levelo_inurba_marseille","lat":43.23198,"lon":5.35552,"is_reserved":false,"is_disabled":false,"rental_uris":{"android":"levelo://app?vid=8e636ccc-6fcd-4bdc-8a89-ed20c26deba9","ios":"levelo://app?vid=8e636ccc-6fcd-4bdc-8a89-ed20c26deba9"},"vehicle_type_id":"4","last_reported":1753830658,"current_range_meters":14800,"station_id":"ce4bhu92rcd13ifvqi70","pricing_plan_id":"cebpf4jnsgd1na2vs0mg"},{"bike_id":"6e3a33cf-6db8-41ba-afc9-c1d2b182f000","system_id":"levelo_inurba_marseille","lat":43.28695,"lon":5.40001,"is_reserved":false,"is_disabled":false,"rental_uris":{"android":"levelo://app?vid=6e3a33cf-6db8-41ba-afc9-c1d2b182f000","ios":"levelo://app?vid=6e3a33cf-6db8-41ba-afc9-c1d2b182f000"},"vehicle_type_id":"4","last_reported":1753830658,"current_range_meters":15200,"station_id":"ce4bho92rcd13ifvqh3g","pricing_plan_id":"cebpf4jnsgd1na2vs0mg"},{"bike_id":"b3981504-66de-4d4d-88a4-7f2a1ee4eb0b","system_id":"levelo_inurba_marseille","lat":43.27953,"lon":5.38729,"is_reserved":false,"is_disabled":false,"rental_uris":{"android":"levelo://app?vid=b3981504-66de-4d4d-88a4-7f2a1ee4eb0b","ios":"levelo://app?vid=b3981504-66de-4d4d-88a4-7f2a1ee4eb0b"},"vehicle_type_id":"4","last_reported":1753830658,"current_range_meters":15200,"station_id":"ce4bhg12rcd13ifvqf80","pricing_plan_id":"cebpf4jnsgd1na2vs0mg"},{"bike_id":"a79e5d89-c0c7-419a-a0e7-044ecb54125e","system_id":"levelo_inurba_marseille","lat":43.295785,"lon":5.399742,"is_reserved":false,"is_disabled":false,"rental_uris":{"android":"levelo://app?vid=a79e5d89-c0c7-419a-a0e7-044ecb54125e","ios":"levelo://app?vid=a79e5d89-c0c7-419a-a0e7-044ecb54125e"},"vehicle_type_id":"4","last_reported":1753830658,"current_range_meters":15200,"station_id":"ce4bh312rcd13ifvqdj0","pricing_plan_id":"cebpf4jnsgd1na2vs0mg"},{"bike_id":"a4cda40a-f9ff-4026-8410-26db4ba66d12","system_id":"levelo_inurba_marseille","lat":43.30637,"lon":5.40106,"is_reserved":false,"is_disabled":false,"rental_uris":{"android":"levelo://app?vid=a4cda40a-f9ff-4026-8410-26db4ba66d12","ios":"levelo://app?vid=a4cda40a-f9ff-4026-8410-26db4ba66d12"},"vehicle_type_id":"4","last_reported":1753830658,"current_range_meters":15200,"station_id":"ce4bh112rcd13ifvqda0","pricing_plan_id":"cebpf4jnsgd1na2vs0mg"},{"bike_id":"e835e740-02a8-4b55-b83d-8f7e332e158e","system_id":"levelo_inurba_marseille","lat":43.230579,"lon":5.354865,"is_reserved":false,"is_disabled":false,"rental_uris":{"android":"levelo://app?vid=e835e740-02a8-4b55-b83d-8f7e332e158e","ios":"levelo://app?vid=e835e740-02a8-4b55-b83d-8f7e332e158e"},"vehicle_type_id":"4","last_reported":1753830658,"current_range_meters":15200,"station_id":"cpo3342slgdg3j2ifvpg","pricing_plan_id":"cebpf4jnsgd1na2vs0mg"},{"bike_id":"daabd21d-fe72-4bef-9caa-c5886e1b6fe4","system_id":"levelo_inurba_marseille","lat":43.31999,"lon":5.37488,"is_reserved":false,"is_disabled":false,"rental_uris":{"android":"levelo://app?vid=daabd21d-fe72-4bef-9caa-c5886e1b6fe4","ios":"levelo://app?vid=daabd21d-fe72-4bef-9caa-c5886e1b6fe4"},"vehicle_type_id":"4","last_reported":1753830658,"current_range_meters":15200,"station_id":"","pricing_plan_id":"cebpf4jnsgd1na2vs0mg"},{"bike_id":"de0d17df-be84-4879-a59f-baa4ec3324c5","system_id":"levelo_inurba_marseille","lat":43.30889,"lon":5.39651,"is_reserved":false,"is_disabled":false,"rental_uris":{"android":"levelo://app?vid=de0d17df-be84-4879-a59f-baa4ec3324c5","ios":"levelo://app?vid=de0d17df-be84-4879-a59f-baa4ec3324c5"},"vehicle_type_id":"4","last_reported":1753830658,"current_range_meters":15200,"station_id":"ce4bh012rcd13ifvqcv0","pricing_plan_id":"cebpf4jnsgd1na2vs0mg"},{"bike_id":"135ab1ea-fc9a-4785-9240-6bfa3adf7c7c","system_id":"levelo_inurba_marseille","lat":43.32361,"lon":5.36758,"is_reserved":false,"is_disabled":false,"rental_uris":{"android":"levelo://app?vid=135ab1ea-fc9a-4785-9240-6bfa3adf7c7c","ios":"levelo://app?vid=135ab1ea-fc9a-4785-9240-6bfa3adf7c7c"},"vehicle_type_id":"4","last_reported":1753830658,"current_range_meters":16000,"station_id":"ce4bhsh2rcd13ifvqi2g","pricing_plan_id":"cebpf4jnsgd1na2vs0mg"},{"bike_id":"2c96482c-7c37-44ec-b62d-de8f2cc1df2e","system_id":"levelo_inurba_marseille","lat":43.28729,"lon":5.39993,"is_reserved":false,"is_disabled":false,"rental_uris":{"android":"levelo://app?vid=2c96482c-7c37-44ec-b62d-de8f2cc1df2e","ios":"levelo://app?vid=2c96482c-7c37-44ec-b62d-de8f2cc1df2e"},"vehicle_type_id":"4","last_reported":1753830658,"current_range_meters":16000,"station_id":"ce4bho92rcd13ifvqh3g","pricing_plan_id":"cebpf4jnsgd1na2vs0mg"},{"bike_id":"22a76ee8-f553-454b-8e2c-89c9a43fef04","system_id":"levelo_inurba_marseille","lat":43.25822,"lon":5.39437,"is_reserved":false,"is_disabled":false,"rental_uris":{"android":"levelo://app?vid=22a76ee8-f553-454b-8e2c-89c9a43fef04","ios":"levelo://app?vid=22a76ee8-f553-454b-8e2c-89c9a43fef04"},"vehicle_type_id":"4","last_reported":1753830658,"current_range_meters":16000,"station_id":"ce4bhip2rcd13ifvqft0","pricing_plan_id":"cebpf4jnsgd1na2vs0mg"},{"bike_id":"373015f6-929b-49b7-83ad-819055551911","system_id":"levelo_inurba_marseille","lat":43.317023,"lon":5.377834,"is_reserved":false,"is_disabled":false,"rental_uris":{"android":"levelo://app?vid=373015f6-929b-49b7-83ad-819055551911","ios":"levelo://app?vid=373015f6-929b-49b7-83ad-819055551911"},"vehicle_type_id":"4","last_reported":1753830658,"current_range_meters":16000,"station_id":"ce4bgth2rcd13ifvqch0","pricing_plan_id":"cebpf4jnsgd1na2vs0mg"},{"bike_id":"01dc87be-1997-4bc9-9766-41483133a4ce","system_id":"levelo_inurba_marseille","lat":43.30929,"lon":5.40155,"is_reserved":false,"is_disabled":false,"rental_uris":{"android":"levelo://app?vid=01dc87be-1997-4bc9-9766-41483133a4ce","ios":"levelo://app?vid=01dc87be-1997-4bc9-9766-41483133a4ce"},"vehicle_type_id":"4","last_reported":1753830658,"current_range_meters":16000,"station_id":"ce4bgvp2rcd13ifvqct0","pricing_plan_id":"cebpf4jnsgd1na2vs0mg"},{"bike_id":"f129605f-c561-462b-9dd8-38b1fae764e6","system_id":"levelo_inurba_marseille","lat":43.32318,"lon":5.36675,"is_reserved":false,"is_disabled":false,"rental_uris":{"android":"levelo://app?vid=f129605f-c561-462b-9dd8-38b1fae764e6","ios":"levelo://app?vid=f129605f-c561-462b-9dd8-38b1fae764e6"},"vehicle_type_id":"4","last_reported":1753830658,"current_range_meters":16000,"station_id":"","pricing_plan_id":"cebpf4jnsgd1na2vs0mg"},{"bike_id":"24ddc855-9db1-447b-8cc7-fb33f85a47fb","system_id":"levelo_inurba_marseille","lat":43.30595,"lon":5.37213,"is_reserved":false,"is_disabled":false,"rental_uris":{"android":"levelo://app?vid=24ddc855-9db1-447b-8cc7-fb33f85a47fb","ios":"levelo://app?vid=24ddc855-9db1-447b-8cc7-fb33f85a47fb"},"vehicle_type_id":"4","last_reported":1753830658,"current_range_meters":16000,"station_id":"ce4bgqh2rcd13ifvqc4g","pricing_plan_id":"cebpf4jnsgd1na2vs0mg"},{"bike_id":"a6a46ae2-d764-44ee-baf2-a76e49bd9084","system_id":"levelo_inurba_marseille","lat":43.26991,"lon":5.40297,"is_reserved":false,"is_disabled":false,"rental_uris":{"android":"levelo://app?vid=a6a46ae2-d764-44ee-baf2-a76e49bd9084","ios":"levelo://app?vid=a6a46ae2-d764-44ee-baf2-a76e49bd9084"},"vehicle_type_id":"4","last_reported":1753830658,"current_range_meters":16400,"station_id":"cjm6bp8fraef2m0cb0m0","pricing_plan_id":"cebpf4jnsgd1na2vs0mg"},{"bike_id":"c686771c-e4d6-4ee5-934b-f3ca190b833e","system_id":"levelo_inurba_marseille","lat":43.32765,"lon":5.39204,"is_reserved":false,"is_disabled":false,"rental_uris":{"android":"levelo://app?vid=c686771c-e4d6-4ee5-934b-f3ca190b833e","ios":"levelo://app?vid=c686771c-e4d6-4ee5-934b-f3ca190b833e"},"vehicle_type_id":"4","last_reported":1753830658,"current_range_meters":16000,"station_id":"","pricing_plan_id":"cebpf4jnsgd1na2vs0mg"},{"bike_id":"bcba03fc-3275-4c0b-9227-f96dc3dc2c55","system_id":"levelo_inurba_marseille","lat":43.30602,"lon":5.39371,"is_reserved":false,"is_disabled":false,"rental_uris":{"android":"levelo://app?vid=bcba03fc-3275-4c0b-9227-f96dc3dc2c55","ios":"levelo://app?vid=bcba03fc-3275-4c0b-9227-f96dc3dc2c55"},"vehicle_type_id":"4","last_reported":1753830658,"current_range_meters":16000,"station_id":"ce4bh0p2rcd13ifvqd80","pricing_plan_id":"cebpf4jnsgd1na2vs0mg"},{"bike_id":"259beaaa-a448-46d7-a981-9571b80c18c3","system_id":"levelo_inurba_marseille","lat":43.26569,"lon":5.38994,"is_reserved":false,"is_disabled":false,"rental_uris":{"android":"levelo://app?vid=259beaaa-a448-46d7-a981-9571b80c18c3","ios":"levelo://app?vid=259beaaa-a448-46d7-a981-9571b80c18c3"},"vehicle_type_id":"4","last_reported":1753830658,"current_range_meters":16000,"station_id":"ce4bhe12rcd13ifvqf30","pricing_plan_id":"cebpf4jnsgd1na2vs0mg"},{"bike_id":"056e4f3d-4ab7-42da-9834-2ca05b8a0f52","system_id":"levelo_inurba_marseille","lat":43.31485,"lon":5.36854,"is_reserved":false,"is_disabled":false,"rental_uris":{"android":"levelo://app?vid=056e4f3d-4ab7-42da-9834-2ca05b8a0f52","ios":"levelo://app?vid=056e4f3d-4ab7-42da-9834-2ca05b8a0f52"},"vehicle_type_id":"4","last_reported":1753830658,"current_range_meters":16000,"station_id":"","pricing_plan_id":"cebpf4jnsgd1na2vs0mg"},{"bike_id":"3d54e97c-ec3a-42f4-bf86-812f072159e8","system_id":"levelo_inurba_marseille","lat":43.28162,"lon":5.42646,"is_reserved":false,"is_disabled":false,"rental_uris":{"android":"levelo://app?vid=3d54e97c-ec3a-42f4-bf86-812f072159e8","ios":"levelo://app?vid=3d54e97c-ec3a-42f4-bf86-812f072159e8"},"vehicle_type_id":"4","last_reported":1753830658,"current_range_meters":16000,"station_id":"ce4bhnh2rcd13ifvqgug","pricing_plan_id":"cebpf4jnsgd1na2vs0mg"},{"bike_id":"f21fcc95-c903-468e-b7e9-10c54a09d878","system_id":"levelo_inurba_marseille","lat":43.29538,"lon":5.39418,"is_reserved":false,"is_disabled":false,"rental_uris":{"android":"levelo://app?vid=f21fcc95-c903-468e-b7e9-10c54a09d878","ios":"levelo://app?vid=f21fcc95-c903-468e-b7e9-10c54a09d878"},"vehicle_type_id":"4","last_reported":1753830658,"current_range_meters":16000,"station_id":"ce4bh292rcd13ifvqdf0","pricing_plan_id":"cebpf4jnsgd1na2vs0mg"},{"bike_id":"23cb5642-15b1-4dff-8751-77349dab4204","system_id":"levelo_inurba_marseille","lat":43.22943,"lon":5.35426,"is_reserved":false,"is_disabled":false,"rental_uris":{"android":"levelo://app?vid=23cb5642-15b1-4dff-8751-77349dab4204","ios":"levelo://app?vid=23cb5642-15b1-4dff-8751-77349dab4204"},"vehicle_type_id":"4","last_reported":1753830658,"current_range_meters":16400,"station_id":"cpo3532slgdg3j2ikp40","pricing_plan_id":"cebpf4jnsgd1na2vs0mg"},{"bike_id":"2257b6da-5b8d-42f5-8106-12fc5cea0fee","system_id":"levelo_inurba_marseille","lat":43.27439,"lon":5.3942,"is_reserved":false,"is_disabled":false,"rental_uris":{"android":"levelo://app?vid=2257b6da-5b8d-42f5-8106-12fc5cea0fee","ios":"levelo://app?vid=2257b6da-5b8d-42f5-8106-12fc5cea0fee"},"vehicle_type_id":"4","last_reported":1753830658,"current_range_meters":16400,"station_id":"ce4bhdp2rcd13ifvqf20","pricing_plan_id":"cebpf4jnsgd1na2vs0mg"},{"bike_id":"85d95a9a-bae1-4127-a50f-dff98ce29fd5","system_id":"levelo_inurba_marseille","lat":43.322566,"lon":5.3896,"is_reserved":false,"is_disabled":false,"rental_uris":{"android":"levelo://app?vid=85d95a9a-bae1-4127-a50f-dff98ce29fd5","ios":"levelo://app?vid=85d95a9a-bae1-4127-a50f-dff98ce29fd5"},"vehicle_type_id":"4","last_reported":1753830658,"current_range_meters":16400,"station_id":"","pricing_plan_id":"cebpf4jnsgd1na2vs0mg"},{"bike_id":"b6779396-67bd-4011-85e1-0c4683200eb0","system_id":"levelo_inurba_marseille","lat":43.270584,"lon":5.402571,"is_reserved":false,"is_disabled":false,"rental_uris":{"android":"levelo://app?vid=b6779396-67bd-4011-85e1-0c4683200eb0","ios":"levelo://app?vid=b6779396-67bd-4011-85e1-0c4683200eb0"},"vehicle_type_id":"4","last_reported":1753830658,"current_range_meters":16400,"station_id":"ce4bhk92rcd13ifvqgc0","pricing_plan_id":"cebpf4jnsgd1na2vs0mg"},{"bike_id":"21a2ca79-b580-4d80-a98e-5e980927eb26","system_id":"levelo_inurba_marseille","lat":43.26226,"lon":5.40445,"is_reserved":false,"is_disabled":false,"rental_uris":{"android":"levelo://app?vid=21a2ca79-b580-4d80-a98e-5e980927eb26","ios":"levelo://app?vid=21a2ca79-b580-4d80-a98e-5e980927eb26"},"vehicle_type_id":"4","last_reported":1753830658,"current_range_meters":16400,"station_id":"ce4bhmh2rcd13ifvqgmg","pricing_plan_id":"cebpf4jnsgd1na2vs0mg"},{"bike_id":"2fad1b6f-d0b7-4211-9b9d-661d7c090096","system_id":"levelo_inurba_marseille","lat":43.29813,"lon":5.43341,"is_reserved":false,"is_disabled":false,"rental_uris":{"android":"levelo://app?vid=2fad1b6f-d0b7-4211-9b9d-661d7c090096","ios":"levelo://app?vid=2fad1b6f-d0b7-4211-9b9d-661d7c090096"},"vehicle_type_id":"4","last_reported":1753830658,"current_range_meters":16400,"station_id":"","pricing_plan_id":"cebpf4jnsgd1na2vs0mg"},{"bike_id":"ae6c8428-e39e-40be-9df7-f418521aa777","system_id":"levelo_inurba_marseille","lat":43.22922,"lon":5.35378,"is_reserved":false,"is_disabled":false,"rental_uris":{"android":"levelo://app?vid=ae6c8428-e39e-40be-9df7-f418521aa777","ios":"levelo://app?vid=ae6c8428-e39e-40be-9df7-f418521aa777"},"vehicle_type_id":"4","last_reported":1753830658,"current_range_meters":16400,"station_id":"cpo3532slgdg3j2ikp40","pricing_plan_id":"cebpf4jnsgd1na2vs0mg"},{"bike_id":"fc0d563c-dc38-47b5-898e-bba26192646f","system_id":"levelo_inurba_marseille","lat":43.29958,"lon":5.41322,"is_reserved":false,"is_disabled":false,"rental_uris":{"android":"levelo://app?vid=fc0d563c-dc38-47b5-898e-bba26192646f","ios":"levelo://app?vid=fc0d563c-dc38-47b5-898e-bba26192646f"},"vehicle_type_id":"4","last_reported":1753830658,"current_range_meters":16400,"station_id":"ce4bhp12rcd13ifvqh9g","pricing_plan_id":"cebpf4jnsgd1na2vs0mg"},{"bike_id":"dad691be-fd3e-4d02-8c0f-f9e1b77bb50e","system_id":"levelo_inurba_marseille","lat":43.28408,"lon":5.37551,"is_reserved":false,"is_disabled":false,"rental_uris":{"android":"levelo://app?vid=dad691be-fd3e-4d02-8c0f-f9e1b77bb50e","ios":"levelo://app?vid=dad691be-fd3e-4d02-8c0f-f9e1b77bb50e"},"vehicle_type_id":"4","last_reported":1753830658,"current_range_meters":16400,"station_id":"ce4bh412rcd13ifvqds0","pricing_plan_id":"cebpf4jnsgd1na2vs0mg"},{"bike_id":"2002cc2c-a47c-4777-8dac-3a5e369cf994","system_id":"levelo_inurba_marseille","lat":43.24665,"lon":5.3819,"is_reserved":false,"is_disabled":false,"rental_uris":{"android":"levelo://app?vid=2002cc2c-a47c-4777-8dac-3a5e369cf994","ios":"levelo://app?vid=2002cc2c-a47c-4777-8dac-3a5e369cf994"},"vehicle_type_id":"4","last_reported":1753830658,"current_range_meters":16400,"station_id":"ce4bhih2rcd13ifvqfr0","pricing_plan_id":"cebpf4jnsgd1na2vs0mg"},{"bike_id":"7a2e82e0-8302-4549-adc9-89b5e6842920","system_id":"levelo_inurba_marseille","lat":43.32421,"lon":5.3893,"is_reserved":false,"is_disabled":false,"rental_uris":{"android":"levelo://app?vid=7a2e82e0-8302-4549-adc9-89b5e6842920","ios":"levelo://app?vid=7a2e82e0-8302-4549-adc9-89b5e6842920"},"vehicle_type_id":"4","last_reported":1753830658,"current_range_meters":16400,"station_id":"ce4bhqp2rcd13ifvqhog","pricing_plan_id":"cebpf4jnsgd1na2vs0mg"},{"bike_id":"a36bd7ba-074a-442d-8f4e-bb3cc65a52a2","system_id":"levelo_inurba_marseille","lat":43.29216,"lon":5.3954,"is_reserved":false,"is_disabled":false,"rental_uris":{"android":"levelo://app?vid=a36bd7ba-074a-442d-8f4e-bb3cc65a52a2","ios":"levelo://app?vid=a36bd7ba-074a-442d-8f4e-bb3cc65a52a2"},"vehicle_type_id":"4","last_reported":1753830658,"current_range_meters":16400,"station_id":"","pricing_plan_id":"cebpf4jnsgd1na2vs0mg"},{"bike_id":"915513aa-2ef0-4e1b-9aa3-73608a47efab","system_id":"levelo_inurba_marseille","lat":43.225017,"lon":5.347714,"is_reserved":false,"is_disabled":false,"rental_uris":{"android":"levelo://app?vid=915513aa-2ef0-4e1b-9aa3-73608a47efab","ios":"levelo://app?vid=915513aa-2ef0-4e1b-9aa3-73608a47efab"},"vehicle_type_id":"4","last_reported":1753830658,"current_range_meters":16400,"station_id":"st_cvj5dfep6f1abm77gieg","pricing_plan_id":"cebpf4jnsgd1na2vs0mg"},{"bike_id":"b184d23a-2599-4ef1-8cd4-ab6c44598682","system_id":"levelo_inurba_marseille","lat":43.24027,"lon":5.37734,"is_reserved":false,"is_disabled":false,"rental_uris":{"android":"levelo://app?vid=b184d23a-2599-4ef1-8cd4-ab6c44598682","ios":"levelo://app?vid=b184d23a-2599-4ef1-8cd4-ab6c44598682"},"vehicle_type_id":"4","last_reported":1753830658,"current_range_meters":16800,"station_id":"ce4bhnp2rcd13ifvqgvg","pricing_plan_id":"cebpf4jnsgd1na2vs0mg"},{"bike_id":"3d60e95a-8706-4e13-b31f-ac7a913f607a","system_id":"levelo_inurba_marseille","lat":43.22928,"lon":5.35384,"is_reserved":false,"is_disabled":false,"rental_uris":{"android":"levelo://app?vid=3d60e95a-8706-4e13-b31f-ac7a913f607a","ios":"levelo://app?vid=3d60e95a-8706-4e13-b31f-ac7a913f607a"},"vehicle_type_id":"4","last_reported":1753830658,"current_range_meters":16800,"station_id":"cpo3532slgdg3j2ikp40","pricing_plan_id":"cebpf4jnsgd1na2vs0mg"},{"bike_id":"3b0fc468-0f53-43b2-bdc9-2accbf6297e5","system_id":"levelo_inurba_marseille","lat":43.29597,"lon":5.379,"is_reserved":false,"is_disabled":false,"rental_uris":{"android":"levelo://app?vid=3b0fc468-0f53-43b2-bdc9-2accbf6297e5","ios":"levelo://app?vid=3b0fc468-0f53-43b2-bdc9-2accbf6297e5"},"vehicle_type_id":"4","last_reported":1753830658,"current_range_meters":16800,"station_id":"","pricing_plan_id":"cebpf4jnsgd1na2vs0mg"},{"bike_id":"27121016-03d3-4670-9ce6-a156435b86ae","system_id":"levelo_inurba_marseille","lat":43.323421,"lon":5.406284,"is_reserved":false,"is_disabled":true,"rental_uris":{"android":"levelo://app?vid=27121016-03d3-4670-9ce6-a156435b86ae","ios":"levelo://app?vid=27121016-03d3-4670-9ce6-a156435b86ae"},"vehicle_type_id":"4","last_reported":1753830658,"current_range_meters":16800,"station_id":"ce4bh012rcd13ifvqd00","pricing_plan_id":"cebpf4jnsgd1na2vs0mg"},{"bike_id":"886bb3e8-befe-4194-bad0-5ad77f5653c8","system_id":"levelo_inurba_marseille","lat":43.243946,"lon":5.3707,"is_reserved":false,"is_disabled":true,"rental_uris":{"android":"levelo://app?vid=886bb3e8-befe-4194-bad0-5ad77f5653c8","ios":"levelo://app?vid=886bb3e8-befe-4194-bad0-5ad77f5653c8"},"vehicle_type_id":"4","last_reported":1753830658,"current_range_meters":16800,"station_id":"ce4bhhh2rcd13ifvqfk0","pricing_plan_id":"cebpf4jnsgd1na2vs0mg"},{"bike_id":"2bba2e40-05a7-435a-b68f-75a0bcbf63b4","system_id":"levelo_inurba_marseille","lat":43.28691,"lon":5.39985,"is_reserved":false,"is_disabled":false,"rental_uris":{"android":"levelo://app?vid=2bba2e40-05a7-435a-b68f-75a0bcbf63b4","ios":"levelo://app?vid=2bba2e40-05a7-435a-b68f-75a0bcbf63b4"},"vehicle_type_id":"4","last_reported":1753830658,"current_range_meters":16800,"station_id":"ce4bho92rcd13ifvqh3g","pricing_plan_id":"cebpf4jnsgd1na2vs0mg"},{"bike_id":"73e8eb33-c62d-4c29-9dce-7a8acfea8403","system_id":"levelo_inurba_marseille","lat":43.31551,"lon":5.38034,"is_reserved":false,"is_disabled":false,"rental_uris":{"android":"levelo://app?vid=73e8eb33-c62d-4c29-9dce-7a8acfea8403","ios":"levelo://app?vid=73e8eb33-c62d-4c29-9dce-7a8acfea8403"},"vehicle_type_id":"4","last_reported":1753830658,"current_range_meters":16800,"station_id":"ce4bhsp2rcd13ifvqi50","pricing_plan_id":"cebpf4jnsgd1na2vs0mg"},{"bike_id":"b28ad17b-d26a-458a-b690-9100105ac419","system_id":"levelo_inurba_marseille","lat":43.305466,"lon":5.38416,"is_reserved":false,"is_disabled":false,"rental_uris":{"android":"levelo://app?vid=b28ad17b-d26a-458a-b690-9100105ac419","ios":"levelo://app?vid=b28ad17b-d26a-458a-b690-9100105ac419"},"vehicle_type_id":"4","last_reported":1753830658,"current_range_meters":16800,"station_id":"ce4bgg92rcd13ifvqb30","pricing_plan_id":"cebpf4jnsgd1na2vs0mg"},{"bike_id":"96e3ef03-ebd1-4704-94c5-7f685f92d4dc","system_id":"levelo_inurba_marseille","lat":43.28424,"lon":5.37544,"is_reserved":false,"is_disabled":false,"rental_uris":{"android":"levelo://app?vid=96e3ef03-ebd1-4704-94c5-7f685f92d4dc","ios":"levelo://app?vid=96e3ef03-ebd1-4704-94c5-7f685f92d4dc"},"vehicle_type_id":"4","last_reported":1753830658,"current_range_meters":16800,"station_id":"ce4bh412rcd13ifvqds0","pricing_plan_id":"cebpf4jnsgd1na2vs0mg"},{"bike_id":"5ff7b424-be72-460e-9279-c80ac3b388ac","system_id":"levelo_inurba_marseille","lat":43.23172,"lon":5.3999,"is_reserved":false,"is_disabled":false,"rental_uris":{"android":"levelo://app?vid=5ff7b424-be72-460e-9279-c80ac3b388ac","ios":"levelo://app?vid=5ff7b424-be72-460e-9279-c80ac3b388ac"},"vehicle_type_id":"4","last_reported":1753830658,"current_range_meters":16800,"station_id":"ce4bhn12rcd13ifvqgqg","pricing_plan_id":"cebpf4jnsgd1na2vs0mg"},{"bike_id":"a5c4949a-9ef4-4776-a3f1-318fb7180b06","system_id":"levelo_inurba_marseille","lat":43.29806,"lon":5.3935,"is_reserved":false,"is_disabled":false,"rental_uris":{"android":"levelo://app?vid=a5c4949a-9ef4-4776-a3f1-318fb7180b06","ios":"levelo://app?vid=a5c4949a-9ef4-4776-a3f1-318fb7180b06"},"vehicle_type_id":"4","last_reported":1753830658,"current_range_meters":16800,"station_id":"chh1huq6cuj3fo74tm60","pricing_plan_id":"cebpf4jnsgd1na2vs0mg"},{"bike_id":"402ecb9c-f34b-4bf5-a3dd-61d16c2e8b71","system_id":"levelo_inurba_marseille","lat":43.29533,"lon":5.38538,"is_reserved":false,"is_disabled":false,"rental_uris":{"android":"levelo://app?vid=402ecb9c-f34b-4bf5-a3dd-61d16c2e8b71","ios":"levelo://app?vid=402ecb9c-f34b-4bf5-a3dd-61d16c2e8b71"},"vehicle_type_id":"4","last_reported":1753830658,"current_range_meters":16800,"station_id":"ce4bgih2rcd13ifvqba0","pricing_plan_id":"cebpf4jnsgd1na2vs0mg"},{"bike_id":"1efcf3d2-179b-4768-801a-e024c98d928b","system_id":"levelo_inurba_marseille","lat":43.29582,"lon":5.3904,"is_reserved":false,"is_disabled":false,"rental_uris":{"android":"levelo://app?vid=1efcf3d2-179b-4768-801a-e024c98d928b","ios":"levelo://app?vid=1efcf3d2-179b-4768-801a-e024c98d928b"},"vehicle_type_id":"4","last_reported":1753830658,"current_range_meters":16800,"station_id":"","pricing_plan_id":"cebpf4jnsgd1na2vs0mg"},{"bike_id":"b44d763b-4f92-4731-b76a-85ebcd91acd5","system_id":"levelo_inurba_marseille","lat":43.30192,"lon":5.37182,"is_reserved":false,"is_disabled":false,"rental_uris":{"android":"levelo://app?vid=b44d763b-4f92-4731-b76a-85ebcd91acd5","ios":"levelo://app?vid=b44d763b-4f92-4731-b76a-85ebcd91acd5"},"vehicle_type_id":"4","last_reported":1753830658,"current_range_meters":17200,"station_id":"","pricing_plan_id":"cebpf4jnsgd1na2vs0mg"},{"bike_id":"8f51eef3-a67f-4f71-b87a-86271c38b3b3","system_id":"levelo_inurba_marseille","lat":43.3117,"lon":5.38711,"is_reserved":false,"is_disabled":false,"rental_uris":{"android":"levelo://app?vid=8f51eef3-a67f-4f71-b87a-86271c38b3b3","ios":"levelo://app?vid=8f51eef3-a67f-4f71-b87a-86271c38b3b3"},"vehicle_type_id":"4","last_reported":1753830658,"current_range_meters":17200,"station_id":"ce4bgv12rcd13ifvqcp0","pricing_plan_id":"cebpf4jnsgd1na2vs0mg"},{"bike_id":"0aa3d069-0b2c-4ad8-afcb-33ace28f6be3","system_id":"levelo_inurba_marseille","lat":43.319994,"lon":5.38166,"is_reserved":false,"is_disabled":false,"rental_uris":{"android":"levelo://app?vid=0aa3d069-0b2c-4ad8-afcb-33ace28f6be3","ios":"levelo://app?vid=0aa3d069-0b2c-4ad8-afcb-33ace28f6be3"},"vehicle_type_id":"4","last_reported":1753830658,"current_range_meters":17200,"station_id":"ce4bhr12rcd13ifvqhpg","pricing_plan_id":"cebpf4jnsgd1na2vs0mg"},{"bike_id":"f37e675d-7b1d-4f1b-afa6-9ebed52c93e2","system_id":"levelo_inurba_marseille","lat":43.29536,"lon":5.385405,"is_reserved":false,"is_disabled":false,"rental_uris":{"android":"levelo://app?vid=f37e675d-7b1d-4f1b-afa6-9ebed52c93e2","ios":"levelo://app?vid=f37e675d-7b1d-4f1b-afa6-9ebed52c93e2"},"vehicle_type_id":"4","last_reported":1753830658,"current_range_meters":17200,"station_id":"ce4bgih2rcd13ifvqba0","pricing_plan_id":"cebpf4jnsgd1na2vs0mg"},{"bike_id":"6a664d4b-940c-4c07-9452-a9104589cf3a","system_id":"levelo_inurba_marseille","lat":43.29542,"lon":5.42286,"is_reserved":false,"is_disabled":true,"rental_uris":{"android":"levelo://app?vid=6a664d4b-940c-4c07-9452-a9104589cf3a","ios":"levelo://app?vid=6a664d4b-940c-4c07-9452-a9104589cf3a"},"vehicle_type_id":"4","last_reported":1753830658,"current_range_meters":17200,"station_id":"ce4bhph2rcd13ifvqhdg","pricing_plan_id":"cebpf4jnsgd1na2vs0mg"},{"bike_id":"c0a9077f-d60f-4b03-9bb9-f8d3872d13fb","system_id":"levelo_inurba_marseille","lat":43.295326,"lon":5.385489,"is_reserved":false,"is_disabled":false,"rental_uris":{"android":"levelo://app?vid=c0a9077f-d60f-4b03-9bb9-f8d3872d13fb","ios":"levelo://app?vid=c0a9077f-d60f-4b03-9bb9-f8d3872d13fb"},"vehicle_type_id":"4","last_reported":1753830658,"current_range_meters":17200,"station_id":"ce4bgih2rcd13ifvqba0","pricing_plan_id":"cebpf4jnsgd1na2vs0mg"},{"bike_id":"504cdefb-b23a-495e-b8a2-e174ca9ca716","system_id":"levelo_inurba_marseille","lat":43.31728,"lon":5.40431,"is_reserved":false,"is_disabled":false,"rental_uris":{"android":"levelo://app?vid=504cdefb-b23a-495e-b8a2-e174ca9ca716","ios":"levelo://app?vid=504cdefb-b23a-495e-b8a2-e174ca9ca716"},"vehicle_type_id":"4","last_reported":1753830658,"current_range_meters":17200,"station_id":"ce4bh012rcd13ifvqd00","pricing_plan_id":"cebpf4jnsgd1na2vs0mg"},{"bike_id":"2e1bdbd1-042c-4bf4-b623-908b6301c20d","system_id":"levelo_inurba_marseille","lat":43.28163,"lon":5.44188,"is_reserved":false,"is_disabled":false,"rental_uris":{"android":"levelo://app?vid=2e1bdbd1-042c-4bf4-b623-908b6301c20d","ios":"levelo://app?vid=2e1bdbd1-042c-4bf4-b623-908b6301c20d"},"vehicle_type_id":"4","last_reported":1753830658,"current_range_meters":17200,"station_id":"","pricing_plan_id":"cebpf4jnsgd1na2vs0mg"},{"bike_id":"89cd6a2e-fcbf-47f7-bb5c-d94c28c4082c","system_id":"levelo_inurba_marseille","lat":43.2993,"lon":5.36536,"is_reserved":false,"is_disabled":false,"rental_uris":{"android":"levelo://app?vid=89cd6a2e-fcbf-47f7-bb5c-d94c28c4082c","ios":"levelo://app?vid=89cd6a2e-fcbf-47f7-bb5c-d94c28c4082c"},"vehicle_type_id":"4","last_reported":1753830658,"current_range_meters":17200,"station_id":"ce4bgm92rcd13ifvqbr0","pricing_plan_id":"cebpf4jnsgd1na2vs0mg"},{"bike_id":"bba660a4-64e7-41bf-a51f-980ab0eacd81","system_id":"levelo_inurba_marseille","lat":43.28701,"lon":5.37401,"is_reserved":false,"is_disabled":true,"rental_uris":{"android":"levelo://app?vid=bba660a4-64e7-41bf-a51f-980ab0eacd81","ios":"levelo://app?vid=bba660a4-64e7-41bf-a51f-980ab0eacd81"},"vehicle_type_id":"4","last_reported":1753830658,"current_range_meters":17200,"station_id":"ce4bh3p2rcd13ifvqdq0","pricing_plan_id":"cebpf4jnsgd1na2vs0mg"},{"bike_id":"3a0263b2-dbe9-40cd-81c3-d9f1979704cb","system_id":"levelo_inurba_marseille","lat":43.25109,"lon":5.40329,"is_reserved":false,"is_disabled":false,"rental_uris":{"android":"levelo://app?vid=3a0263b2-dbe9-40cd-81c3-d9f1979704cb","ios":"levelo://app?vid=3a0263b2-dbe9-40cd-81c3-d9f1979704cb"},"vehicle_type_id":"4","last_reported":1753830658,"current_range_meters":17200,"station_id":"ce4bhlh2rcd13ifvqgig","pricing_plan_id":"cebpf4jnsgd1na2vs0mg"},{"bike_id":"48cc8468-c160-4e61-b081-29c69922da7e","system_id":"levelo_inurba_marseille","lat":43.295287,"lon":5.385366,"is_reserved":false,"is_disabled":false,"rental_uris":{"android":"levelo://app?vid=48cc8468-c160-4e61-b081-29c69922da7e","ios":"levelo://app?vid=48cc8468-c160-4e61-b081-29c69922da7e"},"vehicle_type_id":"4","last_reported":1753830658,"current_range_meters":17600,"station_id":"ce4bgih2rcd13ifvqba0","pricing_plan_id":"cebpf4jnsgd1na2vs0mg"},{"bike_id":"9d009a5c-6f67-42c3-9e25-d85aa67efa67","system_id":"levelo_inurba_marseille","lat":43.239679,"lon":5.366309,"is_reserved":false,"is_disabled":false,"rental_uris":{"android":"levelo://app?vid=9d009a5c-6f67-42c3-9e25-d85aa67efa67","ios":"levelo://app?vid=9d009a5c-6f67-42c3-9e25-d85aa67efa67"},"vehicle_type_id":"4","last_reported":1753830658,"current_range_meters":17600,"station_id":"ce4bhi12rcd13ifvqfp0","pricing_plan_id":"cebpf4jnsgd1na2vs0mg"},{"bike_id":"19295018-235d-4f62-9c12-0203c908e699","system_id":"levelo_inurba_marseille","lat":43.22929,"lon":5.35371,"is_reserved":false,"is_disabled":false,"rental_uris":{"android":"levelo://app?vid=19295018-235d-4f62-9c12-0203c908e699","ios":"levelo://app?vid=19295018-235d-4f62-9c12-0203c908e699"},"vehicle_type_id":"4","last_reported":1753830658,"current_range_meters":17600,"station_id":"cpo3532slgdg3j2ikp40","pricing_plan_id":"cebpf4jnsgd1na2vs0mg"},{"bike_id":"05b79db3-f0fb-414e-9f53-32e4bb665b59","system_id":"levelo_inurba_marseille","lat":43.265564,"lon":5.390074,"is_reserved":false,"is_disabled":false,"rental_uris":{"android":"levelo://app?vid=05b79db3-f0fb-414e-9f53-32e4bb665b59","ios":"levelo://app?vid=05b79db3-f0fb-414e-9f53-32e4bb665b59"},"vehicle_type_id":"4","last_reported":1753830658,"current_range_meters":17600,"station_id":"ce4bhe12rcd13ifvqf30","pricing_plan_id":"cebpf4jnsgd1na2vs0mg"},{"bike_id":"cc13585f-f7f0-47dc-8db0-d401fc430042","system_id":"levelo_inurba_marseille","lat":43.310718,"lon":5.383558,"is_reserved":false,"is_disabled":false,"rental_uris":{"android":"levelo://app?vid=cc13585f-f7f0-47dc-8db0-d401fc430042","ios":"levelo://app?vid=cc13585f-f7f0-47dc-8db0-d401fc430042"},"vehicle_type_id":"4","last_reported":1753830658,"current_range_meters":17600,"station_id":"ce4bgv92rcd13ifvqcr0","pricing_plan_id":"cebpf4jnsgd1na2vs0mg"},{"bike_id":"5f72df66-2d68-4c6e-a917-44e1dcfede98","system_id":"levelo_inurba_marseille","lat":43.22932,"lon":5.35399,"is_reserved":false,"is_disabled":false,"rental_uris":{"android":"levelo://app?vid=5f72df66-2d68-4c6e-a917-44e1dcfede98","ios":"levelo://app?vid=5f72df66-2d68-4c6e-a917-44e1dcfede98"},"vehicle_type_id":"4","last_reported":1753830658,"current_range_meters":17600,"station_id":"cpo3532slgdg3j2ikp40","pricing_plan_id":"cebpf4jnsgd1na2vs0mg"},{"bike_id":"b1e61992-1436-4e72-82d0-0529c813fc3f","system_id":"levelo_inurba_marseille","lat":43.29883,"lon":5.38903,"is_reserved":false,"is_disabled":false,"rental_uris":{"android":"levelo://app?vid=b1e61992-1436-4e72-82d0-0529c813fc3f","ios":"levelo://app?vid=b1e61992-1436-4e72-82d0-0529c813fc3f"},"vehicle_type_id":"4","last_reported":1753830658,"current_range_meters":17600,"station_id":"ce4bh392rcd13ifvqdl0","pricing_plan_id":"cebpf4jnsgd1na2vs0mg"},{"bike_id":"6df9649f-b243-4373-a7e8-8da831eac0d9","system_id":"levelo_inurba_marseille","lat":43.30332,"lon":5.40433,"is_reserved":false,"is_disabled":false,"rental_uris":{"android":"levelo://app?vid=6df9649f-b243-4373-a7e8-8da831eac0d9","ios":"levelo://app?vid=6df9649f-b243-4373-a7e8-8da831eac0d9"},"vehicle_type_id":"4","last_reported":1753830658,"current_range_meters":17600,"station_id":"ce4bh012rcd13ifvqd10","pricing_plan_id":"cebpf4jnsgd1na2vs0mg"},{"bike_id":"07011de4-93e6-44b9-910b-3084325b7fe4","system_id":"levelo_inurba_marseille","lat":43.32728,"lon":5.39582,"is_reserved":false,"is_disabled":false,"rental_uris":{"android":"levelo://app?vid=07011de4-93e6-44b9-910b-3084325b7fe4","ios":"levelo://app?vid=07011de4-93e6-44b9-910b-3084325b7fe4"},"vehicle_type_id":"4","last_reported":1753830658,"current_range_meters":17600,"station_id":"","pricing_plan_id":"cebpf4jnsgd1na2vs0mg"},{"bike_id":"6b5a8423-59e6-41e0-9800-c3f91ce1824a","system_id":"levelo_inurba_marseille","lat":43.246679,"lon":5.381622,"is_reserved":false,"is_disabled":true,"rental_uris":{"android":"levelo://app?vid=6b5a8423-59e6-41e0-9800-c3f91ce1824a","ios":"levelo://app?vid=6b5a8423-59e6-41e0-9800-c3f91ce1824a"},"vehicle_type_id":"4","last_reported":1753830658,"current_range_meters":17600,"station_id":"ce4bhih2rcd13ifvqfr0","pricing_plan_id":"cebpf4jnsgd1na2vs0mg"},{"bike_id":"8a338025-906d-4ff3-a059-654a30a36aed","system_id":"levelo_inurba_marseille","lat":43.30715,"lon":5.39333,"is_reserved":false,"is_disabled":false,"rental_uris":{"android":"levelo://app?vid=8a338025-906d-4ff3-a059-654a30a36aed","ios":"levelo://app?vid=8a338025-906d-4ff3-a059-654a30a36aed"},"vehicle_type_id":"4","last_reported":1753830658,"current_range_meters":17600,"station_id":"ce4bh0p2rcd13ifvqd80","pricing_plan_id":"cebpf4jnsgd1na2vs0mg"},{"bike_id":"0642bec0-d5df-45d1-8f24-13fa0bd6adc2","system_id":"levelo_inurba_marseille","lat":43.27812,"lon":5.4073,"is_reserved":false,"is_disabled":false,"rental_uris":{"android":"levelo://app?vid=0642bec0-d5df-45d1-8f24-13fa0bd6adc2","ios":"levelo://app?vid=0642bec0-d5df-45d1-8f24-13fa0bd6adc2"},"vehicle_type_id":"4","last_reported":1753830658,"current_range_meters":17600,"station_id":"ce4bhnh2rcd13ifvqgtg","pricing_plan_id":"cebpf4jnsgd1na2vs0mg"},{"bike_id":"746c3209-aa97-4d6e-bb69-2a85cdd5ec72","system_id":"levelo_inurba_marseille","lat":43.22517,"lon":5.34804,"is_reserved":false,"is_disabled":false,"rental_uris":{"android":"levelo://app?vid=746c3209-aa97-4d6e-bb69-2a85cdd5ec72","ios":"levelo://app?vid=746c3209-aa97-4d6e-bb69-2a85cdd5ec72"},"vehicle_type_id":"4","last_reported":1753830658,"current_range_meters":17600,"station_id":"st_cvj5dfep6f1abm77gieg","pricing_plan_id":"cebpf4jnsgd1na2vs0mg"},{"bike_id":"2c639bc2-f81d-441f-97b4-28c3af2e23ab","system_id":"levelo_inurba_marseille","lat":43.24656,"lon":5.38888,"is_reserved":false,"is_disabled":false,"rental_uris":{"android":"levelo://app?vid=2c639bc2-f81d-441f-97b4-28c3af2e23ab","ios":"levelo://app?vid=2c639bc2-f81d-441f-97b4-28c3af2e23ab"},"vehicle_type_id":"4","last_reported":1753830658,"current_range_meters":17600,"station_id":"ce4bhg12rcd13ifvqf60","pricing_plan_id":"cebpf4jnsgd1na2vs0mg"},{"bike_id":"4a85ab03-afe8-4509-b5da-4ba0f7e36fe9","system_id":"levelo_inurba_marseille","lat":43.26705,"lon":5.38284,"is_reserved":false,"is_disabled":true,"rental_uris":{"android":"levelo://app?vid=4a85ab03-afe8-4509-b5da-4ba0f7e36fe9","ios":"levelo://app?vid=4a85ab03-afe8-4509-b5da-4ba0f7e36fe9"},"vehicle_type_id":"4","last_reported":1753830658,"current_range_meters":18000,"station_id":"ce4bhg92rcd13ifvqf90","pricing_plan_id":"cebpf4jnsgd1na2vs0mg"},{"bike_id":"8f2c2194-56a7-4a04-8742-1123e870981c","system_id":"levelo_inurba_marseille","lat":43.28406,"lon":5.37542,"is_reserved":false,"is_disabled":false,"rental_uris":{"android":"levelo://app?vid=8f2c2194-56a7-4a04-8742-1123e870981c","ios":"levelo://app?vid=8f2c2194-56a7-4a04-8742-1123e870981c"},"vehicle_type_id":"4","last_reported":1753830658,"current_range_meters":18000,"station_id":"ce4bh412rcd13ifvqds0","pricing_plan_id":"cebpf4jnsgd1na2vs0mg"},{"bike_id":"853c66fb-f585-4e9c-a78b-f7503cf0604d","system_id":"levelo_inurba_marseille","lat":43.29044,"lon":5.39963,"is_reserved":false,"is_disabled":false,"rental_uris":{"android":"levelo://app?vid=853c66fb-f585-4e9c-a78b-f7503cf0604d","ios":"levelo://app?vid=853c66fb-f585-4e9c-a78b-f7503cf0604d"},"vehicle_type_id":"4","last_reported":1753830658,"current_range_meters":18000,"station_id":"ce4bh392rcd13ifvqdm0","pricing_plan_id":"cebpf4jnsgd1na2vs0mg"},{"bike_id":"189ffb50-6abf-43b3-bc9c-489863d3d195","system_id":"levelo_inurba_marseille","lat":43.29872,"lon":5.38919,"is_reserved":false,"is_disabled":false,"rental_uris":{"android":"levelo://app?vid=189ffb50-6abf-43b3-bc9c-489863d3d195","ios":"levelo://app?vid=189ffb50-6abf-43b3-bc9c-489863d3d195"},"vehicle_type_id":"4","last_reported":1753830658,"current_range_meters":18000,"station_id":"ce4bh392rcd13ifvqdl0","pricing_plan_id":"cebpf4jnsgd1na2vs0mg"},{"bike_id":"5c5c6f4f-0558-4733-91d4-2a52b7053f12","system_id":"levelo_inurba_marseille","lat":43.26226,"lon":5.4048,"is_reserved":false,"is_disabled":false,"rental_uris":{"android":"levelo://app?vid=5c5c6f4f-0558-4733-91d4-2a52b7053f12","ios":"levelo://app?vid=5c5c6f4f-0558-4733-91d4-2a52b7053f12"},"vehicle_type_id":"4","last_reported":1753830658,"current_range_meters":18000,"station_id":"ce4bhmh2rcd13ifvqgmg","pricing_plan_id":"cebpf4jnsgd1na2vs0mg"},{"bike_id":"9230ad69-c610-491e-946e-73a28385337c","system_id":"levelo_inurba_marseille","lat":43.29541,"lon":5.38546,"is_reserved":false,"is_disabled":true,"rental_uris":{"android":"levelo://app?vid=9230ad69-c610-491e-946e-73a28385337c","ios":"levelo://app?vid=9230ad69-c610-491e-946e-73a28385337c"},"vehicle_type_id":"4","last_reported":1753830658,"current_range_meters":18000,"station_id":"ce4bgih2rcd13ifvqba0","pricing_plan_id":"cebpf4jnsgd1na2vs0mg"},{"bike_id":"45758c97-459f-44bf-b540-43210b346d88","system_id":"levelo_inurba_marseille","lat":43.29892,"lon":5.43651,"is_reserved":false,"is_disabled":false,"rental_uris":{"android":"levelo://app?vid=45758c97-459f-44bf-b540-43210b346d88","ios":"levelo://app?vid=45758c97-459f-44bf-b540-43210b346d88"},"vehicle_type_id":"4","last_reported":1753830658,"current_range_meters":18000,"station_id":"ce4bhpp2rcd13ifvqhfg","pricing_plan_id":"cebpf4jnsgd1na2vs0mg"},{"bike_id":"6590494b-43e7-43e0-b312-c754fd5ea433","system_id":"levelo_inurba_marseille","lat":43.2906,"lon":5.43016,"is_reserved":false,"is_disabled":false,"rental_uris":{"android":"levelo://app?vid=6590494b-43e7-43e0-b312-c754fd5ea433","ios":"levelo://app?vid=6590494b-43e7-43e0-b312-c754fd5ea433"},"vehicle_type_id":"4","last_reported":1753830658,"current_range_meters":18000,"station_id":"","pricing_plan_id":"cebpf4jnsgd1na2vs0mg"},{"bike_id":"7db6160a-39e9-46b7-a3ea-f432669ebc4e","system_id":"levelo_inurba_marseille","lat":43.27936,"lon":5.41053,"is_reserved":false,"is_disabled":false,"rental_uris":{"android":"levelo://app?vid=7db6160a-39e9-46b7-a3ea-f432669ebc4e","ios":"levelo://app?vid=7db6160a-39e9-46b7-a3ea-f432669ebc4e"},"vehicle_type_id":"4","last_reported":1753830658,"current_range_meters":18000,"station_id":"ce4bhnp2rcd13ifvqh0g","pricing_plan_id":"cebpf4jnsgd1na2vs0mg"},{"bike_id":"bea7acdd-22d2-4ef0-9a6a-941026c0a365","system_id":"levelo_inurba_marseille","lat":43.30896,"lon":5.3965,"is_reserved":false,"is_disabled":false,"rental_uris":{"android":"levelo://app?vid=bea7acdd-22d2-4ef0-9a6a-941026c0a365","ios":"levelo://app?vid=bea7acdd-22d2-4ef0-9a6a-941026c0a365"},"vehicle_type_id":"4","last_reported":1753830658,"current_range_meters":17600,"station_id":"ce4bh012rcd13ifvqcv0","pricing_plan_id":"cebpf4jnsgd1na2vs0mg"},{"bike_id":"43dd9ff0-afaf-4e1b-82a9-e213c2d8b0c1","system_id":"levelo_inurba_marseille","lat":43.29274,"lon":5.38445,"is_reserved":false,"is_disabled":false,"rental_uris":{"android":"levelo://app?vid=43dd9ff0-afaf-4e1b-82a9-e213c2d8b0c1","ios":"levelo://app?vid=43dd9ff0-afaf-4e1b-82a9-e213c2d8b0c1"},"vehicle_type_id":"4","last_reported":1753830658,"current_range_meters":18000,"station_id":"ce4bh692rcd13ifvqea0","pricing_plan_id":"cebpf4jnsgd1na2vs0mg"},{"bike_id":"cd172c79-5f9d-4139-99ef-b3c76db361b6","system_id":"levelo_inurba_marseille","lat":43.298633,"lon":5.397355,"is_reserved":false,"is_disabled":false,"rental_uris":{"android":"levelo://app?vid=cd172c79-5f9d-4139-99ef-b3c76db361b6","ios":"levelo://app?vid=cd172c79-5f9d-4139-99ef-b3c76db361b6"},