{"last_updated":1784843718,"ttl":60,"version":"2.2","data":{"bikes":[{"bike_id":"7ef36254-6bb3-448c-8d77-979d957d54b6","system_id":"levelo_inurba_marseille","lat":43.337444,"lon":5.374475,"is_reserved":false,"is_disabled":false,"rental_uris":{"android":"levelo://app?vid=7ef36254-6bb3-448c-8d77-979d957d54b6","ios":"levelo://app?vid=7ef36254-6bb3-448c-8d77-979d957d54b6"},"vehicle_type_id":"4","last_reported":1784843719,"current_range_meters":0,"station_id":"","pricing_plan_id":"cebpf4jnsgd1na2vs0mg"},{"bike_id":"21fe2e98-0432-4b40-a81f-10dd00b0f57d","system_id":"levelo_inurba_marseille","lat":43.337444,"lon":5.374475,"is_reserved":false,"is_disabled":false,"rental_uris":{"android":"levelo://app?vid=21fe2e98-0432-4b40-a81f-10dd00b0f57d","ios":"levelo://app?vid=21fe2e98-0432-4b40-a81f-10dd00b0f57d"},"vehicle_type_id":"4","last_reported":1784843719,"current_range_meters":0,"station_id":"","pricing_plan_id":"cebpf4jnsgd1na2vs0mg"},{"bike_id":"df7929a5-2b0c-4c4a-9607-4bd34960b2e8","system_id":"levelo_inurba_marseille","lat":43.21188,"lon":5.35074,"is_reserved":false,"is_disabled":false,"rental_uris":{"android":"levelo://app?vid=df7929a5-2b0c-4c4a-9607-4bd34960b2e8","ios":"levelo://app?vid=df7929a5-2b0c-4c4a-9607-4bd34960b2e8"},"vehicle_type_id":"4","last_reported":1784843719,"current_range_meters":8000,"station_id":"st_cvj6sg6p6f1abm77japg","pricing_plan_id":"cebpf4jnsgd1na2vs0mg"},{"bike_id":"19183c47-3219-4bc8-b0a5-33a0541148d1","system_id":"levelo_inurba_marseille","lat":43.23192,"lon":5.35559,"is_reserved":false,"is_disabled":false,"rental_uris":{"android":"levelo://app?vid=19183c47-3219-4bc8-b0a5-33a0541148d1","ios":"levelo://app?vid=19183c47-3219-4bc8-b0a5-33a0541148d1"},"vehicle_type_id":"4","last_reported":1784843719,"current_range_meters":26000,"station_id":"ce4bhu92rcd13ifvqi70","pricing_plan_id":"cebpf4jnsgd1na2vs0mg"},{"bike_id":"3cadf8f2-d89c-4f2b-bad2-a91b4b0a800a","system_id":"levelo_inurba_marseille","lat":43.30267,"lon":5.40368,"is_reserved":false,"is_disabled":false,"rental_uris":{"android":"levelo://app?vid=3cadf8f2-d89c-4f2b-bad2-a91b4b0a800a","ios":"levelo://app?vid=3cadf8f2-d89c-4f2b-bad2-a91b4b0a800a"},"vehicle_type_id":"4","last_reported":1784843719,"current_range_meters":9200,"station_id":"","pricing_plan_id":"cebpf4jnsgd1na2vs0mg"},{"bike_id":"aa05f9f3-0133-4755-8a02-0d4a93e70324","system_id":"levelo_inurba_marseille","lat":43.2468,"lon":5.38141,"is_reserved":false,"is_disabled":false,"rental_uris":{"android":"levelo://app?vid=aa05f9f3-0133-4755-8a02-0d4a93e70324","ios":"levelo://app?vid=aa05f9f3-0133-4755-8a02-0d4a93e70324"},"vehicle_type_id":"4","last_reported":1784843719,"current_range_meters":28800,"station_id":"ce4bhih2rcd13ifvqfr0","pricing_plan_id":"cebpf4jnsgd1na2vs0mg"},{"bike_id":"0d81eb71-c2a3-4a0b-ae1e-331c9582a1f6","system_id":"levelo_inurba_marseille","lat":43.2604,"lon":5.39412,"is_reserved":false,"is_disabled":false,"rental_uris":{"android":"levelo://app?vid=0d81eb71-c2a3-4a0b-ae1e-331c9582a1f6","ios":"levelo://app?vid=0d81eb71-c2a3-4a0b-ae1e-331c9582a1f6"},"vehicle_type_id":"4","last_reported":1784843719,"current_range_meters":34800,"station_id":"ce4bhh92rcd13ifvqfj0","pricing_plan_id":"cebpf4jnsgd1na2vs0mg"},{"bike_id":"f2c26268-2002-48c9-a2f8-8f76ed8a8540","system_id":"levelo_inurba_marseille","lat":43.23908,"lon":5.37462,"is_reserved":false,"is_disabled":false,"rental_uris":{"android":"levelo://app?vid=f2c26268-2002-48c9-a2f8-8f76ed8a8540","ios":"levelo://app?vid=f2c26268-2002-48c9-a2f8-8f76ed8a8540"},"vehicle_type_id":"4","last_reported":1784843719,"current_range_meters":36800,"station_id":"st_d6sm7csbq4hs73f8fpjg","pricing_plan_id":"cebpf4jnsgd1na2vs0mg"},{"bike_id":"72706276-fb69-4388-946e-2b4fb06a5929","system_id":"levelo_inurba_marseille","lat":43.33022,"lon":5.39061,"is_reserved":false,"is_disabled":false,"rental_uris":{"android":"levelo://app?vid=72706276-fb69-4388-946e-2b4fb06a5929","ios":"levelo://app?vid=72706276-fb69-4388-946e-2b4fb06a5929"},"vehicle_type_id":"4","last_reported":1784843719,"current_range_meters":38000,"station_id":"ce4bhr92rcd13ifvqhrg","pricing_plan_id":"cebpf4jnsgd1na2vs0mg"},{"bike_id":"3275e5ca-225b-44f6-b554-2e84ebf36240","system_id":"levelo_inurba_marseille","lat":43.32336,"lon":5.36735,"is_reserved":false,"is_disabled":false,"rental_uris":{"android":"levelo://app?vid=3275e5ca-225b-44f6-b554-2e84ebf36240","ios":"levelo://app?vid=3275e5ca-225b-44f6-b554-2e84ebf36240"},"vehicle_type_id":"4","last_reported":1784843719,"current_range_meters":39200,"station_id":"ce4bhsh2rcd13ifvqi2g","pricing_plan_id":"cebpf4jnsgd1na2vs0mg"},{"bike_id":"53e8e9ea-caad-4dbc-9348-6ec15d35c04a","system_id":"levelo_inurba_marseille","lat":43.29187,"lon":5.39304,"is_reserved":false,"is_disabled":false,"rental_uris":{"android":"levelo://app?vid=53e8e9ea-caad-4dbc-9348-6ec15d35c04a","ios":"levelo://app?vid=53e8e9ea-caad-4dbc-9348-6ec15d35c04a"},"vehicle_type_id":"4","last_reported":1784843719,"current_range_meters":39200,"station_id":"ce4bh192rcd13ifvqdd0","pricing_plan_id":"cebpf4jnsgd1na2vs0mg"},{"bike_id":"0fe119f4-141f-4e27-ad82-578126e360f9","system_id":"levelo_inurba_marseille","lat":43.24382,"lon":5.37046,"is_reserved":false,"is_disabled":false,"rental_uris":{"android":"levelo://app?vid=0fe119f4-141f-4e27-ad82-578126e360f9","ios":"levelo://app?vid=0fe119f4-141f-4e27-ad82-578126e360f9"},"vehicle_type_id":"4","last_reported":1784843719,"current_range_meters":30400,"station_id":"ce4bhhh2rcd13ifvqfk0","pricing_plan_id":"cebpf4jnsgd1na2vs0mg"},{"bike_id":"62a8337a-2db1-4e67-b4d3-80b7f74a110a","system_id":"levelo_inurba_marseille","lat":43.26797,"lon":5.39397,"is_reserved":false,"is_disabled":false,"rental_uris":{"android":"levelo://app?vid=62a8337a-2db1-4e67-b4d3-80b7f74a110a","ios":"levelo://app?vid=62a8337a-2db1-4e67-b4d3-80b7f74a110a"},"vehicle_type_id":"4","last_reported":1784843719,"current_range_meters":40000,"station_id":"ce4bhh12rcd13ifvqfg0","pricing_plan_id":"cebpf4jnsgd1na2vs0mg"},{"bike_id":"a1550354-2d97-44b7-8224-d712a77cbb75","system_id":"levelo_inurba_marseille","lat":43.21728,"lon":5.34619,"is_reserved":false,"is_disabled":false,"rental_uris":{"android":"levelo://app?vid=a1550354-2d97-44b7-8224-d712a77cbb75","ios":"levelo://app?vid=a1550354-2d97-44b7-8224-d712a77cbb75"},"vehicle_type_id":"4","last_reported":1784843719,"current_range_meters":28000,"station_id":"st_cvj6r9ubvosntc0bgbag","pricing_plan_id":"cebpf4jnsgd1na2vs0mg"},{"bike_id":"3cc97a53-d102-483f-90b5-fca36af42d3a","system_id":"levelo_inurba_marseille","lat":43.24958,"lon":5.40481,"is_reserved":false,"is_disabled":false,"rental_uris":{"android":"levelo://app?vid=3cc97a53-d102-483f-90b5-fca36af42d3a","ios":"levelo://app?vid=3cc97a53-d102-483f-90b5-fca36af42d3a"},"vehicle_type_id":"4","last_reported":1784843719,"current_range_meters":9200,"station_id":"st_d2ngiaodas8pm72gd1h0","pricing_plan_id":"cebpf4jnsgd1na2vs0mg"},{"bike_id":"e40092d8-e809-444f-887b-ec2d97cdda0b","system_id":"levelo_inurba_marseille","lat":43.3031,"lon":5.39207,"is_reserved":false,"is_disabled":true,"rental_uris":{"android":"levelo://app?vid=e40092d8-e809-444f-887b-ec2d97cdda0b","ios":"levelo://app?vid=e40092d8-e809-444f-887b-ec2d97cdda0b"},"vehicle_type_id":"4","last_reported":1784843719,"current_range_meters":34000,"station_id":"ce4bgkh2rcd13ifvqbk0","pricing_plan_id":"cebpf4jnsgd1na2vs0mg"},{"bike_id":"3d684411-f123-4d18-be0b-98e2ac8255f2","system_id":"levelo_inurba_marseille","lat":43.25522,"lon":5.37656,"is_reserved":false,"is_disabled":false,"rental_uris":{"android":"levelo://app?vid=3d684411-f123-4d18-be0b-98e2ac8255f2","ios":"levelo://app?vid=3d684411-f123-4d18-be0b-98e2ac8255f2"},"vehicle_type_id":"4","last_reported":1784843719,"current_range_meters":19200,"station_id":"ce4bhh12rcd13ifvqff0","pricing_plan_id":"cebpf4jnsgd1na2vs0mg"},{"bike_id":"05e646b6-e34b-4dd5-b5a7-ed65c9a53956","system_id":"levelo_inurba_marseille","lat":43.24808,"lon":5.37461,"is_reserved":false,"is_disabled":false,"rental_uris":{"android":"levelo://app?vid=05e646b6-e34b-4dd5-b5a7-ed65c9a53956","ios":"levelo://app?vid=05e646b6-e34b-4dd5-b5a7-ed65c9a53956"},"vehicle_type_id":"4","last_reported":1784843719,"current_range_meters":39200,"station_id":"ce4bhgh2rcd13ifvqfb0","pricing_plan_id":"cebpf4jnsgd1na2vs0mg"},{"bike_id":"242213bb-864e-4d09-97c6-4a2d8732de8f","system_id":"levelo_inurba_marseille","lat":43.24174,"lon":5.36394,"is_reserved":false,"is_disabled":false,"rental_uris":{"android":"levelo://app?vid=242213bb-864e-4d09-97c6-4a2d8732de8f","ios":"levelo://app?vid=242213bb-864e-4d09-97c6-4a2d8732de8f"},"vehicle_type_id":"4","last_reported":1784843719,"current_range_meters":24400,"station_id":"cpo36qri1sfpv3e86is0","pricing_plan_id":"cebpf4jnsgd1na2vs0mg"},{"bike_id":"54b661f8-5581-4430-96ea-b7a397f02ceb","system_id":"levelo_inurba_marseille","lat":43.30882,"lon":5.39659,"is_reserved":false,"is_disabled":false,"rental_uris":{"android":"levelo://app?vid=54b661f8-5581-4430-96ea-b7a397f02ceb","ios":"levelo://app?vid=54b661f8-5581-4430-96ea-b7a397f02ceb"},"vehicle_type_id":"4","last_reported":1784843719,"current_range_meters":31200,"station_id":"","pricing_plan_id":"cebpf4jnsgd1na2vs0mg"},{"bike_id":"9011e43c-7244-4048-8746-efaefd9d46e2","system_id":"levelo_inurba_marseille","lat":43.28434,"lon":5.39196,"is_reserved":false,"is_disabled":false,"rental_uris":{"android":"levelo://app?vid=9011e43c-7244-4048-8746-efaefd9d46e2","ios":"levelo://app?vid=9011e43c-7244-4048-8746-efaefd9d46e2"},"vehicle_type_id":"4","last_reported":1784843719,"current_range_meters":36000,"station_id":"ce4bhoh2rcd13ifvqh5g","pricing_plan_id":"cebpf4jnsgd1na2vs0mg"},{"bike_id":"7c4fa030-b843-463a-a707-3d96aa4eca92","system_id":"levelo_inurba_marseille","lat":43.29712,"lon":5.36599,"is_reserved":false,"is_disabled":false,"rental_uris":{"android":"levelo://app?vid=7c4fa030-b843-463a-a707-3d96aa4eca92","ios":"levelo://app?vid=7c4fa030-b843-463a-a707-3d96aa4eca92"},"vehicle_type_id":"4","last_reported":1784843719,"current_range_meters":40000,"station_id":"ce4bgn12rcd13ifvqbt0","pricing_plan_id":"cebpf4jnsgd1na2vs0mg"},{"bike_id":"60f42b7c-9877-48c2-b89a-a761fa384da1","system_id":"levelo_inurba_marseille","lat":43.28859,"lon":5.39311,"is_reserved":false,"is_disabled":false,"rental_uris":{"android":"levelo://app?vid=60f42b7c-9877-48c2-b89a-a761fa384da1","ios":"levelo://app?vid=60f42b7c-9877-48c2-b89a-a761fa384da1"},"vehicle_type_id":"4","last_reported":1784843719,"current_range_meters":35200,"station_id":"ce4bh2p2rcd13ifvqdi0","pricing_plan_id":"cebpf4jnsgd1na2vs0mg"},{"bike_id":"b70f2f12-3550-4a9e-a06f-e73e09e2ebe9","system_id":"levelo_inurba_marseille","lat":43.28573,"lon":5.37453,"is_reserved":false,"is_disabled":false,"rental_uris":{"android":"levelo://app?vid=b70f2f12-3550-4a9e-a06f-e73e09e2ebe9","ios":"levelo://app?vid=b70f2f12-3550-4a9e-a06f-e73e09e2ebe9"},"vehicle_type_id":"4","last_reported":1784843719,"current_range_meters":18800,"station_id":"","pricing_plan_id":"cebpf4jnsgd1na2vs0mg"},{"bike_id":"e180c7bd-2bd2-4cc2-b52e-410c5bdea57d","system_id":"levelo_inurba_marseille","lat":43.30304,"lon":5.36886,"is_reserved":false,"is_disabled":false,"rental_uris":{"android":"levelo://app?vid=e180c7bd-2bd2-4cc2-b52e-410c5bdea57d","ios":"levelo://app?vid=e180c7bd-2bd2-4cc2-b52e-410c5bdea57d"},"vehicle_type_id":"4","last_reported":1784843719,"current_range_meters":29600,"station_id":"ce4bgqh2rcd13ifvqc5g","pricing_plan_id":"cebpf4jnsgd1na2vs0mg"},{"bike_id":"083eb0d2-20e4-4e48-ab2f-0ec71f3f7e8d","system_id":"levelo_inurba_marseille","lat":43.29749,"lon":5.36568,"is_reserved":false,"is_disabled":false,"rental_uris":{"android":"levelo://app?vid=083eb0d2-20e4-4e48-ab2f-0ec71f3f7e8d","ios":"levelo://app?vid=083eb0d2-20e4-4e48-ab2f-0ec71f3f7e8d"},"vehicle_type_id":"4","last_reported":1784843719,"current_range_meters":38800,"station_id":"","pricing_plan_id":"cebpf4jnsgd1na2vs0mg"},{"bike_id":"d153f615-dfbf-4090-8981-fa1562c55649","system_id":"levelo_inurba_marseille","lat":43.28462,"lon":5.35899,"is_reserved":false,"is_disabled":false,"rental_uris":{"android":"levelo://app?vid=d153f615-dfbf-4090-8981-fa1562c55649","ios":"levelo://app?vid=d153f615-dfbf-4090-8981-fa1562c55649"},"vehicle_type_id":"4","last_reported":1784843719,"current_range_meters":39200,"station_id":"ce4bhah2rcd13ifvqei0","pricing_plan_id":"cebpf4jnsgd1na2vs0mg"},{"bike_id":"b547aa44-bfec-4efb-9dac-c8332bb26b7c","system_id":"levelo_inurba_marseille","lat":43.29532,"lon":5.38537,"is_reserved":false,"is_disabled":false,"rental_uris":{"android":"levelo://app?vid=b547aa44-bfec-4efb-9dac-c8332bb26b7c","ios":"levelo://app?vid=b547aa44-bfec-4efb-9dac-c8332bb26b7c"},"vehicle_type_id":"4","last_reported":1784843719,"current_range_meters":26800,"station_id":"ce4bgih2rcd13ifvqba0","pricing_plan_id":"cebpf4jnsgd1na2vs0mg"},{"bike_id":"2154fcce-4dae-44fd-8c16-6859e119f377","system_id":"levelo_inurba_marseille","lat":43.23962,"lon":5.36624,"is_reserved":false,"is_disabled":false,"rental_uris":{"android":"levelo://app?vid=2154fcce-4dae-44fd-8c16-6859e119f377","ios":"levelo://app?vid=2154fcce-4dae-44fd-8c16-6859e119f377"},"vehicle_type_id":"4","last_reported":1784843719,"current_range_meters":18800,"station_id":"ce4bhi12rcd13ifvqfp0","pricing_plan_id":"cebpf4jnsgd1na2vs0mg"},{"bike_id":"3f2379cd-38db-49f2-afac-e68d27120e81","system_id":"levelo_inurba_marseille","lat":43.28917,"lon":5.3665,"is_reserved":false,"is_disabled":false,"rental_uris":{"android":"levelo://app?vid=3f2379cd-38db-49f2-afac-e68d27120e81","ios":"levelo://app?vid=3f2379cd-38db-49f2-afac-e68d27120e81"},"vehicle_type_id":"4","last_reported":1784843719,"current_range_meters":30800,"station_id":"ce4bhap2rcd13ifvqek0","pricing_plan_id":"cebpf4jnsgd1na2vs0mg"},{"bike_id":"a338cea5-f797-4d31-b718-3121663ee29c","system_id":"levelo_inurba_marseille","lat":43.30366,"lon":5.37885,"is_reserved":false,"is_disabled":false,"rental_uris":{"android":"levelo://app?vid=a338cea5-f797-4d31-b718-3121663ee29c","ios":"levelo://app?vid=a338cea5-f797-4d31-b718-3121663ee29c"},"vehicle_type_id":"4","last_reported":1784843719,"current_range_meters":28800,"station_id":"","pricing_plan_id":"cebpf4jnsgd1na2vs0mg"},{"bike_id":"868a73d7-f636-4ae4-90b6-35a4e9f34adb","system_id":"levelo_inurba_marseille","lat":43.25863,"lon":5.39906,"is_reserved":false,"is_disabled":false,"rental_uris":{"android":"levelo://app?vid=868a73d7-f636-4ae4-90b6-35a4e9f34adb","ios":"levelo://app?vid=868a73d7-f636-4ae4-90b6-35a4e9f34adb"},"vehicle_type_id":"4","last_reported":1784843719,"current_range_meters":39200,"station_id":"ce4bhl92rcd13ifvqghg","pricing_plan_id":"cebpf4jnsgd1na2vs0mg"},{"bike_id":"ea130c7b-2cdb-4fa8-8cc7-8db58b6f0c4c","system_id":"levelo_inurba_marseille","lat":43.29266,"lon":5.37625,"is_reserved":false,"is_disabled":false,"rental_uris":{"android":"levelo://app?vid=ea130c7b-2cdb-4fa8-8cc7-8db58b6f0c4c","ios":"levelo://app?vid=ea130c7b-2cdb-4fa8-8cc7-8db58b6f0c4c"},"vehicle_type_id":"4","last_reported":1784843719,"current_range_meters":35200,"station_id":"ce4bgi12rcd13ifvqb80","pricing_plan_id":"cebpf4jnsgd1na2vs0mg"},{"bike_id":"a7c9489a-3c37-4218-bc38-92c335aa3a8a","system_id":"levelo_inurba_marseille","lat":43.28481,"lon":5.48387,"is_reserved":false,"is_disabled":false,"rental_uris":{"android":"levelo://app?vid=a7c9489a-3c37-4218-bc38-92c335aa3a8a","ios":"levelo://app?vid=a7c9489a-3c37-4218-bc38-92c335aa3a8a"},"vehicle_type_id":"4","last_reported":1784843719,"current_range_meters":38800,"station_id":"st_d3svhcjqgbts73a3dn0g","pricing_plan_id":"cebpf4jnsgd1na2vs0mg"},{"bike_id":"5399c993-aa6e-499a-a8eb-af283fb97f85","system_id":"levelo_inurba_marseille","lat":43.26304,"lon":5.37845,"is_reserved":false,"is_disabled":false,"rental_uris":{"android":"levelo://app?vid=5399c993-aa6e-499a-a8eb-af283fb97f85","ios":"levelo://app?vid=5399c993-aa6e-499a-a8eb-af283fb97f85"},"vehicle_type_id":"4","last_reported":1784843719,"current_range_meters":33200,"station_id":"","pricing_plan_id":"cebpf4jnsgd1na2vs0mg"},{"bike_id":"e15f52d6-e2ed-405f-bb0a-647ddc6cd40c","system_id":"levelo_inurba_marseille","lat":43.23193,"lon":5.35552,"is_reserved":false,"is_disabled":false,"rental_uris":{"android":"levelo://app?vid=e15f52d6-e2ed-405f-bb0a-647ddc6cd40c","ios":"levelo://app?vid=e15f52d6-e2ed-405f-bb0a-647ddc6cd40c"},"vehicle_type_id":"4","last_reported":1784843719,"current_range_meters":26000,"station_id":"ce4bhu92rcd13ifvqi70","pricing_plan_id":"cebpf4jnsgd1na2vs0mg"},{"bike_id":"02bc1f6e-a93d-4c6f-8463-6b5ba3d4d3d8","system_id":"levelo_inurba_marseille","lat":43.25514,"lon":5.37634,"is_reserved":false,"is_disabled":false,"rental_uris":{"android":"levelo://app?vid=02bc1f6e-a93d-4c6f-8463-6b5ba3d4d3d8","ios":"levelo://app?vid=02bc1f6e-a93d-4c6f-8463-6b5ba3d4d3d8"},"vehicle_type_id":"4","last_reported":1784843719,"current_range_meters":38800,"station_id":"","pricing_plan_id":"cebpf4jnsgd1na2vs0mg"},{"bike_id":"c8b9c325-08d7-4499-9ce6-0bf1b119e7e4","system_id":"levelo_inurba_marseille","lat":43.27209,"lon":5.39185,"is_reserved":false,"is_disabled":false,"rental_uris":{"android":"levelo://app?vid=c8b9c325-08d7-4499-9ce6-0bf1b119e7e4","ios":"levelo://app?vid=c8b9c325-08d7-4499-9ce6-0bf1b119e7e4"},"vehicle_type_id":"4","last_reported":1784843719,"current_range_meters":35600,"station_id":"ce4bhhp2rcd13ifvqfm0","pricing_plan_id":"cebpf4jnsgd1na2vs0mg"},{"bike_id":"3d3363f1-b079-4e13-899e-dbc693f0dea6","system_id":"levelo_inurba_marseille","lat":43.27507,"lon":5.42449,"is_reserved":false,"is_disabled":true,"rental_uris":{"android":"levelo://app?vid=3d3363f1-b079-4e13-899e-dbc693f0dea6","ios":"levelo://app?vid=3d3363f1-b079-4e13-899e-dbc693f0dea6"},"vehicle_type_id":"4","last_reported":1784843719,"current_range_meters":0,"station_id":"ce4bhn92rcd13ifvqgrg","pricing_plan_id":"cebpf4jnsgd1na2vs0mg"},{"bike_id":"aabbe762-d4a8-4548-8474-3f6b38d39d55","system_id":"levelo_inurba_marseille","lat":43.29632,"lon":5.40591,"is_reserved":false,"is_disabled":false,"rental_uris":{"android":"levelo://app?vid=aabbe762-d4a8-4548-8474-3f6b38d39d55","ios":"levelo://app?vid=aabbe762-d4a8-4548-8474-3f6b38d39d55"},"vehicle_type_id":"4","last_reported":1784843719,"current_range_meters":16000,"station_id":"ce4bh0h2rcd13ifvqd60","pricing_plan_id":"cebpf4jnsgd1na2vs0mg"},{"bike_id":"5aa3ca14-34f8-4cf6-bf98-84664ad40ed9","system_id":"levelo_inurba_marseille","lat":43.32367,"lon":5.3889,"is_reserved":false,"is_disabled":false,"rental_uris":{"android":"levelo://app?vid=5aa3ca14-34f8-4cf6-bf98-84664ad40ed9","ios":"levelo://app?vid=5aa3ca14-34f8-4cf6-bf98-84664ad40ed9"},"vehicle_type_id":"4","last_reported":1784843719,"current_range_meters":38000,"station_id":"ce4bhqp2rcd13ifvqhog","pricing_plan_id":"cebpf4jnsgd1na2vs0mg"},{"bike_id":"b3f37588-649a-4d34-ac26-6129e2141b2b","system_id":"levelo_inurba_marseille","lat":43.24806,"lon":5.37463,"is_reserved":false,"is_disabled":false,"rental_uris":{"android":"levelo://app?vid=b3f37588-649a-4d34-ac26-6129e2141b2b","ios":"levelo://app?vid=b3f37588-649a-4d34-ac26-6129e2141b2b"},"vehicle_type_id":"4","last_reported":1784843719,"current_range_meters":38800,"station_id":"ce4bhgh2rcd13ifvqfb0","pricing_plan_id":"cebpf4jnsgd1na2vs0mg"},{"bike_id":"ad5546db-be31-4539-b959-cba3ca226aa3","system_id":"levelo_inurba_marseille","lat":43.24805,"lon":5.37458,"is_reserved":false,"is_disabled":false,"rental_uris":{"android":"levelo://app?vid=ad5546db-be31-4539-b959-cba3ca226aa3","ios":"levelo://app?vid=ad5546db-be31-4539-b959-cba3ca226aa3"},"vehicle_type_id":"4","last_reported":1784843719,"current_range_meters":17200,"station_id":"ce4bhgh2rcd13ifvqfb0","pricing_plan_id":"cebpf4jnsgd1na2vs0mg"},{"bike_id":"8b48f329-937d-4f33-bc8e-cc3992c67190","system_id":"levelo_inurba_marseille","lat":43.29618,"lon":5.37154,"is_reserved":false,"is_disabled":true,"rental_uris":{"android":"levelo://app?vid=8b48f329-937d-4f33-bc8e-cc3992c67190","ios":"levelo://app?vid=8b48f329-937d-4f33-bc8e-cc3992c67190"},"vehicle_type_id":"4","last_reported":1784843719,"current_range_meters":30800,"station_id":"","pricing_plan_id":"cebpf4jnsgd1na2vs0mg"},{"bike_id":"e98e9e4d-f4a0-4d73-8715-37842d1a3e6a","system_id":"levelo_inurba_marseille","lat":43.29372,"lon":5.37851,"is_reserved":false,"is_disabled":false,"rental_uris":{"android":"levelo://app?vid=e98e9e4d-f4a0-4d73-8715-37842d1a3e6a","ios":"levelo://app?vid=e98e9e4d-f4a0-4d73-8715-37842d1a3e6a"},"vehicle_type_id":"4","last_reported":1784843719,"current_range_meters":2800,"station_id":"ce4bgjh2rcd13ifvqbf0","pricing_plan_id":"cebpf4jnsgd1na2vs0mg"},{"bike_id":"e5cbfbf9-c01d-498e-a2c2-5212a58c9f04","system_id":"levelo_inurba_marseille","lat":43.29542,"lon":5.38542,"is_reserved":false,"is_disabled":false,"rental_uris":{"android":"levelo://app?vid=e5cbfbf9-c01d-498e-a2c2-5212a58c9f04","ios":"levelo://app?vid=e5cbfbf9-c01d-498e-a2c2-5212a58c9f04"},"vehicle_type_id":"4","last_reported":1784843719,"current_range_meters":30800,"station_id":"ce4bgih2rcd13ifvqba0","pricing_plan_id":"cebpf4jnsgd1na2vs0mg"},{"bike_id":"003e56d1-627b-4348-8583-42dcbf7aa400","system_id":"levelo_inurba_marseille","lat":43.29216,"lon":5.40576,"is_reserved":false,"is_disabled":false,"rental_uris":{"android":"levelo://app?vid=003e56d1-627b-4348-8583-42dcbf7aa400","ios":"levelo://app?vid=003e56d1-627b-4348-8583-42dcbf7aa400"},"vehicle_type_id":"4","last_reported":1784843719,"current_range_meters":27200,"station_id":"","pricing_plan_id":"cebpf4jnsgd1na2vs0mg"},{"bike_id":"b62c6f43-d381-4900-8a07-23d79aaa3392","system_id":"levelo_inurba_marseille","lat":43.29565,"lon":5.42302,"is_reserved":false,"is_disabled":false,"rental_uris":{"android":"levelo://app?vid=b62c6f43-d381-4900-8a07-23d79aaa3392","ios":"levelo://app?vid=b62c6f43-d381-4900-8a07-23d79aaa3392"},"vehicle_type_id":"4","last_reported":1784843719,"current_range_meters":10000,"station_id":"ce4bhph2rcd13ifvqhdg","pricing_plan_id":"cebpf4jnsgd1na2vs0mg"},{"bike_id":"7dcc10e7-a93e-4506-b7c8-31a59a3e7a8a","system_id":"levelo_inurba_marseille","lat":43.24785,"lon":5.37463,"is_reserved":false,"is_disabled":false,"rental_uris":{"android":"levelo://app?vid=7dcc10e7-a93e-4506-b7c8-31a59a3e7a8a","ios":"levelo://app?vid=7dcc10e7-a93e-4506-b7c8-31a59a3e7a8a"},"vehicle_type_id":"4","last_reported":1784843719,"current_range_meters":17200,"station_id":"ce4bhgh2rcd13ifvqfb0","pricing_plan_id":"cebpf4jnsgd1na2vs0mg"},{"bike_id":"0337f70f-422e-4a94-aa4e-b2dbf437f60c","system_id":"levelo_inurba_marseille","lat":43.29606,"lon":5.37715,"is_reserved":false,"is_disabled":false,"rental_uris":{"android":"levelo://app?vid=0337f70f-422e-4a94-aa4e-b2dbf437f60c","ios":"levelo://app?vid=0337f70f-422e-4a94-aa4e-b2dbf437f60c"},"vehicle_type_id":"4","last_reported":1784843719,"current_range_meters":36400,"station_id":"ce4bgi92rcd13ifvqb90","pricing_plan_id":"cebpf4jnsgd1na2vs0mg"},{"bike_id":"86c39a41-dbb7-492c-80ca-66bbe09aaa85","system_id":"levelo_inurba_marseille","lat":43.30098,"lon":5.39098,"is_reserved":false,"is_disabled":true,"rental_uris":{"android":"levelo://app?vid=86c39a41-dbb7-492c-80ca-66bbe09aaa85","ios":"levelo://app?vid=86c39a41-dbb7-492c-80ca-66bbe09aaa85"},"vehicle_type_id":"4","last_reported":1784843719,"current_range_meters":16400,"station_id":"ce4bh192rcd13ifvqdb0","pricing_plan_id":"cebpf4jnsgd1na2vs0mg"},{"bike_id":"3a295aff-6816-4af7-ac5a-87a5bd41c1cd","system_id":"levelo_inurba_marseille","lat":43.28484,"lon":5.48392,"is_reserved":false,"is_disabled":false,"rental_uris":{"android":"levelo://app?vid=3a295aff-6816-4af7-ac5a-87a5bd41c1cd","ios":"levelo://app?vid=3a295aff-6816-4af7-ac5a-87a5bd41c1cd"},"vehicle_type_id":"4","last_reported":1784843719,"current_range_meters":22000,"station_id":"st_d3svhcjqgbts73a3dn0g","pricing_plan_id":"cebpf4jnsgd1na2vs0mg"},{"bike_id":"7b1a34a9-9772-429a-ac81-dbcf3805788e","system_id":"levelo_inurba_marseille","lat":43.27911,"lon":5.35555,"is_reserved":false,"is_disabled":false,"rental_uris":{"android":"levelo://app?vid=7b1a34a9-9772-429a-ac81-dbcf3805788e","ios":"levelo://app?vid=7b1a34a9-9772-429a-ac81-dbcf3805788e"},"vehicle_type_id":"4","last_reported":1784843719,"current_range_meters":11200,"station_id":"","pricing_plan_id":"cebpf4jnsgd1na2vs0mg"},{"bike_id":"3def7ddd-3c42-4aad-8d0c-f3a27eb69aa5","system_id":"levelo_inurba_marseille","lat":43.28076,"lon":5.3965,"is_reserved":false,"is_disabled":false,"rental_uris":{"android":"levelo://app?vid=3def7ddd-3c42-4aad-8d0c-f3a27eb69aa5","ios":"levelo://app?vid=3def7ddd-3c42-4aad-8d0c-f3a27eb69aa5"},"vehicle_type_id":"4","last_reported":1784843719,"current_range_meters":30400,"station_id":"ce4bho12rcd13ifvqh2g","pricing_plan_id":"cebpf4jnsgd1na2vs0mg"},{"bike_id":"d02b6267-fa8b-4b3c-a02c-69e26539cb80","system_id":"levelo_inurba_marseille","lat":43.28936,"lon":5.36398,"is_reserved":false,"is_disabled":false,"rental_uris":{"android":"levelo://app?vid=d02b6267-fa8b-4b3c-a02c-69e26539cb80","ios":"levelo://app?vid=d02b6267-fa8b-4b3c-a02c-69e26539cb80"},"vehicle_type_id":"4","last_reported":1784843719,"current_range_meters":10000,"station_id":"ce4bhc92rcd13ifvqetg","pricing_plan_id":"cebpf4jnsgd1na2vs0mg"},{"bike_id":"6cd0b9a2-a893-4d86-a077-a039a6b6a0f1","system_id":"levelo_inurba_marseille","lat":43.28429,"lon":5.34987,"is_reserved":false,"is_disabled":true,"rental_uris":{"android":"levelo://app?vid=6cd0b9a2-a893-4d86-a077-a039a6b6a0f1","ios":"levelo://app?vid=6cd0b9a2-a893-4d86-a077-a039a6b6a0f1"},"vehicle_type_id":"4","last_reported":1784843719,"current_range_meters":19200,"station_id":"ce4bhbh2rcd13ifvqepg","pricing_plan_id":"cebpf4jnsgd1na2vs0mg"},{"bike_id":"b3615f38-9ae4-47b3-be0f-27da959fb130","system_id":"levelo_inurba_marseille","lat":43.26525,"lon":5.39634,"is_reserved":false,"is_disabled":false,"rental_uris":{"android":"levelo://app?vid=b3615f38-9ae4-47b3-be0f-27da959fb130","ios":"levelo://app?vid=b3615f38-9ae4-47b3-be0f-27da959fb130"},"vehicle_type_id":"4","last_reported":1784843719,"current_range_meters":10000,"station_id":"","pricing_plan_id":"cebpf4jnsgd1na2vs0mg"},{"bike_id":"9564bab2-648b-40e8-b116-3fb3ce3c30e1","system_id":"levelo_inurba_marseille","lat":43.2964,"lon":5.37149,"is_reserved":false,"is_disabled":false,"rental_uris":{"android":"levelo://app?vid=9564bab2-648b-40e8-b116-3fb3ce3c30e1","ios":"levelo://app?vid=9564bab2-648b-40e8-b116-3fb3ce3c30e1"},"vehicle_type_id":"4","last_reported":1784843719,"current_range_meters":27600,"station_id":"","pricing_plan_id":"cebpf4jnsgd1na2vs0mg"},{"bike_id":"c39c8d2d-18ec-49b0-a193-e85a69cb685d","system_id":"levelo_inurba_marseille","lat":43.29911,"lon":5.37475,"is_reserved":false,"is_disabled":false,"rental_uris":{"android":"levelo://app?vid=c39c8d2d-18ec-49b0-a193-e85a69cb685d","ios":"levelo://app?vid=c39c8d2d-18ec-49b0-a193-e85a69cb685d"},"vehicle_type_id":"4","last_reported":1784843719,"current_range_meters":39200,"station_id":"ce4bgjh2rcd13ifvqbg0","pricing_plan_id":"cebpf4jnsgd1na2vs0mg"},{"bike_id":"f95849e3-ecc4-4a70-8bc6-ebfb18113894","system_id":"levelo_inurba_marseille","lat":43.27891,"lon":5.41087,"is_reserved":false,"is_disabled":false,"rental_uris":{"android":"levelo://app?vid=f95849e3-ecc4-4a70-8bc6-ebfb18113894","ios":"levelo://app?vid=f95849e3-ecc4-4a70-8bc6-ebfb18113894"},"vehicle_type_id":"4","last_reported":1784843719,"current_range_meters":37600,"station_id":"","pricing_plan_id":"cebpf4jnsgd1na2vs0mg"},{"bike_id":"01d9a676-01f3-4b98-beb9-e0a1a490c722","system_id":"levelo_inurba_marseille","lat":43.28159,"lon":5.42639,"is_reserved":false,"is_disabled":false,"rental_uris":{"android":"levelo://app?vid=01d9a676-01f3-4b98-beb9-e0a1a490c722","ios":"levelo://app?vid=01d9a676-01f3-4b98-beb9-e0a1a490c722"},"vehicle_type_id":"4","last_reported":1784843719,"current_range_meters":24400,"station_id":"ce4bhnh2rcd13ifvqgug","pricing_plan_id":"cebpf4jnsgd1na2vs0mg"},{"bike_id":"f765bc46-853b-4f5f-a0cf-13f9a2c85881","system_id":"levelo_inurba_marseille","lat":43.32075,"lon":5.36823,"is_reserved":false,"is_disabled":false,"rental_uris":{"android":"levelo://app?vid=f765bc46-853b-4f5f-a0cf-13f9a2c85881","ios":"levelo://app?vid=f765bc46-853b-4f5f-a0cf-13f9a2c85881"},"vehicle_type_id":"4","last_reported":1784843719,"current_range_meters":28400,"station_id":"ce4bhrh2rcd13ifvqhug","pricing_plan_id":"cebpf4jnsgd1na2vs0mg"},{"bike_id":"0aaab04e-fbf4-4eb5-b726-87439b3409d4","system_id":"levelo_inurba_marseille","lat":43.31205,"lon":5.36855,"is_reserved":false,"is_disabled":true,"rental_uris":{"android":"levelo://app?vid=0aaab04e-fbf4-4eb5-b726-87439b3409d4","ios":"levelo://app?vid=0aaab04e-fbf4-4eb5-b726-87439b3409d4"},"vehicle_type_id":"4","last_reported":1784843719,"current_range_meters":30800,"station_id":"ce4bgl92rcd13ifvqbq0","pricing_plan_id":"cebpf4jnsgd1na2vs0mg"},{"bike_id":"c469d1f0-e1f3-4009-933d-1f7d58ff00a5","system_id":"levelo_inurba_marseille","lat":43.25864,"lon":5.39906,"is_reserved":false,"is_disabled":false,"rental_uris":{"android":"levelo://app?vid=c469d1f0-e1f3-4009-933d-1f7d58ff00a5","ios":"levelo://app?vid=c469d1f0-e1f3-4009-933d-1f7d58ff00a5"},"vehicle_type_id":"4","last_reported":1784843719,"current_range_meters":22800,"station_id":"ce4bhl92rcd13ifvqghg","pricing_plan_id":"cebpf4jnsgd1na2vs0mg"},{"bike_id":"ee10056c-3426-43d8-a600-37a47f26001b","system_id":"levelo_inurba_marseille","lat":43.28606,"lon":5.37075,"is_reserved":false,"is_disabled":false,"rental_uris":{"android":"levelo://app?vid=ee10056c-3426-43d8-a600-37a47f26001b","ios":"levelo://app?vid=ee10056c-3426-43d8-a600-37a47f26001b"},"vehicle_type_id":"4","last_reported":1784843719,"current_range_meters":39200,"station_id":"ce4bht12rcd13ifvqi60","pricing_plan_id":"cebpf4jnsgd1na2vs0mg"},{"bike_id":"a13e16e4-e177-431d-8bef-33b38f696e96","system_id":"levelo_inurba_marseille","lat":43.26757,"lon":5.39978,"is_reserved":false,"is_disabled":false,"rental_uris":{"android":"levelo://app?vid=a13e16e4-e177-431d-8bef-33b38f696e96","ios":"levelo://app?vid=a13e16e4-e177-431d-8bef-33b38f696e96"},"vehicle_type_id":"4","last_reported":1784843719,"current_range_meters":26000,"station_id":"","pricing_plan_id":"cebpf4jnsgd1na2vs0mg"},{"bike_id":"5a7db9a9-b29b-4c25-830f-2ef715266d8f","system_id":"levelo_inurba_marseille","lat":43.3087,"lon":5.39647,"is_reserved":false,"is_disabled":false,"rental_uris":{"android":"levelo://app?vid=5a7db9a9-b29b-4c25-830f-2ef715266d8f","ios":"levelo://app?vid=5a7db9a9-b29b-4c25-830f-2ef715266d8f"},"vehicle_type_id":"4","last_reported":1784843719,"current_range_meters":36800,"station_id":"ce4bh012rcd13ifvqcv0","pricing_plan_id":"cebpf4jnsgd1na2vs0mg"},{"bike_id":"de84f93e-2efe-44dd-902e-99315be80f66","system_id":"levelo_inurba_marseille","lat":43.24707,"lon":5.40316,"is_reserved":false,"is_disabled":false,"rental_uris":{"android":"levelo://app?vid=de84f93e-2efe-44dd-902e-99315be80f66","ios":"levelo://app?vid=de84f93e-2efe-44dd-902e-99315be80f66"},"vehicle_type_id":"4","last_reported":1784843719,"current_range_meters":31200,"station_id":"","pricing_plan_id":"cebpf4jnsgd1na2vs0mg"},{"bike_id":"8c78291a-f0ed-4cfc-b241-d2ce79d8612f","system_id":"levelo_inurba_marseille","lat":43.2553,"lon":5.37656,"is_reserved":false,"is_disabled":false,"rental_uris":{"android":"levelo://app?vid=8c78291a-f0ed-4cfc-b241-d2ce79d8612f","ios":"levelo://app?vid=8c78291a-f0ed-4cfc-b241-d2ce79d8612f"},"vehicle_type_id":"4","last_reported":1784843719,"current_range_meters":30800,"station_id":"","pricing_plan_id":"cebpf4jnsgd1na2vs0mg"},{"bike_id":"bdf4da28-86ab-4551-925b-069b27b991b8","system_id":"levelo_inurba_marseille","lat":43.28118,"lon":5.37843,"is_reserved":false,"is_disabled":false,"rental_uris":{"android":"levelo://app?vid=bdf4da28-86ab-4551-925b-069b27b991b8","ios":"levelo://app?vid=bdf4da28-86ab-4551-925b-069b27b991b8"},"vehicle_type_id":"4","last_reported":1784843719,"current_range_meters":9600,"station_id":"ce4bha12rcd13ifvqee0","pricing_plan_id":"cebpf4jnsgd1na2vs0mg"},{"bike_id":"c6e736fb-e232-45bf-a0ea-16cc4b6b67d6","system_id":"levelo_inurba_marseille","lat":43.24166,"lon":5.36399,"is_reserved":false,"is_disabled":true,"rental_uris":{"android":"levelo://app?vid=c6e736fb-e232-45bf-a0ea-16cc4b6b67d6","ios":"levelo://app?vid=c6e736fb-e232-45bf-a0ea-16cc4b6b67d6"},"vehicle_type_id":"4","last_reported":1784843719,"current_range_meters":38000,"station_id":"cpo36qri1sfpv3e86is0","pricing_plan_id":"cebpf4jnsgd1na2vs0mg"},{"bike_id":"2654b3dd-5943-4bfe-bc56-5f17b8e2215e","system_id":"levelo_inurba_marseille","lat":43.34153,"lon":5.40904,"is_reserved":false,"is_disabled":false,"rental_uris":{"android":"levelo://app?vid=2654b3dd-5943-4bfe-bc56-5f17b8e2215e","ios":"levelo://app?vid=2654b3dd-5943-4bfe-bc56-5f17b8e2215e"},"vehicle_type_id":"4","last_reported":1784843719,"current_range_meters":7200,"station_id":"ce4bhqh2rcd13ifvqhlg","pricing_plan_id":"cebpf4jnsgd1na2vs0mg"},{"bike_id":"1e36ea68-f2ce-4f6b-b67d-0e06a4790dbd","system_id":"levelo_inurba_marseille","lat":43.28404,"lon":5.37528,"is_reserved":false,"is_disabled":false,"rental_uris":{"android":"levelo://app?vid=1e36ea68-f2ce-4f6b-b67d-0e06a4790dbd","ios":"levelo://app?vid=1e36ea68-f2ce-4f6b-b67d-0e06a4790dbd"},"vehicle_type_id":"4","last_reported":1784843719,"current_range_meters":6800,"station_id":"ce4bh412rcd13ifvqds0","pricing_plan_id":"cebpf4jnsgd1na2vs0mg"},{"bike_id":"a438d2ee-26e7-46fa-94f6-0a8dfa65661c","system_id":"levelo_inurba_marseille","lat":43.26495,"lon":5.39556,"is_reserved":false,"is_disabled":false,"rental_uris":{"android":"levelo://app?vid=a438d2ee-26e7-46fa-94f6-0a8dfa65661c","ios":"levelo://app?vid=a438d2ee-26e7-46fa-94f6-0a8dfa65661c"},"vehicle_type_id":"4","last_reported":1784843719,"current_range_meters":22400,"station_id":"ce4bhi12rcd13ifvqfq0","pricing_plan_id":"cebpf4jnsgd1na2vs0mg"},{"bike_id":"c59d0aff-69b3-45af-a81e-861a60187067","system_id":"levelo_inurba_marseille","lat":43.28415,"lon":5.3751,"is_reserved":false,"is_disabled":false,"rental_uris":{"android":"levelo://app?vid=c59d0aff-69b3-45af-a81e-861a60187067","ios":"levelo://app?vid=c59d0aff-69b3-45af-a81e-861a60187067"},"vehicle_type_id":"4","last_reported":1784843719,"current_range_meters":20000,"station_id":"ce4bh412rcd13ifvqds0","pricing_plan_id":"cebpf4jnsgd1na2vs0mg"},{"bike_id":"c037fd15-1fb4-4aa0-a4c6-442b2b874fab","system_id":"levelo_inurba_marseille","lat":43.29001,"lon":5.40291,"is_reserved":false,"is_disabled":true,"rental_uris":{"android":"levelo://app?vid=c037fd15-1fb4-4aa0-a4c6-442b2b874fab","ios":"levelo://app?vid=c037fd15-1fb4-4aa0-a4c6-442b2b874fab"},"vehicle_type_id":"4","last_reported":1784843719,"current_range_meters":24800,"station_id":"","pricing_plan_id":"cebpf4jnsgd1na2vs0mg"},{"bike_id":"965b6bd4-eb48-41e3-b3e8-0bcdc52f3759","system_id":"levelo_inurba_marseille","lat":43.28945,"lon":5.3837,"is_reserved":false,"is_disabled":true,"rental_uris":{"android":"levelo://app?vid=965b6bd4-eb48-41e3-b3e8-0bcdc52f3759","ios":"levelo://app?vid=965b6bd4-eb48-41e3-b3e8-0bcdc52f3759"},"vehicle_type_id":"4","last_reported":1784843719,"current_range_meters":34800,"station_id":"ce4bh612rcd13ifvqe6g","pricing_plan_id":"cebpf4jnsgd1na2vs0mg"},{"bike_id":"bbe718e6-fa16-44e8-87a1-2141703d3341","system_id":"levelo_inurba_marseille","lat":43.28159,"lon":5.42331,"is_reserved":false,"is_disabled":false,"rental_uris":{"android":"levelo://app?vid=bbe718e6-fa16-44e8-87a1-2141703d3341","ios":"levelo://app?vid=bbe718e6-fa16-44e8-87a1-2141703d3341"},"vehicle_type_id":"4","last_reported":1784843719,"current_range_meters":11200,"station_id":"","pricing_plan_id":"cebpf4jnsgd1na2vs0mg"},{"bike_id":"6093caa0-2ff7-447f-be0b-f088f46341ef","system_id":"levelo_inurba_marseille","lat":43.29715,"lon":5.36611,"is_reserved":false,"is_disabled":false,"rental_uris":{"android":"levelo://app?vid=6093caa0-2ff7-447f-be0b-f088f46341ef","ios":"levelo://app?vid=6093caa0-2ff7-447f-be0b-f088f46341ef"},"vehicle_type_id":"4","last_reported":1784843719,"current_range_meters":39200,"station_id":"ce4bgn12rcd13ifvqbt0","pricing_plan_id":"cebpf4jnsgd1na2vs0mg"},{"bike_id":"be281d0c-4747-4107-85f5-ef79ebe32d35","system_id":"levelo_inurba_marseille","lat":43.24779,"lon":5.37468,"is_reserved":false,"is_disabled":false,"rental_uris":{"android":"levelo://app?vid=be281d0c-4747-4107-85f5-ef79ebe32d35","ios":"levelo://app?vid=be281d0c-4747-4107-85f5-ef79ebe32d35"},"vehicle_type_id":"4","last_reported":1784843719,"current_range_meters":39200,"station_id":"ce4bhgh2rcd13ifvqfb0","pricing_plan_id":"cebpf4jnsgd1na2vs0mg"},{"bike_id":"a74338b6-ab76-4397-a44a-5b86a8bc675d","system_id":"levelo_inurba_marseille","lat":43.27298,"lon":5.40933,"is_reserved":false,"is_disabled":false,"rental_uris":{"android":"levelo://app?vid=a74338b6-ab76-4397-a44a-5b86a8bc675d","ios":"levelo://app?vid=a74338b6-ab76-4397-a44a-5b86a8bc675d"},"vehicle_type_id":"4","last_reported":1784843719,"current_range_meters":39200,"station_id":"","pricing_plan_id":"cebpf4jnsgd1na2vs0mg"},{"bike_id":"0d742ef8-7ec8-4fca-8f4c-3cef57b81885","system_id":"levelo_inurba_marseille","lat":43.29703,"lon":5.36594,"is_reserved":false,"is_disabled":false,"rental_uris":{"android":"levelo://app?vid=0d742ef8-7ec8-4fca-8f4c-3cef57b81885","ios":"levelo://app?vid=0d742ef8-7ec8-4fca-8f4c-3cef57b81885"},"vehicle_type_id":"4","last_reported":1784843719,"current_range_meters":25600,"station_id":"ce4bgn12rcd13ifvqbt0","pricing_plan_id":"cebpf4jnsgd1na2vs0mg"},{"bike_id":"95ea415c-3b6a-4765-8a94-b4058ad29a7c","system_id":"levelo_inurba_marseille","lat":43.29569,"lon":5.39993,"is_reserved":false,"is_disabled":false,"rental_uris":{"android":"levelo://app?vid=95ea415c-3b6a-4765-8a94-b4058ad29a7c","ios":"levelo://app?vid=95ea415c-3b6a-4765-8a94-b4058ad29a7c"},"vehicle_type_id":"4","last_reported":1784843719,"current_range_meters":15200,"station_id":"ce4bh312rcd13ifvqdj0","pricing_plan_id":"cebpf4jnsgd1na2vs0mg"},{"bike_id":"a19b2dea-a8bc-4280-b5e1-470938d8bf59","system_id":"levelo_inurba_marseille","lat":43.2871,"lon":5.40005,"is_reserved":false,"is_disabled":false,"rental_uris":{"android":"levelo://app?vid=a19b2dea-a8bc-4280-b5e1-470938d8bf59","ios":"levelo://app?vid=a19b2dea-a8bc-4280-b5e1-470938d8bf59"},"vehicle_type_id":"4","last_reported":1784843719,"current_range_meters":39200,"station_id":"ce4bho92rcd13ifvqh3g","pricing_plan_id":"cebpf4jnsgd1na2vs0mg"},{"bike_id":"db87b25b-cd08-4ed7-8d40-64cce0e89f6a","system_id":"levelo_inurba_marseille","lat":43.27491,"lon":5.41627,"is_reserved":false,"is_disabled":false,"rental_uris":{"android":"levelo://app?vid=db87b25b-cd08-4ed7-8d40-64cce0e89f6a","ios":"levelo://app?vid=db87b25b-cd08-4ed7-8d40-64cce0e89f6a"},"vehicle_type_id":"4","last_reported":1784843719,"current_range_meters":38800,"station_id":"st_d6im8g6chgec73a5pndg","pricing_plan_id":"cebpf4jnsgd1na2vs0mg"},{"bike_id":"f1288106-a8c3-4624-ad2a-44299213b3e2","system_id":"levelo_inurba_marseille","lat":43.29597,"lon":5.36744,"is_reserved":false,"is_disabled":true,"rental_uris":{"android":"levelo://app?vid=f1288106-a8c3-4624-ad2a-44299213b3e2","ios":"levelo://app?vid=f1288106-a8c3-4624-ad2a-44299213b3e2"},"vehicle_type_id":"4","last_reported":1784843719,"current_range_meters":38400,"station_id":"","pricing_plan_id":"cebpf4jnsgd1na2vs0mg"},{"bike_id":"ab907c16-2123-44c2-912f-95e0f2737c03","system_id":"levelo_inurba_marseille","lat":43.30391,"lon":5.42731,"is_reserved":false,"is_disabled":true,"rental_uris":{"android":"levelo://app?vid=ab907c16-2123-44c2-912f-95e0f2737c03","ios":"levelo://app?vid=ab907c16-2123-44c2-912f-95e0f2737c03"},"vehicle_type_id":"4","last_reported":1784843719,"current_range_meters":18800,"station_id":"","pricing_plan_id":"cebpf4jnsgd1na2vs0mg"},{"bike_id":"0f27047d-3cee-486f-bbfd-4e43b3a3a5db","system_id":"levelo_inurba_marseille","lat":43.32113,"lon":5.36733,"is_reserved":false,"is_disabled":false,"rental_uris":{"android":"levelo://app?vid=0f27047d-3cee-486f-bbfd-4e43b3a3a5db","ios":"levelo://app?vid=0f27047d-3cee-486f-bbfd-4e43b3a3a5db"},"vehicle_type_id":"4","last_reported":1784843719,"current_range_meters":28800,"station_id":"ce4bhrh2rcd13ifvqhug","pricing_plan_id":"cebpf4jnsgd1na2vs0mg"},{"bike_id":"f0d801fc-9dee-4f8c-80e7-d4dbb0023ff2","system_id":"levelo_inurba_marseille","lat":43.29027,"lon":5.38661,"is_reserved":false,"is_disabled":false,"rental_uris":{"android":"levelo://app?vid=f0d801fc-9dee-4f8c-80e7-d4dbb0023ff2","ios":"levelo://app?vid=f0d801fc-9dee-4f8c-80e7-d4dbb0023ff2"},"vehicle_type_id":"4","last_reported":1784843719,"current_range_meters":27200,"station_id":"ce4bh4p2rcd13ifvqe0g","pricing_plan_id":"cebpf4jnsgd1na2vs0mg"},{"bike_id":"1b797826-9ecf-4ecf-b047-dcf2883098e6","system_id":"levelo_inurba_marseille","lat":43.29784,"lon":5.39327,"is_reserved":false,"is_disabled":false,"rental_uris":{"android":"levelo://app?vid=1b797826-9ecf-4ecf-b047-dcf2883098e6","ios":"levelo://app?vid=1b797826-9ecf-4ecf-b047-dcf2883098e6"},"vehicle_type_id":"4","last_reported":1784843719,"current_range_meters":34000,"station_id":"chh1huq6cuj3fo74tm60","pricing_plan_id":"cebpf4jnsgd1na2vs0mg"},{"bike_id":"eb49b576-652b-4db8-bfd8-c80b1b18069a","system_id":"levelo_inurba_marseille","lat":43.23158,"lon":5.43713,"is_reserved":false,"is_disabled":false,"rental_uris":{"android":"levelo://app?vid=eb49b576-652b-4db8-bfd8-c80b1b18069a","ios":"levelo://app?vid=eb49b576-652b-4db8-bfd8-c80b1b18069a"},"vehicle_type_id":"4","last_reported":1784843719,"current_range_meters":39200,"station_id":"ce4bhmp2rcd13ifvqgog","pricing_plan_id":"cebpf4jnsgd1na2vs0mg"},{"bike_id":"c520161e-c250-4161-a55a-6b287776d8da","system_id":"levelo_inurba_marseille","lat":43.28477,"lon":5.48396,"is_reserved":false,"is_disabled":false,"rental_uris":{"android":"levelo://app?vid=c520161e-c250-4161-a55a-6b287776d8da","ios":"levelo://app?vid=c520161e-c250-4161-a55a-6b287776d8da"},"vehicle_type_id":"4","last_reported":1784843719,"current_range_meters":24400,"station_id":"st_d3svhcjqgbts73a3dn0g","pricing_plan_id":"cebpf4jnsgd1na2vs0mg"},{"bike_id":"1be16c68-4af1-419d-93d4-773b2af07f2a","system_id":"levelo_inurba_marseille","lat":43.28538,"lon":5.44103,"is_reserved":false,"is_disabled":false,"rental_uris":{"android":"levelo://app?vid=1be16c68-4af1-419d-93d4-773b2af07f2a","ios":"levelo://app?vid=1be16c68-4af1-419d-93d4-773b2af07f2a"},"vehicle_type_id":"4","last_reported":1784843719,"current_range_meters":40000,"station_id":"st_d3j3df2ikq2c7380ej80","pricing_plan_id":"cebpf4jnsgd1na2vs0mg"},{"bike_id":"6e7ec013-c0a7-4a70-811a-3171277d0090","system_id":"levelo_inurba_marseille","lat":43.31351,"lon":5.39673,"is_reserved":false,"is_disabled":true,"rental_uris":{"android":"levelo://app?vid=6e7ec013-c0a7-4a70-811a-3171277d0090","ios":"levelo://app?vid=6e7ec013-c0a7-4a70-811a-3171277d0090"},"vehicle_type_id":"4","last_reported":1784843719,"current_range_meters":400,"station_id":"ce4bgvp2rcd13ifvqcu0","pricing_plan_id":"cebpf4jnsgd1na2vs0mg"},{"bike_id":"1344aaf3-97e6-42ff-b3d2-9099ac693f1e","system_id":"levelo_inurba_marseille","lat":43.2895,"lon":5.39636,"is_reserved":false,"is_disabled":false,"rental_uris":{"android":"levelo://app?vid=1344aaf3-97e6-42ff-b3d2-9099ac693f1e","ios":"levelo://app?vid=1344aaf3-97e6-42ff-b3d2-9099ac693f1e"},"vehicle_type_id":"4","last_reported":1784843719,"current_range_meters":25600,"station_id":"ce4bh3h2rcd13ifvqdn0","pricing_plan_id":"cebpf4jnsgd1na2vs0mg"},{"bike_id":"dfe9c336-e662-4c4f-b0e2-3694ed8cf4c1","system_id":"levelo_inurba_marseille","lat":43.31498,"lon":5.37306,"is_reserved":false,"is_disabled":false,"rental_uris":{"android":"levelo://app?vid=dfe9c336-e662-4c4f-b0e2-3694ed8cf4c1","ios":"levelo://app?vid=dfe9c336-e662-4c4f-b0e2-3694ed8cf4c1"},"vehicle_type_id":"4","last_reported":1784843719,"current_range_meters":38000,"station_id":"ce4bgt12rcd13ifvqcd0","pricing_plan_id":"cebpf4jnsgd1na2vs0mg"},{"bike_id":"c4599c29-f86a-45dc-be51-4124fda90118","system_id":"levelo_inurba_marseille","lat":43.2315,"lon":5.43716,"is_reserved":false,"is_disabled":false,"rental_uris":{"android":"levelo://app?vid=c4599c29-f86a-45dc-be51-4124fda90118","ios":"levelo://app?vid=c4599c29-f86a-45dc-be51-4124fda90118"},"vehicle_type_id":"4","last_reported":1784843719,"current_range_meters":39200,"station_id":"ce4bhmp2rcd13ifvqgog","pricing_plan_id":"cebpf4jnsgd1na2vs0mg"},{"bike_id":"87cae5d6-48b0-436a-8f0e-10e50020ffef","system_id":"levelo_inurba_marseille","lat":43.29264,"lon":5.38445,"is_reserved":false,"is_disabled":false,"rental_uris":{"android":"levelo://app?vid=87cae5d6-48b0-436a-8f0e-10e50020ffef","ios":"levelo://app?vid=87cae5d6-48b0-436a-8f0e-10e50020ffef"},"vehicle_type_id":"4","last_reported":1784843719,"current_range_meters":34000,"station_id":"ce4bh692rcd13ifvqea0","pricing_plan_id":"cebpf4jnsgd1na2vs0mg"},{"bike_id":"9868531c-e174-4db8-b9d9-13a834ba893d","system_id":"levelo_inurba_marseille","lat":43.231313,"lon":5.437115,"is_reserved":false,"is_disabled":false,"rental_uris":{"android":"levelo://app?vid=9868531c-e174-4db8-b9d9-13a834ba893d","ios":"levelo://app?vid=9868531c-e174-4db8-b9d9-13a834ba893d"},"vehicle_type_id":"4","last_reported":1784843719,"current_range_meters":16000,"station_id":"ce4bhmp2rcd13ifvqgog","pricing_plan_id":"cebpf4jnsgd1na2vs0mg"},{"bike_id":"a3db6dae-251b-40b2-926f-9cb99606f48c","system_id":"levelo_inurba_marseille","lat":43.29698,"lon":5.3662,"is_reserved":false,"is_disabled":false,"rental_uris":{"android":"levelo://app?vid=a3db6dae-251b-40b2-926f-9cb99606f48c","ios":"levelo://app?vid=a3db6dae-251b-40b2-926f-9cb99606f48c"},"vehicle_type_id":"4","last_reported":1784843719,"current_range_meters":3200,"station_id":"","pricing_plan_id":"cebpf4jnsgd1na2vs0mg"},{"bike_id":"426d1906-5442-4f7f-86dc-3f185c986fb7","system_id":"levelo_inurba_marseille","lat":43.294,"lon":5.37833,"is_reserved":false,"is_disabled":false,"rental_uris":{"android":"levelo://app?vid=426d1906-5442-4f7f-86dc-3f185c986fb7","ios":"levelo://app?vid=426d1906-5442-4f7f-86dc-3f185c986fb7"},"vehicle_type_id":"4","last_reported":1784843719,"current_range_meters":14800,"station_id":"ce4bgjh2rcd13ifvqbf0","pricing_plan_id":"cebpf4jnsgd1na2vs0mg"},{"bike_id":"f68e27a5-3fa4-448f-9637-a31388b7f976","system_id":"levelo_inurba_marseille","lat":43.31338,"lon":5.3969,"is_reserved":false,"is_disabled":false,"rental_uris":{"android":"levelo://app?vid=f68e27a5-3fa4-448f-9637-a31388b7f976","ios":"levelo://app?vid=f68e27a5-3fa4-448f-9637-a31388b7f976"},"vehicle_type_id":"4","last_reported":1784843719,"current_range_meters":27600,"station_id":"ce4bgvp2rcd13ifvqcu0","pricing_plan_id":"cebpf4jnsgd1na2vs0mg"},{"bike_id":"c31ea38b-cee9-41a1-93fb-85dd217b0cbd","system_id":"levelo_inurba_marseille","lat":43.33716,"lon":5.36744,"is_reserved":false,"is_disabled":false,"rental_uris":{"android":"levelo://app?vid=c31ea38b-cee9-41a1-93fb-85dd217b0cbd","ios":"levelo://app?vid=c31ea38b-cee9-41a1-93fb-85dd217b0cbd"},"vehicle_type_id":"4","last_reported":1784843719,"current_range_meters":28000,"station_id":"","pricing_plan_id":"cebpf4jnsgd1na2vs0mg"},{"bike_id":"0353fca3-fbdd-4286-a9eb-ebce376c25fa","system_id":"levelo_inurba_marseille","lat":43.23386,"lon":5.41258,"is_reserved":false,"is_disabled":false,"rental_uris":{"android":"levelo://app?vid=0353fca3-fbdd-4286-a9eb-ebce376c25fa","ios":"levelo://app?vid=0353fca3-fbdd-4286-a9eb-ebce376c25fa"},"vehicle_type_id":"4","last_reported":1784843719,"current_range_meters":39200,"station_id":"st_d75pvndhf9lc73cqq3eg","pricing_plan_id":"cebpf4jnsgd1na2vs0mg"},{"bike_id":"b8e43a89-3bb1-4279-9cee-f7b093c9b703","system_id":"levelo_inurba_marseille","lat":43.33718,"lon":5.37415,"is_reserved":false,"is_disabled":false,"rental_uris":{"android":"levelo://app?vid=b8e43a89-3bb1-4279-9cee-f7b093c9b703","ios":"levelo://app?vid=b8e43a89-3bb1-4279-9cee-f7b093c9b703"},"vehicle_type_id":"4","last_reported":1784843719,"current_range_meters":8800,"station_id":"","pricing_plan_id":"cebpf4jnsgd1na2vs0mg"},{"bike_id":"d0e3d421-3232-4fe6-8914-f2fab6f9cce9","system_id":"levelo_inurba_marseille","lat":43.30999,"lon":5.38505,"is_reserved":false,"is_disabled":false,"rental_uris":{"android":"levelo://app?vid=d0e3d421-3232-4fe6-8914-f2fab6f9cce9","ios":"levelo://app?vid=d0e3d421-3232-4fe6-8914-f2fab6f9cce9"},"vehicle_type_id":"4","last_reported":1784843719,"current_range_meters":39200,"station_id":"","pricing_plan_id":"cebpf4jnsgd1na2vs0mg"},{"bike_id":"af8f5110-0dea-4414-b384-8e116760f0fd","system_id":"levelo_inurba_marseille","lat":43.23192,"lon":5.39986,"is_reserved":false,"is_disabled":false,"rental_uris":{"android":"levelo://app?vid=af8f5110-0dea-4414-b384-8e116760f0fd","ios":"levelo://app?vid=af8f5110-0dea-4414-b384-8e116760f0fd"},"vehicle_type_id":"4","last_reported":1784843719,"current_range_meters":8800,"station_id":"ce4bhn12rcd13ifvqgqg","pricing_plan_id":"cebpf4jnsgd1na2vs0mg"},{"bike_id":"31c275e7-8c99-45a0-b66e-3ad60ce6645a","system_id":"levelo_inurba_marseille","lat":43.263142,"lon":5.378281,"is_reserved":false,"is_disabled":false,"rental_uris":{"android":"levelo://app?vid=31c275e7-8c99-45a0-b66e-3ad60ce6645a","ios":"levelo://app?vid=31c275e7-8c99-45a0-b66e-3ad60ce6645a"},"vehicle_type_id":"4","last_reported":1784843719,"current_range_meters":38800,"station_id":"","pricing_plan_id":"cebpf4jnsgd1na2vs0mg"},{"bike_id":"45d1a51f-5eff-4763-8b7c-1c817383ed0f","system_id":"levelo_inurba_marseille","lat":43.31091,"lon":5.42439,"is_reserved":false,"is_disabled":true,"rental_uris":{"android":"levelo://app?vid=45d1a51f-5eff-4763-8b7c-1c817383ed0f","ios":"levelo://app?vid=45d1a51f-5eff-4763-8b7c-1c817383ed0f"},"vehicle_type_id":"4","last_reported":1784843719,"current_range_meters":16400,"station_id":"ce4bhp92rcd13ifvqhag","pricing_plan_id":"cebpf4jnsgd1na2vs0mg"},{"bike_id":"6772e332-26aa-4530-86da-d14c0f48009d","system_id":"levelo_inurba_marseille","lat":43.24088,"lon":5.37767,"is_reserved":false,"is_disabled":false,"rental_uris":{"android":"levelo://app?vid=6772e332-26aa-4530-86da-d14c0f48009d","ios":"levelo://app?vid=6772e332-26aa-4530-86da-d14c0f48009d"},"vehicle_type_id":"4","last_reported":1784843719,"current_range_meters":37600,"station_id":"ce4bhnp2rcd13ifvqgvg","pricing_plan_id":"cebpf4jnsgd1na2vs0mg"},{"bike_id":"c36224d6-5971-4a21-8df2-2c749759fe14","system_id":"levelo_inurba_marseille","lat":43.27993,"lon":5.40008,"is_reserved":false,"is_disabled":false,"rental_uris":{"android":"levelo://app?vid=c36224d6-5971-4a21-8df2-2c749759fe14","ios":"levelo://app?vid=c36224d6-5971-4a21-8df2-2c749759fe14"},"vehicle_type_id":"4","last_reported":1784843719,"current_range_meters":22800,"station_id":"ce4bho92rcd13ifvqh4g","pricing_plan_id":"cebpf4jnsgd1na2vs0mg"},{"bike_id":"13bbfe3b-874b-44d7-9abb-922c8de23c11","system_id":"levelo_inurba_marseille","lat":43.23265,"lon":5.35399,"is_reserved":false,"is_disabled":false,"rental_uris":{"android":"levelo://app?vid=13bbfe3b-874b-44d7-9abb-922c8de23c11","ios":"levelo://app?vid=13bbfe3b-874b-44d7-9abb-922c8de23c11"},"vehicle_type_id":"4","last_reported":1784843719,"current_range_meters":17200,"station_id":"","pricing_plan_id":"cebpf4jnsgd1na2vs0mg"},{"bike_id":"903cd5fd-14a1-4e61-aa78-2fa63f8dde08","system_id":"levelo_inurba_marseille","lat":43.28655,"lon":5.40014,"is_reserved":false,"is_disabled":false,"rental_uris":{"android":"levelo://app?vid=903cd5fd-14a1-4e61-aa78-2fa63f8dde08","ios":"levelo://app?vid=903cd5fd-14a1-4e61-aa78-2fa63f8dde08"},"vehicle_type_id":"4","last_reported":1784843719,"current_range_meters":24400,"station_id":"","pricing_plan_id":"cebpf4jnsgd1na2vs0mg"},{"bike_id":"d2f28bc6-373c-48aa-827b-2ab70255c125","system_id":"levelo_inurba_marseille","lat":43.25012,"lon":5.38923,"is_reserved":false,"is_disabled":false,"rental_uris":{"android":"levelo://app?vid=d2f28bc6-373c-48aa-827b-2ab70255c125","ios":"levelo://app?vid=d2f28bc6-373c-48aa-827b-2ab70255c125"},"vehicle_type_id":"4","last_reported":1784843719,"current_range_meters":15200,"station_id":"ce4bhgp2rcd13ifvqfd0","pricing_plan_id":"cebpf4jnsgd1na2vs0mg"},{"bike_id":"6ed5f8c3-6da8-4cec-bfad-13253a432d70","system_id":"levelo_inurba_marseille","lat":43.2942,"lon":5.38616,"is_reserved":false,"is_disabled":true,"rental_uris":{"android":"levelo://app?vid=6ed5f8c3-6da8-4cec-bfad-13253a432d70","ios":"levelo://app?vid=6ed5f8c3-6da8-4cec-bfad-13253a432d70"},"vehicle_type_id":"4","last_reported":1784843719,"current_range_meters":28000,"station_id":"","pricing_plan_id":"cebpf4jnsgd1na2vs0mg"},{"bike_id":"0dee0085-d5a5-4c48-b3f1-a323bb744f3d","system_id":"levelo_inurba_marseille","lat":43.22551,"lon":5.41637,"is_reserved":false,"is_disabled":false,"rental_uris":{"android":"levelo://app?vid=0dee0085-d5a5-4c48-b3f1-a323bb744f3d","ios":"levelo://app?vid=0dee0085-d5a5-4c48-b3f1-a323bb744f3d"},"vehicle_type_id":"4","last_reported":1784843719,"current_range_meters":27200,"station_id":"st_d2o4gvlbi1j2169b742g","pricing_plan_id":"cebpf4jnsgd1na2vs0mg"},{"bike_id":"cde92de2-f8cc-4415-b1f4-40c93e3f894b","system_id":"levelo_inurba_marseille","lat":43.30899,"lon":5.37195,"is_reserved":false,"is_disabled":false,"rental_uris":{"android":"levelo://app?vid=cde92de2-f8cc-4415-b1f4-40c93e3f894b","ios":"levelo://app?vid=cde92de2-f8cc-4415-b1f4-40c93e3f894b"},"vehicle_type_id":"4","last_reported":1784843719,"current_range_meters":34800,"station_id":"ce4bguh2rcd13ifvqckg","pricing_plan_id":"cebpf4jnsgd1na2vs0mg"},{"bike_id":"0b2c45f2-fdaa-45fe-9511-e6426cab85f6","system_id":"levelo_inurba_marseille","lat":43.27483,"lon":5.42452,"is_reserved":false,"is_disabled":false,"rental_uris":{"android":"levelo://app?vid=0b2c45f2-fdaa-45fe-9511-e6426cab85f6","ios":"levelo://app?vid=0b2c45f2-fdaa-45fe-9511-e6426cab85f6"},"vehicle_type_id":"4","last_reported":1784843719,"current_range_meters":14400,"station_id":"ce4bhn92rcd13ifvqgrg","pricing_plan_id":"cebpf4jnsgd1na2vs0mg"},{"bike_id":"f64fb0db-2b20-496d-b8ff-4ad0fce0c088","system_id":"levelo_inurba_marseille","lat":43.29874,"lon":5.39733,"is_reserved":false,"is_disabled":false,"rental_uris":{"android":"levelo://app?vid=f64fb0db-2b20-496d-b8ff-4ad0fce0c088","ios":"levelo://app?vid=f64fb0db-2b20-496d-b8ff-4ad0fce0c088"},"vehicle_type_id":"4","last_reported":1784843719,"current_range_meters":34000,"station_id":"ce4bh0h2rcd13ifvqd50","pricing_plan_id":"cebpf4jnsgd1na2vs0mg"},{"bike_id":"d5519981-ec73-4b1d-95f3-8a790eb5df05","system_id":"levelo_inurba_marseille","lat":43.24816,"lon":5.37461,"is_reserved":false,"is_disabled":false,"rental_uris":{"android":"levelo://app?vid=d5519981-ec73-4b1d-95f3-8a790eb5df05","ios":"levelo://app?vid=d5519981-ec73-4b1d-95f3-8a790eb5df05"},"vehicle_type_id":"4","last_reported":1784843719,"current_range_meters":37600,"station_id":"ce4bhgh2rcd13ifvqfb0","pricing_plan_id":"cebpf4jnsgd1na2vs0mg"},{"bike_id":"dad5eff3-cb3a-4459-ba39-741abe4a6c6c","system_id":"levelo_inurba_marseille","lat":43.32138,"lon":5.36775,"is_reserved":false,"is_disabled":false,"rental_uris":{"android":"levelo://app?vid=dad5eff3-cb3a-4459-ba39-741abe4a6c6c","ios":"levelo://app?vid=dad5eff3-cb3a-4459-ba39-741abe4a6c6c"},"vehicle_type_id":"4","last_reported":1784843719,"current_range_meters":38000,"station_id":"","pricing_plan_id":"cebpf4jnsgd1na2vs0mg"},{"bike_id":"ae39f875-d638-467e-8006-29399b5e8abf","system_id":"levelo_inurba_marseille","lat":43.29022,"lon":5.38644,"is_reserved":false,"is_disabled":false,"rental_uris":{"android":"levelo://app?vid=ae39f875-d638-467e-8006-29399b5e8abf","ios":"levelo://app?vid=ae39f875-d638-467e-8006-29399b5e8abf"},"vehicle_type_id":"4","last_reported":1784843719,"current_range_meters":32800,"station_id":"ce4bh4p2rcd13ifvqe0g","pricing_plan_id":"cebpf4jnsgd1na2vs0mg"},{"bike_id":"e6c37a55-8ce9-4c03-92ea-112a3938462e","system_id":"levelo_inurba_marseille","lat":43.25518,"lon":5.37659,"is_reserved":false,"is_disabled":false,"rental_uris":{"android":"levelo://app?vid=e6c37a55-8ce9-4c03-92ea-112a3938462e","ios":"levelo://app?vid=e6c37a55-8ce9-4c03-92ea-112a3938462e"},"vehicle_type_id":"4","last_reported":1784843719,"current_range_meters":37600,"station_id":"","pricing_plan_id":"cebpf4jnsgd1na2vs0mg"},{"bike_id":"2acd2ae5-3829-4d5e-b56f-1bb617133f9d","system_id":"levelo_inurba_marseille","lat":43.23191,"lon":5.35561,"is_reserved":false,"is_disabled":false,"rental_uris":{"android":"levelo://app?vid=2acd2ae5-3829-4d5e-b56f-1bb617133f9d","ios":"levelo://app?vid=2acd2ae5-3829-4d5e-b56f-1bb617133f9d"},"vehicle_type_id":"4","last_reported":1784843719,"current_range_meters":27600,"station_id":"ce4bhu92rcd13ifvqi70","pricing_plan_id":"cebpf4jnsgd1na2vs0mg"},{"bike_id":"e9963229-6f79-4069-a94d-d3024b874db2","system_id":"levelo_inurba_marseille","lat":43.25079,"lon":5.39518,"is_reserved":false,"is_disabled":false,"rental_uris":{"android":"levelo://app?vid=e9963229-6f79-4069-a94d-d3024b874db2","ios":"levelo://app?vid=e9963229-6f79-4069-a94d-d3024b874db2"},"vehicle_type_id":"4","last_reported":1784843719,"current_range_meters":6000,"station_id":"ce4bhm12rcd13ifvqgkg","pricing_plan_id":"cebpf4jnsgd1na2vs0mg"},{"bike_id":"3860c86d-35d7-4b5e-a839-608b7372a84f","system_id":"levelo_inurba_marseille","lat":43.27507,"lon":5.42454,"is_reserved":false,"is_disabled":false,"rental_uris":{"android":"levelo://app?vid=3860c86d-35d7-4b5e-a839-608b7372a84f","ios":"levelo://app?vid=3860c86d-35d7-4b5e-a839-608b7372a84f"},"vehicle_type_id":"4","last_reported":1784843719,"current_range_meters":39200,"station_id":"ce4bhn92rcd13ifvqgrg","pricing_plan_id":"cebpf4jnsgd1na2vs0mg"},{"bike_id":"41ae75d9-38e8-4852-854b-12fcad44a700","system_id":"levelo_inurba_marseille","lat":43.29254,"lon":5.38438,"is_reserved":false,"is_disabled":false,"rental_uris":{"android":"levelo://app?vid=41ae75d9-38e8-4852-854b-12fcad44a700","ios":"levelo://app?vid=41ae75d9-38e8-4852-854b-12fcad44a700"},"vehicle_type_id":"4","last_reported":1784843719,"current_range_meters":39200,"station_id":"ce4bh692rcd13ifvqea0","pricing_plan_id":"cebpf4jnsgd1na2vs0mg"},{"bike_id":"5b780466-9b12-458a-a952-0393559cf72b","system_id":"levelo_inurba_marseille","lat":43.29194,"lon":5.3932,"is_reserved":false,"is_disabled":false,"rental_uris":{"android":"levelo://app?vid=5b780466-9b12-458a-a952-0393559cf72b","ios":"levelo://app?vid=5b780466-9b12-458a-a952-0393559cf72b"},"vehicle_type_id":"4","last_reported":1784843719,"current_range_meters":6800,"station_id":"ce4bh192rcd13ifvqdd0","pricing_plan_id":"cebpf4jnsgd1na2vs0mg"},{"bike_id":"1fade11d-8e73-4748-8586-d9741ca55ced","system_id":"levelo_inurba_marseille","lat":43.317152,"lon":5.437034,"is_reserved":false,"is_disabled":false,"rental_uris":{"android":"levelo://app?vid=1fade11d-8e73-4748-8586-d9741ca55ced","ios":"levelo://app?vid=1fade11d-8e73-4748-8586-d9741ca55ced"},"vehicle_type_id":"4","last_reported":1784843719,"current_range_meters":25200,"station_id":"ce4bhp92rcd13ifvqhcg","pricing_plan_id":"cebpf4jnsgd1na2vs0mg"},{"bike_id":"903419bb-a703-46b0-a6ae-a0452537c994","system_id":"levelo_inurba_marseille","lat":43.2319,"lon":5.39987,"is_reserved":false,"is_disabled":false,"rental_uris":{"android":"levelo://app?vid=903419bb-a703-46b0-a6ae-a0452537c994","ios":"levelo://app?vid=903419bb-a703-46b0-a6ae-a0452537c994"},"vehicle_type_id":"4","last_reported":1784843719,"current_range_meters":11200,"station_id":"ce4bhn12rcd13ifvqgqg","pricing_plan_id":"cebpf4jnsgd1na2vs0mg"},{"bike_id":"d29c716b-8d73-45a6-b83e-b742c6b9fb25","system_id":"levelo_inurba_marseille","lat":43.28418,"lon":5.375,"is_reserved":false,"is_disabled":false,"rental_uris":{"android":"levelo://app?vid=d29c716b-8d73-45a6-b83e-b742c6b9fb25","ios":"levelo://app?vid=d29c716b-8d73-45a6-b83e-b742c6b9fb25"},"vehicle_type_id":"4","last_reported":1784843719,"current_range_meters":23200,"station_id":"ce4bh412rcd13ifvqds0","pricing_plan_id":"cebpf4jnsgd1na2vs0mg"},{"bike_id":"2b5becdf-f8e2-49e5-a55c-775afd13da26","system_id":"levelo_inurba_marseille","lat":43.21172,"lon":5.35073,"is_reserved":false,"is_disabled":false,"rental_uris":{"android":"levelo://app?vid=2b5becdf-f8e2-49e5-a55c-775afd13da26","ios":"levelo://app?vid=2b5becdf-f8e2-49e5-a55c-775afd13da26"},"vehicle_type_id":"4","last_reported":1784843719,"current_range_meters":5600,"station_id":"st_cvj6sg6p6f1abm77japg","pricing_plan_id":"cebpf4jnsgd1na2vs0mg"},{"bike_id":"0dbff597-b612-43a4-835d-5240dfc1bce9","system_id":"levelo_inurba_marseille","lat":43.30438,"lon":5.3889,"is_reserved":false,"is_disabled":false,"rental_uris":{"android":"levelo://app?vid=0dbff597-b612-43a4-835d-5240dfc1bce9","ios":"levelo://app?vid=0dbff597-b612-43a4-835d-5240dfc1bce9"},"vehicle_type_id":"4","last_reported":1784843719,"current_range_meters":32400,"station_id":"ce4bgk12rcd13ifvqbi0","pricing_plan_id":"cebpf4jnsgd1na2vs0mg"},{"bike_id":"fe83dd6b-d6e3-4963-af54-2c6364c3e90e","system_id":"levelo_inurba_marseille","lat":43.305978,"lon":5.372301,"is_reserved":false,"is_disabled":false,"rental_uris":{"android":"levelo://app?vid=fe83dd6b-d6e3-4963-af54-2c6364c3e90e","ios":"levelo://app?vid=fe83dd6b-d6e3-4963-af54-2c6364c3e90e"},"vehicle_type_id":"4","last_reported":1784843719,"current_range_meters":3600,"station_id":"ce4bgqh2rcd13ifvqc4g","pricing_plan_id":"cebpf4jnsgd1na2vs0mg"},{"bike_id":"75146afd-6944-4808-9153-760cee29f303","system_id":"levelo_inurba_marseille","lat":43.24665,"lon":5.3786,"is_reserved":false,"is_disabled":false,"rental_uris":{"android":"levelo://app?vid=75146afd-6944-4808-9153-760cee29f303","ios":"levelo://app?vid=75146afd-6944-4808-9153-760cee29f303"},"vehicle_type_id":"4","last_reported":1784843719,"current_range_meters":19600,"station_id":"","pricing_plan_id":"cebpf4jnsgd1na2vs0mg"},{"bike_id":"f3c56060-1806-44be-874d-e3c93ec20d10","system_id":"levelo_inurba_marseille","lat":43.29944,"lon":5.37147,"is_reserved":false,"is_disabled":false,"rental_uris":{"android":"levelo://app?vid=f3c56060-1806-44be-874d-e3c93ec20d10","ios":"levelo://app?vid=f3c56060-1806-44be-874d-e3c93ec20d10"},"vehicle_type_id":"4","last_reported":1784843719,"current_range_meters":29600,"station_id":"ce4bgr92rcd13ifvqc7g","pricing_plan_id":"cebpf4jnsgd1na2vs0mg"},{"bike_id":"f38ef9a1-1a1d-4244-a204-17a7926259bd","system_id":"levelo_inurba_marseille","lat":43.26566,"lon":5.40324,"is_reserved":false,"is_disabled":false,"rental_uris":{"android":"levelo://app?vid=f38ef9a1-1a1d-4244-a204-17a7926259bd","ios":"levelo://app?vid=f38ef9a1-1a1d-4244-a204-17a7926259bd"},"vehicle_type_id":"4","last_reported":1784843719,"current_range_meters":28400,"station_id":"ce4bhmp2rcd13ifvqgng","pricing_plan_id":"cebpf4jnsgd1na2vs0mg"},{"bike_id":"1d2afb4e-945b-4668-9072-41ed9da1567d","system_id":"levelo_inurba_marseille","lat":43.2802,"lon":5.38226,"is_reserved":false,"is_disabled":false,"rental_uris":{"android":"levelo://app?vid=1d2afb4e-945b-4668-9072-41ed9da1567d","ios":"levelo://app?vid=1d2afb4e-945b-4668-9072-41ed9da1567d"},"vehicle_type_id":"4","last_reported":1784843719,"current_range_meters":9200,"station_id":"","pricing_plan_id":"cebpf4jnsgd1na2vs0mg"},{"bike_id":"05bbd0b9-b217-4a12-8f54-986588659418","system_id":"levelo_inurba_marseille","lat":43.2893,"lon":5.38397,"is_reserved":false,"is_disabled":false,"rental_uris":{"android":"levelo://app?vid=05bbd0b9-b217-4a12-8f54-986588659418","ios":"levelo://app?vid=05bbd0b9-b217-4a12-8f54-986588659418"},"vehicle_type_id":"4","last_reported":1784843719,"current_range_meters":35600,"station_id":"ce4bh612rcd13ifvqe6g","pricing_plan_id":"cebpf4jnsgd1na2vs0mg"},{"bike_id":"85b4c9fd-fe83-47dd-b88f-8b0ebbd3e3ff","system_id":"levelo_inurba_marseille","lat":43.29268,"lon":5.37621,"is_reserved":false,"is_disabled":false,"rental_uris":{"android":"levelo://app?vid=85b4c9fd-fe83-47dd-b88f-8b0ebbd3e3ff","ios":"levelo://app?vid=85b4c9fd-fe83-47dd-b88f-8b0ebbd3e3ff"},"vehicle_type_id":"4","last_reported":1784843719,"current_range_meters":37600,"station_id":"ce4bgi12rcd13ifvqb80","pricing_plan_id":"cebpf4jnsgd1na2vs0mg"},{"bike_id":"0fb219d7-0eb2-4db7-be60-ac39a2ab39c2","system_id":"levelo_inurba_marseille","lat":43.26709,"lon":5.38261,"is_reserved":false,"is_disabled":false,"rental_uris":{"android":"levelo://app?vid=0fb219d7-0eb2-4db7-be60-ac39a2ab39c2","ios":"levelo://app?vid=0fb219d7-0eb2-4db7-be60-ac39a2ab39c2"},"vehicle_type_id":"4","last_reported":1784843719,"current_range_meters":27600,"station_id":"ce4bhg92rcd13ifvqf90","pricing_plan_id":"cebpf4jnsgd1na2vs0mg"},{"bike_id":"acb6c310-64e8-4ffb-9d0e-3645b38213aa","system_id":"levelo_inurba_marseille","lat":43.22567,"lon":5.41619,"is_reserved":false,"is_disabled":false,"rental_uris":{"android":"levelo://app?vid=acb6c310-64e8-4ffb-9d0e-3645b38213aa","ios":"levelo://app?vid=acb6c310-64e8-4ffb-9d0e-3645b38213aa"},"vehicle_type_id":"4","last_reported":1784843719,"current_range_meters":39200,"station_id":"st_d2o4gvlbi1j2169b742g","pricing_plan_id":"cebpf4jnsgd1na2vs0mg"},{"bike_id":"0e97a849-8bef-4378-a7a5-ec9b5e0efc32","system_id":"levelo_inurba_marseille","lat":43.284821,"lon":5.385684,"is_reserved":false,"is_disabled":true,"rental_uris":{"android":"levelo://app?vid=0e97a849-8bef-4378-a7a5-ec9b5e0efc32","ios":"levelo://app?vid=0e97a849-8bef-4378-a7a5-ec9b5e0efc32"},"vehicle_type_id":"4","last_reported":1784843719,"current_range_meters":1600,"station_id":"ce4bh8p2rcd13ifvqeb0","pricing_plan_id":"cebpf4jnsgd1na2vs0mg"},{"bike_id":"9ee7f49e-e66a-4581-b0ca-bd08a3861bb9","system_id":"levelo_inurba_marseille","lat":43.24815,"lon":5.37464,"is_reserved":false,"is_disabled":false,"rental_uris":{"android":"levelo://app?vid=9ee7f49e-e66a-4581-b0ca-bd08a3861bb9","ios":"levelo://app?vid=9ee7f49e-e66a-4581-b0ca-bd08a3861bb9"},"vehicle_type_id":"4","last_reported":1784843719,"current_range_meters":36000,"station_id":"ce4bhgh2rcd13ifvqfb0","pricing_plan_id":"cebpf4jnsgd1na2vs0mg"},{"bike_id":"2b2d5806-a98a-4b6d-8666-219c96826a65","system_id":"levelo_inurba_marseille","lat":43.33009,"lon":5.39045,"is_reserved":false,"is_disabled":false,"rental_uris":{"android":"levelo://app?vid=2b2d5806-a98a-4b6d-8666-219c96826a65","ios":"levelo://app?vid=2b2d5806-a98a-4b6d-8666-219c96826a65"},"vehicle_type_id":"4","last_reported":1784843719,"current_range_meters":4400,"station_id":"ce4bhr92rcd13ifvqhrg","pricing_plan_id":"cebpf4jnsgd1na2vs0mg"},{"bike_id":"9d4b8430-c687-4ce9-b117-2b375d0afc9f","system_id":"levelo_inurba_marseille","lat":43.23135,"lon":5.43701,"is_reserved":false,"is_disabled":false,"rental_uris":{"android":"levelo://app?vid=9d4b8430-c687-4ce9-b117-2b375d0afc9f","ios":"levelo://app?vid=9d4b8430-c687-4ce9-b117-2b375d0afc9f"},"vehicle_type_id":"4","last_reported":1784843719,"current_range_meters":30000,"station_id":"ce4bhmp2rcd13ifvqgog","pricing_plan_id":"cebpf4jnsgd1na2vs0mg"},{"bike_id":"0b14959d-4942-47a4-bfe0-afc01c1e0d20","system_id":"levelo_inurba_marseille","lat":43.28936,"lon":5.36401,"is_reserved":false,"is_disabled":false,"rental_uris":{"android":"levelo://app?vid=0b14959d-4942-47a4-bfe0-afc01c1e0d20","ios":"levelo://app?vid=0b14959d-4942-47a4-bfe0-afc01c1e0d20"},"vehicle_type_id":"4","last_reported":1784843719,"current_range_meters":8400,"station_id":"ce4bhc92rcd13ifvqetg","pricing_plan_id":"cebpf4jnsgd1na2vs0mg"},{"bike_id":"09450a3b-582d-494d-adec-1b8eb279133b","system_id":"levelo_inurba_marseille","lat":43.30325,"lon":5.40444,"is_reserved":false,"is_disabled":false,"rental_uris":{"android":"levelo://app?vid=09450a3b-582d-494d-adec-1b8eb279133b","ios":"levelo://app?vid=09450a3b-582d-494d-adec-1b8eb279133b"},"vehicle_type_id":"4","last_reported":1784843719,"current_range_meters":38400,"station_id":"ce4bh012rcd13ifvqd10","pricing_plan_id":"cebpf4jnsgd1na2vs0mg"},{"bike_id":"79ef4875-f70d-4e1e-a5ff-e61a813967d7","system_id":"levelo_inurba_marseille","lat":43.29556,"lon":5.37488,"is_reserved":false,"is_disabled":false,"rental_uris":{"android":"levelo://app?vid=79ef4875-f70d-4e1e-a5ff-e61a813967d7","ios":"levelo://app?vid=79ef4875-f70d-4e1e-a5ff-e61a813967d7"},"vehicle_type_id":"4","last_reported":1784843719,"current_range_meters":36800,"station_id":"ce4bgkp2rcd13ifvqbmg","pricing_plan_id":"cebpf4jnsgd1na2vs0mg"},{"bike_id":"3f2bdf31-c203-4712-8db4-3dc592b3612b","system_id":"levelo_inurba_marseille","lat":43.25583,"lon":5.38237,"is_reserved":false,"is_disabled":false,"rental_uris":{"android":"levelo://app?vid=3f2bdf31-c203-4712-8db4-3dc592b3612b","ios":"levelo://app?vid=3f2bdf31-c203-4712-8db4-3dc592b3612b"},"vehicle_type_id":"4","last_reported":1784843719,"current_range_meters":7200,"station_id":"ce4bhih2rcd13ifvqfs0","pricing_plan_id":"cebpf4jnsgd1na2vs0mg"},{"bike_id":"1e40957b-7bce-4bf2-bcc8-7f9738a2c21c","system_id":"levelo_inurba_marseille","lat":43.29624,"lon":5.37175,"is_reserved":false,"is_disabled":false,"rental_uris":{"android":"levelo://app?vid=1e40957b-7bce-4bf2-bcc8-7f9738a2c21c","ios":"levelo://app?vid=1e40957b-7bce-4bf2-bcc8-7f9738a2c21c"},"vehicle_type_id":"4","last_reported":1784843719,"current_range_meters":3600,"station_id":"","pricing_plan_id":"cebpf4jnsgd1na2vs0mg"},{"bike_id":"429123e4-dc43-429b-abc2-42a83c22e46e","system_id":"levelo_inurba_marseille","lat":43.23229,"lon":5.35534,"is_reserved":false,"is_disabled":false,"rental_uris":{"android":"levelo://app?vid=429123e4-dc43-429b-abc2-42a83c22e46e","ios":"levelo://app?vid=429123e4-dc43-429b-abc2-42a83c22e46e"},"vehicle_type_id":"4","last_reported":1784843719,"current_range_meters":29600,"station_id":"ce4bhu92rcd13ifvqi70","pricing_plan_id":"cebpf4jnsgd1na2vs0mg"},{"bike_id":"813bb6ea-0337-41d3-ac6c-2e2afb78facf","system_id":"levelo_inurba_marseille","lat":43.29433,"lon":5.39746,"is_reserved":false,"is_disabled":false,"rental_uris":{"android":"levelo://app?vid=813bb6ea-0337-41d3-ac6c-2e2afb78facf","ios":"levelo://app?vid=813bb6ea-0337-41d3-ac6c-2e2afb78facf"},"vehicle_type_id":"4","last_reported":1784843719,"current_range_meters":30400,"station_id":"ce4bh3h2rcd13ifvqdo0","pricing_plan_id":"cebpf4jnsgd1na2vs0mg"},{"bike_id":"a9500356-c19d-415e-81ed-a8d1baa0c959","system_id":"levelo_inurba_marseille","lat":43.30138,"lon":5.38779,"is_reserved":false,"is_disabled":true,"rental_uris":{"android":"levelo://app?vid=a9500356-c19d-415e-81ed-a8d1baa0c959","ios":"levelo://app?vid=a9500356-c19d-415e-81ed-a8d1baa0c959"},"vehicle_type_id":"4","last_reported":1784843719,"current_range_meters":25200,"station_id":"ce4bghh2rcd13ifvqb60","pricing_plan_id":"cebpf4jnsgd1na2vs0mg"},{"bike_id":"780d70f3-95c4-44fa-ba2a-f31e2ebd1bf6","system_id":"levelo_inurba_marseille","lat":43.29975,"lon":5.38476,"is_reserved":false,"is_disabled":true,"rental_uris":{"android":"levelo://app?vid=780d70f3-95c4-44fa-ba2a-f31e2ebd1bf6","ios":"levelo://app?vid=780d70f3-95c4-44fa-ba2a-f31e2ebd1bf6"},"vehicle_type_id":"4","last_reported":1784843719,"current_range_meters":28000,"station_id":"ce4bgj92rcd13ifvqbd0","pricing_plan_id":"cebpf4jnsgd1na2vs0mg"},{"bike_id":"bace381c-6258-4d80-80f1-070c343af026","system_id":"levelo_inurba_marseille","lat":43.33163,"lon":5.3769,"is_reserved":false,"is_disabled":false,"rental_uris":{"android":"levelo://app?vid=bace381c-6258-4d80-80f1-070c343af026","ios":"levelo://app?vid=bace381c-6258-4d80-80f1-070c343af026"},"vehicle_type_id":"4","last_reported":1784843719,"current_range_meters":4800,"station_id":"st_d46cu089ee8s73dldbu0","pricing_plan_id":"cebpf4jnsgd1na2vs0mg"},{"bike_id":"7369c976-3c3b-40fa-a52b-30f587df3271","system_id":"levelo_inurba_marseille","lat":43.33718,"lon":5.39185,"is_reserved":false,"is_disabled":false,"rental_uris":{"android":"levelo://app?vid=7369c976-3c3b-40fa-a52b-30f587df3271","ios":"levelo://app?vid=7369c976-3c3b-40fa-a52b-30f587df3271"},"vehicle_type_id":"4","last_reported":1784843719,"current_range_meters":35600,"station_id":"ce4bhr92rcd13ifvqhsg","pricing_plan_id":"cebpf4jnsgd1na2vs0mg"},{"bike_id":"425c4052-1b4e-400c-a498-16a56ad2fcad","system_id":"levelo_inurba_marseille","lat":43.287377,"lon":5.361139,"is_reserved":false,"is_disabled":false,"rental_uris":{"android":"levelo://app?vid=425c4052-1b4e-400c-a498-16a56ad2fcad","ios":"levelo://app?vid=425c4052-1b4e-400c-a498-16a56ad2fcad"},"vehicle_type_id":"4","last_reported":1784843719,"current_range_meters":23200,"station_id":"","pricing_plan_id":"cebpf4jnsgd1na2vs0mg"},{"bike_id":"e17069a6-fce1-4c12-9a52-0066b5a0a5db","system_id":"levelo_inurba_marseille","lat":43.30255,"lon":5.40072,"is_reserved":false,"is_disabled":false,"rental_uris":{"android":"levelo://app?vid=e17069a6-fce1-4c12-9a52-0066b5a0a5db","ios":"levelo://app?vid=e17069a6-fce1-4c12-9a52-0066b5a0a5db"},"vehicle_type_id":"4","last_reported":1784843719,"current_range_meters":36800,"station_id":"ce4bgvh2rcd13ifvqcs0","pricing_plan_id":"cebpf4jnsgd1na2vs0mg"},{"bike_id":"e9e543b0-8ca5-47a6-998c-4902ea53cdd4","system_id":"levelo_inurba_marseille","lat":43.25178,"lon":5.37318,"is_reserved":false,"is_disabled":true,"rental_uris":{"android":"levelo://app?vid=e9e543b0-8ca5-47a6-998c-4902ea53cdd4","ios":"levelo://app?vid=e9e543b0-8ca5-47a6-998c-4902ea53cdd4"},"vehicle_type_id":"4","last_reported":1784843719,"current_range_meters":8000,"station_id":"","pricing_plan_id":"cebpf4jnsgd1na2vs0mg"},{"bike_id":"b98785ca-6996-4560-b3bf-7ae0e3b1f17f","system_id":"levelo_inurba_marseille","lat":43.23171,"lon":5.43707,"is_reserved":false,"is_disabled":false,"rental_uris":{"android":"levelo://app?vid=b98785ca-6996-4560-b3bf-7ae0e3b1f17f","ios":"levelo://app?vid=b98785ca-6996-4560-b3bf-7ae0e3b1f17f"},"vehicle_type_id":"4","last_reported":1784843719,"current_range_meters":39200,"station_id":"ce4bhmp2rcd13ifvqgog","pricing_plan_id":"cebpf4jnsgd1na2vs0mg"},{"bike_id":"2b7d3586-d06d-4c0f-a3a2-652f9ec8e3ae","system_id":"levelo_inurba_marseille","lat":43.24815,"lon":5.37465,"is_reserved":false,"is_disabled":false,"rental_uris":{"android":"levelo://app?vid=2b7d3586-d06d-4c0f-a3a2-652f9ec8e3ae","ios":"levelo://app?vid=2b7d3586-d06d-4c0f-a3a2-652f9ec8e3ae"},"vehicle_type_id":"4","last_reported":1784843719,"current_range_meters":36000,"station_id":"ce4bhgh2rcd13ifvqfb0","pricing_plan_id":"cebpf4jnsgd1na2vs0mg"},{"bike_id":"fe2fcfcf-3ba9-4b4c-b1c1-9378323cfb57","system_id":"levelo_inurba_marseille","lat":43.263162,"lon":5.378251,"is_reserved":false,"is_disabled":false,"rental_uris":{"android":"levelo://app?vid=fe2fcfcf-3ba9-4b4c-b1c1-9378323cfb57","ios":"levelo://app?vid=fe2fcfcf-3ba9-4b4c-b1c1-9378323cfb57"},"vehicle_type_id":"4","last_reported":1784843719,"current_range_meters":7200,"station_id":"","pricing_plan_id":"cebpf4jnsgd1na2vs0mg"},{"bike_id":"07381100-2a43-412d-8493-6e36d0198e03","system_id":"levelo_inurba_marseille","lat":43.3,"lon":5.38492,"is_reserved":false,"is_disabled":true,"rental_uris":{"android":"levelo://app?vid=07381100-2a43-412d-8493-6e36d0198e03","ios":"levelo://app?vid=07381100-2a43-412d-8493-6e36d0198e03"},"vehicle_type_id":"4","last_reported":1784843719,"current_range_meters":9600,"station_id":"ce4bgj92rcd13ifvqbd0","pricing_plan_id":"cebpf4jnsgd1na2vs0mg"},{"bike_id":"693c14b8-dea8-4bd6-9209-8f095362b343","system_id":"levelo_inurba_marseille","lat":43.25879,"lon":5.40447,"is_reserved":false,"is_disabled":false,"rental_uris":{"android":"levelo://app?vid=693c14b8-dea8-4bd6-9209-8f095362b343","ios":"levelo://app?vid=693c14b8-dea8-4bd6-9209-8f095362b343"},"vehicle_type_id":"4","last_reported":1784843719,"current_range_meters":25600,"station_id":"","pricing_plan_id":"cebpf4jnsgd1na2vs0mg"},{"bike_id":"c5d78f03-cc00-4f90-8af4-e7629e1156bf","system_id":"levelo_inurba_marseille","lat":43.30133,"lon":5.38776,"is_reserved":false,"is_disabled":false,"rental_uris":{"android":"levelo://app?vid=c5d78f03-cc00-4f90-8af4-e7629e1156bf","ios":"levelo://app?vid=c5d78f03-cc00-4f90-8af4-e7629e1156bf"},"vehicle_type_id":"4","last_reported":1784843719,"current_range_meters":6800,"station_id":"ce4bghh2rcd13ifvqb60","pricing_plan_id":"cebpf4jnsgd1na2vs0mg"},{"bike_id":"a6e39fb0-f2e5-41d8-b4aa-b3071fa9ec56","system_id":"levelo_inurba_marseille","lat":43.23094,"lon":5.43748,"is_reserved":false,"is_disabled":false,"rental_uris":{"android":"levelo://app?vid=a6e39fb0-f2e5-41d8-b4aa-b3071fa9ec56","ios":"levelo://app?vid=a6e39fb0-f2e5-41d8-b4aa-b3071fa9ec56"},"vehicle_type_id":"4","last_reported":1784843719,"current_range_meters":21600,"station_id":"","pricing_plan_id":"cebpf4jnsgd1na2vs0mg"},{"bike_id":"a2c9fd6e-925c-4795-ba3f-b9c641931695","system_id":"levelo_inurba_marseille","lat":43.31415,"lon":5.37358,"is_reserved":false,"is_disabled":true,"rental_uris":{"android":"levelo://app?vid=a2c9fd6e-925c-4795-ba3f-b9c641931695","ios":"levelo://app?vid=a2c9fd6e-925c-4795-ba3f-b9c641931695"},"vehicle_type_id":"4","last_reported":1784843719,"current_range_meters":38800,"station_id":"","pricing_plan_id":"cebpf4jnsgd1na2vs0mg"},{"bike_id":"d15acef8-1bae-4a6d-a8d1-43e11b8ea147","system_id":"levelo_inurba_marseille","lat":43.29024,"lon":5.35696,"is_reserved":false,"is_disabled":true,"rental_uris":{"android":"levelo://app?vid=d15acef8-1bae-4a6d-a8d1-43e11b8ea147","ios":"levelo://app?vid=d15acef8-1bae-4a6d-a8d1-43e11b8ea147"},"vehicle_type_id":"4","last_reported":1784843719,"current_range_meters":28800,"station_id":"","pricing_plan_id":"cebpf4jnsgd1na2vs0mg"},{"bike_id":"52ca3962-268d-4ff7-b4f6-ba502b6ccf14","system_id":"levelo_inurba_marseille","lat":43.29574,"lon":5.37501,"is_reserved":false,"is_disabled":false,"rental_uris":{"android":"levelo://app?vid=52ca3962-268d-4ff7-b4f6-ba502b6ccf14","ios":"levelo://app?vid=52ca3962-268d-4ff7-b4f6-ba502b6ccf14"},"vehicle_type_id":"4","last_reported":1784843719,"current_range_meters":36400,"station_id":"ce4bgh92rcd13ifvqb50","pricing_plan_id":"cebpf4jnsgd1na2vs0mg"},{"bike_id":"7b7c350c-7fa0-4260-b6c2-812c00fe7727","system_id":"levelo_inurba_marseille","lat":43.32047,"lon":5.36807,"is_reserved":false,"is_disabled":false,"rental_uris":{"android":"levelo://app?vid=7b7c350c-7fa0-4260-b6c2-812c00fe7727","ios":"levelo://app?vid=7b7c350c-7fa0-4260-b6c2-812c00fe7727"},"vehicle_type_id":"4","last_reported":1784843719,"current_range_meters":24000,"station_id":"","pricing_plan_id":"cebpf4jnsgd1na2vs0mg"},{"bike_id":"002b6de9-4906-4900-bd53-a26437451aab","system_id":"levelo_inurba_marseille","lat":43.33258,"lon":5.35889,"is_reserved":false,"is_disabled":false,"rental_uris":{"android":"levelo://app?vid=002b6de9-4906-4900-bd53-a26437451aab","ios":"levelo://app?vid=002b6de9-4906-4900-bd53-a26437451aab"},"vehicle_type_id":"4","last_reported":1784843719,"current_range_meters":9200,"station_id":"","pricing_plan_id":"cebpf4jnsgd1na2vs0mg"},{"bike_id":"94f1b0ad-aaa9-4b51-806c-9eae39355e9b","system_id":"levelo_inurba_marseille","lat":43.27387,"lon":5.36251,"is_reserved":false,"is_disabled":false,"rental_uris":{"android":"levelo://app?vid=94f1b0ad-aaa9-4b51-806c-9eae39355e9b","ios":"levelo://app?vid=94f1b0ad-aaa9-4b51-806c-9eae39355e9b"},"vehicle_type_id":"4","last_reported":1784843719,"current_range_meters":38800,"station_id":"ce4bhbh2rcd13ifvqeo0","pricing_plan_id":"cebpf4jnsgd1na2vs0mg"},{"bike_id":"ef59dbb7-3d39-4e5b-85d6-ca899a34e7dc","system_id":"levelo_inurba_marseille","lat":43.27054,"lon":5.42312,"is_reserved":false,"is_disabled":false,"rental_uris":{"android":"levelo://app?vid=ef59dbb7-3d39-4e5b-85d6-ca899a34e7dc","ios":"levelo://app?vid=ef59dbb7-3d39-4e5b-85d6-ca899a34e7dc"},"vehicle_type_id":"4","last_reported":1784843719,"current_range_meters":38400,"station_id":"ce4bhk92rcd13ifvqgb0","pricing_plan_id":"cebpf4jnsgd1na2vs0mg"},{"bike_id":"70fe30d0-a03f-44d1-aeb0-b59aeedc6b66","system_id":"levelo_inurba_marseille","lat":43.29602,"lon":5.38106,"is_reserved":false,"is_disabled":false,"rental_uris":{"android":"levelo://app?vid=70fe30d0-a03f-44d1-aeb0-b59aeedc6b66","ios":"levelo://app?vid=70fe30d0-a03f-44d1-aeb0-b59aeedc6b66"},"vehicle_type_id":"4","last_reported":1784843719,"current_range_meters":24800,"station_id":"ce4bgl12rcd13ifvqbo0","pricing_plan_id":"cebpf4jnsgd1na2vs0mg"},{"bike_id":"0706f79a-b938-4dbf-90f3-9182e12538c7","system_id":"levelo_inurba_marseille","lat":43.25092,"lon":5.39508,"is_reserved":false,"is_disabled":false,"rental_uris":{"android":"levelo://app?vid=0706f79a-b938-4dbf-90f3-9182e12538c7","ios":"levelo://app?vid=0706f79a-b938-4dbf-90f3-9182e12538c7"},"vehicle_type_id":"4","last_reported":1784843719,"current_range_meters":39200,"station_id":"ce4bhm12rcd13ifvqgkg","pricing_plan_id":"cebpf4jnsgd1na2vs0mg"},{"bike_id":"bd8b3369-74a8-4511-bee7-721b894466b2","system_id":"levelo_inurba_marseille","lat":43.23783,"lon":5.36618,"is_reserved":false,"is_disabled":false,"rental_uris":{"android":"levelo://app?vid=bd8b3369-74a8-4511-bee7-721b894466b2","ios":"levelo://app?vid=bd8b3369-74a8-4511-bee7-721b894466b2"},"vehicle_type_id":"4","last_reported":1784843719,"current_range_meters":35600,"station_id":"st_d3nk18o9ro0c73en2l3g","pricing_plan_id":"cebpf4jnsgd1na2vs0mg"},{"bike_id":"0c03ba80-f3b9-4903-ba69-c647e5633719","system_id":"levelo_inurba_marseille","lat":43.29525,"lon":5.39403,"is_reserved":false,"is_disabled":false,"rental_uris":{"android":"levelo://app?vid=0c03ba80-f3b9-4903-ba69-c647e5633719","ios":"levelo://app?vid=0c03ba80-f3b9-4903-ba69-c647e5633719"},"vehicle_type_id":"4","last_reported":1784843719,"current_range_meters":35600,"station_id":"ce4bh292rcd13ifvqdf0","pricing_plan_id":"cebpf4jnsgd1na2vs0mg"},{"bike_id":"22e66e8b-f008-4d04-b17c-751d019a7a36","system_id":"levelo_inurba_marseille","lat":43.29829,"lon":5.44071,"is_reserved":false,"is_disabled":false,"rental_uris":{"android":"levelo://app?vid=22e66e8b-f008-4d04-b17c-751d019a7a36","ios":"levelo://app?vid=22e66e8b-f008-4d04-b17c-751d019a7a36"},"vehicle_type_id":"4","last_reported":1784843719,"current_range_meters":36400,"station_id":"st_d3jp68qikq2c7381ktn0","pricing_plan_id":"cebpf4jnsgd1na2vs0mg"},{"bike_id":"1981d3ef-d7ae-460e-a247-e2f1120f8322","system_id":"levelo_inurba_marseille","lat":43.24581,"lon":5.41903,"is_reserved":false,"is_disabled":false,"rental_uris":{"android":"levelo://app?vid=1981d3ef-d7ae-460e-a247-e2f1120f8322","ios":"levelo://app?vid=1981d3ef-d7ae-460e-a247-e2f1120f8322"},"vehicle_type_id":"4","last_reported":1784843719,"current_range_meters":12000,"station_id":"","pricing_plan_id":"cebpf4jnsgd1na2vs0mg"},{"bike_id":"4bfe087d-ab1b-4645-bfd7-cfd146dc7cc8","system_id":"levelo_inurba_marseille","lat":43.29706,"lon":5.36584,"is_reserved":false,"is_disabled":false,"rental_uris":{"android":"levelo://app?vid=4bfe087d-ab1b-4645-bfd7-cfd146dc7cc8","ios":"levelo://app?vid=4bfe087d-ab1b-4645-bfd7-cfd146dc7cc8"},"vehicle_type_id":"4","last_reported":1784843719,"current_range_meters":37600,"station_id":"ce4bgn12rcd13ifvqbt0","pricing_plan_id":"cebpf4jnsgd1na2vs0mg"},{"bike_id":"bbb6d84d-52b2-4523-b78b-60cb354411ef","system_id":"levelo_inurba_marseille","lat":43.32116,"lon":5.36777,"is_reserved":false,"is_disabled":false,"rental_uris":{"android":"levelo://app?vid=bbb6d84d-52b2-4523-b78b-60cb354411ef","ios":"levelo://app?vid=bbb6d84d-52b2-4523-b78b-60cb354411ef"},"vehicle_type_id":"4","last_reported":1784843719,"current_range_meters":31200,"station_id":"ce4bhrh2rcd13ifvqhug","pricing_plan_id":"cebpf4jnsgd1na2vs0mg"},{"bike_id":"29ceb8b2-5bfb-4cd9-9528-465b5fe300ce","system_id":"levelo_inurba_marseille","lat":43.27919,"lon":5.39574,"is_reserved":false,"is_disabled":false,"rental_uris":{"android":"levelo://app?vid=29ceb8b2-5bfb-4cd9-9528-465b5fe300ce","ios":"levelo://app?vid=29ceb8b2-5bfb-4cd9-9528-465b5fe300ce"},"vehicle_type_id":"4","last_reported":1784843719,"current_range_meters":4800,"station_id":"ce4bhf92rcd13ifvqf40","pricing_plan_id":"cebpf4jnsgd1na2vs0mg"},{"bike_id":"0fb69e68-2442-4daa-851f-442099ce438b","system_id":"levelo_inurba_marseille","lat":43.30201,"lon":5.40174,"is_reserved":false,"is_disabled":false,"rental_uris":{"android":"levelo://app?vid=0fb69e68-2442-4daa-851f-442099ce438b","ios":"levelo://app?vid=0fb69e68-2442-4daa-851f-442099ce438b"},"vehicle_type_id":"4","last_reported":1784843719,"current_range_meters":3600,"station_id":"","pricing_plan_id":"cebpf4jnsgd1na2vs0mg"},{"bike_id":"7c215944-6de0-44b9-b267-ecfcdb73eb11","system_id":"levelo_inurba_marseille","lat":43.27816,"lon":5.40714,"is_reserved":false,"is_disabled":true,"rental_uris":{"android":"levelo://app?vid=7c215944-6de0-44b9-b267-ecfcdb73eb11","ios":"levelo://app?vid=7c215944-6de0-44b9-b267-ecfcdb73eb11"},"vehicle_type_id":"4","last_reported":1784843719,"current_range_meters":38000,"station_id":"ce4bhnh2rcd13ifvqgtg","pricing_plan_id":"cebpf4jnsgd1na2vs0mg"},{"bike_id":"a9863fcb-8ca0-4220-b083-cb27e96475fe","system_id":"levelo_inurba_marseille","lat":43.2323,"lon":5.35528,"is_reserved":false,"is_disabled":false,"rental_uris":{"android":"levelo://app?vid=a9863fcb-8ca0-4220-b083-cb27e96475fe","ios":"levelo://app?vid=a9863fcb-8ca0-4220-b083-cb27e96475fe"},"vehicle_type_id":"4","last_reported":1784843719,"current_range_meters":38800,"station_id":"ce4bhu92rcd13ifvqi70","pricing_plan_id":"cebpf4jnsgd1na2vs0mg"},{"bike_id":"ded3b29b-0517-489c-a10d-8b949bc6e37f","system_id":"levelo_inurba_marseille","lat":43.33788,"lon":5.37461,"is_reserved":false,"is_disabled":false,"rental_uris":{"android":"levelo://app?vid=ded3b29b-0517-489c-a10d-8b949bc6e37f","ios":"levelo://app?vid=ded3b29b-0517-489c-a10d-8b949bc6e37f"},"vehicle_type_id":"4","last_reported":1784843719,"current_range_meters":27200,"station_id":"","pricing_plan_id":"cebpf4jnsgd1na2vs0mg"},{"bike_id":"d62403aa-894f-4ce8-ad6f-b14c65d86282","system_id":"levelo_inurba_marseille","lat":43.24839,"lon":5.37419,"is_reserved":false,"is_disabled":false,"rental_uris":{"android":"levelo://app?vid=d62403aa-894f-4ce8-ad6f-b14c65d86282","ios":"levelo://app?vid=d62403aa-894f-4ce8-ad6f-b14c65d86282"},"vehicle_type_id":"4","last_reported":1784843719,"current_range_meters":6000,"station_id":"","pricing_plan_id":"cebpf4jnsgd1na2vs0mg"},{"bike_id":"6beb94b0-4283-4f7d-810d-b229619bc024","system_id":"levelo_inurba_marseille","lat":43.229591,"lon":5.444884,"is_reserved":false,"is_disabled":false,"rental_uris":{"android":"levelo://app?vid=6beb94b0-4283-4f7d-810d-b229619bc024","ios":"levelo://app?vid=6beb94b0-4283-4f7d-810d-b229619bc024"},"vehicle_type_id":"4","last_reported":1784843719,"current_range_meters":19200,"station_id":"","pricing_plan_id":"cebpf4jnsgd1na2vs0mg"},{"bike_id":"a186e70d-a4a4-41f5-b833-bf3a335e787b","system_id":"levelo_inurba_marseille","lat":43.24818,"lon":5.37454,"is_reserved":false,"is_disabled":false,"rental_uris":{"android":"levelo://app?vid=a186e70d-a4a4-41f5-b833-bf3a335e787b","ios":"levelo://app?vid=a186e70d-a4a4-41f5-b833-bf3a335e787b"},"vehicle_type_id":"4","last_reported":1784843719,"current_range_meters":39200,"station_id":"ce4bhgh2rcd13ifvqfb0","pricing_plan_id":"cebpf4jnsgd1na2vs0mg"},{"bike_id":"d738fe06-aba3-4b06-b504-21fa49adad27","system_id":"levelo_inurba_marseille","lat":43.32535,"lon":5.414385,"is_reserved":false,"is_disabled":false,"rental_uris":{"android":"levelo://app?vid=d738fe06-aba3-4b06-b504-21fa49adad27","ios":"levelo://app?vid=d738fe06-aba3-4b06-b504-21fa49adad27"},"vehicle_type_id":"4","last_reported":1784843719,"current_range_meters":18000,"station_id":"ce4bhq12rcd13ifvqhhg","pricing_plan_id":"cebpf4jnsgd1na2vs0mg"},{"bike_id":"25d63c03-240b-4596-9842-ae7363543101","system_id":"levelo_inurba_marseille","lat":43.33159,"lon":5.37684,"is_reserved":false,"is_disabled":false,"rental_uris":{"android":"levelo://app?vid=25d63c03-240b-4596-9842-ae7363543101","ios":"levelo://app?vid=25d63c03-240b-4596-9842-ae7363543101"},"vehicle_type_id":"4","last_reported":1784843719,"current_range_meters":36400,"station_id":"st_d46cu089ee8s73dldbu0","pricing_plan_id":"cebpf4jnsgd1na2vs0mg"},{"bike_id":"d5ce1f70-45dd-47d5-a2a4-e8a19c2ad395","system_id":"levelo_inurba_marseille","lat":43.23785,"lon":5.36634,"is_reserved":false,"is_disabled":false,"rental_uris":{"android":"levelo://app?vid=d5ce1f70-45dd-47d5-a2a4-e8a19c2ad395","ios":"levelo://app?vid=d5ce1f70-45dd-47d5-a2a4-e8a19c2ad395"},"vehicle_type_id":"4","last_reported":1784843719,"current_range_meters":39200,"station_id":"st_d3nk18o9ro0c73en2l3g","pricing_plan_id":"cebpf4jnsgd1na2vs0mg"},{"bike_id":"2227fe95-0a72-4ced-9f02-31d32846fb4e","system_id":"levelo_inurba_marseille","lat":43.25066,"lon":5.39577,"is_reserved":false,"is_disabled":false,"rental_uris":{"android":"levelo://app?vid=2227fe95-0a72-4ced-9f02-31d32846fb4e","ios":"levelo://app?vid=2227fe95-0a72-4ced-9f02-31d32846fb4e"},"vehicle_type_id":"4","last_reported":1784843719,"current_range_meters":38400,"station_id":"","pricing_plan_id":"cebpf4jnsgd1na2vs0mg"},{"bike_id":"f8d90c4e-4908-4f03-845e-3c10c53cb1f4","system_id":"levelo_inurba_marseille","lat":43.30052,"lon":5.40943,"is_reserved":false,"is_disabled":false,"rental_uris":{"android":"levelo://app?vid=f8d90c4e-4908-4f03-845e-3c10c53cb1f4","ios":"levelo://app?vid=f8d90c4e-4908-4f03-845e-3c10c53cb1f4"},"vehicle_type_id":"4","last_reported":1784843719,"current_range_meters":16800,"station_id":"","pricing_plan_id":"cebpf4jnsgd1na2vs0mg"},{"bike_id":"bcdd9650-d076-40ee-b90f-d89a58ee81d3","system_id":"levelo_inurba_marseille","lat":43.3026,"lon":5.40095,"is_reserved":false,"is_disabled":false,"rental_uris":{"android":"levelo://app?vid=bcdd9650-d076-40ee-b90f-d89a58ee81d3","ios":"levelo://app?vid=bcdd9650-d076-40ee-b90f-d89a58ee81d3"},"vehicle_type_id":"4","last_reported":1784843719,"current_range_meters":39200,"station_id":"ce4bgvh2rcd13ifvqcs0","pricing_plan_id":"cebpf4jnsgd1na2vs0mg"},{"bike_id":"be033826-0277-47d3-8616-60204f4d4984","system_id":"levelo_inurba_marseille","lat":43.30245,"lon":5.40075,"is_reserved":false,"is_disabled":false,"rental_uris":{"android":"levelo://app?vid=be033826-0277-47d3-8616-60204f4d4984","ios":"levelo://app?vid=be033826-0277-47d3-8616-60204f4d4984"},"vehicle_type_id":"4","last_reported":1784843719,"current_range_meters":17200,"station_id":"ce4bgvh2rcd13ifvqcs0","pricing_plan_id":"cebpf4jnsgd1na2vs0mg"},{"bike_id":"ccdbdcfb-5afc-430f-a3f0-c6479bc6a9ba","system_id":"levelo_inurba_marseille","lat":43.29534,"lon":5.39403,"is_reserved":false,"is_disabled":true,"rental_uris":{"android":"levelo://app?vid=ccdbdcfb-5afc-430f-a3f0-c6479bc6a9ba","ios":"levelo://app?vid=ccdbdcfb-5afc-430f-a3f0-c6479bc6a9ba"},"vehicle_type_id":"4","last_reported":1784843719,"current_range_meters":0,"station_id":"ce4bh292rcd13ifvqdf0","pricing_plan_id":"cebpf4jnsgd1na2vs0mg"},{"bike_id":"27e1e4c5-a07c-4ba9-9e46-007cc925fb39","system_id":"levelo_inurba_marseille","lat":43.2546,"lon":5.41616,"is_reserved":false,"is_disabled":false,"rental_uris":{"android":"levelo://app?vid=27e1e4c5-a07c-4ba9-9e46-007cc925fb39","ios":"levelo://app?vid=27e1e4c5-a07c-4ba9-9e46-007cc925fb39"},"vehicle_type_id":"4","last_reported":1784843719,"current_range_meters":6400,"station_id":"","pricing_plan_id":"cebpf4jnsgd1na2vs0mg"},{"bike_id":"edf62b16-4006-4c81-9c57-20873a175b5a","system_id":"levelo_inurba_marseille","lat":43.25575,"lon":5.38239,"is_reserved":false,"is_disabled":false,"rental_uris":{"android":"levelo://app?vid=edf62b16-4006-4c81-9c57-20873a175b5a","ios":"levelo://app?vid=edf62b16-4006-4c81-9c57-20873a175b5a"},"vehicle_type_id":"4","last_reported":1784843719,"current_range_meters":34000,"station_id":"ce4bhih2rcd13ifvqfs0","pricing_plan_id":"cebpf4jnsgd1na2vs0mg"},{"bike_id":"033eab5e-4885-4e3e-a926-9530624df4e6","system_id":"levelo_inurba_marseille","lat":43.29306,"lon":5.37429,"is_reserved":false,"is_disabled":false,"rental_uris":{"android":"levelo://app?vid=033eab5e-4885-4e3e-a926-9530624df4e6","ios":"levelo://app?vid=033eab5e-4885-4e3e-a926-9530624df4e6"},"vehicle_type_id":"4","last_reported":1784843719,"current_range_meters":9200,"station_id":"ce4bgi12rcd13ifvqb70","pricing_plan_id":"cebpf4jnsgd1na2vs0mg"},{"bike_id":"cd288035-eddb-4f42-a73e-3fa03a084ed5","system_id":"levelo_inurba_marseille","lat":43.265732,"lon":5.390492,"is_reserved":false,"is_disabled":true,"rental_uris":{"android":"levelo://app?vid=cd288035-eddb-4f42-a73e-3fa03a084ed5","ios":"levelo://app?vid=cd288035-eddb-4f42-a73e-3fa03a084ed5"},"vehicle_type_id":"4","last_reported":1784843719,"current_range_meters":32400,"station_id":"cpo3532slgdg3j2ikp40","pricing_plan_id":"cebpf4jnsgd1na2vs0mg"},{"bike_id":"318129b4-c7a7-4d62-8daa-bf96cab18e20","system_id":"levelo_inurba_marseille","lat":43.28425,"lon":5.34985,"is_reserved":false,"is_disabled":true,"rental_uris":{"android":"levelo://app?vid=318129b4-c7a7-4d62-8daa-bf96cab18e20","ios":"levelo://app?vid=318129b4-c7a7-4d62-8daa-bf96cab18e20"},"vehicle_type_id":"4","last_reported":1784843719,"current_range_meters":19200,"station_id":"ce4bhbh2rcd13ifvqepg","pricing_plan_id":"cebpf4jnsgd1na2vs0mg"},{"bike_id":"a1865ed6-8512-48e0-a396-750b705f9480","system_id":"levelo_inurba_marseille","lat":43.2993,"lon":5.37459,"is_reserved":false,"is_disabled":false,"rental_uris":{"android":"levelo://app?vid=a1865ed6-8512-48e0-a396-750b705f9480","ios":"levelo://app?vid=a1865ed6-8512-48e0-a396-750b705f9480"},"vehicle_type_id":"4","last_reported":1784843719,"current_range_meters":32800,"station_id":"ce4bgjh2rcd13ifvqbg0","pricing_plan_id":"cebpf4jnsgd1na2vs0mg"},{"bike_id":"2f3c08d1-4cdc-4610-bf4b-5e5ab3853cf7","system_id":"levelo_inurba_marseille","lat":43.31483,"lon":5.39619,"is_reserved":false,"is_disabled":false,"rental_uris":{"android":"levelo://app?vid=2f3c08d1-4cdc-4610-bf4b-5e5ab3853cf7","ios":"levelo://app?vid=2f3c08d1-4cdc-4610-bf4b-5e5ab3853cf7"},"vehicle_type_id":"4","last_reported":1784843719,"current_range_meters":16800,"station_id":"","pricing_plan_id":"cebpf4jnsgd1na2vs0mg"},{"bike_id":"c66db674-e634-4125-a366-6c4a9ca11cf8","system_id":"levelo_inurba_marseille","lat":43.28263,"lon":5.38982,"is_reserved":false,"is_disabled":false,"rental_uris":{"android":"levelo://app?vid=c66db674-e634-4125-a366-6c4a9ca11cf8","ios":"levelo://app?vid=c66db674-e634-4125-a366-6c4a9ca11cf8"},"vehicle_type_id":"4","last_reported":1784843719,"current_range_meters":27200,"station_id":"","pricing_plan_id":"cebpf4jnsgd1na2vs0mg"},{"bike_id":"00f0c484-597d-4ed4-91e8-bee8c228882b","system_id":"levelo_inurba_marseille","lat":43.25095,"lon":5.39507,"is_reserved":false,"is_disabled":false,"rental_uris":{"android":"levelo://app?vid=00f0c484-597d-4ed4-91e8-bee8c228882b","ios":"levelo://app?vid=00f0c484-597d-4ed4-91e8-bee8c228882b"},"vehicle_type_id":"4","last_reported":1784843719,"current_range_meters":38800,"station_id":"ce4bhm12rcd13ifvqgkg","pricing_plan_id":"cebpf4jnsgd1na2vs0mg"},{"bike_id":"ee76bc30-36d7-42f2-8939-33784c38e005","system_id":"levelo_inurba_marseille","lat":43.23526,"lon":5.36002,"is_reserved":false,"is_disabled":false,"rental_uris":{"android":"levelo://app?vid=ee76bc30-36d7-42f2-8939-33784c38e005","ios":"levelo://app?vid=ee76bc30-36d7-42f2-8939-33784c38e005"},"vehicle_type_id":"4","last_reported":1784843719,"current_range_meters":4000,"station_id":"","pricing_plan_id":"cebpf4jnsgd1na2vs0mg"},{"bike_id":"d1b66825-c158-457e-a6ca-20015eb28f13","system_id":"levelo_inurba_marseille","lat":43.33755,"lon":5.37489,"is_reserved":false,"is_disabled":false,"rental_uris":{"android":"levelo://app?vid=d1b66825-c158-457e-a6ca-20015eb28f13","ios":"levelo://app?vid=d1b66825-c158-457e-a6ca-20015eb28f13"},"vehicle_type_id":"4","last_reported":1784843719,"current_range_meters":12000,"station_id":"","pricing_plan_id":"cebpf4jnsgd1na2vs0mg"},{"bike_id":"1ae20384-5ccd-4145-9a1d-f626b16c7a9e","system_id":"levelo_inurba_marseille","lat":43.31129,"lon":5.46452,"is_reserved":false,"is_disabled":false,"rental_uris":{"android":"levelo://app?vid=1ae20384-5ccd-4145-9a1d-f626b16c7a9e","ios":"levelo://app?vid=1ae20384-5ccd-4145-9a1d-f626b16c7a9e"},"vehicle_type_id":"4","last_reported":1784843719,"current_range_meters":4000,"station_id":"","pricing_plan_id":"cebpf4jnsgd1na2vs0mg"},{"bike_id":"c5032ade-04c2-4ad9-acd6-0c757f219d04","system_id":"levelo_inurba_marseille","lat":43.31899,"lon":5.36794,"is_reserved":false,"is_disabled":false,"rental_uris":{"android":"levelo://app?vid=c5032ade-04c2-4ad9-acd6-0c757f219d04","ios":"levelo://app?vid=c5032ade-04c2-4ad9-acd6-0c757f219d04"},"vehicle_type_id":"4","last_reported":1784843719,"current_range_meters":7200,"station_id":"st_d6o2h0d0559c73evc1b0","pricing_plan_id":"cebpf4jnsgd1na2vs0mg"},{"bike_id":"479a25b1-c1db-4e38-9802-13b8f5b183f0","system_id":"levelo_inurba_marseille","lat":43.28484,"lon":5.48396,"is_reserved":false,"is_disabled":false,"rental_uris":{"android":"levelo://app?vid=479a25b1-c1db-4e38-9802-13b8f5b183f0","ios":"levelo://app?vid=479a25b1-c1db-4e38-9802-13b8f5b183f0"},"vehicle_type_id":"4","last_reported":1784843719,"current_range_meters":26800,"station_id":"st_d3svhcjqgbts73a3dn0g","pricing_plan_id":"cebpf4jnsgd1na2vs0mg"},{"bike_id":"5ba3de10-889b-4152-aef4-4bff1e010d26","system_id":"levelo_inurba_marseille","lat":43.32114,"lon":5.36789,"is_reserved":false,"is_disabled":false,"rental_uris":{"android":"levelo://app?vid=5ba3de10-889b-4152-aef4-4bff1e010d26","ios":"levelo://app?vid=5ba3de10-889b-4152-aef4-4bff1e010d26"},"vehicle_type_id":"4","last_reported":1784843719,"current_range_meters":8400,"station_id":"ce4bhrh2rcd13ifvqhug","pricing_plan_id":"cebpf4jnsgd1na2vs0mg"},{"bike_id":"4a44625a-98e7-4ffe-9d7a-43dbdd22c4d2","system_id":"levelo_inurba_marseille","lat":43.31437,"lon":5.37383,"is_reserved":false,"is_disabled":true,"rental_uris":{"android":"levelo://app?vid=4a44625a-98e7-4ffe-9d7a-43dbdd22c4d2","ios":"levelo://app?vid=4a44625a-98e7-4ffe-9d7a-43dbdd22c4d2"},"vehicle_type_id":"4","last_reported":1784843719,"current_range_meters":0,"station_id":"","pricing_plan_id":"cebpf4jnsgd1na2vs0mg"},{"bike_id":"0efcef29-102d-4c99-9588-0091c6994253","system_id":"levelo_inurba_marseille","lat":43.23391,"lon":5.41255,"is_reserved":false,"is_disabled":false,"rental_uris":{"android":"levelo://app?vid=0efcef29-102d-4c99-9588-0091c6994253","ios":"levelo://app?vid=0efcef29-102d-4c99-9588-0091c6994253"},"vehicle_type_id":"4","last_reported":1784843719,"current_range_meters":38400,"station_id":"st_d75pvndhf9lc73cqq3eg","pricing_plan_id":"cebpf4jnsgd1na2vs0mg"},{"bike_id":"c25fe85c-7161-42c5-befd-99612fa43308","system_id":"levelo_inurba_marseille","lat":43.28097,"lon":5.37884,"is_reserved":false,"is_disabled":false,"rental_uris":{"android":"levelo://app?vid=c25fe85c-7161-42c5-befd-99612fa43308","ios":"levelo://app?vid=c25fe85c-7161-42c5-befd-99612fa43308"},"vehicle_type_id":"4","last_reported":1784843719,"current_range_meters":33600,"station_id":"ce4bha12rcd13ifvqee0","pricing_plan_id":"cebpf4jnsgd1na2vs0mg"},{"bike_id":"5a9abbc8-0280-47d8-900a-029568d5f37c","system_id":"levelo_inurba_marseille","lat":43.32408,"lon":5.42687,"is_reserved":false,"is_disabled":false,"rental_uris":{"android":"levelo://app?vid=5a9abbc8-0280-47d8-900a-029568d5f37c","ios":"levelo://app?vid=5a9abbc8-0280-47d8-900a-029568d5f37c"},"vehicle_type_id":"4","last_reported":1784843719,"current_range_meters":16400,"station_id":"","pricing_plan_id":"cebpf4jnsgd1na2vs0mg"},{"bike_id":"fe5aaeb6-de32-4da9-8d55-ab40b769778b","system_id":"levelo_inurba_marseille","lat":43.30684,"lon":5.40083,"is_reserved":false,"is_disabled":false,"rental_uris":{"android":"levelo://app?vid=fe5aaeb6-de32-4da9-8d55-ab40b769778b","ios":"levelo://app?vid=fe5aaeb6-de32-4da9-8d55-ab40b769778b"},"vehicle_type_id":"4","last_reported":1784843719,"current_range_meters":17200,"station_id":"ce4bh112rcd13ifvqda0","pricing_plan_id":"cebpf4jnsgd1na2vs0mg"},{"bike_id":"cc8568ab-2679-4305-9add-20ef1e360289","system_id":"levelo_inurba_marseille","lat":43.33784,"lon":5.37518,"is_reserved":false,"is_disabled":false,"rental_uris":{"android":"levelo://app?vid=cc8568ab-2679-4305-9add-20ef1e360289","ios":"levelo://app?vid=cc8568ab-2679-4305-9add-20ef1e360289"},"vehicle_type_id":"4","last_reported":1784843719,"current_range_meters":28400,"station_id":"","pricing_plan_id":"cebpf4jnsgd1na2vs0mg"},{"bike_id":"5e817bc6-d508-473d-95bd-3c4bddd98ec2","system_id":"levelo_inurba_marseille","lat":43.28202,"lon":5.39044,"is_reserved":false,"is_disabled":false,"rental_uris":{"android":"levelo://app?vid=5e817bc6-d508-473d-95bd-3c4bddd98ec2","ios":"levelo://app?vid=5e817bc6-d508-473d-95bd-3c4bddd98ec2"},"vehicle_type_id":"4","last_reported":1784843719,"current_range_meters":3200,"station_id":"ce4bhn92rcd13ifvqgsg","pricing_plan_id":"cebpf4jnsgd1na2vs0mg"},{"bike_id":"456df5c5-caed-442b-b76c-de71c60f100c","system_id":"levelo_inurba_marseille","lat":43.30937,"lon":5.40144,"is_reserved":false,"is_disabled":false,"rental_uris":{"android":"levelo://app?vid=456df5c5-caed-442b-b76c-de71c60f100c","ios":"levelo://app?vid=456df5c5-caed-442b-b76c-de71c60f100c"},"vehicle_type_id":"4","last_reported":1784843719,"current_range_meters":9200,"station_id":"ce4bgvp2rcd13ifvqct0","pricing_plan_id":"cebpf4jnsgd1na2vs0mg"},