{"last_updated":1692479047,"ttl":30,"version":"2.2","data":{"bikes":[{"bike_id":"7d134395-dd7d-4fe9-939b-b134c2f11fb2","system_id":"levelo_inurba_marseille","lat":43.31341,"lon":5.367098,"is_reserved":false,"is_disabled":false,"rental_uris":{"android":"levelo://app?vid=7d134395-dd7d-4fe9-939b-b134c2f11fb2","ios":"levelo://app?vid=7d134395-dd7d-4fe9-939b-b134c2f11fb2"},"vehicle_type_id":"4","last_reported":1692479047,"current_range_meters":29200,"station_id":"ce4bgr92rcd13ifvqc6g","pricing_plan_id":"free"},{"bike_id":"f22ca441-4e4e-4660-b824-b2f46943e54d","system_id":"levelo_inurba_marseille","lat":43.312239,"lon":5.368562,"is_reserved":false,"is_disabled":false,"rental_uris":{"android":"levelo://app?vid=f22ca441-4e4e-4660-b824-b2f46943e54d","ios":"levelo://app?vid=f22ca441-4e4e-4660-b824-b2f46943e54d"},"vehicle_type_id":"4","last_reported":1692479047,"current_range_meters":31200,"station_id":"ce4bgl92rcd13ifvqbq0","pricing_plan_id":"free"},{"bike_id":"fd974afe-3371-4b6b-9961-f4de793462fb","system_id":"levelo_inurba_marseille","lat":43.309076,"lon":5.368465,"is_reserved":false,"is_disabled":false,"rental_uris":{"android":"levelo://app?vid=fd974afe-3371-4b6b-9961-f4de793462fb","ios":"levelo://app?vid=fd974afe-3371-4b6b-9961-f4de793462fb"},"vehicle_type_id":"4","last_reported":1692479047,"current_range_meters":12400,"station_id":"ce4bgn92rcd13ifvqbvg","pricing_plan_id":"free"},{"bike_id":"025eb564-49e8-4c63-95c2-245a944f9ba0","system_id":"levelo_inurba_marseille","lat":43.309076,"lon":5.368465,"is_reserved":false,"is_disabled":false,"rental_uris":{"android":"levelo://app?vid=025eb564-49e8-4c63-95c2-245a944f9ba0","ios":"levelo://app?vid=025eb564-49e8-4c63-95c2-245a944f9ba0"},"vehicle_type_id":"4","last_reported":1692479047,"current_range_meters":25200,"station_id":"ce4bgn92rcd13ifvqbvg","pricing_plan_id":"free"},{"bike_id":"1f95e94c-acbc-46fd-88b6-f5fcc9edb02a","system_id":"levelo_inurba_marseille","lat":43.31835,"lon":5.36927,"is_reserved":false,"is_disabled":false,"rental_uris":{"android":"levelo://app?vid=1f95e94c-acbc-46fd-88b6-f5fcc9edb02a","ios":"levelo://app?vid=1f95e94c-acbc-46fd-88b6-f5fcc9edb02a"},"vehicle_type_id":"4","last_reported":1692479047,"current_range_meters":0,"station_id":"","pricing_plan_id":"free"},{"bike_id":"386ed8e3-b71e-4f68-86af-202c5b76503e","system_id":"levelo_inurba_marseille","lat":43.305368,"lon":5.367343,"is_reserved":false,"is_disabled":false,"rental_uris":{"android":"levelo://app?vid=386ed8e3-b71e-4f68-86af-202c5b76503e","ios":"levelo://app?vid=386ed8e3-b71e-4f68-86af-202c5b76503e"},"vehicle_type_id":"4","last_reported":1692479047,"current_range_meters":23600,"station_id":"ce4bgrp2rcd13ifvqc9g","pricing_plan_id":"free"},{"bike_id":"9fbe6e18-d192-44c2-98b5-cafb68b41aa4","system_id":"levelo_inurba_marseille","lat":43.30541,"lon":5.36547,"is_reserved":false,"is_disabled":false,"rental_uris":{"android":"levelo://app?vid=9fbe6e18-d192-44c2-98b5-cafb68b41aa4","ios":"levelo://app?vid=9fbe6e18-d192-44c2-98b5-cafb68b41aa4"},"vehicle_type_id":"4","last_reported":1692479047,"current_range_meters":10000,"station_id":"ce4bgs12rcd13ifvqcag","pricing_plan_id":"free"},{"bike_id":"96e5be67-c9af-4222-af9b-1ac1b45f18e1","system_id":"levelo_inurba_marseille","lat":43.311131,"lon":5.377651,"is_reserved":false,"is_disabled":false,"rental_uris":{"android":"levelo://app?vid=96e5be67-c9af-4222-af9b-1ac1b45f18e1","ios":"levelo://app?vid=96e5be67-c9af-4222-af9b-1ac1b45f18e1"},"vehicle_type_id":"4","last_reported":1692479047,"current_range_meters":28800,"station_id":"ce4bgt92rcd13ifvqcg0","pricing_plan_id":"free"},{"bike_id":"a5f84884-3efe-44c9-88bb-09c4a8954bab","system_id":"levelo_inurba_marseille","lat":43.30784,"lon":5.37651,"is_reserved":false,"is_disabled":false,"rental_uris":{"android":"levelo://app?vid=a5f84884-3efe-44c9-88bb-09c4a8954bab","ios":"levelo://app?vid=a5f84884-3efe-44c9-88bb-09c4a8954bab"},"vehicle_type_id":"4","last_reported":1692479047,"current_range_meters":0,"station_id":"ce4bgv92rcd13ifvqcq0","pricing_plan_id":"free"},{"bike_id":"e92c44c6-bfb0-45fa-b2fe-a367fd139d46","system_id":"levelo_inurba_marseille","lat":43.317075,"lon":5.377367,"is_reserved":false,"is_disabled":false,"rental_uris":{"android":"levelo://app?vid=e92c44c6-bfb0-45fa-b2fe-a367fd139d46","ios":"levelo://app?vid=e92c44c6-bfb0-45fa-b2fe-a367fd139d46"},"vehicle_type_id":"4","last_reported":1692479047,"current_range_meters":20000,"station_id":"ce4bgth2rcd13ifvqch0","pricing_plan_id":"free"},{"bike_id":"ffbbd85b-2ccf-411b-a739-2c5fef19f1aa","system_id":"levelo_inurba_marseille","lat":43.317075,"lon":5.377367,"is_reserved":false,"is_disabled":false,"rental_uris":{"android":"levelo://app?vid=ffbbd85b-2ccf-411b-a739-2c5fef19f1aa","ios":"levelo://app?vid=ffbbd85b-2ccf-411b-a739-2c5fef19f1aa"},"vehicle_type_id":"4","last_reported":1692479047,"current_range_meters":26800,"station_id":"ce4bgth2rcd13ifvqch0","pricing_plan_id":"free"},{"bike_id":"d5d38017-e3ff-4af5-aec4-e5550710b9aa","system_id":"levelo_inurba_marseille","lat":43.30314,"lon":5.36895,"is_reserved":false,"is_disabled":false,"rental_uris":{"android":"levelo://app?vid=d5d38017-e3ff-4af5-aec4-e5550710b9aa","ios":"levelo://app?vid=d5d38017-e3ff-4af5-aec4-e5550710b9aa"},"vehicle_type_id":"4","last_reported":1692479047,"current_range_meters":4400,"station_id":"ce4bgqh2rcd13ifvqc5g","pricing_plan_id":"free"},{"bike_id":"0871042d-4c98-4a0d-a09d-36eb6b88fae9","system_id":"levelo_inurba_marseille","lat":43.31533,"lon":5.38029,"is_reserved":false,"is_disabled":false,"rental_uris":{"android":"levelo://app?vid=0871042d-4c98-4a0d-a09d-36eb6b88fae9","ios":"levelo://app?vid=0871042d-4c98-4a0d-a09d-36eb6b88fae9"},"vehicle_type_id":"4","last_reported":1692479047,"current_range_meters":22800,"station_id":"ce4bhsp2rcd13ifvqi50","pricing_plan_id":"free"},{"bike_id":"20dd0dac-386a-4b29-9345-1e049cc2f057","system_id":"levelo_inurba_marseille","lat":43.31525,"lon":5.38032,"is_reserved":false,"is_disabled":false,"rental_uris":{"android":"levelo://app?vid=20dd0dac-386a-4b29-9345-1e049cc2f057","ios":"levelo://app?vid=20dd0dac-386a-4b29-9345-1e049cc2f057"},"vehicle_type_id":"4","last_reported":1692479047,"current_range_meters":400,"station_id":"ce4bhsp2rcd13ifvqi50","pricing_plan_id":"free"},{"bike_id":"a89ce4be-6981-405e-a13b-8414fc35f3fd","system_id":"levelo_inurba_marseille","lat":43.31538,"lon":5.38041,"is_reserved":false,"is_disabled":false,"rental_uris":{"android":"levelo://app?vid=a89ce4be-6981-405e-a13b-8414fc35f3fd","ios":"levelo://app?vid=a89ce4be-6981-405e-a13b-8414fc35f3fd"},"vehicle_type_id":"4","last_reported":1692479047,"current_range_meters":22400,"station_id":"ce4bhsp2rcd13ifvqi50","pricing_plan_id":"free"},{"bike_id":"21c2560a-fbdb-40fb-9e84-c3aa95d03b98","system_id":"levelo_inurba_marseille","lat":43.30184,"lon":5.36612,"is_reserved":false,"is_disabled":false,"rental_uris":{"android":"levelo://app?vid=21c2560a-fbdb-40fb-9e84-c3aa95d03b98","ios":"levelo://app?vid=21c2560a-fbdb-40fb-9e84-c3aa95d03b98"},"vehicle_type_id":"4","last_reported":1692479047,"current_range_meters":16400,"station_id":"ce4bgrh2rcd13ifvqc8g","pricing_plan_id":"free"},{"bike_id":"3d4f373c-52a2-4fab-b725-fe40076ab0c8","system_id":"levelo_inurba_marseille","lat":43.31281,"lon":5.38303,"is_reserved":false,"is_disabled":false,"rental_uris":{"android":"levelo://app?vid=3d4f373c-52a2-4fab-b725-fe40076ab0c8","ios":"levelo://app?vid=3d4f373c-52a2-4fab-b725-fe40076ab0c8"},"vehicle_type_id":"4","last_reported":1692479047,"current_range_meters":5600,"station_id":"","pricing_plan_id":"free"},{"bike_id":"b8b97bfb-8550-4964-bd6d-bd32c544fccb","system_id":"levelo_inurba_marseille","lat":43.302784,"lon":5.377158,"is_reserved":false,"is_disabled":false,"rental_uris":{"android":"levelo://app?vid=b8b97bfb-8550-4964-bd6d-bd32c544fccb","ios":"levelo://app?vid=b8b97bfb-8550-4964-bd6d-bd32c544fccb"},"vehicle_type_id":"4","last_reported":1692479047,"current_range_meters":12400,"station_id":"ce4bguh2rcd13ifvqcj0","pricing_plan_id":"free"},{"bike_id":"560df2f7-48af-4129-aaca-899cbbb3ac92","system_id":"levelo_inurba_marseille","lat":43.31361,"lon":5.38485,"is_reserved":false,"is_disabled":false,"rental_uris":{"android":"levelo://app?vid=560df2f7-48af-4129-aaca-899cbbb3ac92","ios":"levelo://app?vid=560df2f7-48af-4129-aaca-899cbbb3ac92"},"vehicle_type_id":"4","last_reported":1692479047,"current_range_meters":24000,"station_id":"ce4bgt92rcd13ifvqcf0","pricing_plan_id":"free"},{"bike_id":"8cf80f6e-5e13-468d-9cbc-e106ff2260fe","system_id":"levelo_inurba_marseille","lat":43.31359,"lon":5.3849,"is_reserved":false,"is_disabled":false,"rental_uris":{"android":"levelo://app?vid=8cf80f6e-5e13-468d-9cbc-e106ff2260fe","ios":"levelo://app?vid=8cf80f6e-5e13-468d-9cbc-e106ff2260fe"},"vehicle_type_id":"4","last_reported":1692479047,"current_range_meters":11600,"station_id":"ce4bgt92rcd13ifvqcf0","pricing_plan_id":"free"},{"bike_id":"ddf499a0-9cad-436a-bd9d-beb40632bba1","system_id":"levelo_inurba_marseille","lat":43.3136,"lon":5.38491,"is_reserved":false,"is_disabled":false,"rental_uris":{"android":"levelo://app?vid=ddf499a0-9cad-436a-bd9d-beb40632bba1","ios":"levelo://app?vid=ddf499a0-9cad-436a-bd9d-beb40632bba1"},"vehicle_type_id":"4","last_reported":1692479047,"current_range_meters":12400,"station_id":"ce4bgt92rcd13ifvqcf0","pricing_plan_id":"free"},{"bike_id":"66a85102-d3be-452a-bf6c-182362e6a30b","system_id":"levelo_inurba_marseille","lat":43.31372,"lon":5.38491,"is_reserved":false,"is_disabled":false,"rental_uris":{"android":"levelo://app?vid=66a85102-d3be-452a-bf6c-182362e6a30b","ios":"levelo://app?vid=66a85102-d3be-452a-bf6c-182362e6a30b"},"vehicle_type_id":"4","last_reported":1692479047,"current_range_meters":0,"station_id":"ce4bgt92rcd13ifvqcf0","pricing_plan_id":"free"},{"bike_id":"0eeb8e68-8187-4a7a-a934-cf11504f2a19","system_id":"levelo_inurba_marseille","lat":43.31362,"lon":5.38492,"is_reserved":false,"is_disabled":false,"rental_uris":{"android":"levelo://app?vid=0eeb8e68-8187-4a7a-a934-cf11504f2a19","ios":"levelo://app?vid=0eeb8e68-8187-4a7a-a934-cf11504f2a19"},"vehicle_type_id":"4","last_reported":1692479047,"current_range_meters":14800,"station_id":"ce4bgt92rcd13ifvqcf0","pricing_plan_id":"free"},{"bike_id":"ab0accb4-2f7f-4f5f-b4ad-85e25c20e2d7","system_id":"levelo_inurba_marseille","lat":43.3136,"lon":5.38494,"is_reserved":false,"is_disabled":false,"rental_uris":{"android":"levelo://app?vid=ab0accb4-2f7f-4f5f-b4ad-85e25c20e2d7","ios":"levelo://app?vid=ab0accb4-2f7f-4f5f-b4ad-85e25c20e2d7"},"vehicle_type_id":"4","last_reported":1692479047,"current_range_meters":9200,"station_id":"ce4bgt92rcd13ifvqcf0","pricing_plan_id":"free"},{"bike_id":"5eb5f735-b1c7-4db7-ace5-3e733f2d502b","system_id":"levelo_inurba_marseille","lat":43.31359,"lon":5.38495,"is_reserved":false,"is_disabled":false,"rental_uris":{"android":"levelo://app?vid=5eb5f735-b1c7-4db7-ace5-3e733f2d502b","ios":"levelo://app?vid=5eb5f735-b1c7-4db7-ace5-3e733f2d502b"},"vehicle_type_id":"4","last_reported":1692479047,"current_range_meters":20800,"station_id":"ce4bgt92rcd13ifvqcf0","pricing_plan_id":"free"},{"bike_id":"704cd585-970a-4962-89e0-776ae7869d8c","system_id":"levelo_inurba_marseille","lat":43.31368,"lon":5.38495,"is_reserved":false,"is_disabled":false,"rental_uris":{"android":"levelo://app?vid=704cd585-970a-4962-89e0-776ae7869d8c","ios":"levelo://app?vid=704cd585-970a-4962-89e0-776ae7869d8c"},"vehicle_type_id":"4","last_reported":1692479047,"current_range_meters":800,"station_id":"ce4bgt92rcd13ifvqcf0","pricing_plan_id":"free"},{"bike_id":"ecc65688-059a-4d00-b51d-362b08ebc412","system_id":"levelo_inurba_marseille","lat":43.299724,"lon":5.371829,"is_reserved":false,"is_disabled":false,"rental_uris":{"android":"levelo://app?vid=ecc65688-059a-4d00-b51d-362b08ebc412","ios":"levelo://app?vid=ecc65688-059a-4d00-b51d-362b08ebc412"},"vehicle_type_id":"4","last_reported":1692479047,"current_range_meters":5600,"station_id":"ce4bgr92rcd13ifvqc7g","pricing_plan_id":"free"},{"bike_id":"b19118f7-cbf1-4ae5-bf92-0d92bbaa7599","system_id":"levelo_inurba_marseille","lat":43.31557,"lon":5.38597,"is_reserved":false,"is_disabled":false,"rental_uris":{"android":"levelo://app?vid=b19118f7-cbf1-4ae5-bf92-0d92bbaa7599","ios":"levelo://app?vid=b19118f7-cbf1-4ae5-bf92-0d92bbaa7599"},"vehicle_type_id":"4","last_reported":1692479047,"current_range_meters":30000,"station_id":"","pricing_plan_id":"free"},{"bike_id":"f8d80e25-9dbc-41ef-9b09-dd4e1093990c","system_id":"levelo_inurba_marseille","lat":43.31521,"lon":5.38628,"is_reserved":false,"is_disabled":false,"rental_uris":{"android":"levelo://app?vid=f8d80e25-9dbc-41ef-9b09-dd4e1093990c","ios":"levelo://app?vid=f8d80e25-9dbc-41ef-9b09-dd4e1093990c"},"vehicle_type_id":"4","last_reported":1692479047,"current_range_meters":5200,"station_id":"","pricing_plan_id":"free"},{"bike_id":"8d685235-90d9-4545-8c90-95441a0526a5","system_id":"levelo_inurba_marseille","lat":43.31526,"lon":5.38628,"is_reserved":false,"is_disabled":false,"rental_uris":{"android":"levelo://app?vid=8d685235-90d9-4545-8c90-95441a0526a5","ios":"levelo://app?vid=8d685235-90d9-4545-8c90-95441a0526a5"},"vehicle_type_id":"4","last_reported":1692479047,"current_range_meters":4400,"station_id":"","pricing_plan_id":"free"},{"bike_id":"a97a8db8-62c6-4a03-b4b9-bbcd9ea62658","system_id":"levelo_inurba_marseille","lat":43.298433,"lon":5.362774,"is_reserved":false,"is_disabled":false,"rental_uris":{"android":"levelo://app?vid=a97a8db8-62c6-4a03-b4b9-bbcd9ea62658","ios":"levelo://app?vid=a97a8db8-62c6-4a03-b4b9-bbcd9ea62658"},"vehicle_type_id":"4","last_reported":1692479047,"current_range_meters":22000,"station_id":"ce4bgpp2rcd13ifvqc3g","pricing_plan_id":"free"},{"bike_id":"cd5a5d53-ce77-4424-88a3-9ce1cd546336","system_id":"levelo_inurba_marseille","lat":43.311722,"lon":5.387247,"is_reserved":false,"is_disabled":false,"rental_uris":{"android":"levelo://app?vid=cd5a5d53-ce77-4424-88a3-9ce1cd546336","ios":"levelo://app?vid=cd5a5d53-ce77-4424-88a3-9ce1cd546336"},"vehicle_type_id":"4","last_reported":1692479047,"current_range_meters":25200,"station_id":"ce4bgv12rcd13ifvqcp0","pricing_plan_id":"free"},{"bike_id":"b885f463-e8c5-42cc-902f-7152167ce1c7","system_id":"levelo_inurba_marseille","lat":43.299243,"lon":5.374807,"is_reserved":false,"is_disabled":false,"rental_uris":{"android":"levelo://app?vid=b885f463-e8c5-42cc-902f-7152167ce1c7","ios":"levelo://app?vid=b885f463-e8c5-42cc-902f-7152167ce1c7"},"vehicle_type_id":"4","last_reported":1692479047,"current_range_meters":31200,"station_id":"ce4bgjh2rcd13ifvqbg0","pricing_plan_id":"free"},{"bike_id":"901e2ec9-eae8-4c9a-8e88-a892663fa06b","system_id":"levelo_inurba_marseille","lat":43.299243,"lon":5.37481,"is_reserved":false,"is_disabled":false,"rental_uris":{"android":"levelo://app?vid=901e2ec9-eae8-4c9a-8e88-a892663fa06b","ios":"levelo://app?vid=901e2ec9-eae8-4c9a-8e88-a892663fa06b"},"vehicle_type_id":"4","last_reported":1692479047,"current_range_meters":23600,"station_id":"ce4bgjh2rcd13ifvqbg0","pricing_plan_id":"free"},{"bike_id":"f3ac07eb-64da-4f5c-b7c9-dd8ba4f3ab82","system_id":"levelo_inurba_marseille","lat":43.311722,"lon":5.387247,"is_reserved":false,"is_disabled":false,"rental_uris":{"android":"levelo://app?vid=f3ac07eb-64da-4f5c-b7c9-dd8ba4f3ab82","ios":"levelo://app?vid=f3ac07eb-64da-4f5c-b7c9-dd8ba4f3ab82"},"vehicle_type_id":"4","last_reported":1692479047,"current_range_meters":18000,"station_id":"ce4bgv12rcd13ifvqcp0","pricing_plan_id":"free"},{"bike_id":"3f6bb6cd-d905-4fbb-a07c-7e8a0b98ad88","system_id":"levelo_inurba_marseille","lat":43.311722,"lon":5.387247,"is_reserved":false,"is_disabled":false,"rental_uris":{"android":"levelo://app?vid=3f6bb6cd-d905-4fbb-a07c-7e8a0b98ad88","ios":"levelo://app?vid=3f6bb6cd-d905-4fbb-a07c-7e8a0b98ad88"},"vehicle_type_id":"4","last_reported":1692479047,"current_range_meters":4800,"station_id":"ce4bgv12rcd13ifvqcp0","pricing_plan_id":"free"},{"bike_id":"add563b1-93f2-4de8-8ba7-a1e559efa4f5","system_id":"levelo_inurba_marseille","lat":43.311722,"lon":5.387247,"is_reserved":false,"is_disabled":false,"rental_uris":{"android":"levelo://app?vid=add563b1-93f2-4de8-8ba7-a1e559efa4f5","ios":"levelo://app?vid=add563b1-93f2-4de8-8ba7-a1e559efa4f5"},"vehicle_type_id":"4","last_reported":1692479047,"current_range_meters":22400,"station_id":"ce4bgv12rcd13ifvqcp0","pricing_plan_id":"free"},{"bike_id":"785a6f9c-1faa-4fa0-bb2f-e8c4ad5cd6a1","system_id":"levelo_inurba_marseille","lat":43.311722,"lon":5.387247,"is_reserved":false,"is_disabled":false,"rental_uris":{"android":"levelo://app?vid=785a6f9c-1faa-4fa0-bb2f-e8c4ad5cd6a1","ios":"levelo://app?vid=785a6f9c-1faa-4fa0-bb2f-e8c4ad5cd6a1"},"vehicle_type_id":"4","last_reported":1692479047,"current_range_meters":25200,"station_id":"ce4bgv12rcd13ifvqcp0","pricing_plan_id":"free"},{"bike_id":"576b1e1c-0d19-4254-afb2-dc99b0869921","system_id":"levelo_inurba_marseille","lat":43.311722,"lon":5.387247,"is_reserved":false,"is_disabled":false,"rental_uris":{"android":"levelo://app?vid=576b1e1c-0d19-4254-afb2-dc99b0869921","ios":"levelo://app?vid=576b1e1c-0d19-4254-afb2-dc99b0869921"},"vehicle_type_id":"4","last_reported":1692479047,"current_range_meters":5200,"station_id":"ce4bgv12rcd13ifvqcp0","pricing_plan_id":"free"},{"bike_id":"9c78537b-b67d-4046-aada-e1090ec74942","system_id":"levelo_inurba_marseille","lat":43.297774,"lon":5.370875,"is_reserved":false,"is_disabled":false,"rental_uris":{"android":"levelo://app?vid=9c78537b-b67d-4046-aada-e1090ec74942","ios":"levelo://app?vid=9c78537b-b67d-4046-aada-e1090ec74942"},"vehicle_type_id":"4","last_reported":1692479047,"current_range_meters":0,"station_id":"ce4bgop2rcd13ifvqc1g","pricing_plan_id":"free"},{"bike_id":"80568bb6-8e83-41b4-ab0a-65a2efaa8c8f","system_id":"levelo_inurba_marseille","lat":43.32287,"lon":5.38274,"is_reserved":false,"is_disabled":false,"rental_uris":{"android":"levelo://app?vid=80568bb6-8e83-41b4-ab0a-65a2efaa8c8f","ios":"levelo://app?vid=80568bb6-8e83-41b4-ab0a-65a2efaa8c8f"},"vehicle_type_id":"4","last_reported":1692479047,"current_range_meters":0,"station_id":"ce4bhr12rcd13ifvqhqg","pricing_plan_id":"free"},{"bike_id":"648dadf8-ff22-438c-bfb7-5c83267bdf3f","system_id":"levelo_inurba_marseille","lat":43.3229,"lon":5.38272,"is_reserved":false,"is_disabled":false,"rental_uris":{"android":"levelo://app?vid=648dadf8-ff22-438c-bfb7-5c83267bdf3f","ios":"levelo://app?vid=648dadf8-ff22-438c-bfb7-5c83267bdf3f"},"vehicle_type_id":"4","last_reported":1692479047,"current_range_meters":30400,"station_id":"ce4bhr12rcd13ifvqhqg","pricing_plan_id":"free"},{"bike_id":"5b5c8cae-b425-4976-9ba8-5ae205664d6b","system_id":"levelo_inurba_marseille","lat":43.3229,"lon":5.38273,"is_reserved":false,"is_disabled":false,"rental_uris":{"android":"levelo://app?vid=5b5c8cae-b425-4976-9ba8-5ae205664d6b","ios":"levelo://app?vid=5b5c8cae-b425-4976-9ba8-5ae205664d6b"},"vehicle_type_id":"4","last_reported":1692479047,"current_range_meters":18000,"station_id":"ce4bhr12rcd13ifvqhqg","pricing_plan_id":"free"},{"bike_id":"b815ce0f-8c6d-460d-8747-b98d1251b4b3","system_id":"levelo_inurba_marseille","lat":43.32292,"lon":5.38274,"is_reserved":false,"is_disabled":false,"rental_uris":{"android":"levelo://app?vid=b815ce0f-8c6d-460d-8747-b98d1251b4b3","ios":"levelo://app?vid=b815ce0f-8c6d-460d-8747-b98d1251b4b3"},"vehicle_type_id":"4","last_reported":1692479047,"current_range_meters":14400,"station_id":"ce4bhr12rcd13ifvqhqg","pricing_plan_id":"free"},{"bike_id":"a1f7b084-f437-4e0c-8b20-334f54c48d59","system_id":"levelo_inurba_marseille","lat":43.32292,"lon":5.38277,"is_reserved":false,"is_disabled":false,"rental_uris":{"android":"levelo://app?vid=a1f7b084-f437-4e0c-8b20-334f54c48d59","ios":"levelo://app?vid=a1f7b084-f437-4e0c-8b20-334f54c48d59"},"vehicle_type_id":"4","last_reported":1692479047,"current_range_meters":18000,"station_id":"ce4bhr12rcd13ifvqhqg","pricing_plan_id":"free"},{"bike_id":"20066552-063e-4d3e-9e10-e0e8a6d2c838","system_id":"levelo_inurba_marseille","lat":43.32291,"lon":5.38279,"is_reserved":false,"is_disabled":false,"rental_uris":{"android":"levelo://app?vid=20066552-063e-4d3e-9e10-e0e8a6d2c838","ios":"levelo://app?vid=20066552-063e-4d3e-9e10-e0e8a6d2c838"},"vehicle_type_id":"4","last_reported":1692479047,"current_range_meters":28800,"station_id":"ce4bhr12rcd13ifvqhqg","pricing_plan_id":"free"},{"bike_id":"b9784bc4-a1f4-4e7b-a996-3746dcc4c656","system_id":"levelo_inurba_marseille","lat":43.3229,"lon":5.38282,"is_reserved":false,"is_disabled":false,"rental_uris":{"android":"levelo://app?vid=b9784bc4-a1f4-4e7b-a996-3746dcc4c656","ios":"levelo://app?vid=b9784bc4-a1f4-4e7b-a996-3746dcc4c656"},"vehicle_type_id":"4","last_reported":1692479047,"current_range_meters":9200,"station_id":"ce4bhr12rcd13ifvqhqg","pricing_plan_id":"free"},{"bike_id":"418f40db-23bc-4b66-8945-04cfb5eeb137","system_id":"levelo_inurba_marseille","lat":43.328371,"lon":5.366909,"is_reserved":false,"is_disabled":false,"rental_uris":{"android":"levelo://app?vid=418f40db-23bc-4b66-8945-04cfb5eeb137","ios":"levelo://app?vid=418f40db-23bc-4b66-8945-04cfb5eeb137"},"vehicle_type_id":"4","last_reported":1692479047,"current_range_meters":30800,"station_id":"ce4bhs92rcd13ifvqi0g","pricing_plan_id":"free"},{"bike_id":"e3a21d07-f446-4608-85be-12a81574bffc","system_id":"levelo_inurba_marseille","lat":43.32829,"lon":5.36677,"is_reserved":false,"is_disabled":false,"rental_uris":{"android":"levelo://app?vid=e3a21d07-f446-4608-85be-12a81574bffc","ios":"levelo://app?vid=e3a21d07-f446-4608-85be-12a81574bffc"},"vehicle_type_id":"4","last_reported":1692479047,"current_range_meters":15200,"station_id":"ce4bhs92rcd13ifvqi0g","pricing_plan_id":"free"},{"bike_id":"8d437ee0-2979-43ba-a0d7-aeb1267ca420","system_id":"levelo_inurba_marseille","lat":43.3283,"lon":5.36679,"is_reserved":false,"is_disabled":false,"rental_uris":{"android":"levelo://app?vid=8d437ee0-2979-43ba-a0d7-aeb1267ca420","ios":"levelo://app?vid=8d437ee0-2979-43ba-a0d7-aeb1267ca420"},"vehicle_type_id":"4","last_reported":1692479047,"current_range_meters":7200,"station_id":"ce4bhs92rcd13ifvqi0g","pricing_plan_id":"free"},{"bike_id":"dd789220-e7b5-42c1-b9dc-dc4243148021","system_id":"levelo_inurba_marseille","lat":43.297163,"lon":5.365866,"is_reserved":false,"is_disabled":false,"rental_uris":{"android":"levelo://app?vid=dd789220-e7b5-42c1-b9dc-dc4243148021","ios":"levelo://app?vid=dd789220-e7b5-42c1-b9dc-dc4243148021"},"vehicle_type_id":"4","last_reported":1692479047,"current_range_meters":31200,"station_id":"ce4bgn12rcd13ifvqbt0","pricing_plan_id":"free"},{"bike_id":"28b1e9de-1caa-43f0-bb14-92b81a106bb9","system_id":"levelo_inurba_marseille","lat":43.32831,"lon":5.36698,"is_reserved":false,"is_disabled":false,"rental_uris":{"android":"levelo://app?vid=28b1e9de-1caa-43f0-bb14-92b81a106bb9","ios":"levelo://app?vid=28b1e9de-1caa-43f0-bb14-92b81a106bb9"},"vehicle_type_id":"4","last_reported":1692479047,"current_range_meters":5600,"station_id":"ce4bhs92rcd13ifvqi0g","pricing_plan_id":"free"},{"bike_id":"dead8c06-66e1-4988-887a-a1c0b4d00137","system_id":"levelo_inurba_marseille","lat":43.328371,"lon":5.366909,"is_reserved":false,"is_disabled":false,"rental_uris":{"android":"levelo://app?vid=dead8c06-66e1-4988-887a-a1c0b4d00137","ios":"levelo://app?vid=dead8c06-66e1-4988-887a-a1c0b4d00137"},"vehicle_type_id":"4","last_reported":1692479047,"current_range_meters":6800,"station_id":"ce4bhs92rcd13ifvqi0g","pricing_plan_id":"free"},{"bike_id":"4afe1f83-d83f-4fce-b428-089ceca28ca4","system_id":"levelo_inurba_marseille","lat":43.297163,"lon":5.365866,"is_reserved":false,"is_disabled":false,"rental_uris":{"android":"levelo://app?vid=4afe1f83-d83f-4fce-b428-089ceca28ca4","ios":"levelo://app?vid=4afe1f83-d83f-4fce-b428-089ceca28ca4"},"vehicle_type_id":"4","last_reported":1692479047,"current_range_meters":5600,"station_id":"ce4bgn12rcd13ifvqbt0","pricing_plan_id":"free"},{"bike_id":"b7dd3795-b62a-469d-8e5f-075e39579e3a","system_id":"levelo_inurba_marseille","lat":43.2968,"lon":5.37291,"is_reserved":false,"is_disabled":false,"rental_uris":{"android":"levelo://app?vid=b7dd3795-b62a-469d-8e5f-075e39579e3a","ios":"levelo://app?vid=b7dd3795-b62a-469d-8e5f-075e39579e3a"},"vehicle_type_id":"4","last_reported":1692479047,"current_range_meters":28400,"station_id":"ce4bgk12rcd13ifvqbj0","pricing_plan_id":"free"},{"bike_id":"bb155e93-116e-494a-9911-2df351c7dae8","system_id":"levelo_inurba_marseille","lat":43.296131,"lon":5.370773,"is_reserved":false,"is_disabled":false,"rental_uris":{"android":"levelo://app?vid=bb155e93-116e-494a-9911-2df351c7dae8","ios":"levelo://app?vid=bb155e93-116e-494a-9911-2df351c7dae8"},"vehicle_type_id":"4","last_reported":1692479047,"current_range_meters":29600,"station_id":"ce4bgnh2rcd13ifvqc0g","pricing_plan_id":"free"},{"bike_id":"d3139180-8ba9-4c91-b6e4-8baae3c22113","system_id":"levelo_inurba_marseille","lat":43.296131,"lon":5.370773,"is_reserved":false,"is_disabled":false,"rental_uris":{"android":"levelo://app?vid=d3139180-8ba9-4c91-b6e4-8baae3c22113","ios":"levelo://app?vid=d3139180-8ba9-4c91-b6e4-8baae3c22113"},"vehicle_type_id":"4","last_reported":1692479047,"current_range_meters":31200,"station_id":"ce4bgnh2rcd13ifvqc0g","pricing_plan_id":"free"},{"bike_id":"61e929a1-45fe-43f9-a0bf-a47367f75574","system_id":"levelo_inurba_marseille","lat":43.309589,"lon":5.390258,"is_reserved":false,"is_disabled":false,"rental_uris":{"android":"levelo://app?vid=61e929a1-45fe-43f9-a0bf-a47367f75574","ios":"levelo://app?vid=61e929a1-45fe-43f9-a0bf-a47367f75574"},"vehicle_type_id":"4","last_reported":1692479047,"current_range_meters":22000,"station_id":"ce4bgup2rcd13ifvqco0","pricing_plan_id":"free"},{"bike_id":"3ffbefc4-3bc7-42ed-9979-39ccbf921d00","system_id":"levelo_inurba_marseille","lat":43.309589,"lon":5.390258,"is_reserved":false,"is_disabled":false,"rental_uris":{"android":"levelo://app?vid=3ffbefc4-3bc7-42ed-9979-39ccbf921d00","ios":"levelo://app?vid=3ffbefc4-3bc7-42ed-9979-39ccbf921d00"},"vehicle_type_id":"4","last_reported":1692479047,"current_range_meters":30800,"station_id":"ce4bgup2rcd13ifvqco0","pricing_plan_id":"free"},{"bike_id":"d0520fc3-d153-45c7-841a-8265e0b5dff1","system_id":"levelo_inurba_marseille","lat":43.30952,"lon":5.39042,"is_reserved":false,"is_disabled":false,"rental_uris":{"android":"levelo://app?vid=d0520fc3-d153-45c7-841a-8265e0b5dff1","ios":"levelo://app?vid=d0520fc3-d153-45c7-841a-8265e0b5dff1"},"vehicle_type_id":"4","last_reported":1692479047,"current_range_meters":25600,"station_id":"ce4bgup2rcd13ifvqco0","pricing_plan_id":"free"},{"bike_id":"73508f29-909d-43ce-963a-fd3f39614561","system_id":"levelo_inurba_marseille","lat":43.30958,"lon":5.39045,"is_reserved":false,"is_disabled":false,"rental_uris":{"android":"levelo://app?vid=73508f29-909d-43ce-963a-fd3f39614561","ios":"levelo://app?vid=73508f29-909d-43ce-963a-fd3f39614561"},"vehicle_type_id":"4","last_reported":1692479047,"current_range_meters":10400,"station_id":"ce4bgup2rcd13ifvqco0","pricing_plan_id":"free"},{"bike_id":"b7d89304-e7c7-430b-b62c-b9ec15249e38","system_id":"levelo_inurba_marseille","lat":43.30952,"lon":5.39044,"is_reserved":false,"is_disabled":false,"rental_uris":{"android":"levelo://app?vid=b7d89304-e7c7-430b-b62c-b9ec15249e38","ios":"levelo://app?vid=b7d89304-e7c7-430b-b62c-b9ec15249e38"},"vehicle_type_id":"4","last_reported":1692479047,"current_range_meters":15600,"station_id":"ce4bgup2rcd13ifvqco0","pricing_plan_id":"free"},{"bike_id":"8a30fbab-cf30-4b34-9f52-f33b2074a266","system_id":"levelo_inurba_marseille","lat":43.30951,"lon":5.39044,"is_reserved":false,"is_disabled":false,"rental_uris":{"android":"levelo://app?vid=8a30fbab-cf30-4b34-9f52-f33b2074a266","ios":"levelo://app?vid=8a30fbab-cf30-4b34-9f52-f33b2074a266"},"vehicle_type_id":"4","last_reported":1692479047,"current_range_meters":9600,"station_id":"ce4bgup2rcd13ifvqco0","pricing_plan_id":"free"},{"bike_id":"f1b3e2ee-c148-4bb3-9021-aa610c0c718d","system_id":"levelo_inurba_marseille","lat":43.30951,"lon":5.39044,"is_reserved":false,"is_disabled":false,"rental_uris":{"android":"levelo://app?vid=f1b3e2ee-c148-4bb3-9021-aa610c0c718d","ios":"levelo://app?vid=f1b3e2ee-c148-4bb3-9021-aa610c0c718d"},"vehicle_type_id":"4","last_reported":1692479047,"current_range_meters":10400,"station_id":"ce4bgup2rcd13ifvqco0","pricing_plan_id":"free"},{"bike_id":"1dc5ebf3-11ae-4404-8399-983506f92833","system_id":"levelo_inurba_marseille","lat":43.30953,"lon":5.39046,"is_reserved":false,"is_disabled":false,"rental_uris":{"android":"levelo://app?vid=1dc5ebf3-11ae-4404-8399-983506f92833","ios":"levelo://app?vid=1dc5ebf3-11ae-4404-8399-983506f92833"},"vehicle_type_id":"4","last_reported":1692479047,"current_range_meters":13600,"station_id":"ce4bgup2rcd13ifvqco0","pricing_plan_id":"free"},{"bike_id":"8e8c5399-fa8d-459d-a7e9-c5173c01c4ee","system_id":"levelo_inurba_marseille","lat":43.30952,"lon":5.3905,"is_reserved":false,"is_disabled":false,"rental_uris":{"android":"levelo://app?vid=8e8c5399-fa8d-459d-a7e9-c5173c01c4ee","ios":"levelo://app?vid=8e8c5399-fa8d-459d-a7e9-c5173c01c4ee"},"vehicle_type_id":"4","last_reported":1692479047,"current_range_meters":26000,"station_id":"ce4bgup2rcd13ifvqco0","pricing_plan_id":"free"},{"bike_id":"18ce2835-86aa-429e-b3de-f2665669dc8a","system_id":"levelo_inurba_marseille","lat":43.31763,"lon":5.39027,"is_reserved":false,"is_disabled":false,"rental_uris":{"android":"levelo://app?vid=18ce2835-86aa-429e-b3de-f2665669dc8a","ios":"levelo://app?vid=18ce2835-86aa-429e-b3de-f2665669dc8a"},"vehicle_type_id":"4","last_reported":1692479047,"current_range_meters":28800,"station_id":"ce4bhqp2rcd13ifvqhng","pricing_plan_id":"free"},{"bike_id":"a4df99ce-0488-49dd-a888-94686f562e88","system_id":"levelo_inurba_marseille","lat":43.295748,"lon":5.37522,"is_reserved":false,"is_disabled":false,"rental_uris":{"android":"levelo://app?vid=a4df99ce-0488-49dd-a888-94686f562e88","ios":"levelo://app?vid=a4df99ce-0488-49dd-a888-94686f562e88"},"vehicle_type_id":"4","last_reported":1692479047,"current_range_meters":30000,"station_id":"ce4bgh92rcd13ifvqb50","pricing_plan_id":"free"},{"bike_id":"f59ae3bf-7878-43a8-bc14-5e9b1b14460c","system_id":"levelo_inurba_marseille","lat":43.295748,"lon":5.37522,"is_reserved":false,"is_disabled":false,"rental_uris":{"android":"levelo://app?vid=f59ae3bf-7878-43a8-bc14-5e9b1b14460c","ios":"levelo://app?vid=f59ae3bf-7878-43a8-bc14-5e9b1b14460c"},"vehicle_type_id":"4","last_reported":1692479047,"current_range_meters":14800,"station_id":"ce4bgh92rcd13ifvqb50","pricing_plan_id":"free"},{"bike_id":"85b56c60-13e4-4ceb-97ce-8140ff48aa00","system_id":"levelo_inurba_marseille","lat":43.295279,"lon":5.375048,"is_reserved":false,"is_disabled":false,"rental_uris":{"android":"levelo://app?vid=85b56c60-13e4-4ceb-97ce-8140ff48aa00","ios":"levelo://app?vid=85b56c60-13e4-4ceb-97ce-8140ff48aa00"},"vehicle_type_id":"4","last_reported":1692479047,"current_range_meters":27600,"station_id":"ce4bgkp2rcd13ifvqbmg","pricing_plan_id":"free"},{"bike_id":"ea288dd8-5296-4e96-abca-588c79f7cafa","system_id":"levelo_inurba_marseille","lat":43.299717,"lon":5.384845,"is_reserved":false,"is_disabled":false,"rental_uris":{"android":"levelo://app?vid=ea288dd8-5296-4e96-abca-588c79f7cafa","ios":"levelo://app?vid=ea288dd8-5296-4e96-abca-588c79f7cafa"},"vehicle_type_id":"4","last_reported":1692479047,"current_range_meters":0,"station_id":"ce4bgj92rcd13ifvqbd0","pricing_plan_id":"free"},{"bike_id":"729585a6-6040-4937-af32-fd49d682d0d6","system_id":"levelo_inurba_marseille","lat":43.32364,"lon":5.38879,"is_reserved":false,"is_disabled":false,"rental_uris":{"android":"levelo://app?vid=729585a6-6040-4937-af32-fd49d682d0d6","ios":"levelo://app?vid=729585a6-6040-4937-af32-fd49d682d0d6"},"vehicle_type_id":"4","last_reported":1692479047,"current_range_meters":0,"station_id":"ce4bhqp2rcd13ifvqhog","pricing_plan_id":"free"},{"bike_id":"a97f77a2-1520-4bfc-9df0-0f9c62851caa","system_id":"levelo_inurba_marseille","lat":43.32365,"lon":5.38881,"is_reserved":false,"is_disabled":false,"rental_uris":{"android":"levelo://app?vid=a97f77a2-1520-4bfc-9df0-0f9c62851caa","ios":"levelo://app?vid=a97f77a2-1520-4bfc-9df0-0f9c62851caa"},"vehicle_type_id":"4","last_reported":1692479047,"current_range_meters":27200,"station_id":"ce4bhqp2rcd13ifvqhog","pricing_plan_id":"free"},{"bike_id":"21fcea45-e491-4a85-bcbf-bf5cd0b62ccf","system_id":"levelo_inurba_marseille","lat":43.32365,"lon":5.38881,"is_reserved":false,"is_disabled":false,"rental_uris":{"android":"levelo://app?vid=21fcea45-e491-4a85-bcbf-bf5cd0b62ccf","ios":"levelo://app?vid=21fcea45-e491-4a85-bcbf-bf5cd0b62ccf"},"vehicle_type_id":"4","last_reported":1692479047,"current_range_meters":30400,"station_id":"ce4bhqp2rcd13ifvqhog","pricing_plan_id":"free"},{"bike_id":"55f08f4d-333e-4077-9882-16e72e12ddbf","system_id":"levelo_inurba_marseille","lat":43.32368,"lon":5.38884,"is_reserved":false,"is_disabled":false,"rental_uris":{"android":"levelo://app?vid=55f08f4d-333e-4077-9882-16e72e12ddbf","ios":"levelo://app?vid=55f08f4d-333e-4077-9882-16e72e12ddbf"},"vehicle_type_id":"4","last_reported":1692479047,"current_range_meters":26800,"station_id":"ce4bhqp2rcd13ifvqhog","pricing_plan_id":"free"},{"bike_id":"d49c7be8-2f16-4455-8835-7143b891d27c","system_id":"levelo_inurba_marseille","lat":43.32372,"lon":5.38883,"is_reserved":false,"is_disabled":false,"rental_uris":{"android":"levelo://app?vid=d49c7be8-2f16-4455-8835-7143b891d27c","ios":"levelo://app?vid=d49c7be8-2f16-4455-8835-7143b891d27c"},"vehicle_type_id":"4","last_reported":1692479047,"current_range_meters":25600,"station_id":"ce4bhqp2rcd13ifvqhog","pricing_plan_id":"free"},{"bike_id":"0126f869-77bb-4690-a14f-53e2dd9d4689","system_id":"levelo_inurba_marseille","lat":43.32368,"lon":5.38887,"is_reserved":false,"is_disabled":false,"rental_uris":{"android":"levelo://app?vid=0126f869-77bb-4690-a14f-53e2dd9d4689","ios":"levelo://app?vid=0126f869-77bb-4690-a14f-53e2dd9d4689"},"vehicle_type_id":"4","last_reported":1692479047,"current_range_meters":24400,"station_id":"ce4bhqp2rcd13ifvqhog","pricing_plan_id":"free"},{"bike_id":"6b6cba89-d2b8-44bb-8454-5df08cf65f67","system_id":"levelo_inurba_marseille","lat":43.32367,"lon":5.38888,"is_reserved":false,"is_disabled":false,"rental_uris":{"android":"levelo://app?vid=6b6cba89-d2b8-44bb-8454-5df08cf65f67","ios":"levelo://app?vid=6b6cba89-d2b8-44bb-8454-5df08cf65f67"},"vehicle_type_id":"4","last_reported":1692479047,"current_range_meters":11600,"station_id":"ce4bhqp2rcd13ifvqhog","pricing_plan_id":"free"},{"bike_id":"38fef587-7cc5-4800-b069-87b8f296a10a","system_id":"levelo_inurba_marseille","lat":43.293009,"lon":5.374584,"is_reserved":false,"is_disabled":false,"rental_uris":{"android":"levelo://app?vid=38fef587-7cc5-4800-b069-87b8f296a10a","ios":"levelo://app?vid=38fef587-7cc5-4800-b069-87b8f296a10a"},"vehicle_type_id":"4","last_reported":1692479047,"current_range_meters":31200,"station_id":"ce4bgi12rcd13ifvqb70","pricing_plan_id":"free"},{"bike_id":"933f7c82-f544-459d-819c-cceffc26de24","system_id":"levelo_inurba_marseille","lat":43.30307,"lon":5.39199,"is_reserved":false,"is_disabled":false,"rental_uris":{"android":"levelo://app?vid=933f7c82-f544-459d-819c-cceffc26de24","ios":"levelo://app?vid=933f7c82-f544-459d-819c-cceffc26de24"},"vehicle_type_id":"4","last_reported":1692479047,"current_range_meters":16000,"station_id":"ce4bgkh2rcd13ifvqbk0","pricing_plan_id":"free"},{"bike_id":"d45381fb-b94a-428b-ac31-12ab83eecb8a","system_id":"levelo_inurba_marseille","lat":43.293009,"lon":5.374584,"is_reserved":false,"is_disabled":false,"rental_uris":{"android":"levelo://app?vid=d45381fb-b94a-428b-ac31-12ab83eecb8a","ios":"levelo://app?vid=d45381fb-b94a-428b-ac31-12ab83eecb8a"},"vehicle_type_id":"4","last_reported":1692479047,"current_range_meters":28800,"station_id":"ce4bgi12rcd13ifvqb70","pricing_plan_id":"free"},{"bike_id":"df2f73b0-b03c-439f-8310-016dddc9b431","system_id":"levelo_inurba_marseille","lat":43.292311,"lon":5.360731,"is_reserved":false,"is_disabled":false,"rental_uris":{"android":"levelo://app?vid=df2f73b0-b03c-439f-8310-016dddc9b431","ios":"levelo://app?vid=df2f73b0-b03c-439f-8310-016dddc9b431"},"vehicle_type_id":"4","last_reported":1692479047,"current_range_meters":0,"station_id":"ce4bhbh2rcd13ifvqeqg","pricing_plan_id":"free"},{"bike_id":"e0d223b9-fcfa-4436-8533-80059eb2b90e","system_id":"levelo_inurba_marseille","lat":43.30085,"lon":5.390856,"is_reserved":false,"is_disabled":false,"rental_uris":{"android":"levelo://app?vid=e0d223b9-fcfa-4436-8533-80059eb2b90e","ios":"levelo://app?vid=e0d223b9-fcfa-4436-8533-80059eb2b90e"},"vehicle_type_id":"4","last_reported":1692479047,"current_range_meters":22400,"station_id":"ce4bh192rcd13ifvqdb0","pricing_plan_id":"free"},{"bike_id":"025f9dc3-cf0a-4dd3-8488-8b4570a065d1","system_id":"levelo_inurba_marseille","lat":43.30085,"lon":5.390856,"is_reserved":false,"is_disabled":false,"rental_uris":{"android":"levelo://app?vid=025f9dc3-cf0a-4dd3-8488-8b4570a065d1","ios":"levelo://app?vid=025f9dc3-cf0a-4dd3-8488-8b4570a065d1"},"vehicle_type_id":"4","last_reported":1692479047,"current_range_meters":19600,"station_id":"ce4bh192rcd13ifvqdb0","pricing_plan_id":"free"},{"bike_id":"e5c8dcfd-7c0a-43b5-bc5f-89d6bfc3e5a4","system_id":"levelo_inurba_marseille","lat":43.298764,"lon":5.388973,"is_reserved":false,"is_disabled":false,"rental_uris":{"android":"levelo://app?vid=e5c8dcfd-7c0a-43b5-bc5f-89d6bfc3e5a4","ios":"levelo://app?vid=e5c8dcfd-7c0a-43b5-bc5f-89d6bfc3e5a4"},"vehicle_type_id":"4","last_reported":1692479047,"current_range_meters":22800,"station_id":"ce4bh392rcd13ifvqdl0","pricing_plan_id":"free"},{"bike_id":"ef624301-919c-49f6-bb53-f696ce622e93","system_id":"levelo_inurba_marseille","lat":43.31326,"lon":5.39687,"is_reserved":false,"is_disabled":false,"rental_uris":{"android":"levelo://app?vid=ef624301-919c-49f6-bb53-f696ce622e93","ios":"levelo://app?vid=ef624301-919c-49f6-bb53-f696ce622e93"},"vehicle_type_id":"4","last_reported":1692479047,"current_range_meters":2000,"station_id":"ce4bgvp2rcd13ifvqcu0","pricing_plan_id":"free"},{"bike_id":"b57064e7-e3d9-41d5-8877-54f364df19cd","system_id":"levelo_inurba_marseille","lat":43.29528,"lon":5.38536,"is_reserved":false,"is_disabled":false,"rental_uris":{"android":"levelo://app?vid=b57064e7-e3d9-41d5-8877-54f364df19cd","ios":"levelo://app?vid=b57064e7-e3d9-41d5-8877-54f364df19cd"},"vehicle_type_id":"4","last_reported":1692479047,"current_range_meters":4400,"station_id":"ce4bgih2rcd13ifvqba0","pricing_plan_id":"free"},{"bike_id":"1b515cbf-e5be-43a7-8343-90acde7b845c","system_id":"levelo_inurba_marseille","lat":43.29529,"lon":5.385581,"is_reserved":false,"is_disabled":false,"rental_uris":{"android":"levelo://app?vid=1b515cbf-e5be-43a7-8343-90acde7b845c","ios":"levelo://app?vid=1b515cbf-e5be-43a7-8343-90acde7b845c"},"vehicle_type_id":"4","last_reported":1692479047,"current_range_meters":800,"station_id":"ce4bgih2rcd13ifvqba0","pricing_plan_id":"free"},{"bike_id":"212ce10c-edd5-4a37-ae42-07758bfe2a3a","system_id":"levelo_inurba_marseille","lat":43.29529,"lon":5.385581,"is_reserved":false,"is_disabled":false,"rental_uris":{"android":"levelo://app?vid=212ce10c-edd5-4a37-ae42-07758bfe2a3a","ios":"levelo://app?vid=212ce10c-edd5-4a37-ae42-07758bfe2a3a"},"vehicle_type_id":"4","last_reported":1692479047,"current_range_meters":16000,"station_id":"ce4bgih2rcd13ifvqba0","pricing_plan_id":"free"},{"bike_id":"a3b8e00b-a853-47aa-b33e-cf11b6baad37","system_id":"levelo_inurba_marseille","lat":43.29529,"lon":5.385581,"is_reserved":false,"is_disabled":false,"rental_uris":{"android":"levelo://app?vid=a3b8e00b-a853-47aa-b33e-cf11b6baad37","ios":"levelo://app?vid=a3b8e00b-a853-47aa-b33e-cf11b6baad37"},"vehicle_type_id":"4","last_reported":1692479047,"current_range_meters":5600,"station_id":"ce4bgih2rcd13ifvqba0","pricing_plan_id":"free"},{"bike_id":"6f98b1be-0c35-4b26-9480-b37f169d1827","system_id":"levelo_inurba_marseille","lat":43.29534,"lon":5.38549,"is_reserved":false,"is_disabled":false,"rental_uris":{"android":"levelo://app?vid=6f98b1be-0c35-4b26-9480-b37f169d1827","ios":"levelo://app?vid=6f98b1be-0c35-4b26-9480-b37f169d1827"},"vehicle_type_id":"4","last_reported":1692479047,"current_range_meters":0,"station_id":"ce4bgih2rcd13ifvqba0","pricing_plan_id":"free"},{"bike_id":"123bfc9f-c535-4466-a981-183c34eb4658","system_id":"levelo_inurba_marseille","lat":43.29529,"lon":5.385581,"is_reserved":false,"is_disabled":false,"rental_uris":{"android":"levelo://app?vid=123bfc9f-c535-4466-a981-183c34eb4658","ios":"levelo://app?vid=123bfc9f-c535-4466-a981-183c34eb4658"},"vehicle_type_id":"4","last_reported":1692479047,"current_range_meters":2400,"station_id":"ce4bgih2rcd13ifvqba0","pricing_plan_id":"free"},{"bike_id":"ca518e88-c659-4f42-9b0f-f39de4c8bfc8","system_id":"levelo_inurba_marseille","lat":43.29529,"lon":5.385581,"is_reserved":false,"is_disabled":false,"rental_uris":{"android":"levelo://app?vid=ca518e88-c659-4f42-9b0f-f39de4c8bfc8","ios":"levelo://app?vid=ca518e88-c659-4f42-9b0f-f39de4c8bfc8"},"vehicle_type_id":"4","last_reported":1692479047,"current_range_meters":4000,"station_id":"ce4bgih2rcd13ifvqba0","pricing_plan_id":"free"},{"bike_id":"0efb8516-0de1-4a76-b49b-a086397de9ee","system_id":"levelo_inurba_marseille","lat":43.29529,"lon":5.385581,"is_reserved":false,"is_disabled":false,"rental_uris":{"android":"levelo://app?vid=0efb8516-0de1-4a76-b49b-a086397de9ee","ios":"levelo://app?vid=0efb8516-0de1-4a76-b49b-a086397de9ee"},"vehicle_type_id":"4","last_reported":1692479047,"current_range_meters":1200,"station_id":"ce4bgih2rcd13ifvqba0","pricing_plan_id":"free"},{"bike_id":"d1f32145-41e3-4f13-bcfa-26c16904ce75","system_id":"levelo_inurba_marseille","lat":43.29529,"lon":5.385581,"is_reserved":false,"is_disabled":false,"rental_uris":{"android":"levelo://app?vid=d1f32145-41e3-4f13-bcfa-26c16904ce75","ios":"levelo://app?vid=d1f32145-41e3-4f13-bcfa-26c16904ce75"},"vehicle_type_id":"4","last_reported":1692479047,"current_range_meters":17200,"station_id":"ce4bgih2rcd13ifvqba0","pricing_plan_id":"free"},{"bike_id":"fe071b68-b964-43e9-b18d-778ca95fefdb","system_id":"levelo_inurba_marseille","lat":43.29529,"lon":5.385581,"is_reserved":false,"is_disabled":false,"rental_uris":{"android":"levelo://app?vid=fe071b68-b964-43e9-b18d-778ca95fefdb","ios":"levelo://app?vid=fe071b68-b964-43e9-b18d-778ca95fefdb"},"vehicle_type_id":"4","last_reported":1692479047,"current_range_meters":11200,"station_id":"ce4bgih2rcd13ifvqba0","pricing_plan_id":"free"},{"bike_id":"5180a62e-979c-49c3-a8a1-e87dce17c180","system_id":"levelo_inurba_marseille","lat":43.302008,"lon":5.394694,"is_reserved":false,"is_disabled":false,"rental_uris":{"android":"levelo://app?vid=5180a62e-979c-49c3-a8a1-e87dce17c180","ios":"levelo://app?vid=5180a62e-979c-49c3-a8a1-e87dce17c180"},"vehicle_type_id":"4","last_reported":1692479047,"current_range_meters":15200,"station_id":"ce4bh0p2rcd13ifvqd70","pricing_plan_id":"free"},{"bike_id":"e1c13b0c-4fb0-40d9-9f3a-0d6a15f2229e","system_id":"levelo_inurba_marseille","lat":43.302008,"lon":5.394694,"is_reserved":false,"is_disabled":false,"rental_uris":{"android":"levelo://app?vid=e1c13b0c-4fb0-40d9-9f3a-0d6a15f2229e","ios":"levelo://app?vid=e1c13b0c-4fb0-40d9-9f3a-0d6a15f2229e"},"vehicle_type_id":"4","last_reported":1692479047,"current_range_meters":3200,"station_id":"ce4bh0p2rcd13ifvqd70","pricing_plan_id":"free"},{"bike_id":"7779850c-d95c-45a8-b423-ed151c22ad8e","system_id":"levelo_inurba_marseille","lat":43.294153,"lon":5.386305,"is_reserved":false,"is_disabled":false,"rental_uris":{"android":"levelo://app?vid=7779850c-d95c-45a8-b423-ed151c22ad8e","ios":"levelo://app?vid=7779850c-d95c-45a8-b423-ed151c22ad8e"},"vehicle_type_id":"4","last_reported":1692479047,"current_range_meters":4000,"station_id":"ce4bh2h2rcd13ifvqdh0","pricing_plan_id":"free"},{"bike_id":"b45eea2d-24ec-47d2-9a45-69006156454a","system_id":"levelo_inurba_marseille","lat":43.294153,"lon":5.386305,"is_reserved":false,"is_disabled":false,"rental_uris":{"android":"levelo://app?vid=b45eea2d-24ec-47d2-9a45-69006156454a","ios":"levelo://app?vid=b45eea2d-24ec-47d2-9a45-69006156454a"},"vehicle_type_id":"4","last_reported":1692479047,"current_range_meters":27600,"station_id":"ce4bh2h2rcd13ifvqdh0","pricing_plan_id":"free"},{"bike_id":"9051bfc3-f70a-45b3-9ae5-6fad4b85d20c","system_id":"levelo_inurba_marseille","lat":43.294153,"lon":5.386305,"is_reserved":false,"is_disabled":false,"rental_uris":{"android":"levelo://app?vid=9051bfc3-f70a-45b3-9ae5-6fad4b85d20c","ios":"levelo://app?vid=9051bfc3-f70a-45b3-9ae5-6fad4b85d20c"},"vehicle_type_id":"4","last_reported":1692479047,"current_range_meters":28800,"station_id":"ce4bh2h2rcd13ifvqdh0","pricing_plan_id":"free"},{"bike_id":"b5e92578-f892-4b8f-87da-6ee5b6af6af5","system_id":"levelo_inurba_marseille","lat":43.294153,"lon":5.386305,"is_reserved":false,"is_disabled":false,"rental_uris":{"android":"levelo://app?vid=b5e92578-f892-4b8f-87da-6ee5b6af6af5","ios":"levelo://app?vid=b5e92578-f892-4b8f-87da-6ee5b6af6af5"},"vehicle_type_id":"4","last_reported":1692479047,"current_range_meters":0,"station_id":"ce4bh2h2rcd13ifvqdh0","pricing_plan_id":"free"},{"bike_id":"52f8b007-44a8-4c3d-b977-3e56bac5b448","system_id":"levelo_inurba_marseille","lat":43.294153,"lon":5.386305,"is_reserved":false,"is_disabled":false,"rental_uris":{"android":"levelo://app?vid=52f8b007-44a8-4c3d-b977-3e56bac5b448","ios":"levelo://app?vid=52f8b007-44a8-4c3d-b977-3e56bac5b448"},"vehicle_type_id":"4","last_reported":1692479047,"current_range_meters":10000,"station_id":"ce4bh2h2rcd13ifvqdh0","pricing_plan_id":"free"},{"bike_id":"cd54799c-420f-4302-b429-656a9618cd99","system_id":"levelo_inurba_marseille","lat":43.29422,"lon":5.38627,"is_reserved":false,"is_disabled":false,"rental_uris":{"android":"levelo://app?vid=cd54799c-420f-4302-b429-656a9618cd99","ios":"levelo://app?vid=cd54799c-420f-4302-b429-656a9618cd99"},"vehicle_type_id":"4","last_reported":1692479047,"current_range_meters":0,"station_id":"ce4bh2h2rcd13ifvqdh0","pricing_plan_id":"free"},{"bike_id":"02712670-aa8a-43b1-a55a-9beabd0b4fcb","system_id":"levelo_inurba_marseille","lat":43.294153,"lon":5.386305,"is_reserved":false,"is_disabled":false,"rental_uris":{"android":"levelo://app?vid=02712670-aa8a-43b1-a55a-9beabd0b4fcb","ios":"levelo://app?vid=02712670-aa8a-43b1-a55a-9beabd0b4fcb"},"vehicle_type_id":"4","last_reported":1692479047,"current_range_meters":9200,"station_id":"ce4bh2h2rcd13ifvqdh0","pricing_plan_id":"free"},{"bike_id":"bac1a15f-613f-4029-8898-d41250ba9824","system_id":"levelo_inurba_marseille","lat":43.2942,"lon":5.38624,"is_reserved":false,"is_disabled":false,"rental_uris":{"android":"levelo://app?vid=bac1a15f-613f-4029-8898-d41250ba9824","ios":"levelo://app?vid=bac1a15f-613f-4029-8898-d41250ba9824"},"vehicle_type_id":"4","last_reported":1692479047,"current_range_meters":26000,"station_id":"ce4bh2h2rcd13ifvqdh0","pricing_plan_id":"free"},{"bike_id":"0eb62d5c-7785-41e5-9bef-bffdede04037","system_id":"levelo_inurba_marseille","lat":43.29421,"lon":5.38629,"is_reserved":false,"is_disabled":false,"rental_uris":{"android":"levelo://app?vid=0eb62d5c-7785-41e5-9bef-bffdede04037","ios":"levelo://app?vid=0eb62d5c-7785-41e5-9bef-bffdede04037"},"vehicle_type_id":"4","last_reported":1692479047,"current_range_meters":21200,"station_id":"ce4bh2h2rcd13ifvqdh0","pricing_plan_id":"free"},{"bike_id":"866ec810-610c-494a-8a35-21e5dc58c36e","system_id":"levelo_inurba_marseille","lat":43.29421,"lon":5.38631,"is_reserved":false,"is_disabled":false,"rental_uris":{"android":"levelo://app?vid=866ec810-610c-494a-8a35-21e5dc58c36e","ios":"levelo://app?vid=866ec810-610c-494a-8a35-21e5dc58c36e"},"vehicle_type_id":"4","last_reported":1692479047,"current_range_meters":11600,"station_id":"ce4bh2h2rcd13ifvqdh0","pricing_plan_id":"free"},{"bike_id":"71fd0c17-54a1-4f8e-9b88-cd37545170e9","system_id":"levelo_inurba_marseille","lat":43.29423,"lon":5.38637,"is_reserved":false,"is_disabled":false,"rental_uris":{"android":"levelo://app?vid=71fd0c17-54a1-4f8e-9b88-cd37545170e9","ios":"levelo://app?vid=71fd0c17-54a1-4f8e-9b88-cd37545170e9"},"vehicle_type_id":"4","last_reported":1692479047,"current_range_meters":6800,"station_id":"ce4bh2h2rcd13ifvqdh0","pricing_plan_id":"free"},{"bike_id":"32af59c6-05e1-47c7-8d49-8c5e92080a46","system_id":"levelo_inurba_marseille","lat":43.294153,"lon":5.386305,"is_reserved":false,"is_disabled":false,"rental_uris":{"android":"levelo://app?vid=32af59c6-05e1-47c7-8d49-8c5e92080a46","ios":"levelo://app?vid=32af59c6-05e1-47c7-8d49-8c5e92080a46"},"vehicle_type_id":"4","last_reported":1692479047,"current_range_meters":12000,"station_id":"ce4bh2h2rcd13ifvqdh0","pricing_plan_id":"free"},{"bike_id":"f80e352b-e9c0-4373-aafa-95725670acf7","system_id":"levelo_inurba_marseille","lat":43.29417,"lon":5.38631,"is_reserved":false,"is_disabled":false,"rental_uris":{"android":"levelo://app?vid=f80e352b-e9c0-4373-aafa-95725670acf7","ios":"levelo://app?vid=f80e352b-e9c0-4373-aafa-95725670acf7"},"vehicle_type_id":"4","last_reported":1692479047,"current_range_meters":20800,"station_id":"ce4bh2h2rcd13ifvqdh0","pricing_plan_id":"free"},{"bike_id":"8bc00ab4-a676-411c-8594-96b68ec16d8e","system_id":"levelo_inurba_marseille","lat":43.29417,"lon":5.38631,"is_reserved":false,"is_disabled":false,"rental_uris":{"android":"levelo://app?vid=8bc00ab4-a676-411c-8594-96b68ec16d8e","ios":"levelo://app?vid=8bc00ab4-a676-411c-8594-96b68ec16d8e"},"vehicle_type_id":"4","last_reported":1692479047,"current_range_meters":19600,"station_id":"ce4bh2h2rcd13ifvqdh0","pricing_plan_id":"free"},{"bike_id":"ada0430c-7087-49ea-8b20-6a2abe95bafe","system_id":"levelo_inurba_marseille","lat":43.29415,"lon":5.38631,"is_reserved":false,"is_disabled":false,"rental_uris":{"android":"levelo://app?vid=ada0430c-7087-49ea-8b20-6a2abe95bafe","ios":"levelo://app?vid=ada0430c-7087-49ea-8b20-6a2abe95bafe"},"vehicle_type_id":"4","last_reported":1692479047,"current_range_meters":19200,"station_id":"ce4bh2h2rcd13ifvqdh0","pricing_plan_id":"free"},{"bike_id":"9fa368cd-6514-4128-a5fc-6fd00af78075","system_id":"levelo_inurba_marseille","lat":43.29409,"lon":5.38634,"is_reserved":false,"is_disabled":false,"rental_uris":{"android":"levelo://app?vid=9fa368cd-6514-4128-a5fc-6fd00af78075","ios":"levelo://app?vid=9fa368cd-6514-4128-a5fc-6fd00af78075"},"vehicle_type_id":"4","last_reported":1692479047,"current_range_meters":14000,"station_id":"ce4bh2h2rcd13ifvqdh0","pricing_plan_id":"free"},{"bike_id":"0eb7ec65-9d0c-4970-a4db-8c2817001c2f","system_id":"levelo_inurba_marseille","lat":43.289468,"lon":5.363719,"is_reserved":false,"is_disabled":false,"rental_uris":{"android":"levelo://app?vid=0eb7ec65-9d0c-4970-a4db-8c2817001c2f","ios":"levelo://app?vid=0eb7ec65-9d0c-4970-a4db-8c2817001c2f"},"vehicle_type_id":"4","last_reported":1692479047,"current_range_meters":5200,"station_id":"ce4bhc92rcd13ifvqetg","pricing_plan_id":"free"},{"bike_id":"028a3aae-2a89-4ee5-8b8b-b2cde68dde3a","system_id":"levelo_inurba_marseille","lat":43.292642,"lon":5.384254,"is_reserved":false,"is_disabled":false,"rental_uris":{"android":"levelo://app?vid=028a3aae-2a89-4ee5-8b8b-b2cde68dde3a","ios":"levelo://app?vid=028a3aae-2a89-4ee5-8b8b-b2cde68dde3a"},"vehicle_type_id":"4","last_reported":1692479047,"current_range_meters":25200,"station_id":"ce4bh692rcd13ifvqea0","pricing_plan_id":"free"},{"bike_id":"b9bcaece-c422-4180-9339-e4dafc68b007","system_id":"levelo_inurba_marseille","lat":43.29276,"lon":5.38453,"is_reserved":false,"is_disabled":false,"rental_uris":{"android":"levelo://app?vid=b9bcaece-c422-4180-9339-e4dafc68b007","ios":"levelo://app?vid=b9bcaece-c422-4180-9339-e4dafc68b007"},"vehicle_type_id":"4","last_reported":1692479047,"current_range_meters":16000,"station_id":"ce4bh692rcd13ifvqea0","pricing_plan_id":"free"},{"bike_id":"fd694e9b-ee8d-4720-95fb-8aba20309c0b","system_id":"levelo_inurba_marseille","lat":43.292697,"lon":5.384426,"is_reserved":false,"is_disabled":false,"rental_uris":{"android":"levelo://app?vid=fd694e9b-ee8d-4720-95fb-8aba20309c0b","ios":"levelo://app?vid=fd694e9b-ee8d-4720-95fb-8aba20309c0b"},"vehicle_type_id":"4","last_reported":1692479047,"current_range_meters":2800,"station_id":"ce4bh692rcd13ifvqea0","pricing_plan_id":"free"},{"bike_id":"85bbd6dc-505a-4d88-a71f-611ebd5a84de","system_id":"levelo_inurba_marseille","lat":43.292642,"lon":5.384254,"is_reserved":false,"is_disabled":false,"rental_uris":{"android":"levelo://app?vid=85bbd6dc-505a-4d88-a71f-611ebd5a84de","ios":"levelo://app?vid=85bbd6dc-505a-4d88-a71f-611ebd5a84de"},"vehicle_type_id":"4","last_reported":1692479047,"current_range_meters":14400,"station_id":"ce4bh692rcd13ifvqea0","pricing_plan_id":"free"},{"bike_id":"218f037d-5af9-4e38-bf2a-7e3a31aece11","system_id":"levelo_inurba_marseille","lat":43.292642,"lon":5.384254,"is_reserved":false,"is_disabled":false,"rental_uris":{"android":"levelo://app?vid=218f037d-5af9-4e38-bf2a-7e3a31aece11","ios":"levelo://app?vid=218f037d-5af9-4e38-bf2a-7e3a31aece11"},"vehicle_type_id":"4","last_reported":1692479047,"current_range_meters":17200,"station_id":"ce4bh692rcd13ifvqea0","pricing_plan_id":"free"},{"bike_id":"582314d5-d33f-4fe3-81d5-516b4642dff8","system_id":"levelo_inurba_marseille","lat":43.292642,"lon":5.384254,"is_reserved":false,"is_disabled":false,"rental_uris":{"android":"levelo://app?vid=582314d5-d33f-4fe3-81d5-516b4642dff8","ios":"levelo://app?vid=582314d5-d33f-4fe3-81d5-516b4642dff8"},"vehicle_type_id":"4","last_reported":1692479047,"current_range_meters":10000,"station_id":"ce4bh692rcd13ifvqea0","pricing_plan_id":"free"},{"bike_id":"c086863f-5fff-4c00-bcde-9e92d73c7a77","system_id":"levelo_inurba_marseille","lat":43.304296,"lon":5.397513,"is_reserved":false,"is_disabled":false,"rental_uris":{"android":"levelo://app?vid=c086863f-5fff-4c00-bcde-9e92d73c7a77","ios":"levelo://app?vid=c086863f-5fff-4c00-bcde-9e92d73c7a77"},"vehicle_type_id":"4","last_reported":1692479047,"current_range_meters":14400,"station_id":"ce4bh092rcd13ifvqd20","pricing_plan_id":"free"},{"bike_id":"d5501c4b-3556-4f4a-b18a-7ad3b66f49a6","system_id":"levelo_inurba_marseille","lat":43.29264,"lon":5.38444,"is_reserved":false,"is_disabled":false,"rental_uris":{"android":"levelo://app?vid=d5501c4b-3556-4f4a-b18a-7ad3b66f49a6","ios":"levelo://app?vid=d5501c4b-3556-4f4a-b18a-7ad3b66f49a6"},"vehicle_type_id":"4","last_reported":1692479047,"current_range_meters":6800,"station_id":"ce4bh692rcd13ifvqea0","pricing_plan_id":"free"},{"bike_id":"b7dd7d77-3b6a-43ab-aee6-2fbebcde536a","system_id":"levelo_inurba_marseille","lat":43.292644,"lon":5.384257,"is_reserved":false,"is_disabled":false,"rental_uris":{"android":"levelo://app?vid=b7dd7d77-3b6a-43ab-aee6-2fbebcde536a","ios":"levelo://app?vid=b7dd7d77-3b6a-43ab-aee6-2fbebcde536a"},"vehicle_type_id":"4","last_reported":1692479047,"current_range_meters":8000,"station_id":"ce4bh692rcd13ifvqea0","pricing_plan_id":"free"},{"bike_id":"666a710e-af59-4e69-82e3-734fea822df4","system_id":"levelo_inurba_marseille","lat":43.292644,"lon":5.384257,"is_reserved":false,"is_disabled":false,"rental_uris":{"android":"levelo://app?vid=666a710e-af59-4e69-82e3-734fea822df4","ios":"levelo://app?vid=666a710e-af59-4e69-82e3-734fea822df4"},"vehicle_type_id":"4","last_reported":1692479047,"current_range_meters":1600,"station_id":"ce4bh692rcd13ifvqea0","pricing_plan_id":"free"},{"bike_id":"de450cac-4370-4660-9455-3e94463307a2","system_id":"levelo_inurba_marseille","lat":43.33039,"lon":5.38918,"is_reserved":false,"is_disabled":false,"rental_uris":{"android":"levelo://app?vid=de450cac-4370-4660-9455-3e94463307a2","ios":"levelo://app?vid=de450cac-4370-4660-9455-3e94463307a2"},"vehicle_type_id":"4","last_reported":1692479047,"current_range_meters":18400,"station_id":"ce4bhr92rcd13ifvqhrg","pricing_plan_id":"free"},{"bike_id":"86eac789-1e56-496d-abfa-705e29d378c7","system_id":"levelo_inurba_marseille","lat":43.33044,"lon":5.38913,"is_reserved":false,"is_disabled":false,"rental_uris":{"android":"levelo://app?vid=86eac789-1e56-496d-abfa-705e29d378c7","ios":"levelo://app?vid=86eac789-1e56-496d-abfa-705e29d378c7"},"vehicle_type_id":"4","last_reported":1692479047,"current_range_meters":30000,"station_id":"ce4bhr92rcd13ifvqhrg","pricing_plan_id":"free"},{"bike_id":"c8619c93-5f6a-45f4-8e07-c81fcc1e21be","system_id":"levelo_inurba_marseille","lat":43.33045,"lon":5.38912,"is_reserved":false,"is_disabled":false,"rental_uris":{"android":"levelo://app?vid=c8619c93-5f6a-45f4-8e07-c81fcc1e21be","ios":"levelo://app?vid=c8619c93-5f6a-45f4-8e07-c81fcc1e21be"},"vehicle_type_id":"4","last_reported":1692479047,"current_range_meters":28400,"station_id":"ce4bhr92rcd13ifvqhrg","pricing_plan_id":"free"},{"bike_id":"a5d7998c-4c76-4390-bbcf-8c2a2abd7eba","system_id":"levelo_inurba_marseille","lat":43.3304,"lon":5.3892,"is_reserved":false,"is_disabled":false,"rental_uris":{"android":"levelo://app?vid=a5d7998c-4c76-4390-bbcf-8c2a2abd7eba","ios":"levelo://app?vid=a5d7998c-4c76-4390-bbcf-8c2a2abd7eba"},"vehicle_type_id":"4","last_reported":1692479047,"current_range_meters":31200,"station_id":"ce4bhr92rcd13ifvqhrg","pricing_plan_id":"free"},{"bike_id":"d2b15eb2-4474-4e56-aace-fe335ab0092e","system_id":"levelo_inurba_marseille","lat":43.33039,"lon":5.38922,"is_reserved":false,"is_disabled":false,"rental_uris":{"android":"levelo://app?vid=d2b15eb2-4474-4e56-aace-fe335ab0092e","ios":"levelo://app?vid=d2b15eb2-4474-4e56-aace-fe335ab0092e"},"vehicle_type_id":"4","last_reported":1692479047,"current_range_meters":15600,"station_id":"ce4bhr92rcd13ifvqhrg","pricing_plan_id":"free"},{"bike_id":"3b3e7c42-cded-4bde-b175-99650afa4f17","system_id":"levelo_inurba_marseille","lat":43.33045,"lon":5.38914,"is_reserved":false,"is_disabled":false,"rental_uris":{"android":"levelo://app?vid=3b3e7c42-cded-4bde-b175-99650afa4f17","ios":"levelo://app?vid=3b3e7c42-cded-4bde-b175-99650afa4f17"},"vehicle_type_id":"4","last_reported":1692479047,"current_range_meters":24800,"station_id":"ce4bhr92rcd13ifvqhrg","pricing_plan_id":"free"},{"bike_id":"16105e4d-cb4a-4aae-91bb-2ecd41a7406b","system_id":"levelo_inurba_marseille","lat":43.3304,"lon":5.38922,"is_reserved":false,"is_disabled":false,"rental_uris":{"android":"levelo://app?vid=16105e4d-cb4a-4aae-91bb-2ecd41a7406b","ios":"levelo://app?vid=16105e4d-cb4a-4aae-91bb-2ecd41a7406b"},"vehicle_type_id":"4","last_reported":1692479047,"current_range_meters":23200,"station_id":"ce4bhr92rcd13ifvqhrg","pricing_plan_id":"free"},{"bike_id":"70576a93-fbdb-4696-908e-c08c0f1995f8","system_id":"levelo_inurba_marseille","lat":43.33045,"lon":5.38915,"is_reserved":false,"is_disabled":false,"rental_uris":{"android":"levelo://app?vid=70576a93-fbdb-4696-908e-c08c0f1995f8","ios":"levelo://app?vid=70576a93-fbdb-4696-908e-c08c0f1995f8"},"vehicle_type_id":"4","last_reported":1692479047,"current_range_meters":26400,"station_id":"ce4bhr92rcd13ifvqhrg","pricing_plan_id":"free"},{"bike_id":"4acef044-58d4-4046-9f8b-3557af517e74","system_id":"levelo_inurba_marseille","lat":43.33042,"lon":5.3892,"is_reserved":false,"is_disabled":false,"rental_uris":{"android":"levelo://app?vid=4acef044-58d4-4046-9f8b-3557af517e74","ios":"levelo://app?vid=4acef044-58d4-4046-9f8b-3557af517e74"},"vehicle_type_id":"4","last_reported":1692479047,"current_range_meters":13200,"station_id":"ce4bhr92rcd13ifvqhrg","pricing_plan_id":"free"},{"bike_id":"331b6e0a-8cfc-4305-9eef-0266cde03da7","system_id":"levelo_inurba_marseille","lat":43.33045,"lon":5.38916,"is_reserved":false,"is_disabled":false,"rental_uris":{"android":"levelo://app?vid=331b6e0a-8cfc-4305-9eef-0266cde03da7","ios":"levelo://app?vid=331b6e0a-8cfc-4305-9eef-0266cde03da7"},"vehicle_type_id":"4","last_reported":1692479047,"current_range_meters":17200,"station_id":"ce4bhr92rcd13ifvqhrg","pricing_plan_id":"free"},{"bike_id":"024f4d94-1555-4991-925c-5e7448051bbb","system_id":"levelo_inurba_marseille","lat":43.33041,"lon":5.38923,"is_reserved":false,"is_disabled":false,"rental_uris":{"android":"levelo://app?vid=024f4d94-1555-4991-925c-5e7448051bbb","ios":"levelo://app?vid=024f4d94-1555-4991-925c-5e7448051bbb"},"vehicle_type_id":"4","last_reported":1692479047,"current_range_meters":29200,"station_id":"ce4bhr92rcd13ifvqhrg","pricing_plan_id":"free"},{"bike_id":"9e24a65c-fe1e-45dc-88b9-dd0cad85064c","system_id":"levelo_inurba_marseille","lat":43.33042,"lon":5.38923,"is_reserved":false,"is_disabled":false,"rental_uris":{"android":"levelo://app?vid=9e24a65c-fe1e-45dc-88b9-dd0cad85064c","ios":"levelo://app?vid=9e24a65c-fe1e-45dc-88b9-dd0cad85064c"},"vehicle_type_id":"4","last_reported":1692479047,"current_range_meters":30000,"station_id":"ce4bhr92rcd13ifvqhrg","pricing_plan_id":"free"},{"bike_id":"5036c72a-6252-47f4-a9fb-50fd514d506a","system_id":"levelo_inurba_marseille","lat":43.33046,"lon":5.38919,"is_reserved":false,"is_disabled":false,"rental_uris":{"android":"levelo://app?vid=5036c72a-6252-47f4-a9fb-50fd514d506a","ios":"levelo://app?vid=5036c72a-6252-47f4-a9fb-50fd514d506a"},"vehicle_type_id":"4","last_reported":1692479047,"current_range_meters":23200,"station_id":"ce4bhr92rcd13ifvqhrg","pricing_plan_id":"free"},{"bike_id":"7d19a255-9f7a-4d0e-beba-2bfebb3c7b5e","system_id":"levelo_inurba_marseille","lat":43.33046,"lon":5.38919,"is_reserved":false,"is_disabled":false,"rental_uris":{"android":"levelo://app?vid=7d19a255-9f7a-4d0e-beba-2bfebb3c7b5e","ios":"levelo://app?vid=7d19a255-9f7a-4d0e-beba-2bfebb3c7b5e"},"vehicle_type_id":"4","last_reported":1692479047,"current_range_meters":22800,"station_id":"ce4bhr92rcd13ifvqhrg","pricing_plan_id":"free"},{"bike_id":"eb950724-6c95-4fb2-915f-35b08a8cfd23","system_id":"levelo_inurba_marseille","lat":43.33046,"lon":5.38919,"is_reserved":false,"is_disabled":false,"rental_uris":{"android":"levelo://app?vid=eb950724-6c95-4fb2-915f-35b08a8cfd23","ios":"levelo://app?vid=eb950724-6c95-4fb2-915f-35b08a8cfd23"},"vehicle_type_id":"4","last_reported":1692479047,"current_range_meters":20400,"station_id":"ce4bhr92rcd13ifvqhrg","pricing_plan_id":"free"},{"bike_id":"86535332-25ae-4735-984f-2b7a7387a6af","system_id":"levelo_inurba_marseille","lat":43.33049,"lon":5.38916,"is_reserved":false,"is_disabled":false,"rental_uris":{"android":"levelo://app?vid=86535332-25ae-4735-984f-2b7a7387a6af","ios":"levelo://app?vid=86535332-25ae-4735-984f-2b7a7387a6af"},"vehicle_type_id":"4","last_reported":1692479047,"current_range_meters":30800,"station_id":"ce4bhr92rcd13ifvqhrg","pricing_plan_id":"free"},{"bike_id":"5c8c244a-8618-42d9-abf2-521b07f6577d","system_id":"levelo_inurba_marseille","lat":43.33049,"lon":5.38917,"is_reserved":false,"is_disabled":false,"rental_uris":{"android":"levelo://app?vid=5c8c244a-8618-42d9-abf2-521b07f6577d","ios":"levelo://app?vid=5c8c244a-8618-42d9-abf2-521b07f6577d"},"vehicle_type_id":"4","last_reported":1692479047,"current_range_meters":28000,"station_id":"ce4bhr92rcd13ifvqhrg","pricing_plan_id":"free"},{"bike_id":"708f7f21-b221-4c14-94b6-b5d8e3289350","system_id":"levelo_inurba_marseille","lat":43.33048,"lon":5.38919,"is_reserved":false,"is_disabled":false,"rental_uris":{"android":"levelo://app?vid=708f7f21-b221-4c14-94b6-b5d8e3289350","ios":"levelo://app?vid=708f7f21-b221-4c14-94b6-b5d8e3289350"},"vehicle_type_id":"4","last_reported":1692479047,"current_range_meters":21200,"station_id":"ce4bhr92rcd13ifvqhrg","pricing_plan_id":"free"},{"bike_id":"9dbd5c45-4664-476d-80fb-895eaa79429b","system_id":"levelo_inurba_marseille","lat":43.304296,"lon":5.397513,"is_reserved":false,"is_disabled":false,"rental_uris":{"android":"levelo://app?vid=9dbd5c45-4664-476d-80fb-895eaa79429b","ios":"levelo://app?vid=9dbd5c45-4664-476d-80fb-895eaa79429b"},"vehicle_type_id":"4","last_reported":1692479047,"current_range_meters":23200,"station_id":"ce4bh092rcd13ifvqd20","pricing_plan_id":"free"},{"bike_id":"2bc4c090-b3f7-411b-b712-0606ac548754","system_id":"levelo_inurba_marseille","lat":43.290995,"lon":5.381361,"is_reserved":false,"is_disabled":false,"rental_uris":{"android":"levelo://app?vid=2bc4c090-b3f7-411b-b712-0606ac548754","ios":"levelo://app?vid=2bc4c090-b3f7-411b-b712-0606ac548754"},"vehicle_type_id":"4","last_reported":1692479047,"current_range_meters":0,"station_id":"ce4bh512rcd13ifvqe2g","pricing_plan_id":"free"},{"bike_id":"c26b5ab4-6426-404c-9865-d8c01c7c05cc","system_id":"levelo_inurba_marseille","lat":43.290995,"lon":5.381361,"is_reserved":false,"is_disabled":false,"rental_uris":{"android":"levelo://app?vid=c26b5ab4-6426-404c-9865-d8c01c7c05cc","ios":"levelo://app?vid=c26b5ab4-6426-404c-9865-d8c01c7c05cc"},"vehicle_type_id":"4","last_reported":1692479047,"current_range_meters":11600,"station_id":"ce4bh512rcd13ifvqe2g","pricing_plan_id":"free"},{"bike_id":"c51b1ed6-9fbc-4d44-a3c7-81895cefcf11","system_id":"levelo_inurba_marseille","lat":43.28979,"lon":5.37834,"is_reserved":false,"is_disabled":false,"rental_uris":{"android":"levelo://app?vid=c51b1ed6-9fbc-4d44-a3c7-81895cefcf11","ios":"levelo://app?vid=c51b1ed6-9fbc-4d44-a3c7-81895cefcf11"},"vehicle_type_id":"4","last_reported":1692479047,"current_range_meters":4000,"station_id":"ce4bh9p2rcd13ifvqed0","pricing_plan_id":"free"},{"bike_id":"6f3f606d-c1c6-4429-be9b-4b49f34fc706","system_id":"levelo_inurba_marseille","lat":43.295169,"lon":5.390426,"is_reserved":false,"is_disabled":false,"rental_uris":{"android":"levelo://app?vid=6f3f606d-c1c6-4429-be9b-4b49f34fc706","ios":"levelo://app?vid=6f3f606d-c1c6-4429-be9b-4b49f34fc706"},"vehicle_type_id":"4","last_reported":1692479047,"current_range_meters":9600,"station_id":"ce4bh3p2rcd13ifvqdp0","pricing_plan_id":"free"},{"bike_id":"a97b937f-f5a8-4b66-9590-c1419676f20f","system_id":"levelo_inurba_marseille","lat":43.295169,"lon":5.390426,"is_reserved":false,"is_disabled":false,"rental_uris":{"android":"levelo://app?vid=a97b937f-f5a8-4b66-9590-c1419676f20f","ios":"levelo://app?vid=a97b937f-f5a8-4b66-9590-c1419676f20f"},"vehicle_type_id":"4","last_reported":1692479047,"current_range_meters":16400,"station_id":"ce4bh3p2rcd13ifvqdp0","pricing_plan_id":"free"},{"bike_id":"070c66a7-6cf5-4797-a2b2-598ffcf57e40","system_id":"levelo_inurba_marseille","lat":43.295169,"lon":5.390426,"is_reserved":false,"is_disabled":false,"rental_uris":{"android":"levelo://app?vid=070c66a7-6cf5-4797-a2b2-598ffcf57e40","ios":"levelo://app?vid=070c66a7-6cf5-4797-a2b2-598ffcf57e40"},"vehicle_type_id":"4","last_reported":1692479047,"current_range_meters":3600,"station_id":"ce4bh3p2rcd13ifvqdp0","pricing_plan_id":"free"},{"bike_id":"cc56abb1-5a23-49ea-a9b5-9c0fcefe3181","system_id":"levelo_inurba_marseille","lat":43.312609,"lon":5.401662,"is_reserved":false,"is_disabled":false,"rental_uris":{"android":"levelo://app?vid=cc56abb1-5a23-49ea-a9b5-9c0fcefe3181","ios":"levelo://app?vid=cc56abb1-5a23-49ea-a9b5-9c0fcefe3181"},"vehicle_type_id":"4","last_reported":1692479047,"current_range_meters":19600,"station_id":"ce4bh092rcd13ifvqd30","pricing_plan_id":"free"},{"bike_id":"fdba5af8-2355-4f92-b9b1-7abebb728036","system_id":"levelo_inurba_marseille","lat":43.309371,"lon":5.401449,"is_reserved":false,"is_disabled":false,"rental_uris":{"android":"levelo://app?vid=fdba5af8-2355-4f92-b9b1-7abebb728036","ios":"levelo://app?vid=fdba5af8-2355-4f92-b9b1-7abebb728036"},"vehicle_type_id":"4","last_reported":1692479047,"current_range_meters":0,"station_id":"ce4bgvp2rcd13ifvqct0","pricing_plan_id":"free"},{"bike_id":"ebea3e90-b4a3-4a58-9d43-4dfbd0e962f3","system_id":"levelo_inurba_marseille","lat":43.337457,"lon":5.374633,"is_reserved":false,"is_disabled":false,"rental_uris":{"android":"levelo://app?vid=ebea3e90-b4a3-4a58-9d43-4dfbd0e962f3","ios":"levelo://app?vid=ebea3e90-b4a3-4a58-9d43-4dfbd0e962f3"},"vehicle_type_id":"4","last_reported":1692479047,"current_range_meters":30000,"station_id":"","pricing_plan_id":"free"},{"bike_id":"5fffe9ef-a2b3-42dd-8baa-b27c4b846e55","system_id":"levelo_inurba_marseille","lat":43.312609,"lon":5.401662,"is_reserved":false,"is_disabled":false,"rental_uris":{"android":"levelo://app?vid=5fffe9ef-a2b3-42dd-8baa-b27c4b846e55","ios":"levelo://app?vid=5fffe9ef-a2b3-42dd-8baa-b27c4b846e55"},"vehicle_type_id":"4","last_reported":1692479047,"current_range_meters":12400,"station_id":"ce4bh092rcd13ifvqd30","pricing_plan_id":"free"},{"bike_id":"54fcf929-6da7-44be-9737-211c6ebd19f3","system_id":"levelo_inurba_marseille","lat":43.30646,"lon":5.40099,"is_reserved":false,"is_disabled":false,"rental_uris":{"android":"levelo://app?vid=54fcf929-6da7-44be-9737-211c6ebd19f3","ios":"levelo://app?vid=54fcf929-6da7-44be-9737-211c6ebd19f3"},"vehicle_type_id":"4","last_reported":1692479047,"current_range_meters":8400,"station_id":"ce4bh112rcd13ifvqda0","pricing_plan_id":"free"},{"bike_id":"5dfcc15c-7314-4e51-bfd9-982f8ea443c9","system_id":"levelo_inurba_marseille","lat":43.30642,"lon":5.40104,"is_reserved":false,"is_disabled":false,"rental_uris":{"android":"levelo://app?vid=5dfcc15c-7314-4e51-bfd9-982f8ea443c9","ios":"levelo://app?vid=5dfcc15c-7314-4e51-bfd9-982f8ea443c9"},"vehicle_type_id":"4","last_reported":1692479047,"current_range_meters":6800,"station_id":"ce4bh112rcd13ifvqda0","pricing_plan_id":"free"},{"bike_id":"4749dfa4-be2a-4938-96db-3dee16928a5e","system_id":"levelo_inurba_marseille","lat":43.301117,"lon":5.398795,"is_reserved":false,"is_disabled":false,"rental_uris":{"android":"levelo://app?vid=4749dfa4-be2a-4938-96db-3dee16928a5e","ios":"levelo://app?vid=4749dfa4-be2a-4938-96db-3dee16928a5e"},"vehicle_type_id":"4","last_reported":1692479047,"current_range_meters":21200,"station_id":"ce4bh0h2rcd13ifvqd40","pricing_plan_id":"free"},{"bike_id":"23542ef4-3ab2-45de-b0be-af3f2110fe9d","system_id":"levelo_inurba_marseille","lat":43.304188,"lon":5.412904,"is_reserved":false,"is_disabled":false,"rental_uris":{"android":"levelo://app?vid=23542ef4-3ab2-45de-b0be-af3f2110fe9d","ios":"levelo://app?vid=23542ef4-3ab2-45de-b0be-af3f2110fe9d"},"vehicle_type_id":"4","last_reported":1692479047,"current_range_meters":28400,"station_id":"ce4bhop2rcd13ifvqh8g","pricing_plan_id":"free"},{"bike_id":"f6d384c3-6287-4d8a-8244-79dc3bd264ca","system_id":"levelo_inurba_marseille","lat":43.298681,"lon":5.397225,"is_reserved":false,"is_disabled":false,"rental_uris":{"android":"levelo://app?vid=f6d384c3-6287-4d8a-8244-79dc3bd264ca","ios":"levelo://app?vid=f6d384c3-6287-4d8a-8244-79dc3bd264ca"},"vehicle_type_id":"4","last_reported":1692479047,"current_range_meters":14400,"station_id":"ce4bh0h2rcd13ifvqd50","pricing_plan_id":"free"},{"bike_id":"75199276-b705-4ad7-b6a9-49aeaa84628a","system_id":"levelo_inurba_marseille","lat":43.286591,"lon":5.363346,"is_reserved":false,"is_disabled":false,"rental_uris":{"android":"levelo://app?vid=75199276-b705-4ad7-b6a9-49aeaa84628a","ios":"levelo://app?vid=75199276-b705-4ad7-b6a9-49aeaa84628a"},"vehicle_type_id":"4","last_reported":1692479047,"current_range_meters":31200,"station_id":"ce4bhah2rcd13ifvqej0","pricing_plan_id":"free"},{"bike_id":"948adfa5-0e6c-454e-b650-89fb47977810","system_id":"levelo_inurba_marseille","lat":43.290336,"lon":5.386425,"is_reserved":false,"is_disabled":false,"rental_uris":{"android":"levelo://app?vid=948adfa5-0e6c-454e-b650-89fb47977810","ios":"levelo://app?vid=948adfa5-0e6c-454e-b650-89fb47977810"},"vehicle_type_id":"4","last_reported":1692479047,"current_range_meters":4400,"station_id":"ce4bh4p2rcd13ifvqe0g","pricing_plan_id":"free"},{"bike_id":"16e2ee3f-0341-4555-9603-ac8b9b4381a8","system_id":"levelo_inurba_marseille","lat":43.290336,"lon":5.386425,"is_reserved":false,"is_disabled":false,"rental_uris":{"android":"levelo://app?vid=16e2ee3f-0341-4555-9603-ac8b9b4381a8","ios":"levelo://app?vid=16e2ee3f-0341-4555-9603-ac8b9b4381a8"},"vehicle_type_id":"4","last_reported":1692479047,"current_range_meters":1600,"station_id":"ce4bh4p2rcd13ifvqe0g","pricing_plan_id":"free"},{"bike_id":"16c89592-26ee-473e-a2fd-659b22c78dad","system_id":"levelo_inurba_marseille","lat":43.29027,"lon":5.38633,"is_reserved":false,"is_disabled":false,"rental_uris":{"android":"levelo://app?vid=16c89592-26ee-473e-a2fd-659b22c78dad","ios":"levelo://app?vid=16c89592-26ee-473e-a2fd-659b22c78dad"},"vehicle_type_id":"4","last_reported":1692479047,"current_range_meters":28800,"station_id":"ce4bh4p2rcd13ifvqe0g","pricing_plan_id":"free"},{"bike_id":"a5111df8-93d9-4c77-b1bc-ac67163c9ff9","system_id":"levelo_inurba_marseille","lat":43.290336,"lon":5.386425,"is_reserved":false,"is_disabled":false,"rental_uris":{"android":"levelo://app?vid=a5111df8-93d9-4c77-b1bc-ac67163c9ff9","ios":"levelo://app?vid=a5111df8-93d9-4c77-b1bc-ac67163c9ff9"},"vehicle_type_id":"4","last_reported":1692479047,"current_range_meters":6800,"station_id":"ce4bh4p2rcd13ifvqe0g","pricing_plan_id":"free"},{"bike_id":"95f463ef-dbcf-4890-a477-239482ddbe17","system_id":"levelo_inurba_marseille","lat":43.290336,"lon":5.386425,"is_reserved":false,"is_disabled":false,"rental_uris":{"android":"levelo://app?vid=95f463ef-dbcf-4890-a477-239482ddbe17","ios":"levelo://app?vid=95f463ef-dbcf-4890-a477-239482ddbe17"},"vehicle_type_id":"4","last_reported":1692479047,"current_range_meters":12400,"station_id":"ce4bh4p2rcd13ifvqe0g","pricing_plan_id":"free"},{"bike_id":"7af33a0f-faa4-459a-8ff7-b29e7a95bfcc","system_id":"levelo_inurba_marseille","lat":43.30248,"lon":5.40061,"is_reserved":false,"is_disabled":false,"rental_uris":{"android":"levelo://app?vid=7af33a0f-faa4-459a-8ff7-b29e7a95bfcc","ios":"levelo://app?vid=7af33a0f-faa4-459a-8ff7-b29e7a95bfcc"},"vehicle_type_id":"4","last_reported":1692479047,"current_range_meters":0,"station_id":"","pricing_plan_id":"free"},{"bike_id":"9f6d3463-1ffa-4c8e-8bd8-9b8c6aba6f6b","system_id":"levelo_inurba_marseille","lat":43.290336,"lon":5.386425,"is_reserved":false,"is_disabled":false,"rental_uris":{"android":"levelo://app?vid=9f6d3463-1ffa-4c8e-8bd8-9b8c6aba6f6b","ios":"levelo://app?vid=9f6d3463-1ffa-4c8e-8bd8-9b8c6aba6f6b"},"vehicle_type_id":"4","last_reported":1692479047,"current_range_meters":12000,"station_id":"ce4bh4p2rcd13ifvqe0g","pricing_plan_id":"free"},{"bike_id":"35c09d30-bf0c-4e4c-b736-919850215a1a","system_id":"levelo_inurba_marseille","lat":43.290336,"lon":5.386425,"is_reserved":false,"is_disabled":false,"rental_uris":{"android":"levelo://app?vid=35c09d30-bf0c-4e4c-b736-919850215a1a","ios":"levelo://app?vid=35c09d30-bf0c-4e4c-b736-919850215a1a"},"vehicle_type_id":"4","last_reported":1692479047,"current_range_meters":16800,"station_id":"ce4bh4p2rcd13ifvqe0g","pricing_plan_id":"free"},{"bike_id":"4ae00035-f661-4343-8548-c6a621612092","system_id":"levelo_inurba_marseille","lat":43.302759,"lon":5.400793,"is_reserved":false,"is_disabled":false,"rental_uris":{"android":"levelo://app?vid=4ae00035-f661-4343-8548-c6a621612092","ios":"levelo://app?vid=4ae00035-f661-4343-8548-c6a621612092"},"vehicle_type_id":"4","last_reported":1692479047,"current_range_meters":14000,"station_id":"ce4bgvh2rcd13ifvqcs0","pricing_plan_id":"free"},{"bike_id":"99b1fbd0-d9da-4a14-831a-a6fc88529d09","system_id":"levelo_inurba_marseille","lat":43.290779,"lon":5.371482,"is_reserved":false,"is_disabled":false,"rental_uris":{"android":"levelo://app?vid=99b1fbd0-d9da-4a14-831a-a6fc88529d09","ios":"levelo://app?vid=99b1fbd0-d9da-4a14-831a-a6fc88529d09"},"vehicle_type_id":"4","last_reported":1692479047,"current_range_meters":9600,"station_id":"ce4bh5p2rcd13ifvqe4g","pricing_plan_id":"free"},{"bike_id":"12346e0f-641d-4430-8acc-e7a4a1551ae3","system_id":"levelo_inurba_marseille","lat":43.287184,"lon":5.37937,"is_reserved":false,"is_disabled":false,"rental_uris":{"android":"levelo://app?vid=12346e0f-641d-4430-8acc-e7a4a1551ae3","ios":"levelo://app?vid=12346e0f-641d-4430-8acc-e7a4a1551ae3"},"vehicle_type_id":"4","last_reported":1692479047,"current_range_meters":0,"station_id":"ce4bh9p2rcd13ifvqec0","pricing_plan_id":"free"},{"bike_id":"8a5fdb2b-6548-4108-a12d-33312f19d4fd","system_id":"levelo_inurba_marseille","lat":43.287184,"lon":5.37937,"is_reserved":false,"is_disabled":false,"rental_uris":{"android":"levelo://app?vid=8a5fdb2b-6548-4108-a12d-33312f19d4fd","ios":"levelo://app?vid=8a5fdb2b-6548-4108-a12d-33312f19d4fd"},"vehicle_type_id":"4","last_reported":1692479047,"current_range_meters":17200,"station_id":"ce4bh9p2rcd13ifvqec0","pricing_plan_id":"free"},{"bike_id":"d68174cc-a6eb-444a-8394-468aaf2259e6","system_id":"levelo_inurba_marseille","lat":43.287184,"lon":5.37937,"is_reserved":false,"is_disabled":false,"rental_uris":{"android":"levelo://app?vid=d68174cc-a6eb-444a-8394-468aaf2259e6","ios":"levelo://app?vid=d68174cc-a6eb-444a-8394-468aaf2259e6"},"vehicle_type_id":"4","last_reported":1692479047,"current_range_meters":21200,"station_id":"ce4bh9p2rcd13ifvqec0","pricing_plan_id":"free"},{"bike_id":"f8f71ea8-f132-4865-959a-4af9581be9b6","system_id":"levelo_inurba_marseille","lat":43.31641,"lon":5.4043,"is_reserved":false,"is_disabled":false,"rental_uris":{"android":"levelo://app?vid=f8f71ea8-f132-4865-959a-4af9581be9b6","ios":"levelo://app?vid=f8f71ea8-f132-4865-959a-4af9581be9b6"},"vehicle_type_id":"4","last_reported":1692479047,"current_range_meters":5200,"station_id":"ce4bh012rcd13ifvqd00","pricing_plan_id":"free"},{"bike_id":"7da9e437-1e79-4b5f-9ab0-65254ac17dd7","system_id":"levelo_inurba_marseille","lat":43.31644,"lon":5.40436,"is_reserved":false,"is_disabled":false,"rental_uris":{"android":"levelo://app?vid=7da9e437-1e79-4b5f-9ab0-65254ac17dd7","ios":"levelo://app?vid=7da9e437-1e79-4b5f-9ab0-65254ac17dd7"},"vehicle_type_id":"4","last_reported":1692479047,"current_range_meters":24400,"station_id":"ce4bh012rcd13ifvqd00","pricing_plan_id":"free"},{"bike_id":"ca377186-a8d5-4909-8209-c5e192dee343","system_id":"levelo_inurba_marseille","lat":43.291994,"lon":5.392907,"is_reserved":false,"is_disabled":false,"rental_uris":{"android":"levelo://app?vid=ca377186-a8d5-4909-8209-c5e192dee343","ios":"levelo://app?vid=ca377186-a8d5-4909-8209-c5e192dee343"},"vehicle_type_id":"4","last_reported":1692479047,"current_range_meters":5600,"station_id":"ce4bh192rcd13ifvqdd0","pricing_plan_id":"free"},{"bike_id":"5745c0bd-c3c2-4a34-955c-ace4508b0997","system_id":"levelo_inurba_marseille","lat":43.291994,"lon":5.392907,"is_reserved":false,"is_disabled":false,"rental_uris":{"android":"levelo://app?vid=5745c0bd-c3c2-4a34-955c-ace4508b0997","ios":"levelo://app?vid=5745c0bd-c3c2-4a34-955c-ace4508b0997"},"vehicle_type_id":"4","last_reported":1692479047,"current_range_meters":5200,"station_id":"ce4bh192rcd13ifvqdd0","pricing_plan_id":"free"},{"bike_id":"6915f25c-9fbe-4992-8392-0dd755c4ac08","system_id":"levelo_inurba_marseille","lat":43.284538,"lon":5.358657,"is_reserved":false,"is_disabled":false,"rental_uris":{"android":"levelo://app?vid=6915f25c-9fbe-4992-8392-0dd755c4ac08","ios":"levelo://app?vid=6915f25c-9fbe-4992-8392-0dd755c4ac08"},"vehicle_type_id":"4","last_reported":1692479047,"current_range_meters":2400,"station_id":"ce4bhah2rcd13ifvqei0","pricing_plan_id":"free"},{"bike_id":"464490d2-d9d1-48c0-810b-e9f8b62d5a86","system_id":"levelo_inurba_marseille","lat":43.28457,"lon":5.35895,"is_reserved":false,"is_disabled":false,"rental_uris":{"android":"levelo://app?vid=464490d2-d9d1-48c0-810b-e9f8b62d5a86","ios":"levelo://app?vid=464490d2-d9d1-48c0-810b-e9f8b62d5a86"},"vehicle_type_id":"4","last_reported":1692479047,"current_range_meters":20400,"station_id":"ce4bhah2rcd13ifvqei0","pricing_plan_id":"free"},{"bike_id":"3900aecb-e903-4fb7-be12-31c6fe1392f5","system_id":"levelo_inurba_marseille","lat":43.28457,"lon":5.35891,"is_reserved":false,"is_disabled":false,"rental_uris":{"android":"levelo://app?vid=3900aecb-e903-4fb7-be12-31c6fe1392f5","ios":"levelo://app?vid=3900aecb-e903-4fb7-be12-31c6fe1392f5"},"vehicle_type_id":"4","last_reported":1692479047,"current_range_meters":0,"station_id":"ce4bhah2rcd13ifvqei0","pricing_plan_id":"free"},{"bike_id":"35eec3a1-aa54-4990-8eb4-78e6c0dd24d0","system_id":"levelo_inurba_marseille","lat":43.285856,"lon":5.350771,"is_reserved":false,"is_disabled":false,"rental_uris":{"android":"levelo://app?vid=35eec3a1-aa54-4990-8eb4-78e6c0dd24d0","ios":"levelo://app?vid=35eec3a1-aa54-4990-8eb4-78e6c0dd24d0"},"vehicle_type_id":"4","last_reported":1692479047,"current_range_meters":9200,"station_id":"ce4bhch2rcd13ifvqeug","pricing_plan_id":"free"},{"bike_id":"e2153a1a-b1b0-4abc-9cdd-99a10ecdea74","system_id":"levelo_inurba_marseille","lat":43.311722,"lon":5.387247,"is_reserved":false,"is_disabled":false,"rental_uris":{"android":"levelo://app?vid=e2153a1a-b1b0-4abc-9cdd-99a10ecdea74","ios":"levelo://app?vid=e2153a1a-b1b0-4abc-9cdd-99a10ecdea74"},"vehicle_type_id":"4","last_reported":1692479047,"current_range_meters":13600,"station_id":"ce4bgv12rcd13ifvqcp0","pricing_plan_id":"free"},{"bike_id":"2363d3b5-6c15-401a-a59c-ee80bd4af927","system_id":"levelo_inurba_marseille","lat":43.28415,"lon":5.37522,"is_reserved":false,"is_disabled":false,"rental_uris":{"android":"levelo://app?vid=2363d3b5-6c15-401a-a59c-ee80bd4af927","ios":"levelo://app?vid=2363d3b5-6c15-401a-a59c-ee80bd4af927"},"vehicle_type_id":"4","last_reported":1692479047,"current_range_meters":19600,"station_id":"ce4bh412rcd13ifvqds0","pricing_plan_id":"free"},{"bike_id":"0562cca8-3c26-43ab-9d1d-20c9c4d8bb2e","system_id":"levelo_inurba_marseille","lat":43.283998,"lon":5.375062,"is_reserved":false,"is_disabled":false,"rental_uris":{"android":"levelo://app?vid=0562cca8-3c26-43ab-9d1d-20c9c4d8bb2e","ios":"levelo://app?vid=0562cca8-3c26-43ab-9d1d-20c9c4d8bb2e"},"vehicle_type_id":"4","last_reported":1692479047,"current_range_meters":3200,"station_id":"ce4bh412rcd13ifvqds0","pricing_plan_id":"free"},{"bike_id":"b9f1fe36-f249-4304-bf94-696a31803db6","system_id":"levelo_inurba_marseille","lat":43.28407,"lon":5.37518,"is_reserved":false,"is_disabled":false,"rental_uris":{"android":"levelo://app?vid=b9f1fe36-f249-4304-bf94-696a31803db6","ios":"levelo://app?vid=b9f1fe36-f249-4304-bf94-696a31803db6"},"vehicle_type_id":"4","last_reported":1692479047,"current_range_meters":0,"station_id":"ce4bh412rcd13ifvqds0","pricing_plan_id":"free"},{"bike_id":"fc62c0c5-551b-43b8-bfaf-2a81d2428c26","system_id":"levelo_inurba_marseille","lat":43.283998,"lon":5.375062,"is_reserved":false,"is_disabled":false,"rental_uris":{"android":"levelo://app?vid=fc62c0c5-551b-43b8-bfaf-2a81d2428c26","ios":"levelo://app?vid=fc62c0c5-551b-43b8-bfaf-2a81d2428c26"},"vehicle_type_id":"4","last_reported":1692479047,"current_range_meters":18400,"station_id":"ce4bh412rcd13ifvqds0","pricing_plan_id":"free"},{"bike_id":"8827bb5c-50a9-4080-916a-8fd4dffe4409","system_id":"levelo_inurba_marseille","lat":43.295713,"lon":5.399639,"is_reserved":false,"is_disabled":false,"rental_uris":{"android":"levelo://app?vid=8827bb5c-50a9-4080-916a-8fd4dffe4409","ios":"levelo://app?vid=8827bb5c-50a9-4080-916a-8fd4dffe4409"},"vehicle_type_id":"4","last_reported":1692479047,"current_range_meters":5200,"station_id":"ce4bh312rcd13ifvqdj0","pricing_plan_id":"free"},{"bike_id":"e78bd4e4-c14d-4a01-b72e-65351e2b8a18","system_id":"levelo_inurba_marseille","lat":43.30316,"lon":5.40627,"is_reserved":false,"is_disabled":false,"rental_uris":{"android":"levelo://app?vid=e78bd4e4-c14d-4a01-b72e-65351e2b8a18","ios":"levelo://app?vid=e78bd4e4-c14d-4a01-b72e-65351e2b8a18"},"vehicle_type_id":"4","last_reported":1692479047,"current_range_meters":0,"station_id":"","pricing_plan_id":"free"},{"bike_id":"2b3f06e0-8f2d-4133-9563-f19f57fe46e5","system_id":"levelo_inurba_marseille","lat":43.33717,"lon":5.39185,"is_reserved":false,"is_disabled":false,"rental_uris":{"android":"levelo://app?vid=2b3f06e0-8f2d-4133-9563-f19f57fe46e5","ios":"levelo://app?vid=2b3f06e0-8f2d-4133-9563-f19f57fe46e5"},"vehicle_type_id":"4","last_reported":1692479047,"current_range_meters":10000,"station_id":"ce4bhr92rcd13ifvqhsg","pricing_plan_id":"free"},{"bike_id":"c90c94e3-64fa-45e9-9fee-ad8bf120c218","system_id":"levelo_inurba_marseille","lat":43.33717,"lon":5.391857,"is_reserved":false,"is_disabled":false,"rental_uris":{"android":"levelo://app?vid=c90c94e3-64fa-45e9-9fee-ad8bf120c218","ios":"levelo://app?vid=c90c94e3-64fa-45e9-9fee-ad8bf120c218"},"vehicle_type_id":"4","last_reported":1692479047,"current_range_meters":26800,"station_id":"ce4bhr92rcd13ifvqhsg","pricing_plan_id":"free"},{"bike_id":"17105054-6fd8-493b-b0be-1ed88688055c","system_id":"levelo_inurba_marseille","lat":43.33717,"lon":5.391857,"is_reserved":false,"is_disabled":false,"rental_uris":{"android":"levelo://app?vid=17105054-6fd8-493b-b0be-1ed88688055c","ios":"levelo://app?vid=17105054-6fd8-493b-b0be-1ed88688055c"},"vehicle_type_id":"4","last_reported":1692479047,"current_range_meters":29600,"station_id":"ce4bhr92rcd13ifvqhsg","pricing_plan_id":"free"},{"bike_id":"02f29c2d-847e-4148-9200-bdb4c19acc46","system_id":"levelo_inurba_marseille","lat":43.33721,"lon":5.39185,"is_reserved":false,"is_disabled":false,"rental_uris":{"android":"levelo://app?vid=02f29c2d-847e-4148-9200-bdb4c19acc46","ios":"levelo://app?vid=02f29c2d-847e-4148-9200-bdb4c19acc46"},"vehicle_type_id":"4","last_reported":1692479047,"current_range_meters":29200,"station_id":"ce4bhr92rcd13ifvqhsg","pricing_plan_id":"free"},{"bike_id":"72fc020d-a1d4-460a-a3d1-6187a1ea65d2","system_id":"levelo_inurba_marseille","lat":43.33725,"lon":5.3918,"is_reserved":false,"is_disabled":false,"rental_uris":{"android":"levelo://app?vid=72fc020d-a1d4-460a-a3d1-6187a1ea65d2","ios":"levelo://app?vid=72fc020d-a1d4-460a-a3d1-6187a1ea65d2"},"vehicle_type_id":"4","last_reported":1692479047,"current_range_meters":26800,"station_id":"ce4bhr92rcd13ifvqhsg","pricing_plan_id":"free"},{"bike_id":"db0a8054-293b-4caa-b72d-316d0557cd0c","system_id":"levelo_inurba_marseille","lat":43.32334,"lon":5.40619,"is_reserved":false,"is_disabled":false,"rental_uris":{"android":"levelo://app?vid=db0a8054-293b-4caa-b72d-316d0557cd0c","ios":"levelo://app?vid=db0a8054-293b-4caa-b72d-316d0557cd0c"},"vehicle_type_id":"4","last_reported":1692479047,"current_range_meters":2800,"station_id":"","pricing_plan_id":"free"},{"bike_id":"12c0f407-4ac2-49d3-b1e8-783bd26a8644","system_id":"levelo_inurba_marseille","lat":43.33724,"lon":5.39185,"is_reserved":false,"is_disabled":false,"rental_uris":{"android":"levelo://app?vid=12c0f407-4ac2-49d3-b1e8-783bd26a8644","ios":"levelo://app?vid=12c0f407-4ac2-49d3-b1e8-783bd26a8644"},"vehicle_type_id":"4","last_reported":1692479047,"current_range_meters":29200,"station_id":"ce4bhr92rcd13ifvqhsg","pricing_plan_id":"free"},{"bike_id":"d3b7ca63-e616-456b-9e2d-d17ed72c8be4","system_id":"levelo_inurba_marseille","lat":43.323464,"lon":5.406297,"is_reserved":false,"is_disabled":false,"rental_uris":{"android":"levelo://app?vid=d3b7ca63-e616-456b-9e2d-d17ed72c8be4","ios":"levelo://app?vid=d3b7ca63-e616-456b-9e2d-d17ed72c8be4"},"vehicle_type_id":"4","last_reported":1692479047,"current_range_meters":8000,"station_id":"ce4bhq92rcd13ifvqhjg","pricing_plan_id":"free"},{"bike_id":"0dda2562-498f-4f90-abfb-f3c666db2d2e","system_id":"levelo_inurba_marseille","lat":43.33725,"lon":5.39187,"is_reserved":false,"is_disabled":false,"rental_uris":{"android":"levelo://app?vid=0dda2562-498f-4f90-abfb-f3c666db2d2e","ios":"levelo://app?vid=0dda2562-498f-4f90-abfb-f3c666db2d2e"},"vehicle_type_id":"4","last_reported":1692479047,"current_range_meters":23200,"station_id":"ce4bhr92rcd13ifvqhsg","pricing_plan_id":"free"},{"bike_id":"186ddf38-a5ca-44a9-9dd3-9bfe2a53544b","system_id":"levelo_inurba_marseille","lat":43.33726,"lon":5.39186,"is_reserved":false,"is_disabled":false,"rental_uris":{"android":"levelo://app?vid=186ddf38-a5ca-44a9-9dd3-9bfe2a53544b","ios":"levelo://app?vid=186ddf38-a5ca-44a9-9dd3-9bfe2a53544b"},"vehicle_type_id":"4","last_reported":1692479047,"current_range_meters":28800,"station_id":"ce4bhr92rcd13ifvqhsg","pricing_plan_id":"free"},{"bike_id":"7d2969ab-a065-4a23-b19e-667095d799c9","system_id":"levelo_inurba_marseille","lat":43.33727,"lon":5.39187,"is_reserved":false,"is_disabled":false,"rental_uris":{"android":"levelo://app?vid=7d2969ab-a065-4a23-b19e-667095d799c9","ios":"levelo://app?vid=7d2969ab-a065-4a23-b19e-667095d799c9"},"vehicle_type_id":"4","last_reported":1692479047,"current_range_meters":9600,"station_id":"ce4bhr92rcd13ifvqhsg","pricing_plan_id":"free"},{"bike_id":"baef72cb-b22b-4d30-82e9-ac3a300140d7","system_id":"levelo_inurba_marseille","lat":43.323464,"lon":5.406297,"is_reserved":false,"is_disabled":false,"rental_uris":{"android":"levelo://app?vid=baef72cb-b22b-4d30-82e9-ac3a300140d7","ios":"levelo://app?vid=baef72cb-b22b-4d30-82e9-ac3a300140d7"},"vehicle_type_id":"4","last_reported":1692479047,"current_range_meters":26000,"station_id":"ce4bhq92rcd13ifvqhjg","pricing_plan_id":"free"},{"bike_id":"c24cecf2-0503-470c-b3d3-fc37f377f710","system_id":"levelo_inurba_marseille","lat":43.33728,"lon":5.39186,"is_reserved":false,"is_disabled":false,"rental_uris":{"android":"levelo://app?vid=c24cecf2-0503-470c-b3d3-fc37f377f710","ios":"levelo://app?vid=c24cecf2-0503-470c-b3d3-fc37f377f710"},"vehicle_type_id":"4","last_reported":1692479047,"current_range_meters":28800,"station_id":"ce4bhr92rcd13ifvqhsg","pricing_plan_id":"free"},{"bike_id":"afec74e1-dc2b-42ed-af0f-94d00f5fc581","system_id":"levelo_inurba_marseille","lat":43.323464,"lon":5.406297,"is_reserved":false,"is_disabled":false,"rental_uris":{"android":"levelo://app?vid=afec74e1-dc2b-42ed-af0f-94d00f5fc581","ios":"levelo://app?vid=afec74e1-dc2b-42ed-af0f-94d00f5fc581"},"vehicle_type_id":"4","last_reported":1692479047,"current_range_meters":4800,"station_id":"ce4bhq92rcd13ifvqhjg","pricing_plan_id":"free"},{"bike_id":"c3f1a799-40b8-4098-9115-0b78fcf6eb78","system_id":"levelo_inurba_marseille","lat":43.32344,"lon":5.40622,"is_reserved":false,"is_disabled":false,"rental_uris":{"android":"levelo://app?vid=c3f1a799-40b8-4098-9115-0b78fcf6eb78","ios":"levelo://app?vid=c3f1a799-40b8-4098-9115-0b78fcf6eb78"},"vehicle_type_id":"4","last_reported":1692479047,"current_range_meters":28400,"station_id":"ce4bhq92rcd13ifvqhjg","pricing_plan_id":"free"},{"bike_id":"01f563c5-7ac0-4d44-b1b3-0549f3b949f3","system_id":"levelo_inurba_marseille","lat":43.33729,"lon":5.39187,"is_reserved":false,"is_disabled":false,"rental_uris":{"android":"levelo://app?vid=01f563c5-7ac0-4d44-b1b3-0549f3b949f3","ios":"levelo://app?vid=01f563c5-7ac0-4d44-b1b3-0549f3b949f3"},"vehicle_type_id":"4","last_reported":1692479047,"current_range_meters":29200,"station_id":"ce4bhr92rcd13ifvqhsg","pricing_plan_id":"free"},{"bike_id":"8bd09c71-02ae-4371-8b55-ce1e7e2bf2df","system_id":"levelo_inurba_marseille","lat":43.33726,"lon":5.39193,"is_reserved":false,"is_disabled":false,"rental_uris":{"android":"levelo://app?vid=8bd09c71-02ae-4371-8b55-ce1e7e2bf2df","ios":"levelo://app?vid=8bd09c71-02ae-4371-8b55-ce1e7e2bf2df"},"vehicle_type_id":"4","last_reported":1692479047,"current_range_meters":29600,"station_id":"ce4bhr92rcd13ifvqhsg","pricing_plan_id":"free"},{"bike_id":"6e24ca21-d490-4aba-9cb0-f29e34657209","system_id":"levelo_inurba_marseille","lat":43.323464,"lon":5.406297,"is_reserved":false,"is_disabled":false,"rental_uris":{"android":"levelo://app?vid=6e24ca21-d490-4aba-9cb0-f29e34657209","ios":"levelo://app?vid=6e24ca21-d490-4aba-9cb0-f29e34657209"},"vehicle_type_id":"4","last_reported":1692479047,"current_range_meters":18400,"station_id":"ce4bhq92rcd13ifvqhjg","pricing_plan_id":"free"},{"bike_id":"e45012d8-673a-4bd6-93d3-a427f767a00d","system_id":"levelo_inurba_marseille","lat":43.33729,"lon":5.39188,"is_reserved":false,"is_disabled":false,"rental_uris":{"android":"levelo://app?vid=e45012d8-673a-4bd6-93d3-a427f767a00d","ios":"levelo://app?vid=e45012d8-673a-4bd6-93d3-a427f767a00d"},"vehicle_type_id":"4","last_reported":1692479047,"current_range_meters":27200,"station_id":"ce4bhr92rcd13ifvqhsg","pricing_plan_id":"free"},{"bike_id":"0cbfb6a8-9b06-4430-8280-ebadac27271d","system_id":"levelo_inurba_marseille","lat":43.323464,"lon":5.406297,"is_reserved":false,"is_disabled":false,"rental_uris":{"android":"levelo://app?vid=0cbfb6a8-9b06-4430-8280-ebadac27271d","ios":"levelo://app?vid=0cbfb6a8-9b06-4430-8280-ebadac27271d"},"vehicle_type_id":"4","last_reported":1692479047,"current_range_meters":27600,"station_id":"ce4bhq92rcd13ifvqhjg","pricing_plan_id":"free"},{"bike_id":"6fb36002-bc24-427c-a16e-585470e55deb","system_id":"levelo_inurba_marseille","lat":43.32602,"lon":5.40481,"is_reserved":false,"is_disabled":false,"rental_uris":{"android":"levelo://app?vid=6fb36002-bc24-427c-a16e-585470e55deb","ios":"levelo://app?vid=6fb36002-bc24-427c-a16e-585470e55deb"},"vehicle_type_id":"4","last_reported":1692479047,"current_range_meters":19600,"station_id":"","pricing_plan_id":"free"},{"bike_id":"5946d727-a5eb-4d99-89f1-86c8336f5b83","system_id":"levelo_inurba_marseille","lat":43.28481,"lon":5.38431,"is_reserved":false,"is_disabled":false,"rental_uris":{"android":"levelo://app?vid=5946d727-a5eb-4d99-89f1-86c8336f5b83","ios":"levelo://app?vid=5946d727-a5eb-4d99-89f1-86c8336f5b83"},"vehicle_type_id":"4","last_reported":1692479047,"current_range_meters":0,"station_id":"ce4bh512rcd13ifvqe3g","pricing_plan_id":"free"},{"bike_id":"bd7badb3-5d9e-460f-983e-21a382a4e73f","system_id":"levelo_inurba_marseille","lat":43.297946,"lon":5.404063,"is_reserved":false,"is_disabled":false,"rental_uris":{"android":"levelo://app?vid=bd7badb3-5d9e-460f-983e-21a382a4e73f","ios":"levelo://app?vid=bd7badb3-5d9e-460f-983e-21a382a4e73f"},"vehicle_type_id":"4","last_reported":1692479047,"current_range_meters":2000,"station_id":"ce4bh112rcd13ifvqd90","pricing_plan_id":"free"},{"bike_id":"9601bc0b-7cec-44d4-afd1-7f02a22af5c2","system_id":"levelo_inurba_marseille","lat":43.297946,"lon":5.404063,"is_reserved":false,"is_disabled":false,"rental_uris":{"android":"levelo://app?vid=9601bc0b-7cec-44d4-afd1-7f02a22af5c2","ios":"levelo://app?vid=9601bc0b-7cec-44d4-afd1-7f02a22af5c2"},"vehicle_type_id":"4","last_reported":1692479047,"current_range_meters":4800,"station_id":"ce4bh112rcd13ifvqd90","pricing_plan_id":"free"},{"bike_id":"095ce374-d964-43f5-a60d-eb8e544f771e","system_id":"levelo_inurba_marseille","lat":43.283494,"lon":5.380945,"is_reserved":false,"is_disabled":false,"rental_uris":{"android":"levelo://app?vid=095ce374-d964-43f5-a60d-eb8e544f771e","ios":"levelo://app?vid=095ce374-d964-43f5-a60d-eb8e544f771e"},"vehicle_type_id":"4","last_reported":1692479047,"current_range_meters":16800,"station_id":"ce4bh412rcd13ifvqdr0","pricing_plan_id":"free"},{"bike_id":"0536eb40-0af8-405b-a767-2aef11d14bbf","system_id":"levelo_inurba_marseille","lat":43.283498,"lon":5.380948,"is_reserved":false,"is_disabled":false,"rental_uris":{"android":"levelo://app?vid=0536eb40-0af8-405b-a767-2aef11d14bbf","ios":"levelo://app?vid=0536eb40-0af8-405b-a767-2aef11d14bbf"},"vehicle_type_id":"4","last_reported":1692479047,"current_range_meters":4000,"station_id":"ce4bh412rcd13ifvqdr0","pricing_plan_id":"free"},{"bike_id":"f50aca5f-cf5b-4020-925f-826a2e34874f","system_id":"levelo_inurba_marseille","lat":43.289363,"lon":5.396322,"is_reserved":false,"is_disabled":false,"rental_uris":{"android":"levelo://app?vid=f50aca5f-cf5b-4020-925f-826a2e34874f","ios":"levelo://app?vid=f50aca5f-cf5b-4020-925f-826a2e34874f"},"vehicle_type_id":"4","last_reported":1692479047,"current_range_meters":31200,"station_id":"ce4bh3h2rcd13ifvqdn0","pricing_plan_id":"free"},{"bike_id":"f6ea0b63-3d8b-4e97-ab07-a086e3d5f396","system_id":"levelo_inurba_marseille","lat":43.292724,"lon":5.401131,"is_reserved":false,"is_disabled":false,"rental_uris":{"android":"levelo://app?vid=f6ea0b63-3d8b-4e97-ab07-a086e3d5f396","ios":"levelo://app?vid=f6ea0b63-3d8b-4e97-ab07-a086e3d5f396"},"vehicle_type_id":"4","last_reported":1692479047,"current_range_meters":6800,"station_id":"ce4bh312rcd13ifvqdk0","pricing_plan_id":"free"},{"bike_id":"bbc13963-00dc-42e5-9196-3f3e0648ed43","system_id":"levelo_inurba_marseille","lat":43.292724,"lon":5.401131,"is_reserved":false,"is_disabled":false,"rental_uris":{"android":"levelo://app?vid=bbc13963-00dc-42e5-9196-3f3e0648ed43","ios":"levelo://app?vid=bbc13963-00dc-42e5-9196-3f3e0648ed43"},"vehicle_type_id":"4","last_reported":1692479047,"current_range_meters":22800,"station_id":"ce4bh312rcd13ifvqdk0","pricing_plan_id":"free"},{"bike_id":"5cec26ac-344f-432b-af34-450b75305b9b","system_id":"levelo_inurba_marseille","lat":43.292724,"lon":5.401131,"is_reserved":false,"is_disabled":false,"rental_uris":{"android":"levelo://app?vid=5cec26ac-344f-432b-af34-450b75305b9b","ios":"levelo://app?vid=5cec26ac-344f-432b-af34-450b75305b9b"},"vehicle_type_id":"4","last_reported":1692479047,"current_range_meters":29600,"station_id":"ce4bh312rcd13ifvqdk0","pricing_plan_id":"free"},{"bike_id":"355cc969-5557-4a2a-a2c1-8b443d4845ef","system_id":"levelo_inurba_marseille","lat":43.292724,"lon":5.401131,"is_reserved":false,"is_disabled":false,"rental_uris":{"android":"levelo://app?vid=355cc969-5557-4a2a-a2c1-8b443d4845ef","ios":"levelo://app?vid=355cc969-5557-4a2a-a2c1-8b443d4845ef"},"vehicle_type_id":"4","last_reported":1692479047,"current_range_meters":12000,"station_id":"ce4bh312rcd13ifvqdk0","pricing_plan_id":"free"},{"bike_id":"88940920-727e-47f8-bee6-24feedff1167","system_id":"levelo_inurba_marseille","lat":43.282754,"lon":5.350519,"is_reserved":false,"is_disabled":false,"rental_uris":{"android":"levelo://app?vid=88940920-727e-47f8-bee6-24feedff1167","ios":"levelo://app?vid=88940920-727e-47f8-bee6-24feedff1167"},"vehicle_type_id":"4","last_reported":1692479047,"current_range_meters":30000,"station_id":"ce4bhbp2rcd13ifvqerg","pricing_plan_id":"free"},{"bike_id":"3dd5eec1-ad7e-405b-9fef-b51b6a98dc6b","system_id":"levelo_inurba_marseille","lat":43.283502,"lon":5.386471,"is_reserved":false,"is_disabled":false,"rental_uris":{"android":"levelo://app?vid=3dd5eec1-ad7e-405b-9fef-b51b6a98dc6b","ios":"levelo://app?vid=3dd5eec1-ad7e-405b-9fef-b51b6a98dc6b"},"vehicle_type_id":"4","last_reported":1692479047,"current_range_meters":8000,"station_id":"ce4bh492rcd13ifvqdvg","pricing_plan_id":"free"},{"bike_id":"5e932eec-0288-46ee-ab89-bd92e61a76a0","system_id":"levelo_inurba_marseille","lat":43.292724,"lon":5.401131,"is_reserved":false,"is_disabled":false,"rental_uris":{"android":"levelo://app?vid=5e932eec-0288-46ee-ab89-bd92e61a76a0","ios":"levelo://app?vid=5e932eec-0288-46ee-ab89-bd92e61a76a0"},"vehicle_type_id":"4","last_reported":1692479047,"current_range_meters":2000,"station_id":"ce4bh312rcd13ifvqdk0","pricing_plan_id":"free"},{"bike_id":"8301369c-2dd6-4a6d-a8d5-83b507a5fc7c","system_id":"levelo_inurba_marseille","lat":43.283502,"lon":5.386471,"is_reserved":false,"is_disabled":false,"rental_uris":{"android":"levelo://app?vid=8301369c-2dd6-4a6d-a8d5-83b507a5fc7c","ios":"levelo://app?vid=8301369c-2dd6-4a6d-a8d5-83b507a5fc7c"},"vehicle_type_id":"4","last_reported":1692479047,"current_range_meters":30400,"station_id":"ce4bh492rcd13ifvqdvg","pricing_plan_id":"free"},{"bike_id":"9f46cfde-4f76-4076-bade-5765c2d3d473","system_id":"levelo_inurba_marseille","lat":43.28039,"lon":5.369297,"is_reserved":false,"is_disabled":false,"rental_uris":{"android":"levelo://app?vid=9f46cfde-4f76-4076-bade-5765c2d3d473","ios":"levelo://app?vid=9f46cfde-4f76-4076-bade-5765c2d3d473"},"vehicle_type_id":"4","last_reported":1692479047,"current_range_meters":31200,"station_id":"ce4bha12rcd13ifvqef0","pricing_plan_id":"free"},{"bike_id":"82bb2184-30d4-4851-9d9a-f64e4c57f37a","system_id":"levelo_inurba_marseille","lat":43.283502,"lon":5.386471,"is_reserved":false,"is_disabled":false,"rental_uris":{"android":"levelo://app?vid=82bb2184-30d4-4851-9d9a-f64e4c57f37a","ios":"levelo://app?vid=82bb2184-30d4-4851-9d9a-f64e4c57f37a"},"vehicle_type_id":"4","last_reported":1692479047,"current_range_meters":23600,"station_id":"ce4bh492rcd13ifvqdvg","pricing_plan_id":"free"},{"bike_id":"33f0e43c-b2ce-4817-b362-e35c65652e54","system_id":"levelo_inurba_marseille","lat":43.290412,"lon":5.399633,"is_reserved":false,"is_disabled":false,"rental_uris":{"android":"levelo://app?vid=33f0e43c-b2ce-4817-b362-e35c65652e54","ios":"levelo://app?vid=33f0e43c-b2ce-4817-b362-e35c65652e54"},"vehicle_type_id":"4","last_reported":1692479047,"current_range_meters":0,"station_id":"ce4bh392rcd13ifvqdm0","pricing_plan_id":"free"},{"bike_id":"0284c29c-4ce6-48b2-a395-c7c541879fbc","system_id":"levelo_inurba_marseille","lat":43.296263,"lon":5.40601,"is_reserved":false,"is_disabled":false,"rental_uris":{"android":"levelo://app?vid=0284c29c-4ce6-48b2-a395-c7c541879fbc","ios":"levelo://app?vid=0284c29c-4ce6-48b2-a395-c7c541879fbc"},