{"last_updated":1722614980,"ttl":30,"version":"2.2","data":{"bikes":[{"bike_id":"ed0a8239-8617-4b34-8a50-3be153903891","system_id":"levelo_inurba_marseille","lat":43.312239,"lon":5.368562,"is_reserved":false,"is_disabled":false,"rental_uris":{"android":"levelo://app?vid=ed0a8239-8617-4b34-8a50-3be153903891","ios":"levelo://app?vid=ed0a8239-8617-4b34-8a50-3be153903891"},"vehicle_type_id":"4","last_reported":1722614980,"current_range_meters":3200,"station_id":"ce4bgl92rcd13ifvqbq0","pricing_plan_id":"cebpf4jnsgd1na2vs0mg"},{"bike_id":"ff00e6c6-8523-43ce-8729-a406da91012b","system_id":"levelo_inurba_marseille","lat":43.314811,"lon":5.373103,"is_reserved":false,"is_disabled":false,"rental_uris":{"android":"levelo://app?vid=ff00e6c6-8523-43ce-8729-a406da91012b","ios":"levelo://app?vid=ff00e6c6-8523-43ce-8729-a406da91012b"},"vehicle_type_id":"4","last_reported":1722614980,"current_range_meters":19200,"station_id":"ce4bgt12rcd13ifvqcd0","pricing_plan_id":"cebpf4jnsgd1na2vs0mg"},{"bike_id":"d4d79655-dcae-4081-8a13-4d8f7d253c69","system_id":"levelo_inurba_marseille","lat":43.31496,"lon":5.37305,"is_reserved":false,"is_disabled":false,"rental_uris":{"android":"levelo://app?vid=d4d79655-dcae-4081-8a13-4d8f7d253c69","ios":"levelo://app?vid=d4d79655-dcae-4081-8a13-4d8f7d253c69"},"vehicle_type_id":"4","last_reported":1722614980,"current_range_meters":16000,"station_id":"ce4bgt12rcd13ifvqcd0","pricing_plan_id":"cebpf4jnsgd1na2vs0mg"},{"bike_id":"0b2433ad-d01b-4a6f-84bd-ddacfafd89bd","system_id":"levelo_inurba_marseille","lat":43.314811,"lon":5.373103,"is_reserved":false,"is_disabled":false,"rental_uris":{"android":"levelo://app?vid=0b2433ad-d01b-4a6f-84bd-ddacfafd89bd","ios":"levelo://app?vid=0b2433ad-d01b-4a6f-84bd-ddacfafd89bd"},"vehicle_type_id":"4","last_reported":1722614980,"current_range_meters":0,"station_id":"ce4bgt12rcd13ifvqcd0","pricing_plan_id":"cebpf4jnsgd1na2vs0mg"},{"bike_id":"6d55445d-a242-43b9-9cf0-a43856ac2c6f","system_id":"levelo_inurba_marseille","lat":43.314811,"lon":5.373103,"is_reserved":false,"is_disabled":false,"rental_uris":{"android":"levelo://app?vid=6d55445d-a242-43b9-9cf0-a43856ac2c6f","ios":"levelo://app?vid=6d55445d-a242-43b9-9cf0-a43856ac2c6f"},"vehicle_type_id":"4","last_reported":1722614980,"current_range_meters":9200,"station_id":"ce4bgt12rcd13ifvqcd0","pricing_plan_id":"cebpf4jnsgd1na2vs0mg"},{"bike_id":"69eebdea-6b88-4f2e-913a-0898de38fbcc","system_id":"levelo_inurba_marseille","lat":43.313918,"lon":5.375322,"is_reserved":false,"is_disabled":false,"rental_uris":{"android":"levelo://app?vid=69eebdea-6b88-4f2e-913a-0898de38fbcc","ios":"levelo://app?vid=69eebdea-6b88-4f2e-913a-0898de38fbcc"},"vehicle_type_id":"4","last_reported":1722614980,"current_range_meters":30000,"station_id":"","pricing_plan_id":"cebpf4jnsgd1na2vs0mg"},{"bike_id":"20ddc2d6-3046-4b8f-9e4c-1248bbf243f5","system_id":"levelo_inurba_marseille","lat":43.30408,"lon":5.36783,"is_reserved":false,"is_disabled":false,"rental_uris":{"android":"levelo://app?vid=20ddc2d6-3046-4b8f-9e4c-1248bbf243f5","ios":"levelo://app?vid=20ddc2d6-3046-4b8f-9e4c-1248bbf243f5"},"vehicle_type_id":"4","last_reported":1722614980,"current_range_meters":0,"station_id":"","pricing_plan_id":"cebpf4jnsgd1na2vs0mg"},{"bike_id":"6410c24e-2220-42f3-a577-6ed90fc3e83f","system_id":"levelo_inurba_marseille","lat":43.317029,"lon":5.377589,"is_reserved":false,"is_disabled":false,"rental_uris":{"android":"levelo://app?vid=6410c24e-2220-42f3-a577-6ed90fc3e83f","ios":"levelo://app?vid=6410c24e-2220-42f3-a577-6ed90fc3e83f"},"vehicle_type_id":"4","last_reported":1722614980,"current_range_meters":25600,"station_id":"ce4bgth2rcd13ifvqch0","pricing_plan_id":"cebpf4jnsgd1na2vs0mg"},{"bike_id":"7c14d4b9-0373-42f4-98ca-5464de42dfc1","system_id":"levelo_inurba_marseille","lat":43.315289,"lon":5.380349,"is_reserved":false,"is_disabled":false,"rental_uris":{"android":"levelo://app?vid=7c14d4b9-0373-42f4-98ca-5464de42dfc1","ios":"levelo://app?vid=7c14d4b9-0373-42f4-98ca-5464de42dfc1"},"vehicle_type_id":"4","last_reported":1722614980,"current_range_meters":2000,"station_id":"ce4bhsp2rcd13ifvqi50","pricing_plan_id":"cebpf4jnsgd1na2vs0mg"},{"bike_id":"749576d7-ac1c-4fdc-b071-bdc937fb475d","system_id":"levelo_inurba_marseille","lat":43.3032,"lon":5.36683,"is_reserved":false,"is_disabled":false,"rental_uris":{"android":"levelo://app?vid=749576d7-ac1c-4fdc-b071-bdc937fb475d","ios":"levelo://app?vid=749576d7-ac1c-4fdc-b071-bdc937fb475d"},"vehicle_type_id":"4","last_reported":1722614980,"current_range_meters":18000,"station_id":"","pricing_plan_id":"cebpf4jnsgd1na2vs0mg"},{"bike_id":"ef48609c-56f7-4569-bb04-7ba9421ae630","system_id":"levelo_inurba_marseille","lat":43.311505,"lon":5.379994,"is_reserved":false,"is_disabled":false,"rental_uris":{"android":"levelo://app?vid=ef48609c-56f7-4569-bb04-7ba9421ae630","ios":"levelo://app?vid=ef48609c-56f7-4569-bb04-7ba9421ae630"},"vehicle_type_id":"4","last_reported":1722614980,"current_range_meters":22000,"station_id":"","pricing_plan_id":"cebpf4jnsgd1na2vs0mg"},{"bike_id":"9d92e0aa-264e-4daa-9daf-08031824ea45","system_id":"levelo_inurba_marseille","lat":43.30305,"lon":5.36895,"is_reserved":false,"is_disabled":false,"rental_uris":{"android":"levelo://app?vid=9d92e0aa-264e-4daa-9daf-08031824ea45","ios":"levelo://app?vid=9d92e0aa-264e-4daa-9daf-08031824ea45"},"vehicle_type_id":"4","last_reported":1722614980,"current_range_meters":0,"station_id":"ce4bgqh2rcd13ifvqc5g","pricing_plan_id":"cebpf4jnsgd1na2vs0mg"},{"bike_id":"9c58cb18-52b2-4deb-a2ee-338ffb5a36fa","system_id":"levelo_inurba_marseille","lat":43.301939,"lon":5.366286,"is_reserved":false,"is_disabled":false,"rental_uris":{"android":"levelo://app?vid=9c58cb18-52b2-4deb-a2ee-338ffb5a36fa","ios":"levelo://app?vid=9c58cb18-52b2-4deb-a2ee-338ffb5a36fa"},"vehicle_type_id":"4","last_reported":1722614980,"current_range_meters":5600,"station_id":"ce4bgrh2rcd13ifvqc8g","pricing_plan_id":"cebpf4jnsgd1na2vs0mg"},{"bike_id":"7d26f442-7c92-4f3d-8240-0ca62ad96ee4","system_id":"levelo_inurba_marseille","lat":43.32347,"lon":5.36491,"is_reserved":false,"is_disabled":false,"rental_uris":{"android":"levelo://app?vid=7d26f442-7c92-4f3d-8240-0ca62ad96ee4","ios":"levelo://app?vid=7d26f442-7c92-4f3d-8240-0ca62ad96ee4"},"vehicle_type_id":"4","last_reported":1722614980,"current_range_meters":29600,"station_id":"","pricing_plan_id":"cebpf4jnsgd1na2vs0mg"},{"bike_id":"36f6cbf5-1a99-49be-b573-3addc8209911","system_id":"levelo_inurba_marseille","lat":43.301939,"lon":5.366286,"is_reserved":false,"is_disabled":false,"rental_uris":{"android":"levelo://app?vid=36f6cbf5-1a99-49be-b573-3addc8209911","ios":"levelo://app?vid=36f6cbf5-1a99-49be-b573-3addc8209911"},"vehicle_type_id":"4","last_reported":1722614980,"current_range_meters":5600,"station_id":"ce4bgrh2rcd13ifvqc8g","pricing_plan_id":"cebpf4jnsgd1na2vs0mg"},{"bike_id":"dd0c3e6e-e23a-47c2-9147-3e0e4ce26995","system_id":"levelo_inurba_marseille","lat":43.308012,"lon":5.381511,"is_reserved":false,"is_disabled":false,"rental_uris":{"android":"levelo://app?vid=dd0c3e6e-e23a-47c2-9147-3e0e4ce26995","ios":"levelo://app?vid=dd0c3e6e-e23a-47c2-9147-3e0e4ce26995"},"vehicle_type_id":"4","last_reported":1722614980,"current_range_meters":22400,"station_id":"ce4bgt12rcd13ifvqce0","pricing_plan_id":"cebpf4jnsgd1na2vs0mg"},{"bike_id":"0baf0648-b659-470c-a543-b2c4c55a16b1","system_id":"levelo_inurba_marseille","lat":43.308012,"lon":5.381511,"is_reserved":false,"is_disabled":false,"rental_uris":{"android":"levelo://app?vid=0baf0648-b659-470c-a543-b2c4c55a16b1","ios":"levelo://app?vid=0baf0648-b659-470c-a543-b2c4c55a16b1"},"vehicle_type_id":"4","last_reported":1722614980,"current_range_meters":18000,"station_id":"ce4bgt12rcd13ifvqce0","pricing_plan_id":"cebpf4jnsgd1na2vs0mg"},{"bike_id":"5fbfe006-d8d3-49c3-8323-c1b59a243b22","system_id":"levelo_inurba_marseille","lat":43.304606,"lon":5.379026,"is_reserved":false,"is_disabled":false,"rental_uris":{"android":"levelo://app?vid=5fbfe006-d8d3-49c3-8323-c1b59a243b22","ios":"levelo://app?vid=5fbfe006-d8d3-49c3-8323-c1b59a243b22"},"vehicle_type_id":"4","last_reported":1722614980,"current_range_meters":0,"station_id":"ce4bgup2rcd13ifvqcn0","pricing_plan_id":"cebpf4jnsgd1na2vs0mg"},{"bike_id":"255336f3-4a95-49f7-800f-af7a178b4d95","system_id":"levelo_inurba_marseille","lat":43.304606,"lon":5.379026,"is_reserved":false,"is_disabled":false,"rental_uris":{"android":"levelo://app?vid=255336f3-4a95-49f7-800f-af7a178b4d95","ios":"levelo://app?vid=255336f3-4a95-49f7-800f-af7a178b4d95"},"vehicle_type_id":"4","last_reported":1722614980,"current_range_meters":0,"station_id":"ce4bgup2rcd13ifvqcn0","pricing_plan_id":"cebpf4jnsgd1na2vs0mg"},{"bike_id":"636c4874-a09d-4571-8564-3490cc305cf8","system_id":"levelo_inurba_marseille","lat":43.30468,"lon":5.379118,"is_reserved":false,"is_disabled":false,"rental_uris":{"android":"levelo://app?vid=636c4874-a09d-4571-8564-3490cc305cf8","ios":"levelo://app?vid=636c4874-a09d-4571-8564-3490cc305cf8"},"vehicle_type_id":"4","last_reported":1722614980,"current_range_meters":0,"station_id":"ce4bgup2rcd13ifvqcn0","pricing_plan_id":"cebpf4jnsgd1na2vs0mg"},{"bike_id":"d0440919-368b-482d-8052-cd6f8ac3e375","system_id":"levelo_inurba_marseille","lat":43.304606,"lon":5.379026,"is_reserved":false,"is_disabled":false,"rental_uris":{"android":"levelo://app?vid=d0440919-368b-482d-8052-cd6f8ac3e375","ios":"levelo://app?vid=d0440919-368b-482d-8052-cd6f8ac3e375"},"vehicle_type_id":"4","last_reported":1722614980,"current_range_meters":0,"station_id":"ce4bgup2rcd13ifvqcn0","pricing_plan_id":"cebpf4jnsgd1na2vs0mg"},{"bike_id":"d50f5eee-d5a0-407d-8e48-052c6677cd42","system_id":"levelo_inurba_marseille","lat":43.32479,"lon":5.36567,"is_reserved":false,"is_disabled":false,"rental_uris":{"android":"levelo://app?vid=d50f5eee-d5a0-407d-8e48-052c6677cd42","ios":"levelo://app?vid=d50f5eee-d5a0-407d-8e48-052c6677cd42"},"vehicle_type_id":"4","last_reported":1722614980,"current_range_meters":24000,"station_id":"ce4bhs12rcd13ifvqhvg","pricing_plan_id":"cebpf4jnsgd1na2vs0mg"},{"bike_id":"713d51f5-1e19-4e2b-ae15-11d23b5524f1","system_id":"levelo_inurba_marseille","lat":43.324771,"lon":5.36557,"is_reserved":false,"is_disabled":false,"rental_uris":{"android":"levelo://app?vid=713d51f5-1e19-4e2b-ae15-11d23b5524f1","ios":"levelo://app?vid=713d51f5-1e19-4e2b-ae15-11d23b5524f1"},"vehicle_type_id":"4","last_reported":1722614980,"current_range_meters":16000,"station_id":"ce4bhs12rcd13ifvqhvg","pricing_plan_id":"cebpf4jnsgd1na2vs0mg"},{"bike_id":"b43496db-1cfc-473d-b715-9cab95ccd6ee","system_id":"levelo_inurba_marseille","lat":43.324771,"lon":5.36557,"is_reserved":false,"is_disabled":false,"rental_uris":{"android":"levelo://app?vid=b43496db-1cfc-473d-b715-9cab95ccd6ee","ios":"levelo://app?vid=b43496db-1cfc-473d-b715-9cab95ccd6ee"},"vehicle_type_id":"4","last_reported":1722614980,"current_range_meters":31200,"station_id":"ce4bhs12rcd13ifvqhvg","pricing_plan_id":"cebpf4jnsgd1na2vs0mg"},{"bike_id":"cfbb5f88-214f-4b9d-a4eb-4496dbd9322a","system_id":"levelo_inurba_marseille","lat":43.324771,"lon":5.36557,"is_reserved":false,"is_disabled":false,"rental_uris":{"android":"levelo://app?vid=cfbb5f88-214f-4b9d-a4eb-4496dbd9322a","ios":"levelo://app?vid=cfbb5f88-214f-4b9d-a4eb-4496dbd9322a"},"vehicle_type_id":"4","last_reported":1722614980,"current_range_meters":31200,"station_id":"ce4bhs12rcd13ifvqhvg","pricing_plan_id":"cebpf4jnsgd1na2vs0mg"},{"bike_id":"ae5fa8aa-bcaa-4ec5-a10e-fcd795bcdc5d","system_id":"levelo_inurba_marseille","lat":43.324771,"lon":5.36557,"is_reserved":false,"is_disabled":false,"rental_uris":{"android":"levelo://app?vid=ae5fa8aa-bcaa-4ec5-a10e-fcd795bcdc5d","ios":"levelo://app?vid=ae5fa8aa-bcaa-4ec5-a10e-fcd795bcdc5d"},"vehicle_type_id":"4","last_reported":1722614980,"current_range_meters":29200,"station_id":"ce4bhs12rcd13ifvqhvg","pricing_plan_id":"cebpf4jnsgd1na2vs0mg"},{"bike_id":"dab175f0-6f74-4e92-af40-18f2f291486b","system_id":"levelo_inurba_marseille","lat":43.324771,"lon":5.36557,"is_reserved":false,"is_disabled":false,"rental_uris":{"android":"levelo://app?vid=dab175f0-6f74-4e92-af40-18f2f291486b","ios":"levelo://app?vid=dab175f0-6f74-4e92-af40-18f2f291486b"},"vehicle_type_id":"4","last_reported":1722614980,"current_range_meters":17600,"station_id":"ce4bhs12rcd13ifvqhvg","pricing_plan_id":"cebpf4jnsgd1na2vs0mg"},{"bike_id":"2b9799f5-efa7-4e00-9020-9de8d5ff632a","system_id":"levelo_inurba_marseille","lat":43.324856,"lon":5.365689,"is_reserved":false,"is_disabled":false,"rental_uris":{"android":"levelo://app?vid=2b9799f5-efa7-4e00-9020-9de8d5ff632a","ios":"levelo://app?vid=2b9799f5-efa7-4e00-9020-9de8d5ff632a"},"vehicle_type_id":"4","last_reported":1722614980,"current_range_meters":27200,"station_id":"ce4bhs12rcd13ifvqhvg","pricing_plan_id":"cebpf4jnsgd1na2vs0mg"},{"bike_id":"ca5dcd10-cb47-43cc-85a9-81882783085f","system_id":"levelo_inurba_marseille","lat":43.32487,"lon":5.365655,"is_reserved":false,"is_disabled":false,"rental_uris":{"android":"levelo://app?vid=ca5dcd10-cb47-43cc-85a9-81882783085f","ios":"levelo://app?vid=ca5dcd10-cb47-43cc-85a9-81882783085f"},"vehicle_type_id":"4","last_reported":1722614980,"current_range_meters":8000,"station_id":"ce4bhs12rcd13ifvqhvg","pricing_plan_id":"cebpf4jnsgd1na2vs0mg"},{"bike_id":"7370f898-d05e-4325-a96c-8cb4ab59798f","system_id":"levelo_inurba_marseille","lat":43.324771,"lon":5.36557,"is_reserved":false,"is_disabled":false,"rental_uris":{"android":"levelo://app?vid=7370f898-d05e-4325-a96c-8cb4ab59798f","ios":"levelo://app?vid=7370f898-d05e-4325-a96c-8cb4ab59798f"},"vehicle_type_id":"4","last_reported":1722614980,"current_range_meters":28000,"station_id":"ce4bhs12rcd13ifvqhvg","pricing_plan_id":"cebpf4jnsgd1na2vs0mg"},{"bike_id":"5119dbfa-92a5-4837-8dde-531605c069c9","system_id":"levelo_inurba_marseille","lat":43.324771,"lon":5.36557,"is_reserved":false,"is_disabled":false,"rental_uris":{"android":"levelo://app?vid=5119dbfa-92a5-4837-8dde-531605c069c9","ios":"levelo://app?vid=5119dbfa-92a5-4837-8dde-531605c069c9"},"vehicle_type_id":"4","last_reported":1722614980,"current_range_meters":10000,"station_id":"ce4bhs12rcd13ifvqhvg","pricing_plan_id":"cebpf4jnsgd1na2vs0mg"},{"bike_id":"0bc0b908-eaba-4b4d-87fc-c271f9bbbf80","system_id":"levelo_inurba_marseille","lat":43.3249,"lon":5.36575,"is_reserved":false,"is_disabled":false,"rental_uris":{"android":"levelo://app?vid=0bc0b908-eaba-4b4d-87fc-c271f9bbbf80","ios":"levelo://app?vid=0bc0b908-eaba-4b4d-87fc-c271f9bbbf80"},"vehicle_type_id":"4","last_reported":1722614980,"current_range_meters":13600,"station_id":"ce4bhs12rcd13ifvqhvg","pricing_plan_id":"cebpf4jnsgd1na2vs0mg"},{"bike_id":"75a25d88-d4f8-49f5-9b75-4c3b5365c690","system_id":"levelo_inurba_marseille","lat":43.324897,"lon":5.365648,"is_reserved":false,"is_disabled":false,"rental_uris":{"android":"levelo://app?vid=75a25d88-d4f8-49f5-9b75-4c3b5365c690","ios":"levelo://app?vid=75a25d88-d4f8-49f5-9b75-4c3b5365c690"},"vehicle_type_id":"4","last_reported":1722614980,"current_range_meters":12400,"station_id":"ce4bhs12rcd13ifvqhvg","pricing_plan_id":"cebpf4jnsgd1na2vs0mg"},{"bike_id":"1716bffb-7402-4c05-945a-ce26edc0f792","system_id":"levelo_inurba_marseille","lat":43.310804,"lon":5.38359,"is_reserved":false,"is_disabled":false,"rental_uris":{"android":"levelo://app?vid=1716bffb-7402-4c05-945a-ce26edc0f792","ios":"levelo://app?vid=1716bffb-7402-4c05-945a-ce26edc0f792"},"vehicle_type_id":"4","last_reported":1722614980,"current_range_meters":0,"station_id":"ce4bgv92rcd13ifvqcr0","pricing_plan_id":"cebpf4jnsgd1na2vs0mg"},{"bike_id":"6e113bb4-5d34-4782-bc35-dbe106132996","system_id":"levelo_inurba_marseille","lat":43.30143,"lon":5.37413,"is_reserved":false,"is_disabled":false,"rental_uris":{"android":"levelo://app?vid=6e113bb4-5d34-4782-bc35-dbe106132996","ios":"levelo://app?vid=6e113bb4-5d34-4782-bc35-dbe106132996"},"vehicle_type_id":"4","last_reported":1722614980,"current_range_meters":1600,"station_id":"ce4bgs92rcd13ifvqcc0","pricing_plan_id":"cebpf4jnsgd1na2vs0mg"},{"bike_id":"14732d6f-7aaa-4896-b3e6-4709815e9929","system_id":"levelo_inurba_marseille","lat":43.3199,"lon":5.38154,"is_reserved":false,"is_disabled":false,"rental_uris":{"android":"levelo://app?vid=14732d6f-7aaa-4896-b3e6-4709815e9929","ios":"levelo://app?vid=14732d6f-7aaa-4896-b3e6-4709815e9929"},"vehicle_type_id":"4","last_reported":1722614980,"current_range_meters":4400,"station_id":"ce4bhr12rcd13ifvqhpg","pricing_plan_id":"cebpf4jnsgd1na2vs0mg"},{"bike_id":"eaab121c-af8f-4ad8-b8a2-52189768cae1","system_id":"levelo_inurba_marseille","lat":43.31996,"lon":5.38164,"is_reserved":false,"is_disabled":false,"rental_uris":{"android":"levelo://app?vid=eaab121c-af8f-4ad8-b8a2-52189768cae1","ios":"levelo://app?vid=eaab121c-af8f-4ad8-b8a2-52189768cae1"},"vehicle_type_id":"4","last_reported":1722614980,"current_range_meters":7600,"station_id":"ce4bhr12rcd13ifvqhpg","pricing_plan_id":"cebpf4jnsgd1na2vs0mg"},{"bike_id":"468d1d5d-3fcc-4b92-9efc-c13d437ba07c","system_id":"levelo_inurba_marseille","lat":43.30612,"lon":5.3822,"is_reserved":false,"is_disabled":false,"rental_uris":{"android":"levelo://app?vid=468d1d5d-3fcc-4b92-9efc-c13d437ba07c","ios":"levelo://app?vid=468d1d5d-3fcc-4b92-9efc-c13d437ba07c"},"vehicle_type_id":"4","last_reported":1722614980,"current_range_meters":21200,"station_id":"","pricing_plan_id":"cebpf4jnsgd1na2vs0mg"},{"bike_id":"1177833c-8803-4257-b876-6ca5d77f40b9","system_id":"levelo_inurba_marseille","lat":43.313571,"lon":5.384829,"is_reserved":false,"is_disabled":false,"rental_uris":{"android":"levelo://app?vid=1177833c-8803-4257-b876-6ca5d77f40b9","ios":"levelo://app?vid=1177833c-8803-4257-b876-6ca5d77f40b9"},"vehicle_type_id":"4","last_reported":1722614980,"current_range_meters":14400,"station_id":"ce4bgt92rcd13ifvqcf0","pricing_plan_id":"cebpf4jnsgd1na2vs0mg"},{"bike_id":"515eb22b-1ab1-43da-9c56-8d020c749ba1","system_id":"levelo_inurba_marseille","lat":43.29981,"lon":5.37176,"is_reserved":false,"is_disabled":false,"rental_uris":{"android":"levelo://app?vid=515eb22b-1ab1-43da-9c56-8d020c749ba1","ios":"levelo://app?vid=515eb22b-1ab1-43da-9c56-8d020c749ba1"},"vehicle_type_id":"4","last_reported":1722614980,"current_range_meters":0,"station_id":"ce4bgr92rcd13ifvqc7g","pricing_plan_id":"cebpf4jnsgd1na2vs0mg"},{"bike_id":"b3d425b7-f69a-4a65-9760-1ba575277c3d","system_id":"levelo_inurba_marseille","lat":43.299724,"lon":5.371829,"is_reserved":false,"is_disabled":false,"rental_uris":{"android":"levelo://app?vid=b3d425b7-f69a-4a65-9760-1ba575277c3d","ios":"levelo://app?vid=b3d425b7-f69a-4a65-9760-1ba575277c3d"},"vehicle_type_id":"4","last_reported":1722614980,"current_range_meters":0,"station_id":"ce4bgr92rcd13ifvqc7g","pricing_plan_id":"cebpf4jnsgd1na2vs0mg"},{"bike_id":"4c306cd9-ac09-4afa-b2ea-321bc317bfed","system_id":"levelo_inurba_marseille","lat":43.319935,"lon":5.381699,"is_reserved":false,"is_disabled":false,"rental_uris":{"android":"levelo://app?vid=4c306cd9-ac09-4afa-b2ea-321bc317bfed","ios":"levelo://app?vid=4c306cd9-ac09-4afa-b2ea-321bc317bfed"},"vehicle_type_id":"4","last_reported":1722614980,"current_range_meters":29600,"station_id":"ce4bhr12rcd13ifvqhpg","pricing_plan_id":"cebpf4jnsgd1na2vs0mg"},{"bike_id":"f3e8234d-e7f5-4571-b8bd-fd75fc43d7c5","system_id":"levelo_inurba_marseille","lat":43.298433,"lon":5.362774,"is_reserved":false,"is_disabled":false,"rental_uris":{"android":"levelo://app?vid=f3e8234d-e7f5-4571-b8bd-fd75fc43d7c5","ios":"levelo://app?vid=f3e8234d-e7f5-4571-b8bd-fd75fc43d7c5"},"vehicle_type_id":"4","last_reported":1722614980,"current_range_meters":400,"station_id":"ce4bgpp2rcd13ifvqc3g","pricing_plan_id":"cebpf4jnsgd1na2vs0mg"},{"bike_id":"66271360-f295-4ed7-b4c9-61cb098a4201","system_id":"levelo_inurba_marseille","lat":43.30175,"lon":5.38027,"is_reserved":false,"is_disabled":false,"rental_uris":{"android":"levelo://app?vid=66271360-f295-4ed7-b4c9-61cb098a4201","ios":"levelo://app?vid=66271360-f295-4ed7-b4c9-61cb098a4201"},"vehicle_type_id":"4","last_reported":1722614980,"current_range_meters":23600,"station_id":"","pricing_plan_id":"cebpf4jnsgd1na2vs0mg"},{"bike_id":"c165e859-e3b3-45a6-aa65-425a5343a9b0","system_id":"levelo_inurba_marseille","lat":43.311722,"lon":5.387247,"is_reserved":false,"is_disabled":false,"rental_uris":{"android":"levelo://app?vid=c165e859-e3b3-45a6-aa65-425a5343a9b0","ios":"levelo://app?vid=c165e859-e3b3-45a6-aa65-425a5343a9b0"},"vehicle_type_id":"4","last_reported":1722614980,"current_range_meters":0,"station_id":"ce4bgv12rcd13ifvqcp0","pricing_plan_id":"cebpf4jnsgd1na2vs0mg"},{"bike_id":"6f445257-9287-49d5-ba45-f6616eae9d78","system_id":"levelo_inurba_marseille","lat":43.311722,"lon":5.387247,"is_reserved":false,"is_disabled":false,"rental_uris":{"android":"levelo://app?vid=6f445257-9287-49d5-ba45-f6616eae9d78","ios":"levelo://app?vid=6f445257-9287-49d5-ba45-f6616eae9d78"},"vehicle_type_id":"4","last_reported":1722614980,"current_range_meters":0,"station_id":"ce4bgv12rcd13ifvqcp0","pricing_plan_id":"cebpf4jnsgd1na2vs0mg"},{"bike_id":"32f22385-969e-4003-9a70-9d36cd8335f1","system_id":"levelo_inurba_marseille","lat":43.297794,"lon":5.370888,"is_reserved":false,"is_disabled":false,"rental_uris":{"android":"levelo://app?vid=32f22385-969e-4003-9a70-9d36cd8335f1","ios":"levelo://app?vid=32f22385-969e-4003-9a70-9d36cd8335f1"},"vehicle_type_id":"4","last_reported":1722614980,"current_range_meters":800,"station_id":"ce4bgop2rcd13ifvqc1g","pricing_plan_id":"cebpf4jnsgd1na2vs0mg"},{"bike_id":"c2629852-f9af-42e3-a938-12f52f908538","system_id":"levelo_inurba_marseille","lat":43.32289,"lon":5.38264,"is_reserved":false,"is_disabled":false,"rental_uris":{"android":"levelo://app?vid=c2629852-f9af-42e3-a938-12f52f908538","ios":"levelo://app?vid=c2629852-f9af-42e3-a938-12f52f908538"},"vehicle_type_id":"4","last_reported":1722614980,"current_range_meters":28400,"station_id":"ce4bhr12rcd13ifvqhqg","pricing_plan_id":"cebpf4jnsgd1na2vs0mg"},{"bike_id":"6877e42e-db5b-4b63-91ed-a68cbf79ee18","system_id":"levelo_inurba_marseille","lat":43.29766,"lon":5.37108,"is_reserved":false,"is_disabled":false,"rental_uris":{"android":"levelo://app?vid=6877e42e-db5b-4b63-91ed-a68cbf79ee18","ios":"levelo://app?vid=6877e42e-db5b-4b63-91ed-a68cbf79ee18"},"vehicle_type_id":"4","last_reported":1722614980,"current_range_meters":11200,"station_id":"ce4bgop2rcd13ifvqc1g","pricing_plan_id":"cebpf4jnsgd1na2vs0mg"},{"bike_id":"953b69be-39c0-47c3-a594-dea76f046d3c","system_id":"levelo_inurba_marseille","lat":43.300573,"lon":5.38074,"is_reserved":false,"is_disabled":false,"rental_uris":{"android":"levelo://app?vid=953b69be-39c0-47c3-a594-dea76f046d3c","ios":"levelo://app?vid=953b69be-39c0-47c3-a594-dea76f046d3c"},"vehicle_type_id":"4","last_reported":1722614980,"current_range_meters":0,"station_id":"","pricing_plan_id":"cebpf4jnsgd1na2vs0mg"},{"bike_id":"2914a6ce-7a25-4971-bc58-7eb345d80670","system_id":"levelo_inurba_marseille","lat":43.32925,"lon":5.36606,"is_reserved":false,"is_disabled":false,"rental_uris":{"android":"levelo://app?vid=2914a6ce-7a25-4971-bc58-7eb345d80670","ios":"levelo://app?vid=2914a6ce-7a25-4971-bc58-7eb345d80670"},"vehicle_type_id":"4","last_reported":1722614980,"current_range_meters":31200,"station_id":"","pricing_plan_id":"cebpf4jnsgd1na2vs0mg"},{"bike_id":"0709fa30-dfd9-44a6-987a-ac756ea3f388","system_id":"levelo_inurba_marseille","lat":43.29573,"lon":5.367355,"is_reserved":false,"is_disabled":false,"rental_uris":{"android":"levelo://app?vid=0709fa30-dfd9-44a6-987a-ac756ea3f388","ios":"levelo://app?vid=0709fa30-dfd9-44a6-987a-ac756ea3f388"},"vehicle_type_id":"4","last_reported":1722614980,"current_range_meters":15200,"station_id":"ce4bgph2rcd13ifvqc2g","pricing_plan_id":"cebpf4jnsgd1na2vs0mg"},{"bike_id":"f0837864-9931-4cc2-aa77-73215652a49c","system_id":"levelo_inurba_marseille","lat":43.296935,"lon":5.376544,"is_reserved":false,"is_disabled":false,"rental_uris":{"android":"levelo://app?vid=f0837864-9931-4cc2-aa77-73215652a49c","ios":"levelo://app?vid=f0837864-9931-4cc2-aa77-73215652a49c"},"vehicle_type_id":"4","last_reported":1722614980,"current_range_meters":10000,"station_id":"ce4bgkh2rcd13ifvqbl0","pricing_plan_id":"cebpf4jnsgd1na2vs0mg"},{"bike_id":"9c8e8249-ecfd-4a8c-8742-907dfb41f905","system_id":"levelo_inurba_marseille","lat":43.317557,"lon":5.390173,"is_reserved":false,"is_disabled":false,"rental_uris":{"android":"levelo://app?vid=9c8e8249-ecfd-4a8c-8742-907dfb41f905","ios":"levelo://app?vid=9c8e8249-ecfd-4a8c-8742-907dfb41f905"},"vehicle_type_id":"4","last_reported":1722614980,"current_range_meters":18000,"station_id":"ce4bhqp2rcd13ifvqhng","pricing_plan_id":"cebpf4jnsgd1na2vs0mg"},{"bike_id":"1c67e02f-8618-4683-99d2-6c2706977f9d","system_id":"levelo_inurba_marseille","lat":43.317557,"lon":5.390173,"is_reserved":false,"is_disabled":false,"rental_uris":{"android":"levelo://app?vid=1c67e02f-8618-4683-99d2-6c2706977f9d","ios":"levelo://app?vid=1c67e02f-8618-4683-99d2-6c2706977f9d"},"vehicle_type_id":"4","last_reported":1722614980,"current_range_meters":0,"station_id":"ce4bhqp2rcd13ifvqhng","pricing_plan_id":"cebpf4jnsgd1na2vs0mg"},{"bike_id":"308c2350-da6f-482d-b4b5-0a40a87f8344","system_id":"levelo_inurba_marseille","lat":43.317562,"lon":5.3902,"is_reserved":false,"is_disabled":false,"rental_uris":{"android":"levelo://app?vid=308c2350-da6f-482d-b4b5-0a40a87f8344","ios":"levelo://app?vid=308c2350-da6f-482d-b4b5-0a40a87f8344"},"vehicle_type_id":"4","last_reported":1722614980,"current_range_meters":2000,"station_id":"ce4bhqp2rcd13ifvqhng","pricing_plan_id":"cebpf4jnsgd1na2vs0mg"},{"bike_id":"ea6e8f5e-a252-45f3-8427-2311677157d3","system_id":"levelo_inurba_marseille","lat":43.298037,"lon":5.381066,"is_reserved":false,"is_disabled":false,"rental_uris":{"android":"levelo://app?vid=ea6e8f5e-a252-45f3-8427-2311677157d3","ios":"levelo://app?vid=ea6e8f5e-a252-45f3-8427-2311677157d3"},"vehicle_type_id":"4","last_reported":1722614980,"current_range_meters":10800,"station_id":"ce4bgip2rcd13ifvqbb0","pricing_plan_id":"cebpf4jnsgd1na2vs0mg"},{"bike_id":"cbbee058-9df9-4474-9bd5-4e7f470f46c9","system_id":"levelo_inurba_marseille","lat":43.295748,"lon":5.37522,"is_reserved":false,"is_disabled":false,"rental_uris":{"android":"levelo://app?vid=cbbee058-9df9-4474-9bd5-4e7f470f46c9","ios":"levelo://app?vid=cbbee058-9df9-4474-9bd5-4e7f470f46c9"},"vehicle_type_id":"4","last_reported":1722614980,"current_range_meters":0,"station_id":"ce4bgh92rcd13ifvqb50","pricing_plan_id":"cebpf4jnsgd1na2vs0mg"},{"bike_id":"c3c1ae3d-2918-4015-abd6-c196a76c53d5","system_id":"levelo_inurba_marseille","lat":43.29608,"lon":5.37699,"is_reserved":false,"is_disabled":false,"rental_uris":{"android":"levelo://app?vid=c3c1ae3d-2918-4015-abd6-c196a76c53d5","ios":"levelo://app?vid=c3c1ae3d-2918-4015-abd6-c196a76c53d5"},"vehicle_type_id":"4","last_reported":1722614980,"current_range_meters":11600,"station_id":"","pricing_plan_id":"cebpf4jnsgd1na2vs0mg"},{"bike_id":"53cf4126-39ce-4900-9a1d-cbb86b45ee04","system_id":"levelo_inurba_marseille","lat":43.299707,"lon":5.384859,"is_reserved":false,"is_disabled":false,"rental_uris":{"android":"levelo://app?vid=53cf4126-39ce-4900-9a1d-cbb86b45ee04","ios":"levelo://app?vid=53cf4126-39ce-4900-9a1d-cbb86b45ee04"},"vehicle_type_id":"4","last_reported":1722614980,"current_range_meters":0,"station_id":"ce4bgj92rcd13ifvqbd0","pricing_plan_id":"cebpf4jnsgd1na2vs0mg"},{"bike_id":"461851ec-2cb9-49d2-a0eb-af708ccee864","system_id":"levelo_inurba_marseille","lat":43.299717,"lon":5.384845,"is_reserved":false,"is_disabled":false,"rental_uris":{"android":"levelo://app?vid=461851ec-2cb9-49d2-a0eb-af708ccee864","ios":"levelo://app?vid=461851ec-2cb9-49d2-a0eb-af708ccee864"},"vehicle_type_id":"4","last_reported":1722614980,"current_range_meters":400,"station_id":"ce4bgj92rcd13ifvqbd0","pricing_plan_id":"cebpf4jnsgd1na2vs0mg"},{"bike_id":"f3f1a1f5-4769-4ba4-b4c1-d02875c562e0","system_id":"levelo_inurba_marseille","lat":43.295279,"lon":5.375048,"is_reserved":false,"is_disabled":false,"rental_uris":{"android":"levelo://app?vid=f3f1a1f5-4769-4ba4-b4c1-d02875c562e0","ios":"levelo://app?vid=f3f1a1f5-4769-4ba4-b4c1-d02875c562e0"},"vehicle_type_id":"4","last_reported":1722614980,"current_range_meters":24800,"station_id":"ce4bgkp2rcd13ifvqbmg","pricing_plan_id":"cebpf4jnsgd1na2vs0mg"},{"bike_id":"c00be571-3e99-49d6-a5f5-7a260639bde4","system_id":"levelo_inurba_marseille","lat":43.32384,"lon":5.38853,"is_reserved":false,"is_disabled":false,"rental_uris":{"android":"levelo://app?vid=c00be571-3e99-49d6-a5f5-7a260639bde4","ios":"levelo://app?vid=c00be571-3e99-49d6-a5f5-7a260639bde4"},"vehicle_type_id":"4","last_reported":1722614980,"current_range_meters":7200,"station_id":"ce4bhqp2rcd13ifvqhog","pricing_plan_id":"cebpf4jnsgd1na2vs0mg"},{"bike_id":"0009eb61-2553-4477-91e3-ab94c3850384","system_id":"levelo_inurba_marseille","lat":43.32367,"lon":5.388836,"is_reserved":false,"is_disabled":false,"rental_uris":{"android":"levelo://app?vid=0009eb61-2553-4477-91e3-ab94c3850384","ios":"levelo://app?vid=0009eb61-2553-4477-91e3-ab94c3850384"},"vehicle_type_id":"4","last_reported":1722614980,"current_range_meters":27600,"station_id":"ce4bhqp2rcd13ifvqhog","pricing_plan_id":"cebpf4jnsgd1na2vs0mg"},{"bike_id":"ce1d46c3-7a87-468d-93ef-7de440451ad5","system_id":"levelo_inurba_marseille","lat":43.32367,"lon":5.388836,"is_reserved":false,"is_disabled":false,"rental_uris":{"android":"levelo://app?vid=ce1d46c3-7a87-468d-93ef-7de440451ad5","ios":"levelo://app?vid=ce1d46c3-7a87-468d-93ef-7de440451ad5"},"vehicle_type_id":"4","last_reported":1722614980,"current_range_meters":18000,"station_id":"ce4bhqp2rcd13ifvqhog","pricing_plan_id":"cebpf4jnsgd1na2vs0mg"},{"bike_id":"fc2fa7ba-17a5-41d8-a44e-a75966317643","system_id":"levelo_inurba_marseille","lat":43.293249,"lon":5.371578,"is_reserved":false,"is_disabled":false,"rental_uris":{"android":"levelo://app?vid=fc2fa7ba-17a5-41d8-a44e-a75966317643","ios":"levelo://app?vid=fc2fa7ba-17a5-41d8-a44e-a75966317643"},"vehicle_type_id":"4","last_reported":1722614980,"current_range_meters":22800,"station_id":"ce4bgh92rcd13ifvqb40","pricing_plan_id":"cebpf4jnsgd1na2vs0mg"},{"bike_id":"6fb5ac60-9586-42fa-8f5c-ee7042ebada3","system_id":"levelo_inurba_marseille","lat":43.29305,"lon":5.37462,"is_reserved":false,"is_disabled":false,"rental_uris":{"android":"levelo://app?vid=6fb5ac60-9586-42fa-8f5c-ee7042ebada3","ios":"levelo://app?vid=6fb5ac60-9586-42fa-8f5c-ee7042ebada3"},"vehicle_type_id":"4","last_reported":1722614980,"current_range_meters":0,"station_id":"ce4bgi12rcd13ifvqb70","pricing_plan_id":"cebpf4jnsgd1na2vs0mg"},{"bike_id":"1eb7f336-7bf9-4d38-a2c2-8a08bb038253","system_id":"levelo_inurba_marseille","lat":43.293009,"lon":5.374584,"is_reserved":false,"is_disabled":false,"rental_uris":{"android":"levelo://app?vid=1eb7f336-7bf9-4d38-a2c2-8a08bb038253","ios":"levelo://app?vid=1eb7f336-7bf9-4d38-a2c2-8a08bb038253"},"vehicle_type_id":"4","last_reported":1722614980,"current_range_meters":20000,"station_id":"ce4bgi12rcd13ifvqb70","pricing_plan_id":"cebpf4jnsgd1na2vs0mg"},{"bike_id":"1f8f0de1-fb0b-49bd-8dee-c8a4ab2d54e6","system_id":"levelo_inurba_marseille","lat":43.305994,"lon":5.393687,"is_reserved":false,"is_disabled":false,"rental_uris":{"android":"levelo://app?vid=1f8f0de1-fb0b-49bd-8dee-c8a4ab2d54e6","ios":"levelo://app?vid=1f8f0de1-fb0b-49bd-8dee-c8a4ab2d54e6"},"vehicle_type_id":"4","last_reported":1722614980,"current_range_meters":16800,"station_id":"ce4bh0p2rcd13ifvqd80","pricing_plan_id":"cebpf4jnsgd1na2vs0mg"},{"bike_id":"bdd50bf5-1448-4ea5-8b94-52f941eeaffa","system_id":"levelo_inurba_marseille","lat":43.305994,"lon":5.393687,"is_reserved":false,"is_disabled":false,"rental_uris":{"android":"levelo://app?vid=bdd50bf5-1448-4ea5-8b94-52f941eeaffa","ios":"levelo://app?vid=bdd50bf5-1448-4ea5-8b94-52f941eeaffa"},"vehicle_type_id":"4","last_reported":1722614980,"current_range_meters":15600,"station_id":"ce4bh0p2rcd13ifvqd80","pricing_plan_id":"cebpf4jnsgd1na2vs0mg"},{"bike_id":"bbeebd78-c347-46dd-ac97-2319187c3cd6","system_id":"levelo_inurba_marseille","lat":43.293009,"lon":5.374584,"is_reserved":false,"is_disabled":false,"rental_uris":{"android":"levelo://app?vid=bbeebd78-c347-46dd-ac97-2319187c3cd6","ios":"levelo://app?vid=bbeebd78-c347-46dd-ac97-2319187c3cd6"},"vehicle_type_id":"4","last_reported":1722614980,"current_range_meters":30400,"station_id":"ce4bgi12rcd13ifvqb70","pricing_plan_id":"cebpf4jnsgd1na2vs0mg"},{"bike_id":"f1c7615c-94ba-4d2e-aa3b-4300a062a8e9","system_id":"levelo_inurba_marseille","lat":43.293009,"lon":5.374584,"is_reserved":false,"is_disabled":false,"rental_uris":{"android":"levelo://app?vid=f1c7615c-94ba-4d2e-aa3b-4300a062a8e9","ios":"levelo://app?vid=f1c7615c-94ba-4d2e-aa3b-4300a062a8e9"},"vehicle_type_id":"4","last_reported":1722614980,"current_range_meters":0,"station_id":"ce4bgi12rcd13ifvqb70","pricing_plan_id":"cebpf4jnsgd1na2vs0mg"},{"bike_id":"e38d1afc-b52e-4c8d-9cf5-53dfabdcecad","system_id":"levelo_inurba_marseille","lat":43.293009,"lon":5.374584,"is_reserved":false,"is_disabled":false,"rental_uris":{"android":"levelo://app?vid=e38d1afc-b52e-4c8d-9cf5-53dfabdcecad","ios":"levelo://app?vid=e38d1afc-b52e-4c8d-9cf5-53dfabdcecad"},"vehicle_type_id":"4","last_reported":1722614980,"current_range_meters":6000,"station_id":"ce4bgi12rcd13ifvqb70","pricing_plan_id":"cebpf4jnsgd1na2vs0mg"},{"bike_id":"e3f252b2-c96a-468e-932c-9d288e0c3d27","system_id":"levelo_inurba_marseille","lat":43.29368,"lon":5.37851,"is_reserved":false,"is_disabled":false,"rental_uris":{"android":"levelo://app?vid=e3f252b2-c96a-468e-932c-9d288e0c3d27","ios":"levelo://app?vid=e3f252b2-c96a-468e-932c-9d288e0c3d27"},"vehicle_type_id":"4","last_reported":1722614980,"current_range_meters":0,"station_id":"ce4bgjh2rcd13ifvqbf0","pricing_plan_id":"cebpf4jnsgd1na2vs0mg"},{"bike_id":"728c0037-1450-44d6-82d3-31609ac0ef6b","system_id":"levelo_inurba_marseille","lat":43.30085,"lon":5.390856,"is_reserved":false,"is_disabled":false,"rental_uris":{"android":"levelo://app?vid=728c0037-1450-44d6-82d3-31609ac0ef6b","ios":"levelo://app?vid=728c0037-1450-44d6-82d3-31609ac0ef6b"},"vehicle_type_id":"4","last_reported":1722614980,"current_range_meters":2800,"station_id":"ce4bh192rcd13ifvqdb0","pricing_plan_id":"cebpf4jnsgd1na2vs0mg"},{"bike_id":"9bf609fc-4fd6-449e-9293-12cb8bddaaff","system_id":"levelo_inurba_marseille","lat":43.313628,"lon":5.395923,"is_reserved":false,"is_disabled":false,"rental_uris":{"android":"levelo://app?vid=9bf609fc-4fd6-449e-9293-12cb8bddaaff","ios":"levelo://app?vid=9bf609fc-4fd6-449e-9293-12cb8bddaaff"},"vehicle_type_id":"4","last_reported":1722614980,"current_range_meters":18400,"station_id":"","pricing_plan_id":"cebpf4jnsgd1na2vs0mg"},{"bike_id":"7b84c692-f847-4a20-a196-54ca452cae84","system_id":"levelo_inurba_marseille","lat":43.30085,"lon":5.390856,"is_reserved":false,"is_disabled":false,"rental_uris":{"android":"levelo://app?vid=7b84c692-f847-4a20-a196-54ca452cae84","ios":"levelo://app?vid=7b84c692-f847-4a20-a196-54ca452cae84"},"vehicle_type_id":"4","last_reported":1722614980,"current_range_meters":4000,"station_id":"ce4bh192rcd13ifvqdb0","pricing_plan_id":"cebpf4jnsgd1na2vs0mg"},{"bike_id":"bf2e4d0f-3a10-4931-8523-dc6a3a6e3af4","system_id":"levelo_inurba_marseille","lat":43.29265,"lon":5.37628,"is_reserved":false,"is_disabled":false,"rental_uris":{"android":"levelo://app?vid=bf2e4d0f-3a10-4931-8523-dc6a3a6e3af4","ios":"levelo://app?vid=bf2e4d0f-3a10-4931-8523-dc6a3a6e3af4"},"vehicle_type_id":"4","last_reported":1722614980,"current_range_meters":16000,"station_id":"ce4bgi12rcd13ifvqb80","pricing_plan_id":"cebpf4jnsgd1na2vs0mg"},{"bike_id":"4d03bcbf-0add-4b35-882c-084c16b6028c","system_id":"levelo_inurba_marseille","lat":43.298764,"lon":5.388973,"is_reserved":false,"is_disabled":false,"rental_uris":{"android":"levelo://app?vid=4d03bcbf-0add-4b35-882c-084c16b6028c","ios":"levelo://app?vid=4d03bcbf-0add-4b35-882c-084c16b6028c"},"vehicle_type_id":"4","last_reported":1722614980,"current_range_meters":0,"station_id":"ce4bh392rcd13ifvqdl0","pricing_plan_id":"cebpf4jnsgd1na2vs0mg"},{"bike_id":"c60ae143-ad65-46c2-8717-0fbc6a05c619","system_id":"levelo_inurba_marseille","lat":43.29257,"lon":5.37609,"is_reserved":false,"is_disabled":false,"rental_uris":{"android":"levelo://app?vid=c60ae143-ad65-46c2-8717-0fbc6a05c619","ios":"levelo://app?vid=c60ae143-ad65-46c2-8717-0fbc6a05c619"},"vehicle_type_id":"4","last_reported":1722614980,"current_range_meters":0,"station_id":"ce4bgi12rcd13ifvqb80","pricing_plan_id":"cebpf4jnsgd1na2vs0mg"},{"bike_id":"4d73b405-b3d6-4817-a84e-841c59445a3a","system_id":"levelo_inurba_marseille","lat":43.29258,"lon":5.37624,"is_reserved":false,"is_disabled":false,"rental_uris":{"android":"levelo://app?vid=4d73b405-b3d6-4817-a84e-841c59445a3a","ios":"levelo://app?vid=4d73b405-b3d6-4817-a84e-841c59445a3a"},"vehicle_type_id":"4","last_reported":1722614980,"current_range_meters":10400,"station_id":"ce4bgi12rcd13ifvqb80","pricing_plan_id":"cebpf4jnsgd1na2vs0mg"},{"bike_id":"9ecd3c4e-f419-4f9c-91dc-bfb0917b0a4a","system_id":"levelo_inurba_marseille","lat":43.29258,"lon":5.3763,"is_reserved":false,"is_disabled":false,"rental_uris":{"android":"levelo://app?vid=9ecd3c4e-f419-4f9c-91dc-bfb0917b0a4a","ios":"levelo://app?vid=9ecd3c4e-f419-4f9c-91dc-bfb0917b0a4a"},"vehicle_type_id":"4","last_reported":1722614980,"current_range_meters":5600,"station_id":"ce4bgi12rcd13ifvqb80","pricing_plan_id":"cebpf4jnsgd1na2vs0mg"},{"bike_id":"624bbef0-53d5-4392-a1b4-d823136e2c64","system_id":"levelo_inurba_marseille","lat":43.313291,"lon":5.396838,"is_reserved":false,"is_disabled":false,"rental_uris":{"android":"levelo://app?vid=624bbef0-53d5-4392-a1b4-d823136e2c64","ios":"levelo://app?vid=624bbef0-53d5-4392-a1b4-d823136e2c64"},"vehicle_type_id":"4","last_reported":1722614980,"current_range_meters":7200,"station_id":"ce4bgvp2rcd13ifvqcu0","pricing_plan_id":"cebpf4jnsgd1na2vs0mg"},{"bike_id":"7dbd1995-9fa0-494f-8eb0-2ecbca30ee19","system_id":"levelo_inurba_marseille","lat":43.313291,"lon":5.396838,"is_reserved":false,"is_disabled":false,"rental_uris":{"android":"levelo://app?vid=7dbd1995-9fa0-494f-8eb0-2ecbca30ee19","ios":"levelo://app?vid=7dbd1995-9fa0-494f-8eb0-2ecbca30ee19"},"vehicle_type_id":"4","last_reported":1722614980,"current_range_meters":0,"station_id":"ce4bgvp2rcd13ifvqcu0","pricing_plan_id":"cebpf4jnsgd1na2vs0mg"},{"bike_id":"889f39c5-adb0-4a46-8ee9-0e6e8efbb988","system_id":"levelo_inurba_marseille","lat":43.30889,"lon":5.39648,"is_reserved":false,"is_disabled":false,"rental_uris":{"android":"levelo://app?vid=889f39c5-adb0-4a46-8ee9-0e6e8efbb988","ios":"levelo://app?vid=889f39c5-adb0-4a46-8ee9-0e6e8efbb988"},"vehicle_type_id":"4","last_reported":1722614980,"current_range_meters":5200,"station_id":"ce4bh012rcd13ifvqcv0","pricing_plan_id":"cebpf4jnsgd1na2vs0mg"},{"bike_id":"b4cadf68-5728-473d-8c5a-0ecc6194ef8f","system_id":"levelo_inurba_marseille","lat":43.30881,"lon":5.39648,"is_reserved":false,"is_disabled":false,"rental_uris":{"android":"levelo://app?vid=b4cadf68-5728-473d-8c5a-0ecc6194ef8f","ios":"levelo://app?vid=b4cadf68-5728-473d-8c5a-0ecc6194ef8f"},"vehicle_type_id":"4","last_reported":1722614980,"current_range_meters":19600,"station_id":"ce4bh012rcd13ifvqcv0","pricing_plan_id":"cebpf4jnsgd1na2vs0mg"},{"bike_id":"7f482db4-a0f0-49b7-bf13-9ed3a55f0f99","system_id":"levelo_inurba_marseille","lat":43.313291,"lon":5.396838,"is_reserved":false,"is_disabled":false,"rental_uris":{"android":"levelo://app?vid=7f482db4-a0f0-49b7-bf13-9ed3a55f0f99","ios":"levelo://app?vid=7f482db4-a0f0-49b7-bf13-9ed3a55f0f99"},"vehicle_type_id":"4","last_reported":1722614980,"current_range_meters":15200,"station_id":"ce4bgvp2rcd13ifvqcu0","pricing_plan_id":"cebpf4jnsgd1na2vs0mg"},{"bike_id":"4b4d33f0-dce8-447a-8f7c-65a5f642aea5","system_id":"levelo_inurba_marseille","lat":43.30885,"lon":5.39655,"is_reserved":false,"is_disabled":false,"rental_uris":{"android":"levelo://app?vid=4b4d33f0-dce8-447a-8f7c-65a5f642aea5","ios":"levelo://app?vid=4b4d33f0-dce8-447a-8f7c-65a5f642aea5"},"vehicle_type_id":"4","last_reported":1722614980,"current_range_meters":12000,"station_id":"ce4bh012rcd13ifvqcv0","pricing_plan_id":"cebpf4jnsgd1na2vs0mg"},{"bike_id":"82aff224-528c-40f8-9d6e-08ee0ad10127","system_id":"levelo_inurba_marseille","lat":43.309047,"lon":5.396551,"is_reserved":false,"is_disabled":false,"rental_uris":{"android":"levelo://app?vid=82aff224-528c-40f8-9d6e-08ee0ad10127","ios":"levelo://app?vid=82aff224-528c-40f8-9d6e-08ee0ad10127"},"vehicle_type_id":"4","last_reported":1722614980,"current_range_meters":800,"station_id":"ce4bh012rcd13ifvqcv0","pricing_plan_id":"cebpf4jnsgd1na2vs0mg"},{"bike_id":"181cb813-2684-40d5-ac3b-d158848906e5","system_id":"levelo_inurba_marseille","lat":43.313291,"lon":5.396838,"is_reserved":false,"is_disabled":false,"rental_uris":{"android":"levelo://app?vid=181cb813-2684-40d5-ac3b-d158848906e5","ios":"levelo://app?vid=181cb813-2684-40d5-ac3b-d158848906e5"},"vehicle_type_id":"4","last_reported":1722614980,"current_range_meters":21600,"station_id":"ce4bgvp2rcd13ifvqcu0","pricing_plan_id":"cebpf4jnsgd1na2vs0mg"},{"bike_id":"9cda6d01-5967-44df-9b82-15861851ff05","system_id":"levelo_inurba_marseille","lat":43.29529,"lon":5.385581,"is_reserved":false,"is_disabled":false,"rental_uris":{"android":"levelo://app?vid=9cda6d01-5967-44df-9b82-15861851ff05","ios":"levelo://app?vid=9cda6d01-5967-44df-9b82-15861851ff05"},"vehicle_type_id":"4","last_reported":1722614980,"current_range_meters":22800,"station_id":"ce4bgih2rcd13ifvqba0","pricing_plan_id":"cebpf4jnsgd1na2vs0mg"},{"bike_id":"57a0659c-d288-4701-b8d7-0b12e9163c57","system_id":"levelo_inurba_marseille","lat":43.29529,"lon":5.385581,"is_reserved":false,"is_disabled":false,"rental_uris":{"android":"levelo://app?vid=57a0659c-d288-4701-b8d7-0b12e9163c57","ios":"levelo://app?vid=57a0659c-d288-4701-b8d7-0b12e9163c57"},"vehicle_type_id":"4","last_reported":1722614980,"current_range_meters":10400,"station_id":"ce4bgih2rcd13ifvqba0","pricing_plan_id":"cebpf4jnsgd1na2vs0mg"},{"bike_id":"b2a7a0b9-ee83-4028-b640-6840088101cc","system_id":"levelo_inurba_marseille","lat":43.284214,"lon":5.349706,"is_reserved":false,"is_disabled":false,"rental_uris":{"android":"levelo://app?vid=b2a7a0b9-ee83-4028-b640-6840088101cc","ios":"levelo://app?vid=b2a7a0b9-ee83-4028-b640-6840088101cc"},"vehicle_type_id":"4","last_reported":1722614980,"current_range_meters":12000,"station_id":"ce4bhbh2rcd13ifvqepg","pricing_plan_id":"cebpf4jnsgd1na2vs0mg"},{"bike_id":"5676318f-0071-4bd0-b3af-5cb613205d48","system_id":"levelo_inurba_marseille","lat":43.290779,"lon":5.371482,"is_reserved":false,"is_disabled":false,"rental_uris":{"android":"levelo://app?vid=5676318f-0071-4bd0-b3af-5cb613205d48","ios":"levelo://app?vid=5676318f-0071-4bd0-b3af-5cb613205d48"},"vehicle_type_id":"4","last_reported":1722614980,"current_range_meters":8400,"station_id":"ce4bh5p2rcd13ifvqe4g","pricing_plan_id":"cebpf4jnsgd1na2vs0mg"},{"bike_id":"1f152490-6de7-4c71-998e-5bed1ca7e14c","system_id":"levelo_inurba_marseille","lat":43.290779,"lon":5.371482,"is_reserved":false,"is_disabled":false,"rental_uris":{"android":"levelo://app?vid=1f152490-6de7-4c71-998e-5bed1ca7e14c","ios":"levelo://app?vid=1f152490-6de7-4c71-998e-5bed1ca7e14c"},"vehicle_type_id":"4","last_reported":1722614980,"current_range_meters":0,"station_id":"ce4bh5p2rcd13ifvqe4g","pricing_plan_id":"cebpf4jnsgd1na2vs0mg"},{"bike_id":"90b91ffb-d24d-4a46-8eb8-dd10423cb03a","system_id":"levelo_inurba_marseille","lat":43.290779,"lon":5.371482,"is_reserved":false,"is_disabled":false,"rental_uris":{"android":"levelo://app?vid=90b91ffb-d24d-4a46-8eb8-dd10423cb03a","ios":"levelo://app?vid=90b91ffb-d24d-4a46-8eb8-dd10423cb03a"},"vehicle_type_id":"4","last_reported":1722614980,"current_range_meters":0,"station_id":"ce4bh5p2rcd13ifvqe4g","pricing_plan_id":"cebpf4jnsgd1na2vs0mg"},{"bike_id":"e85ce0ad-3b4a-41c8-9b33-72741f9888bb","system_id":"levelo_inurba_marseille","lat":43.29062,"lon":5.37161,"is_reserved":false,"is_disabled":false,"rental_uris":{"android":"levelo://app?vid=e85ce0ad-3b4a-41c8-9b33-72741f9888bb","ios":"levelo://app?vid=e85ce0ad-3b4a-41c8-9b33-72741f9888bb"},"vehicle_type_id":"4","last_reported":1722614980,"current_range_meters":0,"station_id":"ce4bh5p2rcd13ifvqe4g","pricing_plan_id":"cebpf4jnsgd1na2vs0mg"},{"bike_id":"bef28cf8-58d0-434b-8559-b5f46a9b1a62","system_id":"levelo_inurba_marseille","lat":43.289184,"lon":5.366408,"is_reserved":false,"is_disabled":false,"rental_uris":{"android":"levelo://app?vid=bef28cf8-58d0-434b-8559-b5f46a9b1a62","ios":"levelo://app?vid=bef28cf8-58d0-434b-8559-b5f46a9b1a62"},"vehicle_type_id":"4","last_reported":1722614980,"current_range_meters":24000,"station_id":"ce4bhap2rcd13ifvqek0","pricing_plan_id":"cebpf4jnsgd1na2vs0mg"},{"bike_id":"816e641f-9ef5-44b0-a3e5-6eba68313776","system_id":"levelo_inurba_marseille","lat":43.302008,"lon":5.394694,"is_reserved":false,"is_disabled":false,"rental_uris":{"android":"levelo://app?vid=816e641f-9ef5-44b0-a3e5-6eba68313776","ios":"levelo://app?vid=816e641f-9ef5-44b0-a3e5-6eba68313776"},"vehicle_type_id":"4","last_reported":1722614980,"current_range_meters":24400,"station_id":"ce4bh0p2rcd13ifvqd70","pricing_plan_id":"cebpf4jnsgd1na2vs0mg"},{"bike_id":"d6823751-b1cf-4369-a0cd-58043a0ce2c2","system_id":"levelo_inurba_marseille","lat":43.32462,"lon":5.394017,"is_reserved":false,"is_disabled":false,"rental_uris":{"android":"levelo://app?vid=d6823751-b1cf-4369-a0cd-58043a0ce2c2","ios":"levelo://app?vid=d6823751-b1cf-4369-a0cd-58043a0ce2c2"},"vehicle_type_id":"4","last_reported":1722614980,"current_range_meters":30400,"station_id":"","pricing_plan_id":"cebpf4jnsgd1na2vs0mg"},{"bike_id":"29163d3f-2068-4858-9006-361283bf7aab","system_id":"levelo_inurba_marseille","lat":43.294162,"lon":5.386292,"is_reserved":false,"is_disabled":false,"rental_uris":{"android":"levelo://app?vid=29163d3f-2068-4858-9006-361283bf7aab","ios":"levelo://app?vid=29163d3f-2068-4858-9006-361283bf7aab"},"vehicle_type_id":"4","last_reported":1722614980,"current_range_meters":4400,"station_id":"ce4bh2h2rcd13ifvqdh0","pricing_plan_id":"cebpf4jnsgd1na2vs0mg"},{"bike_id":"973d67ec-65d3-43df-ba60-e79745ceece8","system_id":"levelo_inurba_marseille","lat":43.294162,"lon":5.386292,"is_reserved":false,"is_disabled":false,"rental_uris":{"android":"levelo://app?vid=973d67ec-65d3-43df-ba60-e79745ceece8","ios":"levelo://app?vid=973d67ec-65d3-43df-ba60-e79745ceece8"},"vehicle_type_id":"4","last_reported":1722614980,"current_range_meters":25600,"station_id":"ce4bh2h2rcd13ifvqdh0","pricing_plan_id":"cebpf4jnsgd1na2vs0mg"},{"bike_id":"b60144a6-14b4-41fd-a229-4662b37c184a","system_id":"levelo_inurba_marseille","lat":43.290327,"lon":5.375711,"is_reserved":false,"is_disabled":false,"rental_uris":{"android":"levelo://app?vid=b60144a6-14b4-41fd-a229-4662b37c184a","ios":"levelo://app?vid=b60144a6-14b4-41fd-a229-4662b37c184a"},"vehicle_type_id":"4","last_reported":1722614980,"current_range_meters":19200,"station_id":"ce4bh692rcd13ifvqe90","pricing_plan_id":"cebpf4jnsgd1na2vs0mg"},{"bike_id":"57268fd2-8625-486c-b358-468bd0433b5b","system_id":"levelo_inurba_marseille","lat":43.294153,"lon":5.386305,"is_reserved":false,"is_disabled":false,"rental_uris":{"android":"levelo://app?vid=57268fd2-8625-486c-b358-468bd0433b5b","ios":"levelo://app?vid=57268fd2-8625-486c-b358-468bd0433b5b"},"vehicle_type_id":"4","last_reported":1722614980,"current_range_meters":0,"station_id":"ce4bh2h2rcd13ifvqdh0","pricing_plan_id":"cebpf4jnsgd1na2vs0mg"},{"bike_id":"f8119983-591e-474c-aa57-a9f68cf18b8d","system_id":"levelo_inurba_marseille","lat":43.2903,"lon":5.37555,"is_reserved":false,"is_disabled":false,"rental_uris":{"android":"levelo://app?vid=f8119983-591e-474c-aa57-a9f68cf18b8d","ios":"levelo://app?vid=f8119983-591e-474c-aa57-a9f68cf18b8d"},"vehicle_type_id":"4","last_reported":1722614980,"current_range_meters":0,"station_id":"ce4bh692rcd13ifvqe90","pricing_plan_id":"cebpf4jnsgd1na2vs0mg"},{"bike_id":"e01b74cd-f833-455e-b529-4148e1619d63","system_id":"levelo_inurba_marseille","lat":43.289504,"lon":5.364188,"is_reserved":false,"is_disabled":false,"rental_uris":{"android":"levelo://app?vid=e01b74cd-f833-455e-b529-4148e1619d63","ios":"levelo://app?vid=e01b74cd-f833-455e-b529-4148e1619d63"},"vehicle_type_id":"4","last_reported":1722614980,"current_range_meters":30400,"station_id":"","pricing_plan_id":"cebpf4jnsgd1na2vs0mg"},{"bike_id":"4a63ab17-566f-43a7-b4d9-20960cfba802","system_id":"levelo_inurba_marseille","lat":43.294162,"lon":5.386292,"is_reserved":false,"is_disabled":false,"rental_uris":{"android":"levelo://app?vid=4a63ab17-566f-43a7-b4d9-20960cfba802","ios":"levelo://app?vid=4a63ab17-566f-43a7-b4d9-20960cfba802"},"vehicle_type_id":"4","last_reported":1722614980,"current_range_meters":9200,"station_id":"ce4bh2h2rcd13ifvqdh0","pricing_plan_id":"cebpf4jnsgd1na2vs0mg"},{"bike_id":"a97fc581-0c10-4f63-aa5d-995c5f23a31b","system_id":"levelo_inurba_marseille","lat":43.28941,"lon":5.3664,"is_reserved":false,"is_disabled":false,"rental_uris":{"android":"levelo://app?vid=a97fc581-0c10-4f63-aa5d-995c5f23a31b","ios":"levelo://app?vid=a97fc581-0c10-4f63-aa5d-995c5f23a31b"},"vehicle_type_id":"4","last_reported":1722614980,"current_range_meters":0,"station_id":"ce4bhap2rcd13ifvqek0","pricing_plan_id":"cebpf4jnsgd1na2vs0mg"},{"bike_id":"7b434704-f27d-47d6-8b06-b8e5080e360c","system_id":"levelo_inurba_marseille","lat":43.28935,"lon":5.36645,"is_reserved":false,"is_disabled":false,"rental_uris":{"android":"levelo://app?vid=7b434704-f27d-47d6-8b06-b8e5080e360c","ios":"levelo://app?vid=7b434704-f27d-47d6-8b06-b8e5080e360c"},"vehicle_type_id":"4","last_reported":1722614980,"current_range_meters":2000,"station_id":"","pricing_plan_id":"cebpf4jnsgd1na2vs0mg"},{"bike_id":"7b996aaa-85ad-42aa-9cc3-45620c6ed9d5","system_id":"levelo_inurba_marseille","lat":43.28938,"lon":5.36379,"is_reserved":false,"is_disabled":false,"rental_uris":{"android":"levelo://app?vid=7b996aaa-85ad-42aa-9cc3-45620c6ed9d5","ios":"levelo://app?vid=7b996aaa-85ad-42aa-9cc3-45620c6ed9d5"},"vehicle_type_id":"4","last_reported":1722614980,"current_range_meters":0,"station_id":"ce4bhc92rcd13ifvqetg","pricing_plan_id":"cebpf4jnsgd1na2vs0mg"},{"bike_id":"583230f0-24ed-4011-ac8e-67ce76a2d312","system_id":"levelo_inurba_marseille","lat":43.304296,"lon":5.397513,"is_reserved":false,"is_disabled":false,"rental_uris":{"android":"levelo://app?vid=583230f0-24ed-4011-ac8e-67ce76a2d312","ios":"levelo://app?vid=583230f0-24ed-4011-ac8e-67ce76a2d312"},"vehicle_type_id":"4","last_reported":1722614980,"current_range_meters":800,"station_id":"ce4bh092rcd13ifvqd20","pricing_plan_id":"cebpf4jnsgd1na2vs0mg"},{"bike_id":"de5ac87c-0e96-4a06-8123-bf5412e5f70e","system_id":"levelo_inurba_marseille","lat":43.29007,"lon":5.35612,"is_reserved":false,"is_disabled":false,"rental_uris":{"android":"levelo://app?vid=de5ac87c-0e96-4a06-8123-bf5412e5f70e","ios":"levelo://app?vid=de5ac87c-0e96-4a06-8123-bf5412e5f70e"},"vehicle_type_id":"4","last_reported":1722614980,"current_range_meters":12000,"station_id":"","pricing_plan_id":"cebpf4jnsgd1na2vs0mg"},{"bike_id":"f92894ca-2f48-405f-9915-c0178430c302","system_id":"levelo_inurba_marseille","lat":43.290103,"lon":5.356114,"is_reserved":false,"is_disabled":false,"rental_uris":{"android":"levelo://app?vid=f92894ca-2f48-405f-9915-c0178430c302","ios":"levelo://app?vid=f92894ca-2f48-405f-9915-c0178430c302"},"vehicle_type_id":"4","last_reported":1722614980,"current_range_meters":4400,"station_id":"ce4bhb92rcd13ifvqen0","pricing_plan_id":"cebpf4jnsgd1na2vs0mg"},{"bike_id":"81a58fd5-3f3a-4a80-87e5-bfb6e2b6172b","system_id":"levelo_inurba_marseille","lat":43.295169,"lon":5.390426,"is_reserved":false,"is_disabled":false,"rental_uris":{"android":"levelo://app?vid=81a58fd5-3f3a-4a80-87e5-bfb6e2b6172b","ios":"levelo://app?vid=81a58fd5-3f3a-4a80-87e5-bfb6e2b6172b"},"vehicle_type_id":"4","last_reported":1722614980,"current_range_meters":0,"station_id":"ce4bh3p2rcd13ifvqdp0","pricing_plan_id":"cebpf4jnsgd1na2vs0mg"},{"bike_id":"7c0848ef-0c9b-4f88-b6ae-d1274e9c6741","system_id":"levelo_inurba_marseille","lat":43.290896,"lon":5.38153,"is_reserved":false,"is_disabled":false,"rental_uris":{"android":"levelo://app?vid=7c0848ef-0c9b-4f88-b6ae-d1274e9c6741","ios":"levelo://app?vid=7c0848ef-0c9b-4f88-b6ae-d1274e9c6741"},"vehicle_type_id":"4","last_reported":1722614980,"current_range_meters":0,"station_id":"ce4bh512rcd13ifvqe2g","pricing_plan_id":"cebpf4jnsgd1na2vs0mg"},{"bike_id":"e08d74b3-c448-4728-a68c-ec4ab0cef228","system_id":"levelo_inurba_marseille","lat":43.330442,"lon":5.389148,"is_reserved":false,"is_disabled":false,"rental_uris":{"android":"levelo://app?vid=e08d74b3-c448-4728-a68c-ec4ab0cef228","ios":"levelo://app?vid=e08d74b3-c448-4728-a68c-ec4ab0cef228"},"vehicle_type_id":"4","last_reported":1722614980,"current_range_meters":31200,"station_id":"ce4bhr92rcd13ifvqhrg","pricing_plan_id":"cebpf4jnsgd1na2vs0mg"},{"bike_id":"1693657a-b719-488a-b759-4f9d4223d503","system_id":"levelo_inurba_marseille","lat":43.330442,"lon":5.389148,"is_reserved":false,"is_disabled":false,"rental_uris":{"android":"levelo://app?vid=1693657a-b719-488a-b759-4f9d4223d503","ios":"levelo://app?vid=1693657a-b719-488a-b759-4f9d4223d503"},"vehicle_type_id":"4","last_reported":1722614980,"current_range_meters":31600,"station_id":"ce4bhr92rcd13ifvqhrg","pricing_plan_id":"cebpf4jnsgd1na2vs0mg"},{"bike_id":"6b6b514c-04ea-44d5-bcb9-e8d0b9d7ef1e","system_id":"levelo_inurba_marseille","lat":43.33023,"lon":5.39034,"is_reserved":false,"is_disabled":false,"rental_uris":{"android":"levelo://app?vid=6b6b514c-04ea-44d5-bcb9-e8d0b9d7ef1e","ios":"levelo://app?vid=6b6b514c-04ea-44d5-bcb9-e8d0b9d7ef1e"},"vehicle_type_id":"4","last_reported":1722614980,"current_range_meters":7600,"station_id":"ce4bhr92rcd13ifvqhrg","pricing_plan_id":"cebpf4jnsgd1na2vs0mg"},{"bike_id":"733d77c0-fe76-4ff7-aa1f-90159da879c0","system_id":"levelo_inurba_marseille","lat":43.330442,"lon":5.389148,"is_reserved":false,"is_disabled":false,"rental_uris":{"android":"levelo://app?vid=733d77c0-fe76-4ff7-aa1f-90159da879c0","ios":"levelo://app?vid=733d77c0-fe76-4ff7-aa1f-90159da879c0"},"vehicle_type_id":"4","last_reported":1722614980,"current_range_meters":31200,"station_id":"ce4bhr92rcd13ifvqhrg","pricing_plan_id":"cebpf4jnsgd1na2vs0mg"},{"bike_id":"05a3b06b-0ebd-4692-9b38-4c2ce4ad9b74","system_id":"levelo_inurba_marseille","lat":43.289766,"lon":5.378402,"is_reserved":false,"is_disabled":false,"rental_uris":{"android":"levelo://app?vid=05a3b06b-0ebd-4692-9b38-4c2ce4ad9b74","ios":"levelo://app?vid=05a3b06b-0ebd-4692-9b38-4c2ce4ad9b74"},"vehicle_type_id":"4","last_reported":1722614980,"current_range_meters":0,"station_id":"ce4bh9p2rcd13ifvqed0","pricing_plan_id":"cebpf4jnsgd1na2vs0mg"},{"bike_id":"3f5e2dd0-86a4-4e2d-a2f1-053b389d8648","system_id":"levelo_inurba_marseille","lat":43.330442,"lon":5.389148,"is_reserved":false,"is_disabled":false,"rental_uris":{"android":"levelo://app?vid=3f5e2dd0-86a4-4e2d-a2f1-053b389d8648","ios":"levelo://app?vid=3f5e2dd0-86a4-4e2d-a2f1-053b389d8648"},"vehicle_type_id":"4","last_reported":1722614980,"current_range_meters":31200,"station_id":"ce4bhr92rcd13ifvqhrg","pricing_plan_id":"cebpf4jnsgd1na2vs0mg"},{"bike_id":"422a9871-19a9-4900-b8f2-2ada661c7bac","system_id":"levelo_inurba_marseille","lat":43.33023,"lon":5.39042,"is_reserved":false,"is_disabled":false,"rental_uris":{"android":"levelo://app?vid=422a9871-19a9-4900-b8f2-2ada661c7bac","ios":"levelo://app?vid=422a9871-19a9-4900-b8f2-2ada661c7bac"},"vehicle_type_id":"4","last_reported":1722614980,"current_range_meters":30400,"station_id":"ce4bhr92rcd13ifvqhrg","pricing_plan_id":"cebpf4jnsgd1na2vs0mg"},{"bike_id":"8c41966c-0991-4fae-b58f-fe39b91685f2","system_id":"levelo_inurba_marseille","lat":43.330442,"lon":5.389148,"is_reserved":false,"is_disabled":false,"rental_uris":{"android":"levelo://app?vid=8c41966c-0991-4fae-b58f-fe39b91685f2","ios":"levelo://app?vid=8c41966c-0991-4fae-b58f-fe39b91685f2"},"vehicle_type_id":"4","last_reported":1722614980,"current_range_meters":26800,"station_id":"ce4bhr92rcd13ifvqhrg","pricing_plan_id":"cebpf4jnsgd1na2vs0mg"},{"bike_id":"bfeaf000-6386-48aa-9cf7-f6dffaede3f9","system_id":"levelo_inurba_marseille","lat":43.29518,"lon":5.39036,"is_reserved":false,"is_disabled":false,"rental_uris":{"android":"levelo://app?vid=bfeaf000-6386-48aa-9cf7-f6dffaede3f9","ios":"levelo://app?vid=bfeaf000-6386-48aa-9cf7-f6dffaede3f9"},"vehicle_type_id":"4","last_reported":1722614980,"current_range_meters":0,"station_id":"ce4bh3p2rcd13ifvqdp0","pricing_plan_id":"cebpf4jnsgd1na2vs0mg"},{"bike_id":"85b1232c-98b9-45bd-9e41-3fde6cfa2fb1","system_id":"levelo_inurba_marseille","lat":43.330442,"lon":5.389148,"is_reserved":false,"is_disabled":false,"rental_uris":{"android":"levelo://app?vid=85b1232c-98b9-45bd-9e41-3fde6cfa2fb1","ios":"levelo://app?vid=85b1232c-98b9-45bd-9e41-3fde6cfa2fb1"},"vehicle_type_id":"4","last_reported":1722614980,"current_range_meters":20400,"station_id":"ce4bhr92rcd13ifvqhrg","pricing_plan_id":"cebpf4jnsgd1na2vs0mg"},{"bike_id":"e615850d-93fa-4d49-816f-bdda70d948d2","system_id":"levelo_inurba_marseille","lat":43.295169,"lon":5.390426,"is_reserved":false,"is_disabled":false,"rental_uris":{"android":"levelo://app?vid=e615850d-93fa-4d49-816f-bdda70d948d2","ios":"levelo://app?vid=e615850d-93fa-4d49-816f-bdda70d948d2"},"vehicle_type_id":"4","last_reported":1722614980,"current_range_meters":14400,"station_id":"ce4bh3p2rcd13ifvqdp0","pricing_plan_id":"cebpf4jnsgd1na2vs0mg"},{"bike_id":"e1568c20-ecd2-4c8a-a313-981ffc2afb66","system_id":"levelo_inurba_marseille","lat":43.295167,"lon":5.390379,"is_reserved":false,"is_disabled":false,"rental_uris":{"android":"levelo://app?vid=e1568c20-ecd2-4c8a-a313-981ffc2afb66","ios":"levelo://app?vid=e1568c20-ecd2-4c8a-a313-981ffc2afb66"},"vehicle_type_id":"4","last_reported":1722614980,"current_range_meters":14400,"station_id":"","pricing_plan_id":"cebpf4jnsgd1na2vs0mg"},{"bike_id":"f4cdf6f8-59cc-4926-bbd3-bf830cd7e7b6","system_id":"levelo_inurba_marseille","lat":43.2901,"lon":5.381269,"is_reserved":false,"is_disabled":false,"rental_uris":{"android":"levelo://app?vid=f4cdf6f8-59cc-4926-bbd3-bf830cd7e7b6","ios":"levelo://app?vid=f4cdf6f8-59cc-4926-bbd3-bf830cd7e7b6"},"vehicle_type_id":"4","last_reported":1722614980,"current_range_meters":29200,"station_id":"ce4bh4p2rcd13ifvqe1g","pricing_plan_id":"cebpf4jnsgd1na2vs0mg"},{"bike_id":"e7ea7af6-a63c-4c88-a0c0-e0cc7fc872c9","system_id":"levelo_inurba_marseille","lat":43.28856,"lon":5.358371,"is_reserved":false,"is_disabled":false,"rental_uris":{"android":"levelo://app?vid=e7ea7af6-a63c-4c88-a0c0-e0cc7fc872c9","ios":"levelo://app?vid=e7ea7af6-a63c-4c88-a0c0-e0cc7fc872c9"},"vehicle_type_id":"4","last_reported":1722614980,"current_range_meters":0,"station_id":"ce4bhb12rcd13ifvqem0","pricing_plan_id":"cebpf4jnsgd1na2vs0mg"},{"bike_id":"47318e7f-b3fa-4648-acf3-ba188bf8de26","system_id":"levelo_inurba_marseille","lat":43.28844,"lon":5.35842,"is_reserved":false,"is_disabled":false,"rental_uris":{"android":"levelo://app?vid=47318e7f-b3fa-4648-acf3-ba188bf8de26","ios":"levelo://app?vid=47318e7f-b3fa-4648-acf3-ba188bf8de26"},"vehicle_type_id":"4","last_reported":1722614980,"current_range_meters":0,"station_id":"ce4bhb12rcd13ifvqem0","pricing_plan_id":"cebpf4jnsgd1na2vs0mg"},{"bike_id":"6f044633-3688-4e83-af67-cf3db97c1cc7","system_id":"levelo_inurba_marseille","lat":43.337444,"lon":5.374475,"is_reserved":false,"is_disabled":false,"rental_uris":{"android":"levelo://app?vid=6f044633-3688-4e83-af67-cf3db97c1cc7","ios":"levelo://app?vid=6f044633-3688-4e83-af67-cf3db97c1cc7"},"vehicle_type_id":"3","last_reported":1722614980,"current_range_meters":24800,"station_id":"","pricing_plan_id":"cebpf4jnsgd1na2vs0mg"},{"bike_id":"0b40bb38-9e4a-4670-8fd1-d60643bab7fb","system_id":"levelo_inurba_marseille","lat":43.309371,"lon":5.401449,"is_reserved":false,"is_disabled":false,"rental_uris":{"android":"levelo://app?vid=0b40bb38-9e4a-4670-8fd1-d60643bab7fb","ios":"levelo://app?vid=0b40bb38-9e4a-4670-8fd1-d60643bab7fb"},"vehicle_type_id":"4","last_reported":1722614980,"current_range_meters":10400,"station_id":"ce4bgvp2rcd13ifvqct0","pricing_plan_id":"cebpf4jnsgd1na2vs0mg"},{"bike_id":"b57245c6-ee08-43e0-96cf-9f8680f4ee1b","system_id":"levelo_inurba_marseille","lat":43.309371,"lon":5.401449,"is_reserved":false,"is_disabled":false,"rental_uris":{"android":"levelo://app?vid=b57245c6-ee08-43e0-96cf-9f8680f4ee1b","ios":"levelo://app?vid=b57245c6-ee08-43e0-96cf-9f8680f4ee1b"},"vehicle_type_id":"4","last_reported":1722614980,"current_range_meters":12000,"station_id":"ce4bgvp2rcd13ifvqct0","pricing_plan_id":"cebpf4jnsgd1na2vs0mg"},{"bike_id":"c3814136-69f7-4d35-84c6-7ffb4a8d4fc9","system_id":"levelo_inurba_marseille","lat":43.276179,"lon":5.361009,"is_reserved":false,"is_disabled":false,"rental_uris":{"android":"levelo://app?vid=c3814136-69f7-4d35-84c6-7ffb4a8d4fc9","ios":"levelo://app?vid=c3814136-69f7-4d35-84c6-7ffb4a8d4fc9"},"vehicle_type_id":"4","last_reported":1722614980,"current_range_meters":24800,"station_id":"ce4bgj92rcd13ifvqbe0","pricing_plan_id":"cebpf4jnsgd1na2vs0mg"},{"bike_id":"ab77166c-b538-415e-95ad-6b6cbb204d4e","system_id":"levelo_inurba_marseille","lat":43.309371,"lon":5.401449,"is_reserved":false,"is_disabled":false,"rental_uris":{"android":"levelo://app?vid=ab77166c-b538-415e-95ad-6b6cbb204d4e","ios":"levelo://app?vid=ab77166c-b538-415e-95ad-6b6cbb204d4e"},"vehicle_type_id":"4","last_reported":1722614980,"current_range_meters":8000,"station_id":"ce4bgvp2rcd13ifvqct0","pricing_plan_id":"cebpf4jnsgd1na2vs0mg"},{"bike_id":"fbd291f8-1b4c-430f-bc39-8fe3c7818bcb","system_id":"levelo_inurba_marseille","lat":43.301117,"lon":5.398795,"is_reserved":false,"is_disabled":false,"rental_uris":{"android":"levelo://app?vid=fbd291f8-1b4c-430f-bc39-8fe3c7818bcb","ios":"levelo://app?vid=fbd291f8-1b4c-430f-bc39-8fe3c7818bcb"},"vehicle_type_id":"4","last_reported":1722614980,"current_range_meters":1200,"station_id":"ce4bh0h2rcd13ifvqd40","pricing_plan_id":"cebpf4jnsgd1na2vs0mg"},{"bike_id":"67d042ec-ce01-484f-bbe0-01773a4e3f14","system_id":"levelo_inurba_marseille","lat":43.301117,"lon":5.398795,"is_reserved":false,"is_disabled":false,"rental_uris":{"android":"levelo://app?vid=67d042ec-ce01-484f-bbe0-01773a4e3f14","ios":"levelo://app?vid=67d042ec-ce01-484f-bbe0-01773a4e3f14"},"vehicle_type_id":"4","last_reported":1722614980,"current_range_meters":1600,"station_id":"ce4bh0h2rcd13ifvqd40","pricing_plan_id":"cebpf4jnsgd1na2vs0mg"},{"bike_id":"a8293f21-4363-4745-bafb-3923ce576b6a","system_id":"levelo_inurba_marseille","lat":43.298681,"lon":5.397225,"is_reserved":false,"is_disabled":false,"rental_uris":{"android":"levelo://app?vid=a8293f21-4363-4745-bafb-3923ce576b6a","ios":"levelo://app?vid=a8293f21-4363-4745-bafb-3923ce576b6a"},"vehicle_type_id":"4","last_reported":1722614980,"current_range_meters":16400,"station_id":"ce4bh0h2rcd13ifvqd50","pricing_plan_id":"cebpf4jnsgd1na2vs0mg"},{"bike_id":"234759f0-df66-4af2-a1f7-f704cff5aadf","system_id":"levelo_inurba_marseille","lat":43.286591,"lon":5.363346,"is_reserved":false,"is_disabled":false,"rental_uris":{"android":"levelo://app?vid=234759f0-df66-4af2-a1f7-f704cff5aadf","ios":"levelo://app?vid=234759f0-df66-4af2-a1f7-f704cff5aadf"},"vehicle_type_id":"4","last_reported":1722614980,"current_range_meters":800,"station_id":"ce4bhah2rcd13ifvqej0","pricing_plan_id":"cebpf4jnsgd1na2vs0mg"},{"bike_id":"1a91a567-c0ab-4516-b639-88192e360457","system_id":"levelo_inurba_marseille","lat":43.28933,"lon":5.3839,"is_reserved":false,"is_disabled":false,"rental_uris":{"android":"levelo://app?vid=1a91a567-c0ab-4516-b639-88192e360457","ios":"levelo://app?vid=1a91a567-c0ab-4516-b639-88192e360457"},"vehicle_type_id":"4","last_reported":1722614980,"current_range_meters":31200,"station_id":"ce4bh612rcd13ifvqe6g","pricing_plan_id":"cebpf4jnsgd1na2vs0mg"},{"bike_id":"e7ecc4b7-8991-4284-9413-46c92c6c2518","system_id":"levelo_inurba_marseille","lat":43.30241,"lon":5.40055,"is_reserved":false,"is_disabled":false,"rental_uris":{"android":"levelo://app?vid=e7ecc4b7-8991-4284-9413-46c92c6c2518","ios":"levelo://app?vid=e7ecc4b7-8991-4284-9413-46c92c6c2518"},"vehicle_type_id":"4","last_reported":1722614980,"current_range_meters":0,"station_id":"ce4bgvh2rcd13ifvqcs0","pricing_plan_id":"cebpf4jnsgd1na2vs0mg"},{"bike_id":"362d7a89-d97c-4d2a-a276-91bf489a872f","system_id":"levelo_inurba_marseille","lat":43.302759,"lon":5.400793,"is_reserved":false,"is_disabled":false,"rental_uris":{"android":"levelo://app?vid=362d7a89-d97c-4d2a-a276-91bf489a872f","ios":"levelo://app?vid=362d7a89-d97c-4d2a-a276-91bf489a872f"},"vehicle_type_id":"4","last_reported":1722614980,"current_range_meters":21600,"station_id":"ce4bgvh2rcd13ifvqcs0","pricing_plan_id":"cebpf4jnsgd1na2vs0mg"},{"bike_id":"42ca388e-36dc-4b56-9063-a81fc87cf4fe","system_id":"levelo_inurba_marseille","lat":43.290336,"lon":5.386425,"is_reserved":false,"is_disabled":false,"rental_uris":{"android":"levelo://app?vid=42ca388e-36dc-4b56-9063-a81fc87cf4fe","ios":"levelo://app?vid=42ca388e-36dc-4b56-9063-a81fc87cf4fe"},"vehicle_type_id":"4","last_reported":1722614980,"current_range_meters":7600,"station_id":"ce4bh4p2rcd13ifvqe0g","pricing_plan_id":"cebpf4jnsgd1na2vs0mg"},{"bike_id":"51bbe62d-c860-431e-b23d-7d6f5a8ab4c3","system_id":"levelo_inurba_marseille","lat":43.286039,"lon":5.370681,"is_reserved":false,"is_disabled":false,"rental_uris":{"android":"levelo://app?vid=51bbe62d-c860-431e-b23d-7d6f5a8ab4c3","ios":"levelo://app?vid=51bbe62d-c860-431e-b23d-7d6f5a8ab4c3"},"vehicle_type_id":"4","last_reported":1722614980,"current_range_meters":4000,"station_id":"ce4bht12rcd13ifvqi60","pricing_plan_id":"cebpf4jnsgd1na2vs0mg"},{"bike_id":"e5d7d6b9-b602-4393-9e95-aa597111b577","system_id":"levelo_inurba_marseille","lat":43.287184,"lon":5.37937,"is_reserved":false,"is_disabled":false,"rental_uris":{"android":"levelo://app?vid=e5d7d6b9-b602-4393-9e95-aa597111b577","ios":"levelo://app?vid=e5d7d6b9-b602-4393-9e95-aa597111b577"},"vehicle_type_id":"4","last_reported":1722614980,"current_range_meters":0,"station_id":"ce4bh9p2rcd13ifvqec0","pricing_plan_id":"cebpf4jnsgd1na2vs0mg"},{"bike_id":"40efe73c-4b20-4620-aeed-7f3c5b0a5165","system_id":"levelo_inurba_marseille","lat":43.287184,"lon":5.37937,"is_reserved":false,"is_disabled":false,"rental_uris":{"android":"levelo://app?vid=40efe73c-4b20-4620-aeed-7f3c5b0a5165","ios":"levelo://app?vid=40efe73c-4b20-4620-aeed-7f3c5b0a5165"},"vehicle_type_id":"4","last_reported":1722614980,"current_range_meters":400,"station_id":"ce4bh9p2rcd13ifvqec0","pricing_plan_id":"cebpf4jnsgd1na2vs0mg"},{"bike_id":"3fc3b23e-59a0-4342-b08b-8984a5bf665f","system_id":"levelo_inurba_marseille","lat":43.287184,"lon":5.37937,"is_reserved":false,"is_disabled":false,"rental_uris":{"android":"levelo://app?vid=3fc3b23e-59a0-4342-b08b-8984a5bf665f","ios":"levelo://app?vid=3fc3b23e-59a0-4342-b08b-8984a5bf665f"},"vehicle_type_id":"4","last_reported":1722614980,"current_range_meters":0,"station_id":"ce4bh9p2rcd13ifvqec0","pricing_plan_id":"cebpf4jnsgd1na2vs0mg"},{"bike_id":"aa529248-80a7-4e23-af8d-b36b9a3eff91","system_id":"levelo_inurba_marseille","lat":43.316828,"lon":5.404723,"is_reserved":false,"is_disabled":false,"rental_uris":{"android":"levelo://app?vid=aa529248-80a7-4e23-af8d-b36b9a3eff91","ios":"levelo://app?vid=aa529248-80a7-4e23-af8d-b36b9a3eff91"},"vehicle_type_id":"4","last_reported":1722614980,"current_range_meters":26400,"station_id":"ce4bh012rcd13ifvqd00","pricing_plan_id":"cebpf4jnsgd1na2vs0mg"},{"bike_id":"b9aae05b-8490-41b3-8727-0eda1266ba53","system_id":"levelo_inurba_marseille","lat":43.316828,"lon":5.404723,"is_reserved":false,"is_disabled":false,"rental_uris":{"android":"levelo://app?vid=b9aae05b-8490-41b3-8727-0eda1266ba53","ios":"levelo://app?vid=b9aae05b-8490-41b3-8727-0eda1266ba53"},"vehicle_type_id":"4","last_reported":1722614980,"current_range_meters":17600,"station_id":"ce4bh012rcd13ifvqd00","pricing_plan_id":"cebpf4jnsgd1na2vs0mg"},{"bike_id":"3cafe2fb-3b7f-4281-ab47-ec74541f5f8f","system_id":"levelo_inurba_marseille","lat":43.286039,"lon":5.370681,"is_reserved":false,"is_disabled":false,"rental_uris":{"android":"levelo://app?vid=3cafe2fb-3b7f-4281-ab47-ec74541f5f8f","ios":"levelo://app?vid=3cafe2fb-3b7f-4281-ab47-ec74541f5f8f"},"vehicle_type_id":"4","last_reported":1722614980,"current_range_meters":8400,"station_id":"ce4bht12rcd13ifvqi60","pricing_plan_id":"cebpf4jnsgd1na2vs0mg"},{"bike_id":"ea0ce911-aae7-4d4a-ba07-2270cca62db2","system_id":"levelo_inurba_marseille","lat":43.29529,"lon":5.385581,"is_reserved":false,"is_disabled":false,"rental_uris":{"android":"levelo://app?vid=ea0ce911-aae7-4d4a-ba07-2270cca62db2","ios":"levelo://app?vid=ea0ce911-aae7-4d4a-ba07-2270cca62db2"},"vehicle_type_id":"4","last_reported":1722614980,"current_range_meters":11600,"station_id":"ce4bgih2rcd13ifvqba0","pricing_plan_id":"cebpf4jnsgd1na2vs0mg"},{"bike_id":"fec927d5-654c-48f2-8657-155ba5372638","system_id":"levelo_inurba_marseille","lat":43.284538,"lon":5.358657,"is_reserved":false,"is_disabled":false,"rental_uris":{"android":"levelo://app?vid=fec927d5-654c-48f2-8657-155ba5372638","ios":"levelo://app?vid=fec927d5-654c-48f2-8657-155ba5372638"},"vehicle_type_id":"4","last_reported":1722614980,"current_range_meters":26400,"station_id":"ce4bhah2rcd13ifvqei0","pricing_plan_id":"cebpf4jnsgd1na2vs0mg"},{"bike_id":"97dc3c7b-5b91-47b2-9efb-fd480dd04c3c","system_id":"levelo_inurba_marseille","lat":43.286335,"lon":5.35123,"is_reserved":false,"is_disabled":false,"rental_uris":{"android":"levelo://app?vid=97dc3c7b-5b91-47b2-9efb-fd480dd04c3c","ios":"levelo://app?vid=97dc3c7b-5b91-47b2-9efb-fd480dd04c3c"},"vehicle_type_id":"4","last_reported":1722614980,"current_range_meters":20400,"station_id":"ce4bhch2rcd13ifvqeug","pricing_plan_id":"cebpf4jnsgd1na2vs0mg"},{"bike_id":"7cb35934-a4f4-4e6e-9a60-8a24bcab40d3","system_id":"levelo_inurba_marseille","lat":43.284534,"lon":5.358662,"is_reserved":false,"is_disabled":false,"rental_uris":{"android":"levelo://app?vid=7cb35934-a4f4-4e6e-9a60-8a24bcab40d3","ios":"levelo://app?vid=7cb35934-a4f4-4e6e-9a60-8a24bcab40d3"},"vehicle_type_id":"4","last_reported":1722614980,"current_range_meters":23600,"station_id":"ce4bhah2rcd13ifvqei0","pricing_plan_id":"cebpf4jnsgd1na2vs0mg"},{"bike_id":"57c9291a-ddae-4cfa-a0b6-38f7fbccf4bb","system_id":"levelo_inurba_marseille","lat":43.284538,"lon":5.358657,"is_reserved":false,"is_disabled":false,"rental_uris":{"android":"levelo://app?vid=57c9291a-ddae-4cfa-a0b6-38f7fbccf4bb","ios":"levelo://app?vid=57c9291a-ddae-4cfa-a0b6-38f7fbccf4bb"},"vehicle_type_id":"4","last_reported":1722614980,"current_range_meters":6000,"station_id":"ce4bhah2rcd13ifvqei0","pricing_plan_id":"cebpf4jnsgd1na2vs0mg"},{"bike_id":"44d108fb-18cf-4e15-94a1-12446b5771de","system_id":"levelo_inurba_marseille","lat":43.294314,"lon":5.397498,"is_reserved":false,"is_disabled":false,"rental_uris":{"android":"levelo://app?vid=44d108fb-18cf-4e15-94a1-12446b5771de","ios":"levelo://app?vid=44d108fb-18cf-4e15-94a1-12446b5771de"},"vehicle_type_id":"4","last_reported":1722614980,"current_range_meters":0,"station_id":"ce4bh3h2rcd13ifvqdo0","pricing_plan_id":"cebpf4jnsgd1na2vs0mg"},{"bike_id":"02cc49a5-cb7d-4f54-9375-1ed8ab8dda90","system_id":"levelo_inurba_marseille","lat":43.28623,"lon":5.35107,"is_reserved":false,"is_disabled":false,"rental_uris":{"android":"levelo://app?vid=02cc49a5-cb7d-4f54-9375-1ed8ab8dda90","ios":"levelo://app?vid=02cc49a5-cb7d-4f54-9375-1ed8ab8dda90"},"vehicle_type_id":"4","last_reported":1722614980,"current_range_meters":31600,"station_id":"ce4bhch2rcd13ifvqeug","pricing_plan_id":"cebpf4jnsgd1na2vs0mg"},{"bike_id":"9f57abe5-f5ab-4d9c-bc5f-992d45332aad","system_id":"levelo_inurba_marseille","lat":43.28623,"lon":5.35106,"is_reserved":false,"is_disabled":false,"rental_uris":{"android":"levelo://app?vid=9f57abe5-f5ab-4d9c-bc5f-992d45332aad","ios":"levelo://app?vid=9f57abe5-f5ab-4d9c-bc5f-992d45332aad"},"vehicle_type_id":"4","last_reported":1722614980,"current_range_meters":31200,"station_id":"ce4bhch2rcd13ifvqeug","pricing_plan_id":"cebpf4jnsgd1na2vs0mg"},{"bike_id":"e870d55c-ecd8-4049-9f63-affbd0477280","system_id":"levelo_inurba_marseille","lat":43.286199,"lon":5.351075,"is_reserved":false,"is_disabled":false,"rental_uris":{"android":"levelo://app?vid=e870d55c-ecd8-4049-9f63-affbd0477280","ios":"levelo://app?vid=e870d55c-ecd8-4049-9f63-affbd0477280"},"vehicle_type_id":"4","last_reported":1722614980,"current_range_meters":11200,"station_id":"ce4bhch2rcd13ifvqeug","pricing_plan_id":"cebpf4jnsgd1na2vs0mg"},{"bike_id":"2614e426-ec6f-41b2-a062-0ce31290f4c3","system_id":"levelo_inurba_marseille","lat":43.2862,"lon":5.35104,"is_reserved":false,"is_disabled":false,"rental_uris":{"android":"levelo://app?vid=2614e426-ec6f-41b2-a062-0ce31290f4c3","ios":"levelo://app?vid=2614e426-ec6f-41b2-a062-0ce31290f4c3"},"vehicle_type_id":"4","last_reported":1722614980,"current_range_meters":30800,"station_id":"ce4bhch2rcd13ifvqeug","pricing_plan_id":"cebpf4jnsgd1na2vs0mg"},{"bike_id":"6d745eed-2baa-479b-a476-f28a9d960ea9","system_id":"levelo_inurba_marseille","lat":43.28621,"lon":5.351,"is_reserved":false,"is_disabled":false,"rental_uris":{"android":"levelo://app?vid=6d745eed-2baa-479b-a476-f28a9d960ea9","ios":"levelo://app?vid=6d745eed-2baa-479b-a476-f28a9d960ea9"},"vehicle_type_id":"4","last_reported":1722614980,"current_range_meters":12800,"station_id":"ce4bhch2rcd13ifvqeug","pricing_plan_id":"cebpf4jnsgd1na2vs0mg"},{"bike_id":"f303a150-ce4b-44a4-98be-da4ddd252620","system_id":"levelo_inurba_marseille","lat":43.28616,"lon":5.35114,"is_reserved":false,"is_disabled":false,"rental_uris":{"android":"levelo://app?vid=f303a150-ce4b-44a4-98be-da4ddd252620","ios":"levelo://app?vid=f303a150-ce4b-44a4-98be-da4ddd252620"},"vehicle_type_id":"4","last_reported":1722614980,"current_range_meters":31200,"station_id":"ce4bhch2rcd13ifvqeug","pricing_plan_id":"cebpf4jnsgd1na2vs0mg"},{"bike_id":"b0ec9d72-cfad-4c0c-98b9-0057b932cf8c","system_id":"levelo_inurba_marseille","lat":43.28618,"lon":5.35107,"is_reserved":false,"is_disabled":false,"rental_uris":{"android":"levelo://app?vid=b0ec9d72-cfad-4c0c-98b9-0057b932cf8c","ios":"levelo://app?vid=b0ec9d72-cfad-4c0c-98b9-0057b932cf8c"},"vehicle_type_id":"4","last_reported":1722614980,"current_range_meters":10400,"station_id":"ce4bhch2rcd13ifvqeug","pricing_plan_id":"cebpf4jnsgd1na2vs0mg"},{"bike_id":"83eadd88-ebfd-4e34-9458-f7d63dbc06ac","system_id":"levelo_inurba_marseille","lat":43.286176,"lon":5.351082,"is_reserved":false,"is_disabled":false,"rental_uris":{"android":"levelo://app?vid=83eadd88-ebfd-4e34-9458-f7d63dbc06ac","ios":"levelo://app?vid=83eadd88-ebfd-4e34-9458-f7d63dbc06ac"},"vehicle_type_id":"4","last_reported":1722614980,"current_range_meters":17600,"station_id":"ce4bhch2rcd13ifvqeug","pricing_plan_id":"cebpf4jnsgd1na2vs0mg"},{"bike_id":"63246eee-7943-4b9a-9b72-9461979c3910","system_id":"levelo_inurba_marseille","lat":43.28617,"lon":5.35107,"is_reserved":false,"is_disabled":false,"rental_uris":{"android":"levelo://app?vid=63246eee-7943-4b9a-9b72-9461979c3910","ios":"levelo://app?vid=63246eee-7943-4b9a-9b72-9461979c3910"},"vehicle_type_id":"4","last_reported":1722614980,"current_range_meters":22000,"station_id":"ce4bhch2rcd13ifvqeug","pricing_plan_id":"cebpf4jnsgd1na2vs0mg"},{"bike_id":"569e78a1-4621-469b-a453-6e7111e9ef05","system_id":"levelo_inurba_marseille","lat":43.28619,"lon":5.351,"is_reserved":false,"is_disabled":false,"rental_uris":{"android":"levelo://app?vid=569e78a1-4621-469b-a453-6e7111e9ef05","ios":"levelo://app?vid=569e78a1-4621-469b-a453-6e7111e9ef05"},"vehicle_type_id":"4","last_reported":1722614980,"current_range_meters":26400,"station_id":"ce4bhch2rcd13ifvqeug","pricing_plan_id":"cebpf4jnsgd1na2vs0mg"},{"bike_id":"6a30aacd-4c1c-4ee1-8539-28a5e4ca4253","system_id":"levelo_inurba_marseille","lat":43.28618,"lon":5.35103,"is_reserved":false,"is_disabled":false,"rental_uris":{"android":"levelo://app?vid=6a30aacd-4c1c-4ee1-8539-28a5e4ca4253","ios":"levelo://app?vid=6a30aacd-4c1c-4ee1-8539-28a5e4ca4253"},"vehicle_type_id":"4","last_reported":1722614980,"current_range_meters":30800,"station_id":"ce4bhch2rcd13ifvqeug","pricing_plan_id":"cebpf4jnsgd1na2vs0mg"},{"bike_id":"0bb8c064-bd81-44ad-8f52-d6008f3c80b6","system_id":"levelo_inurba_marseille","lat":43.28617,"lon":5.35106,"is_reserved":false,"is_disabled":false,"rental_uris":{"android":"levelo://app?vid=0bb8c064-bd81-44ad-8f52-d6008f3c80b6","ios":"levelo://app?vid=0bb8c064-bd81-44ad-8f52-d6008f3c80b6"},"vehicle_type_id":"4","last_reported":1722614980,"current_range_meters":25200,"station_id":"ce4bhch2rcd13ifvqeug","pricing_plan_id":"cebpf4jnsgd1na2vs0mg"},{"bike_id":"df7c6cc4-62b3-4b4a-9ed8-89157429b49e","system_id":"levelo_inurba_marseille","lat":43.285848,"lon":5.350787,"is_reserved":false,"is_disabled":false,"rental_uris":{"android":"levelo://app?vid=df7c6cc4-62b3-4b4a-9ed8-89157429b49e","ios":"levelo://app?vid=df7c6cc4-62b3-4b4a-9ed8-89157429b49e"},"vehicle_type_id":"4","last_reported":1722614980,"current_range_meters":21200,"station_id":"ce4bhch2rcd13ifvqeug","pricing_plan_id":"cebpf4jnsgd1na2vs0mg"},{"bike_id":"134f8e25-aef8-40a3-bace-aeebe21fd3a7","system_id":"levelo_inurba_marseille","lat":43.28615,"lon":5.35111,"is_reserved":false,"is_disabled":false,"rental_uris":{"android":"levelo://app?vid=134f8e25-aef8-40a3-bace-aeebe21fd3a7","ios":"levelo://app?vid=134f8e25-aef8-40a3-bace-aeebe21fd3a7"},"vehicle_type_id":"4","last_reported":1722614980,"current_range_meters":11600,"station_id":"ce4bhch2rcd13ifvqeug","pricing_plan_id":"cebpf4jnsgd1na2vs0mg"},{"bike_id":"061e6b81-d130-4edb-9721-c596529b56d8","system_id":"levelo_inurba_marseille","lat":43.28619,"lon":5.35098,"is_reserved":false,"is_disabled":false,"rental_uris":{"android":"levelo://app?vid=061e6b81-d130-4edb-9721-c596529b56d8","ios":"levelo://app?vid=061e6b81-d130-4edb-9721-c596529b56d8"},"vehicle_type_id":"4","last_reported":1722614980,"current_range_meters":25200,"station_id":"ce4bhch2rcd13ifvqeug","pricing_plan_id":"cebpf4jnsgd1na2vs0mg"},{"bike_id":"9608249b-405b-41f0-a445-becf5d844335","system_id":"levelo_inurba_marseille","lat":43.28616,"lon":5.35107,"is_reserved":false,"is_disabled":false,"rental_uris":{"android":"levelo://app?vid=9608249b-405b-41f0-a445-becf5d844335","ios":"levelo://app?vid=9608249b-405b-41f0-a445-becf5d844335"},"vehicle_type_id":"4","last_reported":1722614980,"current_range_meters":28400,"station_id":"ce4bhch2rcd13ifvqeug","pricing_plan_id":"cebpf4jnsgd1na2vs0mg"},{"bike_id":"bc4d621d-e1d2-4f87-9186-5d248a56adf5","system_id":"levelo_inurba_marseille","lat":43.28617,"lon":5.35102,"is_reserved":false,"is_disabled":false,"rental_uris":{"android":"levelo://app?vid=bc4d621d-e1d2-4f87-9186-5d248a56adf5","ios":"levelo://app?vid=bc4d621d-e1d2-4f87-9186-5d248a56adf5"},"vehicle_type_id":"4","last_reported":1722614980,"current_range_meters":17600,"station_id":"ce4bhch2rcd13ifvqeug","pricing_plan_id":"cebpf4jnsgd1na2vs0mg"},{"bike_id":"58117a7b-dc4a-4715-9b20-8e98b26ab554","system_id":"levelo_inurba_marseille","lat":43.28616,"lon":5.35105,"is_reserved":false,"is_disabled":false,"rental_uris":{"android":"levelo://app?vid=58117a7b-dc4a-4715-9b20-8e98b26ab554","ios":"levelo://app?vid=58117a7b-dc4a-4715-9b20-8e98b26ab554"},"vehicle_type_id":"4","last_reported":1722614980,"current_range_meters":28800,"station_id":"ce4bhch2rcd13ifvqeug","pricing_plan_id":"cebpf4jnsgd1na2vs0mg"},{"bike_id":"a741af4e-6152-4ddb-9e7c-d80c21213fdc","system_id":"levelo_inurba_marseille","lat":43.28616,"lon":5.35105,"is_reserved":false,"is_disabled":false,"rental_uris":{"android":"levelo://app?vid=a741af4e-6152-4ddb-9e7c-d80c21213fdc","ios":"levelo://app?vid=a741af4e-6152-4ddb-9e7c-d80c21213fdc"},"vehicle_type_id":"4","last_reported":1722614980,"current_range_meters":31200,"station_id":"ce4bhch2rcd13ifvqeug","pricing_plan_id":"cebpf4jnsgd1na2vs0mg"},{"bike_id":"2724056d-2ca5-4383-8b41-3a7a176a0c81","system_id":"levelo_inurba_marseille","lat":43.28617,"lon":5.35101,"is_reserved":false,"is_disabled":false,"rental_uris":{"android":"levelo://app?vid=2724056d-2ca5-4383-8b41-3a7a176a0c81","ios":"levelo://app?vid=2724056d-2ca5-4383-8b41-3a7a176a0c81"},"vehicle_type_id":"4","last_reported":1722614980,"current_range_meters":9600,"station_id":"ce4bhch2rcd13ifvqeug","pricing_plan_id":"cebpf4jnsgd1na2vs0mg"},{"bike_id":"ec377ab7-e38a-4b7b-9f33-ca9017b6da63","system_id":"levelo_inurba_marseille","lat":43.28617,"lon":5.351,"is_reserved":false,"is_disabled":false,"rental_uris":{"android":"levelo://app?vid=ec377ab7-e38a-4b7b-9f33-ca9017b6da63","ios":"levelo://app?vid=ec377ab7-e38a-4b7b-9f33-ca9017b6da63"},"vehicle_type_id":"4","last_reported":1722614980,"current_range_meters":29600,"station_id":"","pricing_plan_id":"cebpf4jnsgd1na2vs0mg"},{"bike_id":"8261e7f8-e3cb-4cce-9fa2-116075e0809e","system_id":"levelo_inurba_marseille","lat":43.28615,"lon":5.35106,"is_reserved":false,"is_disabled":false,"rental_uris":{"android":"levelo://app?vid=8261e7f8-e3cb-4cce-9fa2-116075e0809e","ios":"levelo://app?vid=8261e7f8-e3cb-4cce-9fa2-116075e0809e"},"vehicle_type_id":"4","last_reported":1722614980,"current_range_meters":25200,"station_id":"ce4bhch2rcd13ifvqeug","pricing_plan_id":"cebpf4jnsgd1na2vs0mg"},{"bike_id":"ad727891-4c4a-400b-bbfa-296280cb127b","system_id":"levelo_inurba_marseille","lat":43.28614,"lon":5.35109,"is_reserved":false,"is_disabled":false,"rental_uris":{"android":"levelo://app?vid=ad727891-4c4a-400b-bbfa-296280cb127b","ios":"levelo://app?vid=ad727891-4c4a-400b-bbfa-296280cb127b"},"vehicle_type_id":"4","last_reported":1722614980,"current_range_meters":22000,"station_id":"ce4bhch2rcd13ifvqeug","pricing_plan_id":"cebpf4jnsgd1na2vs0mg"},{"bike_id":"d7cc2592-846a-4118-871f-c9c4fed70f6c","system_id":"levelo_inurba_marseille","lat":43.28614,"lon":5.35109,"is_reserved":false,"is_disabled":false,"rental_uris":{"android":"levelo://app?vid=d7cc2592-846a-4118-871f-c9c4fed70f6c","ios":"levelo://app?vid=d7cc2592-846a-4118-871f-c9c4fed70f6c"},"vehicle_type_id":"4","last_reported":1722614980,"current_range_meters":13600,"station_id":"ce4bhch2rcd13ifvqeug","pricing_plan_id":"cebpf4jnsgd1na2vs0mg"},{"bike_id":"80bb920e-13c3-4649-a959-0e104b9a2faa","system_id":"levelo_inurba_marseille","lat":43.28615,"lon":5.35105,"is_reserved":false,"is_disabled":false,"rental_uris":{"android":"levelo://app?vid=80bb920e-13c3-4649-a959-0e104b9a2faa","ios":"levelo://app?vid=80bb920e-13c3-4649-a959-0e104b9a2faa"},"vehicle_type_id":"4","last_reported":1722614980,"current_range_meters":29200,"station_id":"ce4bhch2rcd13ifvqeug","pricing_plan_id":"cebpf4jnsgd1na2vs0mg"},{"bike_id":"fe393d34-2963-43b8-a37d-3c4eeddb351f","system_id":"levelo_inurba_marseille","lat":43.28612,"lon":5.35114,"is_reserved":false,"is_disabled":false,"rental_uris":{"android":"levelo://app?vid=fe393d34-2963-43b8-a37d-3c4eeddb351f","ios":"levelo://app?vid=fe393d34-2963-43b8-a37d-3c4eeddb351f"},"vehicle_type_id":"4","last_reported":1722614980,"current_range_meters":14000,"station_id":"ce4bhch2rcd13ifvqeug","pricing_plan_id":"cebpf4jnsgd1na2vs0mg"},{"bike_id":"f1043c4a-be3a-4f53-b661-bd3ec6768e99","system_id":"levelo_inurba_marseille","lat":43.28618,"lon":5.35095,"is_reserved":false,"is_disabled":false,"rental_uris":{"android":"levelo://app?vid=f1043c4a-be3a-4f53-b661-bd3ec6768e99","ios":"levelo://app?vid=f1043c4a-be3a-4f53-b661-bd3ec6768e99"},"vehicle_type_id":"4","last_reported":1722614980,"current_range_meters":26000,"station_id":"ce4bhch2rcd13ifvqeug","pricing_plan_id":"cebpf4jnsgd1na2vs0mg"},{"bike_id":"f7cd2132-b422-47ed-b595-43dab94db5d6","system_id":"levelo_inurba_marseille","lat":43.28614,"lon":5.35107,"is_reserved":false,"is_disabled":false,"rental_uris":{"android":"levelo://app?vid=f7cd2132-b422-47ed-b595-43dab94db5d6","ios":"levelo://app?vid=f7cd2132-b422-47ed-b595-43dab94db5d6"},"vehicle_type_id":"4","last_reported":1722614980,"current_range_meters":31200,"station_id":"ce4bhch2rcd13ifvqeug","pricing_plan_id":"cebpf4jnsgd1na2vs0mg"},{"bike_id":"01e6e3a0-ca0c-4374-a5dd-d9ca9460dd75","system_id":"levelo_inurba_marseille","lat":43.28616,"lon":5.351,"is_reserved":false,"is_disabled":false,"rental_uris":{"android":"levelo://app?vid=01e6e3a0-ca0c-4374-a5dd-d9ca9460dd75","ios":"levelo://app?vid=01e6e3a0-ca0c-4374-a5dd-d9ca9460dd75"},"vehicle_type_id":"4","last_reported":1722614980,"current_range_meters":22000,"station_id":"ce4bhch2rcd13ifvqeug","pricing_plan_id":"cebpf4jnsgd1na2vs0mg"},{"bike_id":"cba4b914-c437-4505-9668-adf0f6704e30","system_id":"levelo_inurba_marseille","lat":43.28615,"lon":5.35103,"is_reserved":false,"is_disabled":false,"rental_uris":{"android":"levelo://app?vid=cba4b914-c437-4505-9668-adf0f6704e30","ios":"levelo://app?vid=cba4b914-c437-4505-9668-adf0f6704e30"},"vehicle_type_id":"4","last_reported":1722614980,"current_range_meters":27600,"station_id":"ce4bhch2rcd13ifvqeug","pricing_plan_id":"cebpf4jnsgd1na2vs0mg"},{"bike_id":"e55d471a-4b24-4da8-acd1-66d6f66f1e82","system_id":"levelo_inurba_marseille","lat":43.28615,"lon":5.35102,"is_reserved":false,"is_disabled":false,"rental_uris":{"android":"levelo://app?vid=e55d471a-4b24-4da8-acd1-66d6f66f1e82","ios":"levelo://app?vid=e55d471a-4b24-4da8-acd1-66d6f66f1e82"},"vehicle_type_id":"4","last_reported":1722614980,"current_range_meters":31200,"station_id":"ce4bhch2rcd13ifvqeug","pricing_plan_id":"cebpf4jnsgd1na2vs0mg"},{"bike_id":"d875d513-c13a-4bd0-a3ef-d16fb8cb64ff","system_id":"levelo_inurba_marseille","lat":43.28613,"lon":5.35107,"is_reserved":false,"is_disabled":false,"rental_uris":{"android":"levelo://app?vid=d875d513-c13a-4bd0-a3ef-d16fb8cb64ff","ios":"levelo://app?vid=d875d513-c13a-4bd0-a3ef-d16fb8cb64ff"},"vehicle_type_id":"4","last_reported":1722614980,"current_range_meters":21600,"station_id":"ce4bhch2rcd13ifvqeug","pricing_plan_id":"cebpf4jnsgd1na2vs0mg"},{"bike_id":"f3e0f9a0-19ef-4e4d-9ec7-bdc7c9466138","system_id":"levelo_inurba_marseille","lat":43.28614,"lon":5.35102,"is_reserved":false,"is_disabled":false,"rental_uris":{"android":"levelo://app?vid=f3e0f9a0-19ef-4e4d-9ec7-bdc7c9466138","ios":"levelo://app?vid=f3e0f9a0-19ef-4e4d-9ec7-bdc7c9466138"},"vehicle_type_id":"4","last_reported":1722614980,"current_range_meters":12400,"station_id":"ce4bhch2rcd13ifvqeug","pricing_plan_id":"cebpf4jnsgd1na2vs0mg"},{"bike_id":"9e488dfb-b05a-4ebc-83f9-bd8845efd2a6","system_id":"levelo_inurba_marseille","lat":43.28612,"lon":5.35107,"is_reserved":false,"is_disabled":false,"rental_uris":{"android":"levelo://app?vid=9e488dfb-b05a-4ebc-83f9-bd8845efd2a6","ios":"levelo://app?vid=9e488dfb-b05a-4ebc-83f9-bd8845efd2a6"},"vehicle_type_id":"4","last_reported":1722614980,"current_range_meters":26400,"station_id":"ce4bhch2rcd13ifvqeug","pricing_plan_id":"cebpf4jnsgd1na2vs0mg"},{"bike_id":"88207d7d-76f7-4f00-8f3c-3a3c965c6610","system_id":"levelo_inurba_marseille","lat":43.28614,"lon":5.35099,"is_reserved":false,"is_disabled":false,"rental_uris":{"android":"levelo://app?vid=88207d7d-76f7-4f00-8f3c-3a3c965c6610","ios":"levelo://app?vid=88207d7d-76f7-4f00-8f3c-3a3c965c6610"},"vehicle_type_id":"4","last_reported":1722614980,"current_range_meters":31200,"station_id":"ce4bhch2rcd13ifvqeug","pricing_plan_id":"cebpf4jnsgd1na2vs0mg"},{"bike_id":"b97e7c72-222b-4cd3-9b87-28e49a3e46a4","system_id":"levelo_inurba_marseille","lat":43.28612,"lon":5.35105,"is_reserved":false,"is_disabled":false,"rental_uris":{"android":"levelo://app?vid=b97e7c72-222b-4cd3-9b87-28e49a3e46a4","ios":"levelo://app?vid=b97e7c72-222b-4cd3-9b87-28e49a3e46a4"},"vehicle_type_id":"4","last_reported":1722614980,"current_range_meters":22800,"station_id":"ce4bhch2rcd13ifvqeug","pricing_plan_id":"cebpf4jnsgd1na2vs0mg"},{"bike_id":"1ce29322-6910-440a-a02d-189dcbde3f3f","system_id":"levelo_inurba_marseille","lat":43.28612,"lon":5.35105,"is_reserved":false,"is_disabled":false,"rental_uris":{"android":"levelo://app?vid=1ce29322-6910-440a-a02d-189dcbde3f3f","ios":"levelo://app?vid=1ce29322-6910-440a-a02d-189dcbde3f3f"},"vehicle_type_id":"4","last_reported":1722614980,"current_range_meters":27600,"station_id":"ce4bhch2rcd13ifvqeug","pricing_plan_id":"cebpf4jnsgd1na2vs0mg"},{"bike_id":"968789c7-74f5-4fb5-9107-c3f40d7cb96d","system_id":"levelo_inurba_marseille","lat":43.28611,"lon":5.35103,"is_reserved":false,"is_disabled":false,"rental_uris":{"android":"levelo://app?vid=968789c7-74f5-4fb5-9107-c3f40d7cb96d","ios":"levelo://app?vid=968789c7-74f5-4fb5-9107-c3f40d7cb96d"},"vehicle_type_id":"4","last_reported":1722614980,"current_range_meters":10800,"station_id":"ce4bhch2rcd13ifvqeug","pricing_plan_id":"cebpf4jnsgd1na2vs0mg"},{"bike_id":"88cdef15-fa11-4136-b3fe-bb1b9ba0839b","system_id":"levelo_inurba_marseille","lat":43.285856,"lon":5.350771,"is_reserved":false,"is_disabled":false,"rental_uris":{"android":"levelo://app?vid=88cdef15-fa11-4136-b3fe-bb1b9ba0839b","ios":"levelo://app?vid=88cdef15-fa11-4136-b3fe-bb1b9ba0839b"},"vehicle_type_id":"4","last_reported":1722614980,"current_range_meters":30400,"station_id":"ce4bhch2rcd13ifvqeug","pricing_plan_id":"cebpf4jnsgd1na2vs0mg"},{"bike_id":"2e57b293-587a-4170-944e-280ba88a6927","system_id":"levelo_inurba_marseille","lat":43.283998,"lon":5.375062,"is_reserved":false,"is_disabled":false,"rental_uris":{"android":"levelo://app?vid=2e57b293-587a-4170-944e-280ba88a6927","ios":"levelo://app?vid=2e57b293-587a-4170-944e-280ba88a6927"},"vehicle_type_id":"4","last_reported":1722614980,"current_range_meters":18400,"station_id":"ce4bh412rcd13ifvqds0","pricing_plan_id":"cebpf4jnsgd1na2vs0mg"},{"bike_id":"2517b0c3-55ba-4df1-be41-d3363b233f59","system_id":"levelo_inurba_marseille","lat":43.311942,"lon":5.407458,"is_reserved":false,"is_disabled":false,"rental_uris":{"android":"levelo://app?vid=2517b0c3-55ba-4df1-be41-d3363b233f59","ios":"levelo://app?vid=2517b0c3-55ba-4df1-be41-d3363b233f59"},"vehicle_type_id":"4","last_reported":1722614980,"current_range_meters":8400,"station_id":"","pricing_plan_id":"cebpf4jnsgd1na2vs0mg"},{"bike_id":"7b58ef2d-9629-49d2-9f90-abe5245cfc83","system_id":"levelo_inurba_marseille","lat":43.319179,"lon":5.407725,"is_reserved":false,"is_disabled":false,"rental_uris":{"android":"levelo://app?vid=7b58ef2d-9629-49d2-9f90-abe5245cfc83","ios":"levelo://app?vid=7b58ef2d-9629-49d2-9f90-abe5245cfc83"},"vehicle_type_id":"4","last_reported":1722614980,"current_range_meters":5600,"station_id":"ce4bhq12rcd13ifvqhig","pricing_plan_id":"cebpf4jnsgd1na2vs0mg"},{"bike_id":"b11d8db4-d11c-4eec-ba4f-4db0c343adf1","system_id":"levelo_inurba_marseille","lat":43.319179,"lon":5.407725,"is_reserved":false,"is_disabled":false,"rental_uris":{"android":"levelo://app?vid=b11d8db4-d11c-4eec-ba4f-4db0c343adf1","ios":"levelo://app?vid=b11d8db4-d11c-4eec-ba4f-4db0c343adf1"},"vehicle_type_id":"4","last_reported":1722614980,"current_range_meters":3600,"station_id":"ce4bhq12rcd13ifvqhig","pricing_plan_id":"cebpf4jnsgd1na2vs0mg"},{"bike_id":"a08a39e5-2305-49c2-ae90-c3f13d9fa312","system_id":"levelo_inurba_marseille","lat":43.319179,"lon":5.407725,"is_reserved":false,"is_disabled":false,"rental_uris":{"android":"levelo://app?vid=a08a39e5-2305-49c2-ae90-c3f13d9fa312","ios":"levelo://app?vid=a08a39e5-2305-49c2-ae90-c3f13d9fa312"},"vehicle_type_id":"4","last_reported":1722614980,"current_range_meters":400,"station_id":"ce4bhq12rcd13ifvqhig","pricing_plan_id":"cebpf4jnsgd1na2vs0mg"},{"bike_id":"595f7f37-3136-49cd-98bd-18e69653154c","system_id":"levelo_inurba_marseille","lat":43.31895,"lon":5.40732,"is_reserved":false,"is_disabled":false,"rental_uris":{"android":"levelo://app?vid=595f7f37-3136-49cd-98bd-18e69653154c","ios":"levelo://app?vid=595f7f37-3136-49cd-98bd-18e69653154c"},"vehicle_type_id":"4","last_reported":1722614980,"current_range_meters":30000,"station_id":"","pricing_plan_id":"cebpf4jnsgd1na2vs0mg"},{"bike_id":"48bf1e98-0ef4-478b-8457-530b1f851393","system_id":"levelo_inurba_marseille","lat":43.33285,"lon":5.398107,"is_reserved":false,"is_disabled":false,"rental_uris":{"android":"levelo://app?vid=48bf1e98-0ef4-478b-8457-530b1f851393","ios":"levelo://app?vid=48bf1e98-0ef4-478b-8457-530b1f851393"},"vehicle_type_id":"4","last_reported":1722614980,"current_range_meters":27600,"station_id":"","pricing_plan_id":"cebpf4jnsgd1na2vs0mg"},{"bike_id":"fcc95342-2a16-41f7-932f-3a14f9a57fb7","system_id":"levelo_inurba_marseille","lat":43.33717,"lon":5.391857,"is_reserved":false,"is_disabled":false,"rental_uris":{"android":"levelo://app?vid=fcc95342-2a16-41f7-932f-3a14f9a57fb7","ios":"levelo://app?vid=fcc95342-2a16-41f7-932f-3a14f9a57fb7"},"vehicle_type_id":"4","last_reported":1722614980,"current_range_meters":27600,"station_id":"ce4bhr92rcd13ifvqhsg","pricing_plan_id":"cebpf4jnsgd1na2vs0mg"},{"bike_id":"4e254b07-1ae3-4baf-947b-63bde56c1a2a","system_id":"levelo_inurba_marseille","lat":43.323464,"lon":5.406297,"is_reserved":false,"is_disabled":false,"rental_uris":{"android":"levelo://app?vid=4e254b07-1ae3-4baf-947b-63bde56c1a2a","ios":"levelo://app?vid=4e254b07-1ae3-4baf-947b-63bde56c1a2a"},"vehicle_type_id":"4","last_reported":1722614980,"current_range_meters":31600,"station_id":"ce4bhq92rcd13ifvqhjg","pricing_plan_id":"cebpf4jnsgd1na2vs0mg"},{"bike_id":"e7b360e4-770a-44c1-b283-cf25e871c3d4","system_id":"levelo_inurba_marseille","lat":43.337195,"lon":5.39187,"is_reserved":false,"is_disabled":false,"rental_uris":{"android":"levelo://app?vid=e7b360e4-770a-44c1-b283-cf25e871c3d4","ios":"levelo://app?vid=e7b360e4-770a-44c1-b283-cf25e871c3d4"},"vehicle_type_id":"4","last_reported":1722614980,"current_range_meters":31200,"station_id":"ce4bhr92rcd13ifvqhsg","pricing_plan_id":"cebpf4jnsgd1na2vs0mg"},{"bike_id":"572ab30a-d2eb-4f19-8505-4af22faa332c","system_id":"levelo_inurba_marseille","lat":43.33724,"lon":5.3918,"is_reserved":false,"is_disabled":false,"rental_uris":{"android":"levelo://app?vid=572ab30a-d2eb-4f19-8505-4af22faa332c","ios":"levelo://app?vid=572ab30a-d2eb-4f19-8505-4af22faa332c"},"vehicle_type_id":"4","last_reported":1722614980,"current_range_meters":9600,"station_id":"ce4bhr92rcd13ifvqhsg","pricing_plan_id":"cebpf4jnsgd1na2vs0mg"},{"bike_id":"cf769ee4-ca76-46d9-8ae7-0369a4c79385","system_id":"levelo_inurba_marseille","lat":43.33725,"lon":5.39185,"is_reserved":false,"is_disabled":false,"rental_uris":{"android":"levelo://app?vid=cf769ee4-ca76-46d9-8ae7-0369a4c79385","ios":"levelo://app?vid=cf769ee4-ca76-46d9-8ae7-0369a4c79385"},"vehicle_type_id":"4","last_reported":1722614980,"current_range_meters":1600,"station_id":"ce4bhr92rcd13ifvqhsg","pricing_plan_id":"cebpf4jnsgd1na2vs0mg"},{"bike_id":"af42acd0-6678-44a3-b143-09a933a71974","system_id":"levelo_inurba_marseille","lat":43.323464,"lon":5.406297,"is_reserved":false,"is_disabled":false,"rental_uris":{"android":"levelo://app?vid=af42acd0-6678-44a3-b143-09a933a71974","ios":"levelo://app?vid=af42acd0-6678-44a3-b143-09a933a71974"},"vehicle_type_id":"4","last_reported":1722614980,"current_range_meters":23600,"station_id":"ce4bhq92rcd13ifvqhjg","pricing_plan_id":"cebpf4jnsgd1na2vs0mg"},{"bike_id":"53555b50-546a-4287-aeb2-c44ceb739b51","system_id":"levelo_inurba_marseille","lat":43.323464,"lon":5.406297,"is_reserved":false,"is_disabled":false,"rental_uris":{"android":"levelo://app?vid=53555b50-546a-4287-aeb2-c44ceb739b51","ios":"levelo://app?vid=53555b50-546a-4287-aeb2-c44ceb739b51"},"vehicle_type_id":"4","last_reported":1722614980,"current_range_meters":30000,"station_id":"ce4bhq92rcd13ifvqhjg","pricing_plan_id":"cebpf4jnsgd1na2vs0mg"},{"bike_id":"4e46a80b-b3e0-462f-89c7-ed4527034f5c","system_id":"levelo_inurba_marseille","lat":43.33717,"lon":5.391857,"is_reserved":false,"is_disabled":false,"rental_uris":{"android":"levelo://app?vid=4e46a80b-b3e0-462f-89c7-ed4527034f5c","ios":"levelo://app?vid=4e46a80b-b3e0-462f-89c7-ed4527034f5c"},"vehicle_type_id":"4","last_reported":1722614980,"current_range_meters":20800,"station_id":"ce4bhr92rcd13ifvqhsg","pricing_plan_id":"cebpf4jnsgd1na2vs0mg"},{"bike_id":"8221eb3c-464f-4b1e-be8d-61c9edec0a8d","system_id":"levelo_inurba_marseille","lat":43.32346,"lon":5.40624,"is_reserved":false,"is_disabled":false,"rental_uris":{"android":"levelo://app?vid=8221eb3c-464f-4b1e-be8d-61c9edec0a8d","ios":"levelo://app?vid=8221eb3c-464f-4b1e-be8d-61c9edec0a8d"},"vehicle_type_id":"4","last_reported":1722614980,"current_range_meters":20000,"station_id":"ce4bhq92rcd13ifvqhjg","pricing_plan_id":"cebpf4jnsgd1na2vs0mg"},{"bike_id":"a2f4f745-720d-46c4-a9ff-4b65e26d43ee","system_id":"levelo_inurba_marseille","lat":43.33733,"lon":5.39185,"is_reserved":false,"is_disabled":false,"rental_uris":{"android":"levelo://app?vid=a2f4f745-720d-46c4-a9ff-4b65e26d43ee","ios":"levelo://app?vid=a2f4f745-720d-46c4-a9ff-4b65e26d43ee"},"vehicle_type_id":"4","last_reported":1722614980,"current_range_meters":12000,"station_id":"ce4bhr92rcd13ifvqhsg","pricing_plan_id":"cebpf4jnsgd1na2vs0mg"},{"bike_id":"85471f74-d1a0-4eb9-9329-a874360bb0fc","system_id":"levelo_inurba_marseille","lat":43.32346,"lon":5.40625,"is_reserved":false,"is_disabled":false,"rental_uris":{"android":"levelo://app?vid=85471f74-d1a0-4eb9-9329-a874360bb0fc","ios":"levelo://app?vid=85471f74-d1a0-4eb9-9329-a874360bb0fc"},"vehicle_type_id":"4","last_reported":1722614980,"current_range_meters":8000,"station_id":"ce4bhq92rcd13ifvqhjg","pricing_plan_id":"cebpf4jnsgd1na2vs0mg"},{"bike_id":"48b8a840-bb94-4a01-b942-31c692899040","system_id":"levelo_inurba_marseille","lat":43.323464,"lon":5.406297,"is_reserved":false,"is_disabled":false,"rental_uris":{"android":"levelo://app?vid=48b8a840-bb94-4a01-b942-31c692899040","ios":"levelo://app?vid=48b8a840-bb94-4a01-b942-31c692899040"},"vehicle_type_id":"4","last_reported":1722614980,"current_range_meters":10800,"station_id":"ce4bhq92rcd13ifvqhjg","pricing_plan_id":"cebpf4jnsgd1na2vs0mg"},{"bike_id":"6aa1a279-8692-4b92-b966-724f8f55c078","system_id":"levelo_inurba_marseille","lat":43.284793,"lon":5.384119,"is_reserved":false,"is_disabled":false,"rental_uris":{"android":"levelo://app?vid=6aa1a279-8692-4b92-b966-724f8f55c078","ios":"levelo://app?vid=6aa1a279-8692-4b92-b966-724f8f55c078"},"vehicle_type_id":"4","last_reported":1722614980,"current_range_meters":5200,"station_id":"ce4bh512rcd13ifvqe3g","pricing_plan_id":"cebpf4jnsgd1na2vs0mg"},{"bike_id":"2f0b4a0c-8f9d-4715-a425-38f0b2cfad8c","system_id":"levelo_inurba_marseille","lat":43.284787,"lon":5.384116,"is_reserved":false,"is_disabled":false,"rental_uris":{"android":"levelo://app?vid=2f0b4a0c-8f9d-4715-a425-38f0b2cfad8c","ios":"levelo://app?vid=2f0b4a0c-8f9d-4715-a425-38f0b2cfad8c"},"vehicle_type_id":"4","last_reported":1722614980,"current_range_meters":1200,"station_id":"ce4bh512rcd13ifvqe3g","pricing_plan_id":"cebpf4jnsgd1na2vs0mg"},{"bike_id":"1f640c5a-9ef7-4680-a631-34818c97611e","system_id":"levelo_inurba_marseille","lat":43.284793,"lon":5.384119,"is_reserved":false,"is_disabled":false,"rental_uris":{"android":"levelo://app?vid=1f640c5a-9ef7-4680-a631-34818c97611e","ios":"levelo://app?vid=1f640c5a-9ef7-4680-a631-34818c97611e"},"vehicle_type_id":"4","last_reported":1722614980,"current_range_meters":11200,"station_id":"ce4bh512rcd13ifvqe3g","pricing_plan_id":"cebpf4jnsgd1na2vs0mg"},{"bike_id":"6273e9b7-2f74-44c4-b912-6f82f0948b8b","system_id":"levelo_inurba_marseille","lat":43.297946,"lon":5.404063,"is_reserved":false,"is_disabled":false,"rental_uris":{"android":"levelo://app?vid=6273e9b7-2f74-44c4-b912-6f82f0948b8b","ios":"levelo://app?vid=6273e9b7-2f74-44c4-b912-6f82f0948b8b"},"vehicle_type_id":"4","last_reported":1722614980,"current_range_meters":5600,"station_id":"ce4bh112rcd13ifvqd90","pricing_plan_id":"cebpf4jnsgd1na2vs0mg"},{"bike_id":"24451a23-0df5-414b-ac53-3e04d12aa7b2","system_id":"levelo_inurba_marseille","lat":43.28853,"lon":5.39329,"is_reserved":false,"is_disabled":false,"rental_uris":{"android":"levelo://app?vid=24451a23-0df5-414b-ac53-3e04d12aa7b2","ios":"levelo://app?vid=24451a23-0df5-414b-ac53-3e04d12aa7b2"},"vehicle_type_id":"4","last_reported":1722614980,"current_range_meters":0,"station_id":"ce4bh2p2rcd13ifvqdi0","pricing_plan_id":"cebpf4jnsgd1na2vs0mg"},