{"last_updated":1746616156,"ttl":60,"version":"2.2","data":{"bikes":[{"bike_id":"545631c8-05b7-4070-95e3-52dc096addb5","system_id":"levelo_inurba_marseille","lat":43.27207,"lon":5.36468,"is_reserved":false,"is_disabled":true,"rental_uris":{"android":"levelo://app?vid=545631c8-05b7-4070-95e3-52dc096addb5","ios":"levelo://app?vid=545631c8-05b7-4070-95e3-52dc096addb5"},"vehicle_type_id":"4","last_reported":1746616156,"current_range_meters":0,"station_id":"","pricing_plan_id":"cebpf4jnsgd1na2vs0mg"},{"bike_id":"66b646b3-6352-44bb-9bfb-21570512e3e5","system_id":"levelo_inurba_marseille","lat":43.28109,"lon":5.40392,"is_reserved":false,"is_disabled":true,"rental_uris":{"android":"levelo://app?vid=66b646b3-6352-44bb-9bfb-21570512e3e5","ios":"levelo://app?vid=66b646b3-6352-44bb-9bfb-21570512e3e5"},"vehicle_type_id":"4","last_reported":1746616156,"current_range_meters":0,"station_id":"","pricing_plan_id":"cebpf4jnsgd1na2vs0mg"},{"bike_id":"b56eeeb9-9ded-4dd2-9efa-c8d4f8a5e387","system_id":"levelo_inurba_marseille","lat":43.27345,"lon":5.42194,"is_reserved":false,"is_disabled":true,"rental_uris":{"android":"levelo://app?vid=b56eeeb9-9ded-4dd2-9efa-c8d4f8a5e387","ios":"levelo://app?vid=b56eeeb9-9ded-4dd2-9efa-c8d4f8a5e387"},"vehicle_type_id":"4","last_reported":1746616156,"current_range_meters":0,"station_id":"","pricing_plan_id":"cebpf4jnsgd1na2vs0mg"},{"bike_id":"88c3c6c1-a33a-48ed-b2a4-48c16332184c","system_id":"levelo_inurba_marseille","lat":43.27928,"lon":5.37413,"is_reserved":false,"is_disabled":true,"rental_uris":{"android":"levelo://app?vid=88c3c6c1-a33a-48ed-b2a4-48c16332184c","ios":"levelo://app?vid=88c3c6c1-a33a-48ed-b2a4-48c16332184c"},"vehicle_type_id":"4","last_reported":1746616156,"current_range_meters":0,"station_id":"","pricing_plan_id":"cebpf4jnsgd1na2vs0mg"},{"bike_id":"2d251c8d-e9d0-476f-8622-cb88831f30c3","system_id":"levelo_inurba_marseille","lat":43.27043,"lon":5.38743,"is_reserved":false,"is_disabled":true,"rental_uris":{"android":"levelo://app?vid=2d251c8d-e9d0-476f-8622-cb88831f30c3","ios":"levelo://app?vid=2d251c8d-e9d0-476f-8622-cb88831f30c3"},"vehicle_type_id":"4","last_reported":1746616156,"current_range_meters":0,"station_id":"","pricing_plan_id":"cebpf4jnsgd1na2vs0mg"},{"bike_id":"98a970a3-8561-44d3-a501-de623a3e380d","system_id":"levelo_inurba_marseille","lat":43.30126,"lon":5.39844,"is_reserved":false,"is_disabled":false,"rental_uris":{"android":"levelo://app?vid=98a970a3-8561-44d3-a501-de623a3e380d","ios":"levelo://app?vid=98a970a3-8561-44d3-a501-de623a3e380d"},"vehicle_type_id":"4","last_reported":1746616156,"current_range_meters":0,"station_id":"ce4bh0h2rcd13ifvqd40","pricing_plan_id":"cebpf4jnsgd1na2vs0mg"},{"bike_id":"ccd8057b-9cc3-4f6f-9079-2ec533076fa8","system_id":"levelo_inurba_marseille","lat":43.23154,"lon":5.43711,"is_reserved":false,"is_disabled":true,"rental_uris":{"android":"levelo://app?vid=ccd8057b-9cc3-4f6f-9079-2ec533076fa8","ios":"levelo://app?vid=ccd8057b-9cc3-4f6f-9079-2ec533076fa8"},"vehicle_type_id":"4","last_reported":1746616156,"current_range_meters":0,"station_id":"ce4bhmp2rcd13ifvqgog","pricing_plan_id":"cebpf4jnsgd1na2vs0mg"},{"bike_id":"5de99d38-91fc-4828-97df-6381ce57d63e","system_id":"levelo_inurba_marseille","lat":43.23155,"lon":5.43704,"is_reserved":false,"is_disabled":true,"rental_uris":{"android":"levelo://app?vid=5de99d38-91fc-4828-97df-6381ce57d63e","ios":"levelo://app?vid=5de99d38-91fc-4828-97df-6381ce57d63e"},"vehicle_type_id":"4","last_reported":1746616156,"current_range_meters":0,"station_id":"ce4bhmp2rcd13ifvqgog","pricing_plan_id":"cebpf4jnsgd1na2vs0mg"},{"bike_id":"c0b927be-3ad7-424a-b1be-0ab1970cb8e4","system_id":"levelo_inurba_marseille","lat":43.22931,"lon":5.35379,"is_reserved":false,"is_disabled":true,"rental_uris":{"android":"levelo://app?vid=c0b927be-3ad7-424a-b1be-0ab1970cb8e4","ios":"levelo://app?vid=c0b927be-3ad7-424a-b1be-0ab1970cb8e4"},"vehicle_type_id":"4","last_reported":1746616156,"current_range_meters":0,"station_id":"cpo3532slgdg3j2ikp40","pricing_plan_id":"cebpf4jnsgd1na2vs0mg"},{"bike_id":"f9b25e78-d719-4308-8cdc-5f33ccc40d88","system_id":"levelo_inurba_marseille","lat":43.270731,"lon":5.422833,"is_reserved":false,"is_disabled":true,"rental_uris":{"android":"levelo://app?vid=f9b25e78-d719-4308-8cdc-5f33ccc40d88","ios":"levelo://app?vid=f9b25e78-d719-4308-8cdc-5f33ccc40d88"},"vehicle_type_id":"4","last_reported":1746616156,"current_range_meters":400,"station_id":"ce4bhk92rcd13ifvqgb0","pricing_plan_id":"cebpf4jnsgd1na2vs0mg"},{"bike_id":"b96f3c1d-879c-4392-9fe9-ff5624e6ab9f","system_id":"levelo_inurba_marseille","lat":43.32476,"lon":5.36556,"is_reserved":false,"is_disabled":true,"rental_uris":{"android":"levelo://app?vid=b96f3c1d-879c-4392-9fe9-ff5624e6ab9f","ios":"levelo://app?vid=b96f3c1d-879c-4392-9fe9-ff5624e6ab9f"},"vehicle_type_id":"4","last_reported":1746616156,"current_range_meters":400,"station_id":"ce4bhs12rcd13ifvqhvg","pricing_plan_id":"cebpf4jnsgd1na2vs0mg"},{"bike_id":"9afdaa32-5437-40bb-b5dc-0e42f55a33ee","system_id":"levelo_inurba_marseille","lat":43.25396,"lon":5.41844,"is_reserved":false,"is_disabled":true,"rental_uris":{"android":"levelo://app?vid=9afdaa32-5437-40bb-b5dc-0e42f55a33ee","ios":"levelo://app?vid=9afdaa32-5437-40bb-b5dc-0e42f55a33ee"},"vehicle_type_id":"4","last_reported":1746616156,"current_range_meters":1200,"station_id":"","pricing_plan_id":"cebpf4jnsgd1na2vs0mg"},{"bike_id":"9f4d8594-7456-42f1-9d94-6155920911b4","system_id":"levelo_inurba_marseille","lat":43.29966,"lon":5.37173,"is_reserved":false,"is_disabled":true,"rental_uris":{"android":"levelo://app?vid=9f4d8594-7456-42f1-9d94-6155920911b4","ios":"levelo://app?vid=9f4d8594-7456-42f1-9d94-6155920911b4"},"vehicle_type_id":"4","last_reported":1746616156,"current_range_meters":1200,"station_id":"ce4bgr92rcd13ifvqc7g","pricing_plan_id":"cebpf4jnsgd1na2vs0mg"},{"bike_id":"a38c2d49-7988-4ef8-83e8-42a2504085da","system_id":"levelo_inurba_marseille","lat":43.24548,"lon":5.4122,"is_reserved":false,"is_disabled":true,"rental_uris":{"android":"levelo://app?vid=a38c2d49-7988-4ef8-83e8-42a2504085da","ios":"levelo://app?vid=a38c2d49-7988-4ef8-83e8-42a2504085da"},"vehicle_type_id":"4","last_reported":1746616156,"current_range_meters":2000,"station_id":"","pricing_plan_id":"cebpf4jnsgd1na2vs0mg"},{"bike_id":"83cc1842-773c-46bc-8be1-caa63d83c3c2","system_id":"levelo_inurba_marseille","lat":43.2588,"lon":5.39542,"is_reserved":false,"is_disabled":true,"rental_uris":{"android":"levelo://app?vid=83cc1842-773c-46bc-8be1-caa63d83c3c2","ios":"levelo://app?vid=83cc1842-773c-46bc-8be1-caa63d83c3c2"},"vehicle_type_id":"4","last_reported":1746616156,"current_range_meters":2000,"station_id":"","pricing_plan_id":"cebpf4jnsgd1na2vs0mg"},{"bike_id":"ad610125-fdf7-4e44-946b-86e7f58ddf79","system_id":"levelo_inurba_marseille","lat":43.29004,"lon":5.35612,"is_reserved":false,"is_disabled":true,"rental_uris":{"android":"levelo://app?vid=ad610125-fdf7-4e44-946b-86e7f58ddf79","ios":"levelo://app?vid=ad610125-fdf7-4e44-946b-86e7f58ddf79"},"vehicle_type_id":"4","last_reported":1746616156,"current_range_meters":2000,"station_id":"ce4bhb92rcd13ifvqen0","pricing_plan_id":"cebpf4jnsgd1na2vs0mg"},{"bike_id":"7e23d017-0f1d-40c7-bf0f-7d2e5882876e","system_id":"levelo_inurba_marseille","lat":43.30804,"lon":5.43526,"is_reserved":false,"is_disabled":false,"rental_uris":{"android":"levelo://app?vid=7e23d017-0f1d-40c7-bf0f-7d2e5882876e","ios":"levelo://app?vid=7e23d017-0f1d-40c7-bf0f-7d2e5882876e"},"vehicle_type_id":"4","last_reported":1746616156,"current_range_meters":2000,"station_id":"ce4bhph2rcd13ifvqheg","pricing_plan_id":"cebpf4jnsgd1na2vs0mg"},{"bike_id":"43d0fd12-bc1a-4686-a82e-8652f9d101fc","system_id":"levelo_inurba_marseille","lat":43.23963,"lon":5.36627,"is_reserved":false,"is_disabled":false,"rental_uris":{"android":"levelo://app?vid=43d0fd12-bc1a-4686-a82e-8652f9d101fc","ios":"levelo://app?vid=43d0fd12-bc1a-4686-a82e-8652f9d101fc"},"vehicle_type_id":"4","last_reported":1746616156,"current_range_meters":2800,"station_id":"ce4bhi12rcd13ifvqfp0","pricing_plan_id":"cebpf4jnsgd1na2vs0mg"},{"bike_id":"4922fec1-5af6-4f3f-a416-ccf2b375c14e","system_id":"levelo_inurba_marseille","lat":43.26208,"lon":5.37929,"is_reserved":false,"is_disabled":false,"rental_uris":{"android":"levelo://app?vid=4922fec1-5af6-4f3f-a416-ccf2b375c14e","ios":"levelo://app?vid=4922fec1-5af6-4f3f-a416-ccf2b375c14e"},"vehicle_type_id":"4","last_reported":1746616156,"current_range_meters":2800,"station_id":"ce4bhjp2rcd13ifvqg90","pricing_plan_id":"cebpf4jnsgd1na2vs0mg"},{"bike_id":"f46ae0d7-03f3-41e1-96db-970fe58465cc","system_id":"levelo_inurba_marseille","lat":43.32987,"lon":5.3823,"is_reserved":false,"is_disabled":false,"rental_uris":{"android":"levelo://app?vid=f46ae0d7-03f3-41e1-96db-970fe58465cc","ios":"levelo://app?vid=f46ae0d7-03f3-41e1-96db-970fe58465cc"},"vehicle_type_id":"4","last_reported":1746616156,"current_range_meters":3200,"station_id":"","pricing_plan_id":"cebpf4jnsgd1na2vs0mg"},{"bike_id":"cc6e9e4a-d3d5-49bf-a8bc-7fff0656b376","system_id":"levelo_inurba_marseille","lat":43.26554,"lon":5.37289,"is_reserved":false,"is_disabled":false,"rental_uris":{"android":"levelo://app?vid=cc6e9e4a-d3d5-49bf-a8bc-7fff0656b376","ios":"levelo://app?vid=cc6e9e4a-d3d5-49bf-a8bc-7fff0656b376"},"vehicle_type_id":"4","last_reported":1746616156,"current_range_meters":3200,"station_id":"ce4bhg12rcd13ifvqf70","pricing_plan_id":"cebpf4jnsgd1na2vs0mg"},{"bike_id":"9afb3304-a918-47e2-90ed-efdcb3e0b947","system_id":"levelo_inurba_marseille","lat":43.26952,"lon":5.38629,"is_reserved":false,"is_disabled":false,"rental_uris":{"android":"levelo://app?vid=9afb3304-a918-47e2-90ed-efdcb3e0b947","ios":"levelo://app?vid=9afb3304-a918-47e2-90ed-efdcb3e0b947"},"vehicle_type_id":"4","last_reported":1746616156,"current_range_meters":3200,"station_id":"ce4bhh92rcd13ifvqfh0","pricing_plan_id":"cebpf4jnsgd1na2vs0mg"},{"bike_id":"f32c9c6c-c76a-4114-af0f-10ab301ed2ad","system_id":"levelo_inurba_marseille","lat":43.27557,"lon":5.3843,"is_reserved":false,"is_disabled":false,"rental_uris":{"android":"levelo://app?vid=f32c9c6c-c76a-4114-af0f-10ab301ed2ad","ios":"levelo://app?vid=f32c9c6c-c76a-4114-af0f-10ab301ed2ad"},"vehicle_type_id":"4","last_reported":1746616156,"current_range_meters":3600,"station_id":"ce4bhh92rcd13ifvqfi0","pricing_plan_id":"cebpf4jnsgd1na2vs0mg"},{"bike_id":"ca017a0f-7ca8-4a7d-86a9-105a3f74b242","system_id":"levelo_inurba_marseille","lat":43.32044,"lon":5.41552,"is_reserved":false,"is_disabled":false,"rental_uris":{"android":"levelo://app?vid=ca017a0f-7ca8-4a7d-86a9-105a3f74b242","ios":"levelo://app?vid=ca017a0f-7ca8-4a7d-86a9-105a3f74b242"},"vehicle_type_id":"4","last_reported":1746616156,"current_range_meters":4400,"station_id":"ce4bhq92rcd13ifvqhkg","pricing_plan_id":"cebpf4jnsgd1na2vs0mg"},{"bike_id":"9d8f73eb-df09-4699-86a7-d631e2319093","system_id":"levelo_inurba_marseille","lat":43.2627,"lon":5.37438,"is_reserved":false,"is_disabled":false,"rental_uris":{"android":"levelo://app?vid=9d8f73eb-df09-4699-86a7-d631e2319093","ios":"levelo://app?vid=9d8f73eb-df09-4699-86a7-d631e2319093"},"vehicle_type_id":"4","last_reported":1746616156,"current_range_meters":4800,"station_id":"","pricing_plan_id":"cebpf4jnsgd1na2vs0mg"},{"bike_id":"716be4e6-8897-47ed-9d82-c4587a36b7c1","system_id":"levelo_inurba_marseille","lat":43.29256,"lon":5.37618,"is_reserved":false,"is_disabled":false,"rental_uris":{"android":"levelo://app?vid=716be4e6-8897-47ed-9d82-c4587a36b7c1","ios":"levelo://app?vid=716be4e6-8897-47ed-9d82-c4587a36b7c1"},"vehicle_type_id":"4","last_reported":1746616156,"current_range_meters":5600,"station_id":"ce4bgi12rcd13ifvqb80","pricing_plan_id":"cebpf4jnsgd1na2vs0mg"},{"bike_id":"485a86da-8018-40c5-8c1e-c97fcfd705db","system_id":"levelo_inurba_marseille","lat":43.29794,"lon":5.38087,"is_reserved":false,"is_disabled":false,"rental_uris":{"android":"levelo://app?vid=485a86da-8018-40c5-8c1e-c97fcfd705db","ios":"levelo://app?vid=485a86da-8018-40c5-8c1e-c97fcfd705db"},"vehicle_type_id":"4","last_reported":1746616156,"current_range_meters":5600,"station_id":"ce4bgip2rcd13ifvqbb0","pricing_plan_id":"cebpf4jnsgd1na2vs0mg"},{"bike_id":"5582c04d-79cb-4f7a-8e14-ae9a6fdf6cad","system_id":"levelo_inurba_marseille","lat":43.30587,"lon":5.39356,"is_reserved":false,"is_disabled":false,"rental_uris":{"android":"levelo://app?vid=5582c04d-79cb-4f7a-8e14-ae9a6fdf6cad","ios":"levelo://app?vid=5582c04d-79cb-4f7a-8e14-ae9a6fdf6cad"},"vehicle_type_id":"4","last_reported":1746616156,"current_range_meters":5600,"station_id":"ce4bh0p2rcd13ifvqd80","pricing_plan_id":"cebpf4jnsgd1na2vs0mg"},{"bike_id":"eb6d45f3-3405-4c9e-9bb1-ec984a070017","system_id":"levelo_inurba_marseille","lat":43.29517,"lon":5.39047,"is_reserved":false,"is_disabled":false,"rental_uris":{"android":"levelo://app?vid=eb6d45f3-3405-4c9e-9bb1-ec984a070017","ios":"levelo://app?vid=eb6d45f3-3405-4c9e-9bb1-ec984a070017"},"vehicle_type_id":"4","last_reported":1746616156,"current_range_meters":5600,"station_id":"ce4bh3p2rcd13ifvqdp0","pricing_plan_id":"cebpf4jnsgd1na2vs0mg"},{"bike_id":"9b4c8005-e108-4118-a8ab-e6ac54990161","system_id":"levelo_inurba_marseille","lat":43.29895,"lon":5.43664,"is_reserved":false,"is_disabled":false,"rental_uris":{"android":"levelo://app?vid=9b4c8005-e108-4118-a8ab-e6ac54990161","ios":"levelo://app?vid=9b4c8005-e108-4118-a8ab-e6ac54990161"},"vehicle_type_id":"4","last_reported":1746616156,"current_range_meters":5600,"station_id":"ce4bhpp2rcd13ifvqhfg","pricing_plan_id":"cebpf4jnsgd1na2vs0mg"},{"bike_id":"1c9fca0a-aca1-4c29-b021-e2d4a7e613a0","system_id":"levelo_inurba_marseille","lat":43.2928,"lon":5.4013,"is_reserved":false,"is_disabled":false,"rental_uris":{"android":"levelo://app?vid=1c9fca0a-aca1-4c29-b021-e2d4a7e613a0","ios":"levelo://app?vid=1c9fca0a-aca1-4c29-b021-e2d4a7e613a0"},"vehicle_type_id":"4","last_reported":1746616156,"current_range_meters":6000,"station_id":"ce4bh312rcd13ifvqdk0","pricing_plan_id":"cebpf4jnsgd1na2vs0mg"},{"bike_id":"41b93300-b392-4635-a2f1-fb523e2d65df","system_id":"levelo_inurba_marseille","lat":43.24805,"lon":5.37452,"is_reserved":false,"is_disabled":false,"rental_uris":{"android":"levelo://app?vid=41b93300-b392-4635-a2f1-fb523e2d65df","ios":"levelo://app?vid=41b93300-b392-4635-a2f1-fb523e2d65df"},"vehicle_type_id":"4","last_reported":1746616156,"current_range_meters":6000,"station_id":"ce4bhgh2rcd13ifvqfb0","pricing_plan_id":"cebpf4jnsgd1na2vs0mg"},{"bike_id":"b8172fcb-4ecd-421f-8b15-0ee930110ea6","system_id":"levelo_inurba_marseille","lat":43.28156,"lon":5.42646,"is_reserved":false,"is_disabled":false,"rental_uris":{"android":"levelo://app?vid=b8172fcb-4ecd-421f-8b15-0ee930110ea6","ios":"levelo://app?vid=b8172fcb-4ecd-421f-8b15-0ee930110ea6"},"vehicle_type_id":"4","last_reported":1746616156,"current_range_meters":6000,"station_id":"ce4bhnh2rcd13ifvqgug","pricing_plan_id":"cebpf4jnsgd1na2vs0mg"},{"bike_id":"9761a845-6216-4723-958b-06328324a2b8","system_id":"levelo_inurba_marseille","lat":43.31759,"lon":5.39019,"is_reserved":false,"is_disabled":false,"rental_uris":{"android":"levelo://app?vid=9761a845-6216-4723-958b-06328324a2b8","ios":"levelo://app?vid=9761a845-6216-4723-958b-06328324a2b8"},"vehicle_type_id":"4","last_reported":1746616156,"current_range_meters":6000,"station_id":"ce4bhqp2rcd13ifvqhng","pricing_plan_id":"cebpf4jnsgd1na2vs0mg"},{"bike_id":"fa518239-881a-4cea-ab28-f82dc3092a94","system_id":"levelo_inurba_marseille","lat":43.29619,"lon":5.3716,"is_reserved":false,"is_disabled":false,"rental_uris":{"android":"levelo://app?vid=fa518239-881a-4cea-ab28-f82dc3092a94","ios":"levelo://app?vid=fa518239-881a-4cea-ab28-f82dc3092a94"},"vehicle_type_id":"4","last_reported":1746616156,"current_range_meters":6400,"station_id":"ce4bgnh2rcd13ifvqc0g","pricing_plan_id":"cebpf4jnsgd1na2vs0mg"},{"bike_id":"1db718bf-b215-4653-a301-a3230b0118d2","system_id":"levelo_inurba_marseille","lat":43.29228,"lon":5.36056,"is_reserved":false,"is_disabled":false,"rental_uris":{"android":"levelo://app?vid=1db718bf-b215-4653-a301-a3230b0118d2","ios":"levelo://app?vid=1db718bf-b215-4653-a301-a3230b0118d2"},"vehicle_type_id":"4","last_reported":1746616156,"current_range_meters":6400,"station_id":"ce4bhbh2rcd13ifvqeqg","pricing_plan_id":"cebpf4jnsgd1na2vs0mg"},{"bike_id":"30980048-6cd1-47ab-b3fd-38087ad464c9","system_id":"levelo_inurba_marseille","lat":43.25719,"lon":5.41115,"is_reserved":false,"is_disabled":false,"rental_uris":{"android":"levelo://app?vid=30980048-6cd1-47ab-b3fd-38087ad464c9","ios":"levelo://app?vid=30980048-6cd1-47ab-b3fd-38087ad464c9"},"vehicle_type_id":"4","last_reported":1746616156,"current_range_meters":6400,"station_id":"ce4bhkp2rcd13ifvqgd0","pricing_plan_id":"cebpf4jnsgd1na2vs0mg"},{"bike_id":"7735f831-86a3-46b0-8e7b-1ab594c8e639","system_id":"levelo_inurba_marseille","lat":43.25918,"lon":5.40871,"is_reserved":false,"is_disabled":false,"rental_uris":{"android":"levelo://app?vid=7735f831-86a3-46b0-8e7b-1ab594c8e639","ios":"levelo://app?vid=7735f831-86a3-46b0-8e7b-1ab594c8e639"},"vehicle_type_id":"4","last_reported":1746616156,"current_range_meters":6400,"station_id":"ce4bhm92rcd13ifvqglg","pricing_plan_id":"cebpf4jnsgd1na2vs0mg"},{"bike_id":"dc14f7a4-5db2-4669-bcf2-e93e80b84632","system_id":"levelo_inurba_marseille","lat":43.26236,"lon":5.40454,"is_reserved":false,"is_disabled":false,"rental_uris":{"android":"levelo://app?vid=dc14f7a4-5db2-4669-bcf2-e93e80b84632","ios":"levelo://app?vid=dc14f7a4-5db2-4669-bcf2-e93e80b84632"},"vehicle_type_id":"4","last_reported":1746616156,"current_range_meters":6400,"station_id":"ce4bhmh2rcd13ifvqgmg","pricing_plan_id":"cebpf4jnsgd1na2vs0mg"},{"bike_id":"503569af-07db-461f-918e-29f89d0c1c24","system_id":"levelo_inurba_marseille","lat":43.22498,"lon":5.34769,"is_reserved":false,"is_disabled":false,"rental_uris":{"android":"levelo://app?vid=503569af-07db-461f-918e-29f89d0c1c24","ios":"levelo://app?vid=503569af-07db-461f-918e-29f89d0c1c24"},"vehicle_type_id":"4","last_reported":1746616156,"current_range_meters":6400,"station_id":"st_cvj5dfep6f1abm77gieg","pricing_plan_id":"cebpf4jnsgd1na2vs0mg"},{"bike_id":"149af097-398a-4a6f-b95f-841f6b87d36c","system_id":"levelo_inurba_marseille","lat":43.2611,"lon":5.41467,"is_reserved":false,"is_disabled":false,"rental_uris":{"android":"levelo://app?vid=149af097-398a-4a6f-b95f-841f6b87d36c","ios":"levelo://app?vid=149af097-398a-4a6f-b95f-841f6b87d36c"},"vehicle_type_id":"4","last_reported":1746616156,"current_range_meters":6800,"station_id":"","pricing_plan_id":"cebpf4jnsgd1na2vs0mg"},{"bike_id":"c9592205-9409-4f74-aed1-7c4141a58caa","system_id":"levelo_inurba_marseille","lat":43.27175,"lon":5.36292,"is_reserved":false,"is_disabled":false,"rental_uris":{"android":"levelo://app?vid=c9592205-9409-4f74-aed1-7c4141a58caa","ios":"levelo://app?vid=c9592205-9409-4f74-aed1-7c4141a58caa"},"vehicle_type_id":"4","last_reported":1746616156,"current_range_meters":6800,"station_id":"","pricing_plan_id":"cebpf4jnsgd1na2vs0mg"},{"bike_id":"c0faf23e-81a7-4ca3-895d-283152fd6265","system_id":"levelo_inurba_marseille","lat":43.2958,"lon":5.39607,"is_reserved":false,"is_disabled":false,"rental_uris":{"android":"levelo://app?vid=c0faf23e-81a7-4ca3-895d-283152fd6265","ios":"levelo://app?vid=c0faf23e-81a7-4ca3-895d-283152fd6265"},"vehicle_type_id":"4","last_reported":1746616156,"current_range_meters":6800,"station_id":"","pricing_plan_id":"cebpf4jnsgd1na2vs0mg"},{"bike_id":"3e9abd31-89f7-4c2a-a114-fb5f3a915978","system_id":"levelo_inurba_marseille","lat":43.29255,"lon":5.3761,"is_reserved":false,"is_disabled":false,"rental_uris":{"android":"levelo://app?vid=3e9abd31-89f7-4c2a-a114-fb5f3a915978","ios":"levelo://app?vid=3e9abd31-89f7-4c2a-a114-fb5f3a915978"},"vehicle_type_id":"4","last_reported":1746616156,"current_range_meters":6800,"station_id":"ce4bgi12rcd13ifvqb80","pricing_plan_id":"cebpf4jnsgd1na2vs0mg"},{"bike_id":"841de150-4c7d-47f8-87ec-454197834c1b","system_id":"levelo_inurba_marseille","lat":43.30534,"lon":5.36545,"is_reserved":false,"is_disabled":false,"rental_uris":{"android":"levelo://app?vid=841de150-4c7d-47f8-87ec-454197834c1b","ios":"levelo://app?vid=841de150-4c7d-47f8-87ec-454197834c1b"},"vehicle_type_id":"4","last_reported":1746616156,"current_range_meters":6800,"station_id":"ce4bgs12rcd13ifvqcag","pricing_plan_id":"cebpf4jnsgd1na2vs0mg"},{"bike_id":"00f22954-95c0-46d1-b8c9-72cbbd1e1259","system_id":"levelo_inurba_marseille","lat":43.24548,"lon":5.3953,"is_reserved":false,"is_disabled":false,"rental_uris":{"android":"levelo://app?vid=00f22954-95c0-46d1-b8c9-72cbbd1e1259","ios":"levelo://app?vid=00f22954-95c0-46d1-b8c9-72cbbd1e1259"},"vehicle_type_id":"4","last_reported":1746616156,"current_range_meters":6800,"station_id":"ce4bhlp2rcd13ifvqgjg","pricing_plan_id":"cebpf4jnsgd1na2vs0mg"},{"bike_id":"b4bac287-3615-423a-bca2-a11fb80cb066","system_id":"levelo_inurba_marseille","lat":43.23056,"lon":5.35486,"is_reserved":false,"is_disabled":false,"rental_uris":{"android":"levelo://app?vid=b4bac287-3615-423a-bca2-a11fb80cb066","ios":"levelo://app?vid=b4bac287-3615-423a-bca2-a11fb80cb066"},"vehicle_type_id":"4","last_reported":1746616156,"current_range_meters":6800,"station_id":"cpo3342slgdg3j2ifvpg","pricing_plan_id":"cebpf4jnsgd1na2vs0mg"},{"bike_id":"5bb7e41e-3f33-4c47-a08f-c83f8c72d2e7","system_id":"levelo_inurba_marseille","lat":43.274937,"lon":5.424532,"is_reserved":false,"is_disabled":false,"rental_uris":{"android":"levelo://app?vid=5bb7e41e-3f33-4c47-a08f-c83f8c72d2e7","ios":"levelo://app?vid=5bb7e41e-3f33-4c47-a08f-c83f8c72d2e7"},"vehicle_type_id":"4","last_reported":1746616156,"current_range_meters":7200,"station_id":"ce4bhn92rcd13ifvqgrg","pricing_plan_id":"cebpf4jnsgd1na2vs0mg"},{"bike_id":"4ee8dd85-a161-4076-956a-2a316c76f32d","system_id":"levelo_inurba_marseille","lat":43.31241,"lon":5.36887,"is_reserved":false,"is_disabled":false,"rental_uris":{"android":"levelo://app?vid=4ee8dd85-a161-4076-956a-2a316c76f32d","ios":"levelo://app?vid=4ee8dd85-a161-4076-956a-2a316c76f32d"},"vehicle_type_id":"4","last_reported":1746616156,"current_range_meters":8000,"station_id":"ce4bgl92rcd13ifvqbq0","pricing_plan_id":"cebpf4jnsgd1na2vs0mg"},{"bike_id":"12f20d14-359e-4f8d-8738-0c9954d41a11","system_id":"levelo_inurba_marseille","lat":43.30903,"lon":5.36845,"is_reserved":false,"is_disabled":false,"rental_uris":{"android":"levelo://app?vid=12f20d14-359e-4f8d-8738-0c9954d41a11","ios":"levelo://app?vid=12f20d14-359e-4f8d-8738-0c9954d41a11"},"vehicle_type_id":"4","last_reported":1746616156,"current_range_meters":8000,"station_id":"ce4bgn92rcd13ifvqbvg","pricing_plan_id":"cebpf4jnsgd1na2vs0mg"},{"bike_id":"926a22ae-dd94-4774-b24d-657ce91eae20","system_id":"levelo_inurba_marseille","lat":43.29583,"lon":5.36739,"is_reserved":false,"is_disabled":false,"rental_uris":{"android":"levelo://app?vid=926a22ae-dd94-4774-b24d-657ce91eae20","ios":"levelo://app?vid=926a22ae-dd94-4774-b24d-657ce91eae20"},"vehicle_type_id":"4","last_reported":1746616156,"current_range_meters":8000,"station_id":"ce4bgph2rcd13ifvqc2g","pricing_plan_id":"cebpf4jnsgd1na2vs0mg"},{"bike_id":"3185f3bd-afcb-40f2-94a4-747557095a72","system_id":"levelo_inurba_marseille","lat":43.305572,"lon":5.366965,"is_reserved":false,"is_disabled":false,"rental_uris":{"android":"levelo://app?vid=3185f3bd-afcb-40f2-94a4-747557095a72","ios":"levelo://app?vid=3185f3bd-afcb-40f2-94a4-747557095a72"},"vehicle_type_id":"4","last_reported":1746616156,"current_range_meters":8000,"station_id":"ce4bgrp2rcd13ifvqc9g","pricing_plan_id":"cebpf4jnsgd1na2vs0mg"},{"bike_id":"b4f1c285-c5bc-4b5b-9490-bbafcde70c35","system_id":"levelo_inurba_marseille","lat":43.28273,"lon":5.35066,"is_reserved":false,"is_disabled":false,"rental_uris":{"android":"levelo://app?vid=b4f1c285-c5bc-4b5b-9490-bbafcde70c35","ios":"levelo://app?vid=b4f1c285-c5bc-4b5b-9490-bbafcde70c35"},"vehicle_type_id":"4","last_reported":1746616156,"current_range_meters":8000,"station_id":"ce4bhbp2rcd13ifvqerg","pricing_plan_id":"cebpf4jnsgd1na2vs0mg"},{"bike_id":"ca29b916-aaea-42aa-8794-d9786047ebca","system_id":"levelo_inurba_marseille","lat":43.32291,"lon":5.38275,"is_reserved":false,"is_disabled":false,"rental_uris":{"android":"levelo://app?vid=ca29b916-aaea-42aa-8794-d9786047ebca","ios":"levelo://app?vid=ca29b916-aaea-42aa-8794-d9786047ebca"},"vehicle_type_id":"4","last_reported":1746616156,"current_range_meters":8000,"station_id":"ce4bhr12rcd13ifvqhqg","pricing_plan_id":"cebpf4jnsgd1na2vs0mg"},{"bike_id":"85f8eacc-cd52-4954-bcdd-39ab2ec2da7a","system_id":"levelo_inurba_marseille","lat":43.2119,"lon":5.35078,"is_reserved":false,"is_disabled":false,"rental_uris":{"android":"levelo://app?vid=85f8eacc-cd52-4954-bcdd-39ab2ec2da7a","ios":"levelo://app?vid=85f8eacc-cd52-4954-bcdd-39ab2ec2da7a"},"vehicle_type_id":"4","last_reported":1746616156,"current_range_meters":8000,"station_id":"st_cvj6sg6p6f1abm77japg","pricing_plan_id":"cebpf4jnsgd1na2vs0mg"},{"bike_id":"35f2bf3a-984e-4d02-a360-1673f47620a1","system_id":"levelo_inurba_marseille","lat":43.29583,"lon":5.36737,"is_reserved":false,"is_disabled":false,"rental_uris":{"android":"levelo://app?vid=35f2bf3a-984e-4d02-a360-1673f47620a1","ios":"levelo://app?vid=35f2bf3a-984e-4d02-a360-1673f47620a1"},"vehicle_type_id":"4","last_reported":1746616156,"current_range_meters":8400,"station_id":"ce4bgph2rcd13ifvqc2g","pricing_plan_id":"cebpf4jnsgd1na2vs0mg"},{"bike_id":"e77418f2-84aa-4f0a-b73d-c5526a71d363","system_id":"levelo_inurba_marseille","lat":43.31328,"lon":5.39696,"is_reserved":false,"is_disabled":false,"rental_uris":{"android":"levelo://app?vid=e77418f2-84aa-4f0a-b73d-c5526a71d363","ios":"levelo://app?vid=e77418f2-84aa-4f0a-b73d-c5526a71d363"},"vehicle_type_id":"4","last_reported":1746616156,"current_range_meters":8400,"station_id":"ce4bgvp2rcd13ifvqcu0","pricing_plan_id":"cebpf4jnsgd1na2vs0mg"},{"bike_id":"666632bb-fb1c-42f5-966d-4df8e49d091f","system_id":"levelo_inurba_marseille","lat":43.26565,"lon":5.39011,"is_reserved":false,"is_disabled":false,"rental_uris":{"android":"levelo://app?vid=666632bb-fb1c-42f5-966d-4df8e49d091f","ios":"levelo://app?vid=666632bb-fb1c-42f5-966d-4df8e49d091f"},"vehicle_type_id":"4","last_reported":1746616156,"current_range_meters":8400,"station_id":"ce4bhe12rcd13ifvqf30","pricing_plan_id":"cebpf4jnsgd1na2vs0mg"},{"bike_id":"c92d17f3-b532-469e-8941-da1a9fdf7dbc","system_id":"levelo_inurba_marseille","lat":43.2749,"lon":5.42456,"is_reserved":false,"is_disabled":false,"rental_uris":{"android":"levelo://app?vid=c92d17f3-b532-469e-8941-da1a9fdf7dbc","ios":"levelo://app?vid=c92d17f3-b532-469e-8941-da1a9fdf7dbc"},"vehicle_type_id":"4","last_reported":1746616156,"current_range_meters":8400,"station_id":"ce4bhn92rcd13ifvqgrg","pricing_plan_id":"cebpf4jnsgd1na2vs0mg"},{"bike_id":"f909d878-88c2-447a-bc4f-82f1db2e243c","system_id":"levelo_inurba_marseille","lat":43.31232,"lon":5.36852,"is_reserved":false,"is_disabled":false,"rental_uris":{"android":"levelo://app?vid=f909d878-88c2-447a-bc4f-82f1db2e243c","ios":"levelo://app?vid=f909d878-88c2-447a-bc4f-82f1db2e243c"},"vehicle_type_id":"4","last_reported":1746616156,"current_range_meters":8800,"station_id":"ce4bgl92rcd13ifvqbq0","pricing_plan_id":"cebpf4jnsgd1na2vs0mg"},{"bike_id":"bd3b2178-bd6a-4801-b79f-10fa8392d3d4","system_id":"levelo_inurba_marseille","lat":43.312331,"lon":5.368709,"is_reserved":false,"is_disabled":false,"rental_uris":{"android":"levelo://app?vid=bd3b2178-bd6a-4801-b79f-10fa8392d3d4","ios":"levelo://app?vid=bd3b2178-bd6a-4801-b79f-10fa8392d3d4"},"vehicle_type_id":"4","last_reported":1746616156,"current_range_meters":8800,"station_id":"ce4bgl92rcd13ifvqbq0","pricing_plan_id":"cebpf4jnsgd1na2vs0mg"},{"bike_id":"b8473e14-df10-4bf9-abe3-37cfdad6200a","system_id":"levelo_inurba_marseille","lat":43.31326,"lon":5.36726,"is_reserved":false,"is_disabled":false,"rental_uris":{"android":"levelo://app?vid=b8473e14-df10-4bf9-abe3-37cfdad6200a","ios":"levelo://app?vid=b8473e14-df10-4bf9-abe3-37cfdad6200a"},"vehicle_type_id":"4","last_reported":1746616156,"current_range_meters":8800,"station_id":"ce4bgr92rcd13ifvqc6g","pricing_plan_id":"cebpf4jnsgd1na2vs0mg"},{"bike_id":"26151e8c-a4b1-4263-8180-f279940e4622","system_id":"levelo_inurba_marseille","lat":43.305458,"lon":5.365268,"is_reserved":false,"is_disabled":false,"rental_uris":{"android":"levelo://app?vid=26151e8c-a4b1-4263-8180-f279940e4622","ios":"levelo://app?vid=26151e8c-a4b1-4263-8180-f279940e4622"},"vehicle_type_id":"4","last_reported":1746616156,"current_range_meters":8800,"station_id":"ce4bgs12rcd13ifvqcag","pricing_plan_id":"cebpf4jnsgd1na2vs0mg"},{"bike_id":"ded9bd18-bc9a-4e74-9959-ea6270ccd83d","system_id":"levelo_inurba_marseille","lat":43.30543,"lon":5.36554,"is_reserved":false,"is_disabled":false,"rental_uris":{"android":"levelo://app?vid=ded9bd18-bc9a-4e74-9959-ea6270ccd83d","ios":"levelo://app?vid=ded9bd18-bc9a-4e74-9959-ea6270ccd83d"},"vehicle_type_id":"4","last_reported":1746616156,"current_range_meters":8800,"station_id":"ce4bgs12rcd13ifvqcag","pricing_plan_id":"cebpf4jnsgd1na2vs0mg"},{"bike_id":"81d6015a-0c86-4923-946a-fcc58154569c","system_id":"levelo_inurba_marseille","lat":43.28934,"lon":5.36642,"is_reserved":false,"is_disabled":false,"rental_uris":{"android":"levelo://app?vid=81d6015a-0c86-4923-946a-fcc58154569c","ios":"levelo://app?vid=81d6015a-0c86-4923-946a-fcc58154569c"},"vehicle_type_id":"4","last_reported":1746616156,"current_range_meters":8800,"station_id":"ce4bhap2rcd13ifvqek0","pricing_plan_id":"cebpf4jnsgd1na2vs0mg"},{"bike_id":"00cee77f-50b5-4824-97d1-e304f7be2636","system_id":"levelo_inurba_marseille","lat":43.24648,"lon":5.38906,"is_reserved":false,"is_disabled":false,"rental_uris":{"android":"levelo://app?vid=00cee77f-50b5-4824-97d1-e304f7be2636","ios":"levelo://app?vid=00cee77f-50b5-4824-97d1-e304f7be2636"},"vehicle_type_id":"4","last_reported":1746616156,"current_range_meters":8800,"station_id":"ce4bhg12rcd13ifvqf60","pricing_plan_id":"cebpf4jnsgd1na2vs0mg"},{"bike_id":"a538c8d8-b975-4af1-adfa-ddd7108ec268","system_id":"levelo_inurba_marseille","lat":43.23196,"lon":5.35558,"is_reserved":false,"is_disabled":false,"rental_uris":{"android":"levelo://app?vid=a538c8d8-b975-4af1-adfa-ddd7108ec268","ios":"levelo://app?vid=a538c8d8-b975-4af1-adfa-ddd7108ec268"},"vehicle_type_id":"4","last_reported":1746616156,"current_range_meters":8800,"station_id":"ce4bhu92rcd13ifvqi70","pricing_plan_id":"cebpf4jnsgd1na2vs0mg"},{"bike_id":"6a0e118f-8a96-443f-91d2-a958b5952db1","system_id":"levelo_inurba_marseille","lat":43.29519,"lon":5.39039,"is_reserved":false,"is_disabled":false,"rental_uris":{"android":"levelo://app?vid=6a0e118f-8a96-443f-91d2-a958b5952db1","ios":"levelo://app?vid=6a0e118f-8a96-443f-91d2-a958b5952db1"},"vehicle_type_id":"4","last_reported":1746616156,"current_range_meters":9200,"station_id":"ce4bh3p2rcd13ifvqdp0","pricing_plan_id":"cebpf4jnsgd1na2vs0mg"},{"bike_id":"d0919553-fc34-43c2-94ee-29563f72fac5","system_id":"levelo_inurba_marseille","lat":43.2737,"lon":5.3625,"is_reserved":false,"is_disabled":false,"rental_uris":{"android":"levelo://app?vid=d0919553-fc34-43c2-94ee-29563f72fac5","ios":"levelo://app?vid=d0919553-fc34-43c2-94ee-29563f72fac5"},"vehicle_type_id":"4","last_reported":1746616156,"current_range_meters":9200,"station_id":"ce4bhbh2rcd13ifvqeo0","pricing_plan_id":"cebpf4jnsgd1na2vs0mg"},{"bike_id":"0ac9b327-3449-4915-abc1-f3b05a879184","system_id":"levelo_inurba_marseille","lat":43.28154,"lon":5.4265,"is_reserved":false,"is_disabled":false,"rental_uris":{"android":"levelo://app?vid=0ac9b327-3449-4915-abc1-f3b05a879184","ios":"levelo://app?vid=0ac9b327-3449-4915-abc1-f3b05a879184"},"vehicle_type_id":"4","last_reported":1746616156,"current_range_meters":9200,"station_id":"ce4bhnh2rcd13ifvqgug","pricing_plan_id":"cebpf4jnsgd1na2vs0mg"},{"bike_id":"c7741849-e541-44df-8dea-1d3f1b8cc5f0","system_id":"levelo_inurba_marseille","lat":43.330253,"lon":5.390337,"is_reserved":false,"is_disabled":false,"rental_uris":{"android":"levelo://app?vid=c7741849-e541-44df-8dea-1d3f1b8cc5f0","ios":"levelo://app?vid=c7741849-e541-44df-8dea-1d3f1b8cc5f0"},"vehicle_type_id":"4","last_reported":1746616156,"current_range_meters":9200,"station_id":"ce4bhr92rcd13ifvqhrg","pricing_plan_id":"cebpf4jnsgd1na2vs0mg"},{"bike_id":"c3d62938-c91d-4b6a-9231-e6c185325f64","system_id":"levelo_inurba_marseille","lat":43.28418,"lon":5.34972,"is_reserved":false,"is_disabled":false,"rental_uris":{"android":"levelo://app?vid=c3d62938-c91d-4b6a-9231-e6c185325f64","ios":"levelo://app?vid=c3d62938-c91d-4b6a-9231-e6c185325f64"},"vehicle_type_id":"4","last_reported":1746616156,"current_range_meters":9600,"station_id":"ce4bhbh2rcd13ifvqepg","pricing_plan_id":"cebpf4jnsgd1na2vs0mg"},{"bike_id":"dbf42f42-14c0-4947-9e03-00c6b4f1ba7e","system_id":"levelo_inurba_marseille","lat":43.26219,"lon":5.37445,"is_reserved":false,"is_disabled":false,"rental_uris":{"android":"levelo://app?vid=dbf42f42-14c0-4947-9e03-00c6b4f1ba7e","ios":"levelo://app?vid=dbf42f42-14c0-4947-9e03-00c6b4f1ba7e"},"vehicle_type_id":"4","last_reported":1746616156,"current_range_meters":9600,"station_id":"ce4bhgp2rcd13ifvqfc0","pricing_plan_id":"cebpf4jnsgd1na2vs0mg"},{"bike_id":"f222666a-f926-4214-8dce-d77fc865974c","system_id":"levelo_inurba_marseille","lat":43.30144,"lon":5.39886,"is_reserved":false,"is_disabled":false,"rental_uris":{"android":"levelo://app?vid=f222666a-f926-4214-8dce-d77fc865974c","ios":"levelo://app?vid=f222666a-f926-4214-8dce-d77fc865974c"},"vehicle_type_id":"4","last_reported":1746616156,"current_range_meters":10000,"station_id":"ce4bh0h2rcd13ifvqd40","pricing_plan_id":"cebpf4jnsgd1na2vs0mg"},{"bike_id":"23046318-4edd-48bf-a1f0-1eeda00d0782","system_id":"levelo_inurba_marseille","lat":43.27484,"lon":5.42461,"is_reserved":false,"is_disabled":false,"rental_uris":{"android":"levelo://app?vid=23046318-4edd-48bf-a1f0-1eeda00d0782","ios":"levelo://app?vid=23046318-4edd-48bf-a1f0-1eeda00d0782"},"vehicle_type_id":"4","last_reported":1746616156,"current_range_meters":10000,"station_id":"ce4bhn92rcd13ifvqgrg","pricing_plan_id":"cebpf4jnsgd1na2vs0mg"},{"bike_id":"070dd131-f3c5-4759-b717-ac45f54135ca","system_id":"levelo_inurba_marseille","lat":43.28708,"lon":5.3998,"is_reserved":false,"is_disabled":false,"rental_uris":{"android":"levelo://app?vid=070dd131-f3c5-4759-b717-ac45f54135ca","ios":"levelo://app?vid=070dd131-f3c5-4759-b717-ac45f54135ca"},"vehicle_type_id":"4","last_reported":1746616156,"current_range_meters":10000,"station_id":"ce4bho92rcd13ifvqh3g","pricing_plan_id":"cebpf4jnsgd1na2vs0mg"},{"bike_id":"58930499-4953-45b4-9f5a-f3afadbf4dce","system_id":"levelo_inurba_marseille","lat":43.23189,"lon":5.35553,"is_reserved":false,"is_disabled":false,"rental_uris":{"android":"levelo://app?vid=58930499-4953-45b4-9f5a-f3afadbf4dce","ios":"levelo://app?vid=58930499-4953-45b4-9f5a-f3afadbf4dce"},"vehicle_type_id":"4","last_reported":1746616156,"current_range_meters":10000,"station_id":"ce4bhu92rcd13ifvqi70","pricing_plan_id":"cebpf4jnsgd1na2vs0mg"},{"bike_id":"8e6de374-7e07-47cf-a8c0-9b1a411738b5","system_id":"levelo_inurba_marseille","lat":43.33765,"lon":5.37434,"is_reserved":false,"is_disabled":false,"rental_uris":{"android":"levelo://app?vid=8e6de374-7e07-47cf-a8c0-9b1a411738b5","ios":"levelo://app?vid=8e6de374-7e07-47cf-a8c0-9b1a411738b5"},"vehicle_type_id":"4","last_reported":1746616156,"current_range_meters":10800,"station_id":"","pricing_plan_id":"cebpf4jnsgd1na2vs0mg"},{"bike_id":"a1b537fb-1e43-449c-9155-8174bc399229","system_id":"levelo_inurba_marseille","lat":43.29927,"lon":5.36543,"is_reserved":false,"is_disabled":false,"rental_uris":{"android":"levelo://app?vid=a1b537fb-1e43-449c-9155-8174bc399229","ios":"levelo://app?vid=a1b537fb-1e43-449c-9155-8174bc399229"},"vehicle_type_id":"4","last_reported":1746616156,"current_range_meters":10800,"station_id":"ce4bgm92rcd13ifvqbr0","pricing_plan_id":"cebpf4jnsgd1na2vs0mg"},{"bike_id":"58863f38-fa91-487d-854c-45c180befb55","system_id":"levelo_inurba_marseille","lat":43.23159,"lon":5.43705,"is_reserved":false,"is_disabled":false,"rental_uris":{"android":"levelo://app?vid=58863f38-fa91-487d-854c-45c180befb55","ios":"levelo://app?vid=58863f38-fa91-487d-854c-45c180befb55"},"vehicle_type_id":"4","last_reported":1746616156,"current_range_meters":10800,"station_id":"ce4bhmp2rcd13ifvqgog","pricing_plan_id":"cebpf4jnsgd1na2vs0mg"},{"bike_id":"741922f7-49ff-4751-a228-5a73f2c8c24d","system_id":"levelo_inurba_marseille","lat":43.241692,"lon":5.363982,"is_reserved":false,"is_disabled":false,"rental_uris":{"android":"levelo://app?vid=741922f7-49ff-4751-a228-5a73f2c8c24d","ios":"levelo://app?vid=741922f7-49ff-4751-a228-5a73f2c8c24d"},"vehicle_type_id":"4","last_reported":1746616156,"current_range_meters":10800,"station_id":"cpo36qri1sfpv3e86is0","pricing_plan_id":"cebpf4jnsgd1na2vs0mg"},{"bike_id":"0cefc7d7-450c-4243-8483-b9d12009d242","system_id":"levelo_inurba_marseille","lat":43.24171,"lon":5.36396,"is_reserved":false,"is_disabled":false,"rental_uris":{"android":"levelo://app?vid=0cefc7d7-450c-4243-8483-b9d12009d242","ios":"levelo://app?vid=0cefc7d7-450c-4243-8483-b9d12009d242"},"vehicle_type_id":"4","last_reported":1746616156,"current_range_meters":11200,"station_id":"cpo36qri1sfpv3e86is0","pricing_plan_id":"cebpf4jnsgd1na2vs0mg"},{"bike_id":"e6b18e1c-4920-4b45-be26-a362f6c0154a","system_id":"levelo_inurba_marseille","lat":43.25867,"lon":5.39899,"is_reserved":false,"is_disabled":false,"rental_uris":{"android":"levelo://app?vid=e6b18e1c-4920-4b45-be26-a362f6c0154a","ios":"levelo://app?vid=e6b18e1c-4920-4b45-be26-a362f6c0154a"},"vehicle_type_id":"4","last_reported":1746616156,"current_range_meters":11600,"station_id":"ce4bhl92rcd13ifvqghg","pricing_plan_id":"cebpf4jnsgd1na2vs0mg"},{"bike_id":"6af8ae95-ba3a-46fb-b5ab-d9e1f018f683","system_id":"levelo_inurba_marseille","lat":43.27939,"lon":5.41049,"is_reserved":false,"is_disabled":false,"rental_uris":{"android":"levelo://app?vid=6af8ae95-ba3a-46fb-b5ab-d9e1f018f683","ios":"levelo://app?vid=6af8ae95-ba3a-46fb-b5ab-d9e1f018f683"},"vehicle_type_id":"4","last_reported":1746616156,"current_range_meters":11600,"station_id":"ce4bhnp2rcd13ifvqh0g","pricing_plan_id":"cebpf4jnsgd1na2vs0mg"},{"bike_id":"d02188af-adb7-44f7-b106-7f55c9bfb3f7","system_id":"levelo_inurba_marseille","lat":43.32338,"lon":5.4062,"is_reserved":false,"is_disabled":false,"rental_uris":{"android":"levelo://app?vid=d02188af-adb7-44f7-b106-7f55c9bfb3f7","ios":"levelo://app?vid=d02188af-adb7-44f7-b106-7f55c9bfb3f7"},"vehicle_type_id":"4","last_reported":1746616156,"current_range_meters":12000,"station_id":"ce4bhq92rcd13ifvqhjg","pricing_plan_id":"cebpf4jnsgd1na2vs0mg"},{"bike_id":"08f095a0-accc-40c8-9f42-42ff6c228fac","system_id":"levelo_inurba_marseille","lat":43.3236,"lon":5.38886,"is_reserved":false,"is_disabled":false,"rental_uris":{"android":"levelo://app?vid=08f095a0-accc-40c8-9f42-42ff6c228fac","ios":"levelo://app?vid=08f095a0-accc-40c8-9f42-42ff6c228fac"},"vehicle_type_id":"4","last_reported":1746616156,"current_range_meters":12000,"station_id":"ce4bhqp2rcd13ifvqhog","pricing_plan_id":"cebpf4jnsgd1na2vs0mg"},{"bike_id":"671f1841-0cef-457d-9875-374b9312a9ed","system_id":"levelo_inurba_marseille","lat":43.29571,"lon":5.3999,"is_reserved":false,"is_disabled":false,"rental_uris":{"android":"levelo://app?vid=671f1841-0cef-457d-9875-374b9312a9ed","ios":"levelo://app?vid=671f1841-0cef-457d-9875-374b9312a9ed"},"vehicle_type_id":"4","last_reported":1746616156,"current_range_meters":12400,"station_id":"ce4bh312rcd13ifvqdj0","pricing_plan_id":"cebpf4jnsgd1na2vs0mg"},{"bike_id":"0894f087-1793-4c32-8bd6-b22216f5bc08","system_id":"levelo_inurba_marseille","lat":43.22933,"lon":5.35382,"is_reserved":false,"is_disabled":false,"rental_uris":{"android":"levelo://app?vid=0894f087-1793-4c32-8bd6-b22216f5bc08","ios":"levelo://app?vid=0894f087-1793-4c32-8bd6-b22216f5bc08"},"vehicle_type_id":"4","last_reported":1746616156,"current_range_meters":12400,"station_id":"cpo3532slgdg3j2ikp40","pricing_plan_id":"cebpf4jnsgd1na2vs0mg"},{"bike_id":"a954004d-c402-4fde-804a-22c82b09324a","system_id":"levelo_inurba_marseille","lat":43.3015,"lon":5.38103,"is_reserved":false,"is_disabled":false,"rental_uris":{"android":"levelo://app?vid=a954004d-c402-4fde-804a-22c82b09324a","ios":"levelo://app?vid=a954004d-c402-4fde-804a-22c82b09324a"},"vehicle_type_id":"4","last_reported":1746616156,"current_range_meters":13600,"station_id":"ce4bgjp2rcd13ifvqbh0","pricing_plan_id":"cebpf4jnsgd1na2vs0mg"},{"bike_id":"cdd63e6b-07a9-49bb-bd26-09e25758cebd","system_id":"levelo_inurba_marseille","lat":43.30435,"lon":5.38889,"is_reserved":false,"is_disabled":false,"rental_uris":{"android":"levelo://app?vid=cdd63e6b-07a9-49bb-bd26-09e25758cebd","ios":"levelo://app?vid=cdd63e6b-07a9-49bb-bd26-09e25758cebd"},"vehicle_type_id":"4","last_reported":1746616156,"current_range_meters":13600,"station_id":"ce4bgk12rcd13ifvqbi0","pricing_plan_id":"cebpf4jnsgd1na2vs0mg"},{"bike_id":"eb477ce2-feb6-4df5-a751-7c89fe162b63","system_id":"levelo_inurba_marseille","lat":43.275,"lon":5.42462,"is_reserved":false,"is_disabled":false,"rental_uris":{"android":"levelo://app?vid=eb477ce2-feb6-4df5-a751-7c89fe162b63","ios":"levelo://app?vid=eb477ce2-feb6-4df5-a751-7c89fe162b63"},"vehicle_type_id":"4","last_reported":1746616156,"current_range_meters":13600,"station_id":"ce4bhn92rcd13ifvqgrg","pricing_plan_id":"cebpf4jnsgd1na2vs0mg"},{"bike_id":"c220a6d3-494e-41f8-a481-c28783f1a812","system_id":"levelo_inurba_marseille","lat":43.27826,"lon":5.40715,"is_reserved":false,"is_disabled":false,"rental_uris":{"android":"levelo://app?vid=c220a6d3-494e-41f8-a481-c28783f1a812","ios":"levelo://app?vid=c220a6d3-494e-41f8-a481-c28783f1a812"},"vehicle_type_id":"4","last_reported":1746616156,"current_range_meters":13600,"station_id":"ce4bhnh2rcd13ifvqgtg","pricing_plan_id":"cebpf4jnsgd1na2vs0mg"},{"bike_id":"a384c2f1-8666-4261-a923-146cbee9a1a5","system_id":"levelo_inurba_marseille","lat":43.28704,"lon":5.39993,"is_reserved":false,"is_disabled":false,"rental_uris":{"android":"levelo://app?vid=a384c2f1-8666-4261-a923-146cbee9a1a5","ios":"levelo://app?vid=a384c2f1-8666-4261-a923-146cbee9a1a5"},"vehicle_type_id":"4","last_reported":1746616156,"current_range_meters":13600,"station_id":"ce4bho92rcd13ifvqh3g","pricing_plan_id":"cebpf4jnsgd1na2vs0mg"},{"bike_id":"e8637d6c-8d4f-4bda-ad7a-d0eb2bf57254","system_id":"levelo_inurba_marseille","lat":43.211935,"lon":5.350723,"is_reserved":false,"is_disabled":false,"rental_uris":{"android":"levelo://app?vid=e8637d6c-8d4f-4bda-ad7a-d0eb2bf57254","ios":"levelo://app?vid=e8637d6c-8d4f-4bda-ad7a-d0eb2bf57254"},"vehicle_type_id":"4","last_reported":1746616156,"current_range_meters":13600,"station_id":"st_cvj6sg6p6f1abm77japg","pricing_plan_id":"cebpf4jnsgd1na2vs0mg"},{"bike_id":"693290ac-4c75-4e47-937a-d99256d657c3","system_id":"levelo_inurba_marseille","lat":43.28663,"lon":5.3867,"is_reserved":false,"is_disabled":false,"rental_uris":{"android":"levelo://app?vid=693290ac-4c75-4e47-937a-d99256d657c3","ios":"levelo://app?vid=693290ac-4c75-4e47-937a-d99256d657c3"},"vehicle_type_id":"4","last_reported":1746616156,"current_range_meters":14000,"station_id":"ce4bh492rcd13ifvqdug","pricing_plan_id":"cebpf4jnsgd1na2vs0mg"},{"bike_id":"558764ca-ef4c-402d-9d42-fa9d9eb87678","system_id":"levelo_inurba_marseille","lat":43.24182,"lon":5.39726,"is_reserved":false,"is_disabled":false,"rental_uris":{"android":"levelo://app?vid=558764ca-ef4c-402d-9d42-fa9d9eb87678","ios":"levelo://app?vid=558764ca-ef4c-402d-9d42-fa9d9eb87678"},"vehicle_type_id":"4","last_reported":1746616156,"current_range_meters":14000,"station_id":"ce4bhn12rcd13ifvqgpg","pricing_plan_id":"cebpf4jnsgd1na2vs0mg"},{"bike_id":"3d85bb0a-5fa2-4497-937a-45ff0968f11f","system_id":"levelo_inurba_marseille","lat":43.30323,"lon":5.40432,"is_reserved":false,"is_disabled":false,"rental_uris":{"android":"levelo://app?vid=3d85bb0a-5fa2-4497-937a-45ff0968f11f","ios":"levelo://app?vid=3d85bb0a-5fa2-4497-937a-45ff0968f11f"},"vehicle_type_id":"4","last_reported":1746616156,"current_range_meters":14400,"station_id":"ce4bh012rcd13ifvqd10","pricing_plan_id":"cebpf4jnsgd1na2vs0mg"},{"bike_id":"47fdd7f8-e4df-4edc-bf26-a92cf466959a","system_id":"levelo_inurba_marseille","lat":43.2593,"lon":5.40899,"is_reserved":false,"is_disabled":false,"rental_uris":{"android":"levelo://app?vid=47fdd7f8-e4df-4edc-bf26-a92cf466959a","ios":"levelo://app?vid=47fdd7f8-e4df-4edc-bf26-a92cf466959a"},"vehicle_type_id":"4","last_reported":1746616156,"current_range_meters":14400,"station_id":"ce4bhm92rcd13ifvqglg","pricing_plan_id":"cebpf4jnsgd1na2vs0mg"},{"bike_id":"8d5dbba9-0928-4218-8a48-5c2aea1a4f12","system_id":"levelo_inurba_marseille","lat":43.22933,"lon":5.35379,"is_reserved":false,"is_disabled":false,"rental_uris":{"android":"levelo://app?vid=8d5dbba9-0928-4218-8a48-5c2aea1a4f12","ios":"levelo://app?vid=8d5dbba9-0928-4218-8a48-5c2aea1a4f12"},"vehicle_type_id":"4","last_reported":1746616156,"current_range_meters":14400,"station_id":"cpo3532slgdg3j2ikp40","pricing_plan_id":"cebpf4jnsgd1na2vs0mg"},{"bike_id":"2adf382b-5eeb-46af-b88f-39a100fac077","system_id":"levelo_inurba_marseille","lat":43.31486,"lon":5.37303,"is_reserved":false,"is_disabled":false,"rental_uris":{"android":"levelo://app?vid=2adf382b-5eeb-46af-b88f-39a100fac077","ios":"levelo://app?vid=2adf382b-5eeb-46af-b88f-39a100fac077"},"vehicle_type_id":"4","last_reported":1746616156,"current_range_meters":14800,"station_id":"ce4bgt12rcd13ifvqcd0","pricing_plan_id":"cebpf4jnsgd1na2vs0mg"},{"bike_id":"78b206c1-705c-47d8-b8ff-ea47cfef47b0","system_id":"levelo_inurba_marseille","lat":43.31822,"lon":5.37264,"is_reserved":false,"is_disabled":false,"rental_uris":{"android":"levelo://app?vid=78b206c1-705c-47d8-b8ff-ea47cfef47b0","ios":"levelo://app?vid=78b206c1-705c-47d8-b8ff-ea47cfef47b0"},"vehicle_type_id":"4","last_reported":1746616156,"current_range_meters":15200,"station_id":"","pricing_plan_id":"cebpf4jnsgd1na2vs0mg"},{"bike_id":"f6342fbe-2f24-4462-ab2a-eabe8cbe3ada","system_id":"levelo_inurba_marseille","lat":43.30597,"lon":5.37242,"is_reserved":false,"is_disabled":false,"rental_uris":{"android":"levelo://app?vid=f6342fbe-2f24-4462-ab2a-eabe8cbe3ada","ios":"levelo://app?vid=f6342fbe-2f24-4462-ab2a-eabe8cbe3ada"},"vehicle_type_id":"4","last_reported":1746616156,"current_range_meters":15200,"station_id":"ce4bgqh2rcd13ifvqc4g","pricing_plan_id":"cebpf4jnsgd1na2vs0mg"},{"bike_id":"171b9665-b73a-4c13-ac81-83ae1d3fc081","system_id":"levelo_inurba_marseille","lat":43.28337,"lon":5.38102,"is_reserved":false,"is_disabled":false,"rental_uris":{"android":"levelo://app?vid=171b9665-b73a-4c13-ac81-83ae1d3fc081","ios":"levelo://app?vid=171b9665-b73a-4c13-ac81-83ae1d3fc081"},"vehicle_type_id":"4","last_reported":1746616156,"current_range_meters":15200,"station_id":"ce4bh412rcd13ifvqdr0","pricing_plan_id":"cebpf4jnsgd1na2vs0mg"},{"bike_id":"6fe807d4-2bb1-4e61-b4dc-8c714e562d48","system_id":"levelo_inurba_marseille","lat":43.26209,"lon":5.37443,"is_reserved":false,"is_disabled":false,"rental_uris":{"android":"levelo://app?vid=6fe807d4-2bb1-4e61-b4dc-8c714e562d48","ios":"levelo://app?vid=6fe807d4-2bb1-4e61-b4dc-8c714e562d48"},"vehicle_type_id":"4","last_reported":1746616156,"current_range_meters":15200,"station_id":"ce4bhgp2rcd13ifvqfc0","pricing_plan_id":"cebpf4jnsgd1na2vs0mg"},{"bike_id":"25a5fe2d-c149-47ad-a876-809075f6c85f","system_id":"levelo_inurba_marseille","lat":43.313423,"lon":5.367297,"is_reserved":false,"is_disabled":false,"rental_uris":{"android":"levelo://app?vid=25a5fe2d-c149-47ad-a876-809075f6c85f","ios":"levelo://app?vid=25a5fe2d-c149-47ad-a876-809075f6c85f"},"vehicle_type_id":"4","last_reported":1746616156,"current_range_meters":16000,"station_id":"ce4bgr92rcd13ifvqc6g","pricing_plan_id":"cebpf4jnsgd1na2vs0mg"},{"bike_id":"c1442aed-f703-40a2-b618-3e04d69eace8","system_id":"levelo_inurba_marseille","lat":43.29865,"lon":5.39734,"is_reserved":false,"is_disabled":false,"rental_uris":{"android":"levelo://app?vid=c1442aed-f703-40a2-b618-3e04d69eace8","ios":"levelo://app?vid=c1442aed-f703-40a2-b618-3e04d69eace8"},"vehicle_type_id":"4","last_reported":1746616156,"current_range_meters":16000,"station_id":"ce4bh0h2rcd13ifvqd50","pricing_plan_id":"cebpf4jnsgd1na2vs0mg"},{"bike_id":"ee78e03a-0afa-4176-9461-8cd9d0c929c1","system_id":"levelo_inurba_marseille","lat":43.26561,"lon":5.37304,"is_reserved":false,"is_disabled":false,"rental_uris":{"android":"levelo://app?vid=ee78e03a-0afa-4176-9461-8cd9d0c929c1","ios":"levelo://app?vid=ee78e03a-0afa-4176-9461-8cd9d0c929c1"},"vehicle_type_id":"4","last_reported":1746616156,"current_range_meters":16000,"station_id":"ce4bhg12rcd13ifvqf70","pricing_plan_id":"cebpf4jnsgd1na2vs0mg"},{"bike_id":"63e7474f-7390-4779-a523-48629fb113d5","system_id":"levelo_inurba_marseille","lat":43.26199,"lon":5.37929,"is_reserved":false,"is_disabled":false,"rental_uris":{"android":"levelo://app?vid=63e7474f-7390-4779-a523-48629fb113d5","ios":"levelo://app?vid=63e7474f-7390-4779-a523-48629fb113d5"},"vehicle_type_id":"4","last_reported":1746616156,"current_range_meters":16000,"station_id":"ce4bhjp2rcd13ifvqg90","pricing_plan_id":"cebpf4jnsgd1na2vs0mg"},{"bike_id":"7fb601c2-34c8-4c04-8462-d134ca8070cf","system_id":"levelo_inurba_marseille","lat":43.27069,"lon":5.42291,"is_reserved":false,"is_disabled":false,"rental_uris":{"android":"levelo://app?vid=7fb601c2-34c8-4c04-8462-d134ca8070cf","ios":"levelo://app?vid=7fb601c2-34c8-4c04-8462-d134ca8070cf"},"vehicle_type_id":"4","last_reported":1746616156,"current_range_meters":16000,"station_id":"ce4bhk92rcd13ifvqgb0","pricing_plan_id":"cebpf4jnsgd1na2vs0mg"},{"bike_id":"47c36b03-4567-4e44-bd14-262b55ce62fc","system_id":"levelo_inurba_marseille","lat":43.25928,"lon":5.40914,"is_reserved":false,"is_disabled":false,"rental_uris":{"android":"levelo://app?vid=47c36b03-4567-4e44-bd14-262b55ce62fc","ios":"levelo://app?vid=47c36b03-4567-4e44-bd14-262b55ce62fc"},"vehicle_type_id":"4","last_reported":1746616156,"current_range_meters":16000,"station_id":"ce4bhm92rcd13ifvqglg","pricing_plan_id":"cebpf4jnsgd1na2vs0mg"},{"bike_id":"fe64d731-d67c-4d77-9da4-68123d43a29a","system_id":"levelo_inurba_marseille","lat":43.3093,"lon":5.40156,"is_reserved":false,"is_disabled":false,"rental_uris":{"android":"levelo://app?vid=fe64d731-d67c-4d77-9da4-68123d43a29a","ios":"levelo://app?vid=fe64d731-d67c-4d77-9da4-68123d43a29a"},"vehicle_type_id":"4","last_reported":1746616156,"current_range_meters":16800,"station_id":"ce4bgvp2rcd13ifvqct0","pricing_plan_id":"cebpf4jnsgd1na2vs0mg"},{"bike_id":"5ae83dbd-30c8-4c3a-a436-201ee5102df3","system_id":"levelo_inurba_marseille","lat":43.29079,"lon":5.37167,"is_reserved":false,"is_disabled":false,"rental_uris":{"android":"levelo://app?vid=5ae83dbd-30c8-4c3a-a436-201ee5102df3","ios":"levelo://app?vid=5ae83dbd-30c8-4c3a-a436-201ee5102df3"},"vehicle_type_id":"4","last_reported":1746616156,"current_range_meters":16800,"station_id":"ce4bh5p2rcd13ifvqe4g","pricing_plan_id":"cebpf4jnsgd1na2vs0mg"},{"bike_id":"1bad2913-39ec-45c2-ba13-162384e2b89f","system_id":"levelo_inurba_marseille","lat":43.27089,"lon":5.423178,"is_reserved":false,"is_disabled":false,"rental_uris":{"android":"levelo://app?vid=1bad2913-39ec-45c2-ba13-162384e2b89f","ios":"levelo://app?vid=1bad2913-39ec-45c2-ba13-162384e2b89f"},"vehicle_type_id":"4","last_reported":1746616156,"current_range_meters":16800,"station_id":"ce4bhk92rcd13ifvqgb0","pricing_plan_id":"cebpf4jnsgd1na2vs0mg"},{"bike_id":"5fbbe59f-7c0b-416c-a7d1-175359f59d04","system_id":"levelo_inurba_marseille","lat":43.2749,"lon":5.42451,"is_reserved":false,"is_disabled":false,"rental_uris":{"android":"levelo://app?vid=5fbbe59f-7c0b-416c-a7d1-175359f59d04","ios":"levelo://app?vid=5fbbe59f-7c0b-416c-a7d1-175359f59d04"},"vehicle_type_id":"4","last_reported":1746616156,"current_range_meters":16800,"station_id":"ce4bhn92rcd13ifvqgrg","pricing_plan_id":"cebpf4jnsgd1na2vs0mg"},{"bike_id":"8d7b1f33-f881-4440-a37b-ee97db8071e3","system_id":"levelo_inurba_marseille","lat":43.32034,"lon":5.41556,"is_reserved":false,"is_disabled":false,"rental_uris":{"android":"levelo://app?vid=8d7b1f33-f881-4440-a37b-ee97db8071e3","ios":"levelo://app?vid=8d7b1f33-f881-4440-a37b-ee97db8071e3"},"vehicle_type_id":"4","last_reported":1746616156,"current_range_meters":16800,"station_id":"ce4bhq92rcd13ifvqhkg","pricing_plan_id":"cebpf4jnsgd1na2vs0mg"},{"bike_id":"c64e4ac6-0437-4f26-ac08-b7b40e7ad3a0","system_id":"levelo_inurba_marseille","lat":43.27048,"lon":5.40262,"is_reserved":false,"is_disabled":false,"rental_uris":{"android":"levelo://app?vid=c64e4ac6-0437-4f26-ac08-b7b40e7ad3a0","ios":"levelo://app?vid=c64e4ac6-0437-4f26-ac08-b7b40e7ad3a0"},"vehicle_type_id":"4","last_reported":1746616156,"current_range_meters":17200,"station_id":"ce4bhk92rcd13ifvqgc0","pricing_plan_id":"cebpf4jnsgd1na2vs0mg"},{"bike_id":"b8bb0d6d-d682-4df7-80c5-da64e9c95891","system_id":"levelo_inurba_marseille","lat":43.25951,"lon":5.40813,"is_reserved":false,"is_disabled":false,"rental_uris":{"android":"levelo://app?vid=b8bb0d6d-d682-4df7-80c5-da64e9c95891","ios":"levelo://app?vid=b8bb0d6d-d682-4df7-80c5-da64e9c95891"},"vehicle_type_id":"4","last_reported":1746616156,"current_range_meters":17200,"station_id":"ce4bhm92rcd13ifvqglg","pricing_plan_id":"cebpf4jnsgd1na2vs0mg"},{"bike_id":"2c064b92-eb8e-4785-b6d7-fab160cee685","system_id":"levelo_inurba_marseille","lat":43.27942,"lon":5.41052,"is_reserved":false,"is_disabled":false,"rental_uris":{"android":"levelo://app?vid=2c064b92-eb8e-4785-b6d7-fab160cee685","ios":"levelo://app?vid=2c064b92-eb8e-4785-b6d7-fab160cee685"},"vehicle_type_id":"4","last_reported":1746616156,"current_range_meters":17200,"station_id":"ce4bhnp2rcd13ifvqh0g","pricing_plan_id":"cebpf4jnsgd1na2vs0mg"},{"bike_id":"b5d60511-fbcf-4431-a06d-e92992639e66","system_id":"levelo_inurba_marseille","lat":43.287012,"lon":5.399855,"is_reserved":false,"is_disabled":false,"rental_uris":{"android":"levelo://app?vid=b5d60511-fbcf-4431-a06d-e92992639e66","ios":"levelo://app?vid=b5d60511-fbcf-4431-a06d-e92992639e66"},"vehicle_type_id":"4","last_reported":1746616156,"current_range_meters":17200,"station_id":"ce4bho92rcd13ifvqh3g","pricing_plan_id":"cebpf4jnsgd1na2vs0mg"},{"bike_id":"6cce1156-f773-4808-ad62-c8ccf484b6ea","system_id":"levelo_inurba_marseille","lat":43.31238,"lon":5.36849,"is_reserved":false,"is_disabled":false,"rental_uris":{"android":"levelo://app?vid=6cce1156-f773-4808-ad62-c8ccf484b6ea","ios":"levelo://app?vid=6cce1156-f773-4808-ad62-c8ccf484b6ea"},"vehicle_type_id":"4","last_reported":1746616156,"current_range_meters":17600,"station_id":"ce4bgl92rcd13ifvqbq0","pricing_plan_id":"cebpf4jnsgd1na2vs0mg"},{"bike_id":"1bff6b94-db23-44bb-860a-90488f5c0ea1","system_id":"levelo_inurba_marseille","lat":43.29712,"lon":5.36608,"is_reserved":false,"is_disabled":false,"rental_uris":{"android":"levelo://app?vid=1bff6b94-db23-44bb-860a-90488f5c0ea1","ios":"levelo://app?vid=1bff6b94-db23-44bb-860a-90488f5c0ea1"},"vehicle_type_id":"4","last_reported":1746616156,"current_range_meters":17600,"station_id":"ce4bgn12rcd13ifvqbt0","pricing_plan_id":"cebpf4jnsgd1na2vs0mg"},{"bike_id":"63af6f78-57d5-4f3d-9494-a6d72ff84dc1","system_id":"levelo_inurba_marseille","lat":43.21172,"lon":5.35055,"is_reserved":false,"is_disabled":false,"rental_uris":{"android":"levelo://app?vid=63af6f78-57d5-4f3d-9494-a6d72ff84dc1","ios":"levelo://app?vid=63af6f78-57d5-4f3d-9494-a6d72ff84dc1"},"vehicle_type_id":"4","last_reported":1746616156,"current_range_meters":17600,"station_id":"st_cvj6sg6p6f1abm77japg","pricing_plan_id":"cebpf4jnsgd1na2vs0mg"},{"bike_id":"2ef2ebd1-bdfa-4679-8156-f62d2ffdfb1d","system_id":"levelo_inurba_marseille","lat":43.29249,"lon":5.37625,"is_reserved":false,"is_disabled":false,"rental_uris":{"android":"levelo://app?vid=2ef2ebd1-bdfa-4679-8156-f62d2ffdfb1d","ios":"levelo://app?vid=2ef2ebd1-bdfa-4679-8156-f62d2ffdfb1d"},"vehicle_type_id":"4","last_reported":1746616156,"current_range_meters":18000,"station_id":"ce4bgi12rcd13ifvqb80","pricing_plan_id":"cebpf4jnsgd1na2vs0mg"},{"bike_id":"caa6fd07-36d5-4eea-b528-9734e84e8de0","system_id":"levelo_inurba_marseille","lat":43.30519,"lon":5.36518,"is_reserved":false,"is_disabled":false,"rental_uris":{"android":"levelo://app?vid=caa6fd07-36d5-4eea-b528-9734e84e8de0","ios":"levelo://app?vid=caa6fd07-36d5-4eea-b528-9734e84e8de0"},"vehicle_type_id":"4","last_reported":1746616156,"current_range_meters":18000,"station_id":"ce4bgs12rcd13ifvqcag","pricing_plan_id":"cebpf4jnsgd1na2vs0mg"},{"bike_id":"bb745cee-af37-4b23-afc5-3d5aa5ce7aed","system_id":"levelo_inurba_marseille","lat":43.26231,"lon":5.40432,"is_reserved":false,"is_disabled":false,"rental_uris":{"android":"levelo://app?vid=bb745cee-af37-4b23-afc5-3d5aa5ce7aed","ios":"levelo://app?vid=bb745cee-af37-4b23-afc5-3d5aa5ce7aed"},"vehicle_type_id":"4","last_reported":1746616156,"current_range_meters":18000,"station_id":"ce4bhmh2rcd13ifvqgmg","pricing_plan_id":"cebpf4jnsgd1na2vs0mg"},{"bike_id":"65e0f670-0f03-44fb-8e56-22260fb3caee","system_id":"levelo_inurba_marseille","lat":43.31086,"lon":5.4244,"is_reserved":false,"is_disabled":false,"rental_uris":{"android":"levelo://app?vid=65e0f670-0f03-44fb-8e56-22260fb3caee","ios":"levelo://app?vid=65e0f670-0f03-44fb-8e56-22260fb3caee"},"vehicle_type_id":"4","last_reported":1746616156,"current_range_meters":18000,"station_id":"ce4bhp92rcd13ifvqhag","pricing_plan_id":"cebpf4jnsgd1na2vs0mg"},{"bike_id":"58c5b238-991c-45e7-b5fa-a67f0fa2d3e1","system_id":"levelo_inurba_marseille","lat":43.28964,"lon":5.38835,"is_reserved":false,"is_disabled":false,"rental_uris":{"android":"levelo://app?vid=58c5b238-991c-45e7-b5fa-a67f0fa2d3e1","ios":"levelo://app?vid=58c5b238-991c-45e7-b5fa-a67f0fa2d3e1"},"vehicle_type_id":"4","last_reported":1746616156,"current_range_meters":18800,"station_id":"","pricing_plan_id":"cebpf4jnsgd1na2vs0mg"},{"bike_id":"ab8767a6-1a84-4387-892b-2a41bb8df978","system_id":"levelo_inurba_marseille","lat":43.29849,"lon":5.36273,"is_reserved":false,"is_disabled":false,"rental_uris":{"android":"levelo://app?vid=ab8767a6-1a84-4387-892b-2a41bb8df978","ios":"levelo://app?vid=ab8767a6-1a84-4387-892b-2a41bb8df978"},"vehicle_type_id":"4","last_reported":1746616156,"current_range_meters":18800,"station_id":"ce4bgpp2rcd13ifvqc3g","pricing_plan_id":"cebpf4jnsgd1na2vs0mg"},{"bike_id":"3f654694-0acd-4b14-8018-22e184216a6d","system_id":"levelo_inurba_marseille","lat":43.29418,"lon":5.38629,"is_reserved":false,"is_disabled":false,"rental_uris":{"android":"levelo://app?vid=3f654694-0acd-4b14-8018-22e184216a6d","ios":"levelo://app?vid=3f654694-0acd-4b14-8018-22e184216a6d"},"vehicle_type_id":"4","last_reported":1746616156,"current_range_meters":18800,"station_id":"ce4bh2h2rcd13ifvqdh0","pricing_plan_id":"cebpf4jnsgd1na2vs0mg"},{"bike_id":"b1d7eb78-9507-43c3-ac68-2b2ff2c7c6c6","system_id":"levelo_inurba_marseille","lat":43.2919,"lon":5.35802,"is_reserved":false,"is_disabled":false,"rental_uris":{"android":"levelo://app?vid=b1d7eb78-9507-43c3-ac68-2b2ff2c7c6c6","ios":"levelo://app?vid=b1d7eb78-9507-43c3-ac68-2b2ff2c7c6c6"},"vehicle_type_id":"4","last_reported":1746616156,"current_range_meters":18800,"station_id":"ce4bhb12rcd13ifvqel0","pricing_plan_id":"cebpf4jnsgd1na2vs0mg"},{"bike_id":"a85184b1-6a5f-45f0-b8b3-629c855e8aa3","system_id":"levelo_inurba_marseille","lat":43.26558,"lon":5.37282,"is_reserved":false,"is_disabled":false,"rental_uris":{"android":"levelo://app?vid=a85184b1-6a5f-45f0-b8b3-629c855e8aa3","ios":"levelo://app?vid=a85184b1-6a5f-45f0-b8b3-629c855e8aa3"},"vehicle_type_id":"4","last_reported":1746616156,"current_range_meters":19200,"station_id":"ce4bhg12rcd13ifvqf70","pricing_plan_id":"cebpf4jnsgd1na2vs0mg"},{"bike_id":"9a709650-c551-4005-bb43-d73f607a0cd1","system_id":"levelo_inurba_marseille","lat":43.24391,"lon":5.37049,"is_reserved":false,"is_disabled":false,"rental_uris":{"android":"levelo://app?vid=9a709650-c551-4005-bb43-d73f607a0cd1","ios":"levelo://app?vid=9a709650-c551-4005-bb43-d73f607a0cd1"},"vehicle_type_id":"4","last_reported":1746616156,"current_range_meters":19200,"station_id":"ce4bhhh2rcd13ifvqfk0","pricing_plan_id":"cebpf4jnsgd1na2vs0mg"},{"bike_id":"0c966390-6984-4bc7-a793-18d9bcddc50c","system_id":"levelo_inurba_marseille","lat":43.27492,"lon":5.42457,"is_reserved":false,"is_disabled":false,"rental_uris":{"android":"levelo://app?vid=0c966390-6984-4bc7-a793-18d9bcddc50c","ios":"levelo://app?vid=0c966390-6984-4bc7-a793-18d9bcddc50c"},"vehicle_type_id":"4","last_reported":1746616156,"current_range_meters":19200,"station_id":"ce4bhn92rcd13ifvqgrg","pricing_plan_id":"cebpf4jnsgd1na2vs0mg"},{"bike_id":"7cb84a55-eae0-4ff8-a8e8-801fd7179396","system_id":"levelo_inurba_marseille","lat":43.30626,"lon":5.37448,"is_reserved":false,"is_disabled":false,"rental_uris":{"android":"levelo://app?vid=7cb84a55-eae0-4ff8-a8e8-801fd7179396","ios":"levelo://app?vid=7cb84a55-eae0-4ff8-a8e8-801fd7179396"},"vehicle_type_id":"4","last_reported":1746616156,"current_range_meters":19600,"station_id":"","pricing_plan_id":"cebpf4jnsgd1na2vs0mg"},{"bike_id":"cdee5154-6cd3-48a2-bf1f-2a7441fc1859","system_id":"levelo_inurba_marseille","lat":43.2987,"lon":5.39737,"is_reserved":false,"is_disabled":false,"rental_uris":{"android":"levelo://app?vid=cdee5154-6cd3-48a2-bf1f-2a7441fc1859","ios":"levelo://app?vid=cdee5154-6cd3-48a2-bf1f-2a7441fc1859"},"vehicle_type_id":"4","last_reported":1746616156,"current_range_meters":19600,"station_id":"ce4bh0h2rcd13ifvqd50","pricing_plan_id":"cebpf4jnsgd1na2vs0mg"},{"bike_id":"ba84c1a8-9b00-4661-a64a-495c34ec76ee","system_id":"levelo_inurba_marseille","lat":43.28372,"lon":5.3864,"is_reserved":false,"is_disabled":false,"rental_uris":{"android":"levelo://app?vid=ba84c1a8-9b00-4661-a64a-495c34ec76ee","ios":"levelo://app?vid=ba84c1a8-9b00-4661-a64a-495c34ec76ee"},"vehicle_type_id":"4","last_reported":1746616156,"current_range_meters":19600,"station_id":"ce4bh492rcd13ifvqdvg","pricing_plan_id":"cebpf4jnsgd1na2vs0mg"},{"bike_id":"ca750724-55cd-4f72-91ca-fb53a3508121","system_id":"levelo_inurba_marseille","lat":43.29192,"lon":5.35801,"is_reserved":false,"is_disabled":false,"rental_uris":{"android":"levelo://app?vid=ca750724-55cd-4f72-91ca-fb53a3508121","ios":"levelo://app?vid=ca750724-55cd-4f72-91ca-fb53a3508121"},"vehicle_type_id":"4","last_reported":1746616156,"current_range_meters":19600,"station_id":"ce4bhb12rcd13ifvqel0","pricing_plan_id":"cebpf4jnsgd1na2vs0mg"},{"bike_id":"e5401d68-eac2-492e-9113-2f9588f85793","system_id":"levelo_inurba_marseille","lat":43.2408,"lon":5.37746,"is_reserved":false,"is_disabled":false,"rental_uris":{"android":"levelo://app?vid=e5401d68-eac2-492e-9113-2f9588f85793","ios":"levelo://app?vid=e5401d68-eac2-492e-9113-2f9588f85793"},"vehicle_type_id":"4","last_reported":1746616156,"current_range_meters":19600,"station_id":"ce4bhnp2rcd13ifvqgvg","pricing_plan_id":"cebpf4jnsgd1na2vs0mg"},{"bike_id":"61b7bf8c-00ae-4280-9015-f0af790fa2b1","system_id":"levelo_inurba_marseille","lat":43.33601,"lon":5.41018,"is_reserved":false,"is_disabled":false,"rental_uris":{"android":"levelo://app?vid=61b7bf8c-00ae-4280-9015-f0af790fa2b1","ios":"levelo://app?vid=61b7bf8c-00ae-4280-9015-f0af790fa2b1"},"vehicle_type_id":"4","last_reported":1746616156,"current_range_meters":19600,"station_id":"ce4bhqh2rcd13ifvqhmg","pricing_plan_id":"cebpf4jnsgd1na2vs0mg"},{"bike_id":"46f83161-f60c-4f7c-9541-c0bb26d0ae24","system_id":"levelo_inurba_marseille","lat":43.21763,"lon":5.34579,"is_reserved":false,"is_disabled":false,"rental_uris":{"android":"levelo://app?vid=46f83161-f60c-4f7c-9541-c0bb26d0ae24","ios":"levelo://app?vid=46f83161-f60c-4f7c-9541-c0bb26d0ae24"},"vehicle_type_id":"4","last_reported":1746616156,"current_range_meters":19600,"station_id":"st_cvj6r9ubvosntc0bgbag","pricing_plan_id":"cebpf4jnsgd1na2vs0mg"},{"bike_id":"5685c192-af0e-432e-a78b-7859fcd0e0d6","system_id":"levelo_inurba_marseille","lat":43.30953,"lon":5.37914,"is_reserved":false,"is_disabled":false,"rental_uris":{"android":"levelo://app?vid=5685c192-af0e-432e-a78b-7859fcd0e0d6","ios":"levelo://app?vid=5685c192-af0e-432e-a78b-7859fcd0e0d6"},"vehicle_type_id":"4","last_reported":1746616156,"current_range_meters":20000,"station_id":"","pricing_plan_id":"cebpf4jnsgd1na2vs0mg"},{"bike_id":"0c0bfaeb-0fc2-49c0-9786-df07561dc140","system_id":"levelo_inurba_marseille","lat":43.2904,"lon":5.37572,"is_reserved":false,"is_disabled":false,"rental_uris":{"android":"levelo://app?vid=0c0bfaeb-0fc2-49c0-9786-df07561dc140","ios":"levelo://app?vid=0c0bfaeb-0fc2-49c0-9786-df07561dc140"},"vehicle_type_id":"4","last_reported":1746616156,"current_range_meters":20000,"station_id":"ce4bh692rcd13ifvqe90","pricing_plan_id":"cebpf4jnsgd1na2vs0mg"},{"bike_id":"676578af-a620-4582-ae16-57b6603e1767","system_id":"levelo_inurba_marseille","lat":43.28942,"lon":5.36634,"is_reserved":false,"is_disabled":false,"rental_uris":{"android":"levelo://app?vid=676578af-a620-4582-ae16-57b6603e1767","ios":"levelo://app?vid=676578af-a620-4582-ae16-57b6603e1767"},"vehicle_type_id":"4","last_reported":1746616156,"current_range_meters":20000,"station_id":"ce4bhap2rcd13ifvqek0","pricing_plan_id":"cebpf4jnsgd1na2vs0mg"},{"bike_id":"e65f9312-deec-4046-87f0-980bf1b77ad4","system_id":"levelo_inurba_marseille","lat":43.25114,"lon":5.40311,"is_reserved":false,"is_disabled":false,"rental_uris":{"android":"levelo://app?vid=e65f9312-deec-4046-87f0-980bf1b77ad4","ios":"levelo://app?vid=e65f9312-deec-4046-87f0-980bf1b77ad4"},"vehicle_type_id":"4","last_reported":1746616156,"current_range_meters":20000,"station_id":"ce4bhlh2rcd13ifvqgig","pricing_plan_id":"cebpf4jnsgd1na2vs0mg"},{"bike_id":"34a08652-a461-4d08-aa72-ab7aba79f3aa","system_id":"levelo_inurba_marseille","lat":43.27943,"lon":5.41054,"is_reserved":false,"is_disabled":false,"rental_uris":{"android":"levelo://app?vid=34a08652-a461-4d08-aa72-ab7aba79f3aa","ios":"levelo://app?vid=34a08652-a461-4d08-aa72-ab7aba79f3aa"},"vehicle_type_id":"4","last_reported":1746616156,"current_range_meters":20000,"station_id":"ce4bhnp2rcd13ifvqh0g","pricing_plan_id":"cebpf4jnsgd1na2vs0mg"},{"bike_id":"de170fb4-d83c-4634-81e8-e6a53a7685d7","system_id":"levelo_inurba_marseille","lat":43.30464,"lon":5.37909,"is_reserved":false,"is_disabled":false,"rental_uris":{"android":"levelo://app?vid=de170fb4-d83c-4634-81e8-e6a53a7685d7","ios":"levelo://app?vid=de170fb4-d83c-4634-81e8-e6a53a7685d7"},"vehicle_type_id":"4","last_reported":1746616156,"current_range_meters":20400,"station_id":"ce4bgup2rcd13ifvqcn0","pricing_plan_id":"cebpf4jnsgd1na2vs0mg"},{"bike_id":"76e89187-38d1-41dc-b9a2-cf070c4ebfac","system_id":"levelo_inurba_marseille","lat":43.3046,"lon":5.37899,"is_reserved":false,"is_disabled":false,"rental_uris":{"android":"levelo://app?vid=76e89187-38d1-41dc-b9a2-cf070c4ebfac","ios":"levelo://app?vid=76e89187-38d1-41dc-b9a2-cf070c4ebfac"},"vehicle_type_id":"4","last_reported":1746616156,"current_range_meters":20400,"station_id":"ce4bgup2rcd13ifvqcn0","pricing_plan_id":"cebpf4jnsgd1na2vs0mg"},{"bike_id":"d94c20e4-06da-46e7-91de-34f9559e18ac","system_id":"levelo_inurba_marseille","lat":43.26557,"lon":5.372843,"is_reserved":false,"is_disabled":false,"rental_uris":{"android":"levelo://app?vid=d94c20e4-06da-46e7-91de-34f9559e18ac","ios":"levelo://app?vid=d94c20e4-06da-46e7-91de-34f9559e18ac"},"vehicle_type_id":"4","last_reported":1746616156,"current_range_meters":20400,"station_id":"ce4bhg12rcd13ifvqf70","pricing_plan_id":"cebpf4jnsgd1na2vs0mg"},{"bike_id":"8069d79b-c1e6-4c70-8535-0b88e0d338ba","system_id":"levelo_inurba_marseille","lat":43.30952,"lon":5.3903,"is_reserved":false,"is_disabled":false,"rental_uris":{"android":"levelo://app?vid=8069d79b-c1e6-4c70-8535-0b88e0d338ba","ios":"levelo://app?vid=8069d79b-c1e6-4c70-8535-0b88e0d338ba"},"vehicle_type_id":"4","last_reported":1746616156,"current_range_meters":20800,"station_id":"ce4bgup2rcd13ifvqco0","pricing_plan_id":"cebpf4jnsgd1na2vs0mg"},{"bike_id":"13e8531a-9f06-4188-b87e-4170cff0f30f","system_id":"levelo_inurba_marseille","lat":43.30213,"lon":5.39465,"is_reserved":false,"is_disabled":false,"rental_uris":{"android":"levelo://app?vid=13e8531a-9f06-4188-b87e-4170cff0f30f","ios":"levelo://app?vid=13e8531a-9f06-4188-b87e-4170cff0f30f"},"vehicle_type_id":"4","last_reported":1746616156,"current_range_meters":20800,"station_id":"ce4bh0p2rcd13ifvqd70","pricing_plan_id":"cebpf4jnsgd1na2vs0mg"},{"bike_id":"b69c2382-b01a-4829-b429-9b2bb19e9a77","system_id":"levelo_inurba_marseille","lat":43.29275,"lon":5.36844,"is_reserved":false,"is_disabled":false,"rental_uris":{"android":"levelo://app?vid=b69c2382-b01a-4829-b429-9b2bb19e9a77","ios":"levelo://app?vid=b69c2382-b01a-4829-b429-9b2bb19e9a77"},"vehicle_type_id":"4","last_reported":1746616156,"current_range_meters":20800,"station_id":"ce4bhbp2rcd13ifvqesg","pricing_plan_id":"cebpf4jnsgd1na2vs0mg"},{"bike_id":"b49e0842-3f76-4954-ba1d-b21797b1f1d3","system_id":"levelo_inurba_marseille","lat":43.25583,"lon":5.38236,"is_reserved":false,"is_disabled":false,"rental_uris":{"android":"levelo://app?vid=b49e0842-3f76-4954-ba1d-b21797b1f1d3","ios":"levelo://app?vid=b49e0842-3f76-4954-ba1d-b21797b1f1d3"},"vehicle_type_id":"4","last_reported":1746616156,"current_range_meters":20800,"station_id":"ce4bhih2rcd13ifvqfs0","pricing_plan_id":"cebpf4jnsgd1na2vs0mg"},{"bike_id":"f46dc929-7e07-4d28-9326-a2031223c9ef","system_id":"levelo_inurba_marseille","lat":43.25931,"lon":5.4091,"is_reserved":false,"is_disabled":false,"rental_uris":{"android":"levelo://app?vid=f46dc929-7e07-4d28-9326-a2031223c9ef","ios":"levelo://app?vid=f46dc929-7e07-4d28-9326-a2031223c9ef"},"vehicle_type_id":"4","last_reported":1746616156,"current_range_meters":20800,"station_id":"ce4bhm92rcd13ifvqglg","pricing_plan_id":"cebpf4jnsgd1na2vs0mg"},{"bike_id":"c88e8600-b98d-4d03-a751-95970359f5ca","system_id":"levelo_inurba_marseille","lat":43.29289,"lon":5.37618,"is_reserved":false,"is_disabled":false,"rental_uris":{"android":"levelo://app?vid=c88e8600-b98d-4d03-a751-95970359f5ca","ios":"levelo://app?vid=c88e8600-b98d-4d03-a751-95970359f5ca"},"vehicle_type_id":"4","last_reported":1746616156,"current_range_meters":21600,"station_id":"ce4bgi12rcd13ifvqb80","pricing_plan_id":"cebpf4jnsgd1na2vs0mg"},{"bike_id":"b97a59f9-799f-4ee7-890c-858b7f86d992","system_id":"levelo_inurba_marseille","lat":43.31164,"lon":5.38719,"is_reserved":false,"is_disabled":false,"rental_uris":{"android":"levelo://app?vid=b97a59f9-799f-4ee7-890c-858b7f86d992","ios":"levelo://app?vid=b97a59f9-799f-4ee7-890c-858b7f86d992"},"vehicle_type_id":"4","last_reported":1746616156,"current_range_meters":21600,"station_id":"ce4bgv12rcd13ifvqcp0","pricing_plan_id":"cebpf4jnsgd1na2vs0mg"},{"bike_id":"d2f3bf87-e007-4abb-ab8a-d2210f45ed07","system_id":"levelo_inurba_marseille","lat":43.262025,"lon":5.379332,"is_reserved":false,"is_disabled":false,"rental_uris":{"android":"levelo://app?vid=d2f3bf87-e007-4abb-ab8a-d2210f45ed07","ios":"levelo://app?vid=d2f3bf87-e007-4abb-ab8a-d2210f45ed07"},"vehicle_type_id":"4","last_reported":1746616156,"current_range_meters":21600,"station_id":"ce4bhjp2rcd13ifvqg90","pricing_plan_id":"cebpf4jnsgd1na2vs0mg"},{"bike_id":"ea0bf19f-5d28-4c6e-a0a6-6c8cdbb1aefd","system_id":"levelo_inurba_marseille","lat":43.32481,"lon":5.3656,"is_reserved":false,"is_disabled":false,"rental_uris":{"android":"levelo://app?vid=ea0bf19f-5d28-4c6e-a0a6-6c8cdbb1aefd","ios":"levelo://app?vid=ea0bf19f-5d28-4c6e-a0a6-6c8cdbb1aefd"},"vehicle_type_id":"4","last_reported":1746616156,"current_range_meters":21600,"station_id":"ce4bhs12rcd13ifvqhvg","pricing_plan_id":"cebpf4jnsgd1na2vs0mg"},{"bike_id":"70a29a45-574c-4ff1-aca3-740aa0e705be","system_id":"levelo_inurba_marseille","lat":43.24202,"lon":5.36379,"is_reserved":false,"is_disabled":false,"rental_uris":{"android":"levelo://app?vid=70a29a45-574c-4ff1-aca3-740aa0e705be","ios":"levelo://app?vid=70a29a45-574c-4ff1-aca3-740aa0e705be"},"vehicle_type_id":"4","last_reported":1746616156,"current_range_meters":21600,"station_id":"cpo36qri1sfpv3e86is0","pricing_plan_id":"cebpf4jnsgd1na2vs0mg"},{"bike_id":"a38c5fcd-2a3e-4e2c-b5be-bfb908394086","system_id":"levelo_inurba_marseille","lat":43.32786,"lon":5.39129,"is_reserved":false,"is_disabled":false,"rental_uris":{"android":"levelo://app?vid=a38c5fcd-2a3e-4e2c-b5be-bfb908394086","ios":"levelo://app?vid=a38c5fcd-2a3e-4e2c-b5be-bfb908394086"},"vehicle_type_id":"4","last_reported":1746616156,"current_range_meters":22000,"station_id":"","pricing_plan_id":"cebpf4jnsgd1na2vs0mg"},{"bike_id":"1d542622-f5e7-453d-ac3d-edc676e58d8a","system_id":"levelo_inurba_marseille","lat":43.26558,"lon":5.37298,"is_reserved":false,"is_disabled":false,"rental_uris":{"android":"levelo://app?vid=1d542622-f5e7-453d-ac3d-edc676e58d8a","ios":"levelo://app?vid=1d542622-f5e7-453d-ac3d-edc676e58d8a"},"vehicle_type_id":"4","last_reported":1746616156,"current_range_meters":22000,"station_id":"ce4bhg12rcd13ifvqf70","pricing_plan_id":"cebpf4jnsgd1na2vs0mg"},{"bike_id":"ea755b20-5061-4efe-a06c-1d365db29b20","system_id":"levelo_inurba_marseille","lat":43.2481,"lon":5.37461,"is_reserved":false,"is_disabled":false,"rental_uris":{"android":"levelo://app?vid=ea755b20-5061-4efe-a06c-1d365db29b20","ios":"levelo://app?vid=ea755b20-5061-4efe-a06c-1d365db29b20"},"vehicle_type_id":"4","last_reported":1746616156,"current_range_meters":22000,"station_id":"ce4bhgh2rcd13ifvqfb0","pricing_plan_id":"cebpf4jnsgd1na2vs0mg"},{"bike_id":"1c321c08-6fe9-476d-a2e7-7ba07b28ab14","system_id":"levelo_inurba_marseille","lat":43.2315,"lon":5.43723,"is_reserved":false,"is_disabled":false,"rental_uris":{"android":"levelo://app?vid=1c321c08-6fe9-476d-a2e7-7ba07b28ab14","ios":"levelo://app?vid=1c321c08-6fe9-476d-a2e7-7ba07b28ab14"},"vehicle_type_id":"4","last_reported":1746616156,"current_range_meters":22000,"station_id":"ce4bhmp2rcd13ifvqgog","pricing_plan_id":"cebpf4jnsgd1na2vs0mg"},{"bike_id":"61773464-18ea-4477-b785-2b5e8184d3c2","system_id":"levelo_inurba_marseille","lat":43.325476,"lon":5.414489,"is_reserved":false,"is_disabled":false,"rental_uris":{"android":"levelo://app?vid=61773464-18ea-4477-b785-2b5e8184d3c2","ios":"levelo://app?vid=61773464-18ea-4477-b785-2b5e8184d3c2"},"vehicle_type_id":"4","last_reported":1746616156,"current_range_meters":22000,"station_id":"ce4bhq12rcd13ifvqhhg","pricing_plan_id":"cebpf4jnsgd1na2vs0mg"},{"bike_id":"c0cd3821-e87c-44a2-9ec4-f941c33073f4","system_id":"levelo_inurba_marseille","lat":43.30525,"lon":5.36534,"is_reserved":false,"is_disabled":false,"rental_uris":{"android":"levelo://app?vid=c0cd3821-e87c-44a2-9ec4-f941c33073f4","ios":"levelo://app?vid=c0cd3821-e87c-44a2-9ec4-f941c33073f4"},"vehicle_type_id":"4","last_reported":1746616156,"current_range_meters":22400,"station_id":"ce4bgs12rcd13ifvqcag","pricing_plan_id":"cebpf4jnsgd1na2vs0mg"},{"bike_id":"fe18852f-df5a-43bf-9ff1-7d6606a3155f","system_id":"levelo_inurba_marseille","lat":43.30272,"lon":5.37704,"is_reserved":false,"is_disabled":false,"rental_uris":{"android":"levelo://app?vid=fe18852f-df5a-43bf-9ff1-7d6606a3155f","ios":"levelo://app?vid=fe18852f-df5a-43bf-9ff1-7d6606a3155f"},"vehicle_type_id":"4","last_reported":1746616156,"current_range_meters":22400,"station_id":"ce4bguh2rcd13ifvqcj0","pricing_plan_id":"cebpf4jnsgd1na2vs0mg"},{"bike_id":"4d40ffbe-20fc-4f77-ba81-c567d93bec30","system_id":"levelo_inurba_marseille","lat":43.2928,"lon":5.40123,"is_reserved":false,"is_disabled":false,"rental_uris":{"android":"levelo://app?vid=4d40ffbe-20fc-4f77-ba81-c567d93bec30","ios":"levelo://app?vid=4d40ffbe-20fc-4f77-ba81-c567d93bec30"},"vehicle_type_id":"4","last_reported":1746616156,"current_range_meters":22400,"station_id":"ce4bh312rcd13ifvqdk0","pricing_plan_id":"cebpf4jnsgd1na2vs0mg"},{"bike_id":"5340ee3a-3715-406b-865c-69b21e34c993","system_id":"levelo_inurba_marseille","lat":43.23962,"lon":5.36634,"is_reserved":false,"is_disabled":false,"rental_uris":{"android":"levelo://app?vid=5340ee3a-3715-406b-865c-69b21e34c993","ios":"levelo://app?vid=5340ee3a-3715-406b-865c-69b21e34c993"},"vehicle_type_id":"4","last_reported":1746616156,"current_range_meters":22400,"station_id":"ce4bhi12rcd13ifvqfp0","pricing_plan_id":"cebpf4jnsgd1na2vs0mg"},{"bike_id":"5fd375e9-f729-4486-8872-9648dfa95a75","system_id":"levelo_inurba_marseille","lat":43.26485,"lon":5.39557,"is_reserved":false,"is_disabled":false,"rental_uris":{"android":"levelo://app?vid=5fd375e9-f729-4486-8872-9648dfa95a75","ios":"levelo://app?vid=5fd375e9-f729-4486-8872-9648dfa95a75"},"vehicle_type_id":"4","last_reported":1746616156,"current_range_meters":22400,"station_id":"ce4bhi12rcd13ifvqfq0","pricing_plan_id":"cebpf4jnsgd1na2vs0mg"},{"bike_id":"74dfcb2f-a38e-46fd-a9a4-88a9c0d71f4a","system_id":"levelo_inurba_marseille","lat":43.25959,"lon":5.40905,"is_reserved":false,"is_disabled":false,"rental_uris":{"android":"levelo://app?vid=74dfcb2f-a38e-46fd-a9a4-88a9c0d71f4a","ios":"levelo://app?vid=74dfcb2f-a38e-46fd-a9a4-88a9c0d71f4a"},"vehicle_type_id":"4","last_reported":1746616156,"current_range_meters":22400,"station_id":"ce4bhm92rcd13ifvqglg","pricing_plan_id":"cebpf4jnsgd1na2vs0mg"},{"bike_id":"89b5c51b-cd9c-475c-ba7a-726b12d22f75","system_id":"levelo_inurba_marseille","lat":43.21188,"lon":5.35077,"is_reserved":false,"is_disabled":false,"rental_uris":{"android":"levelo://app?vid=89b5c51b-cd9c-475c-ba7a-726b12d22f75","ios":"levelo://app?vid=89b5c51b-cd9c-475c-ba7a-726b12d22f75"},"vehicle_type_id":"4","last_reported":1746616156,"current_range_meters":22400,"station_id":"st_cvj6sg6p6f1abm77japg","pricing_plan_id":"cebpf4jnsgd1na2vs0mg"},{"bike_id":"6aa51d23-33b4-4b2f-9dd2-992e04df0e9c","system_id":"levelo_inurba_marseille","lat":43.31326,"lon":5.39693,"is_reserved":false,"is_disabled":false,"rental_uris":{"android":"levelo://app?vid=6aa51d23-33b4-4b2f-9dd2-992e04df0e9c","ios":"levelo://app?vid=6aa51d23-33b4-4b2f-9dd2-992e04df0e9c"},"vehicle_type_id":"4","last_reported":1746616156,"current_range_meters":22800,"station_id":"ce4bgvp2rcd13ifvqcu0","pricing_plan_id":"cebpf4jnsgd1na2vs0mg"},{"bike_id":"77084cd1-80ac-4bda-b330-e3bbd82292a6","system_id":"levelo_inurba_marseille","lat":43.30139,"lon":5.39843,"is_reserved":false,"is_disabled":false,"rental_uris":{"android":"levelo://app?vid=77084cd1-80ac-4bda-b330-e3bbd82292a6","ios":"levelo://app?vid=77084cd1-80ac-4bda-b330-e3bbd82292a6"},"vehicle_type_id":"4","last_reported":1746616156,"current_range_meters":22800,"station_id":"ce4bh0h2rcd13ifvqd40","pricing_plan_id":"cebpf4jnsgd1na2vs0mg"},{"bike_id":"cb7dbca5-c9de-4b7f-928b-0d4800eda318","system_id":"levelo_inurba_marseille","lat":43.29869,"lon":5.39739,"is_reserved":false,"is_disabled":false,"rental_uris":{"android":"levelo://app?vid=cb7dbca5-c9de-4b7f-928b-0d4800eda318","ios":"levelo://app?vid=cb7dbca5-c9de-4b7f-928b-0d4800eda318"},"vehicle_type_id":"4","last_reported":1746616156,"current_range_meters":22800,"station_id":"ce4bh0h2rcd13ifvqd50","pricing_plan_id":"cebpf4jnsgd1na2vs0mg"},{"bike_id":"a012bb53-2c46-4a33-9e2b-381af1c51b04","system_id":"levelo_inurba_marseille","lat":43.26547,"lon":5.37291,"is_reserved":false,"is_disabled":false,"rental_uris":{"android":"levelo://app?vid=a012bb53-2c46-4a33-9e2b-381af1c51b04","ios":"levelo://app?vid=a012bb53-2c46-4a33-9e2b-381af1c51b04"},"vehicle_type_id":"4","last_reported":1746616156,"current_range_meters":22800,"station_id":"ce4bhg12rcd13ifvqf70","pricing_plan_id":"cebpf4jnsgd1na2vs0mg"},{"bike_id":"5545e5f3-6379-4d16-8527-ea6f67b4fa46","system_id":"levelo_inurba_marseille","lat":43.25945,"lon":5.409,"is_reserved":false,"is_disabled":false,"rental_uris":{"android":"levelo://app?vid=5545e5f3-6379-4d16-8527-ea6f67b4fa46","ios":"levelo://app?vid=5545e5f3-6379-4d16-8527-ea6f67b4fa46"},"vehicle_type_id":"4","last_reported":1746616156,"current_range_meters":22800,"station_id":"ce4bhm92rcd13ifvqglg","pricing_plan_id":"cebpf4jnsgd1na2vs0mg"},{"bike_id":"61724c9e-489e-4437-9559-9dab64b767d4","system_id":"levelo_inurba_marseille","lat":43.30423,"lon":5.4129,"is_reserved":false,"is_disabled":false,"rental_uris":{"android":"levelo://app?vid=61724c9e-489e-4437-9559-9dab64b767d4","ios":"levelo://app?vid=61724c9e-489e-4437-9559-9dab64b767d4"},"vehicle_type_id":"4","last_reported":1746616156,"current_range_meters":22800,"station_id":"ce4bhop2rcd13ifvqh8g","pricing_plan_id":"cebpf4jnsgd1na2vs0mg"},{"bike_id":"74757a7c-78f5-49c6-b94b-356b0bee37f9","system_id":"levelo_inurba_marseille","lat":43.29895,"lon":5.4367,"is_reserved":false,"is_disabled":false,"rental_uris":{"android":"levelo://app?vid=74757a7c-78f5-49c6-b94b-356b0bee37f9","ios":"levelo://app?vid=74757a7c-78f5-49c6-b94b-356b0bee37f9"},"vehicle_type_id":"4","last_reported":1746616156,"current_range_meters":22800,"station_id":"ce4bhpp2rcd13ifvqhfg","pricing_plan_id":"cebpf4jnsgd1na2vs0mg"},{"bike_id":"5449d5d5-cc07-42d5-b70a-02d4865db751","system_id":"levelo_inurba_marseille","lat":43.32101,"lon":5.41694,"is_reserved":false,"is_disabled":false,"rental_uris":{"android":"levelo://app?vid=5449d5d5-cc07-42d5-b70a-02d4865db751","ios":"levelo://app?vid=5449d5d5-cc07-42d5-b70a-02d4865db751"},"vehicle_type_id":"4","last_reported":1746616156,"current_range_meters":22800,"station_id":"ce4bhq92rcd13ifvqhkg","pricing_plan_id":"cebpf4jnsgd1na2vs0mg"},{"bike_id":"4819dc40-bbd9-463d-ab8a-7ea34e6227dd","system_id":"levelo_inurba_marseille","lat":43.31581,"lon":5.38892,"is_reserved":false,"is_disabled":false,"rental_uris":{"android":"levelo://app?vid=4819dc40-bbd9-463d-ab8a-7ea34e6227dd","ios":"levelo://app?vid=4819dc40-bbd9-463d-ab8a-7ea34e6227dd"},"vehicle_type_id":"4","last_reported":1746616156,"current_range_meters":23200,"station_id":"","pricing_plan_id":"cebpf4jnsgd1na2vs0mg"},{"bike_id":"b5775ca1-748e-4cd6-9392-09595003dc6d","system_id":"levelo_inurba_marseille","lat":43.31221,"lon":5.36865,"is_reserved":false,"is_disabled":false,"rental_uris":{"android":"levelo://app?vid=b5775ca1-748e-4cd6-9392-09595003dc6d","ios":"levelo://app?vid=b5775ca1-748e-4cd6-9392-09595003dc6d"},"vehicle_type_id":"4","last_reported":1746616156,"current_range_meters":23200,"station_id":"ce4bgl92rcd13ifvqbq0","pricing_plan_id":"cebpf4jnsgd1na2vs0mg"},{"bike_id":"ff807334-3ad3-4e40-bbde-648eb2b1c45b","system_id":"levelo_inurba_marseille","lat":43.21197,"lon":5.35076,"is_reserved":false,"is_disabled":false,"rental_uris":{"android":"levelo://app?vid=ff807334-3ad3-4e40-bbde-648eb2b1c45b","ios":"levelo://app?vid=ff807334-3ad3-4e40-bbde-648eb2b1c45b"},"vehicle_type_id":"4","last_reported":1746616156,"current_range_meters":23200,"station_id":"st_cvj6sg6p6f1abm77japg","pricing_plan_id":"cebpf4jnsgd1na2vs0mg"},{"bike_id":"e2d48c41-a614-4bf8-b765-6e7c5af68268","system_id":"levelo_inurba_marseille","lat":43.31226,"lon":5.36856,"is_reserved":false,"is_disabled":false,"rental_uris":{"android":"levelo://app?vid=e2d48c41-a614-4bf8-b765-6e7c5af68268","ios":"levelo://app?vid=e2d48c41-a614-4bf8-b765-6e7c5af68268"},"vehicle_type_id":"4","last_reported":1746616156,"current_range_meters":24000,"station_id":"ce4bgl92rcd13ifvqbq0","pricing_plan_id":"cebpf4jnsgd1na2vs0mg"},{"bike_id":"6922fe8d-606a-4aec-855c-ed546fbbc865","system_id":"levelo_inurba_marseille","lat":43.27497,"lon":5.42451,"is_reserved":false,"is_disabled":false,"rental_uris":{"android":"levelo://app?vid=6922fe8d-606a-4aec-855c-ed546fbbc865","ios":"levelo://app?vid=6922fe8d-606a-4aec-855c-ed546fbbc865"},"vehicle_type_id":"4","last_reported":1746616156,"current_range_meters":24000,"station_id":"ce4bhn92rcd13ifvqgrg","pricing_plan_id":"cebpf4jnsgd1na2vs0mg"},{"bike_id":"5904794c-f38a-4f84-9017-7f7f506d78fd","system_id":"levelo_inurba_marseille","lat":43.26055,"lon":5.39404,"is_reserved":false,"is_disabled":false,"rental_uris":{"android":"levelo://app?vid=5904794c-f38a-4f84-9017-7f7f506d78fd","ios":"levelo://app?vid=5904794c-f38a-4f84-9017-7f7f506d78fd"},"vehicle_type_id":"4","last_reported":1746616156,"current_range_meters":24400,"station_id":"ce4bhh92rcd13ifvqfj0","pricing_plan_id":"cebpf4jnsgd1na2vs0mg"},{"bike_id":"fffd3d76-da5d-43ca-9730-1eea3ac64f2c","system_id":"levelo_inurba_marseille","lat":43.2601,"lon":5.40814,"is_reserved":false,"is_disabled":false,"rental_uris":{"android":"levelo://app?vid=fffd3d76-da5d-43ca-9730-1eea3ac64f2c","ios":"levelo://app?vid=fffd3d76-da5d-43ca-9730-1eea3ac64f2c"},"vehicle_type_id":"4","last_reported":1746616156,"current_range_meters":24400,"station_id":"ce4bhm92rcd13ifvqglg","pricing_plan_id":"cebpf4jnsgd1na2vs0mg"},{"bike_id":"db7282b4-81ab-4a37-bad5-9d4589e9fd77","system_id":"levelo_inurba_marseille","lat":43.30903,"lon":5.36865,"is_reserved":false,"is_disabled":false,"rental_uris":{"android":"levelo://app?vid=db7282b4-81ab-4a37-bad5-9d4589e9fd77","ios":"levelo://app?vid=db7282b4-81ab-4a37-bad5-9d4589e9fd77"},"vehicle_type_id":"4","last_reported":1746616156,"current_range_meters":24800,"station_id":"ce4bgn92rcd13ifvqbvg","pricing_plan_id":"cebpf4jnsgd1na2vs0mg"},{"bike_id":"ab64afe0-28e5-4956-ae58-389eba36fd36","system_id":"levelo_inurba_marseille","lat":43.30463,"lon":5.37903,"is_reserved":false,"is_disabled":false,"rental_uris":{"android":"levelo://app?vid=ab64afe0-28e5-4956-ae58-389eba36fd36","ios":"levelo://app?vid=ab64afe0-28e5-4956-ae58-389eba36fd36"},"vehicle_type_id":"4","last_reported":1746616156,"current_range_meters":24800,"station_id":"ce4bgup2rcd13ifvqcn0","pricing_plan_id":"cebpf4jnsgd1na2vs0mg"},{"bike_id":"75f2b3e2-41d1-42b4-8558-91039ee38dba","system_id":"levelo_inurba_marseille","lat":43.26551,"lon":5.37278,"is_reserved":false,"is_disabled":false,"rental_uris":{"android":"levelo://app?vid=75f2b3e2-41d1-42b4-8558-91039ee38dba","ios":"levelo://app?vid=75f2b3e2-41d1-42b4-8558-91039ee38dba"},"vehicle_type_id":"4","last_reported":1746616156,"current_range_meters":24800,"station_id":"ce4bhg12rcd13ifvqf70","pricing_plan_id":"cebpf4jnsgd1na2vs0mg"},{"bike_id":"bd2b1d05-5ba5-423d-84dd-69c6251594c3","system_id":"levelo_inurba_marseille","lat":43.25581,"lon":5.38247,"is_reserved":false,"is_disabled":false,"rental_uris":{"android":"levelo://app?vid=bd2b1d05-5ba5-423d-84dd-69c6251594c3","ios":"levelo://app?vid=bd2b1d05-5ba5-423d-84dd-69c6251594c3"},"vehicle_type_id":"4","last_reported":1746616156,"current_range_meters":24800,"station_id":"ce4bhih2rcd13ifvqfs0","pricing_plan_id":"cebpf4jnsgd1na2vs0mg"},{"bike_id":"0b4768f5-eff7-4811-ada7-e1138dcdb437","system_id":"levelo_inurba_marseille","lat":43.25925,"lon":5.40892,"is_reserved":false,"is_disabled":false,"rental_uris":{"android":"levelo://app?vid=0b4768f5-eff7-4811-ada7-e1138dcdb437","ios":"levelo://app?vid=0b4768f5-eff7-4811-ada7-e1138dcdb437"},"vehicle_type_id":"4","last_reported":1746616156,"current_range_meters":24800,"station_id":"ce4bhm92rcd13ifvqglg","pricing_plan_id":"cebpf4jnsgd1na2vs0mg"},{"bike_id":"84a76a9d-6d06-4908-b44d-9d8b75addf1a","system_id":"levelo_inurba_marseille","lat":43.27497,"lon":5.42457,"is_reserved":false,"is_disabled":false,"rental_uris":{"android":"levelo://app?vid=84a76a9d-6d06-4908-b44d-9d8b75addf1a","ios":"levelo://app?vid=84a76a9d-6d06-4908-b44d-9d8b75addf1a"},"vehicle_type_id":"4","last_reported":1746616156,"current_range_meters":24800,"station_id":"ce4bhn92rcd13ifvqgrg","pricing_plan_id":"cebpf4jnsgd1na2vs0mg"},{"bike_id":"f73d450b-fde6-4898-99b1-916875a407c6","system_id":"levelo_inurba_marseille","lat":43.225033,"lon":5.347811,"is_reserved":false,"is_disabled":false,"rental_uris":{"android":"levelo://app?vid=f73d450b-fde6-4898-99b1-916875a407c6","ios":"levelo://app?vid=f73d450b-fde6-4898-99b1-916875a407c6"},"vehicle_type_id":"4","last_reported":1746616156,"current_range_meters":24800,"station_id":"st_cvj5dfep6f1abm77gieg","pricing_plan_id":"cebpf4jnsgd1na2vs0mg"},{"bike_id":"deb79c29-e446-4f7a-83f8-447a1ea83a21","system_id":"levelo_inurba_marseille","lat":43.3076,"lon":5.3829,"is_reserved":false,"is_disabled":false,"rental_uris":{"android":"levelo://app?vid=deb79c29-e446-4f7a-83f8-447a1ea83a21","ios":"levelo://app?vid=deb79c29-e446-4f7a-83f8-447a1ea83a21"},"vehicle_type_id":"4","last_reported":1746616156,"current_range_meters":25200,"station_id":"","pricing_plan_id":"cebpf4jnsgd1na2vs0mg"},{"bike_id":"28b8bf84-97c6-4445-b3ca-fa10bbee802b","system_id":"levelo_inurba_marseille","lat":43.29282,"lon":5.40117,"is_reserved":false,"is_disabled":false,"rental_uris":{"android":"levelo://app?vid=28b8bf84-97c6-4445-b3ca-fa10bbee802b","ios":"levelo://app?vid=28b8bf84-97c6-4445-b3ca-fa10bbee802b"},"vehicle_type_id":"4","last_reported":1746616156,"current_range_meters":25200,"station_id":"ce4bh312rcd13ifvqdk0","pricing_plan_id":"cebpf4jnsgd1na2vs0mg"},{"bike_id":"0fdc23d7-4907-40b1-a439-90d30edbb352","system_id":"levelo_inurba_marseille","lat":43.29193,"lon":5.35809,"is_reserved":false,"is_disabled":false,"rental_uris":{"android":"levelo://app?vid=0fdc23d7-4907-40b1-a439-90d30edbb352","ios":"levelo://app?vid=0fdc23d7-4907-40b1-a439-90d30edbb352"},"vehicle_type_id":"4","last_reported":1746616156,"current_range_meters":25200,"station_id":"ce4bhb12rcd13ifvqel0","pricing_plan_id":"cebpf4jnsgd1na2vs0mg"},{"bike_id":"8c9c69a5-281f-4512-9b15-181565555f3b","system_id":"levelo_inurba_marseille","lat":43.27058,"lon":5.40264,"is_reserved":false,"is_disabled":false,"rental_uris":{"android":"levelo://app?vid=8c9c69a5-281f-4512-9b15-181565555f3b","ios":"levelo://app?vid=8c9c69a5-281f-4512-9b15-181565555f3b"},"vehicle_type_id":"4","last_reported":1746616156,"current_range_meters":25200,"station_id":"ce4bhk92rcd13ifvqgc0","pricing_plan_id":"cebpf4jnsgd1na2vs0mg"},{"bike_id":"22a5c2d1-184c-4055-9770-a37d865c1f8b","system_id":"levelo_inurba_marseille","lat":43.27173,"lon":5.40995,"is_reserved":false,"is_disabled":false,"rental_uris":{"android":"levelo://app?vid=22a5c2d1-184c-4055-9770-a37d865c1f8b","ios":"levelo://app?vid=22a5c2d1-184c-4055-9770-a37d865c1f8b"},"vehicle_type_id":"4","last_reported":1746616156,"current_range_meters":25200,"station_id":"ce4bhl12rcd13ifvqgf0","pricing_plan_id":"cebpf4jnsgd1na2vs0mg"},{"bike_id":"d3c196f9-1959-4a02-b423-ee70bcefbf96","system_id":"levelo_inurba_marseille","lat":43.30143,"lon":5.37415,"is_reserved":false,"is_disabled":false,"rental_uris":{"android":"levelo://app?vid=d3c196f9-1959-4a02-b423-ee70bcefbf96","ios":"levelo://app?vid=d3c196f9-1959-4a02-b423-ee70bcefbf96"},"vehicle_type_id":"4","last_reported":1746616156,"current_range_meters":25600,"station_id":"ce4bgs92rcd13ifvqcc0","pricing_plan_id":"cebpf4jnsgd1na2vs0mg"},{"bike_id":"5fe42ecd-6657-480d-bd9c-a953dc4bf6cb","system_id":"levelo_inurba_marseille","lat":43.28364,"lon":5.38646,"is_reserved":false,"is_disabled":false,"rental_uris":{"android":"levelo://app?vid=5fe42ecd-6657-480d-bd9c-a953dc4bf6cb","ios":"levelo://app?vid=5fe42ecd-6657-480d-bd9c-a953dc4bf6cb"},"vehicle_type_id":"4","last_reported":1746616156,"current_range_meters":25600,"station_id":"ce4bh492rcd13ifvqdvg","pricing_plan_id":"cebpf4jnsgd1na2vs0mg"},{"bike_id":"504d1db7-5893-40bd-bd06-39195dce8d14","system_id":"levelo_inurba_marseille","lat":43.26218,"lon":5.40454,"is_reserved":false,"is_disabled":false,"rental_uris":{"android":"levelo://app?vid=504d1db7-5893-40bd-bd06-39195dce8d14","ios":"levelo://app?vid=504d1db7-5893-40bd-bd06-39195dce8d14"},"vehicle_type_id":"4","last_reported":1746616156,"current_range_meters":25600,"station_id":"ce4bhmh2rcd13ifvqgmg","pricing_plan_id":"cebpf4jnsgd1na2vs0mg"},{"bike_id":"6d944721-5fbf-4d8d-afd4-ca8821156515","system_id":"levelo_inurba_marseille","lat":43.32548,"lon":5.41458,"is_reserved":false,"is_disabled":false,"rental_uris":{"android":"levelo://app?vid=6d944721-5fbf-4d8d-afd4-ca8821156515","ios":"levelo://app?vid=6d944721-5fbf-4d8d-afd4-ca8821156515"},"vehicle_type_id":"4","last_reported":1746616156,"current_range_meters":25600,"station_id":"ce4bhq12rcd13ifvqhhg","pricing_plan_id":"cebpf4jnsgd1na2vs0mg"},{"bike_id":"db40efae-56b8-4608-b4ec-07499c8ac642","system_id":"levelo_inurba_marseille","lat":43.31993,"lon":5.38153,"is_reserved":false,"is_disabled":false,"rental_uris":{"android":"levelo://app?vid=db40efae-56b8-4608-b4ec-07499c8ac642","ios":"levelo://app?vid=db40efae-56b8-4608-b4ec-07499c8ac642"},"vehicle_type_id":"4","last_reported":1746616156,"current_range_meters":25600,"station_id":"ce4bhr12rcd13ifvqhpg","pricing_plan_id":"cebpf4jnsgd1na2vs0mg"},{"bike_id":"cdfe38c1-3e23-4cc7-aa74-fd899d1dcb1b","system_id":"levelo_inurba_marseille","lat":43.28727,"lon":5.36079,"is_reserved":false,"is_disabled":false,"rental_uris":{"android":"levelo://app?vid=cdfe38c1-3e23-4cc7-aa74-fd899d1dcb1b","ios":"levelo://app?vid=cdfe38c1-3e23-4cc7-aa74-fd899d1dcb1b"},"vehicle_type_id":"4","last_reported":1746616156,"current_range_meters":25600,"station_id":"cki0cbj6b192h4jlfktg","pricing_plan_id":"cebpf4jnsgd1na2vs0mg"},{"bike_id":"c1041c9f-2085-470a-b13c-f88fd8323115","system_id":"levelo_inurba_marseille","lat":43.27774,"lon":5.38695,"is_reserved":false,"is_disabled":false,"rental_uris":{"android":"levelo://app?vid=c1041c9f-2085-470a-b13c-f88fd8323115","ios":"levelo://app?vid=c1041c9f-2085-470a-b13c-f88fd8323115"},"vehicle_type_id":"4","last_reported":1746616156,"current_range_meters":26000,"station_id":"","pricing_plan_id":"cebpf4jnsgd1na2vs0mg"},{"bike_id":"a53d40e5-9c79-4264-96d2-9dcb729527f2","system_id":"levelo_inurba_marseille","lat":43.301207,"lon":5.371723,"is_reserved":false,"is_disabled":false,"rental_uris":{"android":"levelo://app?vid=a53d40e5-9c79-4264-96d2-9dcb729527f2","ios":"levelo://app?vid=a53d40e5-9c79-4264-96d2-9dcb729527f2"},"vehicle_type_id":"4","last_reported":1746616156,"current_range_meters":26000,"station_id":"","pricing_plan_id":"cebpf4jnsgd1na2vs0mg"},{"bike_id":"586d637f-2c46-4a7f-9d26-82756e364383","system_id":"levelo_inurba_marseille","lat":43.30149,"lon":5.38095,"is_reserved":false,"is_disabled":false,"rental_uris":{"android":"levelo://app?vid=586d637f-2c46-4a7f-9d26-82756e364383","ios":"levelo://app?vid=586d637f-2c46-4a7f-9d26-82756e364383"},"vehicle_type_id":"4","last_reported":1746616156,"current_range_meters":26000,"station_id":"ce4bgjp2rcd13ifvqbh0","pricing_plan_id":"cebpf4jnsgd1na2vs0mg"},{"bike_id":"490d4f76-f6ea-4df4-8fae-97b77b5aa6f0","system_id":"levelo_inurba_marseille","lat":43.2969,"lon":5.37297,"is_reserved":false,"is_disabled":false,"rental_uris":{"android":"levelo://app?vid=490d4f76-f6ea-4df4-8fae-97b77b5aa6f0","ios":"levelo://app?vid=490d4f76-f6ea-4df4-8fae-97b77b5aa6f0"},"vehicle_type_id":"4","last_reported":1746616156,"current_range_meters":26000,"station_id":"ce4bgk12rcd13ifvqbj0","pricing_plan_id":"cebpf4jnsgd1na2vs0mg"},{"bike_id":"7fcc1d4a-4992-49dd-bb9d-45de13dee03a","system_id":"levelo_inurba_marseille","lat":43.298472,"lon":5.362683,"is_reserved":false,"is_disabled":false,"rental_uris":{"android":"levelo://app?vid=7fcc1d4a-4992-49dd-bb9d-45de13dee03a","ios":"levelo://app?vid=7fcc1d4a-4992-49dd-bb9d-45de13dee03a"},"vehicle_type_id":"4","last_reported":1746616156,"current_range_meters":26000,"station_id":"ce4bgpp2rcd13ifvqc3g","pricing_plan_id":"cebpf4jnsgd1na2vs0mg"},{"bike_id":"10f9297d-7dcd-4169-a091-ba5d621e46a4","system_id":"levelo_inurba_marseille","lat":43.31335,"lon":5.36744,"is_reserved":false,"is_disabled":false,"rental_uris":{"android":"levelo://app?vid=10f9297d-7dcd-4169-a091-ba5d621e46a4","ios":"levelo://app?vid=10f9297d-7dcd-4169-a091-ba5d621e46a4"},"vehicle_type_id":"4","last_reported":1746616156,"current_range_meters":26000,"station_id":"ce4bgr92rcd13ifvqc6g","pricing_plan_id":"cebpf4jnsgd1na2vs0mg"},{"bike_id":"124da9c4-1a32-4d74-90ef-d35200544629","system_id":"levelo_inurba_marseille","lat":43.30927,"lon":5.40145,"is_reserved":false,"is_disabled":false,"rental_uris":{"android":"levelo://app?vid=124da9c4-1a32-4d74-90ef-d35200544629","ios":"levelo://app?vid=124da9c4-1a32-4d74-90ef-d35200544629"},"vehicle_type_id":"4","last_reported":1746616156,"current_range_meters":26000,"station_id":"ce4bgvp2rcd13ifvqct0","pricing_plan_id":"cebpf4jnsgd1na2vs0mg"},{"bike_id":"3eb696a2-0ae5-4913-adfd-c3e3152d90a9","system_id":"levelo_inurba_marseille","lat":43.30136,"lon":5.39843,"is_reserved":false,"is_disabled":false,"rental_uris":{"android":"levelo://app?vid=3eb696a2-0ae5-4913-adfd-c3e3152d90a9","ios":"levelo://app?vid=3eb696a2-0ae5-4913-adfd-c3e3152d90a9"},"vehicle_type_id":"4","last_reported":1746616156,"current_range_meters":26000,"station_id":"ce4bh0h2rcd13ifvqd40","pricing_plan_id":"cebpf4jnsgd1na2vs0mg"},{"bike_id":"7a68f0b6-24a5-498c-81b8-86cbc1c02510","system_id":"levelo_inurba_marseille","lat":43.28671,"lon":5.3867,"is_reserved":false,"is_disabled":false,"rental_uris":{"android":"levelo://app?vid=7a68f0b6-24a5-498c-81b8-86cbc1c02510","ios":"levelo://app?vid=7a68f0b6-24a5-498c-81b8-86cbc1c02510"},"vehicle_type_id":"4","last_reported":1746616156,"current_range_meters":26000,"station_id":"ce4bh492rcd13ifvqdug","pricing_plan_id":"cebpf4jnsgd1na2vs0mg"},{"bike_id":"363e1611-76ee-41df-acb8-31f5f4f423ad","system_id":"levelo_inurba_marseille","lat":43.27564,"lon":5.38415,"is_reserved":false,"is_disabled":false,"rental_uris":{"android":"levelo://app?vid=363e1611-76ee-41df-acb8-31f5f4f423ad","ios":"levelo://app?vid=363e1611-76ee-41df-acb8-31f5f4f423ad"},"vehicle_type_id":"4","last_reported":1746616156,"current_range_meters":26000,"station_id":"ce4bhh92rcd13ifvqfi0","pricing_plan_id":"cebpf4jnsgd1na2vs0mg"},{"bike_id":"30880345-4e2e-4c4a-9831-a1a30f0bae64","system_id":"levelo_inurba_marseille","lat":43.23964,"lon":5.36629,"is_reserved":false,"is_disabled":false,"rental_uris":{"android":"levelo://app?vid=30880345-4e2e-4c4a-9831-a1a30f0bae64","ios":"levelo://app?vid=30880345-4e2e-4c4a-9831-a1a30f0bae64"},"vehicle_type_id":"4","last_reported":1746616156,"current_range_meters":26000,"station_id":"ce4bhi12rcd13ifvqfp0","pricing_plan_id":"cebpf4jnsgd1na2vs0mg"},{"bike_id":"1f7739e4-ee34-4499-9849-1cb3a5ffa5bf","system_id":"levelo_inurba_marseille","lat":43.25974,"lon":5.40911,"is_reserved":false,"is_disabled":false,"rental_uris":{"android":"levelo://app?vid=1f7739e4-ee34-4499-9849-1cb3a5ffa5bf","ios":"levelo://app?vid=1f7739e4-ee34-4499-9849-1cb3a5ffa5bf"},"vehicle_type_id":"4","last_reported":1746616156,"current_range_meters":26000,"station_id":"ce4bhm92rcd13ifvqglg","pricing_plan_id":"cebpf4jnsgd1na2vs0mg"},{"bike_id":"ba6ed3b3-a909-4a40-91e3-70393b66f3fc","system_id":"levelo_inurba_marseille","lat":43.26231,"lon":5.40454,"is_reserved":false,"is_disabled":false,"rental_uris":{"android":"levelo://app?vid=ba6ed3b3-a909-4a40-91e3-70393b66f3fc","ios":"levelo://app?vid=ba6ed3b3-a909-4a40-91e3-70393b66f3fc"},"vehicle_type_id":"4","last_reported":1746616156,"current_range_meters":26000,"station_id":"ce4bhmh2rcd13ifvqgmg","pricing_plan_id":"cebpf4jnsgd1na2vs0mg"},{"bike_id":"1827ebc6-4abc-4c13-a355-6f197a6400a9","system_id":"levelo_inurba_marseille","lat":43.28709,"lon":5.39986,"is_reserved":false,"is_disabled":false,"rental_uris":{"android":"levelo://app?vid=1827ebc6-4abc-4c13-a355-6f197a6400a9","ios":"levelo://app?vid=1827ebc6-4abc-4c13-a355-6f197a6400a9"},"vehicle_type_id":"4","last_reported":1746616156,"current_range_meters":26000,"station_id":"ce4bho92rcd13ifvqh3g","pricing_plan_id":"cebpf4jnsgd1na2vs0mg"},{"bike_id":"060c245d-e5b1-482b-822c-60dded309208","system_id":"levelo_inurba_marseille","lat":43.32337,"lon":5.40624,"is_reserved":false,"is_disabled":false,"rental_uris":{"android":"levelo://app?vid=060c245d-e5b1-482b-822c-60dded309208","ios":"levelo://app?vid=060c245d-e5b1-482b-822c-60dded309208"},"vehicle_type_id":"4","last_reported":1746616156,"current_range_meters":26000,"station_id":"ce4bhq92rcd13ifvqhjg","pricing_plan_id":"cebpf4jnsgd1na2vs0mg"},{"bike_id":"b679ec02-d78a-4ef4-8755-101cc223b573","system_id":"levelo_inurba_marseille","lat":43.30149,"lon":5.38098,"is_reserved":false,"is_disabled":false,"rental_uris":{"android":"levelo://app?vid=b679ec02-d78a-4ef4-8755-101cc223b573","ios":"levelo://app?vid=b679ec02-d78a-4ef4-8755-101cc223b573"},"vehicle_type_id":"4","last_reported":1746616156,"current_range_meters":26800,"station_id":"ce4bgjp2rcd13ifvqbh0","pricing_plan_id":"cebpf4jnsgd1na2vs0mg"},{"bike_id":"ff4a8081-8ce9-4fb4-8970-6eaa0ca3bedb","system_id":"levelo_inurba_marseille","lat":43.2985,"lon":5.36285,"is_reserved":false,"is_disabled":false,"rental_uris":{"android":"levelo://app?vid=ff4a8081-8ce9-4fb4-8970-6eaa0ca3bedb","ios":"levelo://app?vid=ff4a8081-8ce9-4fb4-8970-6eaa0ca3bedb"},