{"last_updated":1701504502,"ttl":30,"version":"2.2","data":{"bikes":[{"bike_id":"a8435106-7329-4bca-9363-04322549ee76","system_id":"levelo_inurba_marseille","lat":43.313391,"lon":5.36706,"is_reserved":false,"is_disabled":false,"rental_uris":{"android":"levelo://app?vid=a8435106-7329-4bca-9363-04322549ee76","ios":"levelo://app?vid=a8435106-7329-4bca-9363-04322549ee76"},"vehicle_type_id":"4","last_reported":1701504502,"current_range_meters":26000,"station_id":"ce4bgr92rcd13ifvqc6g","pricing_plan_id":"free"},{"bike_id":"d2629d1b-2349-4a93-8cb0-299435243548","system_id":"levelo_inurba_marseille","lat":43.312239,"lon":5.368562,"is_reserved":false,"is_disabled":false,"rental_uris":{"android":"levelo://app?vid=d2629d1b-2349-4a93-8cb0-299435243548","ios":"levelo://app?vid=d2629d1b-2349-4a93-8cb0-299435243548"},"vehicle_type_id":"4","last_reported":1701504502,"current_range_meters":27200,"station_id":"ce4bgl92rcd13ifvqbq0","pricing_plan_id":"free"},{"bike_id":"726f707e-382f-4ee3-9de7-dae3fa14ae03","system_id":"levelo_inurba_marseille","lat":43.31506,"lon":5.37304,"is_reserved":false,"is_disabled":false,"rental_uris":{"android":"levelo://app?vid=726f707e-382f-4ee3-9de7-dae3fa14ae03","ios":"levelo://app?vid=726f707e-382f-4ee3-9de7-dae3fa14ae03"},"vehicle_type_id":"4","last_reported":1701504502,"current_range_meters":0,"station_id":"ce4bgt12rcd13ifvqcd0","pricing_plan_id":"free"},{"bike_id":"c250ceb4-17f5-435d-bf4d-635ba059999f","system_id":"levelo_inurba_marseille","lat":43.309039,"lon":5.371797,"is_reserved":false,"is_disabled":false,"rental_uris":{"android":"levelo://app?vid=c250ceb4-17f5-435d-bf4d-635ba059999f","ios":"levelo://app?vid=c250ceb4-17f5-435d-bf4d-635ba059999f"},"vehicle_type_id":"4","last_reported":1701504502,"current_range_meters":31200,"station_id":"ce4bguh2rcd13ifvqckg","pricing_plan_id":"free"},{"bike_id":"e98eb580-0759-4230-ad80-44e61349e9e0","system_id":"levelo_inurba_marseille","lat":43.305712,"lon":5.365641,"is_reserved":false,"is_disabled":false,"rental_uris":{"android":"levelo://app?vid=e98eb580-0759-4230-ad80-44e61349e9e0","ios":"levelo://app?vid=e98eb580-0759-4230-ad80-44e61349e9e0"},"vehicle_type_id":"4","last_reported":1701504502,"current_range_meters":24400,"station_id":"ce4bgs12rcd13ifvqcag","pricing_plan_id":"free"},{"bike_id":"df8ed9dd-5083-493f-bcd3-d33b6c6564b9","system_id":"levelo_inurba_marseille","lat":43.305712,"lon":5.365641,"is_reserved":false,"is_disabled":false,"rental_uris":{"android":"levelo://app?vid=df8ed9dd-5083-493f-bcd3-d33b6c6564b9","ios":"levelo://app?vid=df8ed9dd-5083-493f-bcd3-d33b6c6564b9"},"vehicle_type_id":"4","last_reported":1701504502,"current_range_meters":28000,"station_id":"ce4bgs12rcd13ifvqcag","pricing_plan_id":"free"},{"bike_id":"8e2b412b-aad9-42bf-ad73-a1e7f7ef83f0","system_id":"levelo_inurba_marseille","lat":43.305712,"lon":5.365641,"is_reserved":false,"is_disabled":false,"rental_uris":{"android":"levelo://app?vid=8e2b412b-aad9-42bf-ad73-a1e7f7ef83f0","ios":"levelo://app?vid=8e2b412b-aad9-42bf-ad73-a1e7f7ef83f0"},"vehicle_type_id":"4","last_reported":1701504502,"current_range_meters":26400,"station_id":"ce4bgs12rcd13ifvqcag","pricing_plan_id":"free"},{"bike_id":"f62b84be-11b6-423f-af76-cf1a18df68c7","system_id":"levelo_inurba_marseille","lat":43.305706,"lon":5.365654,"is_reserved":false,"is_disabled":false,"rental_uris":{"android":"levelo://app?vid=f62b84be-11b6-423f-af76-cf1a18df68c7","ios":"levelo://app?vid=f62b84be-11b6-423f-af76-cf1a18df68c7"},"vehicle_type_id":"4","last_reported":1701504502,"current_range_meters":23600,"station_id":"ce4bgs12rcd13ifvqcag","pricing_plan_id":"free"},{"bike_id":"7861355c-7e57-494b-aa47-577a1dd19de3","system_id":"levelo_inurba_marseille","lat":43.305706,"lon":5.365654,"is_reserved":false,"is_disabled":false,"rental_uris":{"android":"levelo://app?vid=7861355c-7e57-494b-aa47-577a1dd19de3","ios":"levelo://app?vid=7861355c-7e57-494b-aa47-577a1dd19de3"},"vehicle_type_id":"4","last_reported":1701504502,"current_range_meters":29200,"station_id":"ce4bgs12rcd13ifvqcag","pricing_plan_id":"free"},{"bike_id":"d8d534ef-b643-4355-abb6-1175c712746f","system_id":"levelo_inurba_marseille","lat":43.305345,"lon":5.36701,"is_reserved":false,"is_disabled":false,"rental_uris":{"android":"levelo://app?vid=d8d534ef-b643-4355-abb6-1175c712746f","ios":"levelo://app?vid=d8d534ef-b643-4355-abb6-1175c712746f"},"vehicle_type_id":"4","last_reported":1701504502,"current_range_meters":25600,"station_id":"ce4bgrp2rcd13ifvqc9g","pricing_plan_id":"free"},{"bike_id":"5f6920cf-a217-4255-a435-4d7e9b1286fc","system_id":"levelo_inurba_marseille","lat":43.305706,"lon":5.365654,"is_reserved":false,"is_disabled":false,"rental_uris":{"android":"levelo://app?vid=5f6920cf-a217-4255-a435-4d7e9b1286fc","ios":"levelo://app?vid=5f6920cf-a217-4255-a435-4d7e9b1286fc"},"vehicle_type_id":"4","last_reported":1701504502,"current_range_meters":20400,"station_id":"ce4bgs12rcd13ifvqcag","pricing_plan_id":"free"},{"bike_id":"4e6f5d1c-bd9e-419c-aabb-bb75f9aefa42","system_id":"levelo_inurba_marseille","lat":43.305714,"lon":5.365633,"is_reserved":false,"is_disabled":false,"rental_uris":{"android":"levelo://app?vid=4e6f5d1c-bd9e-419c-aabb-bb75f9aefa42","ios":"levelo://app?vid=4e6f5d1c-bd9e-419c-aabb-bb75f9aefa42"},"vehicle_type_id":"4","last_reported":1701504502,"current_range_meters":25200,"station_id":"ce4bgs12rcd13ifvqcag","pricing_plan_id":"free"},{"bike_id":"3956f250-55c9-43e4-b380-b14acf0b0031","system_id":"levelo_inurba_marseille","lat":43.305706,"lon":5.365654,"is_reserved":false,"is_disabled":false,"rental_uris":{"android":"levelo://app?vid=3956f250-55c9-43e4-b380-b14acf0b0031","ios":"levelo://app?vid=3956f250-55c9-43e4-b380-b14acf0b0031"},"vehicle_type_id":"4","last_reported":1701504502,"current_range_meters":22400,"station_id":"ce4bgs12rcd13ifvqcag","pricing_plan_id":"free"},{"bike_id":"347eb81c-09d8-487c-a10f-4aeed7e4697e","system_id":"levelo_inurba_marseille","lat":43.305706,"lon":5.365654,"is_reserved":false,"is_disabled":false,"rental_uris":{"android":"levelo://app?vid=347eb81c-09d8-487c-a10f-4aeed7e4697e","ios":"levelo://app?vid=347eb81c-09d8-487c-a10f-4aeed7e4697e"},"vehicle_type_id":"4","last_reported":1701504502,"current_range_meters":31600,"station_id":"ce4bgs12rcd13ifvqcag","pricing_plan_id":"free"},{"bike_id":"e7bd8103-096e-4179-a87d-71e961ce1d7a","system_id":"levelo_inurba_marseille","lat":43.305706,"lon":5.365654,"is_reserved":false,"is_disabled":false,"rental_uris":{"android":"levelo://app?vid=e7bd8103-096e-4179-a87d-71e961ce1d7a","ios":"levelo://app?vid=e7bd8103-096e-4179-a87d-71e961ce1d7a"},"vehicle_type_id":"4","last_reported":1701504502,"current_range_meters":26000,"station_id":"ce4bgs12rcd13ifvqcag","pricing_plan_id":"free"},{"bike_id":"94f6c913-8bf4-4879-bafb-44767fcbc1a8","system_id":"levelo_inurba_marseille","lat":43.305706,"lon":5.365654,"is_reserved":false,"is_disabled":false,"rental_uris":{"android":"levelo://app?vid=94f6c913-8bf4-4879-bafb-44767fcbc1a8","ios":"levelo://app?vid=94f6c913-8bf4-4879-bafb-44767fcbc1a8"},"vehicle_type_id":"4","last_reported":1701504502,"current_range_meters":22000,"station_id":"ce4bgs12rcd13ifvqcag","pricing_plan_id":"free"},{"bike_id":"8f0356b5-d61f-4416-9271-90c310aa6061","system_id":"levelo_inurba_marseille","lat":43.305989,"lon":5.37225,"is_reserved":false,"is_disabled":false,"rental_uris":{"android":"levelo://app?vid=8f0356b5-d61f-4416-9271-90c310aa6061","ios":"levelo://app?vid=8f0356b5-d61f-4416-9271-90c310aa6061"},"vehicle_type_id":"4","last_reported":1701504502,"current_range_meters":8000,"station_id":"ce4bgqh2rcd13ifvqc4g","pricing_plan_id":"free"},{"bike_id":"0db8f7ea-57ca-4c71-aa38-b1046508f9ef","system_id":"levelo_inurba_marseille","lat":43.311206,"lon":5.377586,"is_reserved":false,"is_disabled":false,"rental_uris":{"android":"levelo://app?vid=0db8f7ea-57ca-4c71-aa38-b1046508f9ef","ios":"levelo://app?vid=0db8f7ea-57ca-4c71-aa38-b1046508f9ef"},"vehicle_type_id":"4","last_reported":1701504502,"current_range_meters":22400,"station_id":"ce4bgt92rcd13ifvqcg0","pricing_plan_id":"free"},{"bike_id":"7bdbcfe9-924e-49e5-849f-fb7276f261aa","system_id":"levelo_inurba_marseille","lat":43.310544,"lon":5.377412,"is_reserved":false,"is_disabled":false,"rental_uris":{"android":"levelo://app?vid=7bdbcfe9-924e-49e5-849f-fb7276f261aa","ios":"levelo://app?vid=7bdbcfe9-924e-49e5-849f-fb7276f261aa"},"vehicle_type_id":"4","last_reported":1701504502,"current_range_meters":7200,"station_id":"","pricing_plan_id":"free"},{"bike_id":"b6756954-57f2-4f72-8684-210644fc26c2","system_id":"levelo_inurba_marseille","lat":43.311164,"lon":5.37771,"is_reserved":false,"is_disabled":false,"rental_uris":{"android":"levelo://app?vid=b6756954-57f2-4f72-8684-210644fc26c2","ios":"levelo://app?vid=b6756954-57f2-4f72-8684-210644fc26c2"},"vehicle_type_id":"4","last_reported":1701504502,"current_range_meters":2000,"station_id":"ce4bgt92rcd13ifvqcg0","pricing_plan_id":"free"},{"bike_id":"cfd3bb51-5657-4943-be4a-4ca2f802bb01","system_id":"levelo_inurba_marseille","lat":43.308174,"lon":5.376643,"is_reserved":false,"is_disabled":false,"rental_uris":{"android":"levelo://app?vid=cfd3bb51-5657-4943-be4a-4ca2f802bb01","ios":"levelo://app?vid=cfd3bb51-5657-4943-be4a-4ca2f802bb01"},"vehicle_type_id":"4","last_reported":1701504502,"current_range_meters":11600,"station_id":"ce4bgv92rcd13ifvqcq0","pricing_plan_id":"free"},{"bike_id":"ab1a45bc-5c86-4dc9-86c5-b3cdd9eb5b1a","system_id":"levelo_inurba_marseille","lat":43.32038,"lon":5.37189,"is_reserved":false,"is_disabled":false,"rental_uris":{"android":"levelo://app?vid=ab1a45bc-5c86-4dc9-86c5-b3cdd9eb5b1a","ios":"levelo://app?vid=ab1a45bc-5c86-4dc9-86c5-b3cdd9eb5b1a"},"vehicle_type_id":"4","last_reported":1701504502,"current_range_meters":0,"station_id":"","pricing_plan_id":"free"},{"bike_id":"f427a2c3-6e4a-446b-ae2f-9be8aa7f4122","system_id":"levelo_inurba_marseille","lat":43.31719,"lon":5.376813,"is_reserved":false,"is_disabled":false,"rental_uris":{"android":"levelo://app?vid=f427a2c3-6e4a-446b-ae2f-9be8aa7f4122","ios":"levelo://app?vid=f427a2c3-6e4a-446b-ae2f-9be8aa7f4122"},"vehicle_type_id":"4","last_reported":1701504502,"current_range_meters":0,"station_id":"","pricing_plan_id":"free"},{"bike_id":"e913f328-1e31-4c22-bd87-f809ea246de4","system_id":"levelo_inurba_marseille","lat":43.317168,"lon":5.376883,"is_reserved":false,"is_disabled":false,"rental_uris":{"android":"levelo://app?vid=e913f328-1e31-4c22-bd87-f809ea246de4","ios":"levelo://app?vid=e913f328-1e31-4c22-bd87-f809ea246de4"},"vehicle_type_id":"4","last_reported":1701504502,"current_range_meters":1200,"station_id":"","pricing_plan_id":"free"},{"bike_id":"6347e083-648a-4823-9e56-6c63431da41b","system_id":"levelo_inurba_marseille","lat":43.307945,"lon":5.376487,"is_reserved":false,"is_disabled":false,"rental_uris":{"android":"levelo://app?vid=6347e083-648a-4823-9e56-6c63431da41b","ios":"levelo://app?vid=6347e083-648a-4823-9e56-6c63431da41b"},"vehicle_type_id":"4","last_reported":1701504502,"current_range_meters":26800,"station_id":"ce4bgv92rcd13ifvqcq0","pricing_plan_id":"free"},{"bike_id":"016cf6d8-febc-4a39-b584-d99d4927b6d7","system_id":"levelo_inurba_marseille","lat":43.307945,"lon":5.376487,"is_reserved":false,"is_disabled":false,"rental_uris":{"android":"levelo://app?vid=016cf6d8-febc-4a39-b584-d99d4927b6d7","ios":"levelo://app?vid=016cf6d8-febc-4a39-b584-d99d4927b6d7"},"vehicle_type_id":"4","last_reported":1701504502,"current_range_meters":28000,"station_id":"ce4bgv92rcd13ifvqcq0","pricing_plan_id":"free"},{"bike_id":"b5b924cc-90b5-44be-a54f-a03b9368df8f","system_id":"levelo_inurba_marseille","lat":43.307945,"lon":5.376487,"is_reserved":false,"is_disabled":false,"rental_uris":{"android":"levelo://app?vid=b5b924cc-90b5-44be-a54f-a03b9368df8f","ios":"levelo://app?vid=b5b924cc-90b5-44be-a54f-a03b9368df8f"},"vehicle_type_id":"4","last_reported":1701504502,"current_range_meters":25200,"station_id":"ce4bgv92rcd13ifvqcq0","pricing_plan_id":"free"},{"bike_id":"92d8af04-b91c-4fe9-87f2-3d7cc202feb7","system_id":"levelo_inurba_marseille","lat":43.317075,"lon":5.377367,"is_reserved":false,"is_disabled":false,"rental_uris":{"android":"levelo://app?vid=92d8af04-b91c-4fe9-87f2-3d7cc202feb7","ios":"levelo://app?vid=92d8af04-b91c-4fe9-87f2-3d7cc202feb7"},"vehicle_type_id":"4","last_reported":1701504502,"current_range_meters":24800,"station_id":"ce4bgth2rcd13ifvqch0","pricing_plan_id":"free"},{"bike_id":"fb6fd937-527b-4585-9058-0dfdc6436ac8","system_id":"levelo_inurba_marseille","lat":43.31351,"lon":5.37909,"is_reserved":false,"is_disabled":false,"rental_uris":{"android":"levelo://app?vid=fb6fd937-527b-4585-9058-0dfdc6436ac8","ios":"levelo://app?vid=fb6fd937-527b-4585-9058-0dfdc6436ac8"},"vehicle_type_id":"4","last_reported":1701504502,"current_range_meters":22400,"station_id":"","pricing_plan_id":"free"},{"bike_id":"25248f99-b3c8-43df-9f08-39d0fce3f5bb","system_id":"levelo_inurba_marseille","lat":43.303046,"lon":5.368981,"is_reserved":false,"is_disabled":false,"rental_uris":{"android":"levelo://app?vid=25248f99-b3c8-43df-9f08-39d0fce3f5bb","ios":"levelo://app?vid=25248f99-b3c8-43df-9f08-39d0fce3f5bb"},"vehicle_type_id":"4","last_reported":1701504502,"current_range_meters":26000,"station_id":"ce4bgqh2rcd13ifvqc5g","pricing_plan_id":"free"},{"bike_id":"194ff67d-738d-48c1-a517-c6d5095fe7b4","system_id":"levelo_inurba_marseille","lat":43.315343,"lon":5.380347,"is_reserved":false,"is_disabled":false,"rental_uris":{"android":"levelo://app?vid=194ff67d-738d-48c1-a517-c6d5095fe7b4","ios":"levelo://app?vid=194ff67d-738d-48c1-a517-c6d5095fe7b4"},"vehicle_type_id":"4","last_reported":1701504502,"current_range_meters":17200,"station_id":"ce4bhsp2rcd13ifvqi50","pricing_plan_id":"free"},{"bike_id":"c6d52433-ae1f-4f2e-bf9c-c4fbac3abb8d","system_id":"levelo_inurba_marseille","lat":43.304606,"lon":5.379026,"is_reserved":false,"is_disabled":false,"rental_uris":{"android":"levelo://app?vid=c6d52433-ae1f-4f2e-bf9c-c4fbac3abb8d","ios":"levelo://app?vid=c6d52433-ae1f-4f2e-bf9c-c4fbac3abb8d"},"vehicle_type_id":"4","last_reported":1701504502,"current_range_meters":16000,"station_id":"ce4bgup2rcd13ifvqcn0","pricing_plan_id":"free"},{"bike_id":"d3808db5-19ec-4618-939a-996e24161832","system_id":"levelo_inurba_marseille","lat":43.30467,"lon":5.37897,"is_reserved":false,"is_disabled":false,"rental_uris":{"android":"levelo://app?vid=d3808db5-19ec-4618-939a-996e24161832","ios":"levelo://app?vid=d3808db5-19ec-4618-939a-996e24161832"},"vehicle_type_id":"4","last_reported":1701504502,"current_range_meters":28000,"station_id":"ce4bgup2rcd13ifvqcn0","pricing_plan_id":"free"},{"bike_id":"12e46c86-a00b-4037-b5f1-6a4e3adac05c","system_id":"levelo_inurba_marseille","lat":43.304606,"lon":5.379026,"is_reserved":false,"is_disabled":false,"rental_uris":{"android":"levelo://app?vid=12e46c86-a00b-4037-b5f1-6a4e3adac05c","ios":"levelo://app?vid=12e46c86-a00b-4037-b5f1-6a4e3adac05c"},"vehicle_type_id":"4","last_reported":1701504502,"current_range_meters":28800,"station_id":"ce4bgup2rcd13ifvqcn0","pricing_plan_id":"free"},{"bike_id":"855ea311-71d2-499c-91bb-f0b5569bb160","system_id":"levelo_inurba_marseille","lat":43.30465,"lon":5.37909,"is_reserved":false,"is_disabled":false,"rental_uris":{"android":"levelo://app?vid=855ea311-71d2-499c-91bb-f0b5569bb160","ios":"levelo://app?vid=855ea311-71d2-499c-91bb-f0b5569bb160"},"vehicle_type_id":"4","last_reported":1701504502,"current_range_meters":29200,"station_id":"ce4bgup2rcd13ifvqcn0","pricing_plan_id":"free"},{"bike_id":"2ff25ca5-3fef-4a73-93ed-394e693ea104","system_id":"levelo_inurba_marseille","lat":43.304606,"lon":5.379026,"is_reserved":false,"is_disabled":false,"rental_uris":{"android":"levelo://app?vid=2ff25ca5-3fef-4a73-93ed-394e693ea104","ios":"levelo://app?vid=2ff25ca5-3fef-4a73-93ed-394e693ea104"},"vehicle_type_id":"4","last_reported":1701504502,"current_range_meters":1200,"station_id":"ce4bgup2rcd13ifvqcn0","pricing_plan_id":"free"},{"bike_id":"4db04a8a-898b-43af-9076-dad275973f6d","system_id":"levelo_inurba_marseille","lat":43.30457,"lon":5.37907,"is_reserved":false,"is_disabled":false,"rental_uris":{"android":"levelo://app?vid=4db04a8a-898b-43af-9076-dad275973f6d","ios":"levelo://app?vid=4db04a8a-898b-43af-9076-dad275973f6d"},"vehicle_type_id":"4","last_reported":1701504502,"current_range_meters":23600,"station_id":"ce4bgup2rcd13ifvqcn0","pricing_plan_id":"free"},{"bike_id":"6c0095e5-a092-47ca-a0e6-d87953fd4acb","system_id":"levelo_inurba_marseille","lat":43.304606,"lon":5.379026,"is_reserved":false,"is_disabled":false,"rental_uris":{"android":"levelo://app?vid=6c0095e5-a092-47ca-a0e6-d87953fd4acb","ios":"levelo://app?vid=6c0095e5-a092-47ca-a0e6-d87953fd4acb"},"vehicle_type_id":"4","last_reported":1701504502,"current_range_meters":24000,"station_id":"ce4bgup2rcd13ifvqcn0","pricing_plan_id":"free"},{"bike_id":"e56c4c03-d6ac-416d-8380-bbaf7fb49559","system_id":"levelo_inurba_marseille","lat":43.324771,"lon":5.36557,"is_reserved":false,"is_disabled":false,"rental_uris":{"android":"levelo://app?vid=e56c4c03-d6ac-416d-8380-bbaf7fb49559","ios":"levelo://app?vid=e56c4c03-d6ac-416d-8380-bbaf7fb49559"},"vehicle_type_id":"4","last_reported":1701504502,"current_range_meters":3200,"station_id":"ce4bhs12rcd13ifvqhvg","pricing_plan_id":"free"},{"bike_id":"a6475a8a-11b3-4af0-85f3-fd2cabbfdd22","system_id":"levelo_inurba_marseille","lat":43.32477,"lon":5.36561,"is_reserved":false,"is_disabled":false,"rental_uris":{"android":"levelo://app?vid=a6475a8a-11b3-4af0-85f3-fd2cabbfdd22","ios":"levelo://app?vid=a6475a8a-11b3-4af0-85f3-fd2cabbfdd22"},"vehicle_type_id":"4","last_reported":1701504502,"current_range_meters":19200,"station_id":"ce4bhs12rcd13ifvqhvg","pricing_plan_id":"free"},{"bike_id":"19dcde97-826d-4c77-b8cf-d90ba7f775b0","system_id":"levelo_inurba_marseille","lat":43.324771,"lon":5.36557,"is_reserved":false,"is_disabled":false,"rental_uris":{"android":"levelo://app?vid=19dcde97-826d-4c77-b8cf-d90ba7f775b0","ios":"levelo://app?vid=19dcde97-826d-4c77-b8cf-d90ba7f775b0"},"vehicle_type_id":"4","last_reported":1701504502,"current_range_meters":14800,"station_id":"ce4bhs12rcd13ifvqhvg","pricing_plan_id":"free"},{"bike_id":"2275aca5-3158-4c2c-8022-ca5d2714bc86","system_id":"levelo_inurba_marseille","lat":43.319997,"lon":5.381594,"is_reserved":false,"is_disabled":false,"rental_uris":{"android":"levelo://app?vid=2275aca5-3158-4c2c-8022-ca5d2714bc86","ios":"levelo://app?vid=2275aca5-3158-4c2c-8022-ca5d2714bc86"},"vehicle_type_id":"4","last_reported":1701504502,"current_range_meters":16000,"station_id":"ce4bhr12rcd13ifvqhpg","pricing_plan_id":"free"},{"bike_id":"79bb6607-cc78-4995-9caf-aebfa08ae6a3","system_id":"levelo_inurba_marseille","lat":43.313571,"lon":5.384829,"is_reserved":false,"is_disabled":false,"rental_uris":{"android":"levelo://app?vid=79bb6607-cc78-4995-9caf-aebfa08ae6a3","ios":"levelo://app?vid=79bb6607-cc78-4995-9caf-aebfa08ae6a3"},"vehicle_type_id":"4","last_reported":1701504502,"current_range_meters":30800,"station_id":"ce4bgt92rcd13ifvqcf0","pricing_plan_id":"free"},{"bike_id":"9fdb7f97-586d-42d2-befd-15216ba2e422","system_id":"levelo_inurba_marseille","lat":43.31183,"lon":5.38523,"is_reserved":false,"is_disabled":false,"rental_uris":{"android":"levelo://app?vid=9fdb7f97-586d-42d2-befd-15216ba2e422","ios":"levelo://app?vid=9fdb7f97-586d-42d2-befd-15216ba2e422"},"vehicle_type_id":"4","last_reported":1701504502,"current_range_meters":2400,"station_id":"","pricing_plan_id":"free"},{"bike_id":"748d12ab-8e09-4ecd-b2d2-cbe0ea9624f6","system_id":"levelo_inurba_marseille","lat":43.298518,"lon":5.367566,"is_reserved":false,"is_disabled":false,"rental_uris":{"android":"levelo://app?vid=748d12ab-8e09-4ecd-b2d2-cbe0ea9624f6","ios":"levelo://app?vid=748d12ab-8e09-4ecd-b2d2-cbe0ea9624f6"},"vehicle_type_id":"4","last_reported":1701504502,"current_range_meters":7200,"station_id":"","pricing_plan_id":"free"},{"bike_id":"4a4eb50c-75bb-4e6b-9faa-8e5527e44948","system_id":"levelo_inurba_marseille","lat":43.311588,"lon":5.386873,"is_reserved":false,"is_disabled":false,"rental_uris":{"android":"levelo://app?vid=4a4eb50c-75bb-4e6b-9faa-8e5527e44948","ios":"levelo://app?vid=4a4eb50c-75bb-4e6b-9faa-8e5527e44948"},"vehicle_type_id":"4","last_reported":1701504502,"current_range_meters":4800,"station_id":"ce4bgv12rcd13ifvqcp0","pricing_plan_id":"free"},{"bike_id":"fb861d31-3608-471e-bcf7-f64a2c81bd8a","system_id":"levelo_inurba_marseille","lat":43.297794,"lon":5.370888,"is_reserved":false,"is_disabled":false,"rental_uris":{"android":"levelo://app?vid=fb861d31-3608-471e-bcf7-f64a2c81bd8a","ios":"levelo://app?vid=fb861d31-3608-471e-bcf7-f64a2c81bd8a"},"vehicle_type_id":"4","last_reported":1701504502,"current_range_meters":30000,"station_id":"ce4bgop2rcd13ifvqc1g","pricing_plan_id":"free"},{"bike_id":"65073be3-64d5-4947-9113-fd11101b78dd","system_id":"levelo_inurba_marseille","lat":43.322872,"lon":5.382756,"is_reserved":false,"is_disabled":false,"rental_uris":{"android":"levelo://app?vid=65073be3-64d5-4947-9113-fd11101b78dd","ios":"levelo://app?vid=65073be3-64d5-4947-9113-fd11101b78dd"},"vehicle_type_id":"4","last_reported":1701504502,"current_range_meters":9600,"station_id":"ce4bhr12rcd13ifvqhqg","pricing_plan_id":"free"},{"bike_id":"863e68e6-f678-4404-9035-1f0c001016cb","system_id":"levelo_inurba_marseille","lat":43.328252,"lon":5.366814,"is_reserved":false,"is_disabled":false,"rental_uris":{"android":"levelo://app?vid=863e68e6-f678-4404-9035-1f0c001016cb","ios":"levelo://app?vid=863e68e6-f678-4404-9035-1f0c001016cb"},"vehicle_type_id":"4","last_reported":1701504502,"current_range_meters":18000,"station_id":"ce4bhs92rcd13ifvqi0g","pricing_plan_id":"free"},{"bike_id":"7adcd94b-08f9-46ef-9183-0420f8c39d35","system_id":"levelo_inurba_marseille","lat":43.328371,"lon":5.366909,"is_reserved":false,"is_disabled":false,"rental_uris":{"android":"levelo://app?vid=7adcd94b-08f9-46ef-9183-0420f8c39d35","ios":"levelo://app?vid=7adcd94b-08f9-46ef-9183-0420f8c39d35"},"vehicle_type_id":"4","last_reported":1701504502,"current_range_meters":26800,"station_id":"ce4bhs92rcd13ifvqi0g","pricing_plan_id":"free"},{"bike_id":"3c6eacad-63e8-42f7-9988-09cf64b64dd8","system_id":"levelo_inurba_marseille","lat":43.328371,"lon":5.366909,"is_reserved":false,"is_disabled":false,"rental_uris":{"android":"levelo://app?vid=3c6eacad-63e8-42f7-9988-09cf64b64dd8","ios":"levelo://app?vid=3c6eacad-63e8-42f7-9988-09cf64b64dd8"},"vehicle_type_id":"4","last_reported":1701504502,"current_range_meters":9200,"station_id":"ce4bhs92rcd13ifvqi0g","pricing_plan_id":"free"},{"bike_id":"c0284961-478e-4ccd-b43e-321d6e4c5580","system_id":"levelo_inurba_marseille","lat":43.328371,"lon":5.366909,"is_reserved":false,"is_disabled":false,"rental_uris":{"android":"levelo://app?vid=c0284961-478e-4ccd-b43e-321d6e4c5580","ios":"levelo://app?vid=c0284961-478e-4ccd-b43e-321d6e4c5580"},"vehicle_type_id":"4","last_reported":1701504502,"current_range_meters":4000,"station_id":"ce4bhs92rcd13ifvqi0g","pricing_plan_id":"free"},{"bike_id":"5c26bdfb-7b7c-43fb-8a01-250128a1a6f8","system_id":"levelo_inurba_marseille","lat":43.32833,"lon":5.36688,"is_reserved":false,"is_disabled":false,"rental_uris":{"android":"levelo://app?vid=5c26bdfb-7b7c-43fb-8a01-250128a1a6f8","ios":"levelo://app?vid=5c26bdfb-7b7c-43fb-8a01-250128a1a6f8"},"vehicle_type_id":"4","last_reported":1701504502,"current_range_meters":22000,"station_id":"ce4bhs92rcd13ifvqi0g","pricing_plan_id":"free"},{"bike_id":"ea0a5854-ae1e-43ef-a329-7dc8aac13864","system_id":"levelo_inurba_marseille","lat":43.297163,"lon":5.365866,"is_reserved":false,"is_disabled":false,"rental_uris":{"android":"levelo://app?vid=ea0a5854-ae1e-43ef-a329-7dc8aac13864","ios":"levelo://app?vid=ea0a5854-ae1e-43ef-a329-7dc8aac13864"},"vehicle_type_id":"4","last_reported":1701504502,"current_range_meters":25200,"station_id":"ce4bgn12rcd13ifvqbt0","pricing_plan_id":"free"},{"bike_id":"eaa0e7e7-2390-47fa-909b-7b240952cbef","system_id":"levelo_inurba_marseille","lat":43.316602,"lon":5.389139,"is_reserved":false,"is_disabled":false,"rental_uris":{"android":"levelo://app?vid=eaa0e7e7-2390-47fa-909b-7b240952cbef","ios":"levelo://app?vid=eaa0e7e7-2390-47fa-909b-7b240952cbef"},"vehicle_type_id":"4","last_reported":1701504502,"current_range_meters":18000,"station_id":"","pricing_plan_id":"free"},{"bike_id":"74d90a9f-d116-4a02-b21f-85f4d6d25b07","system_id":"levelo_inurba_marseille","lat":43.296935,"lon":5.376544,"is_reserved":false,"is_disabled":false,"rental_uris":{"android":"levelo://app?vid=74d90a9f-d116-4a02-b21f-85f4d6d25b07","ios":"levelo://app?vid=74d90a9f-d116-4a02-b21f-85f4d6d25b07"},"vehicle_type_id":"4","last_reported":1701504502,"current_range_meters":31200,"station_id":"ce4bgkh2rcd13ifvqbl0","pricing_plan_id":"free"},{"bike_id":"1f137912-3cce-4df3-a7b0-1a450085508f","system_id":"levelo_inurba_marseille","lat":43.296921,"lon":5.376579,"is_reserved":false,"is_disabled":false,"rental_uris":{"android":"levelo://app?vid=1f137912-3cce-4df3-a7b0-1a450085508f","ios":"levelo://app?vid=1f137912-3cce-4df3-a7b0-1a450085508f"},"vehicle_type_id":"4","last_reported":1701504502,"current_range_meters":18400,"station_id":"ce4bgkh2rcd13ifvqbl0","pricing_plan_id":"free"},{"bike_id":"3354d1c3-993f-4361-bb3f-9230d1a7cd79","system_id":"levelo_inurba_marseille","lat":43.299028,"lon":5.381509,"is_reserved":false,"is_disabled":false,"rental_uris":{"android":"levelo://app?vid=3354d1c3-993f-4361-bb3f-9230d1a7cd79","ios":"levelo://app?vid=3354d1c3-993f-4361-bb3f-9230d1a7cd79"},"vehicle_type_id":"4","last_reported":1701504502,"current_range_meters":26800,"station_id":"ce4bgj12rcd13ifvqbc0","pricing_plan_id":"free"},{"bike_id":"7c0ffa05-2b01-4e99-a823-291132546b92","system_id":"levelo_inurba_marseille","lat":43.296935,"lon":5.376544,"is_reserved":false,"is_disabled":false,"rental_uris":{"android":"levelo://app?vid=7c0ffa05-2b01-4e99-a823-291132546b92","ios":"levelo://app?vid=7c0ffa05-2b01-4e99-a823-291132546b92"},"vehicle_type_id":"4","last_reported":1701504502,"current_range_meters":25200,"station_id":"ce4bgkh2rcd13ifvqbl0","pricing_plan_id":"free"},{"bike_id":"20750967-dbe2-4832-8f1e-eeab7a5d74d9","system_id":"levelo_inurba_marseille","lat":43.317557,"lon":5.390173,"is_reserved":false,"is_disabled":false,"rental_uris":{"android":"levelo://app?vid=20750967-dbe2-4832-8f1e-eeab7a5d74d9","ios":"levelo://app?vid=20750967-dbe2-4832-8f1e-eeab7a5d74d9"},"vehicle_type_id":"4","last_reported":1701504502,"current_range_meters":12800,"station_id":"ce4bhqp2rcd13ifvqhng","pricing_plan_id":"free"},{"bike_id":"7bcd35e6-44e8-4083-bf96-9a8c7d65b8b9","system_id":"levelo_inurba_marseille","lat":43.298037,"lon":5.381066,"is_reserved":false,"is_disabled":false,"rental_uris":{"android":"levelo://app?vid=7bcd35e6-44e8-4083-bf96-9a8c7d65b8b9","ios":"levelo://app?vid=7bcd35e6-44e8-4083-bf96-9a8c7d65b8b9"},"vehicle_type_id":"4","last_reported":1701504502,"current_range_meters":30000,"station_id":"ce4bgip2rcd13ifvqbb0","pricing_plan_id":"free"},{"bike_id":"586fee39-68f0-4d87-b9a0-1d51fc40f0f8","system_id":"levelo_inurba_marseille","lat":43.298037,"lon":5.381066,"is_reserved":false,"is_disabled":false,"rental_uris":{"android":"levelo://app?vid=586fee39-68f0-4d87-b9a0-1d51fc40f0f8","ios":"levelo://app?vid=586fee39-68f0-4d87-b9a0-1d51fc40f0f8"},"vehicle_type_id":"4","last_reported":1701504502,"current_range_meters":31200,"station_id":"ce4bgip2rcd13ifvqbb0","pricing_plan_id":"free"},{"bike_id":"a1c95082-a1c4-4780-9926-d3b509a6b2fa","system_id":"levelo_inurba_marseille","lat":43.298037,"lon":5.381066,"is_reserved":false,"is_disabled":false,"rental_uris":{"android":"levelo://app?vid=a1c95082-a1c4-4780-9926-d3b509a6b2fa","ios":"levelo://app?vid=a1c95082-a1c4-4780-9926-d3b509a6b2fa"},"vehicle_type_id":"4","last_reported":1701504502,"current_range_meters":31200,"station_id":"ce4bgip2rcd13ifvqbb0","pricing_plan_id":"free"},{"bike_id":"13ca97e5-82b5-4e06-8d78-e9793b7e594e","system_id":"levelo_inurba_marseille","lat":43.297142,"lon":5.379705,"is_reserved":false,"is_disabled":false,"rental_uris":{"android":"levelo://app?vid=13ca97e5-82b5-4e06-8d78-e9793b7e594e","ios":"levelo://app?vid=13ca97e5-82b5-4e06-8d78-e9793b7e594e"},"vehicle_type_id":"4","last_reported":1701504502,"current_range_meters":20000,"station_id":"","pricing_plan_id":"free"},{"bike_id":"f5ca492e-9870-487d-bf0b-1df9df32643a","system_id":"levelo_inurba_marseille","lat":43.295279,"lon":5.375048,"is_reserved":false,"is_disabled":false,"rental_uris":{"android":"levelo://app?vid=f5ca492e-9870-487d-bf0b-1df9df32643a","ios":"levelo://app?vid=f5ca492e-9870-487d-bf0b-1df9df32643a"},"vehicle_type_id":"4","last_reported":1701504502,"current_range_meters":26800,"station_id":"ce4bgkp2rcd13ifvqbmg","pricing_plan_id":"free"},{"bike_id":"7e1a5aab-b985-416f-9d7d-c2367c9ae4f8","system_id":"levelo_inurba_marseille","lat":43.295279,"lon":5.375048,"is_reserved":false,"is_disabled":false,"rental_uris":{"android":"levelo://app?vid=7e1a5aab-b985-416f-9d7d-c2367c9ae4f8","ios":"levelo://app?vid=7e1a5aab-b985-416f-9d7d-c2367c9ae4f8"},"vehicle_type_id":"4","last_reported":1701504502,"current_range_meters":24800,"station_id":"ce4bgkp2rcd13ifvqbmg","pricing_plan_id":"free"},{"bike_id":"7278f072-7e14-478c-9bca-be68f6fc3f0b","system_id":"levelo_inurba_marseille","lat":43.295279,"lon":5.375048,"is_reserved":false,"is_disabled":false,"rental_uris":{"android":"levelo://app?vid=7278f072-7e14-478c-9bca-be68f6fc3f0b","ios":"levelo://app?vid=7278f072-7e14-478c-9bca-be68f6fc3f0b"},"vehicle_type_id":"4","last_reported":1701504502,"current_range_meters":23200,"station_id":"ce4bgkp2rcd13ifvqbmg","pricing_plan_id":"free"},{"bike_id":"4de5192a-3c9d-433e-bbc0-7029dddef58f","system_id":"levelo_inurba_marseille","lat":43.292741,"lon":5.368472,"is_reserved":false,"is_disabled":false,"rental_uris":{"android":"levelo://app?vid=4de5192a-3c9d-433e-bbc0-7029dddef58f","ios":"levelo://app?vid=4de5192a-3c9d-433e-bbc0-7029dddef58f"},"vehicle_type_id":"4","last_reported":1701504502,"current_range_meters":12000,"station_id":"","pricing_plan_id":"free"},{"bike_id":"460c72c6-c4f9-4e9e-87b8-44f389b236f7","system_id":"levelo_inurba_marseille","lat":43.293824,"lon":5.378559,"is_reserved":false,"is_disabled":false,"rental_uris":{"android":"levelo://app?vid=460c72c6-c4f9-4e9e-87b8-44f389b236f7","ios":"levelo://app?vid=460c72c6-c4f9-4e9e-87b8-44f389b236f7"},"vehicle_type_id":"4","last_reported":1701504502,"current_range_meters":30400,"station_id":"ce4bgjh2rcd13ifvqbf0","pricing_plan_id":"free"},{"bike_id":"6341195b-4121-4444-96eb-5465bfef25e7","system_id":"levelo_inurba_marseille","lat":43.303002,"lon":5.392142,"is_reserved":false,"is_disabled":false,"rental_uris":{"android":"levelo://app?vid=6341195b-4121-4444-96eb-5465bfef25e7","ios":"levelo://app?vid=6341195b-4121-4444-96eb-5465bfef25e7"},"vehicle_type_id":"4","last_reported":1701504502,"current_range_meters":30400,"station_id":"ce4bgkh2rcd13ifvqbk0","pricing_plan_id":"free"},{"bike_id":"ffbea5cf-8a7f-4504-b542-ccf3d09bc663","system_id":"levelo_inurba_marseille","lat":43.2936,"lon":5.37835,"is_reserved":false,"is_disabled":false,"rental_uris":{"android":"levelo://app?vid=ffbea5cf-8a7f-4504-b542-ccf3d09bc663","ios":"levelo://app?vid=ffbea5cf-8a7f-4504-b542-ccf3d09bc663"},"vehicle_type_id":"4","last_reported":1701504502,"current_range_meters":28800,"station_id":"ce4bgjh2rcd13ifvqbf0","pricing_plan_id":"free"},{"bike_id":"0e8c036b-d968-4a2a-9338-84e71130389f","system_id":"levelo_inurba_marseille","lat":43.30595,"lon":5.394217,"is_reserved":false,"is_disabled":false,"rental_uris":{"android":"levelo://app?vid=0e8c036b-d968-4a2a-9338-84e71130389f","ios":"levelo://app?vid=0e8c036b-d968-4a2a-9338-84e71130389f"},"vehicle_type_id":"4","last_reported":1701504502,"current_range_meters":27600,"station_id":"","pricing_plan_id":"free"},{"bike_id":"abc6902d-4776-4612-938e-66d5c90fe988","system_id":"levelo_inurba_marseille","lat":43.309038,"lon":5.396546,"is_reserved":false,"is_disabled":false,"rental_uris":{"android":"levelo://app?vid=abc6902d-4776-4612-938e-66d5c90fe988","ios":"levelo://app?vid=abc6902d-4776-4612-938e-66d5c90fe988"},"vehicle_type_id":"4","last_reported":1701504502,"current_range_meters":7600,"station_id":"ce4bh012rcd13ifvqcv0","pricing_plan_id":"free"},{"bike_id":"9c0cf2a9-c3e0-468b-9f74-b4e99725f3a2","system_id":"levelo_inurba_marseille","lat":43.302102,"lon":5.394713,"is_reserved":false,"is_disabled":false,"rental_uris":{"android":"levelo://app?vid=9c0cf2a9-c3e0-468b-9f74-b4e99725f3a2","ios":"levelo://app?vid=9c0cf2a9-c3e0-468b-9f74-b4e99725f3a2"},"vehicle_type_id":"4","last_reported":1701504502,"current_range_meters":24800,"station_id":"","pricing_plan_id":"free"},{"bike_id":"c58b39fe-f050-44d5-bbe7-4abcb7249795","system_id":"levelo_inurba_marseille","lat":43.291541,"lon":5.380542,"is_reserved":false,"is_disabled":false,"rental_uris":{"android":"levelo://app?vid=c58b39fe-f050-44d5-bbe7-4abcb7249795","ios":"levelo://app?vid=c58b39fe-f050-44d5-bbe7-4abcb7249795"},"vehicle_type_id":"4","last_reported":1701504502,"current_range_meters":15600,"station_id":"ce4bhn92rcd13ifvqgrg","pricing_plan_id":"free"},{"bike_id":"6e67f72e-b4cc-45ab-8299-b17335030597","system_id":"levelo_inurba_marseille","lat":43.290104,"lon":5.356111,"is_reserved":false,"is_disabled":false,"rental_uris":{"android":"levelo://app?vid=6e67f72e-b4cc-45ab-8299-b17335030597","ios":"levelo://app?vid=6e67f72e-b4cc-45ab-8299-b17335030597"},"vehicle_type_id":"4","last_reported":1701504502,"current_range_meters":29600,"station_id":"ce4bhb92rcd13ifvqen0","pricing_plan_id":"free"},{"bike_id":"7a6762eb-d7bc-4214-b172-ae44b4a4c395","system_id":"levelo_inurba_marseille","lat":43.290103,"lon":5.356114,"is_reserved":false,"is_disabled":false,"rental_uris":{"android":"levelo://app?vid=7a6762eb-d7bc-4214-b172-ae44b4a4c395","ios":"levelo://app?vid=7a6762eb-d7bc-4214-b172-ae44b4a4c395"},"vehicle_type_id":"4","last_reported":1701504502,"current_range_meters":30000,"station_id":"ce4bhb92rcd13ifvqen0","pricing_plan_id":"free"},{"bike_id":"ea0a5799-7aa9-4ed2-bc79-8b2eb1a165b9","system_id":"levelo_inurba_marseille","lat":43.290103,"lon":5.356114,"is_reserved":false,"is_disabled":false,"rental_uris":{"android":"levelo://app?vid=ea0a5799-7aa9-4ed2-bc79-8b2eb1a165b9","ios":"levelo://app?vid=ea0a5799-7aa9-4ed2-bc79-8b2eb1a165b9"},"vehicle_type_id":"4","last_reported":1701504502,"current_range_meters":10400,"station_id":"ce4bhb92rcd13ifvqen0","pricing_plan_id":"free"},{"bike_id":"b38135b0-bb14-4c25-bf29-b49d406cc922","system_id":"levelo_inurba_marseille","lat":43.33043,"lon":5.38921,"is_reserved":false,"is_disabled":false,"rental_uris":{"android":"levelo://app?vid=b38135b0-bb14-4c25-bf29-b49d406cc922","ios":"levelo://app?vid=b38135b0-bb14-4c25-bf29-b49d406cc922"},"vehicle_type_id":"4","last_reported":1701504502,"current_range_meters":1600,"station_id":"ce4bhr92rcd13ifvqhrg","pricing_plan_id":"free"},{"bike_id":"3e4f986b-90a3-4048-ad5b-ca47ec70dea3","system_id":"levelo_inurba_marseille","lat":43.290104,"lon":5.356111,"is_reserved":false,"is_disabled":false,"rental_uris":{"android":"levelo://app?vid=3e4f986b-90a3-4048-ad5b-ca47ec70dea3","ios":"levelo://app?vid=3e4f986b-90a3-4048-ad5b-ca47ec70dea3"},"vehicle_type_id":"4","last_reported":1701504502,"current_range_meters":7200,"station_id":"ce4bhb92rcd13ifvqen0","pricing_plan_id":"free"},{"bike_id":"a6468dd2-6632-46da-be39-0cc8552c84c7","system_id":"levelo_inurba_marseille","lat":43.33042,"lon":5.38925,"is_reserved":false,"is_disabled":false,"rental_uris":{"android":"levelo://app?vid=a6468dd2-6632-46da-be39-0cc8552c84c7","ios":"levelo://app?vid=a6468dd2-6632-46da-be39-0cc8552c84c7"},"vehicle_type_id":"4","last_reported":1701504502,"current_range_meters":29600,"station_id":"ce4bhr92rcd13ifvqhrg","pricing_plan_id":"free"},{"bike_id":"a6169d29-2cb0-4452-84f0-44111733e2cb","system_id":"levelo_inurba_marseille","lat":43.289743,"lon":5.378304,"is_reserved":false,"is_disabled":false,"rental_uris":{"android":"levelo://app?vid=a6169d29-2cb0-4452-84f0-44111733e2cb","ios":"levelo://app?vid=a6169d29-2cb0-4452-84f0-44111733e2cb"},"vehicle_type_id":"4","last_reported":1701504502,"current_range_meters":30000,"station_id":"ce4bh9p2rcd13ifvqed0","pricing_plan_id":"free"},{"bike_id":"0c839800-176d-4914-ad81-dc8f535e3081","system_id":"levelo_inurba_marseille","lat":43.28856,"lon":5.358371,"is_reserved":false,"is_disabled":false,"rental_uris":{"android":"levelo://app?vid=0c839800-176d-4914-ad81-dc8f535e3081","ios":"levelo://app?vid=0c839800-176d-4914-ad81-dc8f535e3081"},"vehicle_type_id":"4","last_reported":1701504502,"current_range_meters":13200,"station_id":"ce4bhb12rcd13ifvqem0","pricing_plan_id":"free"},{"bike_id":"0beb987f-0a44-47f6-96cb-9c3244a5825a","system_id":"levelo_inurba_marseille","lat":43.309371,"lon":5.401449,"is_reserved":false,"is_disabled":false,"rental_uris":{"android":"levelo://app?vid=0beb987f-0a44-47f6-96cb-9c3244a5825a","ios":"levelo://app?vid=0beb987f-0a44-47f6-96cb-9c3244a5825a"},"vehicle_type_id":"4","last_reported":1701504502,"current_range_meters":24400,"station_id":"ce4bgvp2rcd13ifvqct0","pricing_plan_id":"free"},{"bike_id":"65ac5f69-fce7-47ef-9056-4949b0e0591e","system_id":"levelo_inurba_marseille","lat":43.309371,"lon":5.401449,"is_reserved":false,"is_disabled":false,"rental_uris":{"android":"levelo://app?vid=65ac5f69-fce7-47ef-9056-4949b0e0591e","ios":"levelo://app?vid=65ac5f69-fce7-47ef-9056-4949b0e0591e"},"vehicle_type_id":"4","last_reported":1701504502,"current_range_meters":25200,"station_id":"ce4bgvp2rcd13ifvqct0","pricing_plan_id":"free"},{"bike_id":"dd06d97c-c441-4bca-9e32-15fd0ebed003","system_id":"levelo_inurba_marseille","lat":43.309371,"lon":5.401449,"is_reserved":false,"is_disabled":false,"rental_uris":{"android":"levelo://app?vid=dd06d97c-c441-4bca-9e32-15fd0ebed003","ios":"levelo://app?vid=dd06d97c-c441-4bca-9e32-15fd0ebed003"},"vehicle_type_id":"4","last_reported":1701504502,"current_range_meters":6400,"station_id":"ce4bgvp2rcd13ifvqct0","pricing_plan_id":"free"},{"bike_id":"84dcca8f-9a06-4dbd-bb3a-c7d38c195516","system_id":"levelo_inurba_marseille","lat":43.289307,"lon":5.38406,"is_reserved":false,"is_disabled":false,"rental_uris":{"android":"levelo://app?vid=84dcca8f-9a06-4dbd-bb3a-c7d38c195516","ios":"levelo://app?vid=84dcca8f-9a06-4dbd-bb3a-c7d38c195516"},"vehicle_type_id":"4","last_reported":1701504502,"current_range_meters":28800,"station_id":"ce4bh612rcd13ifvqe6g","pricing_plan_id":"free"},{"bike_id":"6c31bfbe-b041-4540-bccd-1852c88437e3","system_id":"levelo_inurba_marseille","lat":43.302759,"lon":5.400793,"is_reserved":false,"is_disabled":false,"rental_uris":{"android":"levelo://app?vid=6c31bfbe-b041-4540-bccd-1852c88437e3","ios":"levelo://app?vid=6c31bfbe-b041-4540-bccd-1852c88437e3"},"vehicle_type_id":"4","last_reported":1701504502,"current_range_meters":24400,"station_id":"ce4bgvh2rcd13ifvqcs0","pricing_plan_id":"free"},{"bike_id":"951dab98-6ab0-4b4b-aa1c-11ced5eca36d","system_id":"levelo_inurba_marseille","lat":43.290345,"lon":5.38646,"is_reserved":false,"is_disabled":false,"rental_uris":{"android":"levelo://app?vid=951dab98-6ab0-4b4b-aa1c-11ced5eca36d","ios":"levelo://app?vid=951dab98-6ab0-4b4b-aa1c-11ced5eca36d"},"vehicle_type_id":"4","last_reported":1701504502,"current_range_meters":2000,"station_id":"ce4bh4p2rcd13ifvqe0g","pricing_plan_id":"free"},{"bike_id":"5ffc400f-750d-4d9b-b5a6-2cfaafcfe2c6","system_id":"levelo_inurba_marseille","lat":43.286039,"lon":5.370679,"is_reserved":false,"is_disabled":false,"rental_uris":{"android":"levelo://app?vid=5ffc400f-750d-4d9b-b5a6-2cfaafcfe2c6","ios":"levelo://app?vid=5ffc400f-750d-4d9b-b5a6-2cfaafcfe2c6"},"vehicle_type_id":"4","last_reported":1701504502,"current_range_meters":18800,"station_id":"ce4bht12rcd13ifvqi60","pricing_plan_id":"free"},{"bike_id":"40b013a4-8905-48ea-afb9-3ba70bd67899","system_id":"levelo_inurba_marseille","lat":43.28614,"lon":5.37062,"is_reserved":false,"is_disabled":false,"rental_uris":{"android":"levelo://app?vid=40b013a4-8905-48ea-afb9-3ba70bd67899","ios":"levelo://app?vid=40b013a4-8905-48ea-afb9-3ba70bd67899"},"vehicle_type_id":"4","last_reported":1701504502,"current_range_meters":5200,"station_id":"ce4bht12rcd13ifvqi60","pricing_plan_id":"free"},{"bike_id":"6eb8f6e0-6e8f-4f2e-8275-7e34ab91e865","system_id":"levelo_inurba_marseille","lat":43.30249,"lon":5.40086,"is_reserved":false,"is_disabled":false,"rental_uris":{"android":"levelo://app?vid=6eb8f6e0-6e8f-4f2e-8275-7e34ab91e865","ios":"levelo://app?vid=6eb8f6e0-6e8f-4f2e-8275-7e34ab91e865"},"vehicle_type_id":"4","last_reported":1701504502,"current_range_meters":24000,"station_id":"ce4bgvh2rcd13ifvqcs0","pricing_plan_id":"free"},{"bike_id":"b8d094eb-a1e1-4b3b-ac7e-e2cbe4c9297f","system_id":"levelo_inurba_marseille","lat":43.316517,"lon":5.404375,"is_reserved":false,"is_disabled":false,"rental_uris":{"android":"levelo://app?vid=b8d094eb-a1e1-4b3b-ac7e-e2cbe4c9297f","ios":"levelo://app?vid=b8d094eb-a1e1-4b3b-ac7e-e2cbe4c9297f"},"vehicle_type_id":"4","last_reported":1701504502,"current_range_meters":14400,"station_id":"ce4bh012rcd13ifvqd00","pricing_plan_id":"free"},{"bike_id":"5f7069c3-d3c3-45fb-9e62-764a4f1ae3f3","system_id":"levelo_inurba_marseille","lat":43.284538,"lon":5.358657,"is_reserved":false,"is_disabled":false,"rental_uris":{"android":"levelo://app?vid=5f7069c3-d3c3-45fb-9e62-764a4f1ae3f3","ios":"levelo://app?vid=5f7069c3-d3c3-45fb-9e62-764a4f1ae3f3"},"vehicle_type_id":"4","last_reported":1701504502,"current_range_meters":26800,"station_id":"ce4bhah2rcd13ifvqei0","pricing_plan_id":"free"},{"bike_id":"6876ca3c-4536-4659-b150-3e9e6d87cd51","system_id":"levelo_inurba_marseille","lat":43.284534,"lon":5.358662,"is_reserved":false,"is_disabled":false,"rental_uris":{"android":"levelo://app?vid=6876ca3c-4536-4659-b150-3e9e6d87cd51","ios":"levelo://app?vid=6876ca3c-4536-4659-b150-3e9e6d87cd51"},"vehicle_type_id":"4","last_reported":1701504502,"current_range_meters":31200,"station_id":"ce4bhah2rcd13ifvqei0","pricing_plan_id":"free"},{"bike_id":"17f3ee28-4a08-4b51-bb88-b24a1fdcee57","system_id":"levelo_inurba_marseille","lat":43.284538,"lon":5.358657,"is_reserved":false,"is_disabled":false,"rental_uris":{"android":"levelo://app?vid=17f3ee28-4a08-4b51-bb88-b24a1fdcee57","ios":"levelo://app?vid=17f3ee28-4a08-4b51-bb88-b24a1fdcee57"},"vehicle_type_id":"4","last_reported":1701504502,"current_range_meters":31600,"station_id":"ce4bhah2rcd13ifvqei0","pricing_plan_id":"free"},{"bike_id":"d602a3d1-e3f7-4a70-9183-9c49798f1d01","system_id":"levelo_inurba_marseille","lat":43.284538,"lon":5.358657,"is_reserved":false,"is_disabled":false,"rental_uris":{"android":"levelo://app?vid=d602a3d1-e3f7-4a70-9183-9c49798f1d01","ios":"levelo://app?vid=d602a3d1-e3f7-4a70-9183-9c49798f1d01"},"vehicle_type_id":"4","last_reported":1701504502,"current_range_meters":31600,"station_id":"ce4bhah2rcd13ifvqei0","pricing_plan_id":"free"},{"bike_id":"f9c4ef53-a1cb-47bf-87da-7f7c34cdd376","system_id":"levelo_inurba_marseille","lat":43.284538,"lon":5.358657,"is_reserved":false,"is_disabled":false,"rental_uris":{"android":"levelo://app?vid=f9c4ef53-a1cb-47bf-87da-7f7c34cdd376","ios":"levelo://app?vid=f9c4ef53-a1cb-47bf-87da-7f7c34cdd376"},"vehicle_type_id":"4","last_reported":1701504502,"current_range_meters":26400,"station_id":"ce4bhah2rcd13ifvqei0","pricing_plan_id":"free"},{"bike_id":"eb63e17f-a373-4022-b6a6-bf4ce259727a","system_id":"levelo_inurba_marseille","lat":43.283998,"lon":5.375062,"is_reserved":false,"is_disabled":false,"rental_uris":{"android":"levelo://app?vid=eb63e17f-a373-4022-b6a6-bf4ce259727a","ios":"levelo://app?vid=eb63e17f-a373-4022-b6a6-bf4ce259727a"},"vehicle_type_id":"4","last_reported":1701504502,"current_range_meters":23600,"station_id":"ce4bh412rcd13ifvqds0","pricing_plan_id":"free"},{"bike_id":"9cb1a816-0634-4d52-b546-4a357148d293","system_id":"levelo_inurba_marseille","lat":43.286595,"lon":5.386795,"is_reserved":false,"is_disabled":false,"rental_uris":{"android":"levelo://app?vid=9cb1a816-0634-4d52-b546-4a357148d293","ios":"levelo://app?vid=9cb1a816-0634-4d52-b546-4a357148d293"},"vehicle_type_id":"4","last_reported":1701504502,"current_range_meters":16800,"station_id":"ce4bh492rcd13ifvqdug","pricing_plan_id":"free"},{"bike_id":"639773fe-e875-4348-96fb-1a53d48973da","system_id":"levelo_inurba_marseille","lat":43.286595,"lon":5.386795,"is_reserved":false,"is_disabled":false,"rental_uris":{"android":"levelo://app?vid=639773fe-e875-4348-96fb-1a53d48973da","ios":"levelo://app?vid=639773fe-e875-4348-96fb-1a53d48973da"},"vehicle_type_id":"4","last_reported":1701504502,"current_range_meters":26400,"station_id":"ce4bh492rcd13ifvqdug","pricing_plan_id":"free"},{"bike_id":"0d5d7ab8-9ae7-432f-9189-bf46aad59761","system_id":"levelo_inurba_marseille","lat":43.319179,"lon":5.407725,"is_reserved":false,"is_disabled":false,"rental_uris":{"android":"levelo://app?vid=0d5d7ab8-9ae7-432f-9189-bf46aad59761","ios":"levelo://app?vid=0d5d7ab8-9ae7-432f-9189-bf46aad59761"},"vehicle_type_id":"4","last_reported":1701504502,"current_range_meters":31200,"station_id":"ce4bhq12rcd13ifvqhig","pricing_plan_id":"free"},{"bike_id":"7f458fab-3a0c-4609-8310-733ff5bbba57","system_id":"levelo_inurba_marseille","lat":43.33717,"lon":5.391857,"is_reserved":false,"is_disabled":false,"rental_uris":{"android":"levelo://app?vid=7f458fab-3a0c-4609-8310-733ff5bbba57","ios":"levelo://app?vid=7f458fab-3a0c-4609-8310-733ff5bbba57"},"vehicle_type_id":"4","last_reported":1701504502,"current_range_meters":30000,"station_id":"ce4bhr92rcd13ifvqhsg","pricing_plan_id":"free"},{"bike_id":"f99fc4d8-709b-4cee-a32c-2cdd6f1e8b1e","system_id":"levelo_inurba_marseille","lat":43.337168,"lon":5.391825,"is_reserved":false,"is_disabled":false,"rental_uris":{"android":"levelo://app?vid=f99fc4d8-709b-4cee-a32c-2cdd6f1e8b1e","ios":"levelo://app?vid=f99fc4d8-709b-4cee-a32c-2cdd6f1e8b1e"},"vehicle_type_id":"4","last_reported":1701504502,"current_range_meters":26400,"station_id":"ce4bhr92rcd13ifvqhsg","pricing_plan_id":"free"},{"bike_id":"4714f7cd-5ff4-41d0-870b-3e9261538b58","system_id":"levelo_inurba_marseille","lat":43.323464,"lon":5.406297,"is_reserved":false,"is_disabled":false,"rental_uris":{"android":"levelo://app?vid=4714f7cd-5ff4-41d0-870b-3e9261538b58","ios":"levelo://app?vid=4714f7cd-5ff4-41d0-870b-3e9261538b58"},"vehicle_type_id":"4","last_reported":1701504502,"current_range_meters":27600,"station_id":"ce4bhq92rcd13ifvqhjg","pricing_plan_id":"free"},{"bike_id":"1533b5af-79f1-4dbe-883a-97401c2d5e9c","system_id":"levelo_inurba_marseille","lat":43.284793,"lon":5.384113,"is_reserved":false,"is_disabled":false,"rental_uris":{"android":"levelo://app?vid=1533b5af-79f1-4dbe-883a-97401c2d5e9c","ios":"levelo://app?vid=1533b5af-79f1-4dbe-883a-97401c2d5e9c"},"vehicle_type_id":"4","last_reported":1701504502,"current_range_meters":28800,"station_id":"ce4bh512rcd13ifvqe3g","pricing_plan_id":"free"},{"bike_id":"4092b413-a8f0-49fd-8cc3-69bf3f509a40","system_id":"levelo_inurba_marseille","lat":43.323389,"lon":5.406335,"is_reserved":false,"is_disabled":false,"rental_uris":{"android":"levelo://app?vid=4092b413-a8f0-49fd-8cc3-69bf3f509a40","ios":"levelo://app?vid=4092b413-a8f0-49fd-8cc3-69bf3f509a40"},"vehicle_type_id":"4","last_reported":1701504502,"current_range_meters":11200,"station_id":"ce4bhq92rcd13ifvqhjg","pricing_plan_id":"free"},{"bike_id":"9091ed2b-9887-4b21-a1ea-118d44dace34","system_id":"levelo_inurba_marseille","lat":43.284787,"lon":5.384116,"is_reserved":false,"is_disabled":false,"rental_uris":{"android":"levelo://app?vid=9091ed2b-9887-4b21-a1ea-118d44dace34","ios":"levelo://app?vid=9091ed2b-9887-4b21-a1ea-118d44dace34"},"vehicle_type_id":"4","last_reported":1701504502,"current_range_meters":19200,"station_id":"ce4bh512rcd13ifvqe3g","pricing_plan_id":"free"},{"bike_id":"f086999d-1d6e-45ce-a8dd-e1ce8c0cfa77","system_id":"levelo_inurba_marseille","lat":43.284787,"lon":5.384116,"is_reserved":false,"is_disabled":false,"rental_uris":{"android":"levelo://app?vid=f086999d-1d6e-45ce-a8dd-e1ce8c0cfa77","ios":"levelo://app?vid=f086999d-1d6e-45ce-a8dd-e1ce8c0cfa77"},"vehicle_type_id":"4","last_reported":1701504502,"current_range_meters":30000,"station_id":"ce4bh512rcd13ifvqe3g","pricing_plan_id":"free"},{"bike_id":"c518fd69-72e2-4494-9986-675bd479b438","system_id":"levelo_inurba_marseille","lat":43.28946,"lon":5.39633,"is_reserved":false,"is_disabled":false,"rental_uris":{"android":"levelo://app?vid=c518fd69-72e2-4494-9986-675bd479b438","ios":"levelo://app?vid=c518fd69-72e2-4494-9986-675bd479b438"},"vehicle_type_id":"4","last_reported":1701504502,"current_range_meters":6000,"station_id":"ce4bh3h2rcd13ifvqdn0","pricing_plan_id":"free"},{"bike_id":"40083ea1-2522-4500-b841-8ab6bb3f0d0c","system_id":"levelo_inurba_marseille","lat":43.282754,"lon":5.350519,"is_reserved":false,"is_disabled":false,"rental_uris":{"android":"levelo://app?vid=40083ea1-2522-4500-b841-8ab6bb3f0d0c","ios":"levelo://app?vid=40083ea1-2522-4500-b841-8ab6bb3f0d0c"},"vehicle_type_id":"4","last_reported":1701504502,"current_range_meters":8800,"station_id":"ce4bhbp2rcd13ifvqerg","pricing_plan_id":"free"},{"bike_id":"9228b679-a081-4c22-835c-fa72278ded5d","system_id":"levelo_inurba_marseille","lat":43.282744,"lon":5.350533,"is_reserved":false,"is_disabled":false,"rental_uris":{"android":"levelo://app?vid=9228b679-a081-4c22-835c-fa72278ded5d","ios":"levelo://app?vid=9228b679-a081-4c22-835c-fa72278ded5d"},"vehicle_type_id":"4","last_reported":1701504502,"current_range_meters":31200,"station_id":"ce4bhbp2rcd13ifvqerg","pricing_plan_id":"free"},{"bike_id":"0c4fad75-8e74-4713-9136-65a1cb3f2347","system_id":"levelo_inurba_marseille","lat":43.283502,"lon":5.386471,"is_reserved":false,"is_disabled":false,"rental_uris":{"android":"levelo://app?vid=0c4fad75-8e74-4713-9136-65a1cb3f2347","ios":"levelo://app?vid=0c4fad75-8e74-4713-9136-65a1cb3f2347"},"vehicle_type_id":"4","last_reported":1701504502,"current_range_meters":30400,"station_id":"ce4bh492rcd13ifvqdvg","pricing_plan_id":"free"},{"bike_id":"c0e2fc9f-ba89-4f16-aad4-e724ae738cf0","system_id":"levelo_inurba_marseille","lat":43.28039,"lon":5.369297,"is_reserved":false,"is_disabled":false,"rental_uris":{"android":"levelo://app?vid=c0e2fc9f-ba89-4f16-aad4-e724ae738cf0","ios":"levelo://app?vid=c0e2fc9f-ba89-4f16-aad4-e724ae738cf0"},"vehicle_type_id":"4","last_reported":1701504502,"current_range_meters":23600,"station_id":"ce4bha12rcd13ifvqef0","pricing_plan_id":"free"},{"bike_id":"9ef94a84-4076-4435-85f6-f5bdcee061fc","system_id":"levelo_inurba_marseille","lat":43.28364,"lon":5.38645,"is_reserved":false,"is_disabled":false,"rental_uris":{"android":"levelo://app?vid=9ef94a84-4076-4435-85f6-f5bdcee061fc","ios":"levelo://app?vid=9ef94a84-4076-4435-85f6-f5bdcee061fc"},"vehicle_type_id":"4","last_reported":1701504502,"current_range_meters":27600,"station_id":"ce4bh492rcd13ifvqdvg","pricing_plan_id":"free"},{"bike_id":"384e313f-492c-4d83-a1a6-c31122558ed0","system_id":"levelo_inurba_marseille","lat":43.280382,"lon":5.369291,"is_reserved":false,"is_disabled":false,"rental_uris":{"android":"levelo://app?vid=384e313f-492c-4d83-a1a6-c31122558ed0","ios":"levelo://app?vid=384e313f-492c-4d83-a1a6-c31122558ed0"},"vehicle_type_id":"4","last_reported":1701504502,"current_range_meters":29600,"station_id":"ce4bha12rcd13ifvqef0","pricing_plan_id":"free"},{"bike_id":"da9c69a8-f034-4bc4-bd6f-19169039de2b","system_id":"levelo_inurba_marseille","lat":43.280382,"lon":5.369291,"is_reserved":false,"is_disabled":false,"rental_uris":{"android":"levelo://app?vid=da9c69a8-f034-4bc4-bd6f-19169039de2b","ios":"levelo://app?vid=da9c69a8-f034-4bc4-bd6f-19169039de2b"},"vehicle_type_id":"4","last_reported":1701504502,"current_range_meters":27200,"station_id":"ce4bha12rcd13ifvqef0","pricing_plan_id":"free"},{"bike_id":"c81d63d5-2efd-4b1d-9e0e-316ba3180473","system_id":"levelo_inurba_marseille","lat":43.296263,"lon":5.40601,"is_reserved":false,"is_disabled":false,"rental_uris":{"android":"levelo://app?vid=c81d63d5-2efd-4b1d-9e0e-316ba3180473","ios":"levelo://app?vid=c81d63d5-2efd-4b1d-9e0e-316ba3180473"},"vehicle_type_id":"4","last_reported":1701504502,"current_range_meters":18800,"station_id":"ce4bh0h2rcd13ifvqd60","pricing_plan_id":"free"},{"bike_id":"e4a61532-43ec-43eb-a818-fdbce2c8988a","system_id":"levelo_inurba_marseille","lat":43.284462,"lon":5.392121,"is_reserved":false,"is_disabled":false,"rental_uris":{"android":"levelo://app?vid=e4a61532-43ec-43eb-a818-fdbce2c8988a","ios":"levelo://app?vid=e4a61532-43ec-43eb-a818-fdbce2c8988a"},"vehicle_type_id":"4","last_reported":1701504502,"current_range_meters":30000,"station_id":"ce4bhoh2rcd13ifvqh5g","pricing_plan_id":"free"},{"bike_id":"6306cf92-f06d-48c3-ac28-f9f349cb0b22","system_id":"levelo_inurba_marseille","lat":43.284462,"lon":5.392121,"is_reserved":false,"is_disabled":false,"rental_uris":{"android":"levelo://app?vid=6306cf92-f06d-48c3-ac28-f9f349cb0b22","ios":"levelo://app?vid=6306cf92-f06d-48c3-ac28-f9f349cb0b22"},"vehicle_type_id":"4","last_reported":1701504502,"current_range_meters":29600,"station_id":"ce4bhoh2rcd13ifvqh5g","pricing_plan_id":"free"},{"bike_id":"92b05863-d7cf-4990-af3e-9332e782bc00","system_id":"levelo_inurba_marseille","lat":43.285742,"lon":5.395004,"is_reserved":false,"is_disabled":false,"rental_uris":{"android":"levelo://app?vid=92b05863-d7cf-4990-af3e-9332e782bc00","ios":"levelo://app?vid=92b05863-d7cf-4990-af3e-9332e782bc00"},"vehicle_type_id":"4","last_reported":1701504502,"current_range_meters":30000,"station_id":"ce4bh292rcd13ifvqdg0","pricing_plan_id":"free"},{"bike_id":"d2e46f76-891a-45d8-b95b-615141a167ed","system_id":"levelo_inurba_marseille","lat":43.28573,"lon":5.394992,"is_reserved":false,"is_disabled":false,"rental_uris":{"android":"levelo://app?vid=d2e46f76-891a-45d8-b95b-615141a167ed","ios":"levelo://app?vid=d2e46f76-891a-45d8-b95b-615141a167ed"},"vehicle_type_id":"4","last_reported":1701504502,"current_range_meters":13600,"station_id":"ce4bh292rcd13ifvqdg0","pricing_plan_id":"free"},{"bike_id":"44b01b27-bfd5-491f-9e75-6434d7fa44f1","system_id":"levelo_inurba_marseille","lat":43.28713,"lon":5.39991,"is_reserved":false,"is_disabled":false,"rental_uris":{"android":"levelo://app?vid=44b01b27-bfd5-491f-9e75-6434d7fa44f1","ios":"levelo://app?vid=44b01b27-bfd5-491f-9e75-6434d7fa44f1"},"vehicle_type_id":"4","last_reported":1701504502,"current_range_meters":24400,"station_id":"ce4bho92rcd13ifvqh3g","pricing_plan_id":"free"},{"bike_id":"c4cd0b9d-0c41-4d84-aa06-fab71e60a157","system_id":"levelo_inurba_marseille","lat":43.287154,"lon":5.399979,"is_reserved":false,"is_disabled":false,"rental_uris":{"android":"levelo://app?vid=c4cd0b9d-0c41-4d84-aa06-fab71e60a157","ios":"levelo://app?vid=c4cd0b9d-0c41-4d84-aa06-fab71e60a157"},"vehicle_type_id":"4","last_reported":1701504502,"current_range_meters":30400,"station_id":"ce4bho92rcd13ifvqh3g","pricing_plan_id":"free"},{"bike_id":"02de4afa-8991-4a7c-a777-a9d88a7535c9","system_id":"levelo_inurba_marseille","lat":43.287154,"lon":5.399979,"is_reserved":false,"is_disabled":false,"rental_uris":{"android":"levelo://app?vid=02de4afa-8991-4a7c-a777-a9d88a7535c9","ios":"levelo://app?vid=02de4afa-8991-4a7c-a777-a9d88a7535c9"},"vehicle_type_id":"4","last_reported":1701504502,"current_range_meters":30000,"station_id":"ce4bho92rcd13ifvqh3g","pricing_plan_id":"free"},{"bike_id":"2a48ec58-a18d-49d2-9fda-72b787fa06c4","system_id":"levelo_inurba_marseille","lat":43.28698,"lon":5.3998,"is_reserved":false,"is_disabled":false,"rental_uris":{"android":"levelo://app?vid=2a48ec58-a18d-49d2-9fda-72b787fa06c4","ios":"levelo://app?vid=2a48ec58-a18d-49d2-9fda-72b787fa06c4"},"vehicle_type_id":"4","last_reported":1701504502,"current_range_meters":0,"station_id":"","pricing_plan_id":"free"},{"bike_id":"84670559-fe6e-4f57-871f-b282b2f07ee5","system_id":"levelo_inurba_marseille","lat":43.286574,"lon":5.400386,"is_reserved":false,"is_disabled":false,"rental_uris":{"android":"levelo://app?vid=84670559-fe6e-4f57-871f-b282b2f07ee5","ios":"levelo://app?vid=84670559-fe6e-4f57-871f-b282b2f07ee5"},"vehicle_type_id":"4","last_reported":1701504502,"current_range_meters":7200,"station_id":"","pricing_plan_id":"free"},{"bike_id":"38f446fc-e4e7-4cc0-8bfa-372f6295861b","system_id":"levelo_inurba_marseille","lat":43.320045,"lon":5.415046,"is_reserved":false,"is_disabled":false,"rental_uris":{"android":"levelo://app?vid=38f446fc-e4e7-4cc0-8bfa-372f6295861b","ios":"levelo://app?vid=38f446fc-e4e7-4cc0-8bfa-372f6295861b"},"vehicle_type_id":"4","last_reported":1701504502,"current_range_meters":28000,"station_id":"ce4bhq92rcd13ifvqhkg","pricing_plan_id":"free"},{"bike_id":"4315f364-d466-45d1-af0f-f4f03c19bc92","system_id":"levelo_inurba_marseille","lat":43.320045,"lon":5.415048,"is_reserved":false,"is_disabled":false,"rental_uris":{"android":"levelo://app?vid=4315f364-d466-45d1-af0f-f4f03c19bc92","ios":"levelo://app?vid=4315f364-d466-45d1-af0f-f4f03c19bc92"},"vehicle_type_id":"4","last_reported":1701504502,"current_range_meters":20000,"station_id":"ce4bhq92rcd13ifvqhkg","pricing_plan_id":"free"},{"bike_id":"3952f81c-a1aa-4d58-a7f0-b89bc3bcb0f8","system_id":"levelo_inurba_marseille","lat":43.292571,"lon":5.409107,"is_reserved":false,"is_disabled":false,"rental_uris":{"android":"levelo://app?vid=3952f81c-a1aa-4d58-a7f0-b89bc3bcb0f8","ios":"levelo://app?vid=3952f81c-a1aa-4d58-a7f0-b89bc3bcb0f8"},"vehicle_type_id":"4","last_reported":1701504502,"current_range_meters":11200,"station_id":"ce4bh192rcd13ifvqdc0","pricing_plan_id":"free"},{"bike_id":"81c3d2e1-d711-4403-8a56-f859e0dd931b","system_id":"levelo_inurba_marseille","lat":43.292647,"lon":5.409162,"is_reserved":false,"is_disabled":false,"rental_uris":{"android":"levelo://app?vid=81c3d2e1-d711-4403-8a56-f859e0dd931b","ios":"levelo://app?vid=81c3d2e1-d711-4403-8a56-f859e0dd931b"},"vehicle_type_id":"4","last_reported":1701504502,"current_range_meters":20800,"station_id":"","pricing_plan_id":"free"},{"bike_id":"a6d5863c-49f4-43c9-a227-e9384f60b0ce","system_id":"levelo_inurba_marseille","lat":43.27621,"lon":5.36115,"is_reserved":false,"is_disabled":false,"rental_uris":{"android":"levelo://app?vid=a6d5863c-49f4-43c9-a227-e9384f60b0ce","ios":"levelo://app?vid=a6d5863c-49f4-43c9-a227-e9384f60b0ce"},"vehicle_type_id":"4","last_reported":1701504502,"current_range_meters":18800,"station_id":"ce4bgj92rcd13ifvqbe0","pricing_plan_id":"free"},{"bike_id":"662d7ac0-b60c-4589-b775-59c466096683","system_id":"levelo_inurba_marseille","lat":43.325233,"lon":5.414318,"is_reserved":false,"is_disabled":false,"rental_uris":{"android":"levelo://app?vid=662d7ac0-b60c-4589-b775-59c466096683","ios":"levelo://app?vid=662d7ac0-b60c-4589-b775-59c466096683"},"vehicle_type_id":"4","last_reported":1701504502,"current_range_meters":31600,"station_id":"ce4bhq12rcd13ifvqhhg","pricing_plan_id":"free"},{"bike_id":"7d9634e8-abcf-408e-8084-5157e9409a15","system_id":"levelo_inurba_marseille","lat":43.27611,"lon":5.36108,"is_reserved":false,"is_disabled":false,"rental_uris":{"android":"levelo://app?vid=7d9634e8-abcf-408e-8084-5157e9409a15","ios":"levelo://app?vid=7d9634e8-abcf-408e-8084-5157e9409a15"},"vehicle_type_id":"4","last_reported":1701504502,"current_range_meters":3200,"station_id":"ce4bgj92rcd13ifvqbe0","pricing_plan_id":"free"},{"bike_id":"0e213d99-3509-4b22-8ea3-187711179b82","system_id":"levelo_inurba_marseille","lat":43.325233,"lon":5.414318,"is_reserved":false,"is_disabled":false,"rental_uris":{"android":"levelo://app?vid=0e213d99-3509-4b22-8ea3-187711179b82","ios":"levelo://app?vid=0e213d99-3509-4b22-8ea3-187711179b82"},"vehicle_type_id":"4","last_reported":1701504502,"current_range_meters":14400,"station_id":"ce4bhq12rcd13ifvqhhg","pricing_plan_id":"free"},{"bike_id":"bcdb50df-13be-4393-adc8-1a79a4e56c43","system_id":"levelo_inurba_marseille","lat":43.28619,"lon":5.40406,"is_reserved":false,"is_disabled":false,"rental_uris":{"android":"levelo://app?vid=bcdb50df-13be-4393-adc8-1a79a4e56c43","ios":"levelo://app?vid=bcdb50df-13be-4393-adc8-1a79a4e56c43"},"vehicle_type_id":"4","last_reported":1701504502,"current_range_meters":400,"station_id":"","pricing_plan_id":"free"},{"bike_id":"1c095cc6-2762-47e3-abf7-38a65ee9552b","system_id":"levelo_inurba_marseille","lat":43.280784,"lon":5.396622,"is_reserved":false,"is_disabled":false,"rental_uris":{"android":"levelo://app?vid=1c095cc6-2762-47e3-abf7-38a65ee9552b","ios":"levelo://app?vid=1c095cc6-2762-47e3-abf7-38a65ee9552b"},"vehicle_type_id":"4","last_reported":1701504502,"current_range_meters":28400,"station_id":"ce4bho12rcd13ifvqh2g","pricing_plan_id":"free"},{"bike_id":"dad9420d-36bf-47cb-8906-3c62e7ceb4b7","system_id":"levelo_inurba_marseille","lat":43.30359,"lon":5.41887,"is_reserved":false,"is_disabled":false,"rental_uris":{"android":"levelo://app?vid=dad9420d-36bf-47cb-8906-3c62e7ceb4b7","ios":"levelo://app?vid=dad9420d-36bf-47cb-8906-3c62e7ceb4b7"},"vehicle_type_id":"4","last_reported":1701504502,"current_range_meters":17200,"station_id":"ce4bhop2rcd13ifvqh7g","pricing_plan_id":"free"},{"bike_id":"8d5b7dc0-21af-4888-b2ec-f9982db8ee3c","system_id":"levelo_inurba_marseille","lat":43.278401,"lon":5.392152,"is_reserved":false,"is_disabled":false,"rental_uris":{"android":"levelo://app?vid=8d5b7dc0-21af-4888-b2ec-f9982db8ee3c","ios":"levelo://app?vid=8d5b7dc0-21af-4888-b2ec-f9982db8ee3c"},"vehicle_type_id":"4","last_reported":1701504502,"current_range_meters":15600,"station_id":"ce4bhjp2rcd13ifvqga0","pricing_plan_id":"free"},{"bike_id":"975d9307-3328-456b-998b-a9c7d3275461","system_id":"levelo_inurba_marseille","lat":43.336148,"lon":5.410349,"is_reserved":false,"is_disabled":false,"rental_uris":{"android":"levelo://app?vid=975d9307-3328-456b-998b-a9c7d3275461","ios":"levelo://app?vid=975d9307-3328-456b-998b-a9c7d3275461"},"vehicle_type_id":"4","last_reported":1701504502,"current_range_meters":26400,"station_id":"ce4bhqh2rcd13ifvqhmg","pricing_plan_id":"free"},{"bike_id":"8206dba6-19cf-46fa-8275-3c22df5b4764","system_id":"levelo_inurba_marseille","lat":43.33598,"lon":5.4103,"is_reserved":false,"is_disabled":false,"rental_uris":{"android":"levelo://app?vid=8206dba6-19cf-46fa-8275-3c22df5b4764","ios":"levelo://app?vid=8206dba6-19cf-46fa-8275-3c22df5b4764"},"vehicle_type_id":"4","last_reported":1701504502,"current_range_meters":13200,"station_id":"ce4bhqh2rcd13ifvqhmg","pricing_plan_id":"free"},{"bike_id":"e42ce7d8-bbf9-46ae-a19b-1f85aea0f865","system_id":"levelo_inurba_marseille","lat":43.33612,"lon":5.410321,"is_reserved":false,"is_disabled":false,"rental_uris":{"android":"levelo://app?vid=e42ce7d8-bbf9-46ae-a19b-1f85aea0f865","ios":"levelo://app?vid=e42ce7d8-bbf9-46ae-a19b-1f85aea0f865"},"vehicle_type_id":"4","last_reported":1701504502,"current_range_meters":24400,"station_id":"ce4bhqh2rcd13ifvqhmg","pricing_plan_id":"free"},{"bike_id":"451e5711-912b-4e6f-ba92-14f20d0093e3","system_id":"levelo_inurba_marseille","lat":43.336148,"lon":5.410349,"is_reserved":false,"is_disabled":false,"rental_uris":{"android":"levelo://app?vid=451e5711-912b-4e6f-ba92-14f20d0093e3","ios":"levelo://app?vid=451e5711-912b-4e6f-ba92-14f20d0093e3"},"vehicle_type_id":"4","last_reported":1701504502,"current_range_meters":21200,"station_id":"ce4bhqh2rcd13ifvqhmg","pricing_plan_id":"free"},{"bike_id":"0256d9f5-c275-485b-a67b-c6d8e2bee501","system_id":"levelo_inurba_marseille","lat":43.317121,"lon":5.423936,"is_reserved":false,"is_disabled":false,"rental_uris":{"android":"levelo://app?vid=0256d9f5-c275-485b-a67b-c6d8e2bee501","ios":"levelo://app?vid=0256d9f5-c275-485b-a67b-c6d8e2bee501"},"vehicle_type_id":"4","last_reported":1701504502,"current_range_meters":28800,"station_id":"ce4bhp92rcd13ifvqhbg","pricing_plan_id":"free"},{"bike_id":"4aa97cd1-6a39-4439-81f1-99ae1420ed06","system_id":"levelo_inurba_marseille","lat":43.310785,"lon":5.424305,"is_reserved":false,"is_disabled":false,"rental_uris":{"android":"levelo://app?vid=4aa97cd1-6a39-4439-81f1-99ae1420ed06","ios":"levelo://app?vid=4aa97cd1-6a39-4439-81f1-99ae1420ed06"},"vehicle_type_id":"4","last_reported":1701504502,"current_range_meters":28800,"station_id":"ce4bhp92rcd13ifvqhag","pricing_plan_id":"free"},{"bike_id":"894f6494-585b-4b1b-a39f-39b137cf17d0","system_id":"levelo_inurba_marseille","lat":43.310785,"lon":5.424305,"is_reserved":false,"is_disabled":false,"rental_uris":{"android":"levelo://app?vid=894f6494-585b-4b1b-a39f-39b137cf17d0","ios":"levelo://app?vid=894f6494-585b-4b1b-a39f-39b137cf17d0"},"vehicle_type_id":"4","last_reported":1701504502,"current_range_meters":10400,"station_id":"ce4bhp92rcd13ifvqhag","pricing_plan_id":"free"},{"bike_id":"ec8cda27-8133-4ca8-abd6-6a978c40f976","system_id":"levelo_inurba_marseille","lat":43.340804,"lon":5.410219,"is_reserved":false,"is_disabled":false,"rental_uris":{"android":"levelo://app?vid=ec8cda27-8133-4ca8-abd6-6a978c40f976","ios":"levelo://app?vid=ec8cda27-8133-4ca8-abd6-6a978c40f976"},"vehicle_type_id":"4","last_reported":1701504502,"current_range_meters":31600,"station_id":"ce4bhqh2rcd13ifvqhlg","pricing_plan_id":"free"},{"bike_id":"209aad89-6ad1-4be7-b24f-a81813d47839","system_id":"levelo_inurba_marseille","lat":43.340804,"lon":5.410219,"is_reserved":false,"is_disabled":false,"rental_uris":{"android":"levelo://app?vid=209aad89-6ad1-4be7-b24f-a81813d47839","ios":"levelo://app?vid=209aad89-6ad1-4be7-b24f-a81813d47839"},"vehicle_type_id":"4","last_reported":1701504502,"current_range_meters":8400,"station_id":"ce4bhqh2rcd13ifvqhlg","pricing_plan_id":"free"},{"bike_id":"7729778a-d587-4a31-9e2a-fc6f9d799c22","system_id":"levelo_inurba_marseille","lat":43.340804,"lon":5.410219,"is_reserved":false,"is_disabled":false,"rental_uris":{"android":"levelo://app?vid=7729778a-d587-4a31-9e2a-fc6f9d799c22","ios":"levelo://app?vid=7729778a-d587-4a31-9e2a-fc6f9d799c22"},"vehicle_type_id":"4","last_reported":1701504502,"current_range_meters":29600,"station_id":"ce4bhqh2rcd13ifvqhlg","pricing_plan_id":"free"},{"bike_id":"0819bb9c-7dea-46f7-8362-eaed26730488","system_id":"levelo_inurba_marseille","lat":43.273125,"lon":5.390731,"is_reserved":false,"is_disabled":false,"rental_uris":{"android":"levelo://app?vid=0819bb9c-7dea-46f7-8362-eaed26730488","ios":"levelo://app?vid=0819bb9c-7dea-46f7-8362-eaed26730488"},"vehicle_type_id":"4","last_reported":1701504502,"current_range_meters":26400,"station_id":"ce4bhgp2rcd13ifvqfe0","pricing_plan_id":"free"},{"bike_id":"c0c04cc4-a717-4722-a246-757fbde82c2e","system_id":"levelo_inurba_marseille","lat":43.273129,"lon":5.390725,"is_reserved":false,"is_disabled":false,"rental_uris":{"android":"levelo://app?vid=c0c04cc4-a717-4722-a246-757fbde82c2e","ios":"levelo://app?vid=c0c04cc4-a717-4722-a246-757fbde82c2e"},"vehicle_type_id":"4","last_reported":1701504502,"current_range_meters":26400,"station_id":"ce4bhgp2rcd13ifvqfe0","pricing_plan_id":"free"},{"bike_id":"5cb2a0c4-ebfe-4138-ac4b-a91d569f0c9d","system_id":"levelo_inurba_marseille","lat":43.273125,"lon":5.390731,"is_reserved":false,"is_disabled":false,"rental_uris":{"android":"levelo://app?vid=5cb2a0c4-ebfe-4138-ac4b-a91d569f0c9d","ios":"levelo://app?vid=5cb2a0c4-ebfe-4138-ac4b-a91d569f0c9d"},"vehicle_type_id":"4","last_reported":1701504502,"current_range_meters":30800,"station_id":"ce4bhgp2rcd13ifvqfe0","pricing_plan_id":"free"},{"bike_id":"a3527c32-1fa7-4ebe-9b65-a997c7b104de","system_id":"levelo_inurba_marseille","lat":43.30413,"lon":5.42536,"is_reserved":false,"is_disabled":false,"rental_uris":{"android":"levelo://app?vid=a3527c32-1fa7-4ebe-9b65-a997c7b104de","ios":"levelo://app?vid=a3527c32-1fa7-4ebe-9b65-a997c7b104de"},"vehicle_type_id":"4","last_reported":1701504502,"current_range_meters":15200,"station_id":"ce4bhoh2rcd13ifvqh6g","pricing_plan_id":"free"},{"bike_id":"7ed57e64-d5e4-414f-8eb1-b422e851258b","system_id":"levelo_inurba_marseille","lat":43.295523,"lon":5.422926,"is_reserved":false,"is_disabled":false,"rental_uris":{"android":"levelo://app?vid=7ed57e64-d5e4-414f-8eb1-b422e851258b","ios":"levelo://app?vid=7ed57e64-d5e4-414f-8eb1-b422e851258b"},"vehicle_type_id":"4","last_reported":1701504502,"current_range_meters":26000,"station_id":"ce4bhph2rcd13ifvqhdg","pricing_plan_id":"free"},{"bike_id":"723328b0-f89e-4909-8f51-b8af2116a65b","system_id":"levelo_inurba_marseille","lat":43.272124,"lon":5.391768,"is_reserved":false,"is_disabled":false,"rental_uris":{"android":"levelo://app?vid=723328b0-f89e-4909-8f51-b8af2116a65b","ios":"levelo://app?vid=723328b0-f89e-4909-8f51-b8af2116a65b"},"vehicle_type_id":"4","last_reported":1701504502,"current_range_meters":30000,"station_id":"ce4bhhp2rcd13ifvqfm0","pricing_plan_id":"free"},{"bike_id":"9d89a30e-a148-4064-81e9-03b55b9015f4","system_id":"levelo_inurba_marseille","lat":43.272116,"lon":5.391763,"is_reserved":false,"is_disabled":false,"rental_uris":{"android":"levelo://app?vid=9d89a30e-a148-4064-81e9-03b55b9015f4","ios":"levelo://app?vid=9d89a30e-a148-4064-81e9-03b55b9015f4"},"vehicle_type_id":"4","last_reported":1701504502,"current_range_meters":27600,"station_id":"ce4bhhp2rcd13ifvqfm0","pricing_plan_id":"free"},{"bike_id":"ad66177f-ee9b-4a1a-8539-11b1148aab7c","system_id":"levelo_inurba_marseille","lat":43.272118,"lon":5.391758,"is_reserved":false,"is_disabled":false,"rental_uris":{"android":"levelo://app?vid=ad66177f-ee9b-4a1a-8539-11b1148aab7c","ios":"levelo://app?vid=ad66177f-ee9b-4a1a-8539-11b1148aab7c"},"vehicle_type_id":"4","last_reported":1701504502,"current_range_meters":22400,"station_id":"ce4bhhp2rcd13ifvqfm0","pricing_plan_id":"free"},{"bike_id":"269887a7-fb94-4e2f-9c66-1520c6b516a9","system_id":"levelo_inurba_marseille","lat":43.272116,"lon":5.391747,"is_reserved":false,"is_disabled":false,"rental_uris":{"android":"levelo://app?vid=269887a7-fb94-4e2f-9c66-1520c6b516a9","ios":"levelo://app?vid=269887a7-fb94-4e2f-9c66-1520c6b516a9"},"vehicle_type_id":"4","last_reported":1701504502,"current_range_meters":28400,"station_id":"ce4bhhp2rcd13ifvqfm0","pricing_plan_id":"free"},{"bike_id":"d783046e-c430-4080-a3fa-5cedff0852f8","system_id":"levelo_inurba_marseille","lat":43.278128,"lon":5.407195,"is_reserved":false,"is_disabled":false,"rental_uris":{"android":"levelo://app?vid=d783046e-c430-4080-a3fa-5cedff0852f8","ios":"levelo://app?vid=d783046e-c430-4080-a3fa-5cedff0852f8"},"vehicle_type_id":"4","last_reported":1701504502,"current_range_meters":31200,"station_id":"ce4bhnh2rcd13ifvqgtg","pricing_plan_id":"free"},{"bike_id":"3967b8bf-611b-401c-97de-fb05749cbce9","system_id":"levelo_inurba_marseille","lat":43.278128,"lon":5.407195,"is_reserved":false,"is_disabled":false,"rental_uris":{"android":"levelo://app?vid=3967b8bf-611b-401c-97de-fb05749cbce9","ios":"levelo://app?vid=3967b8bf-611b-401c-97de-fb05749cbce9"},"vehicle_type_id":"4","last_reported":1701504502,"current_range_meters":27200,"station_id":"ce4bhnh2rcd13ifvqgtg","pricing_plan_id":"free"},{"bike_id":"d24693a5-4983-4c3e-9bf5-09ae29fff921","system_id":"levelo_inurba_marseille","lat":43.269467,"lon":5.386439,"is_reserved":false,"is_disabled":false,"rental_uris":{"android":"levelo://app?vid=d24693a5-4983-4c3e-9bf5-09ae29fff921","ios":"levelo://app?vid=d24693a5-4983-4c3e-9bf5-09ae29fff921"},"vehicle_type_id":"4","last_reported":1701504502,"current_range_meters":30400,"station_id":"ce4bhh92rcd13ifvqfh0","pricing_plan_id":"free"},{"bike_id":"180df309-c06c-4fb9-81a5-e60d64dcd238","system_id":"levelo_inurba_marseille","lat":43.27942,"lon":5.41051,"is_reserved":false,"is_disabled":false,"rental_uris":{"android":"levelo://app?vid=180df309-c06c-4fb9-81a5-e60d64dcd238","ios":"levelo://app?vid=180df309-c06c-4fb9-81a5-e60d64dcd238"},"vehicle_type_id":"4","last_reported":1701504502,"current_range_meters":21600,"station_id":"ce4bhnp2rcd13ifvqh0g","pricing_plan_id":"free"},{"bike_id":"43088efb-217b-4e64-8c5d-be3c1718bfaf","system_id":"levelo_inurba_marseille","lat":43.269319,"lon":5.389397,"is_reserved":false,"is_disabled":false,"rental_uris":{"android":"levelo://app?vid=43088efb-217b-4e64-8c5d-be3c1718bfaf","ios":"levelo://app?vid=43088efb-217b-4e64-8c5d-be3c1718bfaf"},"vehicle_type_id":"4","last_reported":1701504502,"current_range_meters":27600,"station_id":"ce4bhhh2rcd13ifvqfl0","pricing_plan_id":"free"},{"bike_id":"57d7111f-fb23-4ada-af85-b112245d6401","system_id":"levelo_inurba_marseille","lat":43.269319,"lon":5.389397,"is_reserved":false,"is_disabled":false,"rental_uris":{"android":"levelo://app?vid=57d7111f-fb23-4ada-af85-b112245d6401","ios":"levelo://app?vid=57d7111f-fb23-4ada-af85-b112245d6401"},"vehicle_type_id":"4","last_reported":1701504502,"current_range_meters":31200,"station_id":"ce4bhhh2rcd13ifvqfl0","pricing_plan_id":"free"},{"bike_id":"406f5a08-0534-41ff-985d-f1db6075c287","system_id":"levelo_inurba_marseille","lat":43.26555,"lon":5.37287,"is_reserved":false,"is_disabled":false,"rental_uris":{"android":"levelo://app?vid=406f5a08-0534-41ff-985d-f1db6075c287","ios":"levelo://app?vid=406f5a08-0534-41ff-985d-f1db6075c287"},"vehicle_type_id":"4","last_reported":1701504502,"current_range_meters":3200,"station_id":"ce4bhg12rcd13ifvqf70","pricing_plan_id":"free"},{"bike_id":"8a5a972f-0927-4808-b102-cafd69087f2d","system_id":"levelo_inurba_marseille","lat":43.279856,"lon":5.416656,"is_reserved":false,"is_disabled":false,"rental_uris":{"android":"levelo://app?vid=8a5a972f-0927-4808-b102-cafd69087f2d","ios":"levelo://app?vid=8a5a972f-0927-4808-b102-cafd69087f2d"},"vehicle_type_id":"4","last_reported":1701504502,"current_range_meters":12800,"station_id":"ce4bho12rcd13ifvqh1g","pricing_plan_id":"free"},{"bike_id":"759812df-0eb6-40a6-ad6a-406c9a951569","system_id":"levelo_inurba_marseille","lat":43.267966,"lon":5.393976,"is_reserved":false,"is_disabled":false,"rental_uris":{"android":"levelo://app?vid=759812df-0eb6-40a6-ad6a-406c9a951569","ios":"levelo://app?vid=759812df-0eb6-40a6-ad6a-406c9a951569"},"vehicle_type_id":"4","last_reported":1701504502,"current_range_meters":27600,"station_id":"ce4bhh12rcd13ifvqfg0","pricing_plan_id":"free"},{"bike_id":"90afca6f-e8f9-4fca-a84e-a9e37ac4635b","system_id":"levelo_inurba_marseille","lat":43.265569,"lon":5.390047,"is_reserved":false,"is_disabled":false,"rental_uris":{"android":"levelo://app?vid=90afca6f-e8f9-4fca-a84e-a9e37ac4635b","ios":"levelo://app?vid=90afca6f-e8f9-4fca-a84e-a9e37ac4635b"},"vehicle_type_id":"4","last_reported":1701504502,"current_range_meters":26800,"station_id":"ce4bhe12rcd13ifvqf30","pricing_plan_id":"free"},{"bike_id":"18adcb81-7855-4acd-af0c-def611567ce2","system_id":"levelo_inurba_marseille","lat":43.308051,"lon":5.43527,"is_reserved":false,"is_disabled":false,"rental_uris":{"android":"levelo://app?vid=18adcb81-7855-4acd-af0c-def611567ce2","ios":"levelo://app?vid=18adcb81-7855-4acd-af0c-def611567ce2"},"vehicle_type_id":"4","last_reported":1701504502,"current_range_meters":25200,"station_id":"ce4bhph2rcd13ifvqheg","pricing_plan_id":"free"},{"bike_id":"55b33a5c-1177-4dd9-b3a0-e993463bd4e2","system_id":"levelo_inurba_marseille","lat":43.308051,"lon":5.43527,"is_reserved":false,"is_disabled":false,"rental_uris":{"android":"levelo://app?vid=55b33a5c-1177-4dd9-b3a0-e993463bd4e2","ios":"levelo://app?vid=55b33a5c-1177-4dd9-b3a0-e993463bd4e2"},"vehicle_type_id":"4","last_reported":1701504502,"current_range_meters":31200,"station_id":"ce4bhph2rcd13ifvqheg","pricing_plan_id":"free"},{"bike_id":"13b133ea-fc07-4145-9d1a-90894369bf9d","system_id":"levelo_inurba_marseille","lat":43.26567,"lon":5.39007,"is_reserved":false,"is_disabled":false,"rental_uris":{"android":"levelo://app?vid=13b133ea-fc07-4145-9d1a-90894369bf9d","ios":"levelo://app?vid=13b133ea-fc07-4145-9d1a-90894369bf9d"},"vehicle_type_id":"4","last_reported":1701504502,"current_range_meters":30400,"station_id":"ce4bhe12rcd13ifvqf30","pricing_plan_id":"free"},{"bike_id":"f953a590-6e63-48a1-8c9a-f0c79614e5b1","system_id":"levelo_inurba_marseille","lat":43.265571,"lon":5.390032,"is_reserved":false,"is_disabled":false,"rental_uris":{"android":"levelo://app?vid=f953a590-6e63-48a1-8c9a-f0c79614e5b1","ios":"levelo://app?vid=f953a590-6e63-48a1-8c9a-f0c79614e5b1"},"vehicle_type_id":"4","last_reported":1701504502,"current_range_meters":1600,"station_id":"ce4bhe12rcd13ifvqf30","pricing_plan_id":"free"},{"bike_id":"31062b17-44a0-427c-837b-96ecf5c8d1aa","system_id":"levelo_inurba_marseille","lat":43.265569,"lon":5.390047,"is_reserved":false,"is_disabled":false,"rental_uris":{"android":"levelo://app?vid=31062b17-44a0-427c-837b-96ecf5c8d1aa","ios":"levelo://app?vid=31062b17-44a0-427c-837b-96ecf5c8d1aa"},"vehicle_type_id":"4","last_reported":1701504502,"current_range_meters":26000,"station_id":"ce4bhe12rcd13ifvqf30","pricing_plan_id":"free"},{"bike_id":"8b45f22c-9fb7-415f-9223-f8f6a44193da","system_id":"levelo_inurba_marseille","lat":43.265678,"lon":5.390166,"is_reserved":false,"is_disabled":false,"rental_uris":{"android":"levelo://app?vid=8b45f22c-9fb7-415f-9223-f8f6a44193da","ios":"levelo://app?vid=8b45f22c-9fb7-415f-9223-f8f6a44193da"},"vehicle_type_id":"4","last_reported":1701504502,"current_range_meters":14800,"station_id":"ce4bhe12rcd13ifvqf30","pricing_plan_id":"free"},{"bike_id":"8da76ab6-bf6b-417c-993a-8048ddf13461","system_id":"levelo_inurba_marseille","lat":43.26949,"lon":5.40262,"is_reserved":false,"is_disabled":false,"rental_uris":{"android":"levelo://app?vid=8da76ab6-bf6b-417c-993a-8048ddf13461","ios":"levelo://app?vid=8da76ab6-bf6b-417c-993a-8048ddf13461"},"vehicle_type_id":"4","last_reported":1701504502,"current_range_meters":26000,"station_id":"cjm6bp8fraef2m0cb0m0","pricing_plan_id":"free"},{"bike_id":"3566be00-75b6-403d-b6df-62c4cf4d0f7c","system_id":"levelo_inurba_marseille","lat":43.26937,"lon":5.40252,"is_reserved":false,"is_disabled":false,"rental_uris":{"android":"levelo://app?vid=3566be00-75b6-403d-b6df-62c4cf4d0f7c","ios":"levelo://app?vid=3566be00-75b6-403d-b6df-62c4cf4d0f7c"},"vehicle_type_id":"4","last_reported":1701504502,"current_range_meters":25600,"station_id":"cjm6bp8fraef2m0cb0m0","pricing_plan_id":"free"},{"bike_id":"8b48c445-ed85-4c42-b8d4-c8cf47b5ce76","system_id":"levelo_inurba_marseille","lat":43.261782,"lon":5.374515,"is_reserved":false,"is_disabled":false,"rental_uris":{"android":"levelo://app?vid=8b48c445-ed85-4c42-b8d4-c8cf47b5ce76","ios":"levelo://app?vid=8b48c445-ed85-4c42-b8d4-c8cf47b5ce76"},"vehicle_type_id":"4","last_reported":1701504502,"current_range_meters":31200,"station_id":"ce4bhgp2rcd13ifvqfc0","pricing_plan_id":"free"},{"bike_id":"ff690882-e97f-46be-9b82-4dcaf3ec77d4","system_id":"levelo_inurba_marseille","lat":43.261782,"lon":5.374515,"is_reserved":false,"is_disabled":false,"rental_uris":{"android":"levelo://app?vid=ff690882-e97f-46be-9b82-4dcaf3ec77d4","ios":"levelo://app?vid=ff690882-e97f-46be-9b82-4dcaf3ec77d4"},"vehicle_type_id":"4","last_reported":1701504502,"current_range_meters":30400,"station_id":"ce4bhgp2rcd13ifvqfc0","pricing_plan_id":"free"},{"bike_id":"d1abb8d9-8bc1-4925-97a8-53168b877965","system_id":"levelo_inurba_marseille","lat":43.261782,"lon":5.374515,"is_reserved":false,"is_disabled":false,"rental_uris":{"android":"levelo://app?vid=d1abb8d9-8bc1-4925-97a8-53168b877965","ios":"levelo://app?vid=d1abb8d9-8bc1-4925-97a8-53168b877965"},"vehicle_type_id":"4","last_reported":1701504502,"current_range_meters":22000,"station_id":"ce4bhgp2rcd13ifvqfc0","pricing_plan_id":"free"},{"bike_id":"68a05b6f-7066-41f1-9bbc-21fcc92d1742","system_id":"levelo_inurba_marseille","lat":43.261782,"lon":5.374515,"is_reserved":false,"is_disabled":false,"rental_uris":{"android":"levelo://app?vid=68a05b6f-7066-41f1-9bbc-21fcc92d1742","ios":"levelo://app?vid=68a05b6f-7066-41f1-9bbc-21fcc92d1742"},"vehicle_type_id":"4","last_reported":1701504502,"current_range_meters":18400,"station_id":"ce4bhgp2rcd13ifvqfc0","pricing_plan_id":"free"},{"bike_id":"cf20c175-6988-4473-8c7d-b67449351266","system_id":"levelo_inurba_marseille","lat":43.317104,"lon":5.436818,"is_reserved":false,"is_disabled":false,"rental_uris":{"android":"levelo://app?vid=cf20c175-6988-4473-8c7d-b67449351266","ios":"levelo://app?vid=cf20c175-6988-4473-8c7d-b67449351266"},"vehicle_type_id":"4","last_reported":1701504502,"current_range_meters":30000,"station_id":"ce4bhp92rcd13ifvqhcg","pricing_plan_id":"free"},{"bike_id":"c71160fc-c7b7-4c0b-8b7c-da5014dcb825","system_id":"levelo_inurba_marseille","lat":43.317104,"lon":5.436818,"is_reserved":false,"is_disabled":false,"rental_uris":{"android":"levelo://app?vid=c71160fc-c7b7-4c0b-8b7c-da5014dcb825","ios":"levelo://app?vid=c71160fc-c7b7-4c0b-8b7c-da5014dcb825"},"vehicle_type_id":"4","last_reported":1701504502,"current_range_meters":30800,"station_id":"ce4bhp92rcd13ifvqhcg","pricing_plan_id":"free"},{"bike_id":"bafd557a-ce9d-4298-a9d5-591ecc3b4992","system_id":"levelo_inurba_marseille","lat":43.262012,"lon":5.379307,"is_reserved":false,"is_disabled":false,"rental_uris":{"android":"levelo://app?vid=bafd557a-ce9d-4298-a9d5-591ecc3b4992","ios":"levelo://app?vid=bafd557a-ce9d-4298-a9d5-591ecc3b4992"},"vehicle_type_id":"4","last_reported":1701504502,"current_range_meters":30800,"station_id":"ce4bhjp2rcd13ifvqg90","pricing_plan_id":"free"},{"bike_id":"f9cac9a5-67a1-4158-a2a6-203ab176f26c","system_id":"levelo_inurba_marseille","lat":43.271388,"lon":5.409269,"is_reserved":false,"is_disabled":false,"rental_uris":{"android":"levelo://app?vid=f9cac9a5-67a1-4158-a2a6-203ab176f26c","ios":"levelo://app?vid=f9cac9a5-67a1-4158-a2a6-203ab176f26c"},"vehicle_type_id":"4","last_reported":1701504502,"current_range_meters":31600,"station_id":"ce4bhl12rcd13ifvqgf0","pricing_plan_id":"free"},{"bike_id":"e023fcae-9e32-401b-a85c-78f48248b0bc","system_id":"levelo_inurba_marseille","lat":43.271368,"lon":5.40928,"is_reserved":false,"is_disabled":false,"rental_uris":{"android":"levelo://app?vid=e023fcae-9e32-401b-a85c-78f48248b0bc","ios":"levelo://app?vid=e023fcae-9e32-401b-a85c-78f48248b0bc"},"vehicle_type_id":"4","last_reported":1701504502,"current_range_meters":31600,"station_id":"ce4bhl12rcd13ifvqgf0","pricing_plan_id":"free"},{"bike_id":"62f6648c-6f6e-407f-b8b6-e2d8c5cf7299","system_id":"levelo_inurba_marseille","lat":43.271368,"lon":5.40928,"is_reserved":false,"is_disabled":false,"rental_uris":{"android":"levelo://app?vid=62f6648c-6f6e-407f-b8b6-e2d8c5cf7299","ios":"levelo://app?vid=62f6648c-6f6e-407f-b8b6-e2d8c5cf7299"},"vehicle_type_id":"4","last_reported":1701504502,"current_range_meters":7200,"station_id":"ce4bhl12rcd13ifvqgf0","pricing_plan_id":"free"},{"bike_id":"2ba9db67-bc08-4181-91bc-5b87bbc9227d","system_id":"levelo_inurba_marseille","lat":43.26202,"lon":5.379299,"is_reserved":false,"is_disabled":false,"rental_uris":{"android":"levelo://app?vid=2ba9db67-bc08-4181-91bc-5b87bbc9227d","ios":"levelo://app?vid=2ba9db67-bc08-4181-91bc-5b87bbc9227d"},"vehicle_type_id":"4","last_reported":1701504502,"current_range_meters":28400,"station_id":"ce4bhjp2rcd13ifvqg90","pricing_plan_id":"free"},{"bike_id":"be554e14-baf6-4d39-bbf3-064c681b17e0","system_id":"levelo_inurba_marseille","lat":43.267959,"lon":5.402687,"is_reserved":false,"is_disabled":false,"rental_uris":{"android":"levelo://app?vid=be554e14-baf6-4d39-bbf3-064c681b17e0","ios":"levelo://app?vid=be554e14-baf6-4d39-bbf3-064c681b17e0"},"vehicle_type_id":"4","last_reported":1701504502,"current_range_meters":28400,"station_id":"ce501612rcd8frsf0b60","pricing_plan_id":"free"},{"bike_id":"a265f57d-2203-4406-8278-bc194922c399","system_id":"levelo_inurba_marseille","lat":43.28155,"lon":5.42636,"is_reserved":false,"is_disabled":false,"rental_uris":{"android":"levelo://app?vid=a265f57d-2203-4406-8278-bc194922c399","ios":"levelo://app?vid=a265f57d-2203-4406-8278-bc194922c399"},"vehicle_type_id":"4","last_reported":1701504502,"current_range_meters":28800,"station_id":"ce4bhnh2rcd13ifvqgug","pricing_plan_id":"free"},{"bike_id":"81f4f34a-8d36-4c09-961e-e42c57ef3483","system_id":"levelo_inurba_marseille","lat":43.28156,"lon":5.42642,"is_reserved":false,"is_disabled":false,"rental_uris":{"android":"levelo://app?vid=81f4f34a-8d36-4c09-961e-e42c57ef3483","ios":"levelo://app?vid=81f4f34a-8d36-4c09-961e-e42c57ef3483"},"vehicle_type_id":"4","last_reported":1701504502,"current_range_meters":400,"station_id":"ce4bhnh2rcd13ifvqgug","pricing_plan_id":"free"},{"bike_id":"b802834e-51f4-41a4-96cb-c31681473515","system_id":"levelo_inurba_marseille","lat":43.281511,"lon":5.42645,"is_reserved":false,"is_disabled":false,"rental_uris":{"android":"levelo://app?vid=b802834e-51f4-41a4-96cb-c31681473515","ios":"levelo://app?vid=b802834e-51f4-41a4-96cb-c31681473515"},"vehicle_type_id":"4","last_reported":1701504502,"current_range_meters":30400,"station_id":"ce4bhnh2rcd13ifvqgug","pricing_plan_id":"free"},{"bike_id":"3de40b48-7293-4590-b1e4-a9c54e991d0a","system_id":"levelo_inurba_marseille","lat":43.28154,"lon":5.42648,"is_reserved":false,"is_disabled":false,"rental_uris":{"android":"levelo://app?vid=3de40b48-7293-4590-b1e4-a9c54e991d0a","ios":"levelo://app?vid=3de40b48-7293-4590-b1e4-a9c54e991d0a"},"vehicle_type_id":"4","last_reported":1701504502,"current_range_meters":16000,"station_id":"ce4bhnh2rcd13ifvqgug","pricing_plan_id":"free"},{"bike_id":"3532a786-7312-4db1-88be-2e5e8a274941","system_id":"levelo_inurba_marseille","lat":43.281527,"lon":5.426484,"is_reserved":false,"is_disabled":false,"rental_uris":{"android":"levelo://app?vid=3532a786-7312-4db1-88be-2e5e8a274941","ios":"levelo://app?vid=3532a786-7312-4db1-88be-2e5e8a274941"},"vehicle_type_id":"4","last_reported":1701504502,"current_range_meters":24400,"station_id":"ce4bhnh2rcd13ifvqgug","pricing_plan_id":"free"},{"bike_id":"aa32d31c-2cc3-4bda-a3f0-5b3d1a2f9ae5","system_id":"levelo_inurba_marseille","lat":43.28148,"lon":5.42644,"is_reserved":false,"is_disabled":false,"rental_uris":{"android":"levelo://app?vid=aa32d31c-2cc3-4bda-a3f0-5b3d1a2f9ae5","ios":"levelo://app?vid=aa32d31c-2cc3-4bda-a3f0-5b3d1a2f9ae5"},"vehicle_type_id":"4","last_reported":1701504502,"current_range_meters":4800,"station_id":"ce4bhnh2rcd13ifvqgug","pricing_plan_id":"free"},{"bike_id":"d3df04f1-aa36-401c-b9f0-16ea3bba87de","system_id":"levelo_inurba_marseille","lat":43.28155,"lon":5.42653,"is_reserved":false,"is_disabled":false,"rental_uris":{"android":"levelo://app?vid=d3df04f1-aa36-401c-b9f0-16ea3bba87de","ios":"levelo://app?vid=d3df04f1-aa36-401c-b9f0-16ea3bba87de"},"vehicle_type_id":"4","last_reported":1701504502,"current_range_meters":14000,"station_id":"ce4bhnh2rcd13ifvqgug","pricing_plan_id":"free"},{"bike_id":"134ca5b8-0967-4a97-a0ab-58c282331702","system_id":"levelo_inurba_marseille","lat":43.2607,"lon":5.393983,"is_reserved":false,"is_disabled":false,"rental_uris":{"android":"levelo://app?vid=134ca5b8-0967-4a97-a0ab-58c282331702","ios":"levelo://app?vid=134ca5b8-0967-4a97-a0ab-58c282331702"},"vehicle_type_id":"4","last_reported":1701504502,"current_range_meters":23600,"station_id":"ce4bhh92rcd13ifvqfj0","pricing_plan_id":"free"},{"bike_id":"a11d4f74-80a0-4f6c-a0a0-23c43cd9392b","system_id":"levelo_inurba_marseille","lat":43.275028,"lon":5.424534,"is_reserved":false,"is_disabled":false,"rental_uris":{"android":"levelo://app?vid=a11d4f74-80a0-4f6c-a0a0-23c43cd9392b","ios":"levelo://app?vid=a11d4f74-80a0-4f6c-a0a0-23c43cd9392b"},"vehicle_type_id":"4","last_reported":1701504502,"current_range_meters":19600,"station_id":"ce4bhn92rcd13ifvqgrg","pricing_plan_id":"free"},{"bike_id":"710b3daf-bf5f-41e4-82c6-d8fd52027520","system_id":"levelo_inurba_marseille","lat":43.275028,"lon":5.424534,"is_reserved":false,"is_disabled":false,"rental_uris":{"android":"levelo://app?vid=710b3daf-bf5f-41e4-82c6-d8fd52027520","ios":"levelo://app?vid=710b3daf-bf5f-41e4-82c6-d8fd52027520"},"vehicle_type_id":"4","last_reported":1701504502,"current_range_meters":24800,"station_id":"ce4bhn92rcd13ifvqgrg","pricing_plan_id":"free"},{"bike_id":"5465ab4d-f99f-48b0-9201-2349ea9fec71","system_id":"levelo_inurba_marseille","lat":43.275028,"lon":5.424534,"is_reserved":false,"is_disabled":false,"rental_uris":{"android":"levelo://app?vid=5465ab4d-f99f-48b0-9201-2349ea9fec71","ios":"levelo://app?vid=5465ab4d-f99f-48b0-9201-2349ea9fec71"},"vehicle_type_id":"4","last_reported":1701504502,"current_range_meters":19200,"station_id":"ce4bhn92rcd13ifvqgrg","pricing_plan_id":"free"},{"bike_id":"722f553f-699e-469b-be0e-77b6de97bebc","system_id":"levelo_inurba_marseille","lat":43.275028,"lon":5.424534,"is_reserved":false,"is_disabled":false,"rental_uris":{"android":"levelo://app?vid=722f553f-699e-469b-be0e-77b6de97bebc","ios":"levelo://app?vid=722f553f-699e-469b-be0e-77b6de97bebc"},"vehicle_type_id":"4","last_reported":1701504502,"current_range_meters":2400,"station_id":"ce4bhn92rcd13ifvqgrg","pricing_plan_id":"free"},{"bike_id":"994caf70-8e1f-40de-af4c-a7ce43a6b2d4","system_id":"levelo_inurba_marseille","lat":43.275028,"lon":5.424534,"is_reserved":false,"is_disabled":false,"rental_uris":{"android":"levelo://app?vid=994caf70-8e1f-40de-af4c-a7ce43a6b2d4","ios":"levelo://app?vid=994caf70-8e1f-40de-af4c-a7ce43a6b2d4"},"vehicle_type_id":"4","last_reported":1701504502,"current_range_meters":31600,"station_id":"ce4bhn92rcd13ifvqgrg","pricing_plan_id":"free"},{"bike_id":"bca0fa38-5660-402d-8eb6-c035f953ba94","system_id":"levelo_inurba_marseille","lat":43.2608,"lon":5.39768,"is_reserved":false,"is_disabled":false,"rental_uris":{"android":"levelo://app?vid=bca0fa38-5660-402d-8eb6-c035f953ba94","ios":"levelo://app?vid=bca0fa38-5660-402d-8eb6-c035f953ba94"},"vehicle_type_id":"4","last_reported":1701504502,"current_range_meters":12400,"station_id":"","pricing_plan_id":"free"},{"bike_id":"b50e7963-680b-40e1-ab37-36504f3646f3","system_id":"levelo_inurba_marseille","lat":43.258224,"lon":5.394369,"is_reserved":false,"is_disabled":false,"rental_uris":{"android":"levelo://app?vid=b50e7963-680b-40e1-ab37-36504f3646f3","ios":"levelo://app?vid=b50e7963-680b-40e1-ab37-36504f3646f3"},"vehicle_type_id":"4","last_reported":1701504502,"current_range_meters":28400,"station_id":"ce4bhip2rcd13ifvqft0","pricing_plan_id":"free"},{"bike_id":"ff9ba92e-f8fb-4a62-b39c-7d6deea29a74","system_id":"levelo_inurba_marseille","lat":43.25578,"lon":5.38236,"is_reserved":false,"is_disabled":false,"rental_uris":{"android":"levelo://app?vid=ff9ba92e-f8fb-4a62-b39c-7d6deea29a74","ios":"levelo://app?vid=ff9ba92e-f8fb-4a62-b39c-7d6deea29a74"},"vehicle_type_id":"4","last_reported":1701504502,"current_range_meters":7600,"station_id":"ce4bhih2rcd13ifvqfs0","pricing_plan_id":"free"},{"bike_id":"bcbaa63e-900e-4166-8d83-d6f28426bdc8","system_id":"levelo_inurba_marseille","lat":43.255758,"lon":5.382316,"is_reserved":false,"is_disabled":false,"rental_uris":{"android":"levelo://app?vid=bcbaa63e-900e-4166-8d83-d6f28426bdc8","ios":"levelo://app?vid=bcbaa63e-900e-4166-8d83-d6f28426bdc8"},"vehicle_type_id":"4","last_reported":1701504502,"current_range_meters":19200,"station_id":"ce4bhih2rcd13ifvqfs0","pricing_plan_id":"free"},{"bike_id":"ccab2c77-aebb-4338-9336-48a70423823a","system_id":"levelo_inurba_marseille","lat":43.25576,"lon":5.38233,"is_reserved":false,"is_disabled":false,"rental_uris":{"android":"levelo://app?vid=ccab2c77-aebb-4338-9336-48a70423823a","ios":"levelo://app?vid=ccab2c77-aebb-4338-9336-48a70423823a"},"vehicle_type_id":"4","last_reported":1701504502,"current_range_meters":24400,"station_id":"ce4bhih2rcd13ifvqfs0","pricing_plan_id":"free"},{"bike_id":"5f957d95-e4f6-4778-bd7f-a7990ab59efd","system_id":"levelo_inurba_marseille","lat":43.254947,"lon":5.376454,"is_reserved":false,"is_disabled":false,"rental_uris":{"android":"levelo://app?vid=5f957d95-e4f6-4778-bd7f-a7990ab59efd","ios":"levelo://app?vid=5f957d95-e4f6-4778-bd7f-a7990ab59efd"},"vehicle_type_id":"4","last_reported":1701504502,"current_range_meters":31200,"station_id":"ce4bhh12rcd13ifvqff0","pricing_plan_id":"free"},{"bike_id":"12312d76-b3d1-4c51-91c3-2f6a3a7bf61e","system_id":"levelo_inurba_marseille","lat":43.254947,"lon":5.376454,"is_reserved":false,"is_disabled":false,"rental_uris":{"android":"levelo://app?vid=12312d76-b3d1-4c51-91c3-2f6a3a7bf61e","ios":"levelo://app?vid=12312d76-b3d1-4c51-91c3-2f6a3a7bf61e"},"vehicle_type_id":"4","last_reported":1701504502,"current_range_meters":20400,"station_id":"ce4bhh12rcd13ifvqff0","pricing_plan_id":"free"},{"bike_id":"86c1bbfb-43d0-485a-8564-32eb4d98fae5","system_id":"levelo_inurba_marseille","lat":43.254947,"lon":5.376454,"is_reserved":false,"is_disabled":false,"rental_uris":{"android":"levelo://app?vid=86c1bbfb-43d0-485a-8564-32eb4d98fae5","ios":"levelo://app?vid=86c1bbfb-43d0-485a-8564-32eb4d98fae5"},"vehicle_type_id":"4","last_reported":1701504502,"current_range_meters":25200,"station_id":"ce4bhh12rcd13ifvqff0","pricing_plan_id":"free"},{"bike_id":"6b55de0b-bf22-4d3b-bb7b-9bfacee3cb65","system_id":"levelo_inurba_marseille","lat":43.270721,"lon":5.422764,"is_reserved":false,"is_disabled":false,"rental_uris":{"android":"levelo://app?vid=6b55de0b-bf22-4d3b-bb7b-9bfacee3cb65","ios":"levelo://app?vid=6b55de0b-bf22-4d3b-bb7b-9bfacee3cb65"},"vehicle_type_id":"4","last_reported":1701504502,"current_range_meters":31600,"station_id":"ce4bhk92rcd13ifvqgb0","pricing_plan_id":"free"},{"bike_id":"292a6f9a-7610-4701-bedc-5c382c13353c","system_id":"levelo_inurba_marseille","lat":43.27067,"lon":5.42272,"is_reserved":false,"is_disabled":false,"rental_uris":{"android":"levelo://app?vid=292a6f9a-7610-4701-bedc-5c382c13353c","ios":"levelo://app?vid=292a6f9a-7610-4701-bedc-5c382c13353c"},"vehicle_type_id":"4","last_reported":1701504502,"current_range_meters":18000,"station_id":"ce4bhk92rcd13ifvqgb0","pricing_plan_id":"free"},{"bike_id":"996dbf55-b3b5-4fe5-85c6-9cf21ac03215","system_id":"levelo_inurba_marseille","lat":43.270721,"lon":5.422764,"is_reserved":false,"is_disabled":false,"rental_uris":{"android":"levelo://app?vid=996dbf55-b3b5-4fe5-85c6-9cf21ac03215","ios":"levelo://app?vid=996dbf55-b3b5-4fe5-85c6-9cf21ac03215"},"vehicle_type_id":"4","last_reported":1701504502,"current_range_meters":21600,"station_id":"ce4bhk92rcd13ifvqgb0","pricing_plan_id":"free"},{"bike_id":"56de3f0e-b18c-485a-8c58-e4c4956ba711","system_id":"levelo_inurba_marseille","lat":43.270721,"lon":5.422764,"is_reserved":false,"is_disabled":false,"rental_uris":{"android":"levelo://app?vid=56de3f0e-b18c-485a-8c58-e4c4956ba711","ios":"levelo://app?vid=56de3f0e-b18c-485a-8c58-e4c4956ba711"},"vehicle_type_id":"4","last_reported":1701504502,"current_range_meters":31200,"station_id":"ce4bhk92rcd13ifvqgb0","pricing_plan_id":"free"},{"bike_id":"13d41cfa-759c-4a72-a18b-0525b390fe5c","system_id":"levelo_inurba_marseille","lat":43.270721,"lon":5.422764,"is_reserved":false,"is_disabled":false,"rental_uris":{"android":"levelo://app?vid=13d41cfa-759c-4a72-a18b-0525b390fe5c","ios":"levelo://app?vid=13d41cfa-759c-4a72-a18b-0525b390fe5c"},"vehicle_type_id":"4","last_reported":1701504502,"current_range_meters":31200,"station_id":"ce4bhk92rcd13ifvqgb0","pricing_plan_id":"free"},{"bike_id":"e9983c04-8ba2-4199-91ff-f23b5efe00a0","system_id":"levelo_inurba_marseille","lat":43.258658,"lon":5.398935,"is_reserved":false,"is_disabled":false,"rental_uris":{"android":"levelo://app?vid=e9983c04-8ba2-4199-91ff-f23b5efe00a0","ios":"levelo://app?vid=e9983c04-8ba2-4199-91ff-f23b5efe00a0"},"vehicle_type_id":"4","last_reported":1701504502,"current_range_meters":28800,"station_id":"ce4bhl92rcd13ifvqghg","pricing_plan_id":"free"},{"bike_id":"acce3b6b-c95f-46c6-b4b6-edf03f7be051","system_id":"levelo_inurba_marseille","lat":43.258658,"lon":5.398935,"is_reserved":false,"is_disabled":false,"rental_uris":{"android":"levelo://app?vid=acce3b6b-c95f-46c6-b4b6-edf03f7be051","ios":"levelo://app?vid=acce3b6b-c95f-46c6-b4b6-edf03f7be051"},"vehicle_type_id":"4","last_reported":1701504502,"current_range_meters":31600,"station_id":"ce4bhl92rcd13ifvqghg","pricing_plan_id":"free"},{"bike_id":"68fbda5d-5144-450e-a41d-17c7fc221bd0","system_id":"levelo_inurba_marseille","lat":43.258658,"lon":5.398935,"is_reserved":false,"is_disabled":false,"rental_uris":{"android":"levelo://app?vid=68fbda5d-5144-450e-a41d-17c7fc221bd0","ios":"levelo://app?vid=68fbda5d-5144-450e-a41d-17c7fc221bd0"},"vehicle_type_id":"4","last_reported":1701504502,"current_range_meters":30800,"station_id":"ce4bhl92rcd13ifvqghg","pricing_plan_id":"free"},{"bike_id":"d66c0fdb-df4a-47e6-92d7-19705d3322ce","system_id":"levelo_inurba_marseille","lat":43.258658,"lon":5.398935,"is_reserved":false,"is_disabled":false,"rental_uris":{"android":"levelo://app?vid=d66c0fdb-df4a-47e6-92d7-19705d3322ce","ios":"levelo://app?vid=d66c0fdb-df4a-47e6-92d7-19705d3322ce"},"vehicle_type_id":"4","last_reported":1701504502,"current_range_meters":30800,"station_id":"ce4bhl92rcd13ifvqghg","pricing_plan_id":"free"},{"bike_id":"99ee76bf-253b-45b6-98c6-870f3c2c3282","system_id":"levelo_inurba_marseille","lat":43.257079,"lon":5.411051,"is_reserved":false,"is_disabled":false,"rental_uris":{"android":"levelo://app?vid=99ee76bf-253b-45b6-98c6-870f3c2c3282","ios":"levelo://app?vid=99ee76bf-253b-45b6-98c6-870f3c2c3282"},"vehicle_type_id":"4","last_reported":1701504502,"current_range_meters":21200,"station_id":"ce4bhkp2rcd13ifvqgd0","pricing_plan_id":"free"},{"bike_id":"4ac6d9fe-c346-4df3-8dff-a415974401dd","system_id":"levelo_inurba_marseille","lat":43.2479,"lon":5.374457,"is_reserved":false,"is_disabled":false,"rental_uris":{"android":"levelo://app?vid=4ac6d9fe-c346-4df3-8dff-a415974401dd","ios":"levelo://app?vid=4ac6d9fe-c346-4df3-8dff-a415974401dd"},"vehicle_type_id":"4","last_reported":1701504502,"current_range_meters":28000,"station_id":"ce4bhgh2rcd13ifvqfb0","pricing_plan_id":"free"},{"bike_id":"b614a7f5-a107-479f-bb18-c4352b855065","system_id":"levelo_inurba_marseille","lat":43.250926,"lon":5.39524,"is_reserved":false,"is_disabled":false,"rental_uris":{"android":"levelo://app?vid=b614a7f5-a107-479f-bb18-c4352b855065","ios":"levelo://app?vid=b614a7f5-a107-479f-bb18-c4352b855065"},"vehicle_type_id":"4","last_reported":1701504502,"current_range_meters":20000,"station_id":"ce4bhm12rcd13ifvqgkg","pricing_plan_id":"free"},{"bike_id":"f126ef69-6daa-4580-8f01-75337eed8fd4","system_id":"levelo_inurba_marseille","lat":43.25102,"lon":5.403214,"is_reserved":false,"is_disabled":false,"rental_uris":{"android":"levelo://app?vid=f126ef69-6daa-4580-8f01-75337eed8fd4","ios":"levelo://app?vid=f126ef69-6daa-4580-8f01-75337eed8fd4"},"vehicle_type_id":"4","last_reported":1701504502,"current_range_meters":26000,"station_id":"ce4bhlh2rcd13ifvqgig","pricing_plan_id":"free"},{"bike_id":"9c3c2aff-34e2-4935-8c89-34b60a0fa8f2","system_id":"levelo_inurba_marseille","lat":43.25102,"lon":5.403214,"is_reserved":false,"is_disabled":false,"rental_uris":{"android":"levelo://app?vid=9c3c2aff-34e2-4935-8c89-34b60a0fa8f2","ios":"levelo://app?vid=9c3c2aff-34e2-4935-8c89-34b60a0fa8f2"},"vehicle_type_id":"4","last_reported":1701504502,"current_range_meters":25600,"station_id":"ce4bhlh2rcd13ifvqgig","pricing_plan_id":"free"},{"bike_id":"d9d2b1b8-aa2e-4d12-ba90-ff357310b414","system_id":"levelo_inurba_marseille","lat":43.25102,"lon":5.403214,"is_reserved":false,"is_disabled":false,"rental_uris":{"android":"levelo://app?vid=d9d2b1b8-aa2e-4d12-ba90-ff357310b414","ios":"levelo://app?vid=d9d2b1b8-aa2e-4d12-ba90-ff357310b414"},"vehicle_type_id":"4","last_reported":1701504502,"current_range_meters":14000,"station_id":"ce4bhlh2rcd13ifvqgig","pricing_plan_id":"free"},{"bike_id":"0c00f1f7-91b0-4c50-948b-6ce70c0f8465","system_id":"levelo_inurba_marseille","lat":43.243884,"lon":5.370736,"is_reserved":false,"is_disabled":false,"rental_uris":{"android":"levelo://app?vid=0c00f1f7-91b0-4c50-948b-6ce70c0f8465","ios":"levelo://app?vid=0c00f1f7-91b0-4c50-948b-6ce70c0f8465"},"vehicle_type_id":"4","last_reported":1701504502,"current_range_meters":26400,"station_id":"ce4bhhh2rcd13ifvqfk0","pricing_plan_id":"free"},{"bike_id":"ce3539e6-0a8a-466e-93ab-dcbaadf21596","system_id":"levelo_inurba_marseille","lat":43.245581,"lon":5.395069,"is_reserved":false,"is_disabled":false,"rental_uris":{"android":"levelo://app?vid=ce3539e6-0a8a-466e-93ab-dcbaadf21596","ios":"levelo://app?vid=ce3539e6-0a8a-466e-93ab-dcbaadf21596"},"vehicle_type_id":"4","last_reported":1701504502,"current_range_meters":31600,"station_id":"ce4bhlp2rcd13ifvqgjg","pricing_plan_id":"free"},{"bike_id":"270a09c5-ec76-4940-aaa6-fb1bb475614a","system_id":"levelo_inurba_marseille","lat":43.245581,"lon":5.395069,"is_reserved":false,"is_disabled":false,"rental_uris":{"android":"levelo://app?vid=270a09c5-ec76-4940-aaa6-fb1bb475614a","ios":"levelo://app?vid=270a09c5-ec76-4940-aaa6-fb1bb475614a"},