{"last_updated":1779401370,"ttl":60,"version":"2.2","data":{"bikes":[{"bike_id":"7d641315-6110-49cb-a9dd-d637ff032de1","system_id":"levelo_inurba_marseille","lat":43.337444,"lon":5.374475,"is_reserved":false,"is_disabled":false,"rental_uris":{"android":"levelo://app?vid=7d641315-6110-49cb-a9dd-d637ff032de1","ios":"levelo://app?vid=7d641315-6110-49cb-a9dd-d637ff032de1"},"vehicle_type_id":"4","last_reported":1779401371,"current_range_meters":0,"station_id":"","pricing_plan_id":"cebpf4jnsgd1na2vs0mg"},{"bike_id":"66e908b6-ed4f-4e55-9172-19f2a51f0ab5","system_id":"levelo_inurba_marseille","lat":43.28616,"lon":5.35095,"is_reserved":false,"is_disabled":true,"rental_uris":{"android":"levelo://app?vid=66e908b6-ed4f-4e55-9172-19f2a51f0ab5","ios":"levelo://app?vid=66e908b6-ed4f-4e55-9172-19f2a51f0ab5"},"vehicle_type_id":"4","last_reported":1779401371,"current_range_meters":800,"station_id":"ce4bhch2rcd13ifvqeug","pricing_plan_id":"cebpf4jnsgd1na2vs0mg"},{"bike_id":"0c76c216-2e84-4fed-92df-5fe9543cae29","system_id":"levelo_inurba_marseille","lat":43.25335,"lon":5.42165,"is_reserved":false,"is_disabled":false,"rental_uris":{"android":"levelo://app?vid=0c76c216-2e84-4fed-92df-5fe9543cae29","ios":"levelo://app?vid=0c76c216-2e84-4fed-92df-5fe9543cae29"},"vehicle_type_id":"4","last_reported":1779401371,"current_range_meters":1200,"station_id":"st_d2m65c5bi1j21697t3ng","pricing_plan_id":"cebpf4jnsgd1na2vs0mg"},{"bike_id":"c5e693a5-5aee-4f2f-b3d3-ad6fe1a5da64","system_id":"levelo_inurba_marseille","lat":43.3246,"lon":5.36574,"is_reserved":false,"is_disabled":false,"rental_uris":{"android":"levelo://app?vid=c5e693a5-5aee-4f2f-b3d3-ad6fe1a5da64","ios":"levelo://app?vid=c5e693a5-5aee-4f2f-b3d3-ad6fe1a5da64"},"vehicle_type_id":"4","last_reported":1779401371,"current_range_meters":2800,"station_id":"ce4bhs12rcd13ifvqhvg","pricing_plan_id":"cebpf4jnsgd1na2vs0mg"},{"bike_id":"e38caa21-a14a-4197-88a1-db68aad57c56","system_id":"levelo_inurba_marseille","lat":43.28709,"lon":5.46663,"is_reserved":false,"is_disabled":false,"rental_uris":{"android":"levelo://app?vid=e38caa21-a14a-4197-88a1-db68aad57c56","ios":"levelo://app?vid=e38caa21-a14a-4197-88a1-db68aad57c56"},"vehicle_type_id":"4","last_reported":1779401371,"current_range_meters":2800,"station_id":"st_d6tc3vkotcvc738tfjhg","pricing_plan_id":"cebpf4jnsgd1na2vs0mg"},{"bike_id":"5e307274-8b1e-4a37-b1eb-667f9247dfdc","system_id":"levelo_inurba_marseille","lat":43.33122,"lon":5.38032,"is_reserved":false,"is_disabled":false,"rental_uris":{"android":"levelo://app?vid=5e307274-8b1e-4a37-b1eb-667f9247dfdc","ios":"levelo://app?vid=5e307274-8b1e-4a37-b1eb-667f9247dfdc"},"vehicle_type_id":"4","last_reported":1779401371,"current_range_meters":2800,"station_id":"","pricing_plan_id":"cebpf4jnsgd1na2vs0mg"},{"bike_id":"8df9bb0f-86f8-4480-b67e-a818ddf6889f","system_id":"levelo_inurba_marseille","lat":43.24071,"lon":5.37762,"is_reserved":false,"is_disabled":false,"rental_uris":{"android":"levelo://app?vid=8df9bb0f-86f8-4480-b67e-a818ddf6889f","ios":"levelo://app?vid=8df9bb0f-86f8-4480-b67e-a818ddf6889f"},"vehicle_type_id":"4","last_reported":1779401371,"current_range_meters":2800,"station_id":"ce4bhnp2rcd13ifvqgvg","pricing_plan_id":"cebpf4jnsgd1na2vs0mg"},{"bike_id":"79c5056d-fbeb-45a5-91eb-ecd5b4bbe4b5","system_id":"levelo_inurba_marseille","lat":43.25082,"lon":5.3953,"is_reserved":false,"is_disabled":false,"rental_uris":{"android":"levelo://app?vid=79c5056d-fbeb-45a5-91eb-ecd5b4bbe4b5","ios":"levelo://app?vid=79c5056d-fbeb-45a5-91eb-ecd5b4bbe4b5"},"vehicle_type_id":"4","last_reported":1779401371,"current_range_meters":2800,"station_id":"ce4bhm12rcd13ifvqgkg","pricing_plan_id":"cebpf4jnsgd1na2vs0mg"},{"bike_id":"bd4a13ed-fd7d-4288-85fa-be7c462bbd15","system_id":"levelo_inurba_marseille","lat":43.27977,"lon":5.41666,"is_reserved":false,"is_disabled":false,"rental_uris":{"android":"levelo://app?vid=bd4a13ed-fd7d-4288-85fa-be7c462bbd15","ios":"levelo://app?vid=bd4a13ed-fd7d-4288-85fa-be7c462bbd15"},"vehicle_type_id":"4","last_reported":1779401371,"current_range_meters":2800,"station_id":"ce4bho12rcd13ifvqh1g","pricing_plan_id":"cebpf4jnsgd1na2vs0mg"},{"bike_id":"cdf309dd-61fa-4d36-963a-e90c6afb3cde","system_id":"levelo_inurba_marseille","lat":43.290976,"lon":5.381397,"is_reserved":false,"is_disabled":true,"rental_uris":{"android":"levelo://app?vid=cdf309dd-61fa-4d36-963a-e90c6afb3cde","ios":"levelo://app?vid=cdf309dd-61fa-4d36-963a-e90c6afb3cde"},"vehicle_type_id":"4","last_reported":1779401371,"current_range_meters":2800,"station_id":"ce4bh512rcd13ifvqe2g","pricing_plan_id":"cebpf4jnsgd1na2vs0mg"},{"bike_id":"4ddb3851-2a57-4ac3-986e-7ada6c418f40","system_id":"levelo_inurba_marseille","lat":43.30157,"lon":5.38788,"is_reserved":false,"is_disabled":false,"rental_uris":{"android":"levelo://app?vid=4ddb3851-2a57-4ac3-986e-7ada6c418f40","ios":"levelo://app?vid=4ddb3851-2a57-4ac3-986e-7ada6c418f40"},"vehicle_type_id":"4","last_reported":1779401371,"current_range_meters":2800,"station_id":"ce4bghh2rcd13ifvqb60","pricing_plan_id":"cebpf4jnsgd1na2vs0mg"},{"bike_id":"2369c049-e144-4559-8c19-80e04ce58e98","system_id":"levelo_inurba_marseille","lat":43.28416,"lon":5.37505,"is_reserved":false,"is_disabled":false,"rental_uris":{"android":"levelo://app?vid=2369c049-e144-4559-8c19-80e04ce58e98","ios":"levelo://app?vid=2369c049-e144-4559-8c19-80e04ce58e98"},"vehicle_type_id":"4","last_reported":1779401371,"current_range_meters":2800,"station_id":"ce4bh412rcd13ifvqds0","pricing_plan_id":"cebpf4jnsgd1na2vs0mg"},{"bike_id":"454fc9d3-73e6-41f0-b505-b4651cbf9c95","system_id":"levelo_inurba_marseille","lat":43.286978,"lon":5.373808,"is_reserved":false,"is_disabled":false,"rental_uris":{"android":"levelo://app?vid=454fc9d3-73e6-41f0-b505-b4651cbf9c95","ios":"levelo://app?vid=454fc9d3-73e6-41f0-b505-b4651cbf9c95"},"vehicle_type_id":"4","last_reported":1779401371,"current_range_meters":3200,"station_id":"ce4bh3p2rcd13ifvqdq0","pricing_plan_id":"cebpf4jnsgd1na2vs0mg"},{"bike_id":"7975b169-5677-4dff-9b59-bed9c727a531","system_id":"levelo_inurba_marseille","lat":43.31099,"lon":5.37837,"is_reserved":false,"is_disabled":true,"rental_uris":{"android":"levelo://app?vid=7975b169-5677-4dff-9b59-bed9c727a531","ios":"levelo://app?vid=7975b169-5677-4dff-9b59-bed9c727a531"},"vehicle_type_id":"4","last_reported":1779401371,"current_range_meters":3200,"station_id":"","pricing_plan_id":"cebpf4jnsgd1na2vs0mg"},{"bike_id":"54cf749c-171a-41c5-93f1-1f7979f6535d","system_id":"levelo_inurba_marseille","lat":43.25516,"lon":5.3766,"is_reserved":false,"is_disabled":true,"rental_uris":{"android":"levelo://app?vid=54cf749c-171a-41c5-93f1-1f7979f6535d","ios":"levelo://app?vid=54cf749c-171a-41c5-93f1-1f7979f6535d"},"vehicle_type_id":"4","last_reported":1779401371,"current_range_meters":3200,"station_id":"ce4bhh12rcd13ifvqff0","pricing_plan_id":"cebpf4jnsgd1na2vs0mg"},{"bike_id":"720a95b8-7c40-4d1c-bc49-9173b1dc1f4c","system_id":"levelo_inurba_marseille","lat":43.303252,"lon":5.404379,"is_reserved":false,"is_disabled":false,"rental_uris":{"android":"levelo://app?vid=720a95b8-7c40-4d1c-bc49-9173b1dc1f4c","ios":"levelo://app?vid=720a95b8-7c40-4d1c-bc49-9173b1dc1f4c"},"vehicle_type_id":"4","last_reported":1779401371,"current_range_meters":3200,"station_id":"ce4bh012rcd13ifvqd10","pricing_plan_id":"cebpf4jnsgd1na2vs0mg"},{"bike_id":"88c7f5f7-f095-4d5f-83cf-4253b2b08cd3","system_id":"levelo_inurba_marseille","lat":43.289305,"lon":5.384076,"is_reserved":false,"is_disabled":false,"rental_uris":{"android":"levelo://app?vid=88c7f5f7-f095-4d5f-83cf-4253b2b08cd3","ios":"levelo://app?vid=88c7f5f7-f095-4d5f-83cf-4253b2b08cd3"},"vehicle_type_id":"4","last_reported":1779401371,"current_range_meters":3200,"station_id":"ce4bh612rcd13ifvqe6g","pricing_plan_id":"cebpf4jnsgd1na2vs0mg"},{"bike_id":"a3071a58-220a-49d7-933f-639eaa20dffd","system_id":"levelo_inurba_marseille","lat":43.28727,"lon":5.42727,"is_reserved":false,"is_disabled":false,"rental_uris":{"android":"levelo://app?vid=a3071a58-220a-49d7-933f-639eaa20dffd","ios":"levelo://app?vid=a3071a58-220a-49d7-933f-639eaa20dffd"},"vehicle_type_id":"4","last_reported":1779401371,"current_range_meters":3200,"station_id":"","pricing_plan_id":"cebpf4jnsgd1na2vs0mg"},{"bike_id":"0caa08f3-8034-41ae-b21d-19550693d3a3","system_id":"levelo_inurba_marseille","lat":43.25854,"lon":5.39898,"is_reserved":false,"is_disabled":true,"rental_uris":{"android":"levelo://app?vid=0caa08f3-8034-41ae-b21d-19550693d3a3","ios":"levelo://app?vid=0caa08f3-8034-41ae-b21d-19550693d3a3"},"vehicle_type_id":"4","last_reported":1779401371,"current_range_meters":3200,"station_id":"ce4bhl92rcd13ifvqghg","pricing_plan_id":"cebpf4jnsgd1na2vs0mg"},{"bike_id":"553619dc-d839-4e00-bc6d-eecc5ecdba79","system_id":"levelo_inurba_marseille","lat":43.28155,"lon":5.42629,"is_reserved":false,"is_disabled":true,"rental_uris":{"android":"levelo://app?vid=553619dc-d839-4e00-bc6d-eecc5ecdba79","ios":"levelo://app?vid=553619dc-d839-4e00-bc6d-eecc5ecdba79"},"vehicle_type_id":"4","last_reported":1779401371,"current_range_meters":3200,"station_id":"ce4bhnh2rcd13ifvqgug","pricing_plan_id":"cebpf4jnsgd1na2vs0mg"},{"bike_id":"dd289856-a525-42fd-8b18-8e067cb7d76d","system_id":"levelo_inurba_marseille","lat":43.28929,"lon":5.38389,"is_reserved":false,"is_disabled":false,"rental_uris":{"android":"levelo://app?vid=dd289856-a525-42fd-8b18-8e067cb7d76d","ios":"levelo://app?vid=dd289856-a525-42fd-8b18-8e067cb7d76d"},"vehicle_type_id":"4","last_reported":1779401371,"current_range_meters":3200,"station_id":"ce4bh612rcd13ifvqe6g","pricing_plan_id":"cebpf4jnsgd1na2vs0mg"},{"bike_id":"924fb5a7-6478-4e31-9ad7-34a2292df595","system_id":"levelo_inurba_marseille","lat":43.28478,"lon":5.43753,"is_reserved":false,"is_disabled":false,"rental_uris":{"android":"levelo://app?vid=924fb5a7-6478-4e31-9ad7-34a2292df595","ios":"levelo://app?vid=924fb5a7-6478-4e31-9ad7-34a2292df595"},"vehicle_type_id":"4","last_reported":1779401371,"current_range_meters":3200,"station_id":"","pricing_plan_id":"cebpf4jnsgd1na2vs0mg"},{"bike_id":"4581f6a7-79e9-44cd-b96e-06f3561662b8","system_id":"levelo_inurba_marseille","lat":43.22537,"lon":5.34825,"is_reserved":false,"is_disabled":true,"rental_uris":{"android":"levelo://app?vid=4581f6a7-79e9-44cd-b96e-06f3561662b8","ios":"levelo://app?vid=4581f6a7-79e9-44cd-b96e-06f3561662b8"},"vehicle_type_id":"4","last_reported":1779401371,"current_range_meters":3200,"station_id":"st_cvj5dfep6f1abm77gieg","pricing_plan_id":"cebpf4jnsgd1na2vs0mg"},{"bike_id":"9c7b01cb-3130-4dfa-9e9d-1b3fbc0bd680","system_id":"levelo_inurba_marseille","lat":43.24945,"lon":5.40493,"is_reserved":false,"is_disabled":false,"rental_uris":{"android":"levelo://app?vid=9c7b01cb-3130-4dfa-9e9d-1b3fbc0bd680","ios":"levelo://app?vid=9c7b01cb-3130-4dfa-9e9d-1b3fbc0bd680"},"vehicle_type_id":"4","last_reported":1779401371,"current_range_meters":3200,"station_id":"st_d2ngiaodas8pm72gd1h0","pricing_plan_id":"cebpf4jnsgd1na2vs0mg"},{"bike_id":"b293a712-75e3-44ee-8362-9418df85367c","system_id":"levelo_inurba_marseille","lat":43.26239,"lon":5.38754,"is_reserved":false,"is_disabled":false,"rental_uris":{"android":"levelo://app?vid=b293a712-75e3-44ee-8362-9418df85367c","ios":"levelo://app?vid=b293a712-75e3-44ee-8362-9418df85367c"},"vehicle_type_id":"4","last_reported":1779401371,"current_range_meters":3200,"station_id":"","pricing_plan_id":"cebpf4jnsgd1na2vs0mg"},{"bike_id":"31dd9f20-a20e-4842-a0ad-eaf0448b2e0d","system_id":"levelo_inurba_marseille","lat":43.24949,"lon":5.40496,"is_reserved":false,"is_disabled":false,"rental_uris":{"android":"levelo://app?vid=31dd9f20-a20e-4842-a0ad-eaf0448b2e0d","ios":"levelo://app?vid=31dd9f20-a20e-4842-a0ad-eaf0448b2e0d"},"vehicle_type_id":"4","last_reported":1779401371,"current_range_meters":3200,"station_id":"st_d2ngiaodas8pm72gd1h0","pricing_plan_id":"cebpf4jnsgd1na2vs0mg"},{"bike_id":"bcfbd48e-5312-4f28-b02c-ce41d79112f4","system_id":"levelo_inurba_marseille","lat":43.31361,"lon":5.38485,"is_reserved":false,"is_disabled":false,"rental_uris":{"android":"levelo://app?vid=bcfbd48e-5312-4f28-b02c-ce41d79112f4","ios":"levelo://app?vid=bcfbd48e-5312-4f28-b02c-ce41d79112f4"},"vehicle_type_id":"4","last_reported":1779401371,"current_range_meters":3200,"station_id":"ce4bgt92rcd13ifvqcf0","pricing_plan_id":"cebpf4jnsgd1na2vs0mg"},{"bike_id":"fff807b5-469f-4ebe-a453-db6a0122f994","system_id":"levelo_inurba_marseille","lat":43.286,"lon":5.39891,"is_reserved":false,"is_disabled":false,"rental_uris":{"android":"levelo://app?vid=fff807b5-469f-4ebe-a453-db6a0122f994","ios":"levelo://app?vid=fff807b5-469f-4ebe-a453-db6a0122f994"},"vehicle_type_id":"4","last_reported":1779401371,"current_range_meters":3200,"station_id":"st_d4a7ka997mjs738ck50g","pricing_plan_id":"cebpf4jnsgd1na2vs0mg"},{"bike_id":"d8480464-0599-444a-944e-a953fc7c2701","system_id":"levelo_inurba_marseille","lat":43.26573,"lon":5.39002,"is_reserved":false,"is_disabled":false,"rental_uris":{"android":"levelo://app?vid=d8480464-0599-444a-944e-a953fc7c2701","ios":"levelo://app?vid=d8480464-0599-444a-944e-a953fc7c2701"},"vehicle_type_id":"4","last_reported":1779401371,"current_range_meters":3200,"station_id":"ce4bhe12rcd13ifvqf30","pricing_plan_id":"cebpf4jnsgd1na2vs0mg"},{"bike_id":"32a5c026-f7af-40b0-9504-852ea2d61605","system_id":"levelo_inurba_marseille","lat":43.2836,"lon":5.38636,"is_reserved":false,"is_disabled":false,"rental_uris":{"android":"levelo://app?vid=32a5c026-f7af-40b0-9504-852ea2d61605","ios":"levelo://app?vid=32a5c026-f7af-40b0-9504-852ea2d61605"},"vehicle_type_id":"4","last_reported":1779401371,"current_range_meters":3200,"station_id":"ce4bh492rcd13ifvqdvg","pricing_plan_id":"cebpf4jnsgd1na2vs0mg"},{"bike_id":"f7cad48c-5c1a-4d67-94c9-18752e134d03","system_id":"levelo_inurba_marseille","lat":43.23949,"lon":5.36622,"is_reserved":false,"is_disabled":true,"rental_uris":{"android":"levelo://app?vid=f7cad48c-5c1a-4d67-94c9-18752e134d03","ios":"levelo://app?vid=f7cad48c-5c1a-4d67-94c9-18752e134d03"},"vehicle_type_id":"4","last_reported":1779401371,"current_range_meters":3600,"station_id":"ce4bhi12rcd13ifvqfp0","pricing_plan_id":"cebpf4jnsgd1na2vs0mg"},{"bike_id":"282c9669-7dad-469f-b087-8dbbc861bbc4","system_id":"levelo_inurba_marseille","lat":43.274223,"lon":5.394069,"is_reserved":false,"is_disabled":true,"rental_uris":{"android":"levelo://app?vid=282c9669-7dad-469f-b087-8dbbc861bbc4","ios":"levelo://app?vid=282c9669-7dad-469f-b087-8dbbc861bbc4"},"vehicle_type_id":"4","last_reported":1779401371,"current_range_meters":3600,"station_id":"ce4bhdp2rcd13ifvqf20","pricing_plan_id":"cebpf4jnsgd1na2vs0mg"},{"bike_id":"018bc1b8-394d-4284-aee9-f1a543d506c1","system_id":"levelo_inurba_marseille","lat":43.26541,"lon":5.37295,"is_reserved":false,"is_disabled":true,"rental_uris":{"android":"levelo://app?vid=018bc1b8-394d-4284-aee9-f1a543d506c1","ios":"levelo://app?vid=018bc1b8-394d-4284-aee9-f1a543d506c1"},"vehicle_type_id":"4","last_reported":1779401371,"current_range_meters":3600,"station_id":"ce4bhg12rcd13ifvqf70","pricing_plan_id":"cebpf4jnsgd1na2vs0mg"},{"bike_id":"381a1687-3b4c-4e43-ada7-0b296f458493","system_id":"levelo_inurba_marseille","lat":43.28748,"lon":5.46662,"is_reserved":false,"is_disabled":false,"rental_uris":{"android":"levelo://app?vid=381a1687-3b4c-4e43-ada7-0b296f458493","ios":"levelo://app?vid=381a1687-3b4c-4e43-ada7-0b296f458493"},"vehicle_type_id":"4","last_reported":1779401371,"current_range_meters":3600,"station_id":"","pricing_plan_id":"cebpf4jnsgd1na2vs0mg"},{"bike_id":"051eb476-a462-40f5-811f-71276f1a8d25","system_id":"levelo_inurba_marseille","lat":43.2849,"lon":5.48374,"is_reserved":false,"is_disabled":false,"rental_uris":{"android":"levelo://app?vid=051eb476-a462-40f5-811f-71276f1a8d25","ios":"levelo://app?vid=051eb476-a462-40f5-811f-71276f1a8d25"},"vehicle_type_id":"4","last_reported":1779401371,"current_range_meters":3600,"station_id":"st_d3svhcjqgbts73a3dn0g","pricing_plan_id":"cebpf4jnsgd1na2vs0mg"},{"bike_id":"21fb01df-56f4-4bee-8faa-88ef094f3e6b","system_id":"levelo_inurba_marseille","lat":43.21742,"lon":5.34587,"is_reserved":false,"is_disabled":true,"rental_uris":{"android":"levelo://app?vid=21fb01df-56f4-4bee-8faa-88ef094f3e6b","ios":"levelo://app?vid=21fb01df-56f4-4bee-8faa-88ef094f3e6b"},"vehicle_type_id":"4","last_reported":1779401371,"current_range_meters":3600,"station_id":"st_cvj6r9ubvosntc0bgbag","pricing_plan_id":"cebpf4jnsgd1na2vs0mg"},{"bike_id":"dc4a4994-82a1-43d0-9790-1e698a4a5099","system_id":"levelo_inurba_marseille","lat":43.24807,"lon":5.37449,"is_reserved":false,"is_disabled":false,"rental_uris":{"android":"levelo://app?vid=dc4a4994-82a1-43d0-9790-1e698a4a5099","ios":"levelo://app?vid=dc4a4994-82a1-43d0-9790-1e698a4a5099"},"vehicle_type_id":"4","last_reported":1779401371,"current_range_meters":3600,"station_id":"ce4bhgh2rcd13ifvqfb0","pricing_plan_id":"cebpf4jnsgd1na2vs0mg"},{"bike_id":"b0dec4e9-17bd-41b0-8a8d-5b5432ef14ed","system_id":"levelo_inurba_marseille","lat":43.269318,"lon":5.389178,"is_reserved":false,"is_disabled":false,"rental_uris":{"android":"levelo://app?vid=b0dec4e9-17bd-41b0-8a8d-5b5432ef14ed","ios":"levelo://app?vid=b0dec4e9-17bd-41b0-8a8d-5b5432ef14ed"},"vehicle_type_id":"4","last_reported":1779401371,"current_range_meters":3600,"station_id":"ce4bhhh2rcd13ifvqfl0","pricing_plan_id":"cebpf4jnsgd1na2vs0mg"},{"bike_id":"8c39b6dd-b754-48e2-823c-6f28d51803e0","system_id":"levelo_inurba_marseille","lat":43.29264,"lon":5.39808,"is_reserved":false,"is_disabled":false,"rental_uris":{"android":"levelo://app?vid=8c39b6dd-b754-48e2-823c-6f28d51803e0","ios":"levelo://app?vid=8c39b6dd-b754-48e2-823c-6f28d51803e0"},"vehicle_type_id":"4","last_reported":1779401371,"current_range_meters":3600,"station_id":"","pricing_plan_id":"cebpf4jnsgd1na2vs0mg"},{"bike_id":"e9c4236d-db98-4934-930f-da935807c779","system_id":"levelo_inurba_marseille","lat":43.279469,"lon":5.410498,"is_reserved":false,"is_disabled":false,"rental_uris":{"android":"levelo://app?vid=e9c4236d-db98-4934-930f-da935807c779","ios":"levelo://app?vid=e9c4236d-db98-4934-930f-da935807c779"},"vehicle_type_id":"4","last_reported":1779401371,"current_range_meters":3600,"station_id":"ce4bhnp2rcd13ifvqh0g","pricing_plan_id":"cebpf4jnsgd1na2vs0mg"},{"bike_id":"9fa8e4d2-732f-42b0-ae1b-a7f4005a9655","system_id":"levelo_inurba_marseille","lat":43.25492,"lon":5.37649,"is_reserved":false,"is_disabled":false,"rental_uris":{"android":"levelo://app?vid=9fa8e4d2-732f-42b0-ae1b-a7f4005a9655","ios":"levelo://app?vid=9fa8e4d2-732f-42b0-ae1b-a7f4005a9655"},"vehicle_type_id":"4","last_reported":1779401371,"current_range_meters":3600,"station_id":"ce4bhh12rcd13ifvqff0","pricing_plan_id":"cebpf4jnsgd1na2vs0mg"},{"bike_id":"de2e104a-57c8-49d0-a8a7-bfe556bdfaaa","system_id":"levelo_inurba_marseille","lat":43.28696,"lon":5.37382,"is_reserved":false,"is_disabled":false,"rental_uris":{"android":"levelo://app?vid=de2e104a-57c8-49d0-a8a7-bfe556bdfaaa","ios":"levelo://app?vid=de2e104a-57c8-49d0-a8a7-bfe556bdfaaa"},"vehicle_type_id":"4","last_reported":1779401371,"current_range_meters":3600,"station_id":"ce4bh3p2rcd13ifvqdq0","pricing_plan_id":"cebpf4jnsgd1na2vs0mg"},{"bike_id":"42e72b46-ea89-4b33-95be-8c38a16c88bd","system_id":"levelo_inurba_marseille","lat":43.28218,"lon":5.3906,"is_reserved":false,"is_disabled":false,"rental_uris":{"android":"levelo://app?vid=42e72b46-ea89-4b33-95be-8c38a16c88bd","ios":"levelo://app?vid=42e72b46-ea89-4b33-95be-8c38a16c88bd"},"vehicle_type_id":"4","last_reported":1779401371,"current_range_meters":3600,"station_id":"ce4bhn92rcd13ifvqgsg","pricing_plan_id":"cebpf4jnsgd1na2vs0mg"},{"bike_id":"74bb0400-bb66-433c-82b8-e3e134eb337f","system_id":"levelo_inurba_marseille","lat":43.30133,"lon":5.39851,"is_reserved":false,"is_disabled":false,"rental_uris":{"android":"levelo://app?vid=74bb0400-bb66-433c-82b8-e3e134eb337f","ios":"levelo://app?vid=74bb0400-bb66-433c-82b8-e3e134eb337f"},"vehicle_type_id":"4","last_reported":1779401371,"current_range_meters":4000,"station_id":"ce4bh0h2rcd13ifvqd40","pricing_plan_id":"cebpf4jnsgd1na2vs0mg"},{"bike_id":"21ffebd5-32fe-4a3f-965a-afcdcc771a12","system_id":"levelo_inurba_marseille","lat":43.29553,"lon":5.39003,"is_reserved":false,"is_disabled":false,"rental_uris":{"android":"levelo://app?vid=21ffebd5-32fe-4a3f-965a-afcdcc771a12","ios":"levelo://app?vid=21ffebd5-32fe-4a3f-965a-afcdcc771a12"},"vehicle_type_id":"4","last_reported":1779401371,"current_range_meters":4000,"station_id":"","pricing_plan_id":"cebpf4jnsgd1na2vs0mg"},{"bike_id":"13beeac8-f885-4dc6-84c6-0d7d192ea015","system_id":"levelo_inurba_marseille","lat":43.26503,"lon":5.39548,"is_reserved":false,"is_disabled":false,"rental_uris":{"android":"levelo://app?vid=13beeac8-f885-4dc6-84c6-0d7d192ea015","ios":"levelo://app?vid=13beeac8-f885-4dc6-84c6-0d7d192ea015"},"vehicle_type_id":"4","last_reported":1779401371,"current_range_meters":4000,"station_id":"ce4bhi12rcd13ifvqfq0","pricing_plan_id":"cebpf4jnsgd1na2vs0mg"},{"bike_id":"6096ca9f-e19d-43dc-b67b-43fb4d7990f2","system_id":"levelo_inurba_marseille","lat":43.29979,"lon":5.41315,"is_reserved":false,"is_disabled":false,"rental_uris":{"android":"levelo://app?vid=6096ca9f-e19d-43dc-b67b-43fb4d7990f2","ios":"levelo://app?vid=6096ca9f-e19d-43dc-b67b-43fb4d7990f2"},"vehicle_type_id":"4","last_reported":1779401371,"current_range_meters":4000,"station_id":"ce4bhp12rcd13ifvqh9g","pricing_plan_id":"cebpf4jnsgd1na2vs0mg"},{"bike_id":"15a8d13c-fc9e-4e13-9398-c1cbd662c288","system_id":"levelo_inurba_marseille","lat":43.29652,"lon":5.38551,"is_reserved":false,"is_disabled":false,"rental_uris":{"android":"levelo://app?vid=15a8d13c-fc9e-4e13-9398-c1cbd662c288","ios":"levelo://app?vid=15a8d13c-fc9e-4e13-9398-c1cbd662c288"},"vehicle_type_id":"4","last_reported":1779401371,"current_range_meters":4000,"station_id":"","pricing_plan_id":"cebpf4jnsgd1na2vs0mg"},{"bike_id":"54ebc614-4655-4582-83f2-3a009523bce0","system_id":"levelo_inurba_marseille","lat":43.25525,"lon":5.37633,"is_reserved":false,"is_disabled":false,"rental_uris":{"android":"levelo://app?vid=54ebc614-4655-4582-83f2-3a009523bce0","ios":"levelo://app?vid=54ebc614-4655-4582-83f2-3a009523bce0"},"vehicle_type_id":"4","last_reported":1779401371,"current_range_meters":4000,"station_id":"ce4bhh12rcd13ifvqff0","pricing_plan_id":"cebpf4jnsgd1na2vs0mg"},{"bike_id":"d0e0d85a-236c-42b7-a1d9-49405b88558b","system_id":"levelo_inurba_marseille","lat":43.30543,"lon":5.36675,"is_reserved":false,"is_disabled":false,"rental_uris":{"android":"levelo://app?vid=d0e0d85a-236c-42b7-a1d9-49405b88558b","ios":"levelo://app?vid=d0e0d85a-236c-42b7-a1d9-49405b88558b"},"vehicle_type_id":"4","last_reported":1779401371,"current_range_meters":4000,"station_id":"ce4bgrp2rcd13ifvqc9g","pricing_plan_id":"cebpf4jnsgd1na2vs0mg"},{"bike_id":"3a8bf2dd-1d04-4ee7-9d7d-732a70692881","system_id":"levelo_inurba_marseille","lat":43.30904,"lon":5.36841,"is_reserved":false,"is_disabled":false,"rental_uris":{"android":"levelo://app?vid=3a8bf2dd-1d04-4ee7-9d7d-732a70692881","ios":"levelo://app?vid=3a8bf2dd-1d04-4ee7-9d7d-732a70692881"},"vehicle_type_id":"4","last_reported":1779401371,"current_range_meters":4000,"station_id":"ce4bgn92rcd13ifvqbvg","pricing_plan_id":"cebpf4jnsgd1na2vs0mg"},{"bike_id":"3a7237ae-b3a6-4a20-b1be-a8ec335b2b7a","system_id":"levelo_inurba_marseille","lat":43.28459,"lon":5.35885,"is_reserved":false,"is_disabled":true,"rental_uris":{"android":"levelo://app?vid=3a7237ae-b3a6-4a20-b1be-a8ec335b2b7a","ios":"levelo://app?vid=3a7237ae-b3a6-4a20-b1be-a8ec335b2b7a"},"vehicle_type_id":"4","last_reported":1779401371,"current_range_meters":4000,"station_id":"ce4bhah2rcd13ifvqei0","pricing_plan_id":"cebpf4jnsgd1na2vs0mg"},{"bike_id":"74fe1e51-c8c1-48c7-87a3-bd97254ab7ff","system_id":"levelo_inurba_marseille","lat":43.27173,"lon":5.40973,"is_reserved":false,"is_disabled":false,"rental_uris":{"android":"levelo://app?vid=74fe1e51-c8c1-48c7-87a3-bd97254ab7ff","ios":"levelo://app?vid=74fe1e51-c8c1-48c7-87a3-bd97254ab7ff"},"vehicle_type_id":"4","last_reported":1779401371,"current_range_meters":4000,"station_id":"ce4bhl12rcd13ifvqgf0","pricing_plan_id":"cebpf4jnsgd1na2vs0mg"},{"bike_id":"1d1371af-930b-4bb2-a69d-74bda00db512","system_id":"levelo_inurba_marseille","lat":43.24379,"lon":5.37103,"is_reserved":false,"is_disabled":true,"rental_uris":{"android":"levelo://app?vid=1d1371af-930b-4bb2-a69d-74bda00db512","ios":"levelo://app?vid=1d1371af-930b-4bb2-a69d-74bda00db512"},"vehicle_type_id":"4","last_reported":1779401371,"current_range_meters":4000,"station_id":"ce4bhhh2rcd13ifvqfk0","pricing_plan_id":"cebpf4jnsgd1na2vs0mg"},{"bike_id":"b3c58742-0569-4988-8f74-9982023b97a6","system_id":"levelo_inurba_marseille","lat":43.31901,"lon":5.36752,"is_reserved":false,"is_disabled":false,"rental_uris":{"android":"levelo://app?vid=b3c58742-0569-4988-8f74-9982023b97a6","ios":"levelo://app?vid=b3c58742-0569-4988-8f74-9982023b97a6"},"vehicle_type_id":"4","last_reported":1779401371,"current_range_meters":4400,"station_id":"st_d6o2h0d0559c73evc1b0","pricing_plan_id":"cebpf4jnsgd1na2vs0mg"},{"bike_id":"94c49980-82e9-40c1-8742-79af726fe66b","system_id":"levelo_inurba_marseille","lat":43.29853,"lon":5.42145,"is_reserved":false,"is_disabled":false,"rental_uris":{"android":"levelo://app?vid=94c49980-82e9-40c1-8742-79af726fe66b","ios":"levelo://app?vid=94c49980-82e9-40c1-8742-79af726fe66b"},"vehicle_type_id":"4","last_reported":1779401371,"current_range_meters":4400,"station_id":"","pricing_plan_id":"cebpf4jnsgd1na2vs0mg"},{"bike_id":"78f812ec-bab0-4f50-a516-9757540477a3","system_id":"levelo_inurba_marseille","lat":43.25341,"lon":5.42166,"is_reserved":false,"is_disabled":false,"rental_uris":{"android":"levelo://app?vid=78f812ec-bab0-4f50-a516-9757540477a3","ios":"levelo://app?vid=78f812ec-bab0-4f50-a516-9757540477a3"},"vehicle_type_id":"4","last_reported":1779401371,"current_range_meters":4400,"station_id":"st_d2m65c5bi1j21697t3ng","pricing_plan_id":"cebpf4jnsgd1na2vs0mg"},{"bike_id":"4a54b351-04ac-4f40-b471-0f6d190e5ac2","system_id":"levelo_inurba_marseille","lat":43.28832,"lon":5.39305,"is_reserved":false,"is_disabled":false,"rental_uris":{"android":"levelo://app?vid=4a54b351-04ac-4f40-b471-0f6d190e5ac2","ios":"levelo://app?vid=4a54b351-04ac-4f40-b471-0f6d190e5ac2"},"vehicle_type_id":"4","last_reported":1779401371,"current_range_meters":4400,"station_id":"ce4bh2p2rcd13ifvqdi0","pricing_plan_id":"cebpf4jnsgd1na2vs0mg"},{"bike_id":"8c3ef4fc-e8b4-4200-8230-655ebc76defe","system_id":"levelo_inurba_marseille","lat":43.28283,"lon":5.35069,"is_reserved":false,"is_disabled":true,"rental_uris":{"android":"levelo://app?vid=8c3ef4fc-e8b4-4200-8230-655ebc76defe","ios":"levelo://app?vid=8c3ef4fc-e8b4-4200-8230-655ebc76defe"},"vehicle_type_id":"4","last_reported":1779401371,"current_range_meters":4400,"station_id":"ce4bhbp2rcd13ifvqerg","pricing_plan_id":"cebpf4jnsgd1na2vs0mg"},{"bike_id":"8e30adf0-a8b7-460f-808e-110669d97836","system_id":"levelo_inurba_marseille","lat":43.294434,"lon":5.397553,"is_reserved":false,"is_disabled":false,"rental_uris":{"android":"levelo://app?vid=8e30adf0-a8b7-460f-808e-110669d97836","ios":"levelo://app?vid=8e30adf0-a8b7-460f-808e-110669d97836"},"vehicle_type_id":"4","last_reported":1779401371,"current_range_meters":4400,"station_id":"ce4bh3h2rcd13ifvqdo0","pricing_plan_id":"cebpf4jnsgd1na2vs0mg"},{"bike_id":"78ee7857-01fd-4d19-9349-5bf537cbcebb","system_id":"levelo_inurba_marseille","lat":43.31536,"lon":5.38039,"is_reserved":false,"is_disabled":false,"rental_uris":{"android":"levelo://app?vid=78ee7857-01fd-4d19-9349-5bf537cbcebb","ios":"levelo://app?vid=78ee7857-01fd-4d19-9349-5bf537cbcebb"},"vehicle_type_id":"4","last_reported":1779401371,"current_range_meters":4400,"station_id":"ce4bhsp2rcd13ifvqi50","pricing_plan_id":"cebpf4jnsgd1na2vs0mg"},{"bike_id":"2ec8c975-c8a3-4e64-b588-05782f63cc6b","system_id":"levelo_inurba_marseille","lat":43.25503,"lon":5.37652,"is_reserved":false,"is_disabled":false,"rental_uris":{"android":"levelo://app?vid=2ec8c975-c8a3-4e64-b588-05782f63cc6b","ios":"levelo://app?vid=2ec8c975-c8a3-4e64-b588-05782f63cc6b"},"vehicle_type_id":"4","last_reported":1779401371,"current_range_meters":4400,"station_id":"ce4bhh12rcd13ifvqff0","pricing_plan_id":"cebpf4jnsgd1na2vs0mg"},{"bike_id":"feb06ac0-4bcc-49f8-9c48-26dbea749a30","system_id":"levelo_inurba_marseille","lat":43.23958,"lon":5.36648,"is_reserved":false,"is_disabled":false,"rental_uris":{"android":"levelo://app?vid=feb06ac0-4bcc-49f8-9c48-26dbea749a30","ios":"levelo://app?vid=feb06ac0-4bcc-49f8-9c48-26dbea749a30"},"vehicle_type_id":"4","last_reported":1779401371,"current_range_meters":4400,"station_id":"ce4bhi12rcd13ifvqfp0","pricing_plan_id":"cebpf4jnsgd1na2vs0mg"},{"bike_id":"8a0dc731-2fcb-41f9-8c7d-3c07ea626aeb","system_id":"levelo_inurba_marseille","lat":43.23975,"lon":5.36616,"is_reserved":false,"is_disabled":true,"rental_uris":{"android":"levelo://app?vid=8a0dc731-2fcb-41f9-8c7d-3c07ea626aeb","ios":"levelo://app?vid=8a0dc731-2fcb-41f9-8c7d-3c07ea626aeb"},"vehicle_type_id":"4","last_reported":1779401371,"current_range_meters":4400,"station_id":"ce4bhi12rcd13ifvqfp0","pricing_plan_id":"cebpf4jnsgd1na2vs0mg"},{"bike_id":"0b9fb95c-cf6b-4ed5-8bf4-759fc5a571cc","system_id":"levelo_inurba_marseille","lat":43.2686,"lon":5.40677,"is_reserved":false,"is_disabled":false,"rental_uris":{"android":"levelo://app?vid=0b9fb95c-cf6b-4ed5-8bf4-759fc5a571cc","ios":"levelo://app?vid=0b9fb95c-cf6b-4ed5-8bf4-759fc5a571cc"},"vehicle_type_id":"4","last_reported":1779401371,"current_range_meters":4400,"station_id":"","pricing_plan_id":"cebpf4jnsgd1na2vs0mg"},{"bike_id":"8daa3446-402f-4973-b3de-c0b785e6e476","system_id":"levelo_inurba_marseille","lat":43.29221,"lon":5.393,"is_reserved":false,"is_disabled":false,"rental_uris":{"android":"levelo://app?vid=8daa3446-402f-4973-b3de-c0b785e6e476","ios":"levelo://app?vid=8daa3446-402f-4973-b3de-c0b785e6e476"},"vehicle_type_id":"4","last_reported":1779401371,"current_range_meters":4400,"station_id":"ce4bh192rcd13ifvqdd0","pricing_plan_id":"cebpf4jnsgd1na2vs0mg"},{"bike_id":"efb7347e-350d-498a-b0a2-1469e2cf1956","system_id":"levelo_inurba_marseille","lat":43.29877,"lon":5.39733,"is_reserved":false,"is_disabled":false,"rental_uris":{"android":"levelo://app?vid=efb7347e-350d-498a-b0a2-1469e2cf1956","ios":"levelo://app?vid=efb7347e-350d-498a-b0a2-1469e2cf1956"},"vehicle_type_id":"4","last_reported":1779401371,"current_range_meters":4400,"station_id":"ce4bh0h2rcd13ifvqd50","pricing_plan_id":"cebpf4jnsgd1na2vs0mg"},{"bike_id":"362dde3d-e55b-43d3-a257-fc879c078dae","system_id":"levelo_inurba_marseille","lat":43.26189,"lon":5.37452,"is_reserved":false,"is_disabled":true,"rental_uris":{"android":"levelo://app?vid=362dde3d-e55b-43d3-a257-fc879c078dae","ios":"levelo://app?vid=362dde3d-e55b-43d3-a257-fc879c078dae"},"vehicle_type_id":"4","last_reported":1779401371,"current_range_meters":4400,"station_id":"ce4bhgp2rcd13ifvqfc0","pricing_plan_id":"cebpf4jnsgd1na2vs0mg"},{"bike_id":"375ee5aa-b3a4-4687-9cb5-9ce27e5d544e","system_id":"levelo_inurba_marseille","lat":43.31077,"lon":5.42436,"is_reserved":false,"is_disabled":false,"rental_uris":{"android":"levelo://app?vid=375ee5aa-b3a4-4687-9cb5-9ce27e5d544e","ios":"levelo://app?vid=375ee5aa-b3a4-4687-9cb5-9ce27e5d544e"},"vehicle_type_id":"4","last_reported":1779401371,"current_range_meters":4800,"station_id":"ce4bhp92rcd13ifvqhag","pricing_plan_id":"cebpf4jnsgd1na2vs0mg"},{"bike_id":"87927926-dbf6-4828-8df7-226d338123b2","system_id":"levelo_inurba_marseille","lat":43.29887,"lon":5.39737,"is_reserved":false,"is_disabled":false,"rental_uris":{"android":"levelo://app?vid=87927926-dbf6-4828-8df7-226d338123b2","ios":"levelo://app?vid=87927926-dbf6-4828-8df7-226d338123b2"},"vehicle_type_id":"4","last_reported":1779401371,"current_range_meters":4800,"station_id":"ce4bh0h2rcd13ifvqd50","pricing_plan_id":"cebpf4jnsgd1na2vs0mg"},{"bike_id":"c6128e7e-849e-4077-9f6f-6eb5ee6dc68d","system_id":"levelo_inurba_marseille","lat":43.26629,"lon":5.39371,"is_reserved":false,"is_disabled":false,"rental_uris":{"android":"levelo://app?vid=c6128e7e-849e-4077-9f6f-6eb5ee6dc68d","ios":"levelo://app?vid=c6128e7e-849e-4077-9f6f-6eb5ee6dc68d"},"vehicle_type_id":"4","last_reported":1779401371,"current_range_meters":4800,"station_id":"ce4bhh12rcd13ifvqfg0","pricing_plan_id":"cebpf4jnsgd1na2vs0mg"},{"bike_id":"988fda03-a9ea-4fd2-b215-c8af4216d94d","system_id":"levelo_inurba_marseille","lat":43.28932,"lon":5.3963,"is_reserved":false,"is_disabled":false,"rental_uris":{"android":"levelo://app?vid=988fda03-a9ea-4fd2-b215-c8af4216d94d","ios":"levelo://app?vid=988fda03-a9ea-4fd2-b215-c8af4216d94d"},"vehicle_type_id":"4","last_reported":1779401371,"current_range_meters":4800,"station_id":"ce4bh3h2rcd13ifvqdn0","pricing_plan_id":"cebpf4jnsgd1na2vs0mg"},{"bike_id":"e7b2834d-0414-4c8b-95bb-dbeba87a5cba","system_id":"levelo_inurba_marseille","lat":43.32928,"lon":5.38936,"is_reserved":false,"is_disabled":false,"rental_uris":{"android":"levelo://app?vid=e7b2834d-0414-4c8b-95bb-dbeba87a5cba","ios":"levelo://app?vid=e7b2834d-0414-4c8b-95bb-dbeba87a5cba"},"vehicle_type_id":"4","last_reported":1779401371,"current_range_meters":4800,"station_id":"","pricing_plan_id":"cebpf4jnsgd1na2vs0mg"},{"bike_id":"9f851e0d-2bc6-43e8-9dbb-3054f97344b0","system_id":"levelo_inurba_marseille","lat":43.30093,"lon":5.37234,"is_reserved":false,"is_disabled":false,"rental_uris":{"android":"levelo://app?vid=9f851e0d-2bc6-43e8-9dbb-3054f97344b0","ios":"levelo://app?vid=9f851e0d-2bc6-43e8-9dbb-3054f97344b0"},"vehicle_type_id":"4","last_reported":1779401371,"current_range_meters":4800,"station_id":"","pricing_plan_id":"cebpf4jnsgd1na2vs0mg"},{"bike_id":"d7b1d80e-ee26-4f2a-8580-16b04d1e386f","system_id":"levelo_inurba_marseille","lat":43.28373,"lon":5.38633,"is_reserved":false,"is_disabled":false,"rental_uris":{"android":"levelo://app?vid=d7b1d80e-ee26-4f2a-8580-16b04d1e386f","ios":"levelo://app?vid=d7b1d80e-ee26-4f2a-8580-16b04d1e386f"},"vehicle_type_id":"4","last_reported":1779401371,"current_range_meters":4800,"station_id":"ce4bh492rcd13ifvqdvg","pricing_plan_id":"cebpf4jnsgd1na2vs0mg"},{"bike_id":"aad75fce-f297-4a66-8546-74ab6bfcd851","system_id":"levelo_inurba_marseille","lat":43.24167,"lon":5.36394,"is_reserved":false,"is_disabled":false,"rental_uris":{"android":"levelo://app?vid=aad75fce-f297-4a66-8546-74ab6bfcd851","ios":"levelo://app?vid=aad75fce-f297-4a66-8546-74ab6bfcd851"},"vehicle_type_id":"4","last_reported":1779401371,"current_range_meters":4800,"station_id":"cpo36qri1sfpv3e86is0","pricing_plan_id":"cebpf4jnsgd1na2vs0mg"},{"bike_id":"8e7115e5-afd0-482b-bfd7-f75a7925e115","system_id":"levelo_inurba_marseille","lat":43.30241,"lon":5.4121,"is_reserved":false,"is_disabled":false,"rental_uris":{"android":"levelo://app?vid=8e7115e5-afd0-482b-bfd7-f75a7925e115","ios":"levelo://app?vid=8e7115e5-afd0-482b-bfd7-f75a7925e115"},"vehicle_type_id":"4","last_reported":1779401371,"current_range_meters":4800,"station_id":"","pricing_plan_id":"cebpf4jnsgd1na2vs0mg"},{"bike_id":"87339f73-bbac-4512-8344-10e7bd84aa4c","system_id":"levelo_inurba_marseille","lat":43.29855,"lon":5.38875,"is_reserved":false,"is_disabled":false,"rental_uris":{"android":"levelo://app?vid=87339f73-bbac-4512-8344-10e7bd84aa4c","ios":"levelo://app?vid=87339f73-bbac-4512-8344-10e7bd84aa4c"},"vehicle_type_id":"4","last_reported":1779401371,"current_range_meters":4800,"station_id":"ce4bh392rcd13ifvqdl0","pricing_plan_id":"cebpf4jnsgd1na2vs0mg"},{"bike_id":"bb0a25dd-bbb8-4a95-85a4-a91a278a4fd8","system_id":"levelo_inurba_marseille","lat":43.28348,"lon":5.38102,"is_reserved":false,"is_disabled":false,"rental_uris":{"android":"levelo://app?vid=bb0a25dd-bbb8-4a95-85a4-a91a278a4fd8","ios":"levelo://app?vid=bb0a25dd-bbb8-4a95-85a4-a91a278a4fd8"},"vehicle_type_id":"4","last_reported":1779401371,"current_range_meters":4800,"station_id":"ce4bh412rcd13ifvqdr0","pricing_plan_id":"cebpf4jnsgd1na2vs0mg"},{"bike_id":"ba500815-2af2-4949-a01a-ce2c02f73453","system_id":"levelo_inurba_marseille","lat":43.26923,"lon":5.38931,"is_reserved":false,"is_disabled":false,"rental_uris":{"android":"levelo://app?vid=ba500815-2af2-4949-a01a-ce2c02f73453","ios":"levelo://app?vid=ba500815-2af2-4949-a01a-ce2c02f73453"},"vehicle_type_id":"4","last_reported":1779401371,"current_range_meters":4800,"station_id":"ce4bhhh2rcd13ifvqfl0","pricing_plan_id":"cebpf4jnsgd1na2vs0mg"},{"bike_id":"f355d3ee-806b-4ad4-a01c-79ec2c42ef4a","system_id":"levelo_inurba_marseille","lat":43.31058,"lon":5.37173,"is_reserved":false,"is_disabled":false,"rental_uris":{"android":"levelo://app?vid=f355d3ee-806b-4ad4-a01c-79ec2c42ef4a","ios":"levelo://app?vid=f355d3ee-806b-4ad4-a01c-79ec2c42ef4a"},"vehicle_type_id":"4","last_reported":1779401371,"current_range_meters":4800,"station_id":"st_d4kl2rp97mjs73e7tdfg","pricing_plan_id":"cebpf4jnsgd1na2vs0mg"},{"bike_id":"cb07d697-a347-4c99-9a4f-5019252e5bb8","system_id":"levelo_inurba_marseille","lat":43.2319,"lon":5.39985,"is_reserved":false,"is_disabled":true,"rental_uris":{"android":"levelo://app?vid=cb07d697-a347-4c99-9a4f-5019252e5bb8","ios":"levelo://app?vid=cb07d697-a347-4c99-9a4f-5019252e5bb8"},"vehicle_type_id":"4","last_reported":1779401371,"current_range_meters":4800,"station_id":"ce4bhn12rcd13ifvqgqg","pricing_plan_id":"cebpf4jnsgd1na2vs0mg"},{"bike_id":"2417956b-f325-4b75-806c-e42e7b7f598c","system_id":"levelo_inurba_marseille","lat":43.24938,"lon":5.41723,"is_reserved":false,"is_disabled":false,"rental_uris":{"android":"levelo://app?vid=2417956b-f325-4b75-806c-e42e7b7f598c","ios":"levelo://app?vid=2417956b-f325-4b75-806c-e42e7b7f598c"},"vehicle_type_id":"4","last_reported":1779401371,"current_range_meters":4800,"station_id":"","pricing_plan_id":"cebpf4jnsgd1na2vs0mg"},{"bike_id":"f63221a6-0516-4efb-9f91-f7af95eafadd","system_id":"levelo_inurba_marseille","lat":43.28615,"lon":5.35088,"is_reserved":false,"is_disabled":true,"rental_uris":{"android":"levelo://app?vid=f63221a6-0516-4efb-9f91-f7af95eafadd","ios":"levelo://app?vid=f63221a6-0516-4efb-9f91-f7af95eafadd"},"vehicle_type_id":"4","last_reported":1779401371,"current_range_meters":5600,"station_id":"","pricing_plan_id":"cebpf4jnsgd1na2vs0mg"},{"bike_id":"616259e1-99b9-477f-9be8-a931d2e539ff","system_id":"levelo_inurba_marseille","lat":43.231941,"lon":5.355529,"is_reserved":false,"is_disabled":false,"rental_uris":{"android":"levelo://app?vid=616259e1-99b9-477f-9be8-a931d2e539ff","ios":"levelo://app?vid=616259e1-99b9-477f-9be8-a931d2e539ff"},"vehicle_type_id":"4","last_reported":1779401371,"current_range_meters":5600,"station_id":"ce4bgi92rcd13ifvqb90","pricing_plan_id":"cebpf4jnsgd1na2vs0mg"},{"bike_id":"5195998f-29c0-451a-9b35-063ca4547e00","system_id":"levelo_inurba_marseille","lat":43.24172,"lon":5.36391,"is_reserved":false,"is_disabled":false,"rental_uris":{"android":"levelo://app?vid=5195998f-29c0-451a-9b35-063ca4547e00","ios":"levelo://app?vid=5195998f-29c0-451a-9b35-063ca4547e00"},"vehicle_type_id":"4","last_reported":1779401371,"current_range_meters":5600,"station_id":"cpo36qri1sfpv3e86is0","pricing_plan_id":"cebpf4jnsgd1na2vs0mg"},{"bike_id":"6c4f351b-8a28-4b32-8388-c536f4d4c962","system_id":"levelo_inurba_marseille","lat":43.28694,"lon":5.37381,"is_reserved":false,"is_disabled":false,"rental_uris":{"android":"levelo://app?vid=6c4f351b-8a28-4b32-8388-c536f4d4c962","ios":"levelo://app?vid=6c4f351b-8a28-4b32-8388-c536f4d4c962"},"vehicle_type_id":"4","last_reported":1779401371,"current_range_meters":5600,"station_id":"ce4bh3p2rcd13ifvqdq0","pricing_plan_id":"cebpf4jnsgd1na2vs0mg"},{"bike_id":"e7d55ff2-76c8-4b77-819b-53f9e3aa018a","system_id":"levelo_inurba_marseille","lat":43.2319,"lon":5.35539,"is_reserved":false,"is_disabled":false,"rental_uris":{"android":"levelo://app?vid=e7d55ff2-76c8-4b77-819b-53f9e3aa018a","ios":"levelo://app?vid=e7d55ff2-76c8-4b77-819b-53f9e3aa018a"},"vehicle_type_id":"4","last_reported":1779401371,"current_range_meters":5600,"station_id":"ce4bhu92rcd13ifvqi70","pricing_plan_id":"cebpf4jnsgd1na2vs0mg"},{"bike_id":"72c448e1-1b04-4276-9c93-0bc997384711","system_id":"levelo_inurba_marseille","lat":43.2553,"lon":5.37639,"is_reserved":false,"is_disabled":false,"rental_uris":{"android":"levelo://app?vid=72c448e1-1b04-4276-9c93-0bc997384711","ios":"levelo://app?vid=72c448e1-1b04-4276-9c93-0bc997384711"},"vehicle_type_id":"4","last_reported":1779401371,"current_range_meters":5600,"station_id":"ce4bhh12rcd13ifvqff0","pricing_plan_id":"cebpf4jnsgd1na2vs0mg"},{"bike_id":"581ee874-046c-44c0-a971-57097c81dc28","system_id":"levelo_inurba_marseille","lat":43.31715,"lon":5.42406,"is_reserved":false,"is_disabled":false,"rental_uris":{"android":"levelo://app?vid=581ee874-046c-44c0-a971-57097c81dc28","ios":"levelo://app?vid=581ee874-046c-44c0-a971-57097c81dc28"},"vehicle_type_id":"4","last_reported":1779401371,"current_range_meters":5600,"station_id":"ce4bhp92rcd13ifvqhbg","pricing_plan_id":"cebpf4jnsgd1na2vs0mg"},{"bike_id":"4b5b8890-9e3e-472b-8aec-7e766806da2f","system_id":"levelo_inurba_marseille","lat":43.29529,"lon":5.38532,"is_reserved":false,"is_disabled":false,"rental_uris":{"android":"levelo://app?vid=4b5b8890-9e3e-472b-8aec-7e766806da2f","ios":"levelo://app?vid=4b5b8890-9e3e-472b-8aec-7e766806da2f"},"vehicle_type_id":"4","last_reported":1779401371,"current_range_meters":5600,"station_id":"ce4bgih2rcd13ifvqba0","pricing_plan_id":"cebpf4jnsgd1na2vs0mg"},{"bike_id":"8157d7f0-4ca8-4b62-ad2b-8c365be299bf","system_id":"levelo_inurba_marseille","lat":43.29053,"lon":5.35895,"is_reserved":false,"is_disabled":true,"rental_uris":{"android":"levelo://app?vid=8157d7f0-4ca8-4b62-ad2b-8c365be299bf","ios":"levelo://app?vid=8157d7f0-4ca8-4b62-ad2b-8c365be299bf"},"vehicle_type_id":"4","last_reported":1779401371,"current_range_meters":5600,"station_id":"ce4bha92rcd13ifvqeg0","pricing_plan_id":"cebpf4jnsgd1na2vs0mg"},{"bike_id":"2f5164af-975a-4fc4-879a-eaff4c6a2f38","system_id":"levelo_inurba_marseille","lat":43.29532,"lon":5.3854,"is_reserved":false,"is_disabled":false,"rental_uris":{"android":"levelo://app?vid=2f5164af-975a-4fc4-879a-eaff4c6a2f38","ios":"levelo://app?vid=2f5164af-975a-4fc4-879a-eaff4c6a2f38"},"vehicle_type_id":"4","last_reported":1779401371,"current_range_meters":5600,"station_id":"ce4bgih2rcd13ifvqba0","pricing_plan_id":"cebpf4jnsgd1na2vs0mg"},{"bike_id":"9c4521f1-b414-4b4a-8769-c16b8f3c97e7","system_id":"levelo_inurba_marseille","lat":43.25329,"lon":5.42165,"is_reserved":false,"is_disabled":false,"rental_uris":{"android":"levelo://app?vid=9c4521f1-b414-4b4a-8769-c16b8f3c97e7","ios":"levelo://app?vid=9c4521f1-b414-4b4a-8769-c16b8f3c97e7"},"vehicle_type_id":"4","last_reported":1779401371,"current_range_meters":5600,"station_id":"st_d2m65c5bi1j21697t3ng","pricing_plan_id":"cebpf4jnsgd1na2vs0mg"},{"bike_id":"faab6192-d11e-421f-97c7-c19528d8cbf8","system_id":"levelo_inurba_marseille","lat":43.29028,"lon":5.38629,"is_reserved":false,"is_disabled":false,"rental_uris":{"android":"levelo://app?vid=faab6192-d11e-421f-97c7-c19528d8cbf8","ios":"levelo://app?vid=faab6192-d11e-421f-97c7-c19528d8cbf8"},"vehicle_type_id":"4","last_reported":1779401371,"current_range_meters":5600,"station_id":"ce4bh4p2rcd13ifvqe0g","pricing_plan_id":"cebpf4jnsgd1na2vs0mg"},{"bike_id":"1ec001e2-985a-4fe7-becf-bf0c5576d192","system_id":"levelo_inurba_marseille","lat":43.30905,"lon":5.3964,"is_reserved":false,"is_disabled":false,"rental_uris":{"android":"levelo://app?vid=1ec001e2-985a-4fe7-becf-bf0c5576d192","ios":"levelo://app?vid=1ec001e2-985a-4fe7-becf-bf0c5576d192"},"vehicle_type_id":"4","last_reported":1779401371,"current_range_meters":5600,"station_id":"ce4bh012rcd13ifvqcv0","pricing_plan_id":"cebpf4jnsgd1na2vs0mg"},{"bike_id":"d55447ac-707e-4c54-b02b-54c43ff3e8eb","system_id":"levelo_inurba_marseille","lat":43.24549,"lon":5.39517,"is_reserved":false,"is_disabled":false,"rental_uris":{"android":"levelo://app?vid=d55447ac-707e-4c54-b02b-54c43ff3e8eb","ios":"levelo://app?vid=d55447ac-707e-4c54-b02b-54c43ff3e8eb"},"vehicle_type_id":"4","last_reported":1779401371,"current_range_meters":5600,"station_id":"ce4bhlp2rcd13ifvqgjg","pricing_plan_id":"cebpf4jnsgd1na2vs0mg"},{"bike_id":"e3dcb411-365e-49a0-b763-f3e5597cff89","system_id":"levelo_inurba_marseille","lat":43.29882,"lon":5.38907,"is_reserved":false,"is_disabled":false,"rental_uris":{"android":"levelo://app?vid=e3dcb411-365e-49a0-b763-f3e5597cff89","ios":"levelo://app?vid=e3dcb411-365e-49a0-b763-f3e5597cff89"},"vehicle_type_id":"4","last_reported":1779401371,"current_range_meters":5600,"station_id":"ce4bh392rcd13ifvqdl0","pricing_plan_id":"cebpf4jnsgd1na2vs0mg"},{"bike_id":"11bafefd-e82d-4ce1-b53f-0fb7c8b5cacf","system_id":"levelo_inurba_marseille","lat":43.2717,"lon":5.40989,"is_reserved":false,"is_disabled":false,"rental_uris":{"android":"levelo://app?vid=11bafefd-e82d-4ce1-b53f-0fb7c8b5cacf","ios":"levelo://app?vid=11bafefd-e82d-4ce1-b53f-0fb7c8b5cacf"},"vehicle_type_id":"4","last_reported":1779401371,"current_range_meters":5600,"station_id":"ce4bhl12rcd13ifvqgf0","pricing_plan_id":"cebpf4jnsgd1na2vs0mg"},{"bike_id":"e32793be-64fc-49de-b726-d7c3c4a0e683","system_id":"levelo_inurba_marseille","lat":43.2953,"lon":5.38536,"is_reserved":false,"is_disabled":false,"rental_uris":{"android":"levelo://app?vid=e32793be-64fc-49de-b726-d7c3c4a0e683","ios":"levelo://app?vid=e32793be-64fc-49de-b726-d7c3c4a0e683"},"vehicle_type_id":"4","last_reported":1779401371,"current_range_meters":5600,"station_id":"ce4bgih2rcd13ifvqba0","pricing_plan_id":"cebpf4jnsgd1na2vs0mg"},{"bike_id":"54414197-7a79-46ce-891d-758db7720b8c","system_id":"levelo_inurba_marseille","lat":43.27284,"lon":5.39159,"is_reserved":false,"is_disabled":true,"rental_uris":{"android":"levelo://app?vid=54414197-7a79-46ce-891d-758db7720b8c","ios":"levelo://app?vid=54414197-7a79-46ce-891d-758db7720b8c"},"vehicle_type_id":"4","last_reported":1779401371,"current_range_meters":5600,"station_id":"","pricing_plan_id":"cebpf4jnsgd1na2vs0mg"},{"bike_id":"1704a5c4-e376-4f7a-aa75-4926dbb232a9","system_id":"levelo_inurba_marseille","lat":43.29867,"lon":5.39741,"is_reserved":false,"is_disabled":false,"rental_uris":{"android":"levelo://app?vid=1704a5c4-e376-4f7a-aa75-4926dbb232a9","ios":"levelo://app?vid=1704a5c4-e376-4f7a-aa75-4926dbb232a9"},"vehicle_type_id":"4","last_reported":1779401371,"current_range_meters":5600,"station_id":"ce4bh0h2rcd13ifvqd50","pricing_plan_id":"cebpf4jnsgd1na2vs0mg"},{"bike_id":"70bd1697-29a9-464f-a79a-74a540437e6e","system_id":"levelo_inurba_marseille","lat":43.33754,"lon":5.37469,"is_reserved":false,"is_disabled":false,"rental_uris":{"android":"levelo://app?vid=70bd1697-29a9-464f-a79a-74a540437e6e","ios":"levelo://app?vid=70bd1697-29a9-464f-a79a-74a540437e6e"},"vehicle_type_id":"4","last_reported":1779401371,"current_range_meters":6000,"station_id":"","pricing_plan_id":"cebpf4jnsgd1na2vs0mg"},{"bike_id":"7cdc1b87-7255-42f6-b49d-9a6bbf79280f","system_id":"levelo_inurba_marseille","lat":43.29873,"lon":5.39715,"is_reserved":false,"is_disabled":false,"rental_uris":{"android":"levelo://app?vid=7cdc1b87-7255-42f6-b49d-9a6bbf79280f","ios":"levelo://app?vid=7cdc1b87-7255-42f6-b49d-9a6bbf79280f"},"vehicle_type_id":"4","last_reported":1779401371,"current_range_meters":6000,"station_id":"ce4bh0h2rcd13ifvqd50","pricing_plan_id":"cebpf4jnsgd1na2vs0mg"},{"bike_id":"0deb2d9d-cc56-402d-a6be-c62bebfbd360","system_id":"levelo_inurba_marseille","lat":43.31349,"lon":5.38488,"is_reserved":false,"is_disabled":false,"rental_uris":{"android":"levelo://app?vid=0deb2d9d-cc56-402d-a6be-c62bebfbd360","ios":"levelo://app?vid=0deb2d9d-cc56-402d-a6be-c62bebfbd360"},"vehicle_type_id":"4","last_reported":1779401371,"current_range_meters":6000,"station_id":"ce4bgt92rcd13ifvqcf0","pricing_plan_id":"cebpf4jnsgd1na2vs0mg"},{"bike_id":"753aa280-747b-4a56-8204-f688799dc487","system_id":"levelo_inurba_marseille","lat":43.31082,"lon":5.42412,"is_reserved":false,"is_disabled":false,"rental_uris":{"android":"levelo://app?vid=753aa280-747b-4a56-8204-f688799dc487","ios":"levelo://app?vid=753aa280-747b-4a56-8204-f688799dc487"},"vehicle_type_id":"4","last_reported":1779401371,"current_range_meters":6000,"station_id":"ce4bhp92rcd13ifvqhag","pricing_plan_id":"cebpf4jnsgd1na2vs0mg"},{"bike_id":"fcfa6669-e9a2-44fe-a665-353fcc9ddd96","system_id":"levelo_inurba_marseille","lat":43.27565,"lon":5.38408,"is_reserved":false,"is_disabled":false,"rental_uris":{"android":"levelo://app?vid=fcfa6669-e9a2-44fe-a665-353fcc9ddd96","ios":"levelo://app?vid=fcfa6669-e9a2-44fe-a665-353fcc9ddd96"},"vehicle_type_id":"4","last_reported":1779401371,"current_range_meters":6000,"station_id":"ce4bhh92rcd13ifvqfi0","pricing_plan_id":"cebpf4jnsgd1na2vs0mg"},{"bike_id":"12481d7b-ca53-44d2-a72d-3641cbe06950","system_id":"levelo_inurba_marseille","lat":43.2992,"lon":5.41035,"is_reserved":false,"is_disabled":false,"rental_uris":{"android":"levelo://app?vid=12481d7b-ca53-44d2-a72d-3641cbe06950","ios":"levelo://app?vid=12481d7b-ca53-44d2-a72d-3641cbe06950"},"vehicle_type_id":"4","last_reported":1779401371,"current_range_meters":6000,"station_id":"","pricing_plan_id":"cebpf4jnsgd1na2vs0mg"},{"bike_id":"883418ce-d76e-41a9-9917-d0c7df1d2039","system_id":"levelo_inurba_marseille","lat":43.29534,"lon":5.38518,"is_reserved":false,"is_disabled":false,"rental_uris":{"android":"levelo://app?vid=883418ce-d76e-41a9-9917-d0c7df1d2039","ios":"levelo://app?vid=883418ce-d76e-41a9-9917-d0c7df1d2039"},"vehicle_type_id":"4","last_reported":1779401371,"current_range_meters":6000,"station_id":"ce4bgih2rcd13ifvqba0","pricing_plan_id":"cebpf4jnsgd1na2vs0mg"},{"bike_id":"cc22614d-f40d-4a25-931e-b50056b89035","system_id":"levelo_inurba_marseille","lat":43.29172,"lon":5.37153,"is_reserved":false,"is_disabled":false,"rental_uris":{"android":"levelo://app?vid=cc22614d-f40d-4a25-931e-b50056b89035","ios":"levelo://app?vid=cc22614d-f40d-4a25-931e-b50056b89035"},"vehicle_type_id":"4","last_reported":1779401371,"current_range_meters":6000,"station_id":"ce4bha92rcd13ifvqeh0","pricing_plan_id":"cebpf4jnsgd1na2vs0mg"},{"bike_id":"cb8fb2ed-c179-4c07-b6b8-57ffb06a659b","system_id":"levelo_inurba_marseille","lat":43.22535,"lon":5.34841,"is_reserved":false,"is_disabled":true,"rental_uris":{"android":"levelo://app?vid=cb8fb2ed-c179-4c07-b6b8-57ffb06a659b","ios":"levelo://app?vid=cb8fb2ed-c179-4c07-b6b8-57ffb06a659b"},"vehicle_type_id":"4","last_reported":1779401371,"current_range_meters":6000,"station_id":"st_cvj5dfep6f1abm77gieg","pricing_plan_id":"cebpf4jnsgd1na2vs0mg"},{"bike_id":"563a9e6e-82b8-4746-8869-adefbfd7a71e","system_id":"levelo_inurba_marseille","lat":43.30455,"lon":5.38182,"is_reserved":false,"is_disabled":false,"rental_uris":{"android":"levelo://app?vid=563a9e6e-82b8-4746-8869-adefbfd7a71e","ios":"levelo://app?vid=563a9e6e-82b8-4746-8869-adefbfd7a71e"},"vehicle_type_id":"4","last_reported":1779401371,"current_range_meters":6000,"station_id":"","pricing_plan_id":"cebpf4jnsgd1na2vs0mg"},{"bike_id":"8aca6ff6-38ea-4229-b7e3-968e9c3e7159","system_id":"levelo_inurba_marseille","lat":43.29027,"lon":5.38628,"is_reserved":false,"is_disabled":false,"rental_uris":{"android":"levelo://app?vid=8aca6ff6-38ea-4229-b7e3-968e9c3e7159","ios":"levelo://app?vid=8aca6ff6-38ea-4229-b7e3-968e9c3e7159"},"vehicle_type_id":"4","last_reported":1779401371,"current_range_meters":6000,"station_id":"ce4bh4p2rcd13ifvqe0g","pricing_plan_id":"cebpf4jnsgd1na2vs0mg"},{"bike_id":"9d49c1bc-01ea-434b-a77a-d932b06737fe","system_id":"levelo_inurba_marseille","lat":43.29195,"lon":5.39313,"is_reserved":false,"is_disabled":false,"rental_uris":{"android":"levelo://app?vid=9d49c1bc-01ea-434b-a77a-d932b06737fe","ios":"levelo://app?vid=9d49c1bc-01ea-434b-a77a-d932b06737fe"},"vehicle_type_id":"4","last_reported":1779401371,"current_range_meters":6000,"station_id":"ce4bh192rcd13ifvqdd0","pricing_plan_id":"cebpf4jnsgd1na2vs0mg"},{"bike_id":"e27feea1-9bc4-4f71-870f-9ba99b38e6d2","system_id":"levelo_inurba_marseille","lat":43.29154,"lon":5.37252,"is_reserved":false,"is_disabled":false,"rental_uris":{"android":"levelo://app?vid=e27feea1-9bc4-4f71-870f-9ba99b38e6d2","ios":"levelo://app?vid=e27feea1-9bc4-4f71-870f-9ba99b38e6d2"},"vehicle_type_id":"4","last_reported":1779401371,"current_range_meters":6000,"station_id":"","pricing_plan_id":"cebpf4jnsgd1na2vs0mg"},{"bike_id":"a858947a-3c69-479c-9c9a-9d3d62cdff7b","system_id":"levelo_inurba_marseille","lat":43.29943,"lon":5.41365,"is_reserved":false,"is_disabled":false,"rental_uris":{"android":"levelo://app?vid=a858947a-3c69-479c-9c9a-9d3d62cdff7b","ios":"levelo://app?vid=a858947a-3c69-479c-9c9a-9d3d62cdff7b"},"vehicle_type_id":"4","last_reported":1779401371,"current_range_meters":6000,"station_id":"ce4bhp12rcd13ifvqh9g","pricing_plan_id":"cebpf4jnsgd1na2vs0mg"},{"bike_id":"bd6864bb-c074-4fe7-b863-12369d6725c5","system_id":"levelo_inurba_marseille","lat":43.31362,"lon":5.38487,"is_reserved":false,"is_disabled":false,"rental_uris":{"android":"levelo://app?vid=bd6864bb-c074-4fe7-b863-12369d6725c5","ios":"levelo://app?vid=bd6864bb-c074-4fe7-b863-12369d6725c5"},"vehicle_type_id":"4","last_reported":1779401371,"current_range_meters":6000,"station_id":"ce4bgt92rcd13ifvqcf0","pricing_plan_id":"cebpf4jnsgd1na2vs0mg"},{"bike_id":"4c0287f1-4132-4173-b075-669c6473edff","system_id":"levelo_inurba_marseille","lat":43.29865,"lon":5.39702,"is_reserved":false,"is_disabled":false,"rental_uris":{"android":"levelo://app?vid=4c0287f1-4132-4173-b075-669c6473edff","ios":"levelo://app?vid=4c0287f1-4132-4173-b075-669c6473edff"},"vehicle_type_id":"4","last_reported":1779401371,"current_range_meters":6400,"station_id":"ce4bh0h2rcd13ifvqd50","pricing_plan_id":"cebpf4jnsgd1na2vs0mg"},{"bike_id":"1f23276f-640a-45b0-96ab-5c9b5282ccf4","system_id":"levelo_inurba_marseille","lat":43.31258,"lon":5.3893,"is_reserved":false,"is_disabled":false,"rental_uris":{"android":"levelo://app?vid=1f23276f-640a-45b0-96ab-5c9b5282ccf4","ios":"levelo://app?vid=1f23276f-640a-45b0-96ab-5c9b5282ccf4"},"vehicle_type_id":"4","last_reported":1779401371,"current_range_meters":6400,"station_id":"","pricing_plan_id":"cebpf4jnsgd1na2vs0mg"},{"bike_id":"f28d95d7-2c3e-41a0-b537-9f59ebf5c414","system_id":"levelo_inurba_marseille","lat":43.28111,"lon":5.37812,"is_reserved":false,"is_disabled":false,"rental_uris":{"android":"levelo://app?vid=f28d95d7-2c3e-41a0-b537-9f59ebf5c414","ios":"levelo://app?vid=f28d95d7-2c3e-41a0-b537-9f59ebf5c414"},"vehicle_type_id":"4","last_reported":1779401371,"current_range_meters":6400,"station_id":"ce4bha12rcd13ifvqee0","pricing_plan_id":"cebpf4jnsgd1na2vs0mg"},{"bike_id":"edc5d307-d9f4-4676-ab63-60a5411fa129","system_id":"levelo_inurba_marseille","lat":43.302585,"lon":5.40084,"is_reserved":false,"is_disabled":false,"rental_uris":{"android":"levelo://app?vid=edc5d307-d9f4-4676-ab63-60a5411fa129","ios":"levelo://app?vid=edc5d307-d9f4-4676-ab63-60a5411fa129"},"vehicle_type_id":"4","last_reported":1779401371,"current_range_meters":6400,"station_id":"ce4bgvh2rcd13ifvqcs0","pricing_plan_id":"cebpf4jnsgd1na2vs0mg"},{"bike_id":"e14fb0cf-3772-4bb9-bb6b-26a57489a02b","system_id":"levelo_inurba_marseille","lat":43.27942,"lon":5.38741,"is_reserved":false,"is_disabled":false,"rental_uris":{"android":"levelo://app?vid=e14fb0cf-3772-4bb9-bb6b-26a57489a02b","ios":"levelo://app?vid=e14fb0cf-3772-4bb9-bb6b-26a57489a02b"},"vehicle_type_id":"4","last_reported":1779401371,"current_range_meters":6400,"station_id":"ce4bhg12rcd13ifvqf80","pricing_plan_id":"cebpf4jnsgd1na2vs0mg"},{"bike_id":"d7d48381-947d-4a72-828b-665922112042","system_id":"levelo_inurba_marseille","lat":43.2923,"lon":5.36828,"is_reserved":false,"is_disabled":true,"rental_uris":{"android":"levelo://app?vid=d7d48381-947d-4a72-828b-665922112042","ios":"levelo://app?vid=d7d48381-947d-4a72-828b-665922112042"},"vehicle_type_id":"4","last_reported":1779401371,"current_range_meters":6400,"station_id":"","pricing_plan_id":"cebpf4jnsgd1na2vs0mg"},{"bike_id":"2f07cee4-f00b-40cc-8d51-00b8a29e58c5","system_id":"levelo_inurba_marseille","lat":43.27185,"lon":5.40981,"is_reserved":false,"is_disabled":false,"rental_uris":{"android":"levelo://app?vid=2f07cee4-f00b-40cc-8d51-00b8a29e58c5","ios":"levelo://app?vid=2f07cee4-f00b-40cc-8d51-00b8a29e58c5"},"vehicle_type_id":"4","last_reported":1779401371,"current_range_meters":6400,"station_id":"ce4bhl12rcd13ifvqgf0","pricing_plan_id":"cebpf4jnsgd1na2vs0mg"},{"bike_id":"f30cc7e9-3f3a-4c4c-ac9e-f1d4151053f1","system_id":"levelo_inurba_marseille","lat":43.23194,"lon":5.3555,"is_reserved":false,"is_disabled":false,"rental_uris":{"android":"levelo://app?vid=f30cc7e9-3f3a-4c4c-ac9e-f1d4151053f1","ios":"levelo://app?vid=f30cc7e9-3f3a-4c4c-ac9e-f1d4151053f1"},"vehicle_type_id":"4","last_reported":1779401371,"current_range_meters":6400,"station_id":"ce4bhu92rcd13ifvqi70","pricing_plan_id":"cebpf4jnsgd1na2vs0mg"},{"bike_id":"eea7f27f-9e90-457d-8281-3f806a24765e","system_id":"levelo_inurba_marseille","lat":43.28229,"lon":5.39066,"is_reserved":false,"is_disabled":false,"rental_uris":{"android":"levelo://app?vid=eea7f27f-9e90-457d-8281-3f806a24765e","ios":"levelo://app?vid=eea7f27f-9e90-457d-8281-3f806a24765e"},"vehicle_type_id":"4","last_reported":1779401371,"current_range_meters":6400,"station_id":"ce4bhn92rcd13ifvqgsg","pricing_plan_id":"cebpf4jnsgd1na2vs0mg"},{"bike_id":"3164d9e8-c839-4029-b458-2d3d9b344e5f","system_id":"levelo_inurba_marseille","lat":43.275716,"lon":5.396434,"is_reserved":false,"is_disabled":false,"rental_uris":{"android":"levelo://app?vid=3164d9e8-c839-4029-b458-2d3d9b344e5f","ios":"levelo://app?vid=3164d9e8-c839-4029-b458-2d3d9b344e5f"},"vehicle_type_id":"4","last_reported":1779401371,"current_range_meters":6400,"station_id":"","pricing_plan_id":"cebpf4jnsgd1na2vs0mg"},{"bike_id":"d876f250-8123-419d-a895-9645003d3c01","system_id":"levelo_inurba_marseille","lat":43.27255,"lon":5.41638,"is_reserved":false,"is_disabled":false,"rental_uris":{"android":"levelo://app?vid=d876f250-8123-419d-a895-9645003d3c01","ios":"levelo://app?vid=d876f250-8123-419d-a895-9645003d3c01"},"vehicle_type_id":"4","last_reported":1779401371,"current_range_meters":6400,"station_id":"","pricing_plan_id":"cebpf4jnsgd1na2vs0mg"},{"bike_id":"b9886a38-37d7-4c62-a56d-ea966413b93c","system_id":"levelo_inurba_marseille","lat":43.32034,"lon":5.41559,"is_reserved":false,"is_disabled":false,"rental_uris":{"android":"levelo://app?vid=b9886a38-37d7-4c62-a56d-ea966413b93c","ios":"levelo://app?vid=b9886a38-37d7-4c62-a56d-ea966413b93c"},"vehicle_type_id":"4","last_reported":1779401371,"current_range_meters":6400,"station_id":"ce4bhq92rcd13ifvqhkg","pricing_plan_id":"cebpf4jnsgd1na2vs0mg"},{"bike_id":"bbe673ec-e5fc-44ca-acc8-3761b55bbafb","system_id":"levelo_inurba_marseille","lat":43.31767,"lon":5.3901,"is_reserved":false,"is_disabled":false,"rental_uris":{"android":"levelo://app?vid=bbe673ec-e5fc-44ca-acc8-3761b55bbafb","ios":"levelo://app?vid=bbe673ec-e5fc-44ca-acc8-3761b55bbafb"},"vehicle_type_id":"4","last_reported":1779401371,"current_range_meters":6400,"station_id":"ce4bhqp2rcd13ifvqhng","pricing_plan_id":"cebpf4jnsgd1na2vs0mg"},{"bike_id":"8c5974d2-5e79-461d-8181-7d4f70120306","system_id":"levelo_inurba_marseille","lat":43.30726,"lon":5.42442,"is_reserved":false,"is_disabled":false,"rental_uris":{"android":"levelo://app?vid=8c5974d2-5e79-461d-8181-7d4f70120306","ios":"levelo://app?vid=8c5974d2-5e79-461d-8181-7d4f70120306"},"vehicle_type_id":"4","last_reported":1779401371,"current_range_meters":6400,"station_id":"st_cvj6ca6bvosntc0bfgr0","pricing_plan_id":"cebpf4jnsgd1na2vs0mg"},{"bike_id":"4afb889b-ef47-4ea8-a7af-52dac9d57095","system_id":"levelo_inurba_marseille","lat":43.24791,"lon":5.37459,"is_reserved":false,"is_disabled":false,"rental_uris":{"android":"levelo://app?vid=4afb889b-ef47-4ea8-a7af-52dac9d57095","ios":"levelo://app?vid=4afb889b-ef47-4ea8-a7af-52dac9d57095"},"vehicle_type_id":"4","last_reported":1779401371,"current_range_meters":6400,"station_id":"ce4bhgh2rcd13ifvqfb0","pricing_plan_id":"cebpf4jnsgd1na2vs0mg"},{"bike_id":"ad6d8b73-6259-410d-979f-09e40ec16dc9","system_id":"levelo_inurba_marseille","lat":43.3082,"lon":5.37198,"is_reserved":false,"is_disabled":false,"rental_uris":{"android":"levelo://app?vid=ad6d8b73-6259-410d-979f-09e40ec16dc9","ios":"levelo://app?vid=ad6d8b73-6259-410d-979f-09e40ec16dc9"},"vehicle_type_id":"4","last_reported":1779401371,"current_range_meters":6800,"station_id":"","pricing_plan_id":"cebpf4jnsgd1na2vs0mg"},{"bike_id":"831fadaf-468d-41fc-8135-c6b3d694d376","system_id":"levelo_inurba_marseille","lat":43.29525,"lon":5.38529,"is_reserved":false,"is_disabled":false,"rental_uris":{"android":"levelo://app?vid=831fadaf-468d-41fc-8135-c6b3d694d376","ios":"levelo://app?vid=831fadaf-468d-41fc-8135-c6b3d694d376"},"vehicle_type_id":"4","last_reported":1779401371,"current_range_meters":6800,"station_id":"ce4bgih2rcd13ifvqba0","pricing_plan_id":"cebpf4jnsgd1na2vs0mg"},{"bike_id":"7cd911f2-d93f-4aa2-877e-1d430080e518","system_id":"levelo_inurba_marseille","lat":43.3089,"lon":5.39659,"is_reserved":false,"is_disabled":false,"rental_uris":{"android":"levelo://app?vid=7cd911f2-d93f-4aa2-877e-1d430080e518","ios":"levelo://app?vid=7cd911f2-d93f-4aa2-877e-1d430080e518"},"vehicle_type_id":"4","last_reported":1779401371,"current_range_meters":6800,"station_id":"ce4bh012rcd13ifvqcv0","pricing_plan_id":"cebpf4jnsgd1na2vs0mg"},{"bike_id":"96f5a2da-5f92-4d4c-8b8e-3f68a0c33fde","system_id":"levelo_inurba_marseille","lat":43.25522,"lon":5.3766,"is_reserved":false,"is_disabled":true,"rental_uris":{"android":"levelo://app?vid=96f5a2da-5f92-4d4c-8b8e-3f68a0c33fde","ios":"levelo://app?vid=96f5a2da-5f92-4d4c-8b8e-3f68a0c33fde"},"vehicle_type_id":"4","last_reported":1779401371,"current_range_meters":6800,"station_id":"ce4bhh12rcd13ifvqff0","pricing_plan_id":"cebpf4jnsgd1na2vs0mg"},{"bike_id":"d8bd3966-3e1f-4c3a-a86e-e243a027a70c","system_id":"levelo_inurba_marseille","lat":43.26372,"lon":5.41081,"is_reserved":false,"is_disabled":false,"rental_uris":{"android":"levelo://app?vid=d8bd3966-3e1f-4c3a-a86e-e243a027a70c","ios":"levelo://app?vid=d8bd3966-3e1f-4c3a-a86e-e243a027a70c"},"vehicle_type_id":"4","last_reported":1779401371,"current_range_meters":6800,"station_id":"st_d4e5ca6na9uc73bfl5fg","pricing_plan_id":"cebpf4jnsgd1na2vs0mg"},{"bike_id":"5f70e21c-7de6-4706-9055-de0c61005f3f","system_id":"levelo_inurba_marseille","lat":43.29534,"lon":5.38534,"is_reserved":false,"is_disabled":false,"rental_uris":{"android":"levelo://app?vid=5f70e21c-7de6-4706-9055-de0c61005f3f","ios":"levelo://app?vid=5f70e21c-7de6-4706-9055-de0c61005f3f"},"vehicle_type_id":"4","last_reported":1779401371,"current_range_meters":6800,"station_id":"ce4bgih2rcd13ifvqba0","pricing_plan_id":"cebpf4jnsgd1na2vs0mg"},{"bike_id":"386d907f-e762-4115-9ca8-9a1d94a73cd4","system_id":"levelo_inurba_marseille","lat":43.27861,"lon":5.39242,"is_reserved":false,"is_disabled":false,"rental_uris":{"android":"levelo://app?vid=386d907f-e762-4115-9ca8-9a1d94a73cd4","ios":"levelo://app?vid=386d907f-e762-4115-9ca8-9a1d94a73cd4"},"vehicle_type_id":"4","last_reported":1779401371,"current_range_meters":6800,"station_id":"ce4bhjp2rcd13ifvqga0","pricing_plan_id":"cebpf4jnsgd1na2vs0mg"},{"bike_id":"7ec93175-8d9c-4b31-b534-34e06405c4e0","system_id":"levelo_inurba_marseille","lat":43.29614,"lon":5.44701,"is_reserved":false,"is_disabled":false,"rental_uris":{"android":"levelo://app?vid=7ec93175-8d9c-4b31-b534-34e06405c4e0","ios":"levelo://app?vid=7ec93175-8d9c-4b31-b534-34e06405c4e0"},"vehicle_type_id":"4","last_reported":1779401371,"current_range_meters":6800,"station_id":"","pricing_plan_id":"cebpf4jnsgd1na2vs0mg"},{"bike_id":"b54a0860-ff04-4417-9804-a7525879c950","system_id":"levelo_inurba_marseille","lat":43.29496,"lon":5.37516,"is_reserved":false,"is_disabled":false,"rental_uris":{"android":"levelo://app?vid=b54a0860-ff04-4417-9804-a7525879c950","ios":"levelo://app?vid=b54a0860-ff04-4417-9804-a7525879c950"},"vehicle_type_id":"4","last_reported":1779401371,"current_range_meters":6800,"station_id":"ce4bgkp2rcd13ifvqbmg","pricing_plan_id":"cebpf4jnsgd1na2vs0mg"},{"bike_id":"8d29bbeb-2e7c-4b1d-b9b0-7b1803685f4f","system_id":"levelo_inurba_marseille","lat":43.26492,"lon":5.39524,"is_reserved":false,"is_disabled":false,"rental_uris":{"android":"levelo://app?vid=8d29bbeb-2e7c-4b1d-b9b0-7b1803685f4f","ios":"levelo://app?vid=8d29bbeb-2e7c-4b1d-b9b0-7b1803685f4f"},"vehicle_type_id":"4","last_reported":1779401371,"current_range_meters":6800,"station_id":"ce4bhi12rcd13ifvqfq0","pricing_plan_id":"cebpf4jnsgd1na2vs0mg"},{"bike_id":"8ae01fbd-13ec-4abe-9b2c-1050445b111f","system_id":"levelo_inurba_marseille","lat":43.22535,"lon":5.34831,"is_reserved":false,"is_disabled":false,"rental_uris":{"android":"levelo://app?vid=8ae01fbd-13ec-4abe-9b2c-1050445b111f","ios":"levelo://app?vid=8ae01fbd-13ec-4abe-9b2c-1050445b111f"},"vehicle_type_id":"4","last_reported":1779401371,"current_range_meters":6800,"station_id":"st_cvj5dfep6f1abm77gieg","pricing_plan_id":"cebpf4jnsgd1na2vs0mg"},{"bike_id":"d4ddfd06-aa54-4e84-8399-9a2c03d7797e","system_id":"levelo_inurba_marseille","lat":43.29932,"lon":5.36495,"is_reserved":false,"is_disabled":false,"rental_uris":{"android":"levelo://app?vid=d4ddfd06-aa54-4e84-8399-9a2c03d7797e","ios":"levelo://app?vid=d4ddfd06-aa54-4e84-8399-9a2c03d7797e"},"vehicle_type_id":"4","last_reported":1779401371,"current_range_meters":6800,"station_id":"ce4bgm92rcd13ifvqbr0","pricing_plan_id":"cebpf4jnsgd1na2vs0mg"},{"bike_id":"72e0526d-605e-4d69-8c0b-6081a2aedb75","system_id":"levelo_inurba_marseille","lat":43.30318,"lon":5.40422,"is_reserved":false,"is_disabled":false,"rental_uris":{"android":"levelo://app?vid=72e0526d-605e-4d69-8c0b-6081a2aedb75","ios":"levelo://app?vid=72e0526d-605e-4d69-8c0b-6081a2aedb75"},"vehicle_type_id":"4","last_reported":1779401371,"current_range_meters":6800,"station_id":"ce4bh012rcd13ifvqd10","pricing_plan_id":"cebpf4jnsgd1na2vs0mg"},{"bike_id":"a7dcb7e6-59b7-4ada-a9a0-eb00b3467d13","system_id":"levelo_inurba_marseille","lat":43.2466,"lon":5.38892,"is_reserved":false,"is_disabled":true,"rental_uris":{"android":"levelo://app?vid=a7dcb7e6-59b7-4ada-a9a0-eb00b3467d13","ios":"levelo://app?vid=a7dcb7e6-59b7-4ada-a9a0-eb00b3467d13"},"vehicle_type_id":"4","last_reported":1779401371,"current_range_meters":6800,"station_id":"ce4bhg12rcd13ifvqf60","pricing_plan_id":"cebpf4jnsgd1na2vs0mg"},{"bike_id":"e93a01e1-b858-4ef5-89fa-d5a67d0d3ba8","system_id":"levelo_inurba_marseille","lat":43.23189,"lon":5.39986,"is_reserved":false,"is_disabled":false,"rental_uris":{"android":"levelo://app?vid=e93a01e1-b858-4ef5-89fa-d5a67d0d3ba8","ios":"levelo://app?vid=e93a01e1-b858-4ef5-89fa-d5a67d0d3ba8"},"vehicle_type_id":"4","last_reported":1779401371,"current_range_meters":6800,"station_id":"ce4bhn12rcd13ifvqgqg","pricing_plan_id":"cebpf4jnsgd1na2vs0mg"},{"bike_id":"ca8af31e-8d50-4f33-8e15-d314ae8059b7","system_id":"levelo_inurba_marseille","lat":43.25716,"lon":5.41107,"is_reserved":false,"is_disabled":false,"rental_uris":{"android":"levelo://app?vid=ca8af31e-8d50-4f33-8e15-d314ae8059b7","ios":"levelo://app?vid=ca8af31e-8d50-4f33-8e15-d314ae8059b7"},"vehicle_type_id":"4","last_reported":1779401371,"current_range_meters":6800,"station_id":"ce4bhkp2rcd13ifvqgd0","pricing_plan_id":"cebpf4jnsgd1na2vs0mg"},{"bike_id":"0073b877-2b41-4abd-9b30-b1e9234219f3","system_id":"levelo_inurba_marseille","lat":43.31908,"lon":5.36814,"is_reserved":false,"is_disabled":false,"rental_uris":{"android":"levelo://app?vid=0073b877-2b41-4abd-9b30-b1e9234219f3","ios":"levelo://app?vid=0073b877-2b41-4abd-9b30-b1e9234219f3"},"vehicle_type_id":"4","last_reported":1779401371,"current_range_meters":6800,"station_id":"st_d6o2h0d0559c73evc1b0","pricing_plan_id":"cebpf4jnsgd1na2vs0mg"},{"bike_id":"7c4b6d95-abda-43cd-9ff7-74397623ce48","system_id":"levelo_inurba_marseille","lat":43.29272,"lon":5.38431,"is_reserved":false,"is_disabled":false,"rental_uris":{"android":"levelo://app?vid=7c4b6d95-abda-43cd-9ff7-74397623ce48","ios":"levelo://app?vid=7c4b6d95-abda-43cd-9ff7-74397623ce48"},"vehicle_type_id":"4","last_reported":1779401371,"current_range_meters":6800,"station_id":"ce4bh692rcd13ifvqea0","pricing_plan_id":"cebpf4jnsgd1na2vs0mg"},{"bike_id":"3a1d42e9-5637-4e1d-a3a8-2914b8a6d228","system_id":"levelo_inurba_marseille","lat":43.305282,"lon":5.373354,"is_reserved":false,"is_disabled":false,"rental_uris":{"android":"levelo://app?vid=3a1d42e9-5637-4e1d-a3a8-2914b8a6d228","ios":"levelo://app?vid=3a1d42e9-5637-4e1d-a3a8-2914b8a6d228"},"vehicle_type_id":"4","last_reported":1779401371,"current_range_meters":6800,"station_id":"ce4bgqh2rcd13ifvqc4g","pricing_plan_id":"cebpf4jnsgd1na2vs0mg"},{"bike_id":"94351ec3-385c-4317-ab9a-0db74a95813d","system_id":"levelo_inurba_marseille","lat":43.2742,"lon":5.39422,"is_reserved":false,"is_disabled":false,"rental_uris":{"android":"levelo://app?vid=94351ec3-385c-4317-ab9a-0db74a95813d","ios":"levelo://app?vid=94351ec3-385c-4317-ab9a-0db74a95813d"},"vehicle_type_id":"4","last_reported":1779401371,"current_range_meters":6800,"station_id":"ce4bhdp2rcd13ifvqf20","pricing_plan_id":"cebpf4jnsgd1na2vs0mg"},{"bike_id":"3b3648bc-114e-4573-b5a4-e0750016f792","system_id":"levelo_inurba_marseille","lat":43.23824,"lon":5.41326,"is_reserved":false,"is_disabled":false,"rental_uris":{"android":"levelo://app?vid=3b3648bc-114e-4573-b5a4-e0750016f792","ios":"levelo://app?vid=3b3648bc-114e-4573-b5a4-e0750016f792"},"vehicle_type_id":"4","last_reported":1779401371,"current_range_meters":6800,"station_id":"","pricing_plan_id":"cebpf4jnsgd1na2vs0mg"},{"bike_id":"6774f205-2ee3-4625-997b-63c588f833ce","system_id":"levelo_inurba_marseille","lat":43.26028,"lon":5.37566,"is_reserved":false,"is_disabled":true,"rental_uris":{"android":"levelo://app?vid=6774f205-2ee3-4625-997b-63c588f833ce","ios":"levelo://app?vid=6774f205-2ee3-4625-997b-63c588f833ce"},"vehicle_type_id":"4","last_reported":1779401371,"current_range_meters":6800,"station_id":"ce4bhgh2rcd13ifvqfa0","pricing_plan_id":"cebpf4jnsgd1na2vs0mg"},{"bike_id":"40513e35-6e29-4edf-9cf2-fb698f86d430","system_id":"levelo_inurba_marseille","lat":43.24556,"lon":5.39507,"is_reserved":false,"is_disabled":false,"rental_uris":{"android":"levelo://app?vid=40513e35-6e29-4edf-9cf2-fb698f86d430","ios":"levelo://app?vid=40513e35-6e29-4edf-9cf2-fb698f86d430"},"vehicle_type_id":"4","last_reported":1779401371,"current_range_meters":6800,"station_id":"ce4bhlp2rcd13ifvqgjg","pricing_plan_id":"cebpf4jnsgd1na2vs0mg"},{"bike_id":"f5ddfd47-1379-40f7-88f5-238af06fb36c","system_id":"levelo_inurba_marseille","lat":43.28857,"lon":5.4251,"is_reserved":false,"is_disabled":false,"rental_uris":{"android":"levelo://app?vid=f5ddfd47-1379-40f7-88f5-238af06fb36c","ios":"levelo://app?vid=f5ddfd47-1379-40f7-88f5-238af06fb36c"},"vehicle_type_id":"4","last_reported":1779401371,"current_range_meters":6800,"station_id":"st_d3b462108ojc7389ooeg","pricing_plan_id":"cebpf4jnsgd1na2vs0mg"},{"bike_id":"f14b2d37-33da-4abe-b00f-78dc278ca5ed","system_id":"levelo_inurba_marseille","lat":43.3058,"lon":5.37221,"is_reserved":false,"is_disabled":false,"rental_uris":{"android":"levelo://app?vid=f14b2d37-33da-4abe-b00f-78dc278ca5ed","ios":"levelo://app?vid=f14b2d37-33da-4abe-b00f-78dc278ca5ed"},"vehicle_type_id":"4","last_reported":1779401371,"current_range_meters":7200,"station_id":"ce4bgqh2rcd13ifvqc4g","pricing_plan_id":"cebpf4jnsgd1na2vs0mg"},{"bike_id":"4ef2a115-30fd-4583-a0a0-b674210606d5","system_id":"levelo_inurba_marseille","lat":43.25723,"lon":5.41101,"is_reserved":false,"is_disabled":false,"rental_uris":{"android":"levelo://app?vid=4ef2a115-30fd-4583-a0a0-b674210606d5","ios":"levelo://app?vid=4ef2a115-30fd-4583-a0a0-b674210606d5"},"vehicle_type_id":"4","last_reported":1779401371,"current_range_meters":7200,"station_id":"ce4bhkp2rcd13ifvqgd0","pricing_plan_id":"cebpf4jnsgd1na2vs0mg"},{"bike_id":"fc90e784-043f-409e-a0a5-40df412c8d0e","system_id":"levelo_inurba_marseille","lat":43.29258,"lon":5.38484,"is_reserved":false,"is_disabled":false,"rental_uris":{"android":"levelo://app?vid=fc90e784-043f-409e-a0a5-40df412c8d0e","ios":"levelo://app?vid=fc90e784-043f-409e-a0a5-40df412c8d0e"},"vehicle_type_id":"4","last_reported":1779401371,"current_range_meters":7200,"station_id":"ce4bh692rcd13ifvqea0","pricing_plan_id":"cebpf4jnsgd1na2vs0mg"},{"bike_id":"47786595-b402-43f0-81d5-a02a10a5cfd1","system_id":"levelo_inurba_marseille","lat":43.25818,"lon":5.39422,"is_reserved":false,"is_disabled":false,"rental_uris":{"android":"levelo://app?vid=47786595-b402-43f0-81d5-a02a10a5cfd1","ios":"levelo://app?vid=47786595-b402-43f0-81d5-a02a10a5cfd1"},"vehicle_type_id":"4","last_reported":1779401371,"current_range_meters":7200,"station_id":"ce4bhip2rcd13ifvqft0","pricing_plan_id":"cebpf4jnsgd1na2vs0mg"},{"bike_id":"3c8e4601-2639-4196-a3e1-f497274faeed","system_id":"levelo_inurba_marseille","lat":43.26064,"lon":5.39395,"is_reserved":false,"is_disabled":false,"rental_uris":{"android":"levelo://app?vid=3c8e4601-2639-4196-a3e1-f497274faeed","ios":"levelo://app?vid=3c8e4601-2639-4196-a3e1-f497274faeed"},"vehicle_type_id":"4","last_reported":1779401371,"current_range_meters":7200,"station_id":"ce4bhh92rcd13ifvqfj0","pricing_plan_id":"cebpf4jnsgd1na2vs0mg"},{"bike_id":"6ecace9b-c16d-43aa-9c1a-0ebc2e7bcfc4","system_id":"levelo_inurba_marseille","lat":43.32096,"lon":5.36762,"is_reserved":false,"is_disabled":false,"rental_uris":{"android":"levelo://app?vid=6ecace9b-c16d-43aa-9c1a-0ebc2e7bcfc4","ios":"levelo://app?vid=6ecace9b-c16d-43aa-9c1a-0ebc2e7bcfc4"},"vehicle_type_id":"4","last_reported":1779401371,"current_range_meters":7200,"station_id":"ce4bhrh2rcd13ifvqhug","pricing_plan_id":"cebpf4jnsgd1na2vs0mg"},{"bike_id":"678c2486-f208-445a-a253-9dfac60b0dc7","system_id":"levelo_inurba_marseille","lat":43.32397,"lon":5.36956,"is_reserved":false,"is_disabled":false,"rental_uris":{"android":"levelo://app?vid=678c2486-f208-445a-a253-9dfac60b0dc7","ios":"levelo://app?vid=678c2486-f208-445a-a253-9dfac60b0dc7"},"vehicle_type_id":"4","last_reported":1779401371,"current_range_meters":7200,"station_id":"","pricing_plan_id":"cebpf4jnsgd1na2vs0mg"},{"bike_id":"0946055d-e8f0-4758-a1a5-844ed024c0f2","system_id":"levelo_inurba_marseille","lat":43.28689,"lon":5.38659,"is_reserved":false,"is_disabled":false,"rental_uris":{"android":"levelo://app?vid=0946055d-e8f0-4758-a1a5-844ed024c0f2","ios":"levelo://app?vid=0946055d-e8f0-4758-a1a5-844ed024c0f2"},"vehicle_type_id":"4","last_reported":1779401371,"current_range_meters":7200,"station_id":"ce4bh492rcd13ifvqdug","pricing_plan_id":"cebpf4jnsgd1na2vs0mg"},{"bike_id":"b04ee6bf-b6e5-441d-82a5-749df314e482","system_id":"levelo_inurba_marseille","lat":43.31445,"lon":5.45112,"is_reserved":false,"is_disabled":false,"rental_uris":{"android":"levelo://app?vid=b04ee6bf-b6e5-441d-82a5-749df314e482","ios":"levelo://app?vid=b04ee6bf-b6e5-441d-82a5-749df314e482"},"vehicle_type_id":"4","last_reported":1779401371,"current_range_meters":7200,"station_id":"","pricing_plan_id":"cebpf4jnsgd1na2vs0mg"},{"bike_id":"21446c33-4740-42f3-9e08-ca64ab9dbcaa","system_id":"levelo_inurba_marseille","lat":43.28405,"lon":5.37498,"is_reserved":false,"is_disabled":false,"rental_uris":{"android":"levelo://app?vid=21446c33-4740-42f3-9e08-ca64ab9dbcaa","ios":"levelo://app?vid=21446c33-4740-42f3-9e08-ca64ab9dbcaa"},"vehicle_type_id":"4","last_reported":1779401371,"current_range_meters":7200,"station_id":"ce4bh412rcd13ifvqds0","pricing_plan_id":"cebpf4jnsgd1na2vs0mg"},{"bike_id":"dfd74dd9-7b84-42c1-88bd-dff3df7cf133","system_id":"levelo_inurba_marseille","lat":43.24671,"lon":5.38157,"is_reserved":false,"is_disabled":false,"rental_uris":{"android":"levelo://app?vid=dfd74dd9-7b84-42c1-88bd-dff3df7cf133","ios":"levelo://app?vid=dfd74dd9-7b84-42c1-88bd-dff3df7cf133"},"vehicle_type_id":"4","last_reported":1779401371,"current_range_meters":7200,"station_id":"ce4bhih2rcd13ifvqfr0","pricing_plan_id":"cebpf4jnsgd1na2vs0mg"},{"bike_id":"97fdb174-2bcd-45b8-8e95-563bd1b7f684","system_id":"levelo_inurba_marseille","lat":43.29532,"lon":5.38534,"is_reserved":false,"is_disabled":false,"rental_uris":{"android":"levelo://app?vid=97fdb174-2bcd-45b8-8e95-563bd1b7f684","ios":"levelo://app?vid=97fdb174-2bcd-45b8-8e95-563bd1b7f684"},"vehicle_type_id":"4","last_reported":1779401371,"current_range_meters":7200,"station_id":"ce4bgih2rcd13ifvqba0","pricing_plan_id":"cebpf4jnsgd1na2vs0mg"},{"bike_id":"013939bc-c53d-4e6f-be2a-05c79303cd52","system_id":"levelo_inurba_marseille","lat":43.30977,"lon":5.36637,"is_reserved":false,"is_disabled":false,"rental_uris":{"android":"levelo://app?vid=013939bc-c53d-4e6f-be2a-05c79303cd52","ios":"levelo://app?vid=013939bc-c53d-4e6f-be2a-05c79303cd52"},"vehicle_type_id":"4","last_reported":1779401371,"current_range_meters":7200,"station_id":"","pricing_plan_id":"cebpf4jnsgd1na2vs0mg"},{"bike_id":"6176dd16-a9d7-4120-bf2a-b28a1914c54d","system_id":"levelo_inurba_marseille","lat":43.296,"lon":5.37487,"is_reserved":false,"is_disabled":true,"rental_uris":{"android":"levelo://app?vid=6176dd16-a9d7-4120-bf2a-b28a1914c54d","ios":"levelo://app?vid=6176dd16-a9d7-4120-bf2a-b28a1914c54d"},"vehicle_type_id":"4","last_reported":1779401371,"current_range_meters":7200,"station_id":"ce4bgh92rcd13ifvqb50","pricing_plan_id":"cebpf4jnsgd1na2vs0mg"},{"bike_id":"fd5cc5f6-09b9-4da9-8da4-b403febc7f95","system_id":"levelo_inurba_marseille","lat":43.27965,"lon":5.38731,"is_reserved":false,"is_disabled":false,"rental_uris":{"android":"levelo://app?vid=fd5cc5f6-09b9-4da9-8da4-b403febc7f95","ios":"levelo://app?vid=fd5cc5f6-09b9-4da9-8da4-b403febc7f95"},"vehicle_type_id":"4","last_reported":1779401371,"current_range_meters":7200,"station_id":"ce4bhg12rcd13ifvqf80","pricing_plan_id":"cebpf4jnsgd1na2vs0mg"},{"bike_id":"69ebca06-d718-42a0-a01a-6483b0463da6","system_id":"levelo_inurba_marseille","lat":43.27497,"lon":5.42463,"is_reserved":false,"is_disabled":false,"rental_uris":{"android":"levelo://app?vid=69ebca06-d718-42a0-a01a-6483b0463da6","ios":"levelo://app?vid=69ebca06-d718-42a0-a01a-6483b0463da6"},"vehicle_type_id":"4","last_reported":1779401371,"current_range_meters":7200,"station_id":"ce4bhn92rcd13ifvqgrg","pricing_plan_id":"cebpf4jnsgd1na2vs0mg"},{"bike_id":"ab8afdb1-6440-465f-9d72-bf186b260819","system_id":"levelo_inurba_marseille","lat":43.29877,"lon":5.38904,"is_reserved":false,"is_disabled":false,"rental_uris":{"android":"levelo://app?vid=ab8afdb1-6440-465f-9d72-bf186b260819","ios":"levelo://app?vid=ab8afdb1-6440-465f-9d72-bf186b260819"},"vehicle_type_id":"4","last_reported":1779401371,"current_range_meters":7200,"station_id":"ce4bh392rcd13ifvqdl0","pricing_plan_id":"cebpf4jnsgd1na2vs0mg"},{"bike_id":"7926970b-b546-4bd9-8ad0-0c1e21624b17","system_id":"levelo_inurba_marseille","lat":43.29596,"lon":5.38084,"is_reserved":false,"is_disabled":true,"rental_uris":{"android":"levelo://app?vid=7926970b-b546-4bd9-8ad0-0c1e21624b17","ios":"levelo://app?vid=7926970b-b546-4bd9-8ad0-0c1e21624b17"},"vehicle_type_id":"4","last_reported":1779401371,"current_range_meters":7200,"station_id":"ce4bgl12rcd13ifvqbo0","pricing_plan_id":"cebpf4jnsgd1na2vs0mg"},{"bike_id":"c1ed57f6-f105-460c-8703-1c2eae17785a","system_id":"levelo_inurba_marseille","lat":43.22541,"lon":5.34832,"is_reserved":false,"is_disabled":false,"rental_uris":{"android":"levelo://app?vid=c1ed57f6-f105-460c-8703-1c2eae17785a","ios":"levelo://app?vid=c1ed57f6-f105-460c-8703-1c2eae17785a"},"vehicle_type_id":"4","last_reported":1779401371,"current_range_meters":7200,"station_id":"st_cvj5dfep6f1abm77gieg","pricing_plan_id":"cebpf4jnsgd1na2vs0mg"},{"bike_id":"462b95e6-d4ea-4465-b068-0c42267851aa","system_id":"levelo_inurba_marseille","lat":43.30095,"lon":5.39067,"is_reserved":false,"is_disabled":false,"rental_uris":{"android":"levelo://app?vid=462b95e6-d4ea-4465-b068-0c42267851aa","ios":"levelo://app?vid=462b95e6-d4ea-4465-b068-0c42267851aa"},"vehicle_type_id":"4","last_reported":1779401371,"current_range_meters":7200,"station_id":"ce4bh192rcd13ifvqdb0","pricing_plan_id":"cebpf4jnsgd1na2vs0mg"},{"bike_id":"97d420bd-21e4-46da-9e36-55de6b88e8ad","system_id":"levelo_inurba_marseille","lat":43.24953,"lon":5.40492,"is_reserved":false,"is_disabled":false,"rental_uris":{"android":"levelo://app?vid=97d420bd-21e4-46da-9e36-55de6b88e8ad","ios":"levelo://app?vid=97d420bd-21e4-46da-9e36-55de6b88e8ad"},"vehicle_type_id":"4","last_reported":1779401371,"current_range_meters":7200,"station_id":"st_d2ngiaodas8pm72gd1h0","pricing_plan_id":"cebpf4jnsgd1na2vs0mg"},{"bike_id":"9d67899c-a584-4514-9cb2-6baec84826c1","system_id":"levelo_inurba_marseille","lat":43.30087,"lon":5.39064,"is_reserved":false,"is_disabled":false,"rental_uris":{"android":"levelo://app?vid=9d67899c-a584-4514-9cb2-6baec84826c1","ios":"levelo://app?vid=9d67899c-a584-4514-9cb2-6baec84826c1"},"vehicle_type_id":"4","last_reported":1779401371,"current_range_meters":7200,"station_id":"ce4bh192rcd13ifvqdb0","pricing_plan_id":"cebpf4jnsgd1na2vs0mg"},{"bike_id":"3b7c6a7c-8def-4f67-896d-b1ec9dfb83ed","system_id":"levelo_inurba_marseille","lat":43.32336,"lon":5.38446,"is_reserved":false,"is_disabled":true,"rental_uris":{"android":"levelo://app?vid=3b7c6a7c-8def-4f67-896d-b1ec9dfb83ed","ios":"levelo://app?vid=3b7c6a7c-8def-4f67-896d-b1ec9dfb83ed"},"vehicle_type_id":"4","last_reported":1779401371,"current_range_meters":7200,"station_id":"st_d45171o9ee8s73djdqug","pricing_plan_id":"cebpf4jnsgd1na2vs0mg"},{"bike_id":"943bb53c-0a75-480a-8ea9-6b52867d9505","system_id":"levelo_inurba_marseille","lat":43.29258,"lon":5.40905,"is_reserved":false,"is_disabled":false,"rental_uris":{"android":"levelo://app?vid=943bb53c-0a75-480a-8ea9-6b52867d9505","ios":"levelo://app?vid=943bb53c-0a75-480a-8ea9-6b52867d9505"},"vehicle_type_id":"4","last_reported":1779401371,"current_range_meters":7200,"station_id":"ce4bh192rcd13ifvqdc0","pricing_plan_id":"cebpf4jnsgd1na2vs0mg"},{"bike_id":"c74ec902-abbe-4683-9ab4-6137019d0f68","system_id":"levelo_inurba_marseille","lat":43.25335,"lon":5.42161,"is_reserved":false,"is_disabled":false,"rental_uris":{"android":"levelo://app?vid=c74ec902-abbe-4683-9ab4-6137019d0f68","ios":"levelo://app?vid=c74ec902-abbe-4683-9ab4-6137019d0f68"},"vehicle_type_id":"4","last_reported":1779401371,"current_range_meters":8000,"station_id":"st_d2m65c5bi1j21697t3ng","pricing_plan_id":"cebpf4jnsgd1na2vs0mg"},{"bike_id":"77336132-b8e8-4643-a264-4899e1fddc59","system_id":"levelo_inurba_marseille","lat":43.30678,"lon":5.40077,"is_reserved":false,"is_disabled":true,"rental_uris":{"android":"levelo://app?vid=77336132-b8e8-4643-a264-4899e1fddc59","ios":"levelo://app?vid=77336132-b8e8-4643-a264-4899e1fddc59"},"vehicle_type_id":"4","last_reported":1779401371,"current_range_meters":8000,"station_id":"ce4bh112rcd13ifvqda0","pricing_plan_id":"cebpf4jnsgd1na2vs0mg"},{"bike_id":"5c530a9e-7c4a-4aa6-adac-4172a237ef4e","system_id":"levelo_inurba_marseille","lat":43.28587,"lon":5.34998,"is_reserved":false,"is_disabled":false,"rental_uris":{"android":"levelo://app?vid=5c530a9e-7c4a-4aa6-adac-4172a237ef4e","ios":"levelo://app?vid=5c530a9e-7c4a-4aa6-adac-4172a237ef4e"},"vehicle_type_id":"4","last_reported":1779401371,"current_range_meters":8000,"station_id":"","pricing_plan_id":"cebpf4jnsgd1na2vs0mg"},{"bike_id":"129d1c1e-a4ec-4956-9f3f-d6961f012ff9","system_id":"levelo_inurba_marseille","lat":43.28861,"lon":5.36639,"is_reserved":false,"is_disabled":false,"rental_uris":{"android":"levelo://app?vid=129d1c1e-a4ec-4956-9f3f-d6961f012ff9","ios":"levelo://app?vid=129d1c1e-a4ec-4956-9f3f-d6961f012ff9"},"vehicle_type_id":"4","last_reported":1779401371,"current_range_meters":8000,"station_id":"","pricing_plan_id":"cebpf4jnsgd1na2vs0mg"},{"bike_id":"c04a6a2a-beaa-465c-9744-cf2c4e560e9f","system_id":"levelo_inurba_marseille","lat":43.29652,"lon":5.38655,"is_reserved":false,"is_disabled":false,"rental_uris":{"android":"levelo://app?vid=c04a6a2a-beaa-465c-9744-cf2c4e560e9f","ios":"levelo://app?vid=c04a6a2a-beaa-465c-9744-cf2c4e560e9f"},"vehicle_type_id":"4","last_reported":1779401371,"current_range_meters":8000,"station_id":"","pricing_plan_id":"cebpf4jnsgd1na2vs0mg"},{"bike_id":"6f23edc0-4a56-4c8c-b45d-bcafdde5d3bc","system_id":"levelo_inurba_marseille","lat":43.29877,"lon":5.38903,"is_reserved":false,"is_disabled":false,"rental_uris":{"android":"levelo://app?vid=6f23edc0-4a56-4c8c-b45d-bcafdde5d3bc","ios":"levelo://app?vid=6f23edc0-4a56-4c8c-b45d-bcafdde5d3bc"},"vehicle_type_id":"4","last_reported":1779401371,"current_range_meters":8000,"station_id":"ce4bh392rcd13ifvqdl0","pricing_plan_id":"cebpf4jnsgd1na2vs0mg"},{"bike_id":"588e51ac-8f84-47ba-9b6c-69670b7a8142","system_id":"levelo_inurba_marseille","lat":43.29045,"lon":5.38612,"is_reserved":false,"is_disabled":false,"rental_uris":{"android":"levelo://app?vid=588e51ac-8f84-47ba-9b6c-69670b7a8142","ios":"levelo://app?vid=588e51ac-8f84-47ba-9b6c-69670b7a8142"},"vehicle_type_id":"4","last_reported":1779401371,"current_range_meters":8000,"station_id":"ce4bh4p2rcd13ifvqe0g","pricing_plan_id":"cebpf4jnsgd1na2vs0mg"},{"bike_id":"fad71679-2dc3-4c61-9034-a8d77542050c","system_id":"levelo_inurba_marseille","lat":43.27056,"lon":5.38305,"is_reserved":false,"is_disabled":true,"rental_uris":{"android":"levelo://app?vid=fad71679-2dc3-4c61-9034-a8d77542050c","ios":"levelo://app?vid=fad71679-2dc3-4c61-9034-a8d77542050c"},"vehicle_type_id":"4","last_reported":1779401371,"current_range_meters":8000,"station_id":"st_d3n2fo6cfp8s73cte1j0","pricing_plan_id":"cebpf4jnsgd1na2vs0mg"},{"bike_id":"026aac21-482f-4fd9-90cf-a6e2ad0a7881","system_id":"levelo_inurba_marseille","lat":43.29275,"lon":5.3844,"is_reserved":false,"is_disabled":false,"rental_uris":{"android":"levelo://app?vid=026aac21-482f-4fd9-90cf-a6e2ad0a7881","ios":"levelo://app?vid=026aac21-482f-4fd9-90cf-a6e2ad0a7881"},"vehicle_type_id":"4","last_reported":1779401371,"current_range_meters":8000,"station_id":"ce4bh692rcd13ifvqea0","pricing_plan_id":"cebpf4jnsgd1na2vs0mg"},{"bike_id":"9b0e1355-cfa6-4246-8dd4-5abd1c2ff8a9","system_id":"levelo_inurba_marseille","lat":43.30945,"lon":5.3902,"is_reserved":false,"is_disabled":true,"rental_uris":{"android":"levelo://app?vid=9b0e1355-cfa6-4246-8dd4-5abd1c2ff8a9","ios":"levelo://app?vid=9b0e1355-cfa6-4246-8dd4-5abd1c2ff8a9"},"vehicle_type_id":"4","last_reported":1779401371,"current_range_meters":8000,"station_id":"ce4bgup2rcd13ifvqco0","pricing_plan_id":"cebpf4jnsgd1na2vs0mg"},{"bike_id":"2ce323b9-44db-4da7-b01c-34438bd6d7fa","system_id":"levelo_inurba_marseille","lat":43.31987,"lon":5.3815,"is_reserved":false,"is_disabled":false,"rental_uris":{"android":"levelo://app?vid=2ce323b9-44db-4da7-b01c-34438bd6d7fa","ios":"levelo://app?vid=2ce323b9-44db-4da7-b01c-34438bd6d7fa"},"vehicle_type_id":"4","last_reported":1779401371,"current_range_meters":8000,"station_id":"ce4bhr12rcd13ifvqhpg","pricing_plan_id":"cebpf4jnsgd1na2vs0mg"},{"bike_id":"27a567fc-44be-4d18-8051-7476df3ad4e7","system_id":"levelo_inurba_marseille","lat":43.24046,"lon":5.37751,"is_reserved":false,"is_disabled":false,"rental_uris":{"android":"levelo://app?vid=27a567fc-44be-4d18-8051-7476df3ad4e7","ios":"levelo://app?vid=27a567fc-44be-4d18-8051-7476df3ad4e7"},"vehicle_type_id":"4","last_reported":1779401371,"current_range_meters":8000,"station_id":"ce4bhnp2rcd13ifvqgvg","pricing_plan_id":"cebpf4jnsgd1na2vs0mg"},{"bike_id":"1e5a0967-8294-4b44-8843-0a4aea967ec8","system_id":"levelo_inurba_marseille","lat":43.30439,"lon":5.38871,"is_reserved":false,"is_disabled":false,"rental_uris":{"android":"levelo://app?vid=1e5a0967-8294-4b44-8843-0a4aea967ec8","ios":"levelo://app?vid=1e5a0967-8294-4b44-8843-0a4aea967ec8"},"vehicle_type_id":"4","last_reported":1779401371,"current_range_meters":8000,"station_id":"ce4bgk12rcd13ifvqbi0","pricing_plan_id":"cebpf4jnsgd1na2vs0mg"},{"bike_id":"7bbf27f7-2cde-43a6-bdcc-4c67966235bd","system_id":"levelo_inurba_marseille","lat":43.29544,"lon":5.38526,"is_reserved":false,"is_disabled":false,"rental_uris":{"android":"levelo://app?vid=7bbf27f7-2cde-43a6-bdcc-4c67966235bd","ios":"levelo://app?vid=7bbf27f7-2cde-43a6-bdcc-4c67966235bd"},"vehicle_type_id":"4","last_reported":1779401371,"current_range_meters":8000,"station_id":"ce4bgih2rcd13ifvqba0","pricing_plan_id":"cebpf4jnsgd1na2vs0mg"},{"bike_id":"e6eba207-3372-4c38-a13d-96e436c475ed","system_id":"levelo_inurba_marseille","lat":43.30322,"lon":5.40427,"is_reserved":false,"is_disabled":false,"rental_uris":{"android":"levelo://app?vid=e6eba207-3372-4c38-a13d-96e436c475ed","ios":"levelo://app?vid=e6eba207-3372-4c38-a13d-96e436c475ed"},"vehicle_type_id":"4","last_reported":1779401371,"current_range_meters":8000,"station_id":"ce4bh012rcd13ifvqd10","pricing_plan_id":"cebpf4jnsgd1na2vs0mg"},{"bike_id":"8ce66b28-3c3f-4313-a7e6-293ca1bfea50","system_id":"levelo_inurba_marseille","lat":43.24176,"lon":5.39726,"is_reserved":false,"is_disabled":true,"rental_uris":{"android":"levelo://app?vid=8ce66b28-3c3f-4313-a7e6-293ca1bfea50","ios":"levelo://app?vid=8ce66b28-3c3f-4313-a7e6-293ca1bfea50"},"vehicle_type_id":"4","last_reported":1779401371,"current_range_meters":8000,"station_id":"ce4bhn12rcd13ifvqgpg","pricing_plan_id":"cebpf4jnsgd1na2vs0mg"},{"bike_id":"b90c4810-bc71-435f-9454-1d991656a084","system_id":"levelo_inurba_marseille","lat":43.32492,"lon":5.38292,"is_reserved":false,"is_disabled":false,"rental_uris":{"android":"levelo://app?vid=b90c4810-bc71-435f-9454-1d991656a084","ios":"levelo://app?vid=b90c4810-bc71-435f-9454-1d991656a084"},"vehicle_type_id":"4","last_reported":1779401371,"current_range_meters":8000,"station_id":"st_d4asgbiv49dc73anf9m0","pricing_plan_id":"cebpf4jnsgd1na2vs0mg"},{"bike_id":"b00a53ba-4592-4120-86c8-ae222013fcee","system_id":"levelo_inurba_marseille","lat":43.29968,"lon":5.41318,"is_reserved":false,"is_disabled":false,"rental_uris":{"android":"levelo://app?vid=b00a53ba-4592-4120-86c8-ae222013fcee","ios":"levelo://app?vid=b00a53ba-4592-4120-86c8-ae222013fcee"},"vehicle_type_id":"4","last_reported":1779401371,"current_range_meters":8000,"station_id":"ce4bhp12rcd13ifvqh9g","pricing_plan_id":"cebpf4jnsgd1na2vs0mg"},{"bike_id":"63d35d01-5acd-4b8c-b490-4f7436cc53c2","system_id":"levelo_inurba_marseille","lat":43.26175,"lon":5.37521,"is_reserved":false,"is_disabled":false,"rental_uris":{"android":"levelo://app?vid=63d35d01-5acd-4b8c-b490-4f7436cc53c2","ios":"levelo://app?vid=63d35d01-5acd-4b8c-b490-4f7436cc53c2"},"vehicle_type_id":"4","last_reported":1779401371,"current_range_meters":8000,"station_id":"","pricing_plan_id":"cebpf4jnsgd1na2vs0mg"},{"bike_id":"3d436a0d-575b-42d3-8681-5c87057b3b7f","system_id":"levelo_inurba_marseille","lat":43.27961,"lon":5.43606,"is_reserved":false,"is_disabled":false,"rental_uris":{"android":"levelo://app?vid=3d436a0d-575b-42d3-8681-5c87057b3b7f","ios":"levelo://app?vid=3d436a0d-575b-42d3-8681-5c87057b3b7f"},"vehicle_type_id":"4","last_reported":1779401371,"current_range_meters":8000,"station_id":"","pricing_plan_id":"cebpf4jnsgd1na2vs0mg"},{"bike_id":"e4fd2b5f-8c1e-4148-9edb-b582666b9eac","system_id":"levelo_inurba_marseille","lat":43.31361,"lon":5.38492,"is_reserved":false,"is_disabled":true,"rental_uris":{"android":"levelo://app?vid=e4fd2b5f-8c1e-4148-9edb-b582666b9eac","ios":"levelo://app?vid=e4fd2b5f-8c1e-4148-9edb-b582666b9eac"},"vehicle_type_id":"4","last_reported":1779401371,"current_range_meters":8000,"station_id":"ce4bgt92rcd13ifvqcf0","pricing_plan_id":"cebpf4jnsgd1na2vs0mg"},{"bike_id":"df5e3585-6f30-4c5b-8f23-32443c1fe806","system_id":"levelo_inurba_marseille","lat":43.29552,"lon":5.38551,"is_reserved":false,"is_disabled":false,"rental_uris":{"android":"levelo://app?vid=df5e3585-6f30-4c5b-8f23-32443c1fe806","ios":"levelo://app?vid=df5e3585-6f30-4c5b-8f23-32443c1fe806"},"vehicle_type_id":"4","last_reported":1779401371,"current_range_meters":8000,"station_id":"ce4bgih2rcd13ifvqba0","pricing_plan_id":"cebpf4jnsgd1na2vs0mg"},{"bike_id":"917bc79e-18fe-4c14-a990-3d21f0aa3422","system_id":"levelo_inurba_marseille","lat":43.2922,"lon":5.39295,"is_reserved":false,"is_disabled":false,"rental_uris":{"android":"levelo://app?vid=917bc79e-18fe-4c14-a990-3d21f0aa3422","ios":"levelo://app?vid=917bc79e-18fe-4c14-a990-3d21f0aa3422"},"vehicle_type_id":"4","last_reported":1779401371,"current_range_meters":8000,"station_id":"ce4bh192rcd13ifvqdd0","pricing_plan_id":"cebpf4jnsgd1na2vs0mg"},{"bike_id":"489d03c0-9123-4de9-b4a7-3d6c8cdf595f","system_id":"levelo_inurba_marseille","lat":43.2926,"lon":5.38446,"is_reserved":false,"is_disabled":false,"rental_uris":{"android":"levelo://app?vid=489d03c0-9123-4de9-b4a7-3d6c8cdf595f","ios":"levelo://app?vid=489d03c0-9123-4de9-b4a7-3d6c8cdf595f"},"vehicle_type_id":"4","last_reported":1779401371,"current_range_meters":8000,"station_id":"ce4bh692rcd13ifvqea0","pricing_plan_id":"cebpf4jnsgd1na2vs0mg"},{"bike_id":"89067ca6-26e0-4117-b5d4-015520ac9cbb","system_id":"levelo_inurba_marseille","lat":43.29525,"lon":5.39392,"is_reserved":false,"is_disabled":false,"rental_uris":{"android":"levelo://app?vid=89067ca6-26e0-4117-b5d4-015520ac9cbb","ios":"levelo://app?vid=89067ca6-26e0-4117-b5d4-015520ac9cbb"},"vehicle_type_id":"4","last_reported":1779401371,"current_range_meters":8000,"station_id":"ce4bh292rcd13ifvqdf0","pricing_plan_id":"cebpf4jnsgd1na2vs0mg"},{"bike_id":"86d425d2-0a81-4e1e-a7d9-52d6a08f74d4","system_id":"levelo_inurba_marseille","lat":43.29525,"lon":5.39005,"is_reserved":false,"is_disabled":false,"rental_uris":{"android":"levelo://app?vid=86d425d2-0a81-4e1e-a7d9-52d6a08f74d4","ios":"levelo://app?vid=86d425d2-0a81-4e1e-a7d9-52d6a08f74d4"},"vehicle_type_id":"4","last_reported":1779401371,"current_range_meters":8000,"station_id":"ce4bh3p2rcd13ifvqdp0","pricing_plan_id":"cebpf4jnsgd1na2vs0mg"},{"bike_id":"d7c4b2b9-0e7b-4af8-81c9-e70512352d49","system_id":"levelo_inurba_marseille","lat":43.289474,"lon":5.363912,"is_reserved":false,"is_disabled":false,"rental_uris":{"android":"levelo://app?vid=d7c4b2b9-0e7b-4af8-81c9-e70512352d49","ios":"levelo://app?vid=d7c4b2b9-0e7b-4af8-81c9-e70512352d49"},"vehicle_type_id":"4","last_reported":1779401371,"current_range_meters":8000,"station_id":"ce4bhc92rcd13ifvqetg","pricing_plan_id":"cebpf4jnsgd1na2vs0mg"},{"bike_id":"891bbb3b-d64e-4082-9a23-6ac299a0152f","system_id":"levelo_inurba_marseille","lat":43.29243,"lon":5.40908,"is_reserved":false,"is_disabled":false,"rental_uris":{"android":"levelo://app?vid=891bbb3b-d64e-4082-9a23-6ac299a0152f","ios":"levelo://app?vid=891bbb3b-d64e-4082-9a23-6ac299a0152f"},"vehicle_type_id":"4","last_reported":1779401371,"current_range_meters":8000,"station_id":"ce4bh192rcd13ifvqdc0","pricing_plan_id":"cebpf4jnsgd1na2vs0mg"},{"bike_id":"dbf1df3b-7c0e-44cc-a6f4-2ef8960772dd","system_id":"levelo_inurba_marseille","lat":43.22928,"lon":5.35376,"is_reserved":false,"is_disabled":false,"rental_uris":{"android":"levelo://app?vid=dbf1df3b-7c0e-44cc-a6f4-2ef8960772dd","ios":"levelo://app?vid=dbf1df3b-7c0e-44cc-a6f4-2ef8960772dd"},"vehicle_type_id":"4","last_reported":1779401371,"current_range_meters":8000,"station_id":"cpo3532slgdg3j2ikp40","pricing_plan_id":"cebpf4jnsgd1na2vs0mg"},{"bike_id":"2bb7aa64-e307-4ce9-9a55-06025fbc4e75","system_id":"levelo_inurba_marseille","lat":43.31326,"lon":5.3969,"is_reserved":false,"is_disabled":false,"rental_uris":{"android":"levelo://app?vid=2bb7aa64-e307-4ce9-9a55-06025fbc4e75","ios":"levelo://app?vid=2bb7aa64-e307-4ce9-9a55-06025fbc4e75"},"vehicle_type_id":"4","last_reported":1779401371,"current_range_meters":8000,"station_id":"ce4bgvp2rcd13ifvqcu0","pricing_plan_id":"cebpf4jnsgd1na2vs0mg"},{"bike_id":"8ad67215-de2f-47a2-94cb-838732bb958e","system_id":"levelo_inurba_marseille","lat":43.31064,"lon":5.37172,"is_reserved":false,"is_disabled":false,"rental_uris":{"android":"levelo://app?vid=8ad67215-de2f-47a2-94cb-838732bb958e","ios":"levelo://app?vid=8ad67215-de2f-47a2-94cb-838732bb958e"},"vehicle_type_id":"4","last_reported":1779401371,"current_range_meters":8400,"station_id":"st_d4kl2rp97mjs73e7tdfg","pricing_plan_id":"cebpf4jnsgd1na2vs0mg"},{"bike_id":"11fb3071-a202-4b5e-b606-dd07072dff70","system_id":"levelo_inurba_marseille","lat":43.31996,"lon":5.3812,"is_reserved":false,"is_disabled":false,"rental_uris":{"android":"levelo://app?vid=11fb3071-a202-4b5e-b606-dd07072dff70","ios":"levelo://app?vid=11fb3071-a202-4b5e-b606-dd07072dff70"},"vehicle_type_id":"4","last_reported":1779401371,"current_range_meters":8400,"station_id":"ce4bhr12rcd13ifvqhpg","pricing_plan_id":"cebpf4jnsgd1na2vs0mg"},{"bike_id":"d6ef5181-9c65-4b14-a132-bd2560a893a3","system_id":"levelo_inurba_marseille","lat":43.25841,"lon":5.39457,"is_reserved":false,"is_disabled":false,"rental_uris":{"android":"levelo://app?vid=d6ef5181-9c65-4b14-a132-bd2560a893a3","ios":"levelo://app?vid=d6ef5181-9c65-4b14-a132-bd2560a893a3"},"vehicle_type_id":"4","last_reported":1779401371,"current_range_meters":8400,"station_id":"ce4bhip2rcd13ifvqft0","pricing_plan_id":"cebpf4jnsgd1na2vs0mg"},{"bike_id":"b7b1190c-b5c6-4401-98fd-327abc9a6496","system_id":"levelo_inurba_marseille","lat":43.31765,"lon":5.39019,"is_reserved":false,"is_disabled":false,"rental_uris":{"android":"levelo://app?vid=b7b1190c-b5c6-4401-98fd-327abc9a6496","ios":"levelo://app?vid=b7b1190c-b5c6-4401-98fd-327abc9a6496"},"vehicle_type_id":"4","last_reported":1779401371,"current_range_meters":8400,"station_id":"ce4bhqp2rcd13ifvqhng","pricing_plan_id":"cebpf4jnsgd1na2vs0mg"},{"bike_id":"df970a06-85e5-4f4e-bc60-fba0a850f121","system_id":"levelo_inurba_marseille","lat":43.28724,"lon":5.36093,"is_reserved":false,"is_disabled":false,"rental_uris":{"android":"levelo://app?vid=df970a06-85e5-4f4e-bc60-fba0a850f121","ios":"levelo://app?vid=df970a06-85e5-4f4e-bc60-fba0a850f121"},"vehicle_type_id":"4","last_reported":1779401371,"current_range_meters":8400,"station_id":"cki0cbj6b192h4jlfktg","pricing_plan_id":"cebpf4jnsgd1na2vs0mg"},{"bike_id":"67eb7547-a3db-4c45-b1d5-dbbc7268133e","system_id":"levelo_inurba_marseille","lat":43.2894,"lon":5.36622,"is_reserved":false,"is_disabled":true,"rental_uris":{"android":"levelo://app?vid=67eb7547-a3db-4c45-b1d5-dbbc7268133e","ios":"levelo://app?vid=67eb7547-a3db-4c45-b1d5-dbbc7268133e"},"vehicle_type_id":"4","last_reported":1779401371,"current_range_meters":8400,"station_id":"ce4bhap2rcd13ifvqek0","pricing_plan_id":"cebpf4jnsgd1na2vs0mg"},{"bike_id":"60a16368-519a-4aa5-889a-f31cdc0a5be1","system_id":"levelo_inurba_marseille","lat":43.31971,"lon":5.41541,"is_reserved":false,"is_disabled":false,"rental_uris":{"android":"levelo://app?vid=60a16368-519a-4aa5-889a-f31cdc0a5be1","ios":"levelo://app?vid=60a16368-519a-4aa5-889a-f31cdc0a5be1"},"vehicle_type_id":"4","last_reported":1779401371,"current_range_meters":8400,"station_id":"","pricing_plan_id":"cebpf4jnsgd1na2vs0mg"},{"bike_id":"b9b84d59-7f7c-47a0-b2b8-055f7224abba","system_id":"levelo_inurba_marseille","lat":43.2695,"lon":5.38624,"is_reserved":false,"is_disabled":false,"rental_uris":{"android":"levelo://app?vid=b9b84d59-7f7c-47a0-b2b8-055f7224abba","ios":"levelo://app?vid=b9b84d59-7f7c-47a0-b2b8-055f7224abba"},"vehicle_type_id":"4","last_reported":1779401371,"current_range_meters":8400,"station_id":"ce4bhh92rcd13ifvqfh0","pricing_plan_id":"cebpf4jnsgd1na2vs0mg"},{"bike_id":"87217508-6b31-400b-9e30-3aef98052c0a","system_id":"levelo_inurba_marseille","lat":43.33765,"lon":5.37445,"is_reserved":false,"is_disabled":false,"rental_uris":{"android":"levelo://app?vid=87217508-6b31-400b-9e30-3aef98052c0a","ios":"levelo://app?vid=87217508-6b31-400b-9e30-3aef98052c0a"},"vehicle_type_id":"4","last_reported":1779401371,"current_range_meters":8400,"station_id":"","pricing_plan_id":"cebpf4jnsgd1na2vs0mg"},{"bike_id":"bae24b03-b710-4049-9b14-fe506328781c","system_id":"levelo_inurba_marseille","lat":43.29269,"lon":5.4014,"is_reserved":false,"is_disabled":false,"rental_uris":{"android":"levelo://app?vid=bae24b03-b710-4049-9b14-fe506328781c","ios":"levelo://app?vid=bae24b03-b710-4049-9b14-fe506328781c"},"vehicle_type_id":"4","last_reported":1779401371,"current_range_meters":8400,"station_id":"ce4bh312rcd13ifvqdk0","pricing_plan_id":"cebpf4jnsgd1na2vs0mg"},{"bike_id":"843cf410-1c96-4b5c-a663-6d447f3945af","system_id":"levelo_inurba_marseille","lat":43.30892,"lon":5.39625,"is_reserved":false,"is_disabled":false,"rental_uris":{"android":"levelo://app?vid=843cf410-1c96-4b5c-a663-6d447f3945af","ios":"levelo://app?vid=843cf410-1c96-4b5c-a663-6d447f3945af"},