{"last_updated":1741165841,"ttl":60,"version":"2.2","data":{"bikes":[{"bike_id":"771552a7-ab8d-491e-9bd8-ee533f6ca525","system_id":"levelo_inurba_marseille","lat":43.23149,"lon":5.4373,"is_reserved":false,"is_disabled":false,"rental_uris":{"android":"levelo://app?vid=771552a7-ab8d-491e-9bd8-ee533f6ca525","ios":"levelo://app?vid=771552a7-ab8d-491e-9bd8-ee533f6ca525"},"vehicle_type_id":"4","last_reported":1741165842,"current_range_meters":2800,"station_id":"ce4bhmp2rcd13ifvqgog","pricing_plan_id":"cebpf4jnsgd1na2vs0mg"},{"bike_id":"81837559-78cb-4a14-a847-89a84b64c16b","system_id":"levelo_inurba_marseille","lat":43.25027,"lon":5.3892,"is_reserved":false,"is_disabled":false,"rental_uris":{"android":"levelo://app?vid=81837559-78cb-4a14-a847-89a84b64c16b","ios":"levelo://app?vid=81837559-78cb-4a14-a847-89a84b64c16b"},"vehicle_type_id":"4","last_reported":1741165842,"current_range_meters":2800,"station_id":"ce4bhgp2rcd13ifvqfd0","pricing_plan_id":"cebpf4jnsgd1na2vs0mg"},{"bike_id":"ce8ef3d2-07e3-4512-8813-bcde53a01429","system_id":"levelo_inurba_marseille","lat":43.24184,"lon":5.3639,"is_reserved":false,"is_disabled":false,"rental_uris":{"android":"levelo://app?vid=ce8ef3d2-07e3-4512-8813-bcde53a01429","ios":"levelo://app?vid=ce8ef3d2-07e3-4512-8813-bcde53a01429"},"vehicle_type_id":"4","last_reported":1741165842,"current_range_meters":3200,"station_id":"cpo36qri1sfpv3e86is0","pricing_plan_id":"cebpf4jnsgd1na2vs0mg"},{"bike_id":"9a6312e8-bce6-4da6-ad7b-6bd49dd0e180","system_id":"levelo_inurba_marseille","lat":43.2409,"lon":5.37756,"is_reserved":false,"is_disabled":false,"rental_uris":{"android":"levelo://app?vid=9a6312e8-bce6-4da6-ad7b-6bd49dd0e180","ios":"levelo://app?vid=9a6312e8-bce6-4da6-ad7b-6bd49dd0e180"},"vehicle_type_id":"4","last_reported":1741165842,"current_range_meters":3200,"station_id":"ce4bhnp2rcd13ifvqgvg","pricing_plan_id":"cebpf4jnsgd1na2vs0mg"},{"bike_id":"5e8d3286-811b-47d2-96af-944997a8b7f4","system_id":"levelo_inurba_marseille","lat":43.30945,"lon":5.39031,"is_reserved":false,"is_disabled":false,"rental_uris":{"android":"levelo://app?vid=5e8d3286-811b-47d2-96af-944997a8b7f4","ios":"levelo://app?vid=5e8d3286-811b-47d2-96af-944997a8b7f4"},"vehicle_type_id":"4","last_reported":1741165842,"current_range_meters":3200,"station_id":"ce4bgup2rcd13ifvqco0","pricing_plan_id":"cebpf4jnsgd1na2vs0mg"},{"bike_id":"79687e17-5ece-4f9c-9252-898196d1c2cb","system_id":"levelo_inurba_marseille","lat":43.29892,"lon":5.38506,"is_reserved":false,"is_disabled":false,"rental_uris":{"android":"levelo://app?vid=79687e17-5ece-4f9c-9252-898196d1c2cb","ios":"levelo://app?vid=79687e17-5ece-4f9c-9252-898196d1c2cb"},"vehicle_type_id":"4","last_reported":1741165842,"current_range_meters":3600,"station_id":"","pricing_plan_id":"cebpf4jnsgd1na2vs0mg"},{"bike_id":"3fe738ce-4d27-4f45-acc1-cc5f130546f4","system_id":"levelo_inurba_marseille","lat":43.24185,"lon":5.39732,"is_reserved":false,"is_disabled":false,"rental_uris":{"android":"levelo://app?vid=3fe738ce-4d27-4f45-acc1-cc5f130546f4","ios":"levelo://app?vid=3fe738ce-4d27-4f45-acc1-cc5f130546f4"},"vehicle_type_id":"4","last_reported":1741165842,"current_range_meters":3600,"station_id":"ce4bhn12rcd13ifvqgpg","pricing_plan_id":"cebpf4jnsgd1na2vs0mg"},{"bike_id":"13c44e5e-5463-4505-ba1b-c0544af7d8ca","system_id":"levelo_inurba_marseille","lat":43.23188,"lon":5.3556,"is_reserved":false,"is_disabled":false,"rental_uris":{"android":"levelo://app?vid=13c44e5e-5463-4505-ba1b-c0544af7d8ca","ios":"levelo://app?vid=13c44e5e-5463-4505-ba1b-c0544af7d8ca"},"vehicle_type_id":"4","last_reported":1741165842,"current_range_meters":3600,"station_id":"ce4bhu92rcd13ifvqi70","pricing_plan_id":"cebpf4jnsgd1na2vs0mg"},{"bike_id":"5e7a2ed5-b4f0-465b-bd6d-3d413cf0a8b5","system_id":"levelo_inurba_marseille","lat":43.24993,"lon":5.38913,"is_reserved":false,"is_disabled":false,"rental_uris":{"android":"levelo://app?vid=5e7a2ed5-b4f0-465b-bd6d-3d413cf0a8b5","ios":"levelo://app?vid=5e7a2ed5-b4f0-465b-bd6d-3d413cf0a8b5"},"vehicle_type_id":"4","last_reported":1741165842,"current_range_meters":3600,"station_id":"ce4bhgp2rcd13ifvqfd0","pricing_plan_id":"cebpf4jnsgd1na2vs0mg"},{"bike_id":"dc7f228c-f690-47dd-84d3-3353a33e8cda","system_id":"levelo_inurba_marseille","lat":43.24619,"lon":5.431505,"is_reserved":false,"is_disabled":true,"rental_uris":{"android":"levelo://app?vid=dc7f228c-f690-47dd-84d3-3353a33e8cda","ios":"levelo://app?vid=dc7f228c-f690-47dd-84d3-3353a33e8cda"},"vehicle_type_id":"4","last_reported":1741165842,"current_range_meters":3600,"station_id":"","pricing_plan_id":"cebpf4jnsgd1na2vs0mg"},{"bike_id":"e7ee08b4-fabb-4f4e-a04c-e7f0118ddd60","system_id":"levelo_inurba_marseille","lat":43.27308,"lon":5.39094,"is_reserved":false,"is_disabled":false,"rental_uris":{"android":"levelo://app?vid=e7ee08b4-fabb-4f4e-a04c-e7f0118ddd60","ios":"levelo://app?vid=e7ee08b4-fabb-4f4e-a04c-e7f0118ddd60"},"vehicle_type_id":"4","last_reported":1741165842,"current_range_meters":3600,"station_id":"ce4bhgp2rcd13ifvqfe0","pricing_plan_id":"cebpf4jnsgd1na2vs0mg"},{"bike_id":"f563e8d8-7714-425c-a36f-a02e2ea50b41","system_id":"levelo_inurba_marseille","lat":43.26967,"lon":5.38636,"is_reserved":false,"is_disabled":false,"rental_uris":{"android":"levelo://app?vid=f563e8d8-7714-425c-a36f-a02e2ea50b41","ios":"levelo://app?vid=f563e8d8-7714-425c-a36f-a02e2ea50b41"},"vehicle_type_id":"4","last_reported":1741165842,"current_range_meters":3600,"station_id":"ce4bhh92rcd13ifvqfh0","pricing_plan_id":"cebpf4jnsgd1na2vs0mg"},{"bike_id":"ca50a195-5ae6-44e2-be31-052e76ec5cfa","system_id":"levelo_inurba_marseille","lat":43.29275,"lon":5.36848,"is_reserved":false,"is_disabled":true,"rental_uris":{"android":"levelo://app?vid=ca50a195-5ae6-44e2-be31-052e76ec5cfa","ios":"levelo://app?vid=ca50a195-5ae6-44e2-be31-052e76ec5cfa"},"vehicle_type_id":"4","last_reported":1741165842,"current_range_meters":4000,"station_id":"ce4bhbp2rcd13ifvqesg","pricing_plan_id":"cebpf4jnsgd1na2vs0mg"},{"bike_id":"4953908e-c12d-41ee-881a-cce039598782","system_id":"levelo_inurba_marseille","lat":43.30791,"lon":5.43521,"is_reserved":false,"is_disabled":false,"rental_uris":{"android":"levelo://app?vid=4953908e-c12d-41ee-881a-cce039598782","ios":"levelo://app?vid=4953908e-c12d-41ee-881a-cce039598782"},"vehicle_type_id":"4","last_reported":1741165842,"current_range_meters":4400,"station_id":"ce4bhph2rcd13ifvqheg","pricing_plan_id":"cebpf4jnsgd1na2vs0mg"},{"bike_id":"14c4dd07-4b52-4a41-9802-9c5df1b77b37","system_id":"levelo_inurba_marseille","lat":43.2928,"lon":5.3844,"is_reserved":false,"is_disabled":false,"rental_uris":{"android":"levelo://app?vid=14c4dd07-4b52-4a41-9802-9c5df1b77b37","ios":"levelo://app?vid=14c4dd07-4b52-4a41-9802-9c5df1b77b37"},"vehicle_type_id":"4","last_reported":1741165842,"current_range_meters":4400,"station_id":"ce4bh692rcd13ifvqea0","pricing_plan_id":"cebpf4jnsgd1na2vs0mg"},{"bike_id":"5cac15ac-8b59-4b74-8ab7-11447f124a80","system_id":"levelo_inurba_marseille","lat":43.27315,"lon":5.39093,"is_reserved":false,"is_disabled":false,"rental_uris":{"android":"levelo://app?vid=5cac15ac-8b59-4b74-8ab7-11447f124a80","ios":"levelo://app?vid=5cac15ac-8b59-4b74-8ab7-11447f124a80"},"vehicle_type_id":"4","last_reported":1741165842,"current_range_meters":4400,"station_id":"ce4bhgp2rcd13ifvqfe0","pricing_plan_id":"cebpf4jnsgd1na2vs0mg"},{"bike_id":"8a8a977c-85e0-4b8f-9e6f-2293c5791c90","system_id":"levelo_inurba_marseille","lat":43.253877,"lon":5.413568,"is_reserved":false,"is_disabled":false,"rental_uris":{"android":"levelo://app?vid=8a8a977c-85e0-4b8f-9e6f-2293c5791c90","ios":"levelo://app?vid=8a8a977c-85e0-4b8f-9e6f-2293c5791c90"},"vehicle_type_id":"4","last_reported":1741165842,"current_range_meters":4800,"station_id":"ce4bhmp2rcd13ifvqgog","pricing_plan_id":"cebpf4jnsgd1na2vs0mg"},{"bike_id":"b24540ec-f898-4a2a-9ce0-81458401a350","system_id":"levelo_inurba_marseille","lat":43.29381,"lon":5.37837,"is_reserved":false,"is_disabled":false,"rental_uris":{"android":"levelo://app?vid=b24540ec-f898-4a2a-9ce0-81458401a350","ios":"levelo://app?vid=b24540ec-f898-4a2a-9ce0-81458401a350"},"vehicle_type_id":"4","last_reported":1741165842,"current_range_meters":4800,"station_id":"ce4bgjh2rcd13ifvqbf0","pricing_plan_id":"cebpf4jnsgd1na2vs0mg"},{"bike_id":"d69a3829-6254-4964-929b-686a557bf29f","system_id":"levelo_inurba_marseille","lat":43.30523,"lon":5.36718,"is_reserved":false,"is_disabled":false,"rental_uris":{"android":"levelo://app?vid=d69a3829-6254-4964-929b-686a557bf29f","ios":"levelo://app?vid=d69a3829-6254-4964-929b-686a557bf29f"},"vehicle_type_id":"4","last_reported":1741165842,"current_range_meters":5600,"station_id":"ce4bgrp2rcd13ifvqc9g","pricing_plan_id":"cebpf4jnsgd1na2vs0mg"},{"bike_id":"89721c29-6bac-4f2b-8a58-9e1a16f55fe3","system_id":"levelo_inurba_marseille","lat":43.24696,"lon":5.37691,"is_reserved":false,"is_disabled":false,"rental_uris":{"android":"levelo://app?vid=89721c29-6bac-4f2b-8a58-9e1a16f55fe3","ios":"levelo://app?vid=89721c29-6bac-4f2b-8a58-9e1a16f55fe3"},"vehicle_type_id":"4","last_reported":1741165842,"current_range_meters":5600,"station_id":"","pricing_plan_id":"cebpf4jnsgd1na2vs0mg"},{"bike_id":"74c65937-894e-4f4f-8f77-bff3b3be6162","system_id":"levelo_inurba_marseille","lat":43.26232,"lon":5.40457,"is_reserved":false,"is_disabled":false,"rental_uris":{"android":"levelo://app?vid=74c65937-894e-4f4f-8f77-bff3b3be6162","ios":"levelo://app?vid=74c65937-894e-4f4f-8f77-bff3b3be6162"},"vehicle_type_id":"4","last_reported":1741165842,"current_range_meters":5600,"station_id":"ce4bhmh2rcd13ifvqgmg","pricing_plan_id":"cebpf4jnsgd1na2vs0mg"},{"bike_id":"2a727ccc-e7aa-420d-a349-4e24c75381d7","system_id":"levelo_inurba_marseille","lat":43.258991,"lon":5.398947,"is_reserved":false,"is_disabled":false,"rental_uris":{"android":"levelo://app?vid=2a727ccc-e7aa-420d-a349-4e24c75381d7","ios":"levelo://app?vid=2a727ccc-e7aa-420d-a349-4e24c75381d7"},"vehicle_type_id":"4","last_reported":1741165842,"current_range_meters":5600,"station_id":"ce4bhah2rcd13ifvqei0","pricing_plan_id":"cebpf4jnsgd1na2vs0mg"},{"bike_id":"42968b31-c1d3-43ac-af8a-36591fb54cae","system_id":"levelo_inurba_marseille","lat":43.309447,"lon":5.390286,"is_reserved":false,"is_disabled":false,"rental_uris":{"android":"levelo://app?vid=42968b31-c1d3-43ac-af8a-36591fb54cae","ios":"levelo://app?vid=42968b31-c1d3-43ac-af8a-36591fb54cae"},"vehicle_type_id":"4","last_reported":1741165842,"current_range_meters":5600,"station_id":"","pricing_plan_id":"cebpf4jnsgd1na2vs0mg"},{"bike_id":"87f1d084-cd37-42c3-97c1-f5a0183d1fc0","system_id":"levelo_inurba_marseille","lat":43.29269,"lon":5.37609,"is_reserved":false,"is_disabled":false,"rental_uris":{"android":"levelo://app?vid=87f1d084-cd37-42c3-97c1-f5a0183d1fc0","ios":"levelo://app?vid=87f1d084-cd37-42c3-97c1-f5a0183d1fc0"},"vehicle_type_id":"4","last_reported":1741165842,"current_range_meters":5600,"station_id":"ce4bgi12rcd13ifvqb80","pricing_plan_id":"cebpf4jnsgd1na2vs0mg"},{"bike_id":"64953142-7637-42b4-b0d1-c449e63f1db7","system_id":"levelo_inurba_marseille","lat":43.29637,"lon":5.36047,"is_reserved":false,"is_disabled":false,"rental_uris":{"android":"levelo://app?vid=64953142-7637-42b4-b0d1-c449e63f1db7","ios":"levelo://app?vid=64953142-7637-42b4-b0d1-c449e63f1db7"},"vehicle_type_id":"4","last_reported":1741165842,"current_range_meters":5600,"station_id":"","pricing_plan_id":"cebpf4jnsgd1na2vs0mg"},{"bike_id":"4870617a-136d-4b04-9a85-78014d75d2e1","system_id":"levelo_inurba_marseille","lat":43.26689,"lon":5.38279,"is_reserved":false,"is_disabled":false,"rental_uris":{"android":"levelo://app?vid=4870617a-136d-4b04-9a85-78014d75d2e1","ios":"levelo://app?vid=4870617a-136d-4b04-9a85-78014d75d2e1"},"vehicle_type_id":"4","last_reported":1741165842,"current_range_meters":5600,"station_id":"ce4bhg92rcd13ifvqf90","pricing_plan_id":"cebpf4jnsgd1na2vs0mg"},{"bike_id":"a71c9d21-5ca4-4044-86a7-6d0dd55dba73","system_id":"levelo_inurba_marseille","lat":43.32493,"lon":5.36571,"is_reserved":false,"is_disabled":false,"rental_uris":{"android":"levelo://app?vid=a71c9d21-5ca4-4044-86a7-6d0dd55dba73","ios":"levelo://app?vid=a71c9d21-5ca4-4044-86a7-6d0dd55dba73"},"vehicle_type_id":"4","last_reported":1741165842,"current_range_meters":5600,"station_id":"ce4bhs12rcd13ifvqhvg","pricing_plan_id":"cebpf4jnsgd1na2vs0mg"},{"bike_id":"c2595706-1edd-435e-9487-c094a955ec40","system_id":"levelo_inurba_marseille","lat":43.31178,"lon":5.36939,"is_reserved":false,"is_disabled":false,"rental_uris":{"android":"levelo://app?vid=c2595706-1edd-435e-9487-c094a955ec40","ios":"levelo://app?vid=c2595706-1edd-435e-9487-c094a955ec40"},"vehicle_type_id":"4","last_reported":1741165842,"current_range_meters":6000,"station_id":"","pricing_plan_id":"cebpf4jnsgd1na2vs0mg"},{"bike_id":"bf313c6c-cbfb-4437-bb28-3931ab6a80b0","system_id":"levelo_inurba_marseille","lat":43.26559,"lon":5.39011,"is_reserved":false,"is_disabled":false,"rental_uris":{"android":"levelo://app?vid=bf313c6c-cbfb-4437-bb28-3931ab6a80b0","ios":"levelo://app?vid=bf313c6c-cbfb-4437-bb28-3931ab6a80b0"},"vehicle_type_id":"4","last_reported":1741165842,"current_range_meters":6000,"station_id":"ce4bhe12rcd13ifvqf30","pricing_plan_id":"cebpf4jnsgd1na2vs0mg"},{"bike_id":"1ad783c1-b5f7-423d-a30d-96b2ac6c9cd8","system_id":"levelo_inurba_marseille","lat":43.29196,"lon":5.40149,"is_reserved":false,"is_disabled":false,"rental_uris":{"android":"levelo://app?vid=1ad783c1-b5f7-423d-a30d-96b2ac6c9cd8","ios":"levelo://app?vid=1ad783c1-b5f7-423d-a30d-96b2ac6c9cd8"},"vehicle_type_id":"4","last_reported":1741165842,"current_range_meters":6000,"station_id":"","pricing_plan_id":"cebpf4jnsgd1na2vs0mg"},{"bike_id":"4d031821-b90c-420c-be9f-756d9af38822","system_id":"levelo_inurba_marseille","lat":43.27708,"lon":5.40715,"is_reserved":false,"is_disabled":false,"rental_uris":{"android":"levelo://app?vid=4d031821-b90c-420c-be9f-756d9af38822","ios":"levelo://app?vid=4d031821-b90c-420c-be9f-756d9af38822"},"vehicle_type_id":"4","last_reported":1741165842,"current_range_meters":6400,"station_id":"","pricing_plan_id":"cebpf4jnsgd1na2vs0mg"},{"bike_id":"016036b3-3cc0-4b9b-9b5a-da2d4a19e33e","system_id":"levelo_inurba_marseille","lat":43.30948,"lon":5.39043,"is_reserved":false,"is_disabled":false,"rental_uris":{"android":"levelo://app?vid=016036b3-3cc0-4b9b-9b5a-da2d4a19e33e","ios":"levelo://app?vid=016036b3-3cc0-4b9b-9b5a-da2d4a19e33e"},"vehicle_type_id":"4","last_reported":1741165842,"current_range_meters":6400,"station_id":"ce4bgup2rcd13ifvqco0","pricing_plan_id":"cebpf4jnsgd1na2vs0mg"},{"bike_id":"8a7a2607-988e-4f1a-8b1e-c47cb37473b4","system_id":"levelo_inurba_marseille","lat":43.30909,"lon":5.36852,"is_reserved":false,"is_disabled":false,"rental_uris":{"android":"levelo://app?vid=8a7a2607-988e-4f1a-8b1e-c47cb37473b4","ios":"levelo://app?vid=8a7a2607-988e-4f1a-8b1e-c47cb37473b4"},"vehicle_type_id":"4","last_reported":1741165842,"current_range_meters":6400,"station_id":"ce4bgn92rcd13ifvqbvg","pricing_plan_id":"cebpf4jnsgd1na2vs0mg"},{"bike_id":"3b336de7-f142-49c0-9eca-1aacc9a41df6","system_id":"levelo_inurba_marseille","lat":43.30931,"lon":5.36853,"is_reserved":false,"is_disabled":false,"rental_uris":{"android":"levelo://app?vid=3b336de7-f142-49c0-9eca-1aacc9a41df6","ios":"levelo://app?vid=3b336de7-f142-49c0-9eca-1aacc9a41df6"},"vehicle_type_id":"4","last_reported":1741165842,"current_range_meters":6400,"station_id":"ce4bgn92rcd13ifvqbvg","pricing_plan_id":"cebpf4jnsgd1na2vs0mg"},{"bike_id":"2cd7d86d-c192-4817-9578-3c8ec15a95d4","system_id":"levelo_inurba_marseille","lat":43.23145,"lon":5.43716,"is_reserved":false,"is_disabled":false,"rental_uris":{"android":"levelo://app?vid=2cd7d86d-c192-4817-9578-3c8ec15a95d4","ios":"levelo://app?vid=2cd7d86d-c192-4817-9578-3c8ec15a95d4"},"vehicle_type_id":"4","last_reported":1741165842,"current_range_meters":6800,"station_id":"ce4bhmp2rcd13ifvqgog","pricing_plan_id":"cebpf4jnsgd1na2vs0mg"},{"bike_id":"8e83f4d3-dd65-4542-8785-b15b9a5e7357","system_id":"levelo_inurba_marseille","lat":43.25931,"lon":5.40935,"is_reserved":false,"is_disabled":false,"rental_uris":{"android":"levelo://app?vid=8e83f4d3-dd65-4542-8785-b15b9a5e7357","ios":"levelo://app?vid=8e83f4d3-dd65-4542-8785-b15b9a5e7357"},"vehicle_type_id":"4","last_reported":1741165842,"current_range_meters":6800,"station_id":"ce4bhm92rcd13ifvqglg","pricing_plan_id":"cebpf4jnsgd1na2vs0mg"},{"bike_id":"2d3b3c09-42a9-4d38-ad3f-30c0062d2ff1","system_id":"levelo_inurba_marseille","lat":43.258192,"lon":5.394428,"is_reserved":false,"is_disabled":false,"rental_uris":{"android":"levelo://app?vid=2d3b3c09-42a9-4d38-ad3f-30c0062d2ff1","ios":"levelo://app?vid=2d3b3c09-42a9-4d38-ad3f-30c0062d2ff1"},"vehicle_type_id":"4","last_reported":1741165842,"current_range_meters":6800,"station_id":"ce4bhip2rcd13ifvqft0","pricing_plan_id":"cebpf4jnsgd1na2vs0mg"},{"bike_id":"c74551a6-daaf-4dd8-bff3-3963d7a02082","system_id":"levelo_inurba_marseille","lat":43.30157,"lon":5.38078,"is_reserved":false,"is_disabled":true,"rental_uris":{"android":"levelo://app?vid=c74551a6-daaf-4dd8-bff3-3963d7a02082","ios":"levelo://app?vid=c74551a6-daaf-4dd8-bff3-3963d7a02082"},"vehicle_type_id":"4","last_reported":1741165842,"current_range_meters":6800,"station_id":"ce4bgjp2rcd13ifvqbh0","pricing_plan_id":"cebpf4jnsgd1na2vs0mg"},{"bike_id":"098e1208-3091-42bd-9bb4-612148ea4ada","system_id":"levelo_inurba_marseille","lat":43.23341,"lon":5.36034,"is_reserved":false,"is_disabled":false,"rental_uris":{"android":"levelo://app?vid=098e1208-3091-42bd-9bb4-612148ea4ada","ios":"levelo://app?vid=098e1208-3091-42bd-9bb4-612148ea4ada"},"vehicle_type_id":"4","last_reported":1741165842,"current_range_meters":6800,"station_id":"","pricing_plan_id":"cebpf4jnsgd1na2vs0mg"},{"bike_id":"90637203-948d-4c63-8efc-9933b6919ad6","system_id":"levelo_inurba_marseille","lat":43.31361,"lon":5.367,"is_reserved":false,"is_disabled":false,"rental_uris":{"android":"levelo://app?vid=90637203-948d-4c63-8efc-9933b6919ad6","ios":"levelo://app?vid=90637203-948d-4c63-8efc-9933b6919ad6"},"vehicle_type_id":"4","last_reported":1741165842,"current_range_meters":6800,"station_id":"ce4bgr92rcd13ifvqc6g","pricing_plan_id":"cebpf4jnsgd1na2vs0mg"},{"bike_id":"b9f03359-6ec4-42b8-95eb-16479754f0e1","system_id":"levelo_inurba_marseille","lat":43.309,"lon":5.36846,"is_reserved":false,"is_disabled":false,"rental_uris":{"android":"levelo://app?vid=b9f03359-6ec4-42b8-95eb-16479754f0e1","ios":"levelo://app?vid=b9f03359-6ec4-42b8-95eb-16479754f0e1"},"vehicle_type_id":"4","last_reported":1741165842,"current_range_meters":7200,"station_id":"ce4bgn92rcd13ifvqbvg","pricing_plan_id":"cebpf4jnsgd1na2vs0mg"},{"bike_id":"167b6c03-6c66-4892-812f-3307bfd047be","system_id":"levelo_inurba_marseille","lat":43.31699,"lon":5.40469,"is_reserved":false,"is_disabled":false,"rental_uris":{"android":"levelo://app?vid=167b6c03-6c66-4892-812f-3307bfd047be","ios":"levelo://app?vid=167b6c03-6c66-4892-812f-3307bfd047be"},"vehicle_type_id":"4","last_reported":1741165842,"current_range_meters":7200,"station_id":"ce4bh012rcd13ifvqd00","pricing_plan_id":"cebpf4jnsgd1na2vs0mg"},{"bike_id":"a88c142e-d928-4561-88fe-ca6968b4c6c1","system_id":"levelo_inurba_marseille","lat":43.2621,"lon":5.40427,"is_reserved":false,"is_disabled":false,"rental_uris":{"android":"levelo://app?vid=a88c142e-d928-4561-88fe-ca6968b4c6c1","ios":"levelo://app?vid=a88c142e-d928-4561-88fe-ca6968b4c6c1"},"vehicle_type_id":"4","last_reported":1741165842,"current_range_meters":7200,"station_id":"ce4bhmh2rcd13ifvqgmg","pricing_plan_id":"cebpf4jnsgd1na2vs0mg"},{"bike_id":"de229040-7623-4948-b2bf-79c7c7034c5c","system_id":"levelo_inurba_marseille","lat":43.26575,"lon":5.38999,"is_reserved":false,"is_disabled":false,"rental_uris":{"android":"levelo://app?vid=de229040-7623-4948-b2bf-79c7c7034c5c","ios":"levelo://app?vid=de229040-7623-4948-b2bf-79c7c7034c5c"},"vehicle_type_id":"4","last_reported":1741165842,"current_range_meters":7200,"station_id":"ce4bhe12rcd13ifvqf30","pricing_plan_id":"cebpf4jnsgd1na2vs0mg"},{"bike_id":"c1795612-a14f-4104-b866-370031b7e8be","system_id":"levelo_inurba_marseille","lat":43.336,"lon":5.41042,"is_reserved":false,"is_disabled":false,"rental_uris":{"android":"levelo://app?vid=c1795612-a14f-4104-b866-370031b7e8be","ios":"levelo://app?vid=c1795612-a14f-4104-b866-370031b7e8be"},"vehicle_type_id":"4","last_reported":1741165842,"current_range_meters":7200,"station_id":"ce4bhqh2rcd13ifvqhmg","pricing_plan_id":"cebpf4jnsgd1na2vs0mg"},{"bike_id":"4bc22bc8-57d9-4e3e-bbf9-5bb2e57875a0","system_id":"levelo_inurba_marseille","lat":43.27813,"lon":5.40718,"is_reserved":false,"is_disabled":false,"rental_uris":{"android":"levelo://app?vid=4bc22bc8-57d9-4e3e-bbf9-5bb2e57875a0","ios":"levelo://app?vid=4bc22bc8-57d9-4e3e-bbf9-5bb2e57875a0"},"vehicle_type_id":"4","last_reported":1741165842,"current_range_meters":7200,"station_id":"ce4bhnh2rcd13ifvqgtg","pricing_plan_id":"cebpf4jnsgd1na2vs0mg"},{"bike_id":"997217d4-9110-4f1d-bb92-525e0e2d4061","system_id":"levelo_inurba_marseille","lat":43.23159,"lon":5.43704,"is_reserved":false,"is_disabled":false,"rental_uris":{"android":"levelo://app?vid=997217d4-9110-4f1d-bb92-525e0e2d4061","ios":"levelo://app?vid=997217d4-9110-4f1d-bb92-525e0e2d4061"},"vehicle_type_id":"4","last_reported":1741165842,"current_range_meters":7200,"station_id":"ce4bhmp2rcd13ifvqgog","pricing_plan_id":"cebpf4jnsgd1na2vs0mg"},{"bike_id":"00b6801f-5a8f-4166-b167-c45d693b875f","system_id":"levelo_inurba_marseille","lat":43.26954,"lon":5.38643,"is_reserved":false,"is_disabled":false,"rental_uris":{"android":"levelo://app?vid=00b6801f-5a8f-4166-b167-c45d693b875f","ios":"levelo://app?vid=00b6801f-5a8f-4166-b167-c45d693b875f"},"vehicle_type_id":"4","last_reported":1741165842,"current_range_meters":7200,"station_id":"ce4bhh92rcd13ifvqfh0","pricing_plan_id":"cebpf4jnsgd1na2vs0mg"},{"bike_id":"eb9dec53-5aba-479b-909e-6253047e01b5","system_id":"levelo_inurba_marseille","lat":43.30955,"lon":5.39034,"is_reserved":false,"is_disabled":false,"rental_uris":{"android":"levelo://app?vid=eb9dec53-5aba-479b-909e-6253047e01b5","ios":"levelo://app?vid=eb9dec53-5aba-479b-909e-6253047e01b5"},"vehicle_type_id":"4","last_reported":1741165842,"current_range_meters":7200,"station_id":"ce4bgup2rcd13ifvqco0","pricing_plan_id":"cebpf4jnsgd1na2vs0mg"},{"bike_id":"83f26ce6-49cd-4194-bfac-b68a055d3f1e","system_id":"levelo_inurba_marseille","lat":43.295675,"lon":5.375256,"is_reserved":false,"is_disabled":false,"rental_uris":{"android":"levelo://app?vid=83f26ce6-49cd-4194-bfac-b68a055d3f1e","ios":"levelo://app?vid=83f26ce6-49cd-4194-bfac-b68a055d3f1e"},"vehicle_type_id":"4","last_reported":1741165842,"current_range_meters":8000,"station_id":"ce4bgh92rcd13ifvqb50","pricing_plan_id":"cebpf4jnsgd1na2vs0mg"},{"bike_id":"ee1d2ad1-36ca-49dd-a328-f2a9a9994ecb","system_id":"levelo_inurba_marseille","lat":43.31096,"lon":5.38159,"is_reserved":false,"is_disabled":false,"rental_uris":{"android":"levelo://app?vid=ee1d2ad1-36ca-49dd-a328-f2a9a9994ecb","ios":"levelo://app?vid=ee1d2ad1-36ca-49dd-a328-f2a9a9994ecb"},"vehicle_type_id":"4","last_reported":1741165842,"current_range_meters":8000,"station_id":"","pricing_plan_id":"cebpf4jnsgd1na2vs0mg"},{"bike_id":"31aec9b4-bd9e-4231-8539-8388c16cb157","system_id":"levelo_inurba_marseille","lat":43.24173,"lon":5.39722,"is_reserved":false,"is_disabled":false,"rental_uris":{"android":"levelo://app?vid=31aec9b4-bd9e-4231-8539-8388c16cb157","ios":"levelo://app?vid=31aec9b4-bd9e-4231-8539-8388c16cb157"},"vehicle_type_id":"4","last_reported":1741165842,"current_range_meters":8000,"station_id":"ce4bhn12rcd13ifvqgpg","pricing_plan_id":"cebpf4jnsgd1na2vs0mg"},{"bike_id":"f3f8a075-f2ce-49cf-993f-cd20f2d76af8","system_id":"levelo_inurba_marseille","lat":43.26067,"lon":5.39396,"is_reserved":false,"is_disabled":false,"rental_uris":{"android":"levelo://app?vid=f3f8a075-f2ce-49cf-993f-cd20f2d76af8","ios":"levelo://app?vid=f3f8a075-f2ce-49cf-993f-cd20f2d76af8"},"vehicle_type_id":"4","last_reported":1741165842,"current_range_meters":8000,"station_id":"ce4bhh92rcd13ifvqfj0","pricing_plan_id":"cebpf4jnsgd1na2vs0mg"},{"bike_id":"e6a4f953-5895-4fa8-ac31-a0a59838afae","system_id":"levelo_inurba_marseille","lat":43.25948,"lon":5.40948,"is_reserved":false,"is_disabled":false,"rental_uris":{"android":"levelo://app?vid=e6a4f953-5895-4fa8-ac31-a0a59838afae","ios":"levelo://app?vid=e6a4f953-5895-4fa8-ac31-a0a59838afae"},"vehicle_type_id":"4","last_reported":1741165842,"current_range_meters":8000,"station_id":"ce4bhm92rcd13ifvqglg","pricing_plan_id":"cebpf4jnsgd1na2vs0mg"},{"bike_id":"f89caf14-7c2c-447f-b5e6-d86f458c364e","system_id":"levelo_inurba_marseille","lat":43.2405,"lon":5.37719,"is_reserved":false,"is_disabled":false,"rental_uris":{"android":"levelo://app?vid=f89caf14-7c2c-447f-b5e6-d86f458c364e","ios":"levelo://app?vid=f89caf14-7c2c-447f-b5e6-d86f458c364e"},"vehicle_type_id":"4","last_reported":1741165842,"current_range_meters":8000,"station_id":"ce4bhnp2rcd13ifvqgvg","pricing_plan_id":"cebpf4jnsgd1na2vs0mg"},{"bike_id":"da26748f-c9b8-406a-97da-4e2614f8590a","system_id":"levelo_inurba_marseille","lat":43.282551,"lon":5.350792,"is_reserved":false,"is_disabled":false,"rental_uris":{"android":"levelo://app?vid=da26748f-c9b8-406a-97da-4e2614f8590a","ios":"levelo://app?vid=da26748f-c9b8-406a-97da-4e2614f8590a"},"vehicle_type_id":"4","last_reported":1741165842,"current_range_meters":8000,"station_id":"ce4bhbp2rcd13ifvqerg","pricing_plan_id":"cebpf4jnsgd1na2vs0mg"},{"bike_id":"b8dacfd7-6aa1-4cb2-ac25-dfdf82e53218","system_id":"levelo_inurba_marseille","lat":43.32341,"lon":5.38869,"is_reserved":false,"is_disabled":false,"rental_uris":{"android":"levelo://app?vid=b8dacfd7-6aa1-4cb2-ac25-dfdf82e53218","ios":"levelo://app?vid=b8dacfd7-6aa1-4cb2-ac25-dfdf82e53218"},"vehicle_type_id":"4","last_reported":1741165842,"current_range_meters":8000,"station_id":"ce4bhqp2rcd13ifvqhog","pricing_plan_id":"cebpf4jnsgd1na2vs0mg"},{"bike_id":"641a5b08-86ef-4d02-a208-992a6eb55a4d","system_id":"levelo_inurba_marseille","lat":43.25934,"lon":5.40907,"is_reserved":false,"is_disabled":false,"rental_uris":{"android":"levelo://app?vid=641a5b08-86ef-4d02-a208-992a6eb55a4d","ios":"levelo://app?vid=641a5b08-86ef-4d02-a208-992a6eb55a4d"},"vehicle_type_id":"4","last_reported":1741165842,"current_range_meters":8000,"station_id":"ce4bhm92rcd13ifvqglg","pricing_plan_id":"cebpf4jnsgd1na2vs0mg"},{"bike_id":"7e757512-bae9-4ad0-aec5-105ded7bdfd8","system_id":"levelo_inurba_marseille","lat":43.30477,"lon":5.37987,"is_reserved":false,"is_disabled":false,"rental_uris":{"android":"levelo://app?vid=7e757512-bae9-4ad0-aec5-105ded7bdfd8","ios":"levelo://app?vid=7e757512-bae9-4ad0-aec5-105ded7bdfd8"},"vehicle_type_id":"4","last_reported":1741165842,"current_range_meters":8000,"station_id":"ce4bgup2rcd13ifvqcn0","pricing_plan_id":"cebpf4jnsgd1na2vs0mg"},{"bike_id":"c12ad3b5-5f23-4dd2-a1e5-e99ed8421cf8","system_id":"levelo_inurba_marseille","lat":43.24077,"lon":5.37757,"is_reserved":false,"is_disabled":false,"rental_uris":{"android":"levelo://app?vid=c12ad3b5-5f23-4dd2-a1e5-e99ed8421cf8","ios":"levelo://app?vid=c12ad3b5-5f23-4dd2-a1e5-e99ed8421cf8"},"vehicle_type_id":"4","last_reported":1741165842,"current_range_meters":8000,"station_id":"ce4bhnp2rcd13ifvqgvg","pricing_plan_id":"cebpf4jnsgd1na2vs0mg"},{"bike_id":"21b19842-9ad9-4db0-bc46-3d2827c0069e","system_id":"levelo_inurba_marseille","lat":43.23191,"lon":5.35558,"is_reserved":false,"is_disabled":false,"rental_uris":{"android":"levelo://app?vid=21b19842-9ad9-4db0-bc46-3d2827c0069e","ios":"levelo://app?vid=21b19842-9ad9-4db0-bc46-3d2827c0069e"},"vehicle_type_id":"4","last_reported":1741165842,"current_range_meters":8000,"station_id":"ce4bhu92rcd13ifvqi70","pricing_plan_id":"cebpf4jnsgd1na2vs0mg"},{"bike_id":"acc909e7-3836-42b3-b51d-082940d4d9ec","system_id":"levelo_inurba_marseille","lat":43.26215,"lon":5.40464,"is_reserved":false,"is_disabled":false,"rental_uris":{"android":"levelo://app?vid=acc909e7-3836-42b3-b51d-082940d4d9ec","ios":"levelo://app?vid=acc909e7-3836-42b3-b51d-082940d4d9ec"},"vehicle_type_id":"4","last_reported":1741165842,"current_range_meters":8000,"station_id":"ce4bhmh2rcd13ifvqgmg","pricing_plan_id":"cebpf4jnsgd1na2vs0mg"},{"bike_id":"d812a867-33d9-46a6-96f3-9074eef2894f","system_id":"levelo_inurba_marseille","lat":43.30946,"lon":5.39033,"is_reserved":false,"is_disabled":false,"rental_uris":{"android":"levelo://app?vid=d812a867-33d9-46a6-96f3-9074eef2894f","ios":"levelo://app?vid=d812a867-33d9-46a6-96f3-9074eef2894f"},"vehicle_type_id":"4","last_reported":1741165842,"current_range_meters":8400,"station_id":"ce4bgup2rcd13ifvqco0","pricing_plan_id":"cebpf4jnsgd1na2vs0mg"},{"bike_id":"1e8b499e-85ae-4bbe-b045-b15114bd060b","system_id":"levelo_inurba_marseille","lat":43.29912,"lon":5.37475,"is_reserved":false,"is_disabled":false,"rental_uris":{"android":"levelo://app?vid=1e8b499e-85ae-4bbe-b045-b15114bd060b","ios":"levelo://app?vid=1e8b499e-85ae-4bbe-b045-b15114bd060b"},"vehicle_type_id":"4","last_reported":1741165842,"current_range_meters":8400,"station_id":"ce4bgjh2rcd13ifvqbg0","pricing_plan_id":"cebpf4jnsgd1na2vs0mg"},{"bike_id":"46e12f72-eeeb-40d6-999c-5173345836c9","system_id":"levelo_inurba_marseille","lat":43.2868,"lon":5.38653,"is_reserved":false,"is_disabled":false,"rental_uris":{"android":"levelo://app?vid=46e12f72-eeeb-40d6-999c-5173345836c9","ios":"levelo://app?vid=46e12f72-eeeb-40d6-999c-5173345836c9"},"vehicle_type_id":"4","last_reported":1741165842,"current_range_meters":8400,"station_id":"ce4bh492rcd13ifvqdug","pricing_plan_id":"cebpf4jnsgd1na2vs0mg"},{"bike_id":"41da4b56-604c-4398-a7b9-104be2ad83f3","system_id":"levelo_inurba_marseille","lat":43.23171,"lon":5.43723,"is_reserved":false,"is_disabled":false,"rental_uris":{"android":"levelo://app?vid=41da4b56-604c-4398-a7b9-104be2ad83f3","ios":"levelo://app?vid=41da4b56-604c-4398-a7b9-104be2ad83f3"},"vehicle_type_id":"4","last_reported":1741165842,"current_range_meters":8400,"station_id":"ce4bhmp2rcd13ifvqgog","pricing_plan_id":"cebpf4jnsgd1na2vs0mg"},{"bike_id":"9feb2387-f16e-4d05-820e-01e58b912336","system_id":"levelo_inurba_marseille","lat":43.2417,"lon":5.39737,"is_reserved":false,"is_disabled":false,"rental_uris":{"android":"levelo://app?vid=9feb2387-f16e-4d05-820e-01e58b912336","ios":"levelo://app?vid=9feb2387-f16e-4d05-820e-01e58b912336"},"vehicle_type_id":"4","last_reported":1741165842,"current_range_meters":8400,"station_id":"ce4bhn12rcd13ifvqgpg","pricing_plan_id":"cebpf4jnsgd1na2vs0mg"},{"bike_id":"61120d5a-7619-49d0-b3a2-76580fa5c3d6","system_id":"levelo_inurba_marseille","lat":43.337444,"lon":5.374475,"is_reserved":false,"is_disabled":false,"rental_uris":{"android":"levelo://app?vid=61120d5a-7619-49d0-b3a2-76580fa5c3d6","ios":"levelo://app?vid=61120d5a-7619-49d0-b3a2-76580fa5c3d6"},"vehicle_type_id":"4","last_reported":1741165842,"current_range_meters":8400,"station_id":"","pricing_plan_id":"cebpf4jnsgd1na2vs0mg"},{"bike_id":"68173e8f-cbaf-4aa0-9281-72edad55367c","system_id":"levelo_inurba_marseille","lat":43.28271,"lon":5.35062,"is_reserved":false,"is_disabled":false,"rental_uris":{"android":"levelo://app?vid=68173e8f-cbaf-4aa0-9281-72edad55367c","ios":"levelo://app?vid=68173e8f-cbaf-4aa0-9281-72edad55367c"},"vehicle_type_id":"4","last_reported":1741165842,"current_range_meters":8400,"station_id":"ce4bhbp2rcd13ifvqerg","pricing_plan_id":"cebpf4jnsgd1na2vs0mg"},{"bike_id":"d0297490-db8c-4c8f-93d8-ca976c117f19","system_id":"levelo_inurba_marseille","lat":43.24088,"lon":5.37754,"is_reserved":false,"is_disabled":false,"rental_uris":{"android":"levelo://app?vid=d0297490-db8c-4c8f-93d8-ca976c117f19","ios":"levelo://app?vid=d0297490-db8c-4c8f-93d8-ca976c117f19"},"vehicle_type_id":"4","last_reported":1741165842,"current_range_meters":8400,"station_id":"ce4bhnp2rcd13ifvqgvg","pricing_plan_id":"cebpf4jnsgd1na2vs0mg"},{"bike_id":"4d3844e3-944b-4f31-9615-a2990e4d5d02","system_id":"levelo_inurba_marseille","lat":43.25115,"lon":5.40343,"is_reserved":false,"is_disabled":false,"rental_uris":{"android":"levelo://app?vid=4d3844e3-944b-4f31-9615-a2990e4d5d02","ios":"levelo://app?vid=4d3844e3-944b-4f31-9615-a2990e4d5d02"},"vehicle_type_id":"4","last_reported":1741165842,"current_range_meters":8400,"station_id":"ce4bhlh2rcd13ifvqgig","pricing_plan_id":"cebpf4jnsgd1na2vs0mg"},{"bike_id":"a6e5d009-7b30-4770-933d-1d4d8abeb595","system_id":"levelo_inurba_marseille","lat":43.26685,"lon":5.38277,"is_reserved":false,"is_disabled":false,"rental_uris":{"android":"levelo://app?vid=a6e5d009-7b30-4770-933d-1d4d8abeb595","ios":"levelo://app?vid=a6e5d009-7b30-4770-933d-1d4d8abeb595"},"vehicle_type_id":"4","last_reported":1741165842,"current_range_meters":8400,"station_id":"ce4bhg92rcd13ifvqf90","pricing_plan_id":"cebpf4jnsgd1na2vs0mg"},{"bike_id":"e89e2431-4828-4dd3-b871-651d5ceb703c","system_id":"levelo_inurba_marseille","lat":43.34139,"lon":5.40911,"is_reserved":false,"is_disabled":false,"rental_uris":{"android":"levelo://app?vid=e89e2431-4828-4dd3-b871-651d5ceb703c","ios":"levelo://app?vid=e89e2431-4828-4dd3-b871-651d5ceb703c"},"vehicle_type_id":"4","last_reported":1741165842,"current_range_meters":8400,"station_id":"ce4bhqh2rcd13ifvqhlg","pricing_plan_id":"cebpf4jnsgd1na2vs0mg"},{"bike_id":"b0479589-1011-43d8-ba32-9007c5d086cd","system_id":"levelo_inurba_marseille","lat":43.27495,"lon":5.42458,"is_reserved":false,"is_disabled":false,"rental_uris":{"android":"levelo://app?vid=b0479589-1011-43d8-ba32-9007c5d086cd","ios":"levelo://app?vid=b0479589-1011-43d8-ba32-9007c5d086cd"},"vehicle_type_id":"4","last_reported":1741165842,"current_range_meters":8400,"station_id":"ce4bhn92rcd13ifvqgrg","pricing_plan_id":"cebpf4jnsgd1na2vs0mg"},{"bike_id":"1251622a-c93e-431e-90d0-4106b158ac93","system_id":"levelo_inurba_marseille","lat":43.28423,"lon":5.34986,"is_reserved":false,"is_disabled":false,"rental_uris":{"android":"levelo://app?vid=1251622a-c93e-431e-90d0-4106b158ac93","ios":"levelo://app?vid=1251622a-c93e-431e-90d0-4106b158ac93"},"vehicle_type_id":"4","last_reported":1741165842,"current_range_meters":8400,"station_id":"ce4bhbh2rcd13ifvqepg","pricing_plan_id":"cebpf4jnsgd1na2vs0mg"},{"bike_id":"44a7153b-0fd7-4509-836b-676bbf84fb06","system_id":"levelo_inurba_marseille","lat":43.23191,"lon":5.35565,"is_reserved":false,"is_disabled":false,"rental_uris":{"android":"levelo://app?vid=44a7153b-0fd7-4509-836b-676bbf84fb06","ios":"levelo://app?vid=44a7153b-0fd7-4509-836b-676bbf84fb06"},"vehicle_type_id":"4","last_reported":1741165842,"current_range_meters":8400,"station_id":"ce4bhu92rcd13ifvqi70","pricing_plan_id":"cebpf4jnsgd1na2vs0mg"},{"bike_id":"332abda5-2296-4955-8d29-1593f717e1c9","system_id":"levelo_inurba_marseille","lat":43.27954,"lon":5.41587,"is_reserved":false,"is_disabled":false,"rental_uris":{"android":"levelo://app?vid=332abda5-2296-4955-8d29-1593f717e1c9","ios":"levelo://app?vid=332abda5-2296-4955-8d29-1593f717e1c9"},"vehicle_type_id":"4","last_reported":1741165842,"current_range_meters":8800,"station_id":"","pricing_plan_id":"cebpf4jnsgd1na2vs0mg"},{"bike_id":"0112cf09-ab87-4433-9d60-77fc15ab9126","system_id":"levelo_inurba_marseille","lat":43.27738,"lon":5.39957,"is_reserved":false,"is_disabled":false,"rental_uris":{"android":"levelo://app?vid=0112cf09-ab87-4433-9d60-77fc15ab9126","ios":"levelo://app?vid=0112cf09-ab87-4433-9d60-77fc15ab9126"},"vehicle_type_id":"4","last_reported":1741165842,"current_range_meters":8800,"station_id":"","pricing_plan_id":"cebpf4jnsgd1na2vs0mg"},{"bike_id":"c1fc374e-9788-4744-b476-9c2c2283eed8","system_id":"levelo_inurba_marseille","lat":43.31259,"lon":5.36792,"is_reserved":false,"is_disabled":false,"rental_uris":{"android":"levelo://app?vid=c1fc374e-9788-4744-b476-9c2c2283eed8","ios":"levelo://app?vid=c1fc374e-9788-4744-b476-9c2c2283eed8"},"vehicle_type_id":"4","last_reported":1741165842,"current_range_meters":8800,"station_id":"","pricing_plan_id":"cebpf4jnsgd1na2vs0mg"},{"bike_id":"b721d3d4-585c-48ef-ad9a-0699fc63e094","system_id":"levelo_inurba_marseille","lat":43.30959,"lon":5.39032,"is_reserved":false,"is_disabled":false,"rental_uris":{"android":"levelo://app?vid=b721d3d4-585c-48ef-ad9a-0699fc63e094","ios":"levelo://app?vid=b721d3d4-585c-48ef-ad9a-0699fc63e094"},"vehicle_type_id":"4","last_reported":1741165842,"current_range_meters":8800,"station_id":"ce4bgup2rcd13ifvqco0","pricing_plan_id":"cebpf4jnsgd1na2vs0mg"},{"bike_id":"0596970d-6eb4-4331-8d1d-96c25a649f4a","system_id":"levelo_inurba_marseille","lat":43.286676,"lon":5.363416,"is_reserved":false,"is_disabled":true,"rental_uris":{"android":"levelo://app?vid=0596970d-6eb4-4331-8d1d-96c25a649f4a","ios":"levelo://app?vid=0596970d-6eb4-4331-8d1d-96c25a649f4a"},"vehicle_type_id":"4","last_reported":1741165842,"current_range_meters":8800,"station_id":"ce4bhah2rcd13ifvqej0","pricing_plan_id":"cebpf4jnsgd1na2vs0mg"},{"bike_id":"d5846449-7219-4265-90f9-a2ede6b6465f","system_id":"levelo_inurba_marseille","lat":43.24183,"lon":5.39743,"is_reserved":false,"is_disabled":false,"rental_uris":{"android":"levelo://app?vid=d5846449-7219-4265-90f9-a2ede6b6465f","ios":"levelo://app?vid=d5846449-7219-4265-90f9-a2ede6b6465f"},"vehicle_type_id":"4","last_reported":1741165842,"current_range_meters":8800,"station_id":"ce4bhn12rcd13ifvqgpg","pricing_plan_id":"cebpf4jnsgd1na2vs0mg"},{"bike_id":"0eae4df9-8303-440c-a2ec-a1d990337522","system_id":"levelo_inurba_marseille","lat":43.28735,"lon":5.37938,"is_reserved":false,"is_disabled":false,"rental_uris":{"android":"levelo://app?vid=0eae4df9-8303-440c-a2ec-a1d990337522","ios":"levelo://app?vid=0eae4df9-8303-440c-a2ec-a1d990337522"},"vehicle_type_id":"4","last_reported":1741165842,"current_range_meters":8800,"station_id":"ce4bh9p2rcd13ifvqec0","pricing_plan_id":"cebpf4jnsgd1na2vs0mg"},{"bike_id":"95f142cd-3c21-4ca4-9c05-4a8d9d7dec35","system_id":"levelo_inurba_marseille","lat":43.23192,"lon":5.35555,"is_reserved":false,"is_disabled":false,"rental_uris":{"android":"levelo://app?vid=95f142cd-3c21-4ca4-9c05-4a8d9d7dec35","ios":"levelo://app?vid=95f142cd-3c21-4ca4-9c05-4a8d9d7dec35"},"vehicle_type_id":"4","last_reported":1741165842,"current_range_meters":8800,"station_id":"ce4bhu92rcd13ifvqi70","pricing_plan_id":"cebpf4jnsgd1na2vs0mg"},{"bike_id":"875e8a70-b504-4210-b16b-025f0da5b5e7","system_id":"levelo_inurba_marseille","lat":43.27499,"lon":5.42457,"is_reserved":false,"is_disabled":false,"rental_uris":{"android":"levelo://app?vid=875e8a70-b504-4210-b16b-025f0da5b5e7","ios":"levelo://app?vid=875e8a70-b504-4210-b16b-025f0da5b5e7"},"vehicle_type_id":"4","last_reported":1741165842,"current_range_meters":9200,"station_id":"ce4bhn92rcd13ifvqgrg","pricing_plan_id":"cebpf4jnsgd1na2vs0mg"},{"bike_id":"19fa311d-24d9-4ac7-b5f6-e17a46c9a8e6","system_id":"levelo_inurba_marseille","lat":43.31338,"lon":5.36734,"is_reserved":false,"is_disabled":false,"rental_uris":{"android":"levelo://app?vid=19fa311d-24d9-4ac7-b5f6-e17a46c9a8e6","ios":"levelo://app?vid=19fa311d-24d9-4ac7-b5f6-e17a46c9a8e6"},"vehicle_type_id":"4","last_reported":1741165842,"current_range_meters":9200,"station_id":"ce4bgr92rcd13ifvqc6g","pricing_plan_id":"cebpf4jnsgd1na2vs0mg"},{"bike_id":"de44d09a-d4db-4ce3-a2dd-62f4dc2e96ab","system_id":"levelo_inurba_marseille","lat":43.27513,"lon":5.42467,"is_reserved":false,"is_disabled":false,"rental_uris":{"android":"levelo://app?vid=de44d09a-d4db-4ce3-a2dd-62f4dc2e96ab","ios":"levelo://app?vid=de44d09a-d4db-4ce3-a2dd-62f4dc2e96ab"},"vehicle_type_id":"4","last_reported":1741165842,"current_range_meters":9200,"station_id":"ce4bhn92rcd13ifvqgrg","pricing_plan_id":"cebpf4jnsgd1na2vs0mg"},{"bike_id":"0477b4fd-6a39-4934-a460-ca4248dfdc3e","system_id":"levelo_inurba_marseille","lat":43.32545,"lon":5.4144,"is_reserved":false,"is_disabled":false,"rental_uris":{"android":"levelo://app?vid=0477b4fd-6a39-4934-a460-ca4248dfdc3e","ios":"levelo://app?vid=0477b4fd-6a39-4934-a460-ca4248dfdc3e"},"vehicle_type_id":"4","last_reported":1741165842,"current_range_meters":9200,"station_id":"ce4bhq12rcd13ifvqhhg","pricing_plan_id":"cebpf4jnsgd1na2vs0mg"},{"bike_id":"48ca4e95-acb4-400e-8208-1e7b736cce43","system_id":"levelo_inurba_marseille","lat":43.24181,"lon":5.3973,"is_reserved":false,"is_disabled":false,"rental_uris":{"android":"levelo://app?vid=48ca4e95-acb4-400e-8208-1e7b736cce43","ios":"levelo://app?vid=48ca4e95-acb4-400e-8208-1e7b736cce43"},"vehicle_type_id":"4","last_reported":1741165842,"current_range_meters":9200,"station_id":"ce4bhn12rcd13ifvqgpg","pricing_plan_id":"cebpf4jnsgd1na2vs0mg"},{"bike_id":"c69e1cc5-0899-4738-ab9b-d12f1eee9335","system_id":"levelo_inurba_marseille","lat":43.26532,"lon":5.39016,"is_reserved":false,"is_disabled":false,"rental_uris":{"android":"levelo://app?vid=c69e1cc5-0899-4738-ab9b-d12f1eee9335","ios":"levelo://app?vid=c69e1cc5-0899-4738-ab9b-d12f1eee9335"},"vehicle_type_id":"4","last_reported":1741165842,"current_range_meters":9200,"station_id":"ce4bhe12rcd13ifvqf30","pricing_plan_id":"cebpf4jnsgd1na2vs0mg"},{"bike_id":"a4550b2d-8807-4ff9-9307-d30e6d04b40a","system_id":"levelo_inurba_marseille","lat":43.275,"lon":5.42458,"is_reserved":false,"is_disabled":false,"rental_uris":{"android":"levelo://app?vid=a4550b2d-8807-4ff9-9307-d30e6d04b40a","ios":"levelo://app?vid=a4550b2d-8807-4ff9-9307-d30e6d04b40a"},"vehicle_type_id":"4","last_reported":1741165842,"current_range_meters":9600,"station_id":"ce4bhn92rcd13ifvqgrg","pricing_plan_id":"cebpf4jnsgd1na2vs0mg"},{"bike_id":"ad84434d-20fb-4dcc-8def-077a9f6fa45b","system_id":"levelo_inurba_marseille","lat":43.284076,"lon":5.374998,"is_reserved":false,"is_disabled":true,"rental_uris":{"android":"levelo://app?vid=ad84434d-20fb-4dcc-8def-077a9f6fa45b","ios":"levelo://app?vid=ad84434d-20fb-4dcc-8def-077a9f6fa45b"},"vehicle_type_id":"4","last_reported":1741165842,"current_range_meters":9600,"station_id":"ce4bh412rcd13ifvqds0","pricing_plan_id":"cebpf4jnsgd1na2vs0mg"},{"bike_id":"9d5dc8dc-fafd-479b-a07b-141caa4a8395","system_id":"levelo_inurba_marseille","lat":43.25114,"lon":5.4032,"is_reserved":false,"is_disabled":false,"rental_uris":{"android":"levelo://app?vid=9d5dc8dc-fafd-479b-a07b-141caa4a8395","ios":"levelo://app?vid=9d5dc8dc-fafd-479b-a07b-141caa4a8395"},"vehicle_type_id":"4","last_reported":1741165842,"current_range_meters":9600,"station_id":"ce4bhlh2rcd13ifvqgig","pricing_plan_id":"cebpf4jnsgd1na2vs0mg"},{"bike_id":"c4545528-4b14-4956-8f84-da0302ced2af","system_id":"levelo_inurba_marseille","lat":43.25961,"lon":5.40896,"is_reserved":false,"is_disabled":false,"rental_uris":{"android":"levelo://app?vid=c4545528-4b14-4956-8f84-da0302ced2af","ios":"levelo://app?vid=c4545528-4b14-4956-8f84-da0302ced2af"},"vehicle_type_id":"4","last_reported":1741165842,"current_range_meters":9600,"station_id":"ce4bhm92rcd13ifvqglg","pricing_plan_id":"cebpf4jnsgd1na2vs0mg"},{"bike_id":"61902cc2-4fdb-4018-ba43-d467f4eb0d30","system_id":"levelo_inurba_marseille","lat":43.297011,"lon":5.365895,"is_reserved":false,"is_disabled":false,"rental_uris":{"android":"levelo://app?vid=61902cc2-4fdb-4018-ba43-d467f4eb0d30","ios":"levelo://app?vid=61902cc2-4fdb-4018-ba43-d467f4eb0d30"},"vehicle_type_id":"4","last_reported":1741165842,"current_range_meters":9200,"station_id":"ce4bh612rcd13ifvqe6g","pricing_plan_id":"cebpf4jnsgd1na2vs0mg"},{"bike_id":"8e2d32d4-d868-46d5-86a0-1ff3fdd4ed25","system_id":"levelo_inurba_marseille","lat":43.29926,"lon":5.37472,"is_reserved":false,"is_disabled":false,"rental_uris":{"android":"levelo://app?vid=8e2d32d4-d868-46d5-86a0-1ff3fdd4ed25","ios":"levelo://app?vid=8e2d32d4-d868-46d5-86a0-1ff3fdd4ed25"},"vehicle_type_id":"4","last_reported":1741165842,"current_range_meters":9600,"station_id":"ce4bgjh2rcd13ifvqbg0","pricing_plan_id":"cebpf4jnsgd1na2vs0mg"},{"bike_id":"e24b58cd-1c8e-4e08-8a60-cc65b8817bf3","system_id":"levelo_inurba_marseille","lat":43.30903,"lon":5.36847,"is_reserved":false,"is_disabled":false,"rental_uris":{"android":"levelo://app?vid=e24b58cd-1c8e-4e08-8a60-cc65b8817bf3","ios":"levelo://app?vid=e24b58cd-1c8e-4e08-8a60-cc65b8817bf3"},"vehicle_type_id":"4","last_reported":1741165842,"current_range_meters":9600,"station_id":"ce4bgn92rcd13ifvqbvg","pricing_plan_id":"cebpf4jnsgd1na2vs0mg"},{"bike_id":"51f6f578-8898-487a-9da7-ff3d6d379d1b","system_id":"levelo_inurba_marseille","lat":43.32102,"lon":5.36777,"is_reserved":false,"is_disabled":false,"rental_uris":{"android":"levelo://app?vid=51f6f578-8898-487a-9da7-ff3d6d379d1b","ios":"levelo://app?vid=51f6f578-8898-487a-9da7-ff3d6d379d1b"},"vehicle_type_id":"4","last_reported":1741165842,"current_range_meters":9600,"station_id":"ce4bhrh2rcd13ifvqhug","pricing_plan_id":"cebpf4jnsgd1na2vs0mg"},{"bike_id":"4c0e314a-87e2-48f0-a7b0-ec6605046de8","system_id":"levelo_inurba_marseille","lat":43.32093,"lon":5.36806,"is_reserved":false,"is_disabled":false,"rental_uris":{"android":"levelo://app?vid=4c0e314a-87e2-48f0-a7b0-ec6605046de8","ios":"levelo://app?vid=4c0e314a-87e2-48f0-a7b0-ec6605046de8"},"vehicle_type_id":"4","last_reported":1741165842,"current_range_meters":9600,"station_id":"ce4bhrh2rcd13ifvqhug","pricing_plan_id":"cebpf4jnsgd1na2vs0mg"},{"bike_id":"7d18879d-8533-470c-88d8-9b2f62ba76ff","system_id":"levelo_inurba_marseille","lat":43.293701,"lon":5.378464,"is_reserved":false,"is_disabled":false,"rental_uris":{"android":"levelo://app?vid=7d18879d-8533-470c-88d8-9b2f62ba76ff","ios":"levelo://app?vid=7d18879d-8533-470c-88d8-9b2f62ba76ff"},"vehicle_type_id":"4","last_reported":1741165842,"current_range_meters":9600,"station_id":"ce4bgjh2rcd13ifvqbf0","pricing_plan_id":"cebpf4jnsgd1na2vs0mg"},{"bike_id":"9250a28a-9289-4df0-ba18-f9b6050fcdec","system_id":"levelo_inurba_marseille","lat":43.29921,"lon":5.39237,"is_reserved":false,"is_disabled":false,"rental_uris":{"android":"levelo://app?vid=9250a28a-9289-4df0-ba18-f9b6050fcdec","ios":"levelo://app?vid=9250a28a-9289-4df0-ba18-f9b6050fcdec"},"vehicle_type_id":"4","last_reported":1741165842,"current_range_meters":10000,"station_id":"","pricing_plan_id":"cebpf4jnsgd1na2vs0mg"},{"bike_id":"dd55ff76-e79c-4eb2-8662-4aacd8d90bf8","system_id":"levelo_inurba_marseille","lat":43.30159,"lon":5.38105,"is_reserved":false,"is_disabled":true,"rental_uris":{"android":"levelo://app?vid=dd55ff76-e79c-4eb2-8662-4aacd8d90bf8","ios":"levelo://app?vid=dd55ff76-e79c-4eb2-8662-4aacd8d90bf8"},"vehicle_type_id":"4","last_reported":1741165842,"current_range_meters":10000,"station_id":"ce4bgjp2rcd13ifvqbh0","pricing_plan_id":"cebpf4jnsgd1na2vs0mg"},{"bike_id":"895f4c40-8d49-47ad-ac3d-54bc4b80d81c","system_id":"levelo_inurba_marseille","lat":43.24382,"lon":5.3707,"is_reserved":false,"is_disabled":false,"rental_uris":{"android":"levelo://app?vid=895f4c40-8d49-47ad-ac3d-54bc4b80d81c","ios":"levelo://app?vid=895f4c40-8d49-47ad-ac3d-54bc4b80d81c"},"vehicle_type_id":"4","last_reported":1741165842,"current_range_meters":10000,"station_id":"ce4bhhh2rcd13ifvqfk0","pricing_plan_id":"cebpf4jnsgd1na2vs0mg"},{"bike_id":"23cfecd0-a918-4543-928a-8cdde5fc5da1","system_id":"levelo_inurba_marseille","lat":43.27486,"lon":5.42448,"is_reserved":false,"is_disabled":false,"rental_uris":{"android":"levelo://app?vid=23cfecd0-a918-4543-928a-8cdde5fc5da1","ios":"levelo://app?vid=23cfecd0-a918-4543-928a-8cdde5fc5da1"},"vehicle_type_id":"4","last_reported":1741165842,"current_range_meters":10000,"station_id":"ce4bhn92rcd13ifvqgrg","pricing_plan_id":"cebpf4jnsgd1na2vs0mg"},{"bike_id":"7e9c80a8-bb5a-4277-9f8d-ea91de7a4b7f","system_id":"levelo_inurba_marseille","lat":43.30125,"lon":5.37391,"is_reserved":false,"is_disabled":false,"rental_uris":{"android":"levelo://app?vid=7e9c80a8-bb5a-4277-9f8d-ea91de7a4b7f","ios":"levelo://app?vid=7e9c80a8-bb5a-4277-9f8d-ea91de7a4b7f"},"vehicle_type_id":"4","last_reported":1741165842,"current_range_meters":10000,"station_id":"ce4bgs92rcd13ifvqcc0","pricing_plan_id":"cebpf4jnsgd1na2vs0mg"},{"bike_id":"3de42499-332f-4f37-855f-942539a949a7","system_id":"levelo_inurba_marseille","lat":43.2977,"lon":5.37141,"is_reserved":false,"is_disabled":false,"rental_uris":{"android":"levelo://app?vid=3de42499-332f-4f37-855f-942539a949a7","ios":"levelo://app?vid=3de42499-332f-4f37-855f-942539a949a7"},"vehicle_type_id":"4","last_reported":1741165842,"current_range_meters":10000,"station_id":"ce4bgop2rcd13ifvqc1g","pricing_plan_id":"cebpf4jnsgd1na2vs0mg"},{"bike_id":"6ea8ab5c-65c2-4db6-8cb6-dfdbe5b30189","system_id":"levelo_inurba_marseille","lat":43.323659,"lon":5.388811,"is_reserved":false,"is_disabled":false,"rental_uris":{"android":"levelo://app?vid=6ea8ab5c-65c2-4db6-8cb6-dfdbe5b30189","ios":"levelo://app?vid=6ea8ab5c-65c2-4db6-8cb6-dfdbe5b30189"},"vehicle_type_id":"4","last_reported":1741165842,"current_range_meters":10000,"station_id":"ce4bhqp2rcd13ifvqhog","pricing_plan_id":"cebpf4jnsgd1na2vs0mg"},{"bike_id":"a47a13a9-c176-4f2b-bca1-9dd7e5a64881","system_id":"levelo_inurba_marseille","lat":43.30926,"lon":5.40161,"is_reserved":false,"is_disabled":true,"rental_uris":{"android":"levelo://app?vid=a47a13a9-c176-4f2b-bca1-9dd7e5a64881","ios":"levelo://app?vid=a47a13a9-c176-4f2b-bca1-9dd7e5a64881"},"vehicle_type_id":"4","last_reported":1741165842,"current_range_meters":10000,"station_id":"ce4bgvp2rcd13ifvqct0","pricing_plan_id":"cebpf4jnsgd1na2vs0mg"},{"bike_id":"da012e55-56aa-4836-97eb-401c7578f569","system_id":"levelo_inurba_marseille","lat":43.25917,"lon":5.40931,"is_reserved":false,"is_disabled":false,"rental_uris":{"android":"levelo://app?vid=da012e55-56aa-4836-97eb-401c7578f569","ios":"levelo://app?vid=da012e55-56aa-4836-97eb-401c7578f569"},"vehicle_type_id":"4","last_reported":1741165842,"current_range_meters":10000,"station_id":"ce4bhm92rcd13ifvqglg","pricing_plan_id":"cebpf4jnsgd1na2vs0mg"},{"bike_id":"d6c9887c-9e25-43dc-abd0-6ba808524258","system_id":"levelo_inurba_marseille","lat":43.2994,"lon":5.36549,"is_reserved":false,"is_disabled":false,"rental_uris":{"android":"levelo://app?vid=d6c9887c-9e25-43dc-abd0-6ba808524258","ios":"levelo://app?vid=d6c9887c-9e25-43dc-abd0-6ba808524258"},"vehicle_type_id":"4","last_reported":1741165842,"current_range_meters":10800,"station_id":"ce4bgm92rcd13ifvqbr0","pricing_plan_id":"cebpf4jnsgd1na2vs0mg"},{"bike_id":"17c04b47-b4f3-4a2a-accd-d5f659a10fa3","system_id":"levelo_inurba_marseille","lat":43.32482,"lon":5.36579,"is_reserved":false,"is_disabled":false,"rental_uris":{"android":"levelo://app?vid=17c04b47-b4f3-4a2a-accd-d5f659a10fa3","ios":"levelo://app?vid=17c04b47-b4f3-4a2a-accd-d5f659a10fa3"},"vehicle_type_id":"4","last_reported":1741165842,"current_range_meters":10800,"station_id":"ce4bhs12rcd13ifvqhvg","pricing_plan_id":"cebpf4jnsgd1na2vs0mg"},{"bike_id":"9664280c-ec19-44a4-9913-206ac50d66b9","system_id":"levelo_inurba_marseille","lat":43.26223,"lon":5.40463,"is_reserved":false,"is_disabled":false,"rental_uris":{"android":"levelo://app?vid=9664280c-ec19-44a4-9913-206ac50d66b9","ios":"levelo://app?vid=9664280c-ec19-44a4-9913-206ac50d66b9"},"vehicle_type_id":"4","last_reported":1741165842,"current_range_meters":10800,"station_id":"ce4bhmh2rcd13ifvqgmg","pricing_plan_id":"cebpf4jnsgd1na2vs0mg"},{"bike_id":"391744a2-abab-4ab2-a32e-38c6ddee882a","system_id":"levelo_inurba_marseille","lat":43.29975,"lon":5.38513,"is_reserved":false,"is_disabled":true,"rental_uris":{"android":"levelo://app?vid=391744a2-abab-4ab2-a32e-38c6ddee882a","ios":"levelo://app?vid=391744a2-abab-4ab2-a32e-38c6ddee882a"},"vehicle_type_id":"4","last_reported":1741165842,"current_range_meters":10800,"station_id":"ce4bgj92rcd13ifvqbd0","pricing_plan_id":"cebpf4jnsgd1na2vs0mg"},{"bike_id":"7cd5e07c-ad2a-4af8-99d9-77c41335ce79","system_id":"levelo_inurba_marseille","lat":43.24168,"lon":5.36394,"is_reserved":false,"is_disabled":false,"rental_uris":{"android":"levelo://app?vid=7cd5e07c-ad2a-4af8-99d9-77c41335ce79","ios":"levelo://app?vid=7cd5e07c-ad2a-4af8-99d9-77c41335ce79"},"vehicle_type_id":"4","last_reported":1741165842,"current_range_meters":10800,"station_id":"cpo36qri1sfpv3e86is0","pricing_plan_id":"cebpf4jnsgd1na2vs0mg"},{"bike_id":"14c59259-6e18-463e-89a9-882e462d731b","system_id":"levelo_inurba_marseille","lat":43.29379,"lon":5.37838,"is_reserved":false,"is_disabled":false,"rental_uris":{"android":"levelo://app?vid=14c59259-6e18-463e-89a9-882e462d731b","ios":"levelo://app?vid=14c59259-6e18-463e-89a9-882e462d731b"},"vehicle_type_id":"4","last_reported":1741165842,"current_range_meters":10800,"station_id":"ce4bgjh2rcd13ifvqbf0","pricing_plan_id":"cebpf4jnsgd1na2vs0mg"},{"bike_id":"d571166c-77a4-4a91-b051-9cc34ad31336","system_id":"levelo_inurba_marseille","lat":43.30182,"lon":5.39364,"is_reserved":false,"is_disabled":false,"rental_uris":{"android":"levelo://app?vid=d571166c-77a4-4a91-b051-9cc34ad31336","ios":"levelo://app?vid=d571166c-77a4-4a91-b051-9cc34ad31336"},"vehicle_type_id":"4","last_reported":1741165842,"current_range_meters":10800,"station_id":"","pricing_plan_id":"cebpf4jnsgd1na2vs0mg"},{"bike_id":"b6876385-fc5a-4087-a597-5f370c0eb97f","system_id":"levelo_inurba_marseille","lat":43.25575,"lon":5.38236,"is_reserved":false,"is_disabled":false,"rental_uris":{"android":"levelo://app?vid=b6876385-fc5a-4087-a597-5f370c0eb97f","ios":"levelo://app?vid=b6876385-fc5a-4087-a597-5f370c0eb97f"},"vehicle_type_id":"4","last_reported":1741165842,"current_range_meters":10800,"station_id":"ce4bhih2rcd13ifvqfs0","pricing_plan_id":"cebpf4jnsgd1na2vs0mg"},{"bike_id":"917bdb19-12b7-45b7-b489-4fc4b0770a58","system_id":"levelo_inurba_marseille","lat":43.30519,"lon":5.36541,"is_reserved":false,"is_disabled":false,"rental_uris":{"android":"levelo://app?vid=917bdb19-12b7-45b7-b489-4fc4b0770a58","ios":"levelo://app?vid=917bdb19-12b7-45b7-b489-4fc4b0770a58"},"vehicle_type_id":"4","last_reported":1741165842,"current_range_meters":10800,"station_id":"ce4bgs12rcd13ifvqcag","pricing_plan_id":"cebpf4jnsgd1na2vs0mg"},{"bike_id":"bf933193-4b31-4e4c-99f9-ee76a4681337","system_id":"levelo_inurba_marseille","lat":43.24079,"lon":5.37742,"is_reserved":false,"is_disabled":false,"rental_uris":{"android":"levelo://app?vid=bf933193-4b31-4e4c-99f9-ee76a4681337","ios":"levelo://app?vid=bf933193-4b31-4e4c-99f9-ee76a4681337"},"vehicle_type_id":"4","last_reported":1741165842,"current_range_meters":10800,"station_id":"ce4bhnp2rcd13ifvqgvg","pricing_plan_id":"cebpf4jnsgd1na2vs0mg"},{"bike_id":"fb6dafce-8f44-4dc1-b03f-f793bb833581","system_id":"levelo_inurba_marseille","lat":43.24035,"lon":5.37806,"is_reserved":false,"is_disabled":false,"rental_uris":{"android":"levelo://app?vid=fb6dafce-8f44-4dc1-b03f-f793bb833581","ios":"levelo://app?vid=fb6dafce-8f44-4dc1-b03f-f793bb833581"},"vehicle_type_id":"4","last_reported":1741165842,"current_range_meters":10800,"station_id":"","pricing_plan_id":"cebpf4jnsgd1na2vs0mg"},{"bike_id":"614d12fb-0b84-40c2-bdcb-73be2e1e4056","system_id":"levelo_inurba_marseille","lat":43.29368,"lon":5.37837,"is_reserved":false,"is_disabled":false,"rental_uris":{"android":"levelo://app?vid=614d12fb-0b84-40c2-bdcb-73be2e1e4056","ios":"levelo://app?vid=614d12fb-0b84-40c2-bdcb-73be2e1e4056"},"vehicle_type_id":"4","last_reported":1741165842,"current_range_meters":10800,"station_id":"ce4bgjh2rcd13ifvqbf0","pricing_plan_id":"cebpf4jnsgd1na2vs0mg"},{"bike_id":"65454335-2b8f-41a7-9a83-ad755de99323","system_id":"levelo_inurba_marseille","lat":43.2481,"lon":5.37454,"is_reserved":false,"is_disabled":false,"rental_uris":{"android":"levelo://app?vid=65454335-2b8f-41a7-9a83-ad755de99323","ios":"levelo://app?vid=65454335-2b8f-41a7-9a83-ad755de99323"},"vehicle_type_id":"4","last_reported":1741165842,"current_range_meters":10800,"station_id":"ce4bhgh2rcd13ifvqfb0","pricing_plan_id":"cebpf4jnsgd1na2vs0mg"},{"bike_id":"a44a860a-849c-4de6-b8fb-98925d13cc22","system_id":"levelo_inurba_marseille","lat":43.29683,"lon":5.37289,"is_reserved":false,"is_disabled":false,"rental_uris":{"android":"levelo://app?vid=a44a860a-849c-4de6-b8fb-98925d13cc22","ios":"levelo://app?vid=a44a860a-849c-4de6-b8fb-98925d13cc22"},"vehicle_type_id":"4","last_reported":1741165842,"current_range_meters":10000,"station_id":"ce4bgk12rcd13ifvqbj0","pricing_plan_id":"cebpf4jnsgd1na2vs0mg"},{"bike_id":"90c60902-47d4-4437-96cb-7ca5e8ebc699","system_id":"levelo_inurba_marseille","lat":43.29392,"lon":5.38589,"is_reserved":false,"is_disabled":false,"rental_uris":{"android":"levelo://app?vid=90c60902-47d4-4437-96cb-7ca5e8ebc699","ios":"levelo://app?vid=90c60902-47d4-4437-96cb-7ca5e8ebc699"},"vehicle_type_id":"4","last_reported":1741165842,"current_range_meters":11200,"station_id":"ce4bh692rcd13ifvqea0","pricing_plan_id":"cebpf4jnsgd1na2vs0mg"},{"bike_id":"c55557ad-1ed5-4997-aee7-ac92107f14b6","system_id":"levelo_inurba_marseille","lat":43.26477,"lon":5.37516,"is_reserved":false,"is_disabled":false,"rental_uris":{"android":"levelo://app?vid=c55557ad-1ed5-4997-aee7-ac92107f14b6","ios":"levelo://app?vid=c55557ad-1ed5-4997-aee7-ac92107f14b6"},"vehicle_type_id":"4","last_reported":1741165842,"current_range_meters":11200,"station_id":"","pricing_plan_id":"cebpf4jnsgd1na2vs0mg"},{"bike_id":"10460c2d-c60a-48a9-88b4-17ea9ade6ecf","system_id":"levelo_inurba_marseille","lat":43.24077,"lon":5.37792,"is_reserved":false,"is_disabled":false,"rental_uris":{"android":"levelo://app?vid=10460c2d-c60a-48a9-88b4-17ea9ade6ecf","ios":"levelo://app?vid=10460c2d-c60a-48a9-88b4-17ea9ade6ecf"},"vehicle_type_id":"4","last_reported":1741165842,"current_range_meters":11200,"station_id":"ce4bhnp2rcd13ifvqgvg","pricing_plan_id":"cebpf4jnsgd1na2vs0mg"},{"bike_id":"b58a6e2d-1523-4019-8984-984a85bdeca3","system_id":"levelo_inurba_marseille","lat":43.30175,"lon":5.37414,"is_reserved":false,"is_disabled":false,"rental_uris":{"android":"levelo://app?vid=b58a6e2d-1523-4019-8984-984a85bdeca3","ios":"levelo://app?vid=b58a6e2d-1523-4019-8984-984a85bdeca3"},"vehicle_type_id":"4","last_reported":1741165842,"current_range_meters":11200,"station_id":"ce4bgs92rcd13ifvqcc0","pricing_plan_id":"cebpf4jnsgd1na2vs0mg"},{"bike_id":"e3d7bc68-e1c3-463f-8323-6b168c27cfde","system_id":"levelo_inurba_marseille","lat":43.23147,"lon":5.43723,"is_reserved":false,"is_disabled":false,"rental_uris":{"android":"levelo://app?vid=e3d7bc68-e1c3-463f-8323-6b168c27cfde","ios":"levelo://app?vid=e3d7bc68-e1c3-463f-8323-6b168c27cfde"},"vehicle_type_id":"4","last_reported":1741165842,"current_range_meters":11200,"station_id":"ce4bhmp2rcd13ifvqgog","pricing_plan_id":"cebpf4jnsgd1na2vs0mg"},{"bike_id":"13cc4aae-49e8-44f7-bfab-719bb6820256","system_id":"levelo_inurba_marseille","lat":43.27811,"lon":5.40718,"is_reserved":false,"is_disabled":false,"rental_uris":{"android":"levelo://app?vid=13cc4aae-49e8-44f7-bfab-719bb6820256","ios":"levelo://app?vid=13cc4aae-49e8-44f7-bfab-719bb6820256"},"vehicle_type_id":"4","last_reported":1741165842,"current_range_meters":10800,"station_id":"ce4bhnh2rcd13ifvqgtg","pricing_plan_id":"cebpf4jnsgd1na2vs0mg"},{"bike_id":"03d5bd23-db2c-4a3d-9573-a1403447f741","system_id":"levelo_inurba_marseille","lat":43.27809,"lon":5.40718,"is_reserved":false,"is_disabled":false,"rental_uris":{"android":"levelo://app?vid=03d5bd23-db2c-4a3d-9573-a1403447f741","ios":"levelo://app?vid=03d5bd23-db2c-4a3d-9573-a1403447f741"},"vehicle_type_id":"4","last_reported":1741165842,"current_range_meters":11200,"station_id":"ce4bhnh2rcd13ifvqgtg","pricing_plan_id":"cebpf4jnsgd1na2vs0mg"},{"bike_id":"3b219114-afa7-412a-84e6-60bc704150c0","system_id":"levelo_inurba_marseille","lat":43.23151,"lon":5.43702,"is_reserved":false,"is_disabled":false,"rental_uris":{"android":"levelo://app?vid=3b219114-afa7-412a-84e6-60bc704150c0","ios":"levelo://app?vid=3b219114-afa7-412a-84e6-60bc704150c0"},"vehicle_type_id":"4","last_reported":1741165842,"current_range_meters":11200,"station_id":"ce4bhmp2rcd13ifvqgog","pricing_plan_id":"cebpf4jnsgd1na2vs0mg"},{"bike_id":"e0e1d903-53d1-434c-9acd-0132349fb87e","system_id":"levelo_inurba_marseille","lat":43.23154,"lon":5.43723,"is_reserved":false,"is_disabled":false,"rental_uris":{"android":"levelo://app?vid=e0e1d903-53d1-434c-9acd-0132349fb87e","ios":"levelo://app?vid=e0e1d903-53d1-434c-9acd-0132349fb87e"},"vehicle_type_id":"4","last_reported":1741165842,"current_range_meters":11200,"station_id":"ce4bhmp2rcd13ifvqgog","pricing_plan_id":"cebpf4jnsgd1na2vs0mg"},{"bike_id":"3a596ab9-9103-4f48-9700-a5a62e1fc109","system_id":"levelo_inurba_marseille","lat":43.3361,"lon":5.41009,"is_reserved":false,"is_disabled":false,"rental_uris":{"android":"levelo://app?vid=3a596ab9-9103-4f48-9700-a5a62e1fc109","ios":"levelo://app?vid=3a596ab9-9103-4f48-9700-a5a62e1fc109"},"vehicle_type_id":"4","last_reported":1741165842,"current_range_meters":11200,"station_id":"ce4bhqh2rcd13ifvqhmg","pricing_plan_id":"cebpf4jnsgd1na2vs0mg"},{"bike_id":"888881c8-b267-49a5-9b99-6f5a2936c0d6","system_id":"levelo_inurba_marseille","lat":43.30315,"lon":5.36894,"is_reserved":false,"is_disabled":false,"rental_uris":{"android":"levelo://app?vid=888881c8-b267-49a5-9b99-6f5a2936c0d6","ios":"levelo://app?vid=888881c8-b267-49a5-9b99-6f5a2936c0d6"},"vehicle_type_id":"4","last_reported":1741165842,"current_range_meters":11200,"station_id":"ce4bgqh2rcd13ifvqc5g","pricing_plan_id":"cebpf4jnsgd1na2vs0mg"},{"bike_id":"96794ea4-770a-4927-923a-493e9670ecf8","system_id":"levelo_inurba_marseille","lat":43.28425,"lon":5.34978,"is_reserved":false,"is_disabled":false,"rental_uris":{"android":"levelo://app?vid=96794ea4-770a-4927-923a-493e9670ecf8","ios":"levelo://app?vid=96794ea4-770a-4927-923a-493e9670ecf8"},"vehicle_type_id":"4","last_reported":1741165842,"current_range_meters":11600,"station_id":"ce4bhbh2rcd13ifvqepg","pricing_plan_id":"cebpf4jnsgd1na2vs0mg"},{"bike_id":"e147a6d0-e38e-41ed-9620-b5ceb546b3f6","system_id":"levelo_inurba_marseille","lat":43.27455,"lon":5.42478,"is_reserved":false,"is_disabled":false,"rental_uris":{"android":"levelo://app?vid=e147a6d0-e38e-41ed-9620-b5ceb546b3f6","ios":"levelo://app?vid=e147a6d0-e38e-41ed-9620-b5ceb546b3f6"},"vehicle_type_id":"4","last_reported":1741165842,"current_range_meters":11600,"station_id":"ce4bhn92rcd13ifvqgrg","pricing_plan_id":"cebpf4jnsgd1na2vs0mg"},{"bike_id":"454d138d-99fe-4fbe-a8b4-67e5d78c0399","system_id":"levelo_inurba_marseille","lat":43.30461,"lon":5.37908,"is_reserved":false,"is_disabled":false,"rental_uris":{"android":"levelo://app?vid=454d138d-99fe-4fbe-a8b4-67e5d78c0399","ios":"levelo://app?vid=454d138d-99fe-4fbe-a8b4-67e5d78c0399"},"vehicle_type_id":"4","last_reported":1741165842,"current_range_meters":11600,"station_id":"ce4bgup2rcd13ifvqcn0","pricing_plan_id":"cebpf4jnsgd1na2vs0mg"},{"bike_id":"453d60b5-51d8-4c59-8095-b01e39fc98d0","system_id":"levelo_inurba_marseille","lat":43.27374,"lon":5.36253,"is_reserved":false,"is_disabled":false,"rental_uris":{"android":"levelo://app?vid=453d60b5-51d8-4c59-8095-b01e39fc98d0","ios":"levelo://app?vid=453d60b5-51d8-4c59-8095-b01e39fc98d0"},"vehicle_type_id":"4","last_reported":1741165842,"current_range_meters":11200,"station_id":"ce4bhbh2rcd13ifvqeo0","pricing_plan_id":"cebpf4jnsgd1na2vs0mg"},{"bike_id":"77330034-0a97-4833-9555-95e2b397eb86","system_id":"levelo_inurba_marseille","lat":43.24081,"lon":5.37755,"is_reserved":false,"is_disabled":false,"rental_uris":{"android":"levelo://app?vid=77330034-0a97-4833-9555-95e2b397eb86","ios":"levelo://app?vid=77330034-0a97-4833-9555-95e2b397eb86"},"vehicle_type_id":"4","last_reported":1741165842,"current_range_meters":12000,"station_id":"ce4bhnp2rcd13ifvqgvg","pricing_plan_id":"cebpf4jnsgd1na2vs0mg"},{"bike_id":"18df62d8-8796-4792-a0ff-c530baddde1e","system_id":"levelo_inurba_marseille","lat":43.24072,"lon":5.37758,"is_reserved":false,"is_disabled":false,"rental_uris":{"android":"levelo://app?vid=18df62d8-8796-4792-a0ff-c530baddde1e","ios":"levelo://app?vid=18df62d8-8796-4792-a0ff-c530baddde1e"},"vehicle_type_id":"4","last_reported":1741165842,"current_range_meters":12000,"station_id":"ce4bhnp2rcd13ifvqgvg","pricing_plan_id":"cebpf4jnsgd1na2vs0mg"},{"bike_id":"d7291f5f-465c-4247-b0c7-f975356a2eae","system_id":"levelo_inurba_marseille","lat":43.29263,"lon":5.4017,"is_reserved":false,"is_disabled":false,"rental_uris":{"android":"levelo://app?vid=d7291f5f-465c-4247-b0c7-f975356a2eae","ios":"levelo://app?vid=d7291f5f-465c-4247-b0c7-f975356a2eae"},"vehicle_type_id":"4","last_reported":1741165842,"current_range_meters":12000,"station_id":"ce4bh312rcd13ifvqdk0","pricing_plan_id":"cebpf4jnsgd1na2vs0mg"},{"bike_id":"4e099002-469e-40dd-a988-90ba29d19792","system_id":"levelo_inurba_marseille","lat":43.245454,"lon":5.395319,"is_reserved":false,"is_disabled":false,"rental_uris":{"android":"levelo://app?vid=4e099002-469e-40dd-a988-90ba29d19792","ios":"levelo://app?vid=4e099002-469e-40dd-a988-90ba29d19792"},"vehicle_type_id":"4","last_reported":1741165842,"current_range_meters":12000,"station_id":"ce4bhlp2rcd13ifvqgjg","pricing_plan_id":"cebpf4jnsgd1na2vs0mg"},{"bike_id":"d39260e1-62ae-4547-af60-ede049a4b8c6","system_id":"levelo_inurba_marseille","lat":43.30478,"lon":5.37908,"is_reserved":false,"is_disabled":false,"rental_uris":{"android":"levelo://app?vid=d39260e1-62ae-4547-af60-ede049a4b8c6","ios":"levelo://app?vid=d39260e1-62ae-4547-af60-ede049a4b8c6"},"vehicle_type_id":"4","last_reported":1741165842,"current_range_meters":12000,"station_id":"ce4bgup2rcd13ifvqcn0","pricing_plan_id":"cebpf4jnsgd1na2vs0mg"},{"bike_id":"4b37ce1f-b43f-429e-a19c-b8c9e00f65d3","system_id":"levelo_inurba_marseille","lat":43.24087,"lon":5.37796,"is_reserved":false,"is_disabled":false,"rental_uris":{"android":"levelo://app?vid=4b37ce1f-b43f-429e-a19c-b8c9e00f65d3","ios":"levelo://app?vid=4b37ce1f-b43f-429e-a19c-b8c9e00f65d3"},"vehicle_type_id":"4","last_reported":1741165842,"current_range_meters":12400,"station_id":"ce4bhnp2rcd13ifvqgvg","pricing_plan_id":"cebpf4jnsgd1na2vs0mg"},{"bike_id":"a779ad18-ca56-4d89-afc4-19b5aa3f1bbf","system_id":"levelo_inurba_marseille","lat":43.23964,"lon":5.36636,"is_reserved":false,"is_disabled":false,"rental_uris":{"android":"levelo://app?vid=a779ad18-ca56-4d89-afc4-19b5aa3f1bbf","ios":"levelo://app?vid=a779ad18-ca56-4d89-afc4-19b5aa3f1bbf"},"vehicle_type_id":"4","last_reported":1741165842,"current_range_meters":12800,"station_id":"ce4bhi12rcd13ifvqfp0","pricing_plan_id":"cebpf4jnsgd1na2vs0mg"},{"bike_id":"7af97423-5e21-41b0-a144-0f91ab7787c9","system_id":"levelo_inurba_marseille","lat":43.30269,"lon":5.37696,"is_reserved":false,"is_disabled":false,"rental_uris":{"android":"levelo://app?vid=7af97423-5e21-41b0-a144-0f91ab7787c9","ios":"levelo://app?vid=7af97423-5e21-41b0-a144-0f91ab7787c9"},"vehicle_type_id":"4","last_reported":1741165842,"current_range_meters":12800,"station_id":"ce4bguh2rcd13ifvqcj0","pricing_plan_id":"cebpf4jnsgd1na2vs0mg"},{"bike_id":"82d21fc7-a101-418f-9655-2b3c943bcdd1","system_id":"levelo_inurba_marseille","lat":43.33733,"lon":5.39188,"is_reserved":false,"is_disabled":false,"rental_uris":{"android":"levelo://app?vid=82d21fc7-a101-418f-9655-2b3c943bcdd1","ios":"levelo://app?vid=82d21fc7-a101-418f-9655-2b3c943bcdd1"},"vehicle_type_id":"4","last_reported":1741165842,"current_range_meters":12800,"station_id":"ce4bhr92rcd13ifvqhsg","pricing_plan_id":"cebpf4jnsgd1na2vs0mg"},{"bike_id":"65eca687-68d5-4246-98e3-a514f2396bc6","system_id":"levelo_inurba_marseille","lat":43.27488,"lon":5.42472,"is_reserved":false,"is_disabled":false,"rental_uris":{"android":"levelo://app?vid=65eca687-68d5-4246-98e3-a514f2396bc6","ios":"levelo://app?vid=65eca687-68d5-4246-98e3-a514f2396bc6"},"vehicle_type_id":"4","last_reported":1741165842,"current_range_meters":12800,"station_id":"ce4bhn92rcd13ifvqgrg","pricing_plan_id":"cebpf4jnsgd1na2vs0mg"},{"bike_id":"dbb8e8a1-bc5d-46e6-bd6d-49c4ae8c1377","system_id":"levelo_inurba_marseille","lat":43.288638,"lon":5.378804,"is_reserved":false,"is_disabled":false,"rental_uris":{"android":"levelo://app?vid=dbb8e8a1-bc5d-46e6-bd6d-49c4ae8c1377","ios":"levelo://app?vid=dbb8e8a1-bc5d-46e6-bd6d-49c4ae8c1377"},"vehicle_type_id":"4","last_reported":1741165842,"current_range_meters":12800,"station_id":"ce4bh9p2rcd13ifvqec0","pricing_plan_id":"cebpf4jnsgd1na2vs0mg"},{"bike_id":"88a22b1d-d9d1-4f92-ba32-0732f4e154bc","system_id":"levelo_inurba_marseille","lat":43.23153,"lon":5.43714,"is_reserved":false,"is_disabled":false,"rental_uris":{"android":"levelo://app?vid=88a22b1d-d9d1-4f92-ba32-0732f4e154bc","ios":"levelo://app?vid=88a22b1d-d9d1-4f92-ba32-0732f4e154bc"},"vehicle_type_id":"4","last_reported":1741165842,"current_range_meters":12800,"station_id":"ce4bhmp2rcd13ifvqgog","pricing_plan_id":"cebpf4jnsgd1na2vs0mg"},{"bike_id":"6e84c621-8902-4e7b-8669-87f4a2198f67","system_id":"levelo_inurba_marseille","lat":43.31751,"lon":5.39016,"is_reserved":false,"is_disabled":false,"rental_uris":{"android":"levelo://app?vid=6e84c621-8902-4e7b-8669-87f4a2198f67","ios":"levelo://app?vid=6e84c621-8902-4e7b-8669-87f4a2198f67"},"vehicle_type_id":"4","last_reported":1741165842,"current_range_meters":12400,"station_id":"ce4bhqp2rcd13ifvqhng","pricing_plan_id":"cebpf4jnsgd1na2vs0mg"},{"bike_id":"330426bc-0af9-4c3e-8e4c-6ec10833df11","system_id":"levelo_inurba_marseille","lat":43.29905,"lon":5.43683,"is_reserved":false,"is_disabled":false,"rental_uris":{"android":"levelo://app?vid=330426bc-0af9-4c3e-8e4c-6ec10833df11","ios":"levelo://app?vid=330426bc-0af9-4c3e-8e4c-6ec10833df11"},"vehicle_type_id":"4","last_reported":1741165842,"current_range_meters":12800,"station_id":"ce4bhpp2rcd13ifvqhfg","pricing_plan_id":"cebpf4jnsgd1na2vs0mg"},{"bike_id":"e49e5b88-f9bc-4974-b322-3316d9414f0c","system_id":"levelo_inurba_marseille","lat":43.3096,"lon":5.39036,"is_reserved":false,"is_disabled":false,"rental_uris":{"android":"levelo://app?vid=e49e5b88-f9bc-4974-b322-3316d9414f0c","ios":"levelo://app?vid=e49e5b88-f9bc-4974-b322-3316d9414f0c"},"vehicle_type_id":"4","last_reported":1741165842,"current_range_meters":13600,"station_id":"ce4bgup2rcd13ifvqco0","pricing_plan_id":"cebpf4jnsgd1na2vs0mg"},{"bike_id":"8e67c6c2-1f86-420e-855b-676e159ed831","system_id":"levelo_inurba_marseille","lat":43.23066,"lon":5.35496,"is_reserved":false,"is_disabled":false,"rental_uris":{"android":"levelo://app?vid=8e67c6c2-1f86-420e-855b-676e159ed831","ios":"levelo://app?vid=8e67c6c2-1f86-420e-855b-676e159ed831"},"vehicle_type_id":"4","last_reported":1741165842,"current_range_meters":13600,"station_id":"cpo3342slgdg3j2ifvpg","pricing_plan_id":"cebpf4jnsgd1na2vs0mg"},{"bike_id":"9cbb5914-3ce0-45a9-bfe4-895657d5f46f","system_id":"levelo_inurba_marseille","lat":43.23188,"lon":5.35569,"is_reserved":false,"is_disabled":false,"rental_uris":{"android":"levelo://app?vid=9cbb5914-3ce0-45a9-bfe4-895657d5f46f","ios":"levelo://app?vid=9cbb5914-3ce0-45a9-bfe4-895657d5f46f"},"vehicle_type_id":"4","last_reported":1741165842,"current_range_meters":13600,"station_id":"ce4bhu92rcd13ifvqi70","pricing_plan_id":"cebpf4jnsgd1na2vs0mg"},{"bike_id":"cba6a766-3158-4fdc-849a-5887af830bdc","system_id":"levelo_inurba_marseille","lat":43.29252,"lon":5.38213,"is_reserved":false,"is_disabled":false,"rental_uris":{"android":"levelo://app?vid=cba6a766-3158-4fdc-849a-5887af830bdc","ios":"levelo://app?vid=cba6a766-3158-4fdc-849a-5887af830bdc"},"vehicle_type_id":"4","last_reported":1741165842,"current_range_meters":13600,"station_id":"","pricing_plan_id":"cebpf4jnsgd1na2vs0mg"},{"bike_id":"e8fb3957-55aa-4712-b8af-a6da8b77890f","system_id":"levelo_inurba_marseille","lat":43.30182,"lon":5.38119,"is_reserved":false,"is_disabled":false,"rental_uris":{"android":"levelo://app?vid=e8fb3957-55aa-4712-b8af-a6da8b77890f","ios":"levelo://app?vid=e8fb3957-55aa-4712-b8af-a6da8b77890f"},"vehicle_type_id":"4","last_reported":1741165842,"current_range_meters":14000,"station_id":"","pricing_plan_id":"cebpf4jnsgd1na2vs0mg"},{"bike_id":"6eecd9a2-7f58-4d22-b3d0-d5ddac1cc0a6","system_id":"levelo_inurba_marseille","lat":43.27491,"lon":5.42455,"is_reserved":false,"is_disabled":false,"rental_uris":{"android":"levelo://app?vid=6eecd9a2-7f58-4d22-b3d0-d5ddac1cc0a6","ios":"levelo://app?vid=6eecd9a2-7f58-4d22-b3d0-d5ddac1cc0a6"},"vehicle_type_id":"4","last_reported":1741165842,"current_range_meters":14000,"station_id":"ce4bhn92rcd13ifvqgrg","pricing_plan_id":"cebpf4jnsgd1na2vs0mg"},{"bike_id":"12e18254-b863-444d-8925-63c2865f1afd","system_id":"levelo_inurba_marseille","lat":43.31368,"lon":5.36716,"is_reserved":false,"is_disabled":false,"rental_uris":{"android":"levelo://app?vid=12e18254-b863-444d-8925-63c2865f1afd","ios":"levelo://app?vid=12e18254-b863-444d-8925-63c2865f1afd"},"vehicle_type_id":"4","last_reported":1741165842,"current_range_meters":14000,"station_id":"ce4bgr92rcd13ifvqc6g","pricing_plan_id":"cebpf4jnsgd1na2vs0mg"},{"bike_id":"74b06b1c-8e4c-4c21-92f7-63c47a8f8e20","system_id":"levelo_inurba_marseille","lat":43.25495,"lon":5.37648,"is_reserved":false,"is_disabled":false,"rental_uris":{"android":"levelo://app?vid=74b06b1c-8e4c-4c21-92f7-63c47a8f8e20","ios":"levelo://app?vid=74b06b1c-8e4c-4c21-92f7-63c47a8f8e20"},"vehicle_type_id":"4","last_reported":1741165842,"current_range_meters":14000,"station_id":"ce4bhh12rcd13ifvqff0","pricing_plan_id":"cebpf4jnsgd1na2vs0mg"},{"bike_id":"95a7f661-84a3-41c8-b322-371de73d76ec","system_id":"levelo_inurba_marseille","lat":43.25914,"lon":5.40906,"is_reserved":false,"is_disabled":false,"rental_uris":{"android":"levelo://app?vid=95a7f661-84a3-41c8-b322-371de73d76ec","ios":"levelo://app?vid=95a7f661-84a3-41c8-b322-371de73d76ec"},"vehicle_type_id":"4","last_reported":1741165842,"current_range_meters":14000,"station_id":"ce4bhm92rcd13ifvqglg","pricing_plan_id":"cebpf4jnsgd1na2vs0mg"},{"bike_id":"7e141603-5076-446b-a90d-8e44d6246006","system_id":"levelo_inurba_marseille","lat":43.31241,"lon":5.36883,"is_reserved":false,"is_disabled":false,"rental_uris":{"android":"levelo://app?vid=7e141603-5076-446b-a90d-8e44d6246006","ios":"levelo://app?vid=7e141603-5076-446b-a90d-8e44d6246006"},"vehicle_type_id":"4","last_reported":1741165842,"current_range_meters":14000,"station_id":"ce4bgl92rcd13ifvqbq0","pricing_plan_id":"cebpf4jnsgd1na2vs0mg"},{"bike_id":"c7cd6ff3-7d8f-4e8a-9e5d-84f13b310fda","system_id":"levelo_inurba_marseille","lat":43.30142,"lon":5.37421,"is_reserved":false,"is_disabled":false,"rental_uris":{"android":"levelo://app?vid=c7cd6ff3-7d8f-4e8a-9e5d-84f13b310fda","ios":"levelo://app?vid=c7cd6ff3-7d8f-4e8a-9e5d-84f13b310fda"},"vehicle_type_id":"4","last_reported":1741165842,"current_range_meters":14400,"station_id":"ce4bgs92rcd13ifvqcc0","pricing_plan_id":"cebpf4jnsgd1na2vs0mg"},{"bike_id":"25414228-005a-48f5-8dbb-cb11b5b42c64","system_id":"levelo_inurba_marseille","lat":43.336,"lon":5.41029,"is_reserved":false,"is_disabled":false,"rental_uris":{"android":"levelo://app?vid=25414228-005a-48f5-8dbb-cb11b5b42c64","ios":"levelo://app?vid=25414228-005a-48f5-8dbb-cb11b5b42c64"},"vehicle_type_id":"4","last_reported":1741165842,"current_range_meters":14400,"station_id":"ce4bhqh2rcd13ifvqhmg","pricing_plan_id":"cebpf4jnsgd1na2vs0mg"},{"bike_id":"ee59b3a3-0f87-489f-91b5-15c91569f1b2","system_id":"levelo_inurba_marseille","lat":43.24168,"lon":5.36421,"is_reserved":false,"is_disabled":false,"rental_uris":{"android":"levelo://app?vid=ee59b3a3-0f87-489f-91b5-15c91569f1b2","ios":"levelo://app?vid=ee59b3a3-0f87-489f-91b5-15c91569f1b2"},"vehicle_type_id":"4","last_reported":1741165842,"current_range_meters":14400,"station_id":"cpo36qri1sfpv3e86is0","pricing_plan_id":"cebpf4jnsgd1na2vs0mg"},{"bike_id":"c3a15966-d6db-4a67-a176-541b2fe5f082","system_id":"levelo_inurba_marseille","lat":43.32351,"lon":5.38909,"is_reserved":false,"is_disabled":false,"rental_uris":{"android":"levelo://app?vid=c3a15966-d6db-4a67-a176-541b2fe5f082","ios":"levelo://app?vid=c3a15966-d6db-4a67-a176-541b2fe5f082"},"vehicle_type_id":"4","last_reported":1741165842,"current_range_meters":14400,"station_id":"ce4bhqp2rcd13ifvqhog","pricing_plan_id":"cebpf4jnsgd1na2vs0mg"},{"bike_id":"57ab6eec-d945-4533-879e-2033b4e61116","system_id":"levelo_inurba_marseille","lat":43.28931,"lon":5.36634,"is_reserved":false,"is_disabled":false,"rental_uris":{"android":"levelo://app?vid=57ab6eec-d945-4533-879e-2033b4e61116","ios":"levelo://app?vid=57ab6eec-d945-4533-879e-2033b4e61116"},"vehicle_type_id":"4","last_reported":1741165842,"current_range_meters":14400,"station_id":"ce4bhap2rcd13ifvqek0","pricing_plan_id":"cebpf4jnsgd1na2vs0mg"},{"bike_id":"6417ca70-305f-42a8-b1fe-d4d85a749dae","system_id":"levelo_inurba_marseille","lat":43.30212,"lon":5.39465,"is_reserved":false,"is_disabled":false,"rental_uris":{"android":"levelo://app?vid=6417ca70-305f-42a8-b1fe-d4d85a749dae","ios":"levelo://app?vid=6417ca70-305f-42a8-b1fe-d4d85a749dae"},"vehicle_type_id":"4","last_reported":1741165842,"current_range_meters":14400,"station_id":"ce4bh0p2rcd13ifvqd70","pricing_plan_id":"cebpf4jnsgd1na2vs0mg"},{"bike_id":"37daac2b-b440-4805-b0a3-514ded11a5e0","system_id":"levelo_inurba_marseille","lat":43.3053,"lon":5.36697,"is_reserved":false,"is_disabled":false,"rental_uris":{"android":"levelo://app?vid=37daac2b-b440-4805-b0a3-514ded11a5e0","ios":"levelo://app?vid=37daac2b-b440-4805-b0a3-514ded11a5e0"},"vehicle_type_id":"4","last_reported":1741165842,"current_range_meters":14800,"station_id":"ce4bgrp2rcd13ifvqc9g","pricing_plan_id":"cebpf4jnsgd1na2vs0mg"},{"bike_id":"42854cbc-9ea4-4bb5-b767-b6b08b903392","system_id":"levelo_inurba_marseille","lat":43.30107,"lon":5.39069,"is_reserved":false,"is_disabled":false,"rental_uris":{"android":"levelo://app?vid=42854cbc-9ea4-4bb5-b767-b6b08b903392","ios":"levelo://app?vid=42854cbc-9ea4-4bb5-b767-b6b08b903392"},"vehicle_type_id":"4","last_reported":1741165842,"current_range_meters":15200,"station_id":"ce4bh192rcd13ifvqdb0","pricing_plan_id":"cebpf4jnsgd1na2vs0mg"},{"bike_id":"8a090317-3396-417d-bc9b-22951b4192e3","system_id":"levelo_inurba_marseille","lat":43.30548,"lon":5.36712,"is_reserved":false,"is_disabled":false,"rental_uris":{"android":"levelo://app?vid=8a090317-3396-417d-bc9b-22951b4192e3","ios":"levelo://app?vid=8a090317-3396-417d-bc9b-22951b4192e3"},"vehicle_type_id":"4","last_reported":1741165842,"current_range_meters":15200,"station_id":"ce4bgrp2rcd13ifvqc9g","pricing_plan_id":"cebpf4jnsgd1na2vs0mg"},{"bike_id":"8dd38a39-2451-47be-8027-9c8ce14b8755","system_id":"levelo_inurba_marseille","lat":43.28154,"lon":5.4264,"is_reserved":false,"is_disabled":false,"rental_uris":{"android":"levelo://app?vid=8dd38a39-2451-47be-8027-9c8ce14b8755","ios":"levelo://app?vid=8dd38a39-2451-47be-8027-9c8ce14b8755"},"vehicle_type_id":"4","last_reported":1741165842,"current_range_meters":15200,"station_id":"ce4bhnh2rcd13ifvqgug","pricing_plan_id":"cebpf4jnsgd1na2vs0mg"},{"bike_id":"6b398da2-3a97-4577-b364-a26f612bc685","system_id":"levelo_inurba_marseille","lat":43.24076,"lon":5.37763,"is_reserved":false,"is_disabled":false,"rental_uris":{"android":"levelo://app?vid=6b398da2-3a97-4577-b364-a26f612bc685","ios":"levelo://app?vid=6b398da2-3a97-4577-b364-a26f612bc685"},"vehicle_type_id":"4","last_reported":1741165842,"current_range_meters":15200,"station_id":"ce4bhnp2rcd13ifvqgvg","pricing_plan_id":"cebpf4jnsgd1na2vs0mg"},{"bike_id":"2f7640f0-94b9-4f21-a10f-bb4c80d6de04","system_id":"levelo_inurba_marseille","lat":43.27068,"lon":5.42271,"is_reserved":false,"is_disabled":false,"rental_uris":{"android":"levelo://app?vid=2f7640f0-94b9-4f21-a10f-bb4c80d6de04","ios":"levelo://app?vid=2f7640f0-94b9-4f21-a10f-bb4c80d6de04"},"vehicle_type_id":"4","last_reported":1741165842,"current_range_meters":15200,"station_id":"ce4bhk92rcd13ifvqgb0","pricing_plan_id":"cebpf4jnsgd1na2vs0mg"},{"bike_id":"2f20fe16-3dfa-4f85-9620-feefc22192a9","system_id":"levelo_inurba_marseille","lat":43.24811,"lon":5.37452,"is_reserved":false,"is_disabled":false,"rental_uris":{"android":"levelo://app?vid=2f20fe16-3dfa-4f85-9620-feefc22192a9","ios":"levelo://app?vid=2f20fe16-3dfa-4f85-9620-feefc22192a9"},"vehicle_type_id":"4","last_reported":1741165842,"current_range_meters":16000,"station_id":"ce4bhgh2rcd13ifvqfb0","pricing_plan_id":"cebpf4jnsgd1na2vs0mg"},{"bike_id":"52b19b0a-896e-4508-971e-9b8862ef11d0","system_id":"levelo_inurba_marseille","lat":43.2306,"lon":5.35489,"is_reserved":false,"is_disabled":false,"rental_uris":{"android":"levelo://app?vid=52b19b0a-896e-4508-971e-9b8862ef11d0","ios":"levelo://app?vid=52b19b0a-896e-4508-971e-9b8862ef11d0"},"vehicle_type_id":"4","last_reported":1741165842,"current_range_meters":16000,"station_id":"cpo3342slgdg3j2ifvpg","pricing_plan_id":"cebpf4jnsgd1na2vs0mg"},{"bike_id":"582c2a00-2f0a-4448-b241-804b9569d8ed","system_id":"levelo_inurba_marseille","lat":43.27495,"lon":5.42456,"is_reserved":false,"is_disabled":false,"rental_uris":{"android":"levelo://app?vid=582c2a00-2f0a-4448-b241-804b9569d8ed","ios":"levelo://app?vid=582c2a00-2f0a-4448-b241-804b9569d8ed"},"vehicle_type_id":"4","last_reported":1741165842,"current_range_meters":16000,"station_id":"ce4bhn92rcd13ifvqgrg","pricing_plan_id":"cebpf4jnsgd1na2vs0mg"},{"bike_id":"34b2884b-456c-4db9-810e-745b24a65d05","system_id":"levelo_inurba_marseille","lat":43.30102,"lon":5.39079,"is_reserved":false,"is_disabled":false,"rental_uris":{"android":"levelo://app?vid=34b2884b-456c-4db9-810e-745b24a65d05","ios":"levelo://app?vid=34b2884b-456c-4db9-810e-745b24a65d05"},"vehicle_type_id":"4","last_reported":1741165842,"current_range_meters":16000,"station_id":"ce4bh192rcd13ifvqdb0","pricing_plan_id":"cebpf4jnsgd1na2vs0mg"},{"bike_id":"bb0a1603-ce55-4b65-af01-0b601424247a","system_id":"levelo_inurba_marseille","lat":43.29272,"lon":5.36844,"is_reserved":false,"is_disabled":false,"rental_uris":{"android":"levelo://app?vid=bb0a1603-ce55-4b65-af01-0b601424247a","ios":"levelo://app?vid=bb0a1603-ce55-4b65-af01-0b601424247a"},"vehicle_type_id":"4","last_reported":1741165842,"current_range_meters":16000,"station_id":"ce4bhbp2rcd13ifvqesg","pricing_plan_id":"cebpf4jnsgd1na2vs0mg"},{"bike_id":"e01955a4-91d8-4de2-9c8d-bbb965be7dd3","system_id":"levelo_inurba_marseille","lat":43.29722,"lon":5.39387,"is_reserved":false,"is_disabled":true,"rental_uris":{"android":"levelo://app?vid=e01955a4-91d8-4de2-9c8d-bbb965be7dd3","ios":"levelo://app?vid=e01955a4-91d8-4de2-9c8d-bbb965be7dd3"},"vehicle_type_id":"4","last_reported":1741165842,"current_range_meters":16000,"station_id":"chh1huq6cuj3fo74tm60","pricing_plan_id":"cebpf4jnsgd1na2vs0mg"},{"bike_id":"ba0569e5-d360-46bb-ada9-a8bef8eda250","system_id":"levelo_inurba_marseille","lat":43.30528,"lon":5.36714,"is_reserved":false,"is_disabled":false,"rental_uris":{"android":"levelo://app?vid=ba0569e5-d360-46bb-ada9-a8bef8eda250","ios":"levelo://app?vid=ba0569e5-d360-46bb-ada9-a8bef8eda250"},"vehicle_type_id":"4","last_reported":1741165842,"current_range_meters":16400,"station_id":"ce4bgrp2rcd13ifvqc9g","pricing_plan_id":"cebpf4jnsgd1na2vs0mg"},{"bike_id":"2b1a4716-dd4c-45bc-ac90-54e8dfa344f0","system_id":"levelo_inurba_marseille","lat":43.30965,"lon":5.39039,"is_reserved":false,"is_disabled":false,"rental_uris":{"android":"levelo://app?vid=2b1a4716-dd4c-45bc-ac90-54e8dfa344f0","ios":"levelo://app?vid=2b1a4716-dd4c-45bc-ac90-54e8dfa344f0"},"vehicle_type_id":"4","last_reported":1741165842,"current_range_meters":16400,"station_id":"ce4bgup2rcd13ifvqco0","pricing_plan_id":"cebpf4jnsgd1na2vs0mg"},{"bike_id":"421f6628-7190-4e5b-bb8e-47b7575356f2","system_id":"levelo_inurba_marseille","lat":43.23184,"lon":5.39987,"is_reserved":false,"is_disabled":false,"rental_uris":{"android":"levelo://app?vid=421f6628-7190-4e5b-bb8e-47b7575356f2","ios":"levelo://app?vid=421f6628-7190-4e5b-bb8e-47b7575356f2"},"vehicle_type_id":"4","last_reported":1741165842,"current_range_meters":16000,"station_id":"ce4bhn12rcd13ifvqgqg","pricing_plan_id":"cebpf4jnsgd1na2vs0mg"},{"bike_id":"f12b2439-04d3-462d-97d3-08b6bf3fdd09","system_id":"levelo_inurba_marseille","lat":43.24084,"lon":5.37812,"is_reserved":false,"is_disabled":false,"rental_uris":{"android":"levelo://app?vid=f12b2439-04d3-462d-97d3-08b6bf3fdd09","ios":"levelo://app?vid=f12b2439-04d3-462d-97d3-08b6bf3fdd09"},"vehicle_type_id":"4","last_reported":1741165842,"current_range_meters":16400,"station_id":"ce4bhnp2rcd13ifvqgvg","pricing_plan_id":"cebpf4jnsgd1na2vs0mg"},{"bike_id":"7f1905bf-da4d-4f13-af14-c5d46804e585","system_id":"levelo_inurba_marseille","lat":43.23187,"lon":5.35567,"is_reserved":false,"is_disabled":false,"rental_uris":{"android":"levelo://app?vid=7f1905bf-da4d-4f13-af14-c5d46804e585","ios":"levelo://app?vid=7f1905bf-da4d-4f13-af14-c5d46804e585"},"vehicle_type_id":"4","last_reported":1741165842,"current_range_meters":16400,"station_id":"ce4bhu92rcd13ifvqi70","pricing_plan_id":"cebpf4jnsgd1na2vs0mg"},{"bike_id":"0b3cb245-c1ab-4265-9e03-36f6b9bfa685","system_id":"levelo_inurba_marseille","lat":43.23068,"lon":5.35496,"is_reserved":false,"is_disabled":false,"rental_uris":{"android":"levelo://app?vid=0b3cb245-c1ab-4265-9e03-36f6b9bfa685","ios":"levelo://app?vid=0b3cb245-c1ab-4265-9e03-36f6b9bfa685"},"vehicle_type_id":"4","last_reported":1741165842,"current_range_meters":16400,"station_id":"cpo3342slgdg3j2ifvpg","pricing_plan_id":"cebpf4jnsgd1na2vs0mg"},{"bike_id":"bf568303-5a3c-4313-a68b-7ba74fb87948","system_id":"levelo_inurba_marseille","lat":43.3254,"lon":5.41446,"is_reserved":false,"is_disabled":true,"rental_uris":{"android":"levelo://app?vid=bf568303-5a3c-4313-a68b-7ba74fb87948","ios":"levelo://app?vid=bf568303-5a3c-4313-a68b-7ba74fb87948"},"vehicle_type_id":"4","last_reported":1741165842,"current_range_meters":16400,"station_id":"ce4bhq12rcd13ifvqhhg","pricing_plan_id":"cebpf4jnsgd1na2vs0mg"},{"bike_id":"ba60ddd0-090a-4921-a3fa-f07dc23829f3","system_id":"levelo_inurba_marseille","lat":43.27984,"lon":5.41669,"is_reserved":false,"is_disabled":false,"rental_uris":{"android":"levelo://app?vid=ba60ddd0-090a-4921-a3fa-f07dc23829f3","ios":"levelo://app?vid=ba60ddd0-090a-4921-a3fa-f07dc23829f3"},"vehicle_type_id":"4","last_reported":1741165842,"current_range_meters":16400,"station_id":"ce4bho12rcd13ifvqh1g","pricing_plan_id":"cebpf4jnsgd1na2vs0mg"},{"bike_id":"9cdc0688-b476-4e47-b0c2-48124c4a767c","system_id":"levelo_inurba_marseille","lat":43.2501,"lon":5.3893,"is_reserved":false,"is_disabled":false,"rental_uris":{"android":"levelo://app?vid=9cdc0688-b476-4e47-b0c2-48124c4a767c","ios":"levelo://app?vid=9cdc0688-b476-4e47-b0c2-48124c4a767c"},"vehicle_type_id":"4","last_reported":1741165842,"current_range_meters":16400,"station_id":"ce4bhgp2rcd13ifvqfd0","pricing_plan_id":"cebpf4jnsgd1na2vs0mg"},{"bike_id":"ba9d4a82-0ce6-487f-bc4b-86c56883a8c8","system_id":"levelo_inurba_marseille","lat":43.31219,"lon":5.36861,"is_reserved":false,"is_disabled":false,"rental_uris":{"android":"levelo://app?vid=ba9d4a82-0ce6-487f-bc4b-86c56883a8c8","ios":"levelo://app?vid=ba9d4a82-0ce6-487f-bc4b-86c56883a8c8"},"vehicle_type_id":"4","last_reported":1741165842,"current_range_meters":16800,"station_id":"ce4bgl92rcd13ifvqbq0","pricing_plan_id":"cebpf4jnsgd1na2vs0mg"},{"bike_id":"e5d41598-0b8c-4934-983a-bc2927772685","system_id":"levelo_inurba_marseille","lat":43.30954,"lon":5.39016,"is_reserved":false,"is_disabled":false,"rental_uris":{"android":"levelo://app?vid=e5d41598-0b8c-4934-983a-bc2927772685","ios":"levelo://app?vid=e5d41598-0b8c-4934-983a-bc2927772685"},"vehicle_type_id":"4","last_reported":1741165842,"current_range_meters":16800,"station_id":"ce4bgup2rcd13ifvqco0","pricing_plan_id":"cebpf4jnsgd1na2vs0mg"},{"bike_id":"1d7fd8e9-65af-4686-b682-d44750bf20ae","system_id":"levelo_inurba_marseille","lat":43.2957,"lon":5.37531,"is_reserved":false,"is_disabled":false,"rental_uris":{"android":"levelo://app?vid=1d7fd8e9-65af-4686-b682-d44750bf20ae","ios":"levelo://app?vid=1d7fd8e9-65af-4686-b682-d44750bf20ae"},"vehicle_type_id":"4","last_reported":1741165842,"current_range_meters":16800,"station_id":"ce4bgh92rcd13ifvqb50","pricing_plan_id":"cebpf4jnsgd1na2vs0mg"},{"bike_id":"743ff6c4-52bb-4441-83b1-6b735d48e06f","system_id":"levelo_inurba_marseille","lat":43.30929,"lon":5.36868,"is_reserved":false,"is_disabled":false,"rental_uris":{"android":"levelo://app?vid=743ff6c4-52bb-4441-83b1-6b735d48e06f","ios":"levelo://app?vid=743ff6c4-52bb-4441-83b1-6b735d48e06f"},"vehicle_type_id":"4","last_reported":1741165842,"current_range_meters":16800,"station_id":"ce4bgn92rcd13ifvqbvg","pricing_plan_id":"cebpf4jnsgd1na2vs0mg"},{"bike_id":"c90348af-b6e6-4a12-9fb7-343bb6fb3aee","system_id":"levelo_inurba_marseille","lat":43.30949,"lon":5.39022,"is_reserved":false,"is_disabled":false,"rental_uris":{"android":"levelo://app?vid=c90348af-b6e6-4a12-9fb7-343bb6fb3aee","ios":"levelo://app?vid=c90348af-b6e6-4a12-9fb7-343bb6fb3aee"},"vehicle_type_id":"4","last_reported":1741165842,"current_range_meters":16800,"station_id":"ce4bgup2rcd13ifvqco0","pricing_plan_id":"cebpf4jnsgd1na2vs0mg"},{"bike_id":"c40242ef-c243-471a-a3f5-e67b334e86dc","system_id":"levelo_inurba_marseille","lat":43.27496,"lon":5.42453,"is_reserved":false,"is_disabled":false,"rental_uris":{"android":"levelo://app?vid=c40242ef-c243-471a-a3f5-e67b334e86dc","ios":"levelo://app?vid=c40242ef-c243-471a-a3f5-e67b334e86dc"},"vehicle_type_id":"4","last_reported":1741165842,"current_range_meters":17200,"station_id":"ce4bhn92rcd13ifvqgrg","pricing_plan_id":"cebpf4jnsgd1na2vs0mg"},{"bike_id":"5981e5fd-8ca3-4e17-921d-10437ee17d35","system_id":"levelo_inurba_marseille","lat":43.24171,"lon":5.36392,"is_reserved":false,"is_disabled":false,"rental_uris":{"android":"levelo://app?vid=5981e5fd-8ca3-4e17-921d-10437ee17d35","ios":"levelo://app?vid=5981e5fd-8ca3-4e17-921d-10437ee17d35"},"vehicle_type_id":"4","last_reported":1741165842,"current_range_meters":17200,"station_id":"cpo36qri1sfpv3e86is0","pricing_plan_id":"cebpf4jnsgd1na2vs0mg"},{"bike_id":"ef9d72fc-54ba-481d-841a-0433a295da7a","system_id":"levelo_inurba_marseille","lat":43.32492,"lon":5.36576,"is_reserved":false,"is_disabled":false,"rental_uris":{"android":"levelo://app?vid=ef9d72fc-54ba-481d-841a-0433a295da7a","ios":"levelo://app?vid=ef9d72fc-54ba-481d-841a-0433a295da7a"},"vehicle_type_id":"4","last_reported":1741165842,"current_range_meters":17200,"station_id":"ce4bhs12rcd13ifvqhvg","pricing_plan_id":"cebpf4jnsgd1na2vs0mg"},{"bike_id":"d98f7ee9-826c-49bd-93a3-512b0107c6f0","system_id":"levelo_inurba_marseille","lat":43.29261,"lon":5.38442,"is_reserved":false,"is_disabled":false,"rental_uris":{"android":"levelo://app?vid=d98f7ee9-826c-49bd-93a3-512b0107c6f0","ios":"levelo://app?vid=d98f7ee9-826c-49bd-93a3-512b0107c6f0"},"vehicle_type_id":"4","last_reported":1741165842,"current_range_meters":17200,"station_id":"ce4bh692rcd13ifvqea0","pricing_plan_id":"cebpf4jnsgd1na2vs0mg"},{"bike_id":"6b0cb687-810f-4280-9d9e-1ba36e77b56b","system_id":"levelo_inurba_marseille","lat":43.26227,"lon":5.40444,"is_reserved":false,"is_disabled":false,"rental_uris":{"android":"levelo://app?vid=6b0cb687-810f-4280-9d9e-1ba36e77b56b","ios":"levelo://app?vid=6b0cb687-810f-4280-9d9e-1ba36e77b56b"},"vehicle_type_id":"4","last_reported":1741165842,"current_range_meters":17200,"station_id":"ce4bhmh2rcd13ifvqgmg","pricing_plan_id":"cebpf4jnsgd1na2vs0mg"},{"bike_id":"764d29c0-acc6-4b3d-94e6-686cf2b240dc","system_id":"levelo_inurba_marseille","lat":43.24168,"lon":5.39733,"is_reserved":false,"is_disabled":false,"rental_uris":{"android":"levelo://app?vid=764d29c0-acc6-4b3d-94e6-686cf2b240dc","ios":"levelo://app?vid=764d29c0-acc6-4b3d-94e6-686cf2b240dc"},"vehicle_type_id":"4","last_reported":1741165842,"current_range_meters":17200,"station_id":"ce4bhn12rcd13ifvqgpg","pricing_plan_id":"cebpf4jnsgd1na2vs0mg"},{"bike_id":"339973b4-529b-48d6-9244-4d167868933f","system_id":"levelo_inurba_marseille","lat":43.31498,"lon":5.37304,"is_reserved":false,"is_disabled":false,"rental_uris":{"android":"levelo://app?vid=339973b4-529b-48d6-9244-4d167868933f","ios":"levelo://app?vid=339973b4-529b-48d6-9244-4d167868933f"},"vehicle_type_id":"4","last_reported":1741165842,"current_range_meters":16800,"station_id":"ce4bgt12rcd13ifvqcd0","pricing_plan_id":"cebpf4jnsgd1na2vs0mg"},{"bike_id":"82e701e7-2b31-42fa-8be6-e21ee59f191d","system_id":"levelo_inurba_marseille","lat":43.32533,"lon":5.41445,"is_reserved":false,"is_disabled":false,"rental_uris":{"android":"levelo://app?vid=82e701e7-2b31-42fa-8be6-e21ee59f191d","ios":"levelo://app?vid=82e701e7-2b31-42fa-8be6-e21ee59f191d"},"vehicle_type_id":"4","last_reported":1741165842,"current_range_meters":17600,"station_id":"ce4bhq12rcd13ifvqhhg","pricing_plan_id":"cebpf4jnsgd1na2vs0mg"},{"bike_id":"88a97269-1519-4a4a-93dd-fbb36e8afec0","system_id":"levelo_inurba_marseille","lat":43.23141,"lon":5.43713,"is_reserved":false,"is_disabled":false,"rental_uris":{"android":"levelo://app?vid=88a97269-1519-4a4a-93dd-fbb36e8afec0","ios":"levelo://app?vid=88a97269-1519-4a4a-93dd-fbb36e8afec0"},"vehicle_type_id":"4","last_reported":1741165842,"current_range_meters":17600,"station_id":"ce4bhmp2rcd13ifvqgog","pricing_plan_id":"cebpf4jnsgd1na2vs0mg"},{"bike_id":"a9ce43dc-2293-4368-9cd2-5391b01b1885","system_id":"levelo_inurba_marseille","lat":43.33116,"lon":5.38919,"is_reserved":false,"is_disabled":false,"rental_uris":{"android":"levelo://app?vid=a9ce43dc-2293-4368-9cd2-5391b01b1885","ios":"levelo://app?vid=a9ce43dc-2293-4368-9cd2-5391b01b1885"},"vehicle_type_id":"4","last_reported":1741165842,"current_range_meters":17600,"station_id":"ce4bhr92rcd13ifvqhsg","pricing_plan_id":"cebpf4jnsgd1na2vs0mg"},{"bike_id":"1df93f6d-c72f-4453-89b7-17a4db3cd88e","system_id":"levelo_inurba_marseille","lat":43.2407,"lon":5.37765,"is_reserved":false,"is_disabled":false,"rental_uris":{"android":"levelo://app?vid=1df93f6d-c72f-4453-89b7-17a4db3cd88e","ios":"levelo://app?vid=1df93f6d-c72f-4453-89b7-17a4db3cd88e"},"vehicle_type_id":"4","last_reported":1741165842,"current_range_meters":17600,"station_id":"ce4bhnp2rcd13ifvqgvg","pricing_plan_id":"cebpf4jnsgd1na2vs0mg"},{"bike_id":"1fc717a2-3b61-46b0-b9b8-42ba5f095969","system_id":"levelo_inurba_marseille","lat":43.31159,"lon":5.38734,"is_reserved":false,"is_disabled":false,"rental_uris":{"android":"levelo://app?vid=1fc717a2-3b61-46b0-b9b8-42ba5f095969","ios":"levelo://app?vid=1fc717a2-3b61-46b0-b9b8-42ba5f095969"},"vehicle_type_id":"4","last_reported":1741165842,"current_range_meters":17600,"station_id":"ce4bgv12rcd13ifvqcp0","pricing_plan_id":"cebpf4jnsgd1na2vs0mg"},{"bike_id":"46bfb07b-d0be-4074-a4f8-99b4d2fbaacf","system_id":"levelo_inurba_marseille","lat":43.30933,"lon":5.36848,"is_reserved":false,"is_disabled":false,"rental_uris":{"android":"levelo://app?vid=46bfb07b-d0be-4074-a4f8-99b4d2fbaacf","ios":"levelo://app?vid=46bfb07b-d0be-4074-a4f8-99b4d2fbaacf"},"vehicle_type_id":"4","last_reported":1741165842,"current_range_meters":17600,"station_id":"ce4bgn92rcd13ifvqbvg","pricing_plan_id":"cebpf4jnsgd1na2vs0mg"},{"bike_id":"48dd4a66-c4e0-4334-8dbe-e71a1ce9eb4d","system_id":"levelo_inurba_marseille","lat":43.28077,"lon":5.37848,"is_reserved":false,"is_disabled":false,"rental_uris":{"android":"levelo://app?vid=48dd4a66-c4e0-4334-8dbe-e71a1ce9eb4d","ios":"levelo://app?vid=48dd4a66-c4e0-4334-8dbe-e71a1ce9eb4d"},"vehicle_type_id":"4","last_reported":1741165842,"current_range_meters":17600,"station_id":"ce4bha12rcd13ifvqee0","pricing_plan_id":"cebpf4jnsgd1na2vs0mg"},{"bike_id":"d120d151-f80d-44eb-9f12-dbede584593e","system_id":"levelo_inurba_marseille","lat":43.31164,"lon":5.38729,"is_reserved":false,"is_disabled":false,"rental_uris":{"android":"levelo://app?vid=d120d151-f80d-44eb-9f12-dbede584593e","ios":"levelo://app?vid=d120d151-f80d-44eb-9f12-dbede584593e"},"vehicle_type_id":"4","last_reported":1741165842,"current_range_meters":17600,"station_id":"ce4bgv12rcd13ifvqcp0","pricing_plan_id":"cebpf4jnsgd1na2vs0mg"},{"bike_id":"49d99ffe-a465-4001-8277-7e79ce27dbd1","system_id":"levelo_inurba_marseille","lat":43.30218,"lon":5.39473,"is_reserved":false,"is_disabled":false,"rental_uris":{"android":"levelo://app?vid=49d99ffe-a465-4001-8277-7e79ce27dbd1","ios":"levelo://app?vid=49d99ffe-a465-4001-8277-7e79ce27dbd1"},"vehicle_type_id":"4","last_reported":1741165842,"current_range_meters":17600,"station_id":"ce4bh0p2rcd13ifvqd70","pricing_plan_id":"cebpf4jnsgd1na2vs0mg"},{"bike_id":"9afcea09-b249-460c-be6a-74a807e23e9b","system_id":"levelo_inurba_marseille","lat":43.3135,"lon":5.36718,"is_reserved":false,"is_disabled":false,"rental_uris":{"android":"levelo://app?vid=9afcea09-b249-460c-be6a-74a807e23e9b","ios":"levelo://app?vid=9afcea09-b249-460c-be6a-74a807e23e9b"},"vehicle_type_id":"4","last_reported":1741165842,"current_range_meters":17600,"station_id":"ce4bgr92rcd13ifvqc6g","pricing_plan_id":"cebpf4jnsgd1na2vs0mg"},{"bike_id":"61490806-c3d1-49d8-affc-d46d1f9d07b0","system_id":"levelo_inurba_marseille","lat":43.31347,"lon":5.36725,"is_reserved":false,"is_disabled":false,"rental_uris":{"android":"levelo://app?vid=61490806-c3d1-49d8-affc-d46d1f9d07b0","ios":"levelo://app?vid=61490806-c3d1-49d8-affc-d46d1f9d07b0"},"vehicle_type_id":"4","last_reported":1741165842,"current_range_meters":17600,"station_id":"ce4bgr92rcd13ifvqc6g","pricing_plan_id":"cebpf4jnsgd1na2vs0mg"},{"bike_id":"7ae90a9b-2fe9-41e1-bb8a-df8efba2e2bb","system_id":"levelo_inurba_marseille","lat":43.30953,"lon":5.39032,"is_reserved":false,"is_disabled":false,"rental_uris":{"android":"levelo://app?vid=7ae90a9b-2fe9-41e1-bb8a-df8efba2e2bb","ios":"levelo://app?vid=7ae90a9b-2fe9-41e1-bb8a-df8efba2e2bb"},"vehicle_type_id":"4","last_reported":1741165842,"current_range_meters":17600,"station_id":"ce4bgup2rcd13ifvqco0","pricing_plan_id":"cebpf4jnsgd1na2vs0mg"},{"bike_id":"78b2c575-4f50-4896-adcd-a60e7776e1d3","system_id":"levelo_inurba_marseille","lat":43.29266,"lon":5.38439,"is_reserved":false,"is_disabled":false,"rental_uris":{"android":"levelo://app?vid=78b2c575-4f50-4896-adcd-a60e7776e1d3","ios":"levelo://app?vid=78b2c575-4f50-4896-adcd-a60e7776e1d3"},"vehicle_type_id":"4","last_reported":1741165842,"current_range_meters":18000,"station_id":"ce4bh692rcd13ifvqea0","pricing_plan_id":"cebpf4jnsgd1na2vs0mg"},{"bike_id":"126a4e74-53a2-44a6-977f-126b1ba06888","system_id":"levelo_inurba_marseille","lat":43.29302,"lon":5.37468,"is_reserved":false,"is_disabled":false,"rental_uris":{"android":"levelo://app?vid=126a4e74-53a2-44a6-977f-126b1ba06888","ios":"levelo://app?vid=126a4e74-53a2-44a6-977f-126b1ba06888"},"vehicle_type_id":"4","last_reported":1741165842,"current_range_meters":18000,"station_id":"ce4bgi12rcd13ifvqb70","pricing_plan_id":"cebpf4jnsgd1na2vs0mg"},{"bike_id":"23e781b9-9121-4717-8512-bbc903e83fbd","system_id":"levelo_inurba_marseille","lat":43.33601,"lon":5.41036,"is_reserved":false,"is_disabled":false,"rental_uris":{"android":"levelo://app?vid=23e781b9-9121-4717-8512-bbc903e83fbd","ios":"levelo://app?vid=23e781b9-9121-4717-8512-bbc903e83fbd"},"vehicle_type_id":"4","last_reported":1741165842,"current_range_meters":18000,"station_id":"ce4bhqh2rcd13ifvqhmg","pricing_plan_id":"cebpf4jnsgd1na2vs0mg"},{"bike_id":"4a8edb38-ebab-4060-b5bb-9a06ebd03d8d","system_id":"levelo_inurba_marseille","lat":43.2894,"lon":5.39634,"is_reserved":false,"is_disabled":true,"rental_uris":{"android":"levelo://app?vid=4a8edb38-ebab-4060-b5bb-9a06ebd03d8d","ios":"levelo://app?vid=4a8edb38-ebab-4060-b5bb-9a06ebd03d8d"},"vehicle_type_id":"4","last_reported":1741165842,"current_range_meters":18000,"station_id":"ce4bh3h2rcd13ifvqdn0","pricing_plan_id":"cebpf4jnsgd1na2vs0mg"},{"bike_id":"e1520afc-da0b-43ee-a947-bfc1425d9ac4","system_id":"levelo_inurba_marseille","lat":43.30285,"lon":5.37698,"is_reserved":false,"is_disabled":false,"rental_uris":{"android":"levelo://app?vid=e1520afc-da0b-43ee-a947-bfc1425d9ac4","ios":"levelo://app?vid=e1520afc-da0b-43ee-a947-bfc1425d9ac4"},"vehicle_type_id":"4","last_reported":1741165842,"current_range_meters":18000,"station_id":"ce4bguh2rcd13ifvqcj0","pricing_plan_id":"cebpf4jnsgd1na2vs0mg"},{"bike_id":"7345e6f4-6df6-4a9e-867f-e90c853c5911","system_id":"levelo_inurba_marseille","lat":43.30556,"lon":5.36714,"is_reserved":false,"is_disabled":false,"rental_uris":{"android":"levelo://app?vid=7345e6f4-6df6-4a9e-867f-e90c853c5911","ios":"levelo://app?vid=7345e6f4-6df6-4a9e-867f-e90c853c5911"},"vehicle_type_id":"4","last_reported":1741165842,"current_range_meters":18000,"station_id":"ce4bgrp2rcd13ifvqc9g","pricing_plan_id":"cebpf4jnsgd1na2vs0mg"},{"bike_id":"8f14b1f2-8348-4ec1-bf51-9b745b8d048a","system_id":"levelo_inurba_marseille","lat":43.27511,"lon":5.42453,"is_reserved":false,"is_disabled":false,"rental_uris":{"android":"levelo://app?vid=8f14b1f2-8348-4ec1-bf51-9b745b8d048a","ios":"levelo://app?vid=8f14b1f2-8348-4ec1-bf51-9b745b8d048a"},