{"last_updated":1728659304,"ttl":60,"version":"2.2","data":{"bikes":[{"bike_id":"1ba88358-6533-42e4-825a-518ca43bb750","system_id":"levelo_inurba_marseille","lat":43.28273,"lon":5.35059,"is_reserved":false,"is_disabled":false,"rental_uris":{"android":"levelo://app?vid=1ba88358-6533-42e4-825a-518ca43bb750","ios":"levelo://app?vid=1ba88358-6533-42e4-825a-518ca43bb750"},"vehicle_type_id":"4","last_reported":1728659304,"current_range_meters":16400,"station_id":"ce4bhbp2rcd13ifvqerg","pricing_plan_id":"cebpf4jnsgd1na2vs0mg"},{"bike_id":"493b2ff2-b76a-4a26-9f94-6e66cd36b2b8","system_id":"levelo_inurba_marseille","lat":43.31687,"lon":5.40475,"is_reserved":false,"is_disabled":false,"rental_uris":{"android":"levelo://app?vid=493b2ff2-b76a-4a26-9f94-6e66cd36b2b8","ios":"levelo://app?vid=493b2ff2-b76a-4a26-9f94-6e66cd36b2b8"},"vehicle_type_id":"4","last_reported":1728659304,"current_range_meters":37600,"station_id":"ce4bh012rcd13ifvqd00","pricing_plan_id":"cebpf4jnsgd1na2vs0mg"},{"bike_id":"6f8a277a-f347-4611-944d-5fa16b1e4fb6","system_id":"levelo_inurba_marseille","lat":43.29001,"lon":5.35613,"is_reserved":false,"is_disabled":false,"rental_uris":{"android":"levelo://app?vid=6f8a277a-f347-4611-944d-5fa16b1e4fb6","ios":"levelo://app?vid=6f8a277a-f347-4611-944d-5fa16b1e4fb6"},"vehicle_type_id":"4","last_reported":1728659304,"current_range_meters":18800,"station_id":"ce4bhb92rcd13ifvqen0","pricing_plan_id":"cebpf4jnsgd1na2vs0mg"},{"bike_id":"51dd5005-a195-4642-bd5f-8cbea71cb3b3","system_id":"levelo_inurba_marseille","lat":43.2293,"lon":5.35372,"is_reserved":false,"is_disabled":false,"rental_uris":{"android":"levelo://app?vid=51dd5005-a195-4642-bd5f-8cbea71cb3b3","ios":"levelo://app?vid=51dd5005-a195-4642-bd5f-8cbea71cb3b3"},"vehicle_type_id":"4","last_reported":1728659304,"current_range_meters":5600,"station_id":"cpo3532slgdg3j2ikp40","pricing_plan_id":"cebpf4jnsgd1na2vs0mg"},{"bike_id":"3a3e1421-61ff-43bf-834e-25af7277a260","system_id":"levelo_inurba_marseille","lat":43.25857,"lon":5.39901,"is_reserved":false,"is_disabled":false,"rental_uris":{"android":"levelo://app?vid=3a3e1421-61ff-43bf-834e-25af7277a260","ios":"levelo://app?vid=3a3e1421-61ff-43bf-834e-25af7277a260"},"vehicle_type_id":"4","last_reported":1728659304,"current_range_meters":22000,"station_id":"ce4bhl92rcd13ifvqghg","pricing_plan_id":"cebpf4jnsgd1na2vs0mg"},{"bike_id":"acec5085-707f-4580-a16e-ac381f72189d","system_id":"levelo_inurba_marseille","lat":43.26939,"lon":5.40254,"is_reserved":false,"is_disabled":false,"rental_uris":{"android":"levelo://app?vid=acec5085-707f-4580-a16e-ac381f72189d","ios":"levelo://app?vid=acec5085-707f-4580-a16e-ac381f72189d"},"vehicle_type_id":"4","last_reported":1728659304,"current_range_meters":20800,"station_id":"cjm6bp8fraef2m0cb0m0","pricing_plan_id":"cebpf4jnsgd1na2vs0mg"},{"bike_id":"f7d09d96-653e-4b95-bbf2-5fcd0fde514e","system_id":"levelo_inurba_marseille","lat":43.31117,"lon":5.37773,"is_reserved":false,"is_disabled":false,"rental_uris":{"android":"levelo://app?vid=f7d09d96-653e-4b95-bbf2-5fcd0fde514e","ios":"levelo://app?vid=f7d09d96-653e-4b95-bbf2-5fcd0fde514e"},"vehicle_type_id":"4","last_reported":1728659304,"current_range_meters":3200,"station_id":"ce4bgt92rcd13ifvqcg0","pricing_plan_id":"cebpf4jnsgd1na2vs0mg"},{"bike_id":"a4ad7706-dae2-444e-82e9-6b9c9e4555ae","system_id":"levelo_inurba_marseille","lat":43.33724,"lon":5.39187,"is_reserved":false,"is_disabled":false,"rental_uris":{"android":"levelo://app?vid=a4ad7706-dae2-444e-82e9-6b9c9e4555ae","ios":"levelo://app?vid=a4ad7706-dae2-444e-82e9-6b9c9e4555ae"},"vehicle_type_id":"4","last_reported":1728659304,"current_range_meters":39200,"station_id":"ce4bhr92rcd13ifvqhsg","pricing_plan_id":"cebpf4jnsgd1na2vs0mg"},{"bike_id":"4f1ac9db-36fd-4126-b3cc-b859636a6a29","system_id":"levelo_inurba_marseille","lat":43.22928,"lon":5.35375,"is_reserved":false,"is_disabled":false,"rental_uris":{"android":"levelo://app?vid=4f1ac9db-36fd-4126-b3cc-b859636a6a29","ios":"levelo://app?vid=4f1ac9db-36fd-4126-b3cc-b859636a6a29"},"vehicle_type_id":"4","last_reported":1728659304,"current_range_meters":11600,"station_id":"cpo3532slgdg3j2ikp40","pricing_plan_id":"cebpf4jnsgd1na2vs0mg"},{"bike_id":"c885202c-0ca6-4adc-821e-7b736b252034","system_id":"levelo_inurba_marseille","lat":43.293671,"lon":5.378425,"is_reserved":false,"is_disabled":false,"rental_uris":{"android":"levelo://app?vid=c885202c-0ca6-4adc-821e-7b736b252034","ios":"levelo://app?vid=c885202c-0ca6-4adc-821e-7b736b252034"},"vehicle_type_id":"4","last_reported":1728659304,"current_range_meters":14000,"station_id":"ce4bgjh2rcd13ifvqbf0","pricing_plan_id":"cebpf4jnsgd1na2vs0mg"},{"bike_id":"7a8482ae-9fc1-4cfa-9705-683dcc5d09ce","system_id":"levelo_inurba_marseille","lat":43.29529,"lon":5.37505,"is_reserved":false,"is_disabled":false,"rental_uris":{"android":"levelo://app?vid=7a8482ae-9fc1-4cfa-9705-683dcc5d09ce","ios":"levelo://app?vid=7a8482ae-9fc1-4cfa-9705-683dcc5d09ce"},"vehicle_type_id":"4","last_reported":1728659304,"current_range_meters":2800,"station_id":"ce4bgkp2rcd13ifvqbmg","pricing_plan_id":"cebpf4jnsgd1na2vs0mg"},{"bike_id":"fc1b1a2c-e09d-4f39-9142-3beb7c635595","system_id":"levelo_inurba_marseille","lat":43.2815,"lon":5.42645,"is_reserved":false,"is_disabled":false,"rental_uris":{"android":"levelo://app?vid=fc1b1a2c-e09d-4f39-9142-3beb7c635595","ios":"levelo://app?vid=fc1b1a2c-e09d-4f39-9142-3beb7c635595"},"vehicle_type_id":"4","last_reported":1728659304,"current_range_meters":24000,"station_id":"ce4bhnh2rcd13ifvqgug","pricing_plan_id":"cebpf4jnsgd1na2vs0mg"},{"bike_id":"3ee36c4d-ff02-4c2b-9c0b-aebfdb46194b","system_id":"levelo_inurba_marseille","lat":43.24801,"lon":5.37455,"is_reserved":false,"is_disabled":false,"rental_uris":{"android":"levelo://app?vid=3ee36c4d-ff02-4c2b-9c0b-aebfdb46194b","ios":"levelo://app?vid=3ee36c4d-ff02-4c2b-9c0b-aebfdb46194b"},"vehicle_type_id":"4","last_reported":1728659304,"current_range_meters":4400,"station_id":"ce4bhgh2rcd13ifvqfb0","pricing_plan_id":"cebpf4jnsgd1na2vs0mg"},{"bike_id":"418bad21-cf7d-4a9e-9cb5-74767d38c59f","system_id":"levelo_inurba_marseille","lat":43.2718,"lon":5.40995,"is_reserved":false,"is_disabled":false,"rental_uris":{"android":"levelo://app?vid=418bad21-cf7d-4a9e-9cb5-74767d38c59f","ios":"levelo://app?vid=418bad21-cf7d-4a9e-9cb5-74767d38c59f"},"vehicle_type_id":"4","last_reported":1728659304,"current_range_meters":17200,"station_id":"ce4bhl12rcd13ifvqgf0","pricing_plan_id":"cebpf4jnsgd1na2vs0mg"},{"bike_id":"6191464b-c607-4523-b637-445bc6f8ca21","system_id":"levelo_inurba_marseille","lat":43.232772,"lon":5.399949,"is_reserved":false,"is_disabled":false,"rental_uris":{"android":"levelo://app?vid=6191464b-c607-4523-b637-445bc6f8ca21","ios":"levelo://app?vid=6191464b-c607-4523-b637-445bc6f8ca21"},"vehicle_type_id":"4","last_reported":1728659304,"current_range_meters":13600,"station_id":"ce4bhn12rcd13ifvqgqg","pricing_plan_id":"cebpf4jnsgd1na2vs0mg"},{"bike_id":"6cb2fd54-0aca-4f7d-aadb-bc057dc4fb59","system_id":"levelo_inurba_marseille","lat":43.23067,"lon":5.35487,"is_reserved":false,"is_disabled":false,"rental_uris":{"android":"levelo://app?vid=6cb2fd54-0aca-4f7d-aadb-bc057dc4fb59","ios":"levelo://app?vid=6cb2fd54-0aca-4f7d-aadb-bc057dc4fb59"},"vehicle_type_id":"4","last_reported":1728659304,"current_range_meters":28000,"station_id":"cpo3342slgdg3j2ifvpg","pricing_plan_id":"cebpf4jnsgd1na2vs0mg"},{"bike_id":"9e7c76d6-da5d-4697-8200-561b63d4a677","system_id":"levelo_inurba_marseille","lat":43.27937,"lon":5.41126,"is_reserved":false,"is_disabled":false,"rental_uris":{"android":"levelo://app?vid=9e7c76d6-da5d-4697-8200-561b63d4a677","ios":"levelo://app?vid=9e7c76d6-da5d-4697-8200-561b63d4a677"},"vehicle_type_id":"4","last_reported":1728659304,"current_range_meters":28400,"station_id":"","pricing_plan_id":"cebpf4jnsgd1na2vs0mg"},{"bike_id":"4d066c51-dd8c-41d9-be6d-7e628a1a6d3b","system_id":"levelo_inurba_marseille","lat":43.23186,"lon":5.39985,"is_reserved":false,"is_disabled":false,"rental_uris":{"android":"levelo://app?vid=4d066c51-dd8c-41d9-be6d-7e628a1a6d3b","ios":"levelo://app?vid=4d066c51-dd8c-41d9-be6d-7e628a1a6d3b"},"vehicle_type_id":"4","last_reported":1728659304,"current_range_meters":3200,"station_id":"ce4bhn12rcd13ifvqgqg","pricing_plan_id":"cebpf4jnsgd1na2vs0mg"},{"bike_id":"1aeb4897-70a0-4551-a71d-42119fc01eed","system_id":"levelo_inurba_marseille","lat":43.2586,"lon":5.399,"is_reserved":false,"is_disabled":false,"rental_uris":{"android":"levelo://app?vid=1aeb4897-70a0-4551-a71d-42119fc01eed","ios":"levelo://app?vid=1aeb4897-70a0-4551-a71d-42119fc01eed"},"vehicle_type_id":"4","last_reported":1728659304,"current_range_meters":34800,"station_id":"ce4bhl92rcd13ifvqghg","pricing_plan_id":"cebpf4jnsgd1na2vs0mg"},{"bike_id":"631afeb3-ff24-4869-b570-0bf0c9ce47b0","system_id":"levelo_inurba_marseille","lat":43.32385,"lon":5.3892,"is_reserved":false,"is_disabled":false,"rental_uris":{"android":"levelo://app?vid=631afeb3-ff24-4869-b570-0bf0c9ce47b0","ios":"levelo://app?vid=631afeb3-ff24-4869-b570-0bf0c9ce47b0"},"vehicle_type_id":"4","last_reported":1728659304,"current_range_meters":20400,"station_id":"ce4bhqp2rcd13ifvqhog","pricing_plan_id":"cebpf4jnsgd1na2vs0mg"},{"bike_id":"47ee3614-b868-4046-b5d9-2c44dadcaeab","system_id":"levelo_inurba_marseille","lat":43.26188,"lon":5.37449,"is_reserved":false,"is_disabled":false,"rental_uris":{"android":"levelo://app?vid=47ee3614-b868-4046-b5d9-2c44dadcaeab","ios":"levelo://app?vid=47ee3614-b868-4046-b5d9-2c44dadcaeab"},"vehicle_type_id":"4","last_reported":1728659304,"current_range_meters":16400,"station_id":"ce4bhgp2rcd13ifvqfc0","pricing_plan_id":"cebpf4jnsgd1na2vs0mg"},{"bike_id":"b2c9487f-3387-4fd8-a033-460ca87e3b8a","system_id":"levelo_inurba_marseille","lat":43.30603,"lon":5.37229,"is_reserved":false,"is_disabled":false,"rental_uris":{"android":"levelo://app?vid=b2c9487f-3387-4fd8-a033-460ca87e3b8a","ios":"levelo://app?vid=b2c9487f-3387-4fd8-a033-460ca87e3b8a"},"vehicle_type_id":"4","last_reported":1728659304,"current_range_meters":36800,"station_id":"ce4bgqh2rcd13ifvqc4g","pricing_plan_id":"cebpf4jnsgd1na2vs0mg"},{"bike_id":"e5fda3bf-0bfc-4e6a-900d-ebcbc0e67c40","system_id":"levelo_inurba_marseille","lat":43.26931,"lon":5.38925,"is_reserved":false,"is_disabled":false,"rental_uris":{"android":"levelo://app?vid=e5fda3bf-0bfc-4e6a-900d-ebcbc0e67c40","ios":"levelo://app?vid=e5fda3bf-0bfc-4e6a-900d-ebcbc0e67c40"},"vehicle_type_id":"4","last_reported":1728659304,"current_range_meters":13600,"station_id":"ce4bhhh2rcd13ifvqfl0","pricing_plan_id":"cebpf4jnsgd1na2vs0mg"},{"bike_id":"d41bf7e8-619f-4253-9bb3-9c83a597fbc6","system_id":"levelo_inurba_marseille","lat":43.28151,"lon":5.42651,"is_reserved":false,"is_disabled":false,"rental_uris":{"android":"levelo://app?vid=d41bf7e8-619f-4253-9bb3-9c83a597fbc6","ios":"levelo://app?vid=d41bf7e8-619f-4253-9bb3-9c83a597fbc6"},"vehicle_type_id":"4","last_reported":1728659304,"current_range_meters":32400,"station_id":"ce4bhnh2rcd13ifvqgug","pricing_plan_id":"cebpf4jnsgd1na2vs0mg"},{"bike_id":"db85c178-0d5d-4df7-90f9-432e7af699ea","system_id":"levelo_inurba_marseille","lat":43.30533,"lon":5.36533,"is_reserved":false,"is_disabled":false,"rental_uris":{"android":"levelo://app?vid=db85c178-0d5d-4df7-90f9-432e7af699ea","ios":"levelo://app?vid=db85c178-0d5d-4df7-90f9-432e7af699ea"},"vehicle_type_id":"4","last_reported":1728659304,"current_range_meters":18000,"station_id":"ce4bgs12rcd13ifvqcag","pricing_plan_id":"cebpf4jnsgd1na2vs0mg"},{"bike_id":"96dcaa23-e472-48c5-b65f-712a86f9ce86","system_id":"levelo_inurba_marseille","lat":43.29531,"lon":5.38551,"is_reserved":false,"is_disabled":false,"rental_uris":{"android":"levelo://app?vid=96dcaa23-e472-48c5-b65f-712a86f9ce86","ios":"levelo://app?vid=96dcaa23-e472-48c5-b65f-712a86f9ce86"},"vehicle_type_id":"4","last_reported":1728659304,"current_range_meters":5600,"station_id":"ce4bgih2rcd13ifvqba0","pricing_plan_id":"cebpf4jnsgd1na2vs0mg"},{"bike_id":"7ed95398-97d1-478f-a64d-ef64eb8916c7","system_id":"levelo_inurba_marseille","lat":43.28609,"lon":5.35098,"is_reserved":false,"is_disabled":false,"rental_uris":{"android":"levelo://app?vid=7ed95398-97d1-478f-a64d-ef64eb8916c7","ios":"levelo://app?vid=7ed95398-97d1-478f-a64d-ef64eb8916c7"},"vehicle_type_id":"4","last_reported":1728659304,"current_range_meters":19600,"station_id":"ce4bhch2rcd13ifvqeug","pricing_plan_id":"cebpf4jnsgd1na2vs0mg"},{"bike_id":"f127dc46-1031-4c0d-af30-613d7bd6c02b","system_id":"levelo_inurba_marseille","lat":43.31117,"lon":5.37764,"is_reserved":false,"is_disabled":false,"rental_uris":{"android":"levelo://app?vid=f127dc46-1031-4c0d-af30-613d7bd6c02b","ios":"levelo://app?vid=f127dc46-1031-4c0d-af30-613d7bd6c02b"},"vehicle_type_id":"4","last_reported":1728659304,"current_range_meters":38800,"station_id":"ce4bgt92rcd13ifvqcg0","pricing_plan_id":"cebpf4jnsgd1na2vs0mg"},{"bike_id":"5e03c3c1-8a8a-4ecc-9cbe-848699bc2ff6","system_id":"levelo_inurba_marseille","lat":43.29555,"lon":5.42283,"is_reserved":false,"is_disabled":false,"rental_uris":{"android":"levelo://app?vid=5e03c3c1-8a8a-4ecc-9cbe-848699bc2ff6","ios":"levelo://app?vid=5e03c3c1-8a8a-4ecc-9cbe-848699bc2ff6"},"vehicle_type_id":"4","last_reported":1728659304,"current_range_meters":10800,"station_id":"ce4bhph2rcd13ifvqhdg","pricing_plan_id":"cebpf4jnsgd1na2vs0mg"},{"bike_id":"e05e04f4-e651-424c-a6aa-8f864e46be12","system_id":"levelo_inurba_marseille","lat":43.28421,"lon":5.34983,"is_reserved":false,"is_disabled":false,"rental_uris":{"android":"levelo://app?vid=e05e04f4-e651-424c-a6aa-8f864e46be12","ios":"levelo://app?vid=e05e04f4-e651-424c-a6aa-8f864e46be12"},"vehicle_type_id":"4","last_reported":1728659304,"current_range_meters":38800,"station_id":"ce4bhbh2rcd13ifvqepg","pricing_plan_id":"cebpf4jnsgd1na2vs0mg"},{"bike_id":"55ad08a2-6505-447f-b276-9a8bac9f15eb","system_id":"levelo_inurba_marseille","lat":43.28364,"lon":5.3863,"is_reserved":false,"is_disabled":false,"rental_uris":{"android":"levelo://app?vid=55ad08a2-6505-447f-b276-9a8bac9f15eb","ios":"levelo://app?vid=55ad08a2-6505-447f-b276-9a8bac9f15eb"},"vehicle_type_id":"4","last_reported":1728659304,"current_range_meters":36400,"station_id":"ce4bh492rcd13ifvqdvg","pricing_plan_id":"cebpf4jnsgd1na2vs0mg"},{"bike_id":"73b170f1-d126-40f5-ae40-b72d42b160b5","system_id":"levelo_inurba_marseille","lat":43.28273,"lon":5.35057,"is_reserved":false,"is_disabled":false,"rental_uris":{"android":"levelo://app?vid=73b170f1-d126-40f5-ae40-b72d42b160b5","ios":"levelo://app?vid=73b170f1-d126-40f5-ae40-b72d42b160b5"},"vehicle_type_id":"4","last_reported":1728659304,"current_range_meters":38800,"station_id":"ce4bhbp2rcd13ifvqerg","pricing_plan_id":"cebpf4jnsgd1na2vs0mg"},{"bike_id":"c8de08e8-fdd4-4a0e-91a5-f5956cb05de1","system_id":"levelo_inurba_marseille","lat":43.30795,"lon":5.37994,"is_reserved":false,"is_disabled":false,"rental_uris":{"android":"levelo://app?vid=c8de08e8-fdd4-4a0e-91a5-f5956cb05de1","ios":"levelo://app?vid=c8de08e8-fdd4-4a0e-91a5-f5956cb05de1"},"vehicle_type_id":"4","last_reported":1728659304,"current_range_meters":30000,"station_id":"","pricing_plan_id":"cebpf4jnsgd1na2vs0mg"},{"bike_id":"1f414c8b-63c3-44b5-9ced-9e0bb0817876","system_id":"levelo_inurba_marseille","lat":43.23184,"lon":5.39984,"is_reserved":false,"is_disabled":false,"rental_uris":{"android":"levelo://app?vid=1f414c8b-63c3-44b5-9ced-9e0bb0817876","ios":"levelo://app?vid=1f414c8b-63c3-44b5-9ced-9e0bb0817876"},"vehicle_type_id":"4","last_reported":1728659304,"current_range_meters":8400,"station_id":"ce4bhn12rcd13ifvqgqg","pricing_plan_id":"cebpf4jnsgd1na2vs0mg"},{"bike_id":"cfcfdf28-2aa6-4014-9775-d024f8c1136c","system_id":"levelo_inurba_marseille","lat":43.25102,"lon":5.40329,"is_reserved":false,"is_disabled":false,"rental_uris":{"android":"levelo://app?vid=cfcfdf28-2aa6-4014-9775-d024f8c1136c","ios":"levelo://app?vid=cfcfdf28-2aa6-4014-9775-d024f8c1136c"},"vehicle_type_id":"4","last_reported":1728659304,"current_range_meters":17600,"station_id":"ce4bhlh2rcd13ifvqgig","pricing_plan_id":"cebpf4jnsgd1na2vs0mg"},{"bike_id":"adc9a243-eb5e-4015-b0da-79fc7feb398f","system_id":"levelo_inurba_marseille","lat":43.28267,"lon":5.35065,"is_reserved":false,"is_disabled":false,"rental_uris":{"android":"levelo://app?vid=adc9a243-eb5e-4015-b0da-79fc7feb398f","ios":"levelo://app?vid=adc9a243-eb5e-4015-b0da-79fc7feb398f"},"vehicle_type_id":"4","last_reported":1728659304,"current_range_meters":10000,"station_id":"ce4bhbp2rcd13ifvqerg","pricing_plan_id":"cebpf4jnsgd1na2vs0mg"},{"bike_id":"ba806bcf-b1f4-4d0d-8cc5-4cca14b8b71f","system_id":"levelo_inurba_marseille","lat":43.29837,"lon":5.36266,"is_reserved":false,"is_disabled":false,"rental_uris":{"android":"levelo://app?vid=ba806bcf-b1f4-4d0d-8cc5-4cca14b8b71f","ios":"levelo://app?vid=ba806bcf-b1f4-4d0d-8cc5-4cca14b8b71f"},"vehicle_type_id":"4","last_reported":1728659304,"current_range_meters":12400,"station_id":"ce4bgpp2rcd13ifvqc3g","pricing_plan_id":"cebpf4jnsgd1na2vs0mg"},{"bike_id":"ef45b165-2c2b-4bf5-b417-cc338c1ff735","system_id":"levelo_inurba_marseille","lat":43.28423,"lon":5.34989,"is_reserved":false,"is_disabled":false,"rental_uris":{"android":"levelo://app?vid=ef45b165-2c2b-4bf5-b417-cc338c1ff735","ios":"levelo://app?vid=ef45b165-2c2b-4bf5-b417-cc338c1ff735"},"vehicle_type_id":"4","last_reported":1728659304,"current_range_meters":39200,"station_id":"ce4bhbh2rcd13ifvqepg","pricing_plan_id":"cebpf4jnsgd1na2vs0mg"},{"bike_id":"c2709d8c-182c-4c66-9678-32143d413767","system_id":"levelo_inurba_marseille","lat":43.2293,"lon":5.35377,"is_reserved":false,"is_disabled":false,"rental_uris":{"android":"levelo://app?vid=c2709d8c-182c-4c66-9678-32143d413767","ios":"levelo://app?vid=c2709d8c-182c-4c66-9678-32143d413767"},"vehicle_type_id":"4","last_reported":1728659304,"current_range_meters":30400,"station_id":"cpo3532slgdg3j2ikp40","pricing_plan_id":"cebpf4jnsgd1na2vs0mg"},{"bike_id":"79a5fc13-456d-4aa3-b915-a27bf8bfa9e2","system_id":"levelo_inurba_marseille","lat":43.32473,"lon":5.36556,"is_reserved":false,"is_disabled":false,"rental_uris":{"android":"levelo://app?vid=79a5fc13-456d-4aa3-b915-a27bf8bfa9e2","ios":"levelo://app?vid=79a5fc13-456d-4aa3-b915-a27bf8bfa9e2"},"vehicle_type_id":"4","last_reported":1728659304,"current_range_meters":8800,"station_id":"ce4bhs12rcd13ifvqhvg","pricing_plan_id":"cebpf4jnsgd1na2vs0mg"},{"bike_id":"8be180bb-2bf7-43c2-9f0d-77b74830f6e4","system_id":"levelo_inurba_marseille","lat":43.29829,"lon":5.37688,"is_reserved":false,"is_disabled":false,"rental_uris":{"android":"levelo://app?vid=8be180bb-2bf7-43c2-9f0d-77b74830f6e4","ios":"levelo://app?vid=8be180bb-2bf7-43c2-9f0d-77b74830f6e4"},"vehicle_type_id":"4","last_reported":1728659304,"current_range_meters":24000,"station_id":"","pricing_plan_id":"cebpf4jnsgd1na2vs0mg"},{"bike_id":"b184cec8-bbec-4dca-b088-8e55c9bfe838","system_id":"levelo_inurba_marseille","lat":43.23278,"lon":5.35678,"is_reserved":false,"is_disabled":false,"rental_uris":{"android":"levelo://app?vid=b184cec8-bbec-4dca-b088-8e55c9bfe838","ios":"levelo://app?vid=b184cec8-bbec-4dca-b088-8e55c9bfe838"},"vehicle_type_id":"4","last_reported":1728659304,"current_range_meters":4800,"station_id":"","pricing_plan_id":"cebpf4jnsgd1na2vs0mg"},{"bike_id":"dc9f33db-5d7a-4d63-ab78-2fc7fb73d4a3","system_id":"levelo_inurba_marseille","lat":43.28418,"lon":5.349754,"is_reserved":false,"is_disabled":false,"rental_uris":{"android":"levelo://app?vid=dc9f33db-5d7a-4d63-ab78-2fc7fb73d4a3","ios":"levelo://app?vid=dc9f33db-5d7a-4d63-ab78-2fc7fb73d4a3"},"vehicle_type_id":"4","last_reported":1728659304,"current_range_meters":25600,"station_id":"ce4bhbh2rcd13ifvqepg","pricing_plan_id":"cebpf4jnsgd1na2vs0mg"},{"bike_id":"22091e50-b37a-4052-9e37-fc4c7f8563e3","system_id":"levelo_inurba_marseille","lat":43.29275,"lon":5.40707,"is_reserved":false,"is_disabled":false,"rental_uris":{"android":"levelo://app?vid=22091e50-b37a-4052-9e37-fc4c7f8563e3","ios":"levelo://app?vid=22091e50-b37a-4052-9e37-fc4c7f8563e3"},"vehicle_type_id":"4","last_reported":1728659304,"current_range_meters":18000,"station_id":"ce4bgr92rcd13ifvqc7g","pricing_plan_id":"cebpf4jnsgd1na2vs0mg"},{"bike_id":"6df6b1da-b822-474a-b356-6ce95f84ce67","system_id":"levelo_inurba_marseille","lat":43.31535,"lon":5.38043,"is_reserved":false,"is_disabled":false,"rental_uris":{"android":"levelo://app?vid=6df6b1da-b822-474a-b356-6ce95f84ce67","ios":"levelo://app?vid=6df6b1da-b822-474a-b356-6ce95f84ce67"},"vehicle_type_id":"4","last_reported":1728659304,"current_range_meters":9600,"station_id":"ce4bhsp2rcd13ifvqi50","pricing_plan_id":"cebpf4jnsgd1na2vs0mg"},{"bike_id":"15d17ad8-8082-42ca-9529-21626d10a661","system_id":"levelo_inurba_marseille","lat":43.29897,"lon":5.43666,"is_reserved":false,"is_disabled":false,"rental_uris":{"android":"levelo://app?vid=15d17ad8-8082-42ca-9529-21626d10a661","ios":"levelo://app?vid=15d17ad8-8082-42ca-9529-21626d10a661"},"vehicle_type_id":"4","last_reported":1728659304,"current_range_meters":33200,"station_id":"ce4bhpp2rcd13ifvqhfg","pricing_plan_id":"cebpf4jnsgd1na2vs0mg"},{"bike_id":"aac35ff4-9459-44b6-98fd-5486377f8c0a","system_id":"levelo_inurba_marseille","lat":43.33019,"lon":5.39035,"is_reserved":false,"is_disabled":false,"rental_uris":{"android":"levelo://app?vid=aac35ff4-9459-44b6-98fd-5486377f8c0a","ios":"levelo://app?vid=aac35ff4-9459-44b6-98fd-5486377f8c0a"},"vehicle_type_id":"4","last_reported":1728659304,"current_range_meters":18000,"station_id":"ce4bhr92rcd13ifvqhrg","pricing_plan_id":"cebpf4jnsgd1na2vs0mg"},{"bike_id":"2805cb2e-f21d-4fbb-b84e-776d1256263f","system_id":"levelo_inurba_marseille","lat":43.29904,"lon":5.38133,"is_reserved":false,"is_disabled":false,"rental_uris":{"android":"levelo://app?vid=2805cb2e-f21d-4fbb-b84e-776d1256263f","ios":"levelo://app?vid=2805cb2e-f21d-4fbb-b84e-776d1256263f"},"vehicle_type_id":"4","last_reported":1728659304,"current_range_meters":38800,"station_id":"ce4bgj12rcd13ifvqbc0","pricing_plan_id":"cebpf4jnsgd1na2vs0mg"},{"bike_id":"8a581a01-01fb-4864-8905-cd7a561e78d9","system_id":"levelo_inurba_marseille","lat":43.30606,"lon":5.37232,"is_reserved":false,"is_disabled":false,"rental_uris":{"android":"levelo://app?vid=8a581a01-01fb-4864-8905-cd7a561e78d9","ios":"levelo://app?vid=8a581a01-01fb-4864-8905-cd7a561e78d9"},"vehicle_type_id":"4","last_reported":1728659304,"current_range_meters":38400,"station_id":"ce4bgqh2rcd13ifvqc4g","pricing_plan_id":"cebpf4jnsgd1na2vs0mg"},{"bike_id":"fb15e4ad-49b9-4eed-91ae-52b164d1fbde","system_id":"levelo_inurba_marseille","lat":43.30608,"lon":5.37238,"is_reserved":false,"is_disabled":false,"rental_uris":{"android":"levelo://app?vid=fb15e4ad-49b9-4eed-91ae-52b164d1fbde","ios":"levelo://app?vid=fb15e4ad-49b9-4eed-91ae-52b164d1fbde"},"vehicle_type_id":"4","last_reported":1728659304,"current_range_meters":33600,"station_id":"ce4bgqh2rcd13ifvqc4g","pricing_plan_id":"cebpf4jnsgd1na2vs0mg"},{"bike_id":"fa3d1a81-dcfc-4dd6-b6c7-47dd84b76d28","system_id":"levelo_inurba_marseille","lat":43.27171,"lon":5.40988,"is_reserved":false,"is_disabled":false,"rental_uris":{"android":"levelo://app?vid=fa3d1a81-dcfc-4dd6-b6c7-47dd84b76d28","ios":"levelo://app?vid=fa3d1a81-dcfc-4dd6-b6c7-47dd84b76d28"},"vehicle_type_id":"4","last_reported":1728659304,"current_range_meters":27200,"station_id":"ce4bhl12rcd13ifvqgf0","pricing_plan_id":"cebpf4jnsgd1na2vs0mg"},{"bike_id":"825b2a47-74a7-44b2-bf43-47f558cf2200","system_id":"levelo_inurba_marseille","lat":43.33718,"lon":5.39182,"is_reserved":false,"is_disabled":false,"rental_uris":{"android":"levelo://app?vid=825b2a47-74a7-44b2-bf43-47f558cf2200","ios":"levelo://app?vid=825b2a47-74a7-44b2-bf43-47f558cf2200"},"vehicle_type_id":"4","last_reported":1728659304,"current_range_meters":38800,"station_id":"ce4bh3p2rcd13ifvqdp0","pricing_plan_id":"cebpf4jnsgd1na2vs0mg"},{"bike_id":"266312f3-da87-41d4-97b0-be7cda5280c2","system_id":"levelo_inurba_marseille","lat":43.23962,"lon":5.36628,"is_reserved":false,"is_disabled":false,"rental_uris":{"android":"levelo://app?vid=266312f3-da87-41d4-97b0-be7cda5280c2","ios":"levelo://app?vid=266312f3-da87-41d4-97b0-be7cda5280c2"},"vehicle_type_id":"4","last_reported":1728659304,"current_range_meters":3600,"station_id":"ce4bhi12rcd13ifvqfp0","pricing_plan_id":"cebpf4jnsgd1na2vs0mg"},{"bike_id":"cfcb5e93-3701-478d-ba54-1dc2e45c5678","system_id":"levelo_inurba_marseille","lat":43.232615,"lon":5.356409,"is_reserved":false,"is_disabled":false,"rental_uris":{"android":"levelo://app?vid=cfcb5e93-3701-478d-ba54-1dc2e45c5678","ios":"levelo://app?vid=cfcb5e93-3701-478d-ba54-1dc2e45c5678"},"vehicle_type_id":"4","last_reported":1728659304,"current_range_meters":32000,"station_id":"ce4bhu92rcd13ifvqi70","pricing_plan_id":"cebpf4jnsgd1na2vs0mg"},{"bike_id":"f713de37-6304-49a7-a979-3a35a937b90d","system_id":"levelo_inurba_marseille","lat":43.30304,"lon":5.39202,"is_reserved":false,"is_disabled":false,"rental_uris":{"android":"levelo://app?vid=f713de37-6304-49a7-a979-3a35a937b90d","ios":"levelo://app?vid=f713de37-6304-49a7-a979-3a35a937b90d"},"vehicle_type_id":"4","last_reported":1728659304,"current_range_meters":12000,"station_id":"ce4bgkh2rcd13ifvqbk0","pricing_plan_id":"cebpf4jnsgd1na2vs0mg"},{"bike_id":"791efab9-5432-421d-ba37-8a3cdc5464f7","system_id":"levelo_inurba_marseille","lat":43.2655,"lon":5.37282,"is_reserved":false,"is_disabled":false,"rental_uris":{"android":"levelo://app?vid=791efab9-5432-421d-ba37-8a3cdc5464f7","ios":"levelo://app?vid=791efab9-5432-421d-ba37-8a3cdc5464f7"},"vehicle_type_id":"4","last_reported":1728659304,"current_range_meters":8400,"station_id":"ce4bhg12rcd13ifvqf70","pricing_plan_id":"cebpf4jnsgd1na2vs0mg"},{"bike_id":"c7877476-ef9a-4214-9dc7-994e8a74dba0","system_id":"levelo_inurba_marseille","lat":43.32477,"lon":5.36563,"is_reserved":false,"is_disabled":false,"rental_uris":{"android":"levelo://app?vid=c7877476-ef9a-4214-9dc7-994e8a74dba0","ios":"levelo://app?vid=c7877476-ef9a-4214-9dc7-994e8a74dba0"},"vehicle_type_id":"4","last_reported":1728659304,"current_range_meters":38800,"station_id":"ce4bhs12rcd13ifvqhvg","pricing_plan_id":"cebpf4jnsgd1na2vs0mg"},{"bike_id":"bc76d84f-7c87-4463-81b8-ddceba1d0f50","system_id":"levelo_inurba_marseille","lat":43.30889,"lon":5.37202,"is_reserved":false,"is_disabled":false,"rental_uris":{"android":"levelo://app?vid=bc76d84f-7c87-4463-81b8-ddceba1d0f50","ios":"levelo://app?vid=bc76d84f-7c87-4463-81b8-ddceba1d0f50"},"vehicle_type_id":"4","last_reported":1728659304,"current_range_meters":33200,"station_id":"ce4bguh2rcd13ifvqckg","pricing_plan_id":"cebpf4jnsgd1na2vs0mg"},{"bike_id":"eee18a44-71b1-4c28-8ff2-72b1fbcb0b4b","system_id":"levelo_inurba_marseille","lat":43.22927,"lon":5.35375,"is_reserved":false,"is_disabled":false,"rental_uris":{"android":"levelo://app?vid=eee18a44-71b1-4c28-8ff2-72b1fbcb0b4b","ios":"levelo://app?vid=eee18a44-71b1-4c28-8ff2-72b1fbcb0b4b"},"vehicle_type_id":"4","last_reported":1728659304,"current_range_meters":6800,"station_id":"cpo3532slgdg3j2ikp40","pricing_plan_id":"cebpf4jnsgd1na2vs0mg"},{"bike_id":"a54d76c2-5241-44d4-9386-f0bcc4a31ca3","system_id":"levelo_inurba_marseille","lat":43.31754,"lon":5.39014,"is_reserved":false,"is_disabled":false,"rental_uris":{"android":"levelo://app?vid=a54d76c2-5241-44d4-9386-f0bcc4a31ca3","ios":"levelo://app?vid=a54d76c2-5241-44d4-9386-f0bcc4a31ca3"},"vehicle_type_id":"4","last_reported":1728659304,"current_range_meters":8800,"station_id":"ce4bhqp2rcd13ifvqhng","pricing_plan_id":"cebpf4jnsgd1na2vs0mg"},{"bike_id":"47717afc-4238-43f1-b35b-a62124556ff4","system_id":"levelo_inurba_marseille","lat":43.25867,"lon":5.39893,"is_reserved":false,"is_disabled":false,"rental_uris":{"android":"levelo://app?vid=47717afc-4238-43f1-b35b-a62124556ff4","ios":"levelo://app?vid=47717afc-4238-43f1-b35b-a62124556ff4"},"vehicle_type_id":"4","last_reported":1728659304,"current_range_meters":8800,"station_id":"ce4bhl92rcd13ifvqghg","pricing_plan_id":"cebpf4jnsgd1na2vs0mg"},{"bike_id":"7d6568fc-baf1-43a1-85a0-5db4c8f134dd","system_id":"levelo_inurba_marseille","lat":43.30907,"lon":5.3684,"is_reserved":false,"is_disabled":false,"rental_uris":{"android":"levelo://app?vid=7d6568fc-baf1-43a1-85a0-5db4c8f134dd","ios":"levelo://app?vid=7d6568fc-baf1-43a1-85a0-5db4c8f134dd"},"vehicle_type_id":"4","last_reported":1728659304,"current_range_meters":6000,"station_id":"ce4bgn92rcd13ifvqbvg","pricing_plan_id":"cebpf4jnsgd1na2vs0mg"},{"bike_id":"f43cd11c-e00a-46ec-b65f-108711e37e9a","system_id":"levelo_inurba_marseille","lat":43.27371,"lon":5.36252,"is_reserved":false,"is_disabled":false,"rental_uris":{"android":"levelo://app?vid=f43cd11c-e00a-46ec-b65f-108711e37e9a","ios":"levelo://app?vid=f43cd11c-e00a-46ec-b65f-108711e37e9a"},"vehicle_type_id":"4","last_reported":1728659304,"current_range_meters":38800,"station_id":"ce4bhbh2rcd13ifvqeo0","pricing_plan_id":"cebpf4jnsgd1na2vs0mg"},{"bike_id":"fe7438b6-bbcb-4c47-b80d-6c5cfd03bc79","system_id":"levelo_inurba_marseille","lat":43.30932,"lon":5.40143,"is_reserved":false,"is_disabled":false,"rental_uris":{"android":"levelo://app?vid=fe7438b6-bbcb-4c47-b80d-6c5cfd03bc79","ios":"levelo://app?vid=fe7438b6-bbcb-4c47-b80d-6c5cfd03bc79"},"vehicle_type_id":"4","last_reported":1728659304,"current_range_meters":3600,"station_id":"ce4bgvp2rcd13ifvqct0","pricing_plan_id":"cebpf4jnsgd1na2vs0mg"},{"bike_id":"326929dd-7ccf-4ea4-8be1-e6af580d20cb","system_id":"levelo_inurba_marseille","lat":43.23177,"lon":5.39981,"is_reserved":false,"is_disabled":false,"rental_uris":{"android":"levelo://app?vid=326929dd-7ccf-4ea4-8be1-e6af580d20cb","ios":"levelo://app?vid=326929dd-7ccf-4ea4-8be1-e6af580d20cb"},"vehicle_type_id":"4","last_reported":1728659304,"current_range_meters":20400,"station_id":"ce4bhn12rcd13ifvqgqg","pricing_plan_id":"cebpf4jnsgd1na2vs0mg"},{"bike_id":"ff68b789-7173-415f-860f-fb58c1b9d01d","system_id":"levelo_inurba_marseille","lat":43.22929,"lon":5.3538,"is_reserved":false,"is_disabled":false,"rental_uris":{"android":"levelo://app?vid=ff68b789-7173-415f-860f-fb58c1b9d01d","ios":"levelo://app?vid=ff68b789-7173-415f-860f-fb58c1b9d01d"},"vehicle_type_id":"4","last_reported":1728659304,"current_range_meters":30400,"station_id":"cpo3532slgdg3j2ikp40","pricing_plan_id":"cebpf4jnsgd1na2vs0mg"},{"bike_id":"623bb5a1-7103-4ac9-ae81-65a1eeeae84f","system_id":"levelo_inurba_marseille","lat":43.23183,"lon":5.39986,"is_reserved":false,"is_disabled":false,"rental_uris":{"android":"levelo://app?vid=623bb5a1-7103-4ac9-ae81-65a1eeeae84f","ios":"levelo://app?vid=623bb5a1-7103-4ac9-ae81-65a1eeeae84f"},"vehicle_type_id":"4","last_reported":1728659304,"current_range_meters":6800,"station_id":"ce4bhkp2rcd13ifvqgd0","pricing_plan_id":"cebpf4jnsgd1na2vs0mg"},{"bike_id":"11ed2bc4-99e4-42ab-8911-f3374fcced68","system_id":"levelo_inurba_marseille","lat":43.27179,"lon":5.40989,"is_reserved":false,"is_disabled":false,"rental_uris":{"android":"levelo://app?vid=11ed2bc4-99e4-42ab-8911-f3374fcced68","ios":"levelo://app?vid=11ed2bc4-99e4-42ab-8911-f3374fcced68"},"vehicle_type_id":"4","last_reported":1728659304,"current_range_meters":36800,"station_id":"ce4bhl12rcd13ifvqgf0","pricing_plan_id":"cebpf4jnsgd1na2vs0mg"},{"bike_id":"0343e039-964c-45c8-8ef0-27958dafd77e","system_id":"levelo_inurba_marseille","lat":43.31174,"lon":5.38723,"is_reserved":false,"is_disabled":false,"rental_uris":{"android":"levelo://app?vid=0343e039-964c-45c8-8ef0-27958dafd77e","ios":"levelo://app?vid=0343e039-964c-45c8-8ef0-27958dafd77e"},"vehicle_type_id":"4","last_reported":1728659304,"current_range_meters":10000,"station_id":"ce4bgv12rcd13ifvqcp0","pricing_plan_id":"cebpf4jnsgd1na2vs0mg"},{"bike_id":"15074734-7bdf-40a9-b666-f602f0597e05","system_id":"levelo_inurba_marseille","lat":43.28613,"lon":5.35103,"is_reserved":false,"is_disabled":false,"rental_uris":{"android":"levelo://app?vid=15074734-7bdf-40a9-b666-f602f0597e05","ios":"levelo://app?vid=15074734-7bdf-40a9-b666-f602f0597e05"},"vehicle_type_id":"4","last_reported":1728659304,"current_range_meters":8800,"station_id":"ce4bhch2rcd13ifvqeug","pricing_plan_id":"cebpf4jnsgd1na2vs0mg"},{"bike_id":"6cb5b02c-2401-484a-8b7d-b4d2106d6b08","system_id":"levelo_inurba_marseille","lat":43.2319,"lon":5.35556,"is_reserved":false,"is_disabled":false,"rental_uris":{"android":"levelo://app?vid=6cb5b02c-2401-484a-8b7d-b4d2106d6b08","ios":"levelo://app?vid=6cb5b02c-2401-484a-8b7d-b4d2106d6b08"},"vehicle_type_id":"4","last_reported":1728659304,"current_range_meters":36000,"station_id":"ce4bhu92rcd13ifvqi70","pricing_plan_id":"cebpf4jnsgd1na2vs0mg"},{"bike_id":"01b8abb9-e252-43ae-a48d-206bae21277a","system_id":"levelo_inurba_marseille","lat":43.30601,"lon":5.37213,"is_reserved":false,"is_disabled":false,"rental_uris":{"android":"levelo://app?vid=01b8abb9-e252-43ae-a48d-206bae21277a","ios":"levelo://app?vid=01b8abb9-e252-43ae-a48d-206bae21277a"},"vehicle_type_id":"4","last_reported":1728659304,"current_range_meters":36400,"station_id":"ce4bgqh2rcd13ifvqc4g","pricing_plan_id":"cebpf4jnsgd1na2vs0mg"},{"bike_id":"7ac7e627-06e3-49fc-b1d7-b6203dd7d747","system_id":"levelo_inurba_marseille","lat":43.31756,"lon":5.39013,"is_reserved":false,"is_disabled":false,"rental_uris":{"android":"levelo://app?vid=7ac7e627-06e3-49fc-b1d7-b6203dd7d747","ios":"levelo://app?vid=7ac7e627-06e3-49fc-b1d7-b6203dd7d747"},"vehicle_type_id":"4","last_reported":1728659304,"current_range_meters":8400,"station_id":"ce4bhqp2rcd13ifvqhng","pricing_plan_id":"cebpf4jnsgd1na2vs0mg"},{"bike_id":"c417019c-5367-4191-a213-8153b6c2ea08","system_id":"levelo_inurba_marseille","lat":43.32474,"lon":5.36571,"is_reserved":false,"is_disabled":false,"rental_uris":{"android":"levelo://app?vid=c417019c-5367-4191-a213-8153b6c2ea08","ios":"levelo://app?vid=c417019c-5367-4191-a213-8153b6c2ea08"},"vehicle_type_id":"4","last_reported":1728659304,"current_range_meters":24800,"station_id":"ce4bhs12rcd13ifvqhvg","pricing_plan_id":"cebpf4jnsgd1na2vs0mg"},{"bike_id":"44c4e2cb-0dae-4c90-ac01-ffed0976125e","system_id":"levelo_inurba_marseille","lat":43.28256,"lon":5.35071,"is_reserved":false,"is_disabled":false,"rental_uris":{"android":"levelo://app?vid=44c4e2cb-0dae-4c90-ac01-ffed0976125e","ios":"levelo://app?vid=44c4e2cb-0dae-4c90-ac01-ffed0976125e"},"vehicle_type_id":"4","last_reported":1728659304,"current_range_meters":37600,"station_id":"ce4bhbp2rcd13ifvqerg","pricing_plan_id":"cebpf4jnsgd1na2vs0mg"},{"bike_id":"9fd0f917-639d-4f97-a845-b98455353b50","system_id":"levelo_inurba_marseille","lat":43.28269,"lon":5.35074,"is_reserved":false,"is_disabled":false,"rental_uris":{"android":"levelo://app?vid=9fd0f917-639d-4f97-a845-b98455353b50","ios":"levelo://app?vid=9fd0f917-639d-4f97-a845-b98455353b50"},"vehicle_type_id":"4","last_reported":1728659304,"current_range_meters":38800,"station_id":"ce4bhbp2rcd13ifvqerg","pricing_plan_id":"cebpf4jnsgd1na2vs0mg"},{"bike_id":"99805da4-0e59-48d8-87e8-a3e21b3722ec","system_id":"levelo_inurba_marseille","lat":43.27182,"lon":5.40993,"is_reserved":false,"is_disabled":false,"rental_uris":{"android":"levelo://app?vid=99805da4-0e59-48d8-87e8-a3e21b3722ec","ios":"levelo://app?vid=99805da4-0e59-48d8-87e8-a3e21b3722ec"},"vehicle_type_id":"4","last_reported":1728659304,"current_range_meters":33600,"station_id":"ce4bhl12rcd13ifvqgf0","pricing_plan_id":"cebpf4jnsgd1na2vs0mg"},{"bike_id":"d103f047-fb4f-48f9-8059-563892b8bbab","system_id":"levelo_inurba_marseille","lat":43.29249,"lon":5.40899,"is_reserved":false,"is_disabled":false,"rental_uris":{"android":"levelo://app?vid=d103f047-fb4f-48f9-8059-563892b8bbab","ios":"levelo://app?vid=d103f047-fb4f-48f9-8059-563892b8bbab"},"vehicle_type_id":"4","last_reported":1728659304,"current_range_meters":20400,"station_id":"ce4bh192rcd13ifvqdc0","pricing_plan_id":"cebpf4jnsgd1na2vs0mg"},{"bike_id":"0218be81-a023-4135-a21e-30236bb4a4a4","system_id":"levelo_inurba_marseille","lat":43.32107,"lon":5.36761,"is_reserved":false,"is_disabled":false,"rental_uris":{"android":"levelo://app?vid=0218be81-a023-4135-a21e-30236bb4a4a4","ios":"levelo://app?vid=0218be81-a023-4135-a21e-30236bb4a4a4"},"vehicle_type_id":"4","last_reported":1728659304,"current_range_meters":38000,"station_id":"ce4bhrh2rcd13ifvqhug","pricing_plan_id":"cebpf4jnsgd1na2vs0mg"},{"bike_id":"f80c2e75-b47f-4161-9783-8454957aba75","system_id":"levelo_inurba_marseille","lat":43.321,"lon":5.36775,"is_reserved":false,"is_disabled":false,"rental_uris":{"android":"levelo://app?vid=f80c2e75-b47f-4161-9783-8454957aba75","ios":"levelo://app?vid=f80c2e75-b47f-4161-9783-8454957aba75"},"vehicle_type_id":"4","last_reported":1728659304,"current_range_meters":38800,"station_id":"ce4bhrh2rcd13ifvqhug","pricing_plan_id":"cebpf4jnsgd1na2vs0mg"},{"bike_id":"62aeb83e-c690-4d06-b85c-de4b6856eb4c","system_id":"levelo_inurba_marseille","lat":43.2694,"lon":5.40246,"is_reserved":false,"is_disabled":false,"rental_uris":{"android":"levelo://app?vid=62aeb83e-c690-4d06-b85c-de4b6856eb4c","ios":"levelo://app?vid=62aeb83e-c690-4d06-b85c-de4b6856eb4c"},"vehicle_type_id":"4","last_reported":1728659304,"current_range_meters":20400,"station_id":"cjm6bp8fraef2m0cb0m0","pricing_plan_id":"cebpf4jnsgd1na2vs0mg"},{"bike_id":"aedcd982-9687-473b-915b-86bc8e011974","system_id":"levelo_inurba_marseille","lat":43.29984,"lon":5.37189,"is_reserved":false,"is_disabled":false,"rental_uris":{"android":"levelo://app?vid=aedcd982-9687-473b-915b-86bc8e011974","ios":"levelo://app?vid=aedcd982-9687-473b-915b-86bc8e011974"},"vehicle_type_id":"4","last_reported":1728659304,"current_range_meters":37600,"station_id":"ce4bgr92rcd13ifvqc7g","pricing_plan_id":"cebpf4jnsgd1na2vs0mg"},{"bike_id":"c30ed77f-4d7d-41e7-89a5-f6d4db2802f5","system_id":"levelo_inurba_marseille","lat":43.23181,"lon":5.39989,"is_reserved":false,"is_disabled":false,"rental_uris":{"android":"levelo://app?vid=c30ed77f-4d7d-41e7-89a5-f6d4db2802f5","ios":"levelo://app?vid=c30ed77f-4d7d-41e7-89a5-f6d4db2802f5"},"vehicle_type_id":"4","last_reported":1728659304,"current_range_meters":25600,"station_id":"ce4bhn12rcd13ifvqgqg","pricing_plan_id":"cebpf4jnsgd1na2vs0mg"},{"bike_id":"e836636b-b4ec-4744-afbe-5ae837129e82","system_id":"levelo_inurba_marseille","lat":43.2655,"lon":5.37285,"is_reserved":false,"is_disabled":false,"rental_uris":{"android":"levelo://app?vid=e836636b-b4ec-4744-afbe-5ae837129e82","ios":"levelo://app?vid=e836636b-b4ec-4744-afbe-5ae837129e82"},"vehicle_type_id":"4","last_reported":1728659304,"current_range_meters":38800,"station_id":"ce4bhg12rcd13ifvqf70","pricing_plan_id":"cebpf4jnsgd1na2vs0mg"},{"bike_id":"a490a95e-8fe4-4df5-ac3c-e2641706aa9f","system_id":"levelo_inurba_marseille","lat":43.28422,"lon":5.3498,"is_reserved":false,"is_disabled":false,"rental_uris":{"android":"levelo://app?vid=a490a95e-8fe4-4df5-ac3c-e2641706aa9f","ios":"levelo://app?vid=a490a95e-8fe4-4df5-ac3c-e2641706aa9f"},"vehicle_type_id":"4","last_reported":1728659304,"current_range_meters":2000,"station_id":"ce4bhbh2rcd13ifvqepg","pricing_plan_id":"cebpf4jnsgd1na2vs0mg"},{"bike_id":"5bd036d4-b87a-4020-b4fa-3000659a58df","system_id":"levelo_inurba_marseille","lat":43.251095,"lon":5.403269,"is_reserved":false,"is_disabled":false,"rental_uris":{"android":"levelo://app?vid=5bd036d4-b87a-4020-b4fa-3000659a58df","ios":"levelo://app?vid=5bd036d4-b87a-4020-b4fa-3000659a58df"},"vehicle_type_id":"4","last_reported":1728659304,"current_range_meters":10000,"station_id":"ce4bhlh2rcd13ifvqgig","pricing_plan_id":"cebpf4jnsgd1na2vs0mg"},{"bike_id":"f73f4a67-abe5-4fcf-8dc5-2f7471e5622a","system_id":"levelo_inurba_marseille","lat":43.273193,"lon":5.392536,"is_reserved":false,"is_disabled":false,"rental_uris":{"android":"levelo://app?vid=f73f4a67-abe5-4fcf-8dc5-2f7471e5622a","ios":"levelo://app?vid=f73f4a67-abe5-4fcf-8dc5-2f7471e5622a"},"vehicle_type_id":"4","last_reported":1728659304,"current_range_meters":15200,"station_id":"ce4bhdp2rcd13ifvqf20","pricing_plan_id":"cebpf4jnsgd1na2vs0mg"},{"bike_id":"df6a53fa-18f0-4fb3-b654-ab01820b77c4","system_id":"levelo_inurba_marseille","lat":43.2319,"lon":5.3555,"is_reserved":false,"is_disabled":false,"rental_uris":{"android":"levelo://app?vid=df6a53fa-18f0-4fb3-b654-ab01820b77c4","ios":"levelo://app?vid=df6a53fa-18f0-4fb3-b654-ab01820b77c4"},"vehicle_type_id":"4","last_reported":1728659304,"current_range_meters":7200,"station_id":"ce4bhu92rcd13ifvqi70","pricing_plan_id":"cebpf4jnsgd1na2vs0mg"},{"bike_id":"b933402b-d1ca-49a8-bbf7-fb19281d941c","system_id":"levelo_inurba_marseille","lat":43.23191,"lon":5.35552,"is_reserved":false,"is_disabled":false,"rental_uris":{"android":"levelo://app?vid=b933402b-d1ca-49a8-bbf7-fb19281d941c","ios":"levelo://app?vid=b933402b-d1ca-49a8-bbf7-fb19281d941c"},"vehicle_type_id":"4","last_reported":1728659304,"current_range_meters":26800,"station_id":"ce4bhu92rcd13ifvqi70","pricing_plan_id":"cebpf4jnsgd1na2vs0mg"},{"bike_id":"956abc1e-e940-4c2c-85a3-039b7a070b5c","system_id":"levelo_inurba_marseille","lat":43.24651,"lon":5.3889,"is_reserved":false,"is_disabled":false,"rental_uris":{"android":"levelo://app?vid=956abc1e-e940-4c2c-85a3-039b7a070b5c","ios":"levelo://app?vid=956abc1e-e940-4c2c-85a3-039b7a070b5c"},"vehicle_type_id":"4","last_reported":1728659304,"current_range_meters":12000,"station_id":"ce4bhg12rcd13ifvqf60","pricing_plan_id":"cebpf4jnsgd1na2vs0mg"},{"bike_id":"f37503d6-a1a0-4edb-bf06-a3a66ccd89a6","system_id":"levelo_inurba_marseille","lat":43.25487,"lon":5.37654,"is_reserved":false,"is_disabled":false,"rental_uris":{"android":"levelo://app?vid=f37503d6-a1a0-4edb-bf06-a3a66ccd89a6","ios":"levelo://app?vid=f37503d6-a1a0-4edb-bf06-a3a66ccd89a6"},"vehicle_type_id":"4","last_reported":1728659304,"current_range_meters":38400,"station_id":"ce4bhh12rcd13ifvqff0","pricing_plan_id":"cebpf4jnsgd1na2vs0mg"},{"bike_id":"484a4c63-4ef1-4433-b27a-9a9ca5ad2f9a","system_id":"levelo_inurba_marseille","lat":43.22926,"lon":5.35381,"is_reserved":false,"is_disabled":false,"rental_uris":{"android":"levelo://app?vid=484a4c63-4ef1-4433-b27a-9a9ca5ad2f9a","ios":"levelo://app?vid=484a4c63-4ef1-4433-b27a-9a9ca5ad2f9a"},"vehicle_type_id":"4","last_reported":1728659304,"current_range_meters":16000,"station_id":"cpo3532slgdg3j2ikp40","pricing_plan_id":"cebpf4jnsgd1na2vs0mg"},{"bike_id":"65f2d486-2dd3-4417-bed3-8170f680ce6a","system_id":"levelo_inurba_marseille","lat":43.30308,"lon":5.36895,"is_reserved":false,"is_disabled":false,"rental_uris":{"android":"levelo://app?vid=65f2d486-2dd3-4417-bed3-8170f680ce6a","ios":"levelo://app?vid=65f2d486-2dd3-4417-bed3-8170f680ce6a"},"vehicle_type_id":"4","last_reported":1728659304,"current_range_meters":16800,"station_id":"ce4bgqh2rcd13ifvqc5g","pricing_plan_id":"cebpf4jnsgd1na2vs0mg"},{"bike_id":"cdff76e7-69c2-415a-867c-b448e25b46dc","system_id":"levelo_inurba_marseille","lat":43.29602,"lon":5.38105,"is_reserved":false,"is_disabled":false,"rental_uris":{"android":"levelo://app?vid=cdff76e7-69c2-415a-867c-b448e25b46dc","ios":"levelo://app?vid=cdff76e7-69c2-415a-867c-b448e25b46dc"},"vehicle_type_id":"4","last_reported":1728659304,"current_range_meters":32400,"station_id":"ce4bgl12rcd13ifvqbo0","pricing_plan_id":"cebpf4jnsgd1na2vs0mg"},{"bike_id":"0ee70856-9a00-48c6-a09b-236024c7a8f9","system_id":"levelo_inurba_marseille","lat":43.31692,"lon":5.37756,"is_reserved":false,"is_disabled":false,"rental_uris":{"android":"levelo://app?vid=0ee70856-9a00-48c6-a09b-236024c7a8f9","ios":"levelo://app?vid=0ee70856-9a00-48c6-a09b-236024c7a8f9"},"vehicle_type_id":"4","last_reported":1728659304,"current_range_meters":38000,"station_id":"ce4bgth2rcd13ifvqch0","pricing_plan_id":"cebpf4jnsgd1na2vs0mg"},{"bike_id":"dc47fdba-6b4d-4a7f-8783-9fb64c31e4f9","system_id":"levelo_inurba_marseille","lat":43.26212,"lon":5.37443,"is_reserved":false,"is_disabled":false,"rental_uris":{"android":"levelo://app?vid=dc47fdba-6b4d-4a7f-8783-9fb64c31e4f9","ios":"levelo://app?vid=dc47fdba-6b4d-4a7f-8783-9fb64c31e4f9"},"vehicle_type_id":"4","last_reported":1728659304,"current_range_meters":10000,"station_id":"ce4bhgp2rcd13ifvqfc0","pricing_plan_id":"cebpf4jnsgd1na2vs0mg"},{"bike_id":"39bb093e-1fb0-4fe9-a7de-f970ccf3512f","system_id":"levelo_inurba_marseille","lat":43.22932,"lon":5.35378,"is_reserved":false,"is_disabled":false,"rental_uris":{"android":"levelo://app?vid=39bb093e-1fb0-4fe9-a7de-f970ccf3512f","ios":"levelo://app?vid=39bb093e-1fb0-4fe9-a7de-f970ccf3512f"},"vehicle_type_id":"4","last_reported":1728659304,"current_range_meters":25200,"station_id":"cpo3532slgdg3j2ikp40","pricing_plan_id":"cebpf4jnsgd1na2vs0mg"},{"bike_id":"134d3346-a736-4563-b586-31784d854e15","system_id":"levelo_inurba_marseille","lat":43.28483,"lon":5.38556,"is_reserved":false,"is_disabled":false,"rental_uris":{"android":"levelo://app?vid=134d3346-a736-4563-b586-31784d854e15","ios":"levelo://app?vid=134d3346-a736-4563-b586-31784d854e15"},"vehicle_type_id":"4","last_reported":1728659304,"current_range_meters":4400,"station_id":"ce4bh8p2rcd13ifvqeb0","pricing_plan_id":"cebpf4jnsgd1na2vs0mg"},{"bike_id":"de1b9930-e636-46d5-bc4b-40e16bee5c28","system_id":"levelo_inurba_marseille","lat":43.28268,"lon":5.35079,"is_reserved":false,"is_disabled":false,"rental_uris":{"android":"levelo://app?vid=de1b9930-e636-46d5-bc4b-40e16bee5c28","ios":"levelo://app?vid=de1b9930-e636-46d5-bc4b-40e16bee5c28"},"vehicle_type_id":"4","last_reported":1728659304,"current_range_meters":25600,"station_id":"ce4bhbp2rcd13ifvqerg","pricing_plan_id":"cebpf4jnsgd1na2vs0mg"},{"bike_id":"3799f984-cd5a-486b-994e-ff0af7f7874e","system_id":"levelo_inurba_marseille","lat":43.34136,"lon":5.40896,"is_reserved":false,"is_disabled":false,"rental_uris":{"android":"levelo://app?vid=3799f984-cd5a-486b-994e-ff0af7f7874e","ios":"levelo://app?vid=3799f984-cd5a-486b-994e-ff0af7f7874e"},"vehicle_type_id":"4","last_reported":1728659304,"current_range_meters":12800,"station_id":"ce4bhqh2rcd13ifvqhlg","pricing_plan_id":"cebpf4jnsgd1na2vs0mg"},{"bike_id":"5a5649e8-a9bc-4d0f-be41-ed6fc56a9baf","system_id":"levelo_inurba_marseille","lat":43.22925,"lon":5.35379,"is_reserved":false,"is_disabled":false,"rental_uris":{"android":"levelo://app?vid=5a5649e8-a9bc-4d0f-be41-ed6fc56a9baf","ios":"levelo://app?vid=5a5649e8-a9bc-4d0f-be41-ed6fc56a9baf"},"vehicle_type_id":"4","last_reported":1728659304,"current_range_meters":36800,"station_id":"cpo3532slgdg3j2ikp40","pricing_plan_id":"cebpf4jnsgd1na2vs0mg"},{"bike_id":"bf91cf39-238b-4baf-90ad-8f625c441ef6","system_id":"levelo_inurba_marseille","lat":43.30403,"lon":5.41291,"is_reserved":false,"is_disabled":false,"rental_uris":{"android":"levelo://app?vid=bf91cf39-238b-4baf-90ad-8f625c441ef6","ios":"levelo://app?vid=bf91cf39-238b-4baf-90ad-8f625c441ef6"},"vehicle_type_id":"4","last_reported":1728659304,"current_range_meters":23200,"station_id":"ce4bhop2rcd13ifvqh8g","pricing_plan_id":"cebpf4jnsgd1na2vs0mg"},{"bike_id":"f810505e-45f7-4dcb-9d5f-e7095403f7b8","system_id":"levelo_inurba_marseille","lat":43.28995,"lon":5.35611,"is_reserved":false,"is_disabled":false,"rental_uris":{"android":"levelo://app?vid=f810505e-45f7-4dcb-9d5f-e7095403f7b8","ios":"levelo://app?vid=f810505e-45f7-4dcb-9d5f-e7095403f7b8"},"vehicle_type_id":"4","last_reported":1728659304,"current_range_meters":8800,"station_id":"ce4bhb92rcd13ifvqen0","pricing_plan_id":"cebpf4jnsgd1na2vs0mg"},{"bike_id":"f3503148-3506-46c2-9a11-f8dbeca5cea4","system_id":"levelo_inurba_marseille","lat":43.30311,"lon":5.36895,"is_reserved":false,"is_disabled":false,"rental_uris":{"android":"levelo://app?vid=f3503148-3506-46c2-9a11-f8dbeca5cea4","ios":"levelo://app?vid=f3503148-3506-46c2-9a11-f8dbeca5cea4"},"vehicle_type_id":"4","last_reported":1728659304,"current_range_meters":9200,"station_id":"ce4bgqh2rcd13ifvqc5g","pricing_plan_id":"cebpf4jnsgd1na2vs0mg"},{"bike_id":"8fb2b431-bcb9-46ba-80fb-e26e84592fc5","system_id":"levelo_inurba_marseille","lat":43.23191,"lon":5.35559,"is_reserved":false,"is_disabled":false,"rental_uris":{"android":"levelo://app?vid=8fb2b431-bcb9-46ba-80fb-e26e84592fc5","ios":"levelo://app?vid=8fb2b431-bcb9-46ba-80fb-e26e84592fc5"},"vehicle_type_id":"4","last_reported":1728659304,"current_range_meters":36800,"station_id":"ce4bhu92rcd13ifvqi70","pricing_plan_id":"cebpf4jnsgd1na2vs0mg"},{"bike_id":"94a98bed-57fe-4e95-a351-f2ed21223b0b","system_id":"levelo_inurba_marseille","lat":43.30643,"lon":5.40102,"is_reserved":false,"is_disabled":false,"rental_uris":{"android":"levelo://app?vid=94a98bed-57fe-4e95-a351-f2ed21223b0b","ios":"levelo://app?vid=94a98bed-57fe-4e95-a351-f2ed21223b0b"},"vehicle_type_id":"4","last_reported":1728659304,"current_range_meters":20400,"station_id":"ce4bh112rcd13ifvqda0","pricing_plan_id":"cebpf4jnsgd1na2vs0mg"},{"bike_id":"01196aef-599c-4702-afa6-4b7fbbf7de95","system_id":"levelo_inurba_marseille","lat":43.25865,"lon":5.39899,"is_reserved":false,"is_disabled":false,"rental_uris":{"android":"levelo://app?vid=01196aef-599c-4702-afa6-4b7fbbf7de95","ios":"levelo://app?vid=01196aef-599c-4702-afa6-4b7fbbf7de95"},"vehicle_type_id":"4","last_reported":1728659304,"current_range_meters":38000,"station_id":"ce4bhl92rcd13ifvqghg","pricing_plan_id":"cebpf4jnsgd1na2vs0mg"},{"bike_id":"2d30c436-26f1-4952-8a40-f10e0c983246","system_id":"levelo_inurba_marseille","lat":43.30779,"lon":5.37658,"is_reserved":false,"is_disabled":false,"rental_uris":{"android":"levelo://app?vid=2d30c436-26f1-4952-8a40-f10e0c983246","ios":"levelo://app?vid=2d30c436-26f1-4952-8a40-f10e0c983246"},"vehicle_type_id":"4","last_reported":1728659304,"current_range_meters":32000,"station_id":"ce4bgv92rcd13ifvqcq0","pricing_plan_id":"cebpf4jnsgd1na2vs0mg"},{"bike_id":"182099e1-66de-48ff-8622-b212b2faaa4e","system_id":"levelo_inurba_marseille","lat":43.27369,"lon":5.36259,"is_reserved":false,"is_disabled":false,"rental_uris":{"android":"levelo://app?vid=182099e1-66de-48ff-8622-b212b2faaa4e","ios":"levelo://app?vid=182099e1-66de-48ff-8622-b212b2faaa4e"},"vehicle_type_id":"4","last_reported":1728659304,"current_range_meters":38800,"station_id":"ce4bhbh2rcd13ifvqeo0","pricing_plan_id":"cebpf4jnsgd1na2vs0mg"},{"bike_id":"70ded6a6-ef5f-4c1a-beea-062335b03364","system_id":"levelo_inurba_marseille","lat":43.32103,"lon":5.36779,"is_reserved":false,"is_disabled":false,"rental_uris":{"android":"levelo://app?vid=70ded6a6-ef5f-4c1a-beea-062335b03364","ios":"levelo://app?vid=70ded6a6-ef5f-4c1a-beea-062335b03364"},"vehicle_type_id":"4","last_reported":1728659304,"current_range_meters":36000,"station_id":"ce4bhrh2rcd13ifvqhug","pricing_plan_id":"cebpf4jnsgd1na2vs0mg"},{"bike_id":"d8e41033-466c-4f18-8114-a635474048bf","system_id":"levelo_inurba_marseille","lat":43.291382,"lon":5.355851,"is_reserved":false,"is_disabled":false,"rental_uris":{"android":"levelo://app?vid=d8e41033-466c-4f18-8114-a635474048bf","ios":"levelo://app?vid=d8e41033-466c-4f18-8114-a635474048bf"},"vehicle_type_id":"4","last_reported":1728659304,"current_range_meters":36000,"station_id":"ce4bgr92rcd13ifvqc6g","pricing_plan_id":"cebpf4jnsgd1na2vs0mg"},{"bike_id":"a27554a6-a50a-485f-8f1f-4487a4aa2e01","system_id":"levelo_inurba_marseille","lat":43.30591,"lon":5.38065,"is_reserved":false,"is_disabled":false,"rental_uris":{"android":"levelo://app?vid=a27554a6-a50a-485f-8f1f-4487a4aa2e01","ios":"levelo://app?vid=a27554a6-a50a-485f-8f1f-4487a4aa2e01"},"vehicle_type_id":"4","last_reported":1728659304,"current_range_meters":30800,"station_id":"","pricing_plan_id":"cebpf4jnsgd1na2vs0mg"},{"bike_id":"c18093ca-d74a-4d83-9d82-151bf6321765","system_id":"levelo_inurba_marseille","lat":43.28269,"lon":5.35068,"is_reserved":false,"is_disabled":false,"rental_uris":{"android":"levelo://app?vid=c18093ca-d74a-4d83-9d82-151bf6321765","ios":"levelo://app?vid=c18093ca-d74a-4d83-9d82-151bf6321765"},"vehicle_type_id":"4","last_reported":1728659304,"current_range_meters":38800,"station_id":"ce4bhbp2rcd13ifvqerg","pricing_plan_id":"cebpf4jnsgd1na2vs0mg"},{"bike_id":"2d6b34e7-38b9-4382-8bb4-f923bcf86327","system_id":"levelo_inurba_marseille","lat":43.282707,"lon":5.350764,"is_reserved":false,"is_disabled":false,"rental_uris":{"android":"levelo://app?vid=2d6b34e7-38b9-4382-8bb4-f923bcf86327","ios":"levelo://app?vid=2d6b34e7-38b9-4382-8bb4-f923bcf86327"},"vehicle_type_id":"4","last_reported":1728659304,"current_range_meters":38800,"station_id":"ce4bhbp2rcd13ifvqerg","pricing_plan_id":"cebpf4jnsgd1na2vs0mg"},{"bike_id":"12697e8e-728c-43d0-ba9d-e7ab5f3898f3","system_id":"levelo_inurba_marseille","lat":43.29931,"lon":5.36534,"is_reserved":false,"is_disabled":false,"rental_uris":{"android":"levelo://app?vid=12697e8e-728c-43d0-ba9d-e7ab5f3898f3","ios":"levelo://app?vid=12697e8e-728c-43d0-ba9d-e7ab5f3898f3"},"vehicle_type_id":"4","last_reported":1728659304,"current_range_meters":6800,"station_id":"ce4bgm92rcd13ifvqbr0","pricing_plan_id":"cebpf4jnsgd1na2vs0mg"},{"bike_id":"77735b9a-aab2-4c8d-bd33-f4f5858f4dd6","system_id":"levelo_inurba_marseille","lat":43.2808,"lon":5.39656,"is_reserved":false,"is_disabled":false,"rental_uris":{"android":"levelo://app?vid=77735b9a-aab2-4c8d-bd33-f4f5858f4dd6","ios":"levelo://app?vid=77735b9a-aab2-4c8d-bd33-f4f5858f4dd6"},"vehicle_type_id":"4","last_reported":1728659304,"current_range_meters":2800,"station_id":"ce4bho12rcd13ifvqh2g","pricing_plan_id":"cebpf4jnsgd1na2vs0mg"},{"bike_id":"aa75c41c-1391-4d5a-b0ad-fb29c317877d","system_id":"levelo_inurba_marseille","lat":43.23063,"lon":5.35493,"is_reserved":false,"is_disabled":false,"rental_uris":{"android":"levelo://app?vid=aa75c41c-1391-4d5a-b0ad-fb29c317877d","ios":"levelo://app?vid=aa75c41c-1391-4d5a-b0ad-fb29c317877d"},"vehicle_type_id":"4","last_reported":1728659304,"current_range_meters":6000,"station_id":"cpo3342slgdg3j2ifvpg","pricing_plan_id":"cebpf4jnsgd1na2vs0mg"},{"bike_id":"89ae9d68-1ff4-4e49-aec5-6964e38a9f19","system_id":"levelo_inurba_marseille","lat":43.30602,"lon":5.3722,"is_reserved":false,"is_disabled":false,"rental_uris":{"android":"levelo://app?vid=89ae9d68-1ff4-4e49-aec5-6964e38a9f19","ios":"levelo://app?vid=89ae9d68-1ff4-4e49-aec5-6964e38a9f19"},"vehicle_type_id":"4","last_reported":1728659304,"current_range_meters":28800,"station_id":"ce4bgqh2rcd13ifvqc4g","pricing_plan_id":"cebpf4jnsgd1na2vs0mg"},{"bike_id":"4a4b0418-9b23-4115-aa86-deb67ac7acd4","system_id":"levelo_inurba_marseille","lat":43.30189,"lon":5.36618,"is_reserved":false,"is_disabled":false,"rental_uris":{"android":"levelo://app?vid=4a4b0418-9b23-4115-aa86-deb67ac7acd4","ios":"levelo://app?vid=4a4b0418-9b23-4115-aa86-deb67ac7acd4"},"vehicle_type_id":"4","last_reported":1728659304,"current_range_meters":4400,"station_id":"ce4bgrh2rcd13ifvqc8g","pricing_plan_id":"cebpf4jnsgd1na2vs0mg"},{"bike_id":"1a0f090a-d6e7-4a1e-bfe5-0c2a632b851c","system_id":"levelo_inurba_marseille","lat":43.27175,"lon":5.40994,"is_reserved":false,"is_disabled":false,"rental_uris":{"android":"levelo://app?vid=1a0f090a-d6e7-4a1e-bfe5-0c2a632b851c","ios":"levelo://app?vid=1a0f090a-d6e7-4a1e-bfe5-0c2a632b851c"},"vehicle_type_id":"4","last_reported":1728659304,"current_range_meters":38800,"station_id":"ce4bhl12rcd13ifvqgf0","pricing_plan_id":"cebpf4jnsgd1na2vs0mg"},{"bike_id":"9e5cac53-5e0b-48ef-bca9-b415dc589779","system_id":"levelo_inurba_marseille","lat":43.29448,"lon":5.39751,"is_reserved":false,"is_disabled":false,"rental_uris":{"android":"levelo://app?vid=9e5cac53-5e0b-48ef-bca9-b415dc589779","ios":"levelo://app?vid=9e5cac53-5e0b-48ef-bca9-b415dc589779"},"vehicle_type_id":"4","last_reported":1728659304,"current_range_meters":11200,"station_id":"ce4bh3h2rcd13ifvqdo0","pricing_plan_id":"cebpf4jnsgd1na2vs0mg"},{"bike_id":"66c1d57d-3c71-42db-be34-4074a2f0c301","system_id":"levelo_inurba_marseille","lat":43.25861,"lon":5.39904,"is_reserved":false,"is_disabled":false,"rental_uris":{"android":"levelo://app?vid=66c1d57d-3c71-42db-be34-4074a2f0c301","ios":"levelo://app?vid=66c1d57d-3c71-42db-be34-4074a2f0c301"},"vehicle_type_id":"4","last_reported":1728659304,"current_range_meters":14800,"station_id":"ce4bhl92rcd13ifvqghg","pricing_plan_id":"cebpf4jnsgd1na2vs0mg"},{"bike_id":"571d5718-a57f-42a9-8878-8f6b70587879","system_id":"levelo_inurba_marseille","lat":43.2694,"lon":5.40249,"is_reserved":false,"is_disabled":false,"rental_uris":{"android":"levelo://app?vid=571d5718-a57f-42a9-8878-8f6b70587879","ios":"levelo://app?vid=571d5718-a57f-42a9-8878-8f6b70587879"},"vehicle_type_id":"4","last_reported":1728659304,"current_range_meters":36800,"station_id":"cjm6bp8fraef2m0cb0m0","pricing_plan_id":"cebpf4jnsgd1na2vs0mg"},{"bike_id":"b1009450-6152-462c-a724-90df51eeb6db","system_id":"levelo_inurba_marseille","lat":43.32382,"lon":5.38917,"is_reserved":false,"is_disabled":false,"rental_uris":{"android":"levelo://app?vid=b1009450-6152-462c-a724-90df51eeb6db","ios":"levelo://app?vid=b1009450-6152-462c-a724-90df51eeb6db"},"vehicle_type_id":"4","last_reported":1728659304,"current_range_meters":5600,"station_id":"ce4bhqp2rcd13ifvqhog","pricing_plan_id":"cebpf4jnsgd1na2vs0mg"},{"bike_id":"eafc0444-4130-4e1b-b977-9560fd370987","system_id":"levelo_inurba_marseille","lat":43.22927,"lon":5.35372,"is_reserved":false,"is_disabled":false,"rental_uris":{"android":"levelo://app?vid=eafc0444-4130-4e1b-b977-9560fd370987","ios":"levelo://app?vid=eafc0444-4130-4e1b-b977-9560fd370987"},"vehicle_type_id":"4","last_reported":1728659304,"current_range_meters":22800,"station_id":"cpo3532slgdg3j2ikp40","pricing_plan_id":"cebpf4jnsgd1na2vs0mg"},{"bike_id":"19f5f42a-6adc-4145-8932-c12d978bc3e8","system_id":"levelo_inurba_marseille","lat":43.29844,"lon":5.36287,"is_reserved":false,"is_disabled":false,"rental_uris":{"android":"levelo://app?vid=19f5f42a-6adc-4145-8932-c12d978bc3e8","ios":"levelo://app?vid=19f5f42a-6adc-4145-8932-c12d978bc3e8"},"vehicle_type_id":"4","last_reported":1728659304,"current_range_meters":12400,"station_id":"ce4bgpp2rcd13ifvqc3g","pricing_plan_id":"cebpf4jnsgd1na2vs0mg"},{"bike_id":"32e21f03-ae8f-4349-8cc5-3f2d4f796fd2","system_id":"levelo_inurba_marseille","lat":43.30608,"lon":5.37221,"is_reserved":false,"is_disabled":false,"rental_uris":{"android":"levelo://app?vid=32e21f03-ae8f-4349-8cc5-3f2d4f796fd2","ios":"levelo://app?vid=32e21f03-ae8f-4349-8cc5-3f2d4f796fd2"},"vehicle_type_id":"4","last_reported":1728659304,"current_range_meters":35200,"station_id":"ce4bgqh2rcd13ifvqc4g","pricing_plan_id":"cebpf4jnsgd1na2vs0mg"},{"bike_id":"67417f76-a5e8-4092-9741-8ff2c7130871","system_id":"levelo_inurba_marseille","lat":43.26555,"lon":5.37287,"is_reserved":false,"is_disabled":false,"rental_uris":{"android":"levelo://app?vid=67417f76-a5e8-4092-9741-8ff2c7130871","ios":"levelo://app?vid=67417f76-a5e8-4092-9741-8ff2c7130871"},"vehicle_type_id":"4","last_reported":1728659304,"current_range_meters":38800,"station_id":"ce4bhg12rcd13ifvqf70","pricing_plan_id":"cebpf4jnsgd1na2vs0mg"},{"bike_id":"981180ee-26eb-4e65-a40c-49791f6d3f24","system_id":"levelo_inurba_marseille","lat":43.29896,"lon":5.43669,"is_reserved":false,"is_disabled":false,"rental_uris":{"android":"levelo://app?vid=981180ee-26eb-4e65-a40c-49791f6d3f24","ios":"levelo://app?vid=981180ee-26eb-4e65-a40c-49791f6d3f24"},"vehicle_type_id":"4","last_reported":1728659304,"current_range_meters":36000,"station_id":"ce4bhpp2rcd13ifvqhfg","pricing_plan_id":"cebpf4jnsgd1na2vs0mg"},{"bike_id":"4ae13479-d788-49d7-8212-1df06424fb0b","system_id":"levelo_inurba_marseille","lat":43.31538,"lon":5.38032,"is_reserved":false,"is_disabled":false,"rental_uris":{"android":"levelo://app?vid=4ae13479-d788-49d7-8212-1df06424fb0b","ios":"levelo://app?vid=4ae13479-d788-49d7-8212-1df06424fb0b"},"vehicle_type_id":"4","last_reported":1728659304,"current_range_meters":18800,"station_id":"ce4bhsp2rcd13ifvqi50","pricing_plan_id":"cebpf4jnsgd1na2vs0mg"},{"bike_id":"41b6fa1a-91cc-47aa-87ba-072a2cea3e45","system_id":"levelo_inurba_marseille","lat":43.33023,"lon":5.39035,"is_reserved":false,"is_disabled":false,"rental_uris":{"android":"levelo://app?vid=41b6fa1a-91cc-47aa-87ba-072a2cea3e45","ios":"levelo://app?vid=41b6fa1a-91cc-47aa-87ba-072a2cea3e45"},"vehicle_type_id":"4","last_reported":1728659304,"current_range_meters":9600,"station_id":"ce4bhr92rcd13ifvqhrg","pricing_plan_id":"cebpf4jnsgd1na2vs0mg"},{"bike_id":"0540e61f-fa6d-40b6-a13e-2152141b9555","system_id":"levelo_inurba_marseille","lat":43.27143,"lon":5.38923,"is_reserved":false,"is_disabled":false,"rental_uris":{"android":"levelo://app?vid=0540e61f-fa6d-40b6-a13e-2152141b9555","ios":"levelo://app?vid=0540e61f-fa6d-40b6-a13e-2152141b9555"},"vehicle_type_id":"4","last_reported":1728659304,"current_range_meters":5600,"station_id":"","pricing_plan_id":"cebpf4jnsgd1na2vs0mg"},{"bike_id":"12499490-d768-4cf1-bed8-05bbd35bd3de","system_id":"levelo_inurba_marseille","lat":43.2816,"lon":5.42633,"is_reserved":false,"is_disabled":false,"rental_uris":{"android":"levelo://app?vid=12499490-d768-4cf1-bed8-05bbd35bd3de","ios":"levelo://app?vid=12499490-d768-4cf1-bed8-05bbd35bd3de"},"vehicle_type_id":"4","last_reported":1728659304,"current_range_meters":7200,"station_id":"ce4bhnh2rcd13ifvqgug","pricing_plan_id":"cebpf4jnsgd1na2vs0mg"},{"bike_id":"9f9542f3-e05c-46c6-803b-8d62b2c4e40d","system_id":"levelo_inurba_marseille","lat":43.28154,"lon":5.42634,"is_reserved":false,"is_disabled":false,"rental_uris":{"android":"levelo://app?vid=9f9542f3-e05c-46c6-803b-8d62b2c4e40d","ios":"levelo://app?vid=9f9542f3-e05c-46c6-803b-8d62b2c4e40d"},"vehicle_type_id":"4","last_reported":1728659304,"current_range_meters":26800,"station_id":"ce4bhnh2rcd13ifvqgug","pricing_plan_id":"cebpf4jnsgd1na2vs0mg"},{"bike_id":"f95a634b-086f-41eb-b1a2-dc2ae7dba264","system_id":"levelo_inurba_marseille","lat":43.28265,"lon":5.35079,"is_reserved":false,"is_disabled":false,"rental_uris":{"android":"levelo://app?vid=f95a634b-086f-41eb-b1a2-dc2ae7dba264","ios":"levelo://app?vid=f95a634b-086f-41eb-b1a2-dc2ae7dba264"},"vehicle_type_id":"4","last_reported":1728659304,"current_range_meters":22800,"station_id":"ce4bhbp2rcd13ifvqerg","pricing_plan_id":"cebpf4jnsgd1na2vs0mg"},{"bike_id":"6fa278dc-85b2-45c2-9592-749272d46d78","system_id":"levelo_inurba_marseille","lat":43.28362,"lon":5.38634,"is_reserved":false,"is_disabled":false,"rental_uris":{"android":"levelo://app?vid=6fa278dc-85b2-45c2-9592-749272d46d78","ios":"levelo://app?vid=6fa278dc-85b2-45c2-9592-749272d46d78"},"vehicle_type_id":"4","last_reported":1728659304,"current_range_meters":16000,"station_id":"ce4bh492rcd13ifvqdvg","pricing_plan_id":"cebpf4jnsgd1na2vs0mg"},{"bike_id":"2d1a79aa-0c0a-46d3-aa06-2e320f73360a","system_id":"levelo_inurba_marseille","lat":43.26203,"lon":5.37444,"is_reserved":false,"is_disabled":false,"rental_uris":{"android":"levelo://app?vid=2d1a79aa-0c0a-46d3-aa06-2e320f73360a","ios":"levelo://app?vid=2d1a79aa-0c0a-46d3-aa06-2e320f73360a"},"vehicle_type_id":"4","last_reported":1728659304,"current_range_meters":8400,"station_id":"ce4bhgp2rcd13ifvqfc0","pricing_plan_id":"cebpf4jnsgd1na2vs0mg"},{"bike_id":"ec97adc2-7fa7-4a15-8a7b-d61d54efa516","system_id":"levelo_inurba_marseille","lat":43.3025,"lon":5.40078,"is_reserved":false,"is_disabled":false,"rental_uris":{"android":"levelo://app?vid=ec97adc2-7fa7-4a15-8a7b-d61d54efa516","ios":"levelo://app?vid=ec97adc2-7fa7-4a15-8a7b-d61d54efa516"},"vehicle_type_id":"4","last_reported":1728659304,"current_range_meters":38400,"station_id":"ce4bgvh2rcd13ifvqcs0","pricing_plan_id":"cebpf4jnsgd1na2vs0mg"},{"bike_id":"8c9a5779-48c6-4a49-b87c-4b9241d4f44b","system_id":"levelo_inurba_marseille","lat":43.337444,"lon":5.374475,"is_reserved":false,"is_disabled":false,"rental_uris":{"android":"levelo://app?vid=8c9a5779-48c6-4a49-b87c-4b9241d4f44b","ios":"levelo://app?vid=8c9a5779-48c6-4a49-b87c-4b9241d4f44b"},"vehicle_type_id":"4","last_reported":1728659304,"current_range_meters":10800,"station_id":"","pricing_plan_id":"cebpf4jnsgd1na2vs0mg"},{"bike_id":"5de3fe48-6c1a-45ce-a7c0-d5d781345c1e","system_id":"levelo_inurba_marseille","lat":43.30197,"lon":5.36627,"is_reserved":false,"is_disabled":false,"rental_uris":{"android":"levelo://app?vid=5de3fe48-6c1a-45ce-a7c0-d5d781345c1e","ios":"levelo://app?vid=5de3fe48-6c1a-45ce-a7c0-d5d781345c1e"},"vehicle_type_id":"4","last_reported":1728659304,"current_range_meters":17600,"station_id":"ce4bgrh2rcd13ifvqc8g","pricing_plan_id":"cebpf4jnsgd1na2vs0mg"},{"bike_id":"57c5b202-4d22-4168-b24f-1961bfc4e5db","system_id":"levelo_inurba_marseille","lat":43.2827,"lon":5.35074,"is_reserved":false,"is_disabled":false,"rental_uris":{"android":"levelo://app?vid=57c5b202-4d22-4168-b24f-1961bfc4e5db","ios":"levelo://app?vid=57c5b202-4d22-4168-b24f-1961bfc4e5db"},"vehicle_type_id":"4","last_reported":1728659304,"current_range_meters":38000,"station_id":"ce4bhbp2rcd13ifvqerg","pricing_plan_id":"cebpf4jnsgd1na2vs0mg"},{"bike_id":"81065468-d9a9-4abd-8ed5-6ee07c180978","system_id":"levelo_inurba_marseille","lat":43.31715,"lon":5.42404,"is_reserved":false,"is_disabled":false,"rental_uris":{"android":"levelo://app?vid=81065468-d9a9-4abd-8ed5-6ee07c180978","ios":"levelo://app?vid=81065468-d9a9-4abd-8ed5-6ee07c180978"},"vehicle_type_id":"4","last_reported":1728659304,"current_range_meters":22000,"station_id":"ce4bhp92rcd13ifvqhbg","pricing_plan_id":"cebpf4jnsgd1na2vs0mg"},{"bike_id":"fe8bfe5f-6b56-4544-a987-9773c5b6594d","system_id":"levelo_inurba_marseille","lat":43.337444,"lon":5.374475,"is_reserved":false,"is_disabled":false,"rental_uris":{"android":"levelo://app?vid=fe8bfe5f-6b56-4544-a987-9773c5b6594d","ios":"levelo://app?vid=fe8bfe5f-6b56-4544-a987-9773c5b6594d"},"vehicle_type_id":"4","last_reported":1728659304,"current_range_meters":36000,"station_id":"","pricing_plan_id":"cebpf4jnsgd1na2vs0mg"},{"bike_id":"516b9182-5518-407c-a669-e37ecdd727b0","system_id":"levelo_inurba_marseille","lat":43.2827,"lon":5.35082,"is_reserved":false,"is_disabled":false,"rental_uris":{"android":"levelo://app?vid=516b9182-5518-407c-a669-e37ecdd727b0","ios":"levelo://app?vid=516b9182-5518-407c-a669-e37ecdd727b0"},"vehicle_type_id":"4","last_reported":1728659304,"current_range_meters":7200,"station_id":"ce4bhbp2rcd13ifvqerg","pricing_plan_id":"cebpf4jnsgd1na2vs0mg"},{"bike_id":"184854d3-e0a7-43e1-a0e2-33c77be5a142","system_id":"levelo_inurba_marseille","lat":43.3093,"lon":5.4014,"is_reserved":false,"is_disabled":false,"rental_uris":{"android":"levelo://app?vid=184854d3-e0a7-43e1-a0e2-33c77be5a142","ios":"levelo://app?vid=184854d3-e0a7-43e1-a0e2-33c77be5a142"},"vehicle_type_id":"4","last_reported":1728659304,"current_range_meters":2000,"station_id":"ce4bgvp2rcd13ifvqct0","pricing_plan_id":"cebpf4jnsgd1na2vs0mg"},{"bike_id":"f0b308d8-3b91-4295-a914-a1d0bde4bf46","system_id":"levelo_inurba_marseille","lat":43.3061,"lon":5.37232,"is_reserved":false,"is_disabled":false,"rental_uris":{"android":"levelo://app?vid=f0b308d8-3b91-4295-a914-a1d0bde4bf46","ios":"levelo://app?vid=f0b308d8-3b91-4295-a914-a1d0bde4bf46"},"vehicle_type_id":"4","last_reported":1728659304,"current_range_meters":37600,"station_id":"ce4bgqh2rcd13ifvqc4g","pricing_plan_id":"cebpf4jnsgd1na2vs0mg"},{"bike_id":"86399c9b-cf0c-4b00-9f5f-a4d8bd639b5d","system_id":"levelo_inurba_marseille","lat":43.26552,"lon":5.37287,"is_reserved":false,"is_disabled":false,"rental_uris":{"android":"levelo://app?vid=86399c9b-cf0c-4b00-9f5f-a4d8bd639b5d","ios":"levelo://app?vid=86399c9b-cf0c-4b00-9f5f-a4d8bd639b5d"},"vehicle_type_id":"4","last_reported":1728659304,"current_range_meters":34000,"station_id":"ce4bhg12rcd13ifvqf70","pricing_plan_id":"cebpf4jnsgd1na2vs0mg"},{"bike_id":"384f7998-c20a-48f5-9a4b-f8228082c4e6","system_id":"levelo_inurba_marseille","lat":43.27174,"lon":5.40989,"is_reserved":false,"is_disabled":false,"rental_uris":{"android":"levelo://app?vid=384f7998-c20a-48f5-9a4b-f8228082c4e6","ios":"levelo://app?vid=384f7998-c20a-48f5-9a4b-f8228082c4e6"},"vehicle_type_id":"4","last_reported":1728659304,"current_range_meters":28000,"station_id":"ce4bhl12rcd13ifvqgf0","pricing_plan_id":"cebpf4jnsgd1na2vs0mg"},{"bike_id":"c4074b75-0b9c-42c5-9ba4-ecf059821835","system_id":"levelo_inurba_marseille","lat":43.26806,"lon":5.40273,"is_reserved":false,"is_disabled":false,"rental_uris":{"android":"levelo://app?vid=c4074b75-0b9c-42c5-9ba4-ecf059821835","ios":"levelo://app?vid=c4074b75-0b9c-42c5-9ba4-ecf059821835"},"vehicle_type_id":"4","last_reported":1728659304,"current_range_meters":35600,"station_id":"ce501612rcd8frsf0b60","pricing_plan_id":"cebpf4jnsgd1na2vs0mg"},{"bike_id":"aa93c18e-6055-4fad-ad2c-dd5209f2ac45","system_id":"levelo_inurba_marseille","lat":43.24798,"lon":5.37459,"is_reserved":false,"is_disabled":false,"rental_uris":{"android":"levelo://app?vid=aa93c18e-6055-4fad-ad2c-dd5209f2ac45","ios":"levelo://app?vid=aa93c18e-6055-4fad-ad2c-dd5209f2ac45"},"vehicle_type_id":"4","last_reported":1728659304,"current_range_meters":4000,"station_id":"ce4bhgh2rcd13ifvqfb0","pricing_plan_id":"cebpf4jnsgd1na2vs0mg"},{"bike_id":"52ad4597-0db5-469e-94d4-17ed8e14b09e","system_id":"levelo_inurba_marseille","lat":43.30439,"lon":5.39746,"is_reserved":false,"is_disabled":false,"rental_uris":{"android":"levelo://app?vid=52ad4597-0db5-469e-94d4-17ed8e14b09e","ios":"levelo://app?vid=52ad4597-0db5-469e-94d4-17ed8e14b09e"},"vehicle_type_id":"4","last_reported":1728659304,"current_range_meters":38800,"station_id":"ce4bh092rcd13ifvqd20","pricing_plan_id":"cebpf4jnsgd1na2vs0mg"},{"bike_id":"15819d90-a224-4235-bacd-9875aa1b56e1","system_id":"levelo_inurba_marseille","lat":43.317551,"lon":5.390108,"is_reserved":false,"is_disabled":false,"rental_uris":{"android":"levelo://app?vid=15819d90-a224-4235-bacd-9875aa1b56e1","ios":"levelo://app?vid=15819d90-a224-4235-bacd-9875aa1b56e1"},"vehicle_type_id":"4","last_reported":1728659304,"current_range_meters":33600,"station_id":"ce4bh0h2rcd13ifvqd50","pricing_plan_id":"cebpf4jnsgd1na2vs0mg"},{"bike_id":"a27e3a98-40d0-4c12-9c82-538accb93671","system_id":"levelo_inurba_marseille","lat":43.30782,"lon":5.37648,"is_reserved":false,"is_disabled":false,"rental_uris":{"android":"levelo://app?vid=a27e3a98-40d0-4c12-9c82-538accb93671","ios":"levelo://app?vid=a27e3a98-40d0-4c12-9c82-538accb93671"},"vehicle_type_id":"4","last_reported":1728659304,"current_range_meters":33600,"station_id":"ce4bgv92rcd13ifvqcq0","pricing_plan_id":"cebpf4jnsgd1na2vs0mg"},{"bike_id":"05a856bd-a026-4970-8203-eacbc5c2ac88","system_id":"levelo_inurba_marseille","lat":43.293032,"lon":5.37162,"is_reserved":false,"is_disabled":false,"rental_uris":{"android":"levelo://app?vid=05a856bd-a026-4970-8203-eacbc5c2ac88","ios":"levelo://app?vid=05a856bd-a026-4970-8203-eacbc5c2ac88"},"vehicle_type_id":"4","last_reported":1728659304,"current_range_meters":38400,"station_id":"ce4bgh92rcd13ifvqb40","pricing_plan_id":"cebpf4jnsgd1na2vs0mg"},{"bike_id":"d0bcf234-798b-4c72-885f-7da24c2fef9e","system_id":"levelo_inurba_marseille","lat":43.3276,"lon":5.38963,"is_reserved":false,"is_disabled":false,"rental_uris":{"android":"levelo://app?vid=d0bcf234-798b-4c72-885f-7da24c2fef9e","ios":"levelo://app?vid=d0bcf234-798b-4c72-885f-7da24c2fef9e"},"vehicle_type_id":"4","last_reported":1728659304,"current_range_meters":38800,"station_id":"","pricing_plan_id":"cebpf4jnsgd1na2vs0mg"},{"bike_id":"ecea251f-aeda-4899-8c04-0a33ecec8074","system_id":"levelo_inurba_marseille","lat":43.243,"lon":5.396724,"is_reserved":false,"is_disabled":false,"rental_uris":{"android":"levelo://app?vid=ecea251f-aeda-4899-8c04-0a33ecec8074","ios":"levelo://app?vid=ecea251f-aeda-4899-8c04-0a33ecec8074"},"vehicle_type_id":"4","last_reported":1728659304,"current_range_meters":14000,"station_id":"ce4bhn12rcd13ifvqgpg","pricing_plan_id":"cebpf4jnsgd1na2vs0mg"},{"bike_id":"9f21766f-0837-4bcb-a575-e8ce2df39312","system_id":"levelo_inurba_marseille","lat":43.3302,"lon":5.3904,"is_reserved":false,"is_disabled":false,"rental_uris":{"android":"levelo://app?vid=9f21766f-0837-4bcb-a575-e8ce2df39312","ios":"levelo://app?vid=9f21766f-0837-4bcb-a575-e8ce2df39312"},"vehicle_type_id":"4","last_reported":1728659304,"current_range_meters":33200,"station_id":"ce4bhr92rcd13ifvqhrg","pricing_plan_id":"cebpf4jnsgd1na2vs0mg"},{"bike_id":"673a69ee-3900-4626-ae86-8a7a5f17ae55","system_id":"levelo_inurba_marseille","lat":43.28267,"lon":5.35066,"is_reserved":false,"is_disabled":false,"rental_uris":{"android":"levelo://app?vid=673a69ee-3900-4626-ae86-8a7a5f17ae55","ios":"levelo://app?vid=673a69ee-3900-4626-ae86-8a7a5f17ae55"},"vehicle_type_id":"4","last_reported":1728659304,"current_range_meters":24800,"station_id":"ce4bhbp2rcd13ifvqerg","pricing_plan_id":"cebpf4jnsgd1na2vs0mg"},{"bike_id":"8b95fb10-ea17-4650-9e95-14dff8e76e8d","system_id":"levelo_inurba_marseille","lat":43.28424,"lon":5.34989,"is_reserved":false,"is_disabled":false,"rental_uris":{"android":"levelo://app?vid=8b95fb10-ea17-4650-9e95-14dff8e76e8d","ios":"levelo://app?vid=8b95fb10-ea17-4650-9e95-14dff8e76e8d"},"vehicle_type_id":"4","last_reported":1728659304,"current_range_meters":14800,"station_id":"ce4bhbh2rcd13ifvqepg","pricing_plan_id":"cebpf4jnsgd1na2vs0mg"},{"bike_id":"b7747f12-e72c-4d5b-a48d-23bd3fd45ccc","system_id":"levelo_inurba_marseille","lat":43.27094,"lon":5.42252,"is_reserved":false,"is_disabled":false,"rental_uris":{"android":"levelo://app?vid=b7747f12-e72c-4d5b-a48d-23bd3fd45ccc","ios":"levelo://app?vid=b7747f12-e72c-4d5b-a48d-23bd3fd45ccc"},"vehicle_type_id":"4","last_reported":1728659304,"current_range_meters":28000,"station_id":"ce4bhk92rcd13ifvqgb0","pricing_plan_id":"cebpf4jnsgd1na2vs0mg"},{"bike_id":"930df0d0-a7d0-4c57-9cb8-60affbbb68dc","system_id":"levelo_inurba_marseille","lat":43.31062,"lon":5.401,"is_reserved":false,"is_disabled":false,"rental_uris":{"android":"levelo://app?vid=930df0d0-a7d0-4c57-9cb8-60affbbb68dc","ios":"levelo://app?vid=930df0d0-a7d0-4c57-9cb8-60affbbb68dc"},"vehicle_type_id":"4","last_reported":1728659304,"current_range_meters":11600,"station_id":"","pricing_plan_id":"cebpf4jnsgd1na2vs0mg"},{"bike_id":"7295ae03-64ab-48ab-bdc2-f5c59064c566","system_id":"levelo_inurba_marseille","lat":43.25491,"lon":5.37648,"is_reserved":false,"is_disabled":false,"rental_uris":{"android":"levelo://app?vid=7295ae03-64ab-48ab-bdc2-f5c59064c566","ios":"levelo://app?vid=7295ae03-64ab-48ab-bdc2-f5c59064c566"},"vehicle_type_id":"4","last_reported":1728659304,"current_range_meters":9600,"station_id":"ce4bhh12rcd13ifvqff0","pricing_plan_id":"cebpf4jnsgd1na2vs0mg"},{"bike_id":"315d7ae0-1921-43f6-aa18-94c31c5fa005","system_id":"levelo_inurba_marseille","lat":43.27617,"lon":5.36113,"is_reserved":false,"is_disabled":false,"rental_uris":{"android":"levelo://app?vid=315d7ae0-1921-43f6-aa18-94c31c5fa005","ios":"levelo://app?vid=315d7ae0-1921-43f6-aa18-94c31c5fa005"},"vehicle_type_id":"4","last_reported":1728659304,"current_range_meters":24400,"station_id":"ce4bgj92rcd13ifvqbe0","pricing_plan_id":"cebpf4jnsgd1na2vs0mg"},{"bike_id":"dbf89e1d-9db2-4f5e-9932-5f968c8848c1","system_id":"levelo_inurba_marseille","lat":43.29225,"lon":5.36053,"is_reserved":false,"is_disabled":false,"rental_uris":{"android":"levelo://app?vid=dbf89e1d-9db2-4f5e-9932-5f968c8848c1","ios":"levelo://app?vid=dbf89e1d-9db2-4f5e-9932-5f968c8848c1"},"vehicle_type_id":"4","last_reported":1728659304,"current_range_meters":6800,"station_id":"ce4bhbh2rcd13ifvqeqg","pricing_plan_id":"cebpf4jnsgd1na2vs0mg"},{"bike_id":"9d4dd5b6-3c3e-4037-9256-fa943220aeab","system_id":"levelo_inurba_marseille","lat":43.26204,"lon":5.37455,"is_reserved":false,"is_disabled":false,"rental_uris":{"android":"levelo://app?vid=9d4dd5b6-3c3e-4037-9256-fa943220aeab","ios":"levelo://app?vid=9d4dd5b6-3c3e-4037-9256-fa943220aeab"},"vehicle_type_id":"4","last_reported":1728659304,"current_range_meters":8000,"station_id":"ce4bhgp2rcd13ifvqfc0","pricing_plan_id":"cebpf4jnsgd1na2vs0mg"},{"bike_id":"46db8950-1206-4f74-8511-91b0d743963b","system_id":"levelo_inurba_marseille","lat":43.30133,"lon":5.38782,"is_reserved":false,"is_disabled":false,"rental_uris":{"android":"levelo://app?vid=46db8950-1206-4f74-8511-91b0d743963b","ios":"levelo://app?vid=46db8950-1206-4f74-8511-91b0d743963b"},"vehicle_type_id":"4","last_reported":1728659304,"current_range_meters":22800,"station_id":"ce4bghh2rcd13ifvqb60","pricing_plan_id":"cebpf4jnsgd1na2vs0mg"},{"bike_id":"c462ac31-e294-4267-bc1b-a4f664716350","system_id":"levelo_inurba_marseille","lat":43.23191,"lon":5.35544,"is_reserved":false,"is_disabled":false,"rental_uris":{"android":"levelo://app?vid=c462ac31-e294-4267-bc1b-a4f664716350","ios":"levelo://app?vid=c462ac31-e294-4267-bc1b-a4f664716350"},"vehicle_type_id":"4","last_reported":1728659304,"current_range_meters":26800,"station_id":"ce4bhu92rcd13ifvqi70","pricing_plan_id":"cebpf4jnsgd1na2vs0mg"},{"bike_id":"baf562c5-e012-47cf-bca0-5b919f53e7b2","system_id":"levelo_inurba_marseille","lat":43.33022,"lon":5.39046,"is_reserved":false,"is_disabled":false,"rental_uris":{"android":"levelo://app?vid=baf562c5-e012-47cf-bca0-5b919f53e7b2","ios":"levelo://app?vid=baf562c5-e012-47cf-bca0-5b919f53e7b2"},"vehicle_type_id":"4","last_reported":1728659304,"current_range_meters":38800,"station_id":"ce4bhr92rcd13ifvqhrg","pricing_plan_id":"cebpf4jnsgd1na2vs0mg"},{"bike_id":"b0fdeabb-1985-4616-8028-d60da2665017","system_id":"levelo_inurba_marseille","lat":43.306,"lon":5.37228,"is_reserved":false,"is_disabled":false,"rental_uris":{"android":"levelo://app?vid=b0fdeabb-1985-4616-8028-d60da2665017","ios":"levelo://app?vid=b0fdeabb-1985-4616-8028-d60da2665017"},"vehicle_type_id":"4","last_reported":1728659304,"current_range_meters":27600,"station_id":"ce4bgqh2rcd13ifvqc4g","pricing_plan_id":"cebpf4jnsgd1na2vs0mg"},{"bike_id":"6102cbd0-f7f3-4a09-a2a1-fd7bc0631d95","system_id":"levelo_inurba_marseille","lat":43.23192,"lon":5.35553,"is_reserved":false,"is_disabled":false,"rental_uris":{"android":"levelo://app?vid=6102cbd0-f7f3-4a09-a2a1-fd7bc0631d95","ios":"levelo://app?vid=6102cbd0-f7f3-4a09-a2a1-fd7bc0631d95"},"vehicle_type_id":"4","last_reported":1728659304,"current_range_meters":20000,"station_id":"ce4bhu92rcd13ifvqi70","pricing_plan_id":"cebpf4jnsgd1na2vs0mg"},{"bike_id":"5e0c23ab-68b4-4b65-97b8-e09acae389ef","system_id":"levelo_inurba_marseille","lat":43.28269,"lon":5.35065,"is_reserved":false,"is_disabled":false,"rental_uris":{"android":"levelo://app?vid=5e0c23ab-68b4-4b65-97b8-e09acae389ef","ios":"levelo://app?vid=5e0c23ab-68b4-4b65-97b8-e09acae389ef"},"vehicle_type_id":"4","last_reported":1728659304,"current_range_meters":14000,"station_id":"ce4bhbp2rcd13ifvqerg","pricing_plan_id":"cebpf4jnsgd1na2vs0mg"},{"bike_id":"74e8076b-63bb-415a-96e8-57f1a00973e2","system_id":"levelo_inurba_marseille","lat":43.29259,"lon":5.40909,"is_reserved":false,"is_disabled":false,"rental_uris":{"android":"levelo://app?vid=74e8076b-63bb-415a-96e8-57f1a00973e2","ios":"levelo://app?vid=74e8076b-63bb-415a-96e8-57f1a00973e2"},"vehicle_type_id":"4","last_reported":1728659304,"current_range_meters":22000,"station_id":"ce4bh192rcd13ifvqdc0","pricing_plan_id":"cebpf4jnsgd1na2vs0mg"},{"bike_id":"a6208309-845c-47bb-bb75-907667062e00","system_id":"levelo_inurba_marseille","lat":43.284119,"lon":5.349751,"is_reserved":false,"is_disabled":false,"rental_uris":{"android":"levelo://app?vid=a6208309-845c-47bb-bb75-907667062e00","ios":"levelo://app?vid=a6208309-845c-47bb-bb75-907667062e00"},"vehicle_type_id":"4","last_reported":1728659304,"current_range_meters":28800,"station_id":"ce4bhbh2rcd13ifvqepg","pricing_plan_id":"cebpf4jnsgd1na2vs0mg"},{"bike_id":"9ec544a4-c9ae-4ea7-b99d-5b2015d1c39c","system_id":"levelo_inurba_marseille","lat":43.29096,"lon":5.38134,"is_reserved":false,"is_disabled":false,"rental_uris":{"android":"levelo://app?vid=9ec544a4-c9ae-4ea7-b99d-5b2015d1c39c","ios":"levelo://app?vid=9ec544a4-c9ae-4ea7-b99d-5b2015d1c39c"},"vehicle_type_id":"4","last_reported":1728659304,"current_range_meters":14000,"station_id":"ce4bh512rcd13ifvqe2g","pricing_plan_id":"cebpf4jnsgd1na2vs0mg"},{"bike_id":"0004d565-538b-4c0d-9b9e-dc2bcfb4e96d","system_id":"levelo_inurba_marseille","lat":43.25577,"lon":5.3823,"is_reserved":false,"is_disabled":false,"rental_uris":{"android":"levelo://app?vid=0004d565-538b-4c0d-9b9e-dc2bcfb4e96d","ios":"levelo://app?vid=0004d565-538b-4c0d-9b9e-dc2bcfb4e96d"},"vehicle_type_id":"4","last_reported":1728659304,"current_range_meters":14000,"station_id":"ce4bhih2rcd13ifvqfs0","pricing_plan_id":"cebpf4jnsgd1na2vs0mg"},{"bike_id":"69584b0e-9bfe-44eb-a29b-f3e8d6d14aa5","system_id":"levelo_inurba_marseille","lat":43.28263,"lon":5.35074,"is_reserved":false,"is_disabled":false,"rental_uris":{"android":"levelo://app?vid=69584b0e-9bfe-44eb-a29b-f3e8d6d14aa5","ios":"levelo://app?vid=69584b0e-9bfe-44eb-a29b-f3e8d6d14aa5"},"vehicle_type_id":"4","last_reported":1728659304,"current_range_meters":28000,"station_id":"ce4bhbp2rcd13ifvqerg","pricing_plan_id":"cebpf4jnsgd1na2vs0mg"},{"bike_id":"07f64247-4052-4f38-8fbc-c1a1eb4c2503","system_id":"levelo_inurba_marseille","lat":43.22927,"lon":5.353716,"is_reserved":false,"is_disabled":false,"rental_uris":{"android":"levelo://app?vid=07f64247-4052-4f38-8fbc-c1a1eb4c2503","ios":"levelo://app?vid=07f64247-4052-4f38-8fbc-c1a1eb4c2503"},"vehicle_type_id":"4","last_reported":1728659304,"current_range_meters":6000,"station_id":"cpo3532slgdg3j2ikp40","pricing_plan_id":"cebpf4jnsgd1na2vs0mg"},{"bike_id":"600a6ea5-5c70-4f25-9b57-c621b8210681","system_id":"levelo_inurba_marseille","lat":43.32659,"lon":5.40987,"is_reserved":false,"is_disabled":false,"rental_uris":{"android":"levelo://app?vid=600a6ea5-5c70-4f25-9b57-c621b8210681","ios":"levelo://app?vid=600a6ea5-5c70-4f25-9b57-c621b8210681"},"vehicle_type_id":"4","last_reported":1728659304,"current_range_meters":38800,"station_id":"ce4bhpp2rcd13ifvqhgg","pricing_plan_id":"cebpf4jnsgd1na2vs0mg"},{"bike_id":"9f6cc18f-e117-41c7-929e-553fd1948cc6","system_id":"levelo_inurba_marseille","lat":43.25114,"lon":5.40332,"is_reserved":false,"is_disabled":false,"rental_uris":{"android":"levelo://app?vid=9f6cc18f-e117-41c7-929e-553fd1948cc6","ios":"levelo://app?vid=9f6cc18f-e117-41c7-929e-553fd1948cc6"},"vehicle_type_id":"4","last_reported":1728659304,"current_range_meters":25600,"station_id":"ce4bhlh2rcd13ifvqgig","pricing_plan_id":"cebpf4jnsgd1na2vs0mg"},{"bike_id":"9cf3db70-1431-4372-b452-2d0770d0c15d","system_id":"levelo_inurba_marseille","lat":43.23194,"lon":5.35553,"is_reserved":false,"is_disabled":false,"rental_uris":{"android":"levelo://app?vid=9cf3db70-1431-4372-b452-2d0770d0c15d","ios":"levelo://app?vid=9cf3db70-1431-4372-b452-2d0770d0c15d"},"vehicle_type_id":"4","last_reported":1728659304,"current_range_meters":38400,"station_id":"ce4bhu92rcd13ifvqi70","pricing_plan_id":"cebpf4jnsgd1na2vs0mg"},{"bike_id":"bd73b7b2-fd9c-41f0-bc91-40a94258a8d1","system_id":"levelo_inurba_marseille","lat":43.27917,"lon":5.39582,"is_reserved":false,"is_disabled":false,"rental_uris":{"android":"levelo://app?vid=bd73b7b2-fd9c-41f0-bc91-40a94258a8d1","ios":"levelo://app?vid=bd73b7b2-fd9c-41f0-bc91-40a94258a8d1"},"vehicle_type_id":"4","last_reported":1728659304,"current_range_meters":8000,"station_id":"ce4bhf92rcd13ifvqf40","pricing_plan_id":"cebpf4jnsgd1na2vs0mg"},{"bike_id":"7b6baa85-f647-4dbc-bee4-af88f44a8bf2","system_id":"levelo_inurba_marseille","lat":43.22924,"lon":5.35377,"is_reserved":false,"is_disabled":false,"rental_uris":{"android":"levelo://app?vid=7b6baa85-f647-4dbc-bee4-af88f44a8bf2","ios":"levelo://app?vid=7b6baa85-f647-4dbc-bee4-af88f44a8bf2"},"vehicle_type_id":"4","last_reported":1728659304,"current_range_meters":24000,"station_id":"cpo3532slgdg3j2ikp40","pricing_plan_id":"cebpf4jnsgd1na2vs0mg"},{"bike_id":"35db92f5-ff79-4ffe-a1dd-77d0697d3fb5","system_id":"levelo_inurba_marseille","lat":43.29204,"lon":5.35804,"is_reserved":false,"is_disabled":false,"rental_uris":{"android":"levelo://app?vid=35db92f5-ff79-4ffe-a1dd-77d0697d3fb5","ios":"levelo://app?vid=35db92f5-ff79-4ffe-a1dd-77d0697d3fb5"},"vehicle_type_id":"4","last_reported":1728659304,"current_range_meters":39200,"station_id":"ce4bhb12rcd13ifvqel0","pricing_plan_id":"cebpf4jnsgd1na2vs0mg"},{"bike_id":"7f6cca3d-9ed9-4279-aa08-b34b2cd94c8e","system_id":"levelo_inurba_marseille","lat":43.24664,"lon":5.38175,"is_reserved":false,"is_disabled":false,"rental_uris":{"android":"levelo://app?vid=7f6cca3d-9ed9-4279-aa08-b34b2cd94c8e","ios":"levelo://app?vid=7f6cca3d-9ed9-4279-aa08-b34b2cd94c8e"},"vehicle_type_id":"4","last_reported":1728659304,"current_range_meters":28000,"station_id":"ce4bhih2rcd13ifvqfr0","pricing_plan_id":"cebpf4jnsgd1na2vs0mg"},{"bike_id":"01a61abd-cede-4ef0-a4aa-b3fd73ae1806","system_id":"levelo_inurba_marseille","lat":43.28152,"lon":5.42649,"is_reserved":false,"is_disabled":false,"rental_uris":{"android":"levelo://app?vid=01a61abd-cede-4ef0-a4aa-b3fd73ae1806","ios":"levelo://app?vid=01a61abd-cede-4ef0-a4aa-b3fd73ae1806"},"vehicle_type_id":"4","last_reported":1728659304,"current_range_meters":28000,"station_id":"ce4bhnh2rcd13ifvqgug","pricing_plan_id":"cebpf4jnsgd1na2vs0mg"},{"bike_id":"9a879b36-0237-4be8-b57d-5a7c26f4ed1a","system_id":"levelo_inurba_marseille","lat":43.32478,"lon":5.36559,"is_reserved":false,"is_disabled":false,"rental_uris":{"android":"levelo://app?vid=9a879b36-0237-4be8-b57d-5a7c26f4ed1a","ios":"levelo://app?vid=9a879b36-0237-4be8-b57d-5a7c26f4ed1a"},"vehicle_type_id":"4","last_reported":1728659304,"current_range_meters":24400,"station_id":"ce4bhs12rcd13ifvqhvg","pricing_plan_id":"cebpf4jnsgd1na2vs0mg"},{"bike_id":"3c25dded-f8d5-4193-a336-9fad641c4aac","system_id":"levelo_inurba_marseille","lat":43.33766,"lon":5.37447,"is_reserved":false,"is_disabled":false,"rental_uris":{"android":"levelo://app?vid=3c25dded-f8d5-4193-a336-9fad641c4aac","ios":"levelo://app?vid=3c25dded-f8d5-4193-a336-9fad641c4aac"},"vehicle_type_id":"4","last_reported":1728659304,"current_range_meters":11600,"station_id":"","pricing_plan_id":"cebpf4jnsgd1na2vs0mg"},{"bike_id":"e5971838-2555-4fb4-abcd-47bbab18960e","system_id":"levelo_inurba_marseille","lat":43.30663,"lon":5.38237,"is_reserved":false,"is_disabled":false,"rental_uris":{"android":"levelo://app?vid=e5971838-2555-4fb4-abcd-47bbab18960e","ios":"levelo://app?vid=e5971838-2555-4fb4-abcd-47bbab18960e"},"vehicle_type_id":"4","last_reported":1728659304,"current_range_meters":6000,"station_id":"","pricing_plan_id":"cebpf4jnsgd1na2vs0mg"},{"bike_id":"4abdbbc7-facb-47b7-8f92-ec268e73003e","system_id":"levelo_inurba_marseille","lat":43.22929,"lon":5.35378,"is_reserved":false,"is_disabled":false,"rental_uris":{"android":"levelo://app?vid=4abdbbc7-facb-47b7-8f92-ec268e73003e","ios":"levelo://app?vid=4abdbbc7-facb-47b7-8f92-ec268e73003e"},"vehicle_type_id":"4","last_reported":1728659304,"current_range_meters":9600,"station_id":"cpo3532slgdg3j2ikp40","pricing_plan_id":"cebpf4jnsgd1na2vs0mg"},{"bike_id":"7975faaf-f260-41c7-87cd-147b9a3b3ebf","system_id":"levelo_inurba_marseille","lat":43.23056,"lon":5.35488,"is_reserved":false,"is_disabled":false,"rental_uris":{"android":"levelo://app?vid=7975faaf-f260-41c7-87cd-147b9a3b3ebf","ios":"levelo://app?vid=7975faaf-f260-41c7-87cd-147b9a3b3ebf"},"vehicle_type_id":"4","last_reported":1728659304,"current_range_meters":13600,"station_id":"cpo3342slgdg3j2ifvpg","pricing_plan_id":"cebpf4jnsgd1na2vs0mg"},{"bike_id":"c11c8a90-0cdd-415e-8933-cf994d3fe923","system_id":"levelo_inurba_marseille","lat":43.30548,"lon":5.36702,"is_reserved":false,"is_disabled":false,"rental_uris":{"android":"levelo://app?vid=c11c8a90-0cdd-415e-8933-cf994d3fe923","ios":"levelo://app?vid=c11c8a90-0cdd-415e-8933-cf994d3fe923"},"vehicle_type_id":"4","last_reported":1728659304,"current_range_meters":27600,"station_id":"ce4bgrp2rcd13ifvqc9g","pricing_plan_id":"cebpf4jnsgd1na2vs0mg"},{"bike_id":"703d5faf-e8f5-42e8-a15c-36acb1ae64d2","system_id":"levelo_inurba_marseille","lat":43.22934,"lon":5.35377,"is_reserved":false,"is_disabled":false,"rental_uris":{"android":"levelo://app?vid=703d5faf-e8f5-42e8-a15c-36acb1ae64d2","ios":"levelo://app?vid=703d5faf-e8f5-42e8-a15c-36acb1ae64d2"},"vehicle_type_id":"4","last_reported":1728659304,"current_range_meters":4400,"station_id":"cpo3532slgdg3j2ikp40","pricing_plan_id":"cebpf4jnsgd1na2vs0mg"},{"bike_id":"a012ff1f-44a4-4369-801e-40241bcbe9c1","system_id":"levelo_inurba_marseille","lat":43.29366,"lon":5.37855,"is_reserved":false,"is_disabled":false,"rental_uris":{"android":"levelo://app?vid=a012ff1f-44a4-4369-801e-40241bcbe9c1","ios":"levelo://app?vid=a012ff1f-44a4-4369-801e-40241bcbe9c1"},"vehicle_type_id":"4","last_reported":1728659304,"current_range_meters":3200,"station_id":"ce4bgjh2rcd13ifvqbf0","pricing_plan_id":"cebpf4jnsgd1na2vs0mg"},{"bike_id":"5f903551-c8d3-4687-93a7-22c538573032","system_id":"levelo_inurba_marseille","lat":43.29165,"lon":5.37156,"is_reserved":false,"is_disabled":false,"rental_uris":{"android":"levelo://app?vid=5f903551-c8d3-4687-93a7-22c538573032","ios":"levelo://app?vid=5f903551-c8d3-4687-93a7-22c538573032"},"vehicle_type_id":"4","last_reported":1728659304,"current_range_meters":3200,"station_id":"ce4bha92rcd13ifvqeh0","pricing_plan_id":"cebpf4jnsgd1na2vs0mg"},{"bike_id":"b8dcb907-8b9b-400e-b166-96706b00b5e8","system_id":"levelo_inurba_marseille","lat":43.33024,"lon":5.39047,"is_reserved":false,"is_disabled":false,"rental_uris":{"android":"levelo://app?vid=b8dcb907-8b9b-400e-b166-96706b00b5e8","ios":"levelo://app?vid=b8dcb907-8b9b-400e-b166-96706b00b5e8"},"vehicle_type_id":"4","last_reported":1728659304,"current_range_meters":27600,"station_id":"ce4bhr92rcd13ifvqhrg","pricing_plan_id":"cebpf4jnsgd1na2vs0mg"},{"bike_id":"6ba2ee69-3fb7-4ca1-9042-b41eb697e479","system_id":"levelo_inurba_marseille","lat":43.25121,"lon":5.40315,"is_reserved":false,"is_disabled":false,"rental_uris":{"android":"levelo://app?vid=6ba2ee69-3fb7-4ca1-9042-b41eb697e479","ios":"levelo://app?vid=6ba2ee69-3fb7-4ca1-9042-b41eb697e479"},"vehicle_type_id":"4","last_reported":1728659304,"current_range_meters":15200,"station_id":"ce4bhlh2rcd13ifvqgig","pricing_plan_id":"cebpf4jnsgd1na2vs0mg"},{"bike_id":"3aad3646-e8c6-41a7-9b98-b21350923b86","system_id":"levelo_inurba_marseille","lat":43.295741,"lon":5.381465,"is_reserved":false,"is_disabled":false,"rental_uris":{"android":"levelo://app?vid=3aad3646-e8c6-41a7-9b98-b21350923b86","ios":"levelo://app?vid=3aad3646-e8c6-41a7-9b98-b21350923b86"},"vehicle_type_id":"4","last_reported":1728659304,"current_range_meters":30400,"station_id":"ce4bgl12rcd13ifvqbo0","pricing_plan_id":"cebpf4jnsgd1na2vs0mg"},{"bike_id":"0230b24e-4eb9-4ae3-a5da-c517dad2e8e5","system_id":"levelo_inurba_marseille","lat":43.23957,"lon":5.36634,"is_reserved":false,"is_disabled":false,"rental_uris":{"android":"levelo://app?vid=0230b24e-4eb9-4ae3-a5da-c517dad2e8e5","ios":"levelo://app?vid=0230b24e-4eb9-4ae3-a5da-c517dad2e8e5"},"vehicle_type_id":"4","last_reported":1728659304,"current_range_meters":6000,"station_id":"ce4bhi12rcd13ifvqfp0","pricing_plan_id":"cebpf4jnsgd1na2vs0mg"},{"bike_id":"ba84ee51-a633-42f7-a536-64a0d4668722","system_id":"levelo_inurba_marseille","lat":43.2293,"lon":5.35375,"is_reserved":false,"is_disabled":false,"rental_uris":{"android":"levelo://app?vid=ba84ee51-a633-42f7-a536-64a0d4668722","ios":"levelo://app?vid=ba84ee51-a633-42f7-a536-64a0d4668722"},"vehicle_type_id":"4","last_reported":1728659304,"current_range_meters":20000,"station_id":"cpo3532slgdg3j2ikp40","pricing_plan_id":"cebpf4jnsgd1na2vs0mg"},{"bike_id":"0affb511-11e4-4062-b2b6-78c70f605970","system_id":"levelo_inurba_marseille","lat":43.239652,"lon":5.3663,"is_reserved":false,"is_disabled":false,"rental_uris":{"android":"levelo://app?vid=0affb511-11e4-4062-b2b6-78c70f605970","ios":"levelo://app?vid=0affb511-11e4-4062-b2b6-78c70f605970"},"vehicle_type_id":"4","last_reported":1728659304,"current_range_meters":16400,"station_id":"ce4bhi12rcd13ifvqfp0","pricing_plan_id":"cebpf4jnsgd1na2vs0mg"},{"bike_id":"c0dbb3bd-9aa9-44ad-8b63-5cd158ee2513","system_id":"levelo_inurba_marseille","lat":43.273712,"lon":5.362649,"is_reserved":false,"is_disabled":false,"rental_uris":{"android":"levelo://app?vid=c0dbb3bd-9aa9-44ad-8b63-5cd158ee2513","ios":"levelo://app?vid=c0dbb3bd-9aa9-44ad-8b63-5cd158ee2513"},"vehicle_type_id":"4","last_reported":1728659304,"current_range_meters":3200,"station_id":"ce4bhbh2rcd13ifvqeo0","pricing_plan_id":"cebpf4jnsgd1na2vs0mg"},{"bike_id":"d0a5daaa-85d0-452b-b95e-02927382b3d2","system_id":"levelo_inurba_marseille","lat":43.29187,"lon":5.35801,"is_reserved":false,"is_disabled":false,"rental_uris":{"android":"levelo://app?vid=d0a5daaa-85d0-452b-b95e-02927382b3d2","ios":"levelo://app?vid=d0a5daaa-85d0-452b-b95e-02927382b3d2"},"vehicle_type_id":"4","last_reported":1728659304,"current_range_meters":15200,"station_id":"ce4bhb12rcd13ifvqel0","pricing_plan_id":"cebpf4jnsgd1na2vs0mg"},{"bike_id":"032bd2e7-cc2d-4479-9199-6d7061c7b942","system_id":"levelo_inurba_marseille","lat":43.23182,"lon":5.39984,"is_reserved":false,"is_disabled":false,"rental_uris":{"android":"levelo://app?vid=032bd2e7-cc2d-4479-9199-6d7061c7b942","ios":"levelo://app?vid=032bd2e7-cc2d-4479-9199-6d7061c7b942"},"vehicle_type_id":"4","last_reported":1728659304,"current_range_meters":39200,"station_id":"ce4bhn12rcd13ifvqgqg","pricing_plan_id":"cebpf4jnsgd1na2vs0mg"},{"bike_id":"f0a79acf-435d-408a-8bfa-8975048d934d","system_id":"levelo_inurba_marseille","lat":43.31363,"lon":5.38487,"is_reserved":false,"is_disabled":false,"rental_uris":{"android":"levelo://app?vid=f0a79acf-435d-408a-8bfa-8975048d934d","ios":"levelo://app?vid=f0a79acf-435d-408a-8bfa-8975048d934d"},"vehicle_type_id":"4","last_reported":1728659304,"current_range_meters":16800,"station_id":"ce4bgt92rcd13ifvqcf0","pricing_plan_id":"cebpf4jnsgd1na2vs0mg"},{"bike_id":"3c3b1dad-2fdc-4658-a099-867885b9de26","system_id":"levelo_inurba_marseille","lat":43.29267,"lon":5.38434,"is_reserved":false,"is_disabled":false,"rental_uris":{"android":"levelo://app?vid=3c3b1dad-2fdc-4658-a099-867885b9de26","ios":"levelo://app?vid=3c3b1dad-2fdc-4658-a099-867885b9de26"},"vehicle_type_id":"4","last_reported":1728659304,"current_range_meters":30800,"station_id":"ce4bh692rcd13ifvqea0","pricing_plan_id":"cebpf4jnsgd1na2vs0mg"},{"bike_id":"d0af47d5-71a2-4e6e-a4f7-a2d225b8e53a","system_id":"levelo_inurba_marseille","lat":43.23056,"lon":5.35492,"is_reserved":false,"is_disabled":false,"rental_uris":{"android":"levelo://app?vid=d0af47d5-71a2-4e6e-a4f7-a2d225b8e53a","ios":"levelo://app?vid=d0af47d5-71a2-4e6e-a4f7-a2d225b8e53a"},"vehicle_type_id":"4","last_reported":1728659304,"current_range_meters":16000,"station_id":"cpo3342slgdg3j2ifvpg","pricing_plan_id":"cebpf4jnsgd1na2vs0mg"},{"bike_id":"12a0c039-c78c-4287-915c-e98b10eafbc8","system_id":"levelo_inurba_marseille","lat":43.2511,"lon":5.40324,"is_reserved":false,"is_disabled":false,"rental_uris":{"android":"levelo://app?vid=12a0c039-c78c-4287-915c-e98b10eafbc8","ios":"levelo://app?vid=12a0c039-c78c-4287-915c-e98b10eafbc8"},"vehicle_type_id":"4","last_reported":1728659304,"current_range_meters":27200,"station_id":"ce4bhlh2rcd13ifvqgig","pricing_plan_id":"cebpf4jnsgd1na2vs0mg"},{"bike_id":"4b8d4103-5b84-4920-bcf0-b5363ffef9ed","system_id":"levelo_inurba_marseille","lat":43.29005,"lon":5.3561,"is_reserved":false,"is_disabled":false,"rental_uris":{"android":"levelo://app?vid=4b8d4103-5b84-4920-bcf0-b5363ffef9ed","ios":"levelo://app?vid=4b8d4103-5b84-4920-bcf0-b5363ffef9ed"},"vehicle_type_id":"4","last_reported":1728659304,"current_range_meters":38800,"station_id":"ce4bhb92rcd13ifvqen0","pricing_plan_id":"cebpf4jnsgd1na2vs0mg"},{"bike_id":"af63988f-1b42-440f-8c00-5e9af0007e36","system_id":"levelo_inurba_marseille","lat":43.29895,"lon":5.43655,"is_reserved":false,"is_disabled":false,"rental_uris":{"android":"levelo://app?vid=af63988f-1b42-440f-8c00-5e9af0007e36","ios":"levelo://app?vid=af63988f-1b42-440f-8c00-5e9af0007e36"},"vehicle_type_id":"4","last_reported":1728659304,"current_range_meters":22800,"station_id":"ce4bhpp2rcd13ifvqhfg","pricing_plan_id":"cebpf4jnsgd1na2vs0mg"},{"bike_id":"a66b10aa-c60f-4a94-a29c-19c129683cf8","system_id":"levelo_inurba_marseille","lat":43.25856,"lon":5.399,"is_reserved":false,"is_disabled":false,"rental_uris":{"android":"levelo://app?vid=a66b10aa-c60f-4a94-a29c-19c129683cf8","ios":"levelo://app?vid=a66b10aa-c60f-4a94-a29c-19c129683cf8"},"vehicle_type_id":"4","last_reported":1728659304,"current_range_meters":24800,"station_id":"ce4bhl92rcd13ifvqghg","pricing_plan_id":"cebpf4jnsgd1na2vs0mg"},{"bike_id":"a2b7eaf1-d6fd-452f-a925-59122078b6e6","system_id":"levelo_inurba_marseille","lat":43.31082,"lon":5.37696,"is_reserved":false,"is_disabled":false,"rental_uris":{"android":"levelo://app?vid=a2b7eaf1-d6fd-452f-a925-59122078b6e6","ios":"levelo://app?vid=a2b7eaf1-d6fd-452f-a925-59122078b6e6"},"vehicle_type_id":"4","last_reported":1728659304,"current_range_meters":9200,"station_id":"ce4bgt92rcd13ifvqcg0","pricing_plan_id":"cebpf4jnsgd1na2vs0mg"},{"bike_id":"4214fa1c-0466-4269-819f-887af55fb9ed","system_id":"levelo_inurba_marseille","lat":43.29023,"lon":5.38632,"is_reserved":false,"is_disabled":false,"rental_uris":{"android":"levelo://app?vid=4214fa1c-0466-4269-819f-887af55fb9ed","ios":"levelo://app?vid=4214fa1c-0466-4269-819f-887af55fb9ed"},"vehicle_type_id":"4","last_reported":1728659304,"current_range_meters":10000,"station_id":"ce4bh4p2rcd13ifvqe0g","pricing_plan_id":"cebpf4jnsgd1na2vs0mg"},{"bike_id":"2f15bf53-f785-46f3-a7e3-54cd2c5a4413","system_id":"levelo_inurba_marseille","lat":43.31516,"lon":5.37482,"is_reserved":false,"is_disabled":false,"rental_uris":{"android":"levelo://app?vid=2f15bf53-f785-46f3-a7e3-54cd2c5a4413","ios":"levelo://app?vid=2f15bf53-f785-46f3-a7e3-54cd2c5a4413"},"vehicle_type_id":"4","last_reported":1728659304,"current_range_meters":36000,"station_id":"","pricing_plan_id":"cebpf4jnsgd1na2vs0mg"},{"bike_id":"65fd6c2d-276c-4975-ba6f-15caf10c1bdd","system_id":"levelo_inurba_marseille","lat":43.337444,"lon":5.374475,"is_reserved":false,"is_disabled":false,"rental_uris":{"android":"levelo://app?vid=65fd6c2d-276c-4975-ba6f-15caf10c1bdd","ios":"levelo://app?vid=65fd6c2d-276c-4975-ba6f-15caf10c1bdd"},"vehicle_type_id":"4","last_reported":1728659304,"current_range_meters":14800,"station_id":"","pricing_plan_id":"cebpf4jnsgd1na2vs0mg"},{"bike_id":"dc4d3004-449e-4a0d-b3af-3d3fe78ad627","system_id":"levelo_inurba_marseille","lat":43.286896,"lon":5.399849,"is_reserved":false,"is_disabled":false,"rental_uris":{"android":"levelo://app?vid=dc4d3004-449e-4a0d-b3af-3d3fe78ad627","ios":"levelo://app?vid=dc4d3004-449e-4a0d-b3af-3d3fe78ad627"},"vehicle_type_id":"4","last_reported":1728659304,"current_range_meters":14400,"station_id":"ce4bho92rcd13ifvqh3g","pricing_plan_id":"cebpf4jnsgd1na2vs0mg"},{"bike_id":"ac31f267-b53a-456b-ac94-9490409fcf74","system_id":"levelo_inurba_marseille","lat":43.29187,"lon":5.35807,"is_reserved":false,"is_disabled":false,"rental_uris":{"android":"levelo://app?vid=ac31f267-b53a-456b-ac94-9490409fcf74","ios":"levelo://app?vid=ac31f267-b53a-456b-ac94-9490409fcf74"},"vehicle_type_id":"4","last_reported":1728659304,"current_range_meters":38000,"station_id":"ce4bhb12rcd13ifvqel0","pricing_plan_id":"cebpf4jnsgd1na2vs0mg"},{"bike_id":"1991aa10-0395-40b3-9a25-f7831c10f166","system_id":"levelo_inurba_marseille","lat":43.30953,"lon":5.39019,"is_reserved":false,"is_disabled":false,"rental_uris":{"android":"levelo://app?vid=1991aa10-0395-40b3-9a25-f7831c10f166","ios":"levelo://app?vid=1991aa10-0395-40b3-9a25-f7831c10f166"},"vehicle_type_id":"4","last_reported":1728659304,"current_range_meters":4000,"station_id":"ce4bgup2rcd13ifvqco0","pricing_plan_id":"cebpf4jnsgd1na2vs0mg"},{"bike_id":"340c9628-cd17-4c8a-8b3e-32aa8b95ff6c","system_id":"levelo_inurba_marseille","lat":43.30595,"lon":5.37226,"is_reserved":false,"is_disabled":false,"rental_uris":{"android":"levelo://app?vid=340c9628-cd17-4c8a-8b3e-32aa8b95ff6c","ios":"levelo://app?vid=340c9628-cd17-4c8a-8b3e-32aa8b95ff6c"},"vehicle_type_id":"4","last_reported":1728659304,"current_range_meters":30800,"station_id":"ce4bgqh2rcd13ifvqc4g","pricing_plan_id":"cebpf4jnsgd1na2vs0mg"},{"bike_id":"efe54b44-30c5-45f8-bbef-3b9b1e4384e6","system_id":"levelo_inurba_marseille","lat":43.27369,"lon":5.36263,"is_reserved":false,"is_disabled":false,"rental_uris":{"android":"levelo://app?vid=efe54b44-30c5-45f8-bbef-3b9b1e4384e6","ios":"levelo://app?vid=efe54b44-30c5-45f8-bbef-3b9b1e4384e6"},"vehicle_type_id":"4","last_reported":1728659304,"current_range_meters":38800,"station_id":"ce4bhbh2rcd13ifvqeo0","pricing_plan_id":"cebpf4jnsgd1na2vs0mg"},