{"last_updated":1747076912,"ttl":60,"version":"2.2","data":{"bikes":[{"bike_id":"c0b9fd4f-e181-46ce-b0bf-f5119973334f","system_id":"levelo_inurba_marseille","lat":43.33771,"lon":5.37424,"is_reserved":false,"is_disabled":false,"rental_uris":{"android":"levelo://app?vid=c0b9fd4f-e181-46ce-b0bf-f5119973334f","ios":"levelo://app?vid=c0b9fd4f-e181-46ce-b0bf-f5119973334f"},"vehicle_type_id":"4","last_reported":1747076912,"current_range_meters":27200,"station_id":"","pricing_plan_id":"cebpf4jnsgd1na2vs0mg"},{"bike_id":"229001d2-7627-43e0-aeea-2d75580fd339","system_id":"levelo_inurba_marseille","lat":43.33767,"lon":5.37473,"is_reserved":false,"is_disabled":true,"rental_uris":{"android":"levelo://app?vid=229001d2-7627-43e0-aeea-2d75580fd339","ios":"levelo://app?vid=229001d2-7627-43e0-aeea-2d75580fd339"},"vehicle_type_id":"4","last_reported":1747076912,"current_range_meters":0,"station_id":"","pricing_plan_id":"cebpf4jnsgd1na2vs0mg"},{"bike_id":"828418bc-b6f3-4668-865d-c3a8b014b129","system_id":"levelo_inurba_marseille","lat":43.33782,"lon":5.37473,"is_reserved":false,"is_disabled":true,"rental_uris":{"android":"levelo://app?vid=828418bc-b6f3-4668-865d-c3a8b014b129","ios":"levelo://app?vid=828418bc-b6f3-4668-865d-c3a8b014b129"},"vehicle_type_id":"4","last_reported":1747076912,"current_range_meters":0,"station_id":"","pricing_plan_id":"cebpf4jnsgd1na2vs0mg"},{"bike_id":"792567c6-0442-4011-aff0-9c05e25deb48","system_id":"levelo_inurba_marseille","lat":43.28081,"lon":5.4421,"is_reserved":false,"is_disabled":true,"rental_uris":{"android":"levelo://app?vid=792567c6-0442-4011-aff0-9c05e25deb48","ios":"levelo://app?vid=792567c6-0442-4011-aff0-9c05e25deb48"},"vehicle_type_id":"4","last_reported":1747076912,"current_range_meters":0,"station_id":"","pricing_plan_id":"cebpf4jnsgd1na2vs0mg"},{"bike_id":"96c72210-ffd5-494a-89c0-bed5ae154cce","system_id":"levelo_inurba_marseille","lat":43.268246,"lon":5.41097,"is_reserved":false,"is_disabled":true,"rental_uris":{"android":"levelo://app?vid=96c72210-ffd5-494a-89c0-bed5ae154cce","ios":"levelo://app?vid=96c72210-ffd5-494a-89c0-bed5ae154cce"},"vehicle_type_id":"4","last_reported":1747076912,"current_range_meters":0,"station_id":"","pricing_plan_id":"cebpf4jnsgd1na2vs0mg"},{"bike_id":"6b7feb34-56e0-49f8-9595-d543f3d59251","system_id":"levelo_inurba_marseille","lat":43.29028,"lon":5.38646,"is_reserved":false,"is_disabled":true,"rental_uris":{"android":"levelo://app?vid=6b7feb34-56e0-49f8-9595-d543f3d59251","ios":"levelo://app?vid=6b7feb34-56e0-49f8-9595-d543f3d59251"},"vehicle_type_id":"4","last_reported":1747076912,"current_range_meters":0,"station_id":"ce4bh4p2rcd13ifvqe0g","pricing_plan_id":"cebpf4jnsgd1na2vs0mg"},{"bike_id":"77543e37-abdd-451a-a576-98f40c8ddf5d","system_id":"levelo_inurba_marseille","lat":43.2927,"lon":5.38439,"is_reserved":false,"is_disabled":true,"rental_uris":{"android":"levelo://app?vid=77543e37-abdd-451a-a576-98f40c8ddf5d","ios":"levelo://app?vid=77543e37-abdd-451a-a576-98f40c8ddf5d"},"vehicle_type_id":"4","last_reported":1747076912,"current_range_meters":0,"station_id":"ce4bh692rcd13ifvqea0","pricing_plan_id":"cebpf4jnsgd1na2vs0mg"},{"bike_id":"cdccf006-f1f3-4007-ad2a-4fa8078a52cb","system_id":"levelo_inurba_marseille","lat":43.28678,"lon":5.36377,"is_reserved":false,"is_disabled":true,"rental_uris":{"android":"levelo://app?vid=cdccf006-f1f3-4007-ad2a-4fa8078a52cb","ios":"levelo://app?vid=cdccf006-f1f3-4007-ad2a-4fa8078a52cb"},"vehicle_type_id":"4","last_reported":1747076912,"current_range_meters":0,"station_id":"ce4bhah2rcd13ifvqej0","pricing_plan_id":"cebpf4jnsgd1na2vs0mg"},{"bike_id":"132d6d68-5c7a-418b-ac4f-1be81d74c132","system_id":"levelo_inurba_marseille","lat":43.279695,"lon":5.387395,"is_reserved":false,"is_disabled":true,"rental_uris":{"android":"levelo://app?vid=132d6d68-5c7a-418b-ac4f-1be81d74c132","ios":"levelo://app?vid=132d6d68-5c7a-418b-ac4f-1be81d74c132"},"vehicle_type_id":"4","last_reported":1747076912,"current_range_meters":0,"station_id":"ce4bhg12rcd13ifvqf80","pricing_plan_id":"cebpf4jnsgd1na2vs0mg"},{"bike_id":"b82fa79d-ba0f-48d1-a101-c4dac4b7de4e","system_id":"levelo_inurba_marseille","lat":43.29908,"lon":5.43656,"is_reserved":false,"is_disabled":true,"rental_uris":{"android":"levelo://app?vid=b82fa79d-ba0f-48d1-a101-c4dac4b7de4e","ios":"levelo://app?vid=b82fa79d-ba0f-48d1-a101-c4dac4b7de4e"},"vehicle_type_id":"4","last_reported":1747076912,"current_range_meters":0,"station_id":"ce4bhpp2rcd13ifvqhfg","pricing_plan_id":"cebpf4jnsgd1na2vs0mg"},{"bike_id":"07269f3f-9fb3-45e8-9b39-4105415a8c0c","system_id":"levelo_inurba_marseille","lat":43.21191,"lon":5.35075,"is_reserved":false,"is_disabled":true,"rental_uris":{"android":"levelo://app?vid=07269f3f-9fb3-45e8-9b39-4105415a8c0c","ios":"levelo://app?vid=07269f3f-9fb3-45e8-9b39-4105415a8c0c"},"vehicle_type_id":"4","last_reported":1747076912,"current_range_meters":0,"station_id":"st_cvj6sg6p6f1abm77japg","pricing_plan_id":"cebpf4jnsgd1na2vs0mg"},{"bike_id":"02bcf567-d824-4093-bb84-e1a61f138472","system_id":"levelo_inurba_marseille","lat":43.29299,"lon":5.37447,"is_reserved":false,"is_disabled":true,"rental_uris":{"android":"levelo://app?vid=02bcf567-d824-4093-bb84-e1a61f138472","ios":"levelo://app?vid=02bcf567-d824-4093-bb84-e1a61f138472"},"vehicle_type_id":"4","last_reported":1747076912,"current_range_meters":800,"station_id":"ce4bgi12rcd13ifvqb70","pricing_plan_id":"cebpf4jnsgd1na2vs0mg"},{"bike_id":"cfd6f79e-b67b-4037-812d-971e57ad37f5","system_id":"levelo_inurba_marseille","lat":43.299739,"lon":5.384878,"is_reserved":false,"is_disabled":true,"rental_uris":{"android":"levelo://app?vid=cfd6f79e-b67b-4037-812d-971e57ad37f5","ios":"levelo://app?vid=cfd6f79e-b67b-4037-812d-971e57ad37f5"},"vehicle_type_id":"4","last_reported":1747076912,"current_range_meters":1200,"station_id":"ce4bgj92rcd13ifvqbd0","pricing_plan_id":"cebpf4jnsgd1na2vs0mg"},{"bike_id":"79c1b035-cbbf-49b9-b793-b52f4aaa4be8","system_id":"levelo_inurba_marseille","lat":43.30796,"lon":5.3814,"is_reserved":false,"is_disabled":true,"rental_uris":{"android":"levelo://app?vid=79c1b035-cbbf-49b9-b793-b52f4aaa4be8","ios":"levelo://app?vid=79c1b035-cbbf-49b9-b793-b52f4aaa4be8"},"vehicle_type_id":"4","last_reported":1747076912,"current_range_meters":1200,"station_id":"ce4bgt12rcd13ifvqce0","pricing_plan_id":"cebpf4jnsgd1na2vs0mg"},{"bike_id":"ab438563-0937-4f95-a069-e5b90be8a868","system_id":"levelo_inurba_marseille","lat":43.31331,"lon":5.39691,"is_reserved":false,"is_disabled":true,"rental_uris":{"android":"levelo://app?vid=ab438563-0937-4f95-a069-e5b90be8a868","ios":"levelo://app?vid=ab438563-0937-4f95-a069-e5b90be8a868"},"vehicle_type_id":"4","last_reported":1747076912,"current_range_meters":1200,"station_id":"ce4bgvp2rcd13ifvqcu0","pricing_plan_id":"cebpf4jnsgd1na2vs0mg"},{"bike_id":"acce4d2b-3bc1-4fa3-bca5-05847750d5c3","system_id":"levelo_inurba_marseille","lat":43.31683,"lon":5.40476,"is_reserved":false,"is_disabled":true,"rental_uris":{"android":"levelo://app?vid=acce4d2b-3bc1-4fa3-bca5-05847750d5c3","ios":"levelo://app?vid=acce4d2b-3bc1-4fa3-bca5-05847750d5c3"},"vehicle_type_id":"4","last_reported":1747076912,"current_range_meters":1200,"station_id":"ce4bh012rcd13ifvqd00","pricing_plan_id":"cebpf4jnsgd1na2vs0mg"},{"bike_id":"7d96d0ee-0131-403f-b2cf-cf42b408a4e3","system_id":"levelo_inurba_marseille","lat":43.29962,"lon":5.38499,"is_reserved":false,"is_disabled":true,"rental_uris":{"android":"levelo://app?vid=7d96d0ee-0131-403f-b2cf-cf42b408a4e3","ios":"levelo://app?vid=7d96d0ee-0131-403f-b2cf-cf42b408a4e3"},"vehicle_type_id":"4","last_reported":1747076912,"current_range_meters":2000,"station_id":"ce4bgj92rcd13ifvqbd0","pricing_plan_id":"cebpf4jnsgd1na2vs0mg"},{"bike_id":"0a855624-13c4-4e27-815e-45ff28b19c8f","system_id":"levelo_inurba_marseille","lat":43.3078,"lon":5.37654,"is_reserved":false,"is_disabled":true,"rental_uris":{"android":"levelo://app?vid=0a855624-13c4-4e27-815e-45ff28b19c8f","ios":"levelo://app?vid=0a855624-13c4-4e27-815e-45ff28b19c8f"},"vehicle_type_id":"4","last_reported":1747076912,"current_range_meters":2000,"station_id":"ce4bgv92rcd13ifvqcq0","pricing_plan_id":"cebpf4jnsgd1na2vs0mg"},{"bike_id":"15353715-af47-4c03-917c-82d92c4b26d1","system_id":"levelo_inurba_marseille","lat":43.27965,"lon":5.38741,"is_reserved":false,"is_disabled":true,"rental_uris":{"android":"levelo://app?vid=15353715-af47-4c03-917c-82d92c4b26d1","ios":"levelo://app?vid=15353715-af47-4c03-917c-82d92c4b26d1"},"vehicle_type_id":"4","last_reported":1747076912,"current_range_meters":2000,"station_id":"ce4bhg12rcd13ifvqf80","pricing_plan_id":"cebpf4jnsgd1na2vs0mg"},{"bike_id":"b10eb417-38c8-4ba1-beaa-8d184d5cc491","system_id":"levelo_inurba_marseille","lat":43.25874,"lon":5.39895,"is_reserved":false,"is_disabled":true,"rental_uris":{"android":"levelo://app?vid=b10eb417-38c8-4ba1-beaa-8d184d5cc491","ios":"levelo://app?vid=b10eb417-38c8-4ba1-beaa-8d184d5cc491"},"vehicle_type_id":"4","last_reported":1747076912,"current_range_meters":2000,"station_id":"ce4bhl92rcd13ifvqghg","pricing_plan_id":"cebpf4jnsgd1na2vs0mg"},{"bike_id":"90220bdd-1887-4618-8a26-fcc02b7b06b3","system_id":"levelo_inurba_marseille","lat":43.3073,"lon":5.41017,"is_reserved":false,"is_disabled":false,"rental_uris":{"android":"levelo://app?vid=90220bdd-1887-4618-8a26-fcc02b7b06b3","ios":"levelo://app?vid=90220bdd-1887-4618-8a26-fcc02b7b06b3"},"vehicle_type_id":"4","last_reported":1747076912,"current_range_meters":2800,"station_id":"","pricing_plan_id":"cebpf4jnsgd1na2vs0mg"},{"bike_id":"a0920cd3-75e0-4245-895a-992ad88ad8a7","system_id":"levelo_inurba_marseille","lat":43.28439,"lon":5.41051,"is_reserved":false,"is_disabled":false,"rental_uris":{"android":"levelo://app?vid=a0920cd3-75e0-4245-895a-992ad88ad8a7","ios":"levelo://app?vid=a0920cd3-75e0-4245-895a-992ad88ad8a7"},"vehicle_type_id":"4","last_reported":1747076912,"current_range_meters":2800,"station_id":"","pricing_plan_id":"cebpf4jnsgd1na2vs0mg"},{"bike_id":"616d8f27-59f0-47b6-9879-6af9da37c3e7","system_id":"levelo_inurba_marseille","lat":43.30641,"lon":5.40108,"is_reserved":false,"is_disabled":false,"rental_uris":{"android":"levelo://app?vid=616d8f27-59f0-47b6-9879-6af9da37c3e7","ios":"levelo://app?vid=616d8f27-59f0-47b6-9879-6af9da37c3e7"},"vehicle_type_id":"4","last_reported":1747076912,"current_range_meters":2800,"station_id":"ce4bh112rcd13ifvqda0","pricing_plan_id":"cebpf4jnsgd1na2vs0mg"},{"bike_id":"25684216-a3fc-4916-8e05-9505382e4ab5","system_id":"levelo_inurba_marseille","lat":43.27359,"lon":5.39036,"is_reserved":false,"is_disabled":false,"rental_uris":{"android":"levelo://app?vid=25684216-a3fc-4916-8e05-9505382e4ab5","ios":"levelo://app?vid=25684216-a3fc-4916-8e05-9505382e4ab5"},"vehicle_type_id":"4","last_reported":1747076912,"current_range_meters":3200,"station_id":"","pricing_plan_id":"cebpf4jnsgd1na2vs0mg"},{"bike_id":"4621bc8f-7b4f-4d14-9b97-f07cb6a7100f","system_id":"levelo_inurba_marseille","lat":43.2868,"lon":5.36356,"is_reserved":false,"is_disabled":false,"rental_uris":{"android":"levelo://app?vid=4621bc8f-7b4f-4d14-9b97-f07cb6a7100f","ios":"levelo://app?vid=4621bc8f-7b4f-4d14-9b97-f07cb6a7100f"},"vehicle_type_id":"4","last_reported":1747076912,"current_range_meters":3600,"station_id":"ce4bhah2rcd13ifvqej0","pricing_plan_id":"cebpf4jnsgd1na2vs0mg"},{"bike_id":"bbc0f107-4947-4e62-a465-481e517b82c4","system_id":"levelo_inurba_marseille","lat":43.25583,"lon":5.38229,"is_reserved":false,"is_disabled":false,"rental_uris":{"android":"levelo://app?vid=bbc0f107-4947-4e62-a465-481e517b82c4","ios":"levelo://app?vid=bbc0f107-4947-4e62-a465-481e517b82c4"},"vehicle_type_id":"4","last_reported":1747076912,"current_range_meters":3600,"station_id":"ce4bhih2rcd13ifvqfs0","pricing_plan_id":"cebpf4jnsgd1na2vs0mg"},{"bike_id":"47c2a308-7d66-4618-bf62-1bf622dc772c","system_id":"levelo_inurba_marseille","lat":43.27827,"lon":5.39225,"is_reserved":false,"is_disabled":false,"rental_uris":{"android":"levelo://app?vid=47c2a308-7d66-4618-bf62-1bf622dc772c","ios":"levelo://app?vid=47c2a308-7d66-4618-bf62-1bf622dc772c"},"vehicle_type_id":"4","last_reported":1747076912,"current_range_meters":3600,"station_id":"ce4bhjp2rcd13ifvqga0","pricing_plan_id":"cebpf4jnsgd1na2vs0mg"},{"bike_id":"3fc16fcc-886e-407d-a26d-3ac2f4bdcaa5","system_id":"levelo_inurba_marseille","lat":43.29075,"lon":5.37162,"is_reserved":false,"is_disabled":false,"rental_uris":{"android":"levelo://app?vid=3fc16fcc-886e-407d-a26d-3ac2f4bdcaa5","ios":"levelo://app?vid=3fc16fcc-886e-407d-a26d-3ac2f4bdcaa5"},"vehicle_type_id":"4","last_reported":1747076912,"current_range_meters":4000,"station_id":"ce4bh5p2rcd13ifvqe4g","pricing_plan_id":"cebpf4jnsgd1na2vs0mg"},{"bike_id":"0f744a47-8e48-495e-bc66-96dd77b19d48","system_id":"levelo_inurba_marseille","lat":43.2826,"lon":5.3507,"is_reserved":false,"is_disabled":false,"rental_uris":{"android":"levelo://app?vid=0f744a47-8e48-495e-bc66-96dd77b19d48","ios":"levelo://app?vid=0f744a47-8e48-495e-bc66-96dd77b19d48"},"vehicle_type_id":"4","last_reported":1747076912,"current_range_meters":4000,"station_id":"ce4bhbp2rcd13ifvqerg","pricing_plan_id":"cebpf4jnsgd1na2vs0mg"},{"bike_id":"fc2577e7-1497-425b-9d4f-ab8d7dc843c6","system_id":"levelo_inurba_marseille","lat":43.33771,"lon":5.37485,"is_reserved":false,"is_disabled":false,"rental_uris":{"android":"levelo://app?vid=fc2577e7-1497-425b-9d4f-ab8d7dc843c6","ios":"levelo://app?vid=fc2577e7-1497-425b-9d4f-ab8d7dc843c6"},"vehicle_type_id":"4","last_reported":1747076912,"current_range_meters":4400,"station_id":"","pricing_plan_id":"cebpf4jnsgd1na2vs0mg"},{"bike_id":"b0ac8040-90e0-41ee-a2e3-e5462910fefc","system_id":"levelo_inurba_marseille","lat":43.27546,"lon":5.41282,"is_reserved":false,"is_disabled":false,"rental_uris":{"android":"levelo://app?vid=b0ac8040-90e0-41ee-a2e3-e5462910fefc","ios":"levelo://app?vid=b0ac8040-90e0-41ee-a2e3-e5462910fefc"},"vehicle_type_id":"4","last_reported":1747076912,"current_range_meters":4400,"station_id":"","pricing_plan_id":"cebpf4jnsgd1na2vs0mg"},{"bike_id":"c8a30156-ad6f-4611-991a-129c56453c53","system_id":"levelo_inurba_marseille","lat":43.27924,"lon":5.41066,"is_reserved":false,"is_disabled":false,"rental_uris":{"android":"levelo://app?vid=c8a30156-ad6f-4611-991a-129c56453c53","ios":"levelo://app?vid=c8a30156-ad6f-4611-991a-129c56453c53"},"vehicle_type_id":"4","last_reported":1747076912,"current_range_meters":4400,"station_id":"ce4bhnp2rcd13ifvqh0g","pricing_plan_id":"cebpf4jnsgd1na2vs0mg"},{"bike_id":"b1b8c807-8597-4a9c-bbcd-a2746fd63865","system_id":"levelo_inurba_marseille","lat":43.252808,"lon":5.399212,"is_reserved":false,"is_disabled":false,"rental_uris":{"android":"levelo://app?vid=b1b8c807-8597-4a9c-bbcd-a2746fd63865","ios":"levelo://app?vid=b1b8c807-8597-4a9c-bbcd-a2746fd63865"},"vehicle_type_id":"4","last_reported":1747076912,"current_range_meters":4800,"station_id":"","pricing_plan_id":"cebpf4jnsgd1na2vs0mg"},{"bike_id":"1838afde-afc3-4eda-8678-62b4dcd0e305","system_id":"levelo_inurba_marseille","lat":43.24069,"lon":5.37765,"is_reserved":false,"is_disabled":false,"rental_uris":{"android":"levelo://app?vid=1838afde-afc3-4eda-8678-62b4dcd0e305","ios":"levelo://app?vid=1838afde-afc3-4eda-8678-62b4dcd0e305"},"vehicle_type_id":"4","last_reported":1747076912,"current_range_meters":4800,"station_id":"ce4bhnp2rcd13ifvqgvg","pricing_plan_id":"cebpf4jnsgd1na2vs0mg"},{"bike_id":"96440031-edc5-4eae-b7fe-9422e0c153c3","system_id":"levelo_inurba_marseille","lat":43.29005,"lon":5.3561,"is_reserved":false,"is_disabled":false,"rental_uris":{"android":"levelo://app?vid=96440031-edc5-4eae-b7fe-9422e0c153c3","ios":"levelo://app?vid=96440031-edc5-4eae-b7fe-9422e0c153c3"},"vehicle_type_id":"4","last_reported":1747076912,"current_range_meters":6000,"station_id":"ce4bhb92rcd13ifvqen0","pricing_plan_id":"cebpf4jnsgd1na2vs0mg"},{"bike_id":"1e8b8f71-ab8e-48f0-b175-0c9b4d41efd1","system_id":"levelo_inurba_marseille","lat":43.24796,"lon":5.37461,"is_reserved":false,"is_disabled":false,"rental_uris":{"android":"levelo://app?vid=1e8b8f71-ab8e-48f0-b175-0c9b4d41efd1","ios":"levelo://app?vid=1e8b8f71-ab8e-48f0-b175-0c9b4d41efd1"},"vehicle_type_id":"4","last_reported":1747076912,"current_range_meters":6000,"station_id":"ce4bhgh2rcd13ifvqfb0","pricing_plan_id":"cebpf4jnsgd1na2vs0mg"},{"bike_id":"cb4aa7f8-5e58-4103-827e-f5aa7f653469","system_id":"levelo_inurba_marseille","lat":43.23212,"lon":5.35547,"is_reserved":false,"is_disabled":false,"rental_uris":{"android":"levelo://app?vid=cb4aa7f8-5e58-4103-827e-f5aa7f653469","ios":"levelo://app?vid=cb4aa7f8-5e58-4103-827e-f5aa7f653469"},"vehicle_type_id":"4","last_reported":1747076912,"current_range_meters":6000,"station_id":"ce4bhu92rcd13ifvqi70","pricing_plan_id":"cebpf4jnsgd1na2vs0mg"},{"bike_id":"936321e5-3631-4258-bf62-e38e433a4194","system_id":"levelo_inurba_marseille","lat":43.29789,"lon":5.39365,"is_reserved":false,"is_disabled":false,"rental_uris":{"android":"levelo://app?vid=936321e5-3631-4258-bf62-e38e433a4194","ios":"levelo://app?vid=936321e5-3631-4258-bf62-e38e433a4194"},"vehicle_type_id":"4","last_reported":1747076912,"current_range_meters":6000,"station_id":"chh1huq6cuj3fo74tm60","pricing_plan_id":"cebpf4jnsgd1na2vs0mg"},{"bike_id":"3ae1cd74-71fb-47ba-ac9b-3b9bc8cd8449","system_id":"levelo_inurba_marseille","lat":43.2175,"lon":5.34607,"is_reserved":false,"is_disabled":false,"rental_uris":{"android":"levelo://app?vid=3ae1cd74-71fb-47ba-ac9b-3b9bc8cd8449","ios":"levelo://app?vid=3ae1cd74-71fb-47ba-ac9b-3b9bc8cd8449"},"vehicle_type_id":"4","last_reported":1747076912,"current_range_meters":6000,"station_id":"st_cvj6r9ubvosntc0bgbag","pricing_plan_id":"cebpf4jnsgd1na2vs0mg"},{"bike_id":"ab85efed-6a44-4c8c-8d83-dd4faa36621e","system_id":"levelo_inurba_marseille","lat":43.31887,"lon":5.40738,"is_reserved":false,"is_disabled":false,"rental_uris":{"android":"levelo://app?vid=ab85efed-6a44-4c8c-8d83-dd4faa36621e","ios":"levelo://app?vid=ab85efed-6a44-4c8c-8d83-dd4faa36621e"},"vehicle_type_id":"4","last_reported":1747076912,"current_range_meters":6400,"station_id":"ce4bhq12rcd13ifvqhig","pricing_plan_id":"cebpf4jnsgd1na2vs0mg"},{"bike_id":"83a81ffb-3d1c-4122-a406-60b114a380fc","system_id":"levelo_inurba_marseille","lat":43.21187,"lon":5.3508,"is_reserved":false,"is_disabled":false,"rental_uris":{"android":"levelo://app?vid=83a81ffb-3d1c-4122-a406-60b114a380fc","ios":"levelo://app?vid=83a81ffb-3d1c-4122-a406-60b114a380fc"},"vehicle_type_id":"4","last_reported":1747076912,"current_range_meters":6400,"station_id":"st_cvj6sg6p6f1abm77japg","pricing_plan_id":"cebpf4jnsgd1na2vs0mg"},{"bike_id":"8c3d281f-92b6-4387-904b-6fd5beb61272","system_id":"levelo_inurba_marseille","lat":43.30295,"lon":5.36882,"is_reserved":false,"is_disabled":false,"rental_uris":{"android":"levelo://app?vid=8c3d281f-92b6-4387-904b-6fd5beb61272","ios":"levelo://app?vid=8c3d281f-92b6-4387-904b-6fd5beb61272"},"vehicle_type_id":"4","last_reported":1747076912,"current_range_meters":6800,"station_id":"ce4bgqh2rcd13ifvqc5g","pricing_plan_id":"cebpf4jnsgd1na2vs0mg"},{"bike_id":"46d1bf55-48a6-47c3-b234-ead95f794316","system_id":"levelo_inurba_marseille","lat":43.28561,"lon":5.39518,"is_reserved":false,"is_disabled":false,"rental_uris":{"android":"levelo://app?vid=46d1bf55-48a6-47c3-b234-ead95f794316","ios":"levelo://app?vid=46d1bf55-48a6-47c3-b234-ead95f794316"},"vehicle_type_id":"4","last_reported":1747076912,"current_range_meters":6800,"station_id":"ce4bh292rcd13ifvqdg0","pricing_plan_id":"cebpf4jnsgd1na2vs0mg"},{"bike_id":"546c745c-997b-4426-9d39-f715ef005a03","system_id":"levelo_inurba_marseille","lat":43.28934,"lon":5.36645,"is_reserved":false,"is_disabled":false,"rental_uris":{"android":"levelo://app?vid=546c745c-997b-4426-9d39-f715ef005a03","ios":"levelo://app?vid=546c745c-997b-4426-9d39-f715ef005a03"},"vehicle_type_id":"4","last_reported":1747076912,"current_range_meters":6800,"station_id":"ce4bhap2rcd13ifvqek0","pricing_plan_id":"cebpf4jnsgd1na2vs0mg"},{"bike_id":"5f9b62df-1db7-4452-8caf-5538e3287ca8","system_id":"levelo_inurba_marseille","lat":43.29366,"lon":5.42817,"is_reserved":false,"is_disabled":false,"rental_uris":{"android":"levelo://app?vid=5f9b62df-1db7-4452-8caf-5538e3287ca8","ios":"levelo://app?vid=5f9b62df-1db7-4452-8caf-5538e3287ca8"},"vehicle_type_id":"4","last_reported":1747076912,"current_range_meters":7200,"station_id":"","pricing_plan_id":"cebpf4jnsgd1na2vs0mg"},{"bike_id":"f784f752-9311-4fd0-b359-4eecb3ac7e16","system_id":"levelo_inurba_marseille","lat":43.30189,"lon":5.36616,"is_reserved":false,"is_disabled":false,"rental_uris":{"android":"levelo://app?vid=f784f752-9311-4fd0-b359-4eecb3ac7e16","ios":"levelo://app?vid=f784f752-9311-4fd0-b359-4eecb3ac7e16"},"vehicle_type_id":"4","last_reported":1747076912,"current_range_meters":7200,"station_id":"ce4bgrh2rcd13ifvqc8g","pricing_plan_id":"cebpf4jnsgd1na2vs0mg"},{"bike_id":"6f6d54d8-4509-4911-afab-4fc45001c71e","system_id":"levelo_inurba_marseille","lat":43.30084,"lon":5.39074,"is_reserved":false,"is_disabled":false,"rental_uris":{"android":"levelo://app?vid=6f6d54d8-4509-4911-afab-4fc45001c71e","ios":"levelo://app?vid=6f6d54d8-4509-4911-afab-4fc45001c71e"},"vehicle_type_id":"4","last_reported":1747076912,"current_range_meters":7200,"station_id":"ce4bh192rcd13ifvqdb0","pricing_plan_id":"cebpf4jnsgd1na2vs0mg"},{"bike_id":"5ec26f90-8dd6-447d-b560-18c3f69a73f3","system_id":"levelo_inurba_marseille","lat":43.28423,"lon":5.35897,"is_reserved":false,"is_disabled":false,"rental_uris":{"android":"levelo://app?vid=5ec26f90-8dd6-447d-b560-18c3f69a73f3","ios":"levelo://app?vid=5ec26f90-8dd6-447d-b560-18c3f69a73f3"},"vehicle_type_id":"4","last_reported":1747076912,"current_range_meters":7200,"station_id":"ce4bhah2rcd13ifvqei0","pricing_plan_id":"cebpf4jnsgd1na2vs0mg"},{"bike_id":"79f767b1-523b-4188-996e-cfe61a261e86","system_id":"levelo_inurba_marseille","lat":43.24175,"lon":5.39731,"is_reserved":false,"is_disabled":false,"rental_uris":{"android":"levelo://app?vid=79f767b1-523b-4188-996e-cfe61a261e86","ios":"levelo://app?vid=79f767b1-523b-4188-996e-cfe61a261e86"},"vehicle_type_id":"4","last_reported":1747076912,"current_range_meters":7200,"station_id":"ce4bhn12rcd13ifvqgpg","pricing_plan_id":"cebpf4jnsgd1na2vs0mg"},{"bike_id":"fc80cc12-5405-4d48-8a8f-adff3feb4aff","system_id":"levelo_inurba_marseille","lat":43.34138,"lon":5.40907,"is_reserved":false,"is_disabled":false,"rental_uris":{"android":"levelo://app?vid=fc80cc12-5405-4d48-8a8f-adff3feb4aff","ios":"levelo://app?vid=fc80cc12-5405-4d48-8a8f-adff3feb4aff"},"vehicle_type_id":"4","last_reported":1747076912,"current_range_meters":7200,"station_id":"ce4bhqh2rcd13ifvqhlg","pricing_plan_id":"cebpf4jnsgd1na2vs0mg"},{"bike_id":"6e5c91eb-f4c3-4748-8248-e56e7fa8d9e4","system_id":"levelo_inurba_marseille","lat":43.32367,"lon":5.3888,"is_reserved":false,"is_disabled":false,"rental_uris":{"android":"levelo://app?vid=6e5c91eb-f4c3-4748-8248-e56e7fa8d9e4","ios":"levelo://app?vid=6e5c91eb-f4c3-4748-8248-e56e7fa8d9e4"},"vehicle_type_id":"4","last_reported":1747076912,"current_range_meters":7200,"station_id":"ce4bhqp2rcd13ifvqhog","pricing_plan_id":"cebpf4jnsgd1na2vs0mg"},{"bike_id":"c166edd6-904a-4bc0-bde0-4462b8738864","system_id":"levelo_inurba_marseille","lat":43.24167,"lon":5.36401,"is_reserved":false,"is_disabled":false,"rental_uris":{"android":"levelo://app?vid=c166edd6-904a-4bc0-bde0-4462b8738864","ios":"levelo://app?vid=c166edd6-904a-4bc0-bde0-4462b8738864"},"vehicle_type_id":"4","last_reported":1747076912,"current_range_meters":7200,"station_id":"cpo36qri1sfpv3e86is0","pricing_plan_id":"cebpf4jnsgd1na2vs0mg"},{"bike_id":"3b606703-3067-4d3e-9877-b0b954710008","system_id":"levelo_inurba_marseille","lat":43.29753,"lon":5.37132,"is_reserved":false,"is_disabled":false,"rental_uris":{"android":"levelo://app?vid=3b606703-3067-4d3e-9877-b0b954710008","ios":"levelo://app?vid=3b606703-3067-4d3e-9877-b0b954710008"},"vehicle_type_id":"4","last_reported":1747076912,"current_range_meters":8000,"station_id":"ce4bgop2rcd13ifvqc1g","pricing_plan_id":"cebpf4jnsgd1na2vs0mg"},{"bike_id":"a6f76d4d-3bf3-4601-9711-d2be4511763e","system_id":"levelo_inurba_marseille","lat":43.30655,"lon":5.40089,"is_reserved":false,"is_disabled":false,"rental_uris":{"android":"levelo://app?vid=a6f76d4d-3bf3-4601-9711-d2be4511763e","ios":"levelo://app?vid=a6f76d4d-3bf3-4601-9711-d2be4511763e"},"vehicle_type_id":"4","last_reported":1747076912,"current_range_meters":8000,"station_id":"ce4bh112rcd13ifvqda0","pricing_plan_id":"cebpf4jnsgd1na2vs0mg"},{"bike_id":"8cad80b9-40f1-4238-b3c2-e7e97d51aeba","system_id":"levelo_inurba_marseille","lat":43.323642,"lon":5.388916,"is_reserved":false,"is_disabled":false,"rental_uris":{"android":"levelo://app?vid=8cad80b9-40f1-4238-b3c2-e7e97d51aeba","ios":"levelo://app?vid=8cad80b9-40f1-4238-b3c2-e7e97d51aeba"},"vehicle_type_id":"4","last_reported":1747076912,"current_range_meters":8000,"station_id":"ce4bhqp2rcd13ifvqhog","pricing_plan_id":"cebpf4jnsgd1na2vs0mg"},{"bike_id":"f16ca69b-8555-44d5-a69f-4e0aa21a017a","system_id":"levelo_inurba_marseille","lat":43.29587,"lon":5.37508,"is_reserved":false,"is_disabled":false,"rental_uris":{"android":"levelo://app?vid=f16ca69b-8555-44d5-a69f-4e0aa21a017a","ios":"levelo://app?vid=f16ca69b-8555-44d5-a69f-4e0aa21a017a"},"vehicle_type_id":"4","last_reported":1747076912,"current_range_meters":8400,"station_id":"ce4bgh92rcd13ifvqb50","pricing_plan_id":"cebpf4jnsgd1na2vs0mg"},{"bike_id":"b18201df-c91e-40b2-9c13-d5dbd93743f7","system_id":"levelo_inurba_marseille","lat":43.29364,"lon":5.37847,"is_reserved":false,"is_disabled":false,"rental_uris":{"android":"levelo://app?vid=b18201df-c91e-40b2-9c13-d5dbd93743f7","ios":"levelo://app?vid=b18201df-c91e-40b2-9c13-d5dbd93743f7"},"vehicle_type_id":"4","last_reported":1747076912,"current_range_meters":8400,"station_id":"ce4bgjh2rcd13ifvqbf0","pricing_plan_id":"cebpf4jnsgd1na2vs0mg"},{"bike_id":"6988df37-6d5c-4cd5-8ebd-781ce7e544cc","system_id":"levelo_inurba_marseille","lat":43.30323,"lon":5.40442,"is_reserved":false,"is_disabled":false,"rental_uris":{"android":"levelo://app?vid=6988df37-6d5c-4cd5-8ebd-781ce7e544cc","ios":"levelo://app?vid=6988df37-6d5c-4cd5-8ebd-781ce7e544cc"},"vehicle_type_id":"4","last_reported":1747076912,"current_range_meters":8400,"station_id":"ce4bh012rcd13ifvqd10","pricing_plan_id":"cebpf4jnsgd1na2vs0mg"},{"bike_id":"263ba0c1-bc4a-4eb3-9413-4fd9032e2164","system_id":"levelo_inurba_marseille","lat":43.29242,"lon":5.38459,"is_reserved":false,"is_disabled":false,"rental_uris":{"android":"levelo://app?vid=263ba0c1-bc4a-4eb3-9413-4fd9032e2164","ios":"levelo://app?vid=263ba0c1-bc4a-4eb3-9413-4fd9032e2164"},"vehicle_type_id":"4","last_reported":1747076912,"current_range_meters":8400,"station_id":"ce4bh692rcd13ifvqea0","pricing_plan_id":"cebpf4jnsgd1na2vs0mg"},{"bike_id":"d585aa56-e4bf-46ca-a933-ccc63582a0f7","system_id":"levelo_inurba_marseille","lat":43.28407,"lon":5.34992,"is_reserved":false,"is_disabled":false,"rental_uris":{"android":"levelo://app?vid=d585aa56-e4bf-46ca-a933-ccc63582a0f7","ios":"levelo://app?vid=d585aa56-e4bf-46ca-a933-ccc63582a0f7"},"vehicle_type_id":"4","last_reported":1747076912,"current_range_meters":8400,"station_id":"ce4bhbh2rcd13ifvqepg","pricing_plan_id":"cebpf4jnsgd1na2vs0mg"},{"bike_id":"2ca4e2f5-dca7-42ce-83dc-be3b80583d9d","system_id":"levelo_inurba_marseille","lat":43.27429,"lon":5.39416,"is_reserved":false,"is_disabled":false,"rental_uris":{"android":"levelo://app?vid=2ca4e2f5-dca7-42ce-83dc-be3b80583d9d","ios":"levelo://app?vid=2ca4e2f5-dca7-42ce-83dc-be3b80583d9d"},"vehicle_type_id":"4","last_reported":1747076912,"current_range_meters":8400,"station_id":"ce4bhdp2rcd13ifvqf20","pricing_plan_id":"cebpf4jnsgd1na2vs0mg"},{"bike_id":"fb81b49f-e2db-41a6-bb50-8e9459c1d7ab","system_id":"levelo_inurba_marseille","lat":43.262203,"lon":5.40445,"is_reserved":false,"is_disabled":false,"rental_uris":{"android":"levelo://app?vid=fb81b49f-e2db-41a6-bb50-8e9459c1d7ab","ios":"levelo://app?vid=fb81b49f-e2db-41a6-bb50-8e9459c1d7ab"},"vehicle_type_id":"4","last_reported":1747076912,"current_range_meters":8400,"station_id":"ce4bhmh2rcd13ifvqgmg","pricing_plan_id":"cebpf4jnsgd1na2vs0mg"},{"bike_id":"4193b3ff-7911-46cf-aafe-21c4ebe7fd24","system_id":"levelo_inurba_marseille","lat":43.23163,"lon":5.39959,"is_reserved":false,"is_disabled":false,"rental_uris":{"android":"levelo://app?vid=4193b3ff-7911-46cf-aafe-21c4ebe7fd24","ios":"levelo://app?vid=4193b3ff-7911-46cf-aafe-21c4ebe7fd24"},"vehicle_type_id":"4","last_reported":1747076912,"current_range_meters":8400,"station_id":"ce4bhn12rcd13ifvqgqg","pricing_plan_id":"cebpf4jnsgd1na2vs0mg"},{"bike_id":"963f33c0-7471-43a4-904d-9ab560258e0b","system_id":"levelo_inurba_marseille","lat":43.31496,"lon":5.37305,"is_reserved":false,"is_disabled":false,"rental_uris":{"android":"levelo://app?vid=963f33c0-7471-43a4-904d-9ab560258e0b","ios":"levelo://app?vid=963f33c0-7471-43a4-904d-9ab560258e0b"},"vehicle_type_id":"4","last_reported":1747076912,"current_range_meters":8800,"station_id":"ce4bgt12rcd13ifvqcd0","pricing_plan_id":"cebpf4jnsgd1na2vs0mg"},{"bike_id":"9377c43b-18a9-4f62-9d57-c53d9e2cc649","system_id":"levelo_inurba_marseille","lat":43.30901,"lon":5.37182,"is_reserved":false,"is_disabled":false,"rental_uris":{"android":"levelo://app?vid=9377c43b-18a9-4f62-9d57-c53d9e2cc649","ios":"levelo://app?vid=9377c43b-18a9-4f62-9d57-c53d9e2cc649"},"vehicle_type_id":"4","last_reported":1747076912,"current_range_meters":8800,"station_id":"ce4bguh2rcd13ifvqckg","pricing_plan_id":"cebpf4jnsgd1na2vs0mg"},{"bike_id":"01782675-3ee3-4a89-84bf-d4822d94ece7","system_id":"levelo_inurba_marseille","lat":43.302503,"lon":5.400654,"is_reserved":false,"is_disabled":false,"rental_uris":{"android":"levelo://app?vid=01782675-3ee3-4a89-84bf-d4822d94ece7","ios":"levelo://app?vid=01782675-3ee3-4a89-84bf-d4822d94ece7"},"vehicle_type_id":"4","last_reported":1747076912,"current_range_meters":8800,"station_id":"ce4bgvh2rcd13ifvqcs0","pricing_plan_id":"cebpf4jnsgd1na2vs0mg"},{"bike_id":"d6defe93-e44a-481d-a104-e0a4d7584d2f","system_id":"levelo_inurba_marseille","lat":43.31333,"lon":5.39695,"is_reserved":false,"is_disabled":false,"rental_uris":{"android":"levelo://app?vid=d6defe93-e44a-481d-a104-e0a4d7584d2f","ios":"levelo://app?vid=d6defe93-e44a-481d-a104-e0a4d7584d2f"},"vehicle_type_id":"4","last_reported":1747076912,"current_range_meters":8800,"station_id":"ce4bgvp2rcd13ifvqcu0","pricing_plan_id":"cebpf4jnsgd1na2vs0mg"},{"bike_id":"1a770ac8-f695-431f-b034-edb44b90e1f9","system_id":"levelo_inurba_marseille","lat":43.28568,"lon":5.39506,"is_reserved":false,"is_disabled":false,"rental_uris":{"android":"levelo://app?vid=1a770ac8-f695-431f-b034-edb44b90e1f9","ios":"levelo://app?vid=1a770ac8-f695-431f-b034-edb44b90e1f9"},"vehicle_type_id":"4","last_reported":1747076912,"current_range_meters":8800,"station_id":"ce4bh292rcd13ifvqdg0","pricing_plan_id":"cebpf4jnsgd1na2vs0mg"},{"bike_id":"4a5a05b0-a415-4c11-90b3-e4d7a4e6d246","system_id":"levelo_inurba_marseille","lat":43.283508,"lon":5.381058,"is_reserved":false,"is_disabled":false,"rental_uris":{"android":"levelo://app?vid=4a5a05b0-a415-4c11-90b3-e4d7a4e6d246","ios":"levelo://app?vid=4a5a05b0-a415-4c11-90b3-e4d7a4e6d246"},"vehicle_type_id":"4","last_reported":1747076912,"current_range_meters":8800,"station_id":"ce4bh412rcd13ifvqdr0","pricing_plan_id":"cebpf4jnsgd1na2vs0mg"},{"bike_id":"acca8498-5f9b-48da-a0fd-34e73dfe9abc","system_id":"levelo_inurba_marseille","lat":43.28398,"lon":5.37525,"is_reserved":false,"is_disabled":false,"rental_uris":{"android":"levelo://app?vid=acca8498-5f9b-48da-a0fd-34e73dfe9abc","ios":"levelo://app?vid=acca8498-5f9b-48da-a0fd-34e73dfe9abc"},"vehicle_type_id":"4","last_reported":1747076912,"current_range_meters":8800,"station_id":"ce4bh412rcd13ifvqds0","pricing_plan_id":"cebpf4jnsgd1na2vs0mg"},{"bike_id":"de4a530f-3b17-41b9-bd98-d22e64d46bdc","system_id":"levelo_inurba_marseille","lat":43.32129,"lon":5.36799,"is_reserved":false,"is_disabled":false,"rental_uris":{"android":"levelo://app?vid=de4a530f-3b17-41b9-bd98-d22e64d46bdc","ios":"levelo://app?vid=de4a530f-3b17-41b9-bd98-d22e64d46bdc"},"vehicle_type_id":"4","last_reported":1747076912,"current_range_meters":8800,"station_id":"ce4bhrh2rcd13ifvqhug","pricing_plan_id":"cebpf4jnsgd1na2vs0mg"},{"bike_id":"3bc82939-abcb-468f-afaf-ed8fa3e3693e","system_id":"levelo_inurba_marseille","lat":43.2872,"lon":5.36091,"is_reserved":false,"is_disabled":false,"rental_uris":{"android":"levelo://app?vid=3bc82939-abcb-468f-afaf-ed8fa3e3693e","ios":"levelo://app?vid=3bc82939-abcb-468f-afaf-ed8fa3e3693e"},"vehicle_type_id":"4","last_reported":1747076912,"current_range_meters":8800,"station_id":"cki0cbj6b192h4jlfktg","pricing_plan_id":"cebpf4jnsgd1na2vs0mg"},{"bike_id":"c37cd726-e8e6-4fda-a314-dd45132836aa","system_id":"levelo_inurba_marseille","lat":43.30879,"lon":5.37207,"is_reserved":false,"is_disabled":false,"rental_uris":{"android":"levelo://app?vid=c37cd726-e8e6-4fda-a314-dd45132836aa","ios":"levelo://app?vid=c37cd726-e8e6-4fda-a314-dd45132836aa"},"vehicle_type_id":"4","last_reported":1747076912,"current_range_meters":9200,"station_id":"ce4bguh2rcd13ifvqckg","pricing_plan_id":"cebpf4jnsgd1na2vs0mg"},{"bike_id":"0e084a1c-1abc-4948-a938-4f15e41ee625","system_id":"levelo_inurba_marseille","lat":43.29624,"lon":5.40597,"is_reserved":false,"is_disabled":false,"rental_uris":{"android":"levelo://app?vid=0e084a1c-1abc-4948-a938-4f15e41ee625","ios":"levelo://app?vid=0e084a1c-1abc-4948-a938-4f15e41ee625"},"vehicle_type_id":"4","last_reported":1747076912,"current_range_meters":9200,"station_id":"ce4bh0h2rcd13ifvqd60","pricing_plan_id":"cebpf4jnsgd1na2vs0mg"},{"bike_id":"53e5bb45-86dd-4381-9e57-f6eec2a2bb24","system_id":"levelo_inurba_marseille","lat":43.29034,"lon":5.37575,"is_reserved":false,"is_disabled":false,"rental_uris":{"android":"levelo://app?vid=53e5bb45-86dd-4381-9e57-f6eec2a2bb24","ios":"levelo://app?vid=53e5bb45-86dd-4381-9e57-f6eec2a2bb24"},"vehicle_type_id":"4","last_reported":1747076912,"current_range_meters":9200,"station_id":"ce4bh692rcd13ifvqe90","pricing_plan_id":"cebpf4jnsgd1na2vs0mg"},{"bike_id":"0a8bb0eb-e18a-4601-8b9c-10cedd4593aa","system_id":"levelo_inurba_marseille","lat":43.25126,"lon":5.40322,"is_reserved":false,"is_disabled":false,"rental_uris":{"android":"levelo://app?vid=0a8bb0eb-e18a-4601-8b9c-10cedd4593aa","ios":"levelo://app?vid=0a8bb0eb-e18a-4601-8b9c-10cedd4593aa"},"vehicle_type_id":"4","last_reported":1747076912,"current_range_meters":9200,"station_id":"ce4bhlh2rcd13ifvqgig","pricing_plan_id":"cebpf4jnsgd1na2vs0mg"},{"bike_id":"c39ffec0-bf54-4b94-892c-11b3ef277137","system_id":"levelo_inurba_marseille","lat":43.23198,"lon":5.39981,"is_reserved":false,"is_disabled":false,"rental_uris":{"android":"levelo://app?vid=c39ffec0-bf54-4b94-892c-11b3ef277137","ios":"levelo://app?vid=c39ffec0-bf54-4b94-892c-11b3ef277137"},"vehicle_type_id":"4","last_reported":1747076912,"current_range_meters":9200,"station_id":"ce4bhn12rcd13ifvqgqg","pricing_plan_id":"cebpf4jnsgd1na2vs0mg"},{"bike_id":"c8f6f9c3-7c0e-49e9-99b2-73fad95e8765","system_id":"levelo_inurba_marseille","lat":43.31891,"lon":5.4073,"is_reserved":false,"is_disabled":false,"rental_uris":{"android":"levelo://app?vid=c8f6f9c3-7c0e-49e9-99b2-73fad95e8765","ios":"levelo://app?vid=c8f6f9c3-7c0e-49e9-99b2-73fad95e8765"},"vehicle_type_id":"4","last_reported":1747076912,"current_range_meters":9200,"station_id":"ce4bhq12rcd13ifvqhig","pricing_plan_id":"cebpf4jnsgd1na2vs0mg"},{"bike_id":"e0b16578-b75c-49a0-be9b-59a4685629b7","system_id":"levelo_inurba_marseille","lat":43.28143,"lon":5.42625,"is_reserved":false,"is_disabled":false,"rental_uris":{"android":"levelo://app?vid=e0b16578-b75c-49a0-be9b-59a4685629b7","ios":"levelo://app?vid=e0b16578-b75c-49a0-be9b-59a4685629b7"},"vehicle_type_id":"4","last_reported":1747076912,"current_range_meters":9600,"station_id":"ce4bhnh2rcd13ifvqgug","pricing_plan_id":"cebpf4jnsgd1na2vs0mg"},{"bike_id":"2ee4d910-0ee1-4bc5-86c8-c77afad12b4f","system_id":"levelo_inurba_marseille","lat":43.321142,"lon":5.367711,"is_reserved":false,"is_disabled":false,"rental_uris":{"android":"levelo://app?vid=2ee4d910-0ee1-4bc5-86c8-c77afad12b4f","ios":"levelo://app?vid=2ee4d910-0ee1-4bc5-86c8-c77afad12b4f"},"vehicle_type_id":"4","last_reported":1747076912,"current_range_meters":9600,"station_id":"ce4bhrh2rcd13ifvqhug","pricing_plan_id":"cebpf4jnsgd1na2vs0mg"},{"bike_id":"d72719ec-6d7b-4f82-8b79-2d86a6f7b21e","system_id":"levelo_inurba_marseille","lat":43.29867,"lon":5.3975,"is_reserved":false,"is_disabled":false,"rental_uris":{"android":"levelo://app?vid=d72719ec-6d7b-4f82-8b79-2d86a6f7b21e","ios":"levelo://app?vid=d72719ec-6d7b-4f82-8b79-2d86a6f7b21e"},"vehicle_type_id":"4","last_reported":1747076912,"current_range_meters":10000,"station_id":"ce4bh0h2rcd13ifvqd50","pricing_plan_id":"cebpf4jnsgd1na2vs0mg"},{"bike_id":"71dcef97-5ca8-4f84-8ca3-ae96d0a35658","system_id":"levelo_inurba_marseille","lat":43.28716,"lon":5.3792,"is_reserved":false,"is_disabled":false,"rental_uris":{"android":"levelo://app?vid=71dcef97-5ca8-4f84-8ca3-ae96d0a35658","ios":"levelo://app?vid=71dcef97-5ca8-4f84-8ca3-ae96d0a35658"},"vehicle_type_id":"4","last_reported":1747076912,"current_range_meters":10000,"station_id":"ce4bh9p2rcd13ifvqec0","pricing_plan_id":"cebpf4jnsgd1na2vs0mg"},{"bike_id":"d80e6730-916b-4d8b-9b93-02e883771b57","system_id":"levelo_inurba_marseille","lat":43.28864,"lon":5.35852,"is_reserved":false,"is_disabled":false,"rental_uris":{"android":"levelo://app?vid=d80e6730-916b-4d8b-9b93-02e883771b57","ios":"levelo://app?vid=d80e6730-916b-4d8b-9b93-02e883771b57"},"vehicle_type_id":"4","last_reported":1747076912,"current_range_meters":10000,"station_id":"ce4bhb12rcd13ifvqem0","pricing_plan_id":"cebpf4jnsgd1na2vs0mg"},{"bike_id":"db8d3fae-537d-4057-8aca-1c1127eed671","system_id":"levelo_inurba_marseille","lat":43.284482,"lon":5.392021,"is_reserved":false,"is_disabled":false,"rental_uris":{"android":"levelo://app?vid=db8d3fae-537d-4057-8aca-1c1127eed671","ios":"levelo://app?vid=db8d3fae-537d-4057-8aca-1c1127eed671"},"vehicle_type_id":"4","last_reported":1747076912,"current_range_meters":10000,"station_id":"ce4bhoh2rcd13ifvqh5g","pricing_plan_id":"cebpf4jnsgd1na2vs0mg"},{"bike_id":"dae8c5ea-d3b6-4222-9bfd-9cc6ebac93c9","system_id":"levelo_inurba_marseille","lat":43.27311,"lon":5.39081,"is_reserved":false,"is_disabled":false,"rental_uris":{"android":"levelo://app?vid=dae8c5ea-d3b6-4222-9bfd-9cc6ebac93c9","ios":"levelo://app?vid=dae8c5ea-d3b6-4222-9bfd-9cc6ebac93c9"},"vehicle_type_id":"4","last_reported":1747076912,"current_range_meters":10800,"station_id":"ce4bhgp2rcd13ifvqfe0","pricing_plan_id":"cebpf4jnsgd1na2vs0mg"},{"bike_id":"4f0d53e0-8401-4360-87e8-0eb98f4e4d6f","system_id":"levelo_inurba_marseille","lat":43.29306,"lon":5.37164,"is_reserved":false,"is_disabled":false,"rental_uris":{"android":"levelo://app?vid=4f0d53e0-8401-4360-87e8-0eb98f4e4d6f","ios":"levelo://app?vid=4f0d53e0-8401-4360-87e8-0eb98f4e4d6f"},"vehicle_type_id":"4","last_reported":1747076912,"current_range_meters":11200,"station_id":"ce4bgh92rcd13ifvqb40","pricing_plan_id":"cebpf4jnsgd1na2vs0mg"},{"bike_id":"a07af238-1d5a-492e-88df-35771675e17b","system_id":"levelo_inurba_marseille","lat":43.287,"lon":5.37394,"is_reserved":false,"is_disabled":false,"rental_uris":{"android":"levelo://app?vid=a07af238-1d5a-492e-88df-35771675e17b","ios":"levelo://app?vid=a07af238-1d5a-492e-88df-35771675e17b"},"vehicle_type_id":"4","last_reported":1747076912,"current_range_meters":11200,"station_id":"ce4bh3p2rcd13ifvqdq0","pricing_plan_id":"cebpf4jnsgd1na2vs0mg"},{"bike_id":"74e62025-2535-4fc9-8ca3-467a93712086","system_id":"levelo_inurba_marseille","lat":43.29263,"lon":5.38437,"is_reserved":false,"is_disabled":false,"rental_uris":{"android":"levelo://app?vid=74e62025-2535-4fc9-8ca3-467a93712086","ios":"levelo://app?vid=74e62025-2535-4fc9-8ca3-467a93712086"},"vehicle_type_id":"4","last_reported":1747076912,"current_range_meters":11200,"station_id":"ce4bh692rcd13ifvqea0","pricing_plan_id":"cebpf4jnsgd1na2vs0mg"},{"bike_id":"09667552-604c-472f-b05c-2be0e1fd2bf4","system_id":"levelo_inurba_marseille","lat":43.28032,"lon":5.369596,"is_reserved":false,"is_disabled":false,"rental_uris":{"android":"levelo://app?vid=09667552-604c-472f-b05c-2be0e1fd2bf4","ios":"levelo://app?vid=09667552-604c-472f-b05c-2be0e1fd2bf4"},"vehicle_type_id":"4","last_reported":1747076912,"current_range_meters":11200,"station_id":"ce4bha12rcd13ifvqef0","pricing_plan_id":"cebpf4jnsgd1na2vs0mg"},{"bike_id":"e9d42b03-6ca3-4838-af7b-cea20c162ff2","system_id":"levelo_inurba_marseille","lat":43.24076,"lon":5.37762,"is_reserved":false,"is_disabled":false,"rental_uris":{"android":"levelo://app?vid=e9d42b03-6ca3-4838-af7b-cea20c162ff2","ios":"levelo://app?vid=e9d42b03-6ca3-4838-af7b-cea20c162ff2"},"vehicle_type_id":"4","last_reported":1747076912,"current_range_meters":11200,"station_id":"ce4bhnp2rcd13ifvqgvg","pricing_plan_id":"cebpf4jnsgd1na2vs0mg"},{"bike_id":"520f7c34-2dae-45f0-822d-f77db022ad72","system_id":"levelo_inurba_marseille","lat":43.28625,"lon":5.37058,"is_reserved":false,"is_disabled":false,"rental_uris":{"android":"levelo://app?vid=520f7c34-2dae-45f0-822d-f77db022ad72","ios":"levelo://app?vid=520f7c34-2dae-45f0-822d-f77db022ad72"},"vehicle_type_id":"4","last_reported":1747076912,"current_range_meters":11200,"station_id":"ce4bht12rcd13ifvqi60","pricing_plan_id":"cebpf4jnsgd1na2vs0mg"},{"bike_id":"2bac7a90-5e0f-4680-8ff6-5313fa553b37","system_id":"levelo_inurba_marseille","lat":43.29602,"lon":5.38086,"is_reserved":false,"is_disabled":false,"rental_uris":{"android":"levelo://app?vid=2bac7a90-5e0f-4680-8ff6-5313fa553b37","ios":"levelo://app?vid=2bac7a90-5e0f-4680-8ff6-5313fa553b37"},"vehicle_type_id":"4","last_reported":1747076912,"current_range_meters":11600,"station_id":"ce4bgl12rcd13ifvqbo0","pricing_plan_id":"cebpf4jnsgd1na2vs0mg"},{"bike_id":"582c69b3-f8cd-4ff6-8bac-12e0e5665656","system_id":"levelo_inurba_marseille","lat":43.30137,"lon":5.39873,"is_reserved":false,"is_disabled":false,"rental_uris":{"android":"levelo://app?vid=582c69b3-f8cd-4ff6-8bac-12e0e5665656","ios":"levelo://app?vid=582c69b3-f8cd-4ff6-8bac-12e0e5665656"},"vehicle_type_id":"4","last_reported":1747076912,"current_range_meters":11600,"station_id":"ce4bh0h2rcd13ifvqd40","pricing_plan_id":"cebpf4jnsgd1na2vs0mg"},{"bike_id":"a439c417-a336-45da-adc8-50442959e8dc","system_id":"levelo_inurba_marseille","lat":43.29507,"lon":5.39004,"is_reserved":false,"is_disabled":false,"rental_uris":{"android":"levelo://app?vid=a439c417-a336-45da-adc8-50442959e8dc","ios":"levelo://app?vid=a439c417-a336-45da-adc8-50442959e8dc"},"vehicle_type_id":"4","last_reported":1747076912,"current_range_meters":11600,"station_id":"ce4bh3p2rcd13ifvqdp0","pricing_plan_id":"cebpf4jnsgd1na2vs0mg"},{"bike_id":"2426c398-e9ff-4bc6-af2e-6b6e8459674c","system_id":"levelo_inurba_marseille","lat":43.28416,"lon":5.35002,"is_reserved":false,"is_disabled":false,"rental_uris":{"android":"levelo://app?vid=2426c398-e9ff-4bc6-af2e-6b6e8459674c","ios":"levelo://app?vid=2426c398-e9ff-4bc6-af2e-6b6e8459674c"},"vehicle_type_id":"4","last_reported":1747076912,"current_range_meters":11600,"station_id":"ce4bhbh2rcd13ifvqepg","pricing_plan_id":"cebpf4jnsgd1na2vs0mg"},{"bike_id":"41da10f9-c4df-4a4d-81d7-007f46c00b73","system_id":"levelo_inurba_marseille","lat":43.23189,"lon":5.39985,"is_reserved":false,"is_disabled":false,"rental_uris":{"android":"levelo://app?vid=41da10f9-c4df-4a4d-81d7-007f46c00b73","ios":"levelo://app?vid=41da10f9-c4df-4a4d-81d7-007f46c00b73"},"vehicle_type_id":"4","last_reported":1747076912,"current_range_meters":11600,"station_id":"ce4bhn12rcd13ifvqgqg","pricing_plan_id":"cebpf4jnsgd1na2vs0mg"},{"bike_id":"2755da5d-53bb-4b5b-83a9-1ecbaa55925d","system_id":"levelo_inurba_marseille","lat":43.2997,"lon":5.37178,"is_reserved":false,"is_disabled":false,"rental_uris":{"android":"levelo://app?vid=2755da5d-53bb-4b5b-83a9-1ecbaa55925d","ios":"levelo://app?vid=2755da5d-53bb-4b5b-83a9-1ecbaa55925d"},"vehicle_type_id":"4","last_reported":1747076912,"current_range_meters":12000,"station_id":"ce4bgr92rcd13ifvqc7g","pricing_plan_id":"cebpf4jnsgd1na2vs0mg"},{"bike_id":"b1ff3a15-5f33-4d46-b7e7-93462b420e71","system_id":"levelo_inurba_marseille","lat":43.31704,"lon":5.37739,"is_reserved":false,"is_disabled":false,"rental_uris":{"android":"levelo://app?vid=b1ff3a15-5f33-4d46-b7e7-93462b420e71","ios":"levelo://app?vid=b1ff3a15-5f33-4d46-b7e7-93462b420e71"},"vehicle_type_id":"4","last_reported":1747076912,"current_range_meters":12000,"station_id":"ce4bgth2rcd13ifvqch0","pricing_plan_id":"cebpf4jnsgd1na2vs0mg"},{"bike_id":"aa9a901d-2a7e-41ed-97e8-9ff553b5fe0f","system_id":"levelo_inurba_marseille","lat":43.3065,"lon":5.40064,"is_reserved":false,"is_disabled":false,"rental_uris":{"android":"levelo://app?vid=aa9a901d-2a7e-41ed-97e8-9ff553b5fe0f","ios":"levelo://app?vid=aa9a901d-2a7e-41ed-97e8-9ff553b5fe0f"},"vehicle_type_id":"4","last_reported":1747076912,"current_range_meters":12000,"station_id":"ce4bh112rcd13ifvqda0","pricing_plan_id":"cebpf4jnsgd1na2vs0mg"},{"bike_id":"8d0e6f77-190a-4f0a-9a4f-1f890289bb60","system_id":"levelo_inurba_marseille","lat":43.30464,"lon":5.37901,"is_reserved":false,"is_disabled":false,"rental_uris":{"android":"levelo://app?vid=8d0e6f77-190a-4f0a-9a4f-1f890289bb60","ios":"levelo://app?vid=8d0e6f77-190a-4f0a-9a4f-1f890289bb60"},"vehicle_type_id":"4","last_reported":1747076912,"current_range_meters":12400,"station_id":"ce4bgup2rcd13ifvqcn0","pricing_plan_id":"cebpf4jnsgd1na2vs0mg"},{"bike_id":"8a4c7b08-21e9-46ac-9a6c-1adec5d7fe18","system_id":"levelo_inurba_marseille","lat":43.30145,"lon":5.39843,"is_reserved":false,"is_disabled":false,"rental_uris":{"android":"levelo://app?vid=8a4c7b08-21e9-46ac-9a6c-1adec5d7fe18","ios":"levelo://app?vid=8a4c7b08-21e9-46ac-9a6c-1adec5d7fe18"},"vehicle_type_id":"4","last_reported":1747076912,"current_range_meters":12400,"station_id":"ce4bh0h2rcd13ifvqd40","pricing_plan_id":"cebpf4jnsgd1na2vs0mg"},{"bike_id":"dd88505d-ed66-4a1e-8cab-1d235cf681c4","system_id":"levelo_inurba_marseille","lat":43.29025,"lon":5.37559,"is_reserved":false,"is_disabled":false,"rental_uris":{"android":"levelo://app?vid=dd88505d-ed66-4a1e-8cab-1d235cf681c4","ios":"levelo://app?vid=dd88505d-ed66-4a1e-8cab-1d235cf681c4"},"vehicle_type_id":"4","last_reported":1747076912,"current_range_meters":12400,"station_id":"ce4bh692rcd13ifvqe90","pricing_plan_id":"cebpf4jnsgd1na2vs0mg"},{"bike_id":"3cb7541b-3d9d-46b3-964d-4e29525419f5","system_id":"levelo_inurba_marseille","lat":43.30934,"lon":5.40141,"is_reserved":false,"is_disabled":false,"rental_uris":{"android":"levelo://app?vid=3cb7541b-3d9d-46b3-964d-4e29525419f5","ios":"levelo://app?vid=3cb7541b-3d9d-46b3-964d-4e29525419f5"},"vehicle_type_id":"4","last_reported":1747076912,"current_range_meters":12800,"station_id":"ce4bgvp2rcd13ifvqct0","pricing_plan_id":"cebpf4jnsgd1na2vs0mg"},{"bike_id":"0e89a721-196d-4572-b905-e39e1dafff7a","system_id":"levelo_inurba_marseille","lat":43.321125,"lon":5.367697,"is_reserved":false,"is_disabled":false,"rental_uris":{"android":"levelo://app?vid=0e89a721-196d-4572-b905-e39e1dafff7a","ios":"levelo://app?vid=0e89a721-196d-4572-b905-e39e1dafff7a"},"vehicle_type_id":"4","last_reported":1747076912,"current_range_meters":12800,"station_id":"ce4bhrh2rcd13ifvqhug","pricing_plan_id":"cebpf4jnsgd1na2vs0mg"},{"bike_id":"c2b2d3c5-e5f6-41b1-b5ba-61c3aa197436","system_id":"levelo_inurba_marseille","lat":43.229297,"lon":5.353753,"is_reserved":false,"is_disabled":false,"rental_uris":{"android":"levelo://app?vid=c2b2d3c5-e5f6-41b1-b5ba-61c3aa197436","ios":"levelo://app?vid=c2b2d3c5-e5f6-41b1-b5ba-61c3aa197436"},"vehicle_type_id":"4","last_reported":1747076912,"current_range_meters":12800,"station_id":"cpo3532slgdg3j2ikp40","pricing_plan_id":"cebpf4jnsgd1na2vs0mg"},{"bike_id":"89c550d1-b31b-49dc-bb41-cd52ba1ad9f2","system_id":"levelo_inurba_marseille","lat":43.241657,"lon":5.364168,"is_reserved":false,"is_disabled":false,"rental_uris":{"android":"levelo://app?vid=89c550d1-b31b-49dc-bb41-cd52ba1ad9f2","ios":"levelo://app?vid=89c550d1-b31b-49dc-bb41-cd52ba1ad9f2"},"vehicle_type_id":"4","last_reported":1747076912,"current_range_meters":12800,"station_id":"cpo36qri1sfpv3e86is0","pricing_plan_id":"cebpf4jnsgd1na2vs0mg"},{"bike_id":"d9b91c76-9420-4248-9ccc-54ae67080ef3","system_id":"levelo_inurba_marseille","lat":43.31074,"lon":5.38347,"is_reserved":false,"is_disabled":false,"rental_uris":{"android":"levelo://app?vid=d9b91c76-9420-4248-9ccc-54ae67080ef3","ios":"levelo://app?vid=d9b91c76-9420-4248-9ccc-54ae67080ef3"},"vehicle_type_id":"4","last_reported":1747076912,"current_range_meters":13600,"station_id":"ce4bgv92rcd13ifvqcr0","pricing_plan_id":"cebpf4jnsgd1na2vs0mg"},{"bike_id":"b17dafb7-358d-4406-ba39-62c8f6eab219","system_id":"levelo_inurba_marseille","lat":43.28611,"lon":5.37063,"is_reserved":false,"is_disabled":false,"rental_uris":{"android":"levelo://app?vid=b17dafb7-358d-4406-ba39-62c8f6eab219","ios":"levelo://app?vid=b17dafb7-358d-4406-ba39-62c8f6eab219"},"vehicle_type_id":"4","last_reported":1747076912,"current_range_meters":13600,"station_id":"ce4bht12rcd13ifvqi60","pricing_plan_id":"cebpf4jnsgd1na2vs0mg"},{"bike_id":"55debacb-d145-467c-975b-79e00e42f7f6","system_id":"levelo_inurba_marseille","lat":43.29266,"lon":5.38447,"is_reserved":false,"is_disabled":false,"rental_uris":{"android":"levelo://app?vid=55debacb-d145-467c-975b-79e00e42f7f6","ios":"levelo://app?vid=55debacb-d145-467c-975b-79e00e42f7f6"},"vehicle_type_id":"4","last_reported":1747076912,"current_range_meters":14000,"station_id":"ce4bh692rcd13ifvqea0","pricing_plan_id":"cebpf4jnsgd1na2vs0mg"},{"bike_id":"315c9aa5-cd9f-4a60-8ba2-a8f8830c3824","system_id":"levelo_inurba_marseille","lat":43.32341,"lon":5.40618,"is_reserved":false,"is_disabled":false,"rental_uris":{"android":"levelo://app?vid=315c9aa5-cd9f-4a60-8ba2-a8f8830c3824","ios":"levelo://app?vid=315c9aa5-cd9f-4a60-8ba2-a8f8830c3824"},"vehicle_type_id":"4","last_reported":1747076912,"current_range_meters":14000,"station_id":"ce4bhq92rcd13ifvqhjg","pricing_plan_id":"cebpf4jnsgd1na2vs0mg"},{"bike_id":"c29d9fd4-0cd2-49e5-8243-9e604b0d80b1","system_id":"levelo_inurba_marseille","lat":43.28933,"lon":5.36634,"is_reserved":false,"is_disabled":false,"rental_uris":{"android":"levelo://app?vid=c29d9fd4-0cd2-49e5-8243-9e604b0d80b1","ios":"levelo://app?vid=c29d9fd4-0cd2-49e5-8243-9e604b0d80b1"},"vehicle_type_id":"4","last_reported":1747076912,"current_range_meters":14400,"station_id":"ce4bhap2rcd13ifvqek0","pricing_plan_id":"cebpf4jnsgd1na2vs0mg"},{"bike_id":"42849626-c3d4-46ca-8bdc-aa4564e8296e","system_id":"levelo_inurba_marseille","lat":43.2958,"lon":5.36744,"is_reserved":false,"is_disabled":false,"rental_uris":{"android":"levelo://app?vid=42849626-c3d4-46ca-8bdc-aa4564e8296e","ios":"levelo://app?vid=42849626-c3d4-46ca-8bdc-aa4564e8296e"},"vehicle_type_id":"4","last_reported":1747076912,"current_range_meters":14800,"station_id":"ce4bgph2rcd13ifvqc2g","pricing_plan_id":"cebpf4jnsgd1na2vs0mg"},{"bike_id":"9488cd38-53da-4bdd-ad3b-ad439bec4cc9","system_id":"levelo_inurba_marseille","lat":43.27498,"lon":5.42452,"is_reserved":false,"is_disabled":false,"rental_uris":{"android":"levelo://app?vid=9488cd38-53da-4bdd-ad3b-ad439bec4cc9","ios":"levelo://app?vid=9488cd38-53da-4bdd-ad3b-ad439bec4cc9"},"vehicle_type_id":"4","last_reported":1747076912,"current_range_meters":14800,"station_id":"ce4bhn92rcd13ifvqgrg","pricing_plan_id":"cebpf4jnsgd1na2vs0mg"},{"bike_id":"538f817f-f7af-4a0d-8500-757205f8e995","system_id":"levelo_inurba_marseille","lat":43.29161,"lon":5.37179,"is_reserved":false,"is_disabled":false,"rental_uris":{"android":"levelo://app?vid=538f817f-f7af-4a0d-8500-757205f8e995","ios":"levelo://app?vid=538f817f-f7af-4a0d-8500-757205f8e995"},"vehicle_type_id":"4","last_reported":1747076912,"current_range_meters":15200,"station_id":"ce4bha92rcd13ifvqeh0","pricing_plan_id":"cebpf4jnsgd1na2vs0mg"},{"bike_id":"14974396-773a-4225-b2c9-f2fca04895a5","system_id":"levelo_inurba_marseille","lat":43.28443,"lon":5.35896,"is_reserved":false,"is_disabled":false,"rental_uris":{"android":"levelo://app?vid=14974396-773a-4225-b2c9-f2fca04895a5","ios":"levelo://app?vid=14974396-773a-4225-b2c9-f2fca04895a5"},"vehicle_type_id":"4","last_reported":1747076912,"current_range_meters":15200,"station_id":"ce4bhah2rcd13ifvqei0","pricing_plan_id":"cebpf4jnsgd1na2vs0mg"},{"bike_id":"dc8472a8-1e0e-48c9-8d42-8e60b4ffb2cb","system_id":"levelo_inurba_marseille","lat":43.28669,"lon":5.36348,"is_reserved":false,"is_disabled":false,"rental_uris":{"android":"levelo://app?vid=dc8472a8-1e0e-48c9-8d42-8e60b4ffb2cb","ios":"levelo://app?vid=dc8472a8-1e0e-48c9-8d42-8e60b4ffb2cb"},"vehicle_type_id":"4","last_reported":1747076912,"current_range_meters":15200,"station_id":"ce4bhah2rcd13ifvqej0","pricing_plan_id":"cebpf4jnsgd1na2vs0mg"},{"bike_id":"ee6d2d1f-8d1e-4a2d-826f-f7739ceb5eaa","system_id":"levelo_inurba_marseille","lat":43.31352,"lon":5.39723,"is_reserved":false,"is_disabled":false,"rental_uris":{"android":"levelo://app?vid=ee6d2d1f-8d1e-4a2d-826f-f7739ceb5eaa","ios":"levelo://app?vid=ee6d2d1f-8d1e-4a2d-826f-f7739ceb5eaa"},"vehicle_type_id":"4","last_reported":1747076912,"current_range_meters":16000,"station_id":"ce4bgvp2rcd13ifvqcu0","pricing_plan_id":"cebpf4jnsgd1na2vs0mg"},{"bike_id":"e5ac90e8-51c4-4650-ae07-3efc627a9e98","system_id":"levelo_inurba_marseille","lat":43.29258,"lon":5.38452,"is_reserved":false,"is_disabled":false,"rental_uris":{"android":"levelo://app?vid=e5ac90e8-51c4-4650-ae07-3efc627a9e98","ios":"levelo://app?vid=e5ac90e8-51c4-4650-ae07-3efc627a9e98"},"vehicle_type_id":"4","last_reported":1747076912,"current_range_meters":16000,"station_id":"ce4bh692rcd13ifvqea0","pricing_plan_id":"cebpf4jnsgd1na2vs0mg"},{"bike_id":"009941ac-0127-4163-bedf-540a6a6da5b4","system_id":"levelo_inurba_marseille","lat":43.28419,"lon":5.34993,"is_reserved":false,"is_disabled":false,"rental_uris":{"android":"levelo://app?vid=009941ac-0127-4163-bedf-540a6a6da5b4","ios":"levelo://app?vid=009941ac-0127-4163-bedf-540a6a6da5b4"},"vehicle_type_id":"4","last_reported":1747076912,"current_range_meters":16000,"station_id":"ce4bhbh2rcd13ifvqepg","pricing_plan_id":"cebpf4jnsgd1na2vs0mg"},{"bike_id":"1da0eeca-6e59-40b8-a976-b9e38a336ed5","system_id":"levelo_inurba_marseille","lat":43.2439,"lon":5.37053,"is_reserved":false,"is_disabled":false,"rental_uris":{"android":"levelo://app?vid=1da0eeca-6e59-40b8-a976-b9e38a336ed5","ios":"levelo://app?vid=1da0eeca-6e59-40b8-a976-b9e38a336ed5"},"vehicle_type_id":"4","last_reported":1747076912,"current_range_meters":16000,"station_id":"ce4bhhh2rcd13ifvqfk0","pricing_plan_id":"cebpf4jnsgd1na2vs0mg"},{"bike_id":"94a56d00-e51a-49fe-8515-81faf65d104f","system_id":"levelo_inurba_marseille","lat":43.28078,"lon":5.39643,"is_reserved":false,"is_disabled":false,"rental_uris":{"android":"levelo://app?vid=94a56d00-e51a-49fe-8515-81faf65d104f","ios":"levelo://app?vid=94a56d00-e51a-49fe-8515-81faf65d104f"},"vehicle_type_id":"4","last_reported":1747076912,"current_range_meters":16000,"station_id":"ce4bho12rcd13ifvqh2g","pricing_plan_id":"cebpf4jnsgd1na2vs0mg"},{"bike_id":"e6ad97f1-b73e-46fd-a80f-360ecb6587de","system_id":"levelo_inurba_marseille","lat":43.27991,"lon":5.40021,"is_reserved":false,"is_disabled":false,"rental_uris":{"android":"levelo://app?vid=e6ad97f1-b73e-46fd-a80f-360ecb6587de","ios":"levelo://app?vid=e6ad97f1-b73e-46fd-a80f-360ecb6587de"},"vehicle_type_id":"4","last_reported":1747076912,"current_range_meters":16000,"station_id":"ce4bho92rcd13ifvqh4g","pricing_plan_id":"cebpf4jnsgd1na2vs0mg"},{"bike_id":"6eb0004f-6ee3-4804-97a0-f050ea148c7b","system_id":"levelo_inurba_marseille","lat":43.29786,"lon":5.39352,"is_reserved":false,"is_disabled":false,"rental_uris":{"android":"levelo://app?vid=6eb0004f-6ee3-4804-97a0-f050ea148c7b","ios":"levelo://app?vid=6eb0004f-6ee3-4804-97a0-f050ea148c7b"},"vehicle_type_id":"4","last_reported":1747076912,"current_range_meters":16000,"station_id":"chh1huq6cuj3fo74tm60","pricing_plan_id":"cebpf4jnsgd1na2vs0mg"},{"bike_id":"ff8e17fb-9d3b-431b-a82a-cf10aaf6e8b3","system_id":"levelo_inurba_marseille","lat":43.29779,"lon":5.39345,"is_reserved":false,"is_disabled":false,"rental_uris":{"android":"levelo://app?vid=ff8e17fb-9d3b-431b-a82a-cf10aaf6e8b3","ios":"levelo://app?vid=ff8e17fb-9d3b-431b-a82a-cf10aaf6e8b3"},"vehicle_type_id":"4","last_reported":1747076912,"current_range_meters":16000,"station_id":"chh1huq6cuj3fo74tm60","pricing_plan_id":"cebpf4jnsgd1na2vs0mg"},{"bike_id":"92565a29-4ac7-40fc-9275-44b1191aa2b4","system_id":"levelo_inurba_marseille","lat":43.281358,"lon":5.442224,"is_reserved":false,"is_disabled":false,"rental_uris":{"android":"levelo://app?vid=92565a29-4ac7-40fc-9275-44b1191aa2b4","ios":"levelo://app?vid=92565a29-4ac7-40fc-9275-44b1191aa2b4"},"vehicle_type_id":"4","last_reported":1747076912,"current_range_meters":16400,"station_id":"","pricing_plan_id":"cebpf4jnsgd1na2vs0mg"},{"bike_id":"cdb582d4-026f-4c94-abbb-a3b4013f07dd","system_id":"levelo_inurba_marseille","lat":43.302134,"lon":5.394786,"is_reserved":false,"is_disabled":false,"rental_uris":{"android":"levelo://app?vid=cdb582d4-026f-4c94-abbb-a3b4013f07dd","ios":"levelo://app?vid=cdb582d4-026f-4c94-abbb-a3b4013f07dd"},"vehicle_type_id":"4","last_reported":1747076912,"current_range_meters":16400,"station_id":"ce4bh0p2rcd13ifvqd70","pricing_plan_id":"cebpf4jnsgd1na2vs0mg"},{"bike_id":"de95d53c-a8d8-42e2-bf5c-cb50d31548c5","system_id":"levelo_inurba_marseille","lat":43.28109,"lon":5.37823,"is_reserved":false,"is_disabled":false,"rental_uris":{"android":"levelo://app?vid=de95d53c-a8d8-42e2-bf5c-cb50d31548c5","ios":"levelo://app?vid=de95d53c-a8d8-42e2-bf5c-cb50d31548c5"},"vehicle_type_id":"4","last_reported":1747076912,"current_range_meters":16400,"station_id":"ce4bha12rcd13ifvqee0","pricing_plan_id":"cebpf4jnsgd1na2vs0mg"},{"bike_id":"1c2db275-4159-4bb8-b7aa-9c61f015dd23","system_id":"levelo_inurba_marseille","lat":43.27556,"lon":5.38466,"is_reserved":false,"is_disabled":false,"rental_uris":{"android":"levelo://app?vid=1c2db275-4159-4bb8-b7aa-9c61f015dd23","ios":"levelo://app?vid=1c2db275-4159-4bb8-b7aa-9c61f015dd23"},"vehicle_type_id":"4","last_reported":1747076912,"current_range_meters":16400,"station_id":"ce4bhh92rcd13ifvqfi0","pricing_plan_id":"cebpf4jnsgd1na2vs0mg"},{"bike_id":"de509f93-44db-4c59-9e0c-6498ee8ab7c0","system_id":"levelo_inurba_marseille","lat":43.23063,"lon":5.35496,"is_reserved":false,"is_disabled":false,"rental_uris":{"android":"levelo://app?vid=de509f93-44db-4c59-9e0c-6498ee8ab7c0","ios":"levelo://app?vid=de509f93-44db-4c59-9e0c-6498ee8ab7c0"},"vehicle_type_id":"4","last_reported":1747076912,"current_range_meters":16400,"station_id":"cpo3342slgdg3j2ifvpg","pricing_plan_id":"cebpf4jnsgd1na2vs0mg"},{"bike_id":"ed3fff22-f120-41ec-80ac-a8a2d51d248b","system_id":"levelo_inurba_marseille","lat":43.28343,"lon":5.38091,"is_reserved":false,"is_disabled":false,"rental_uris":{"android":"levelo://app?vid=ed3fff22-f120-41ec-80ac-a8a2d51d248b","ios":"levelo://app?vid=ed3fff22-f120-41ec-80ac-a8a2d51d248b"},"vehicle_type_id":"4","last_reported":1747076912,"current_range_meters":16800,"station_id":"ce4bh412rcd13ifvqdr0","pricing_plan_id":"cebpf4jnsgd1na2vs0mg"},{"bike_id":"368582b5-76ee-4edf-84f6-f4a9176447c5","system_id":"levelo_inurba_marseille","lat":43.28664,"lon":5.38688,"is_reserved":false,"is_disabled":false,"rental_uris":{"android":"levelo://app?vid=368582b5-76ee-4edf-84f6-f4a9176447c5","ios":"levelo://app?vid=368582b5-76ee-4edf-84f6-f4a9176447c5"},"vehicle_type_id":"4","last_reported":1747076912,"current_range_meters":16800,"station_id":"ce4bh492rcd13ifvqdug","pricing_plan_id":"cebpf4jnsgd1na2vs0mg"},{"bike_id":"ac434d90-bd62-4ccf-8a71-74b868cd8010","system_id":"levelo_inurba_marseille","lat":43.28444,"lon":5.39206,"is_reserved":false,"is_disabled":false,"rental_uris":{"android":"levelo://app?vid=ac434d90-bd62-4ccf-8a71-74b868cd8010","ios":"levelo://app?vid=ac434d90-bd62-4ccf-8a71-74b868cd8010"},"vehicle_type_id":"4","last_reported":1747076912,"current_range_meters":16800,"station_id":"ce4bhoh2rcd13ifvqh5g","pricing_plan_id":"cebpf4jnsgd1na2vs0mg"},{"bike_id":"2a8d6c84-f97c-47ac-97e8-b5252d886c6b","system_id":"levelo_inurba_marseille","lat":43.30627,"lon":5.40104,"is_reserved":false,"is_disabled":false,"rental_uris":{"android":"levelo://app?vid=2a8d6c84-f97c-47ac-97e8-b5252d886c6b","ios":"levelo://app?vid=2a8d6c84-f97c-47ac-97e8-b5252d886c6b"},"vehicle_type_id":"4","last_reported":1747076912,"current_range_meters":17200,"station_id":"ce4bh112rcd13ifvqda0","pricing_plan_id":"cebpf4jnsgd1na2vs0mg"},{"bike_id":"86689108-8b6c-425a-98ae-946b288cf2c2","system_id":"levelo_inurba_marseille","lat":43.28469,"lon":5.35895,"is_reserved":false,"is_disabled":false,"rental_uris":{"android":"levelo://app?vid=86689108-8b6c-425a-98ae-946b288cf2c2","ios":"levelo://app?vid=86689108-8b6c-425a-98ae-946b288cf2c2"},"vehicle_type_id":"4","last_reported":1747076912,"current_range_meters":17200,"station_id":"ce4bhah2rcd13ifvqei0","pricing_plan_id":"cebpf4jnsgd1na2vs0mg"},{"bike_id":"bbed73dc-e3a3-4d0f-8ec4-7db9ba1f1284","system_id":"levelo_inurba_marseille","lat":43.25504,"lon":5.37661,"is_reserved":false,"is_disabled":false,"rental_uris":{"android":"levelo://app?vid=bbed73dc-e3a3-4d0f-8ec4-7db9ba1f1284","ios":"levelo://app?vid=bbed73dc-e3a3-4d0f-8ec4-7db9ba1f1284"},"vehicle_type_id":"4","last_reported":1747076912,"current_range_meters":17200,"station_id":"ce4bhh12rcd13ifvqff0","pricing_plan_id":"cebpf4jnsgd1na2vs0mg"},{"bike_id":"4ab0f769-9e93-40fd-8b7a-5ef1943991cf","system_id":"levelo_inurba_marseille","lat":43.28139,"lon":5.42663,"is_reserved":false,"is_disabled":false,"rental_uris":{"android":"levelo://app?vid=4ab0f769-9e93-40fd-8b7a-5ef1943991cf","ios":"levelo://app?vid=4ab0f769-9e93-40fd-8b7a-5ef1943991cf"},"vehicle_type_id":"4","last_reported":1747076912,"current_range_meters":17200,"station_id":"ce4bhnh2rcd13ifvqgug","pricing_plan_id":"cebpf4jnsgd1na2vs0mg"},{"bike_id":"fb11fd6a-5fed-4f33-9bc3-fde63d37c35d","system_id":"levelo_inurba_marseille","lat":43.27992,"lon":5.40014,"is_reserved":false,"is_disabled":false,"rental_uris":{"android":"levelo://app?vid=fb11fd6a-5fed-4f33-9bc3-fde63d37c35d","ios":"levelo://app?vid=fb11fd6a-5fed-4f33-9bc3-fde63d37c35d"},"vehicle_type_id":"4","last_reported":1747076912,"current_range_meters":17200,"station_id":"ce4bho92rcd13ifvqh4g","pricing_plan_id":"cebpf4jnsgd1na2vs0mg"},{"bike_id":"25700f60-06b9-45bc-8d0d-4f84f1197df9","system_id":"levelo_inurba_marseille","lat":43.309571,"lon":5.390106,"is_reserved":false,"is_disabled":false,"rental_uris":{"android":"levelo://app?vid=25700f60-06b9-45bc-8d0d-4f84f1197df9","ios":"levelo://app?vid=25700f60-06b9-45bc-8d0d-4f84f1197df9"},"vehicle_type_id":"4","last_reported":1747076912,"current_range_meters":17600,"station_id":"","pricing_plan_id":"cebpf4jnsgd1na2vs0mg"},{"bike_id":"070f367a-d1c6-46df-bd94-6ca382a3547b","system_id":"levelo_inurba_marseille","lat":43.28571,"lon":5.39504,"is_reserved":false,"is_disabled":false,"rental_uris":{"android":"levelo://app?vid=070f367a-d1c6-46df-bd94-6ca382a3547b","ios":"levelo://app?vid=070f367a-d1c6-46df-bd94-6ca382a3547b"},"vehicle_type_id":"4","last_reported":1747076912,"current_range_meters":17600,"station_id":"ce4bh292rcd13ifvqdg0","pricing_plan_id":"cebpf4jnsgd1na2vs0mg"},{"bike_id":"837ef1f7-fe4d-4f8a-a483-e77ecd0c4674","system_id":"levelo_inurba_marseille","lat":43.29264,"lon":5.38446,"is_reserved":false,"is_disabled":false,"rental_uris":{"android":"levelo://app?vid=837ef1f7-fe4d-4f8a-a483-e77ecd0c4674","ios":"levelo://app?vid=837ef1f7-fe4d-4f8a-a483-e77ecd0c4674"},"vehicle_type_id":"4","last_reported":1747076912,"current_range_meters":17600,"station_id":"ce4bh692rcd13ifvqea0","pricing_plan_id":"cebpf4jnsgd1na2vs0mg"},{"bike_id":"111998c6-70e8-4823-85aa-cbe0eb12546b","system_id":"levelo_inurba_marseille","lat":43.28414,"lon":5.34976,"is_reserved":false,"is_disabled":false,"rental_uris":{"android":"levelo://app?vid=111998c6-70e8-4823-85aa-cbe0eb12546b","ios":"levelo://app?vid=111998c6-70e8-4823-85aa-cbe0eb12546b"},"vehicle_type_id":"4","last_reported":1747076912,"current_range_meters":17600,"station_id":"ce4bhbh2rcd13ifvqepg","pricing_plan_id":"cebpf4jnsgd1na2vs0mg"},{"bike_id":"38f690fe-d15f-4c5d-b3a4-96bd22838a7f","system_id":"levelo_inurba_marseille","lat":43.2466,"lon":5.3817,"is_reserved":false,"is_disabled":false,"rental_uris":{"android":"levelo://app?vid=38f690fe-d15f-4c5d-b3a4-96bd22838a7f","ios":"levelo://app?vid=38f690fe-d15f-4c5d-b3a4-96bd22838a7f"},"vehicle_type_id":"4","last_reported":1747076912,"current_range_meters":17600,"station_id":"ce4bhih2rcd13ifvqfr0","pricing_plan_id":"cebpf4jnsgd1na2vs0mg"},{"bike_id":"02e49da1-337b-4b85-8ea3-d59b8d4959bd","system_id":"levelo_inurba_marseille","lat":43.28001,"lon":5.39991,"is_reserved":false,"is_disabled":false,"rental_uris":{"android":"levelo://app?vid=02e49da1-337b-4b85-8ea3-d59b8d4959bd","ios":"levelo://app?vid=02e49da1-337b-4b85-8ea3-d59b8d4959bd"},"vehicle_type_id":"4","last_reported":1747076912,"current_range_meters":17600,"station_id":"ce4bho92rcd13ifvqh4g","pricing_plan_id":"cebpf4jnsgd1na2vs0mg"},{"bike_id":"e871eb6d-2558-4ae8-b874-5787eb923450","system_id":"levelo_inurba_marseille","lat":43.31164,"lon":5.38713,"is_reserved":false,"is_disabled":false,"rental_uris":{"android":"levelo://app?vid=e871eb6d-2558-4ae8-b874-5787eb923450","ios":"levelo://app?vid=e871eb6d-2558-4ae8-b874-5787eb923450"},"vehicle_type_id":"4","last_reported":1747076912,"current_range_meters":18000,"station_id":"ce4bgv12rcd13ifvqcp0","pricing_plan_id":"cebpf4jnsgd1na2vs0mg"},{"bike_id":"aa2f6b38-2299-4d00-a390-9d346f70e8a3","system_id":"levelo_inurba_marseille","lat":43.29856,"lon":5.39742,"is_reserved":false,"is_disabled":false,"rental_uris":{"android":"levelo://app?vid=aa2f6b38-2299-4d00-a390-9d346f70e8a3","ios":"levelo://app?vid=aa2f6b38-2299-4d00-a390-9d346f70e8a3"},"vehicle_type_id":"4","last_reported":1747076912,"current_range_meters":18000,"station_id":"ce4bh0h2rcd13ifvqd50","pricing_plan_id":"cebpf4jnsgd1na2vs0mg"},{"bike_id":"1ef23f29-e4da-4627-be17-1edae23d83fe","system_id":"levelo_inurba_marseille","lat":43.28715,"lon":5.37937,"is_reserved":false,"is_disabled":false,"rental_uris":{"android":"levelo://app?vid=1ef23f29-e4da-4627-be17-1edae23d83fe","ios":"levelo://app?vid=1ef23f29-e4da-4627-be17-1edae23d83fe"},"vehicle_type_id":"4","last_reported":1747076912,"current_range_meters":18000,"station_id":"ce4bh9p2rcd13ifvqec0","pricing_plan_id":"cebpf4jnsgd1na2vs0mg"},{"bike_id":"9c116be9-de81-44dd-b14a-9c70c63b1d51","system_id":"levelo_inurba_marseille","lat":43.25113,"lon":5.40349,"is_reserved":false,"is_disabled":false,"rental_uris":{"android":"levelo://app?vid=9c116be9-de81-44dd-b14a-9c70c63b1d51","ios":"levelo://app?vid=9c116be9-de81-44dd-b14a-9c70c63b1d51"},"vehicle_type_id":"4","last_reported":1747076912,"current_range_meters":18000,"station_id":"ce4bhlh2rcd13ifvqgig","pricing_plan_id":"cebpf4jnsgd1na2vs0mg"},{"bike_id":"8fd9f005-a00f-44a6-9ec6-206b98bb55e9","system_id":"levelo_inurba_marseille","lat":43.241821,"lon":5.397293,"is_reserved":false,"is_disabled":false,"rental_uris":{"android":"levelo://app?vid=8fd9f005-a00f-44a6-9ec6-206b98bb55e9","ios":"levelo://app?vid=8fd9f005-a00f-44a6-9ec6-206b98bb55e9"},"vehicle_type_id":"4","last_reported":1747076912,"current_range_meters":18000,"station_id":"ce4bhn12rcd13ifvqgpg","pricing_plan_id":"cebpf4jnsgd1na2vs0mg"},{"bike_id":"63fb28b9-258e-4580-8e31-1efaa0aeb238","system_id":"levelo_inurba_marseille","lat":43.28077,"lon":5.39658,"is_reserved":false,"is_disabled":false,"rental_uris":{"android":"levelo://app?vid=63fb28b9-258e-4580-8e31-1efaa0aeb238","ios":"levelo://app?vid=63fb28b9-258e-4580-8e31-1efaa0aeb238"},"vehicle_type_id":"4","last_reported":1747076912,"current_range_meters":18000,"station_id":"ce4bho12rcd13ifvqh2g","pricing_plan_id":"cebpf4jnsgd1na2vs0mg"},{"bike_id":"e20c0ab0-90ea-460e-bcc0-e5fa98547380","system_id":"levelo_inurba_marseille","lat":43.31725,"lon":5.43702,"is_reserved":false,"is_disabled":false,"rental_uris":{"android":"levelo://app?vid=e20c0ab0-90ea-460e-bcc0-e5fa98547380","ios":"levelo://app?vid=e20c0ab0-90ea-460e-bcc0-e5fa98547380"},"vehicle_type_id":"4","last_reported":1747076912,"current_range_meters":18000,"station_id":"ce4bhp92rcd13ifvqhcg","pricing_plan_id":"cebpf4jnsgd1na2vs0mg"},{"bike_id":"30738110-8d3f-4961-bd21-942737ce1da4","system_id":"levelo_inurba_marseille","lat":43.29295,"lon":5.38541,"is_reserved":false,"is_disabled":false,"rental_uris":{"android":"levelo://app?vid=30738110-8d3f-4961-bd21-942737ce1da4","ios":"levelo://app?vid=30738110-8d3f-4961-bd21-942737ce1da4"},"vehicle_type_id":"4","last_reported":1747076912,"current_range_meters":18000,"station_id":"chh1huq6cuj3fo74tm60","pricing_plan_id":"cebpf4jnsgd1na2vs0mg"},{"bike_id":"8f898ea4-0b70-46db-b495-a08fd22223a4","system_id":"levelo_inurba_marseille","lat":43.22914,"lon":5.35353,"is_reserved":false,"is_disabled":false,"rental_uris":{"android":"levelo://app?vid=8f898ea4-0b70-46db-b495-a08fd22223a4","ios":"levelo://app?vid=8f898ea4-0b70-46db-b495-a08fd22223a4"},"vehicle_type_id":"4","last_reported":1747076912,"current_range_meters":18000,"station_id":"cpo3532slgdg3j2ikp40","pricing_plan_id":"cebpf4jnsgd1na2vs0mg"},{"bike_id":"048e5ed3-cb20-4699-b005-b96d319be977","system_id":"levelo_inurba_marseille","lat":43.30131,"lon":5.39846,"is_reserved":false,"is_disabled":false,"rental_uris":{"android":"levelo://app?vid=048e5ed3-cb20-4699-b005-b96d319be977","ios":"levelo://app?vid=048e5ed3-cb20-4699-b005-b96d319be977"},"vehicle_type_id":"4","last_reported":1747076912,"current_range_meters":18800,"station_id":"ce4bh0h2rcd13ifvqd40","pricing_plan_id":"cebpf4jnsgd1na2vs0mg"},{"bike_id":"7689118d-6f89-4a4c-80c2-d94c2483d3eb","system_id":"levelo_inurba_marseille","lat":43.29866,"lon":5.39744,"is_reserved":false,"is_disabled":false,"rental_uris":{"android":"levelo://app?vid=7689118d-6f89-4a4c-80c2-d94c2483d3eb","ios":"levelo://app?vid=7689118d-6f89-4a4c-80c2-d94c2483d3eb"},"vehicle_type_id":"4","last_reported":1747076912,"current_range_meters":18800,"station_id":"ce4bh0h2rcd13ifvqd50","pricing_plan_id":"cebpf4jnsgd1na2vs0mg"},{"bike_id":"06b89ecb-3f19-4a6c-b0a5-7cc3377fb43c","system_id":"levelo_inurba_marseille","lat":43.246585,"lon":5.381675,"is_reserved":false,"is_disabled":false,"rental_uris":{"android":"levelo://app?vid=06b89ecb-3f19-4a6c-b0a5-7cc3377fb43c","ios":"levelo://app?vid=06b89ecb-3f19-4a6c-b0a5-7cc3377fb43c"},"vehicle_type_id":"4","last_reported":1747076912,"current_range_meters":18800,"station_id":"ce4bhih2rcd13ifvqfr0","pricing_plan_id":"cebpf4jnsgd1na2vs0mg"},{"bike_id":"f6638646-3512-49b2-ae43-816fd5c11578","system_id":"levelo_inurba_marseille","lat":43.28077,"lon":5.39663,"is_reserved":false,"is_disabled":false,"rental_uris":{"android":"levelo://app?vid=f6638646-3512-49b2-ae43-816fd5c11578","ios":"levelo://app?vid=f6638646-3512-49b2-ae43-816fd5c11578"},"vehicle_type_id":"4","last_reported":1747076912,"current_range_meters":18800,"station_id":"ce4bho12rcd13ifvqh2g","pricing_plan_id":"cebpf4jnsgd1na2vs0mg"},{"bike_id":"09845d8e-115d-4fe8-bbbf-5f60b06c5c0a","system_id":"levelo_inurba_marseille","lat":43.27999,"lon":5.40011,"is_reserved":false,"is_disabled":false,"rental_uris":{"android":"levelo://app?vid=09845d8e-115d-4fe8-bbbf-5f60b06c5c0a","ios":"levelo://app?vid=09845d8e-115d-4fe8-bbbf-5f60b06c5c0a"},"vehicle_type_id":"4","last_reported":1747076912,"current_range_meters":18800,"station_id":"ce4bho92rcd13ifvqh4g","pricing_plan_id":"cebpf4jnsgd1na2vs0mg"},{"bike_id":"849551c5-240b-48cd-88b2-3e23f9d3b406","system_id":"levelo_inurba_marseille","lat":43.2841,"lon":5.37513,"is_reserved":false,"is_disabled":false,"rental_uris":{"android":"levelo://app?vid=849551c5-240b-48cd-88b2-3e23f9d3b406","ios":"levelo://app?vid=849551c5-240b-48cd-88b2-3e23f9d3b406"},"vehicle_type_id":"4","last_reported":1747076912,"current_range_meters":19200,"station_id":"ce4bh412rcd13ifvqds0","pricing_plan_id":"cebpf4jnsgd1na2vs0mg"},{"bike_id":"39a6bd1f-7072-469f-8856-342cea40130d","system_id":"levelo_inurba_marseille","lat":43.246321,"lon":5.389382,"is_reserved":false,"is_disabled":false,"rental_uris":{"android":"levelo://app?vid=39a6bd1f-7072-469f-8856-342cea40130d","ios":"levelo://app?vid=39a6bd1f-7072-469f-8856-342cea40130d"},"vehicle_type_id":"4","last_reported":1747076912,"current_range_meters":19200,"station_id":"ce4bhg12rcd13ifvqf60","pricing_plan_id":"cebpf4jnsgd1na2vs0mg"},{"bike_id":"8a11d058-a2a1-4ae4-bbcc-1853616c395d","system_id":"levelo_inurba_marseille","lat":43.27816,"lon":5.40717,"is_reserved":false,"is_disabled":false,"rental_uris":{"android":"levelo://app?vid=8a11d058-a2a1-4ae4-bbcc-1853616c395d","ios":"levelo://app?vid=8a11d058-a2a1-4ae4-bbcc-1853616c395d"},"vehicle_type_id":"4","last_reported":1747076912,"current_range_meters":19200,"station_id":"ce4bhnh2rcd13ifvqgtg","pricing_plan_id":"cebpf4jnsgd1na2vs0mg"},{"bike_id":"ae2670a2-585e-4081-a3e0-8ca36e005485","system_id":"levelo_inurba_marseille","lat":43.24067,"lon":5.37774,"is_reserved":false,"is_disabled":false,"rental_uris":{"android":"levelo://app?vid=ae2670a2-585e-4081-a3e0-8ca36e005485","ios":"levelo://app?vid=ae2670a2-585e-4081-a3e0-8ca36e005485"},"vehicle_type_id":"4","last_reported":1747076912,"current_range_meters":19200,"station_id":"ce4bhnp2rcd13ifvqgvg","pricing_plan_id":"cebpf4jnsgd1na2vs0mg"},{"bike_id":"cf7bf50a-9787-4df9-9279-dc78aee23686","system_id":"levelo_inurba_marseille","lat":43.31714,"lon":5.43707,"is_reserved":false,"is_disabled":false,"rental_uris":{"android":"levelo://app?vid=cf7bf50a-9787-4df9-9279-dc78aee23686","ios":"levelo://app?vid=cf7bf50a-9787-4df9-9279-dc78aee23686"},"vehicle_type_id":"4","last_reported":1747076912,"current_range_meters":19200,"station_id":"ce4bhp92rcd13ifvqhcg","pricing_plan_id":"cebpf4jnsgd1na2vs0mg"},{"bike_id":"29eafd50-47a0-404c-85cb-3db1ab1f78f9","system_id":"levelo_inurba_marseille","lat":43.29909,"lon":5.38139,"is_reserved":false,"is_disabled":false,"rental_uris":{"android":"levelo://app?vid=29eafd50-47a0-404c-85cb-3db1ab1f78f9","ios":"levelo://app?vid=29eafd50-47a0-404c-85cb-3db1ab1f78f9"},"vehicle_type_id":"4","last_reported":1747076912,"current_range_meters":19600,"station_id":"ce4bgj12rcd13ifvqbc0","pricing_plan_id":"cebpf4jnsgd1na2vs0mg"},{"bike_id":"d4a5be5d-52e2-4a03-a9fa-6f608bba6de0","system_id":"levelo_inurba_marseille","lat":43.30436,"lon":5.38911,"is_reserved":false,"is_disabled":false,"rental_uris":{"android":"levelo://app?vid=d4a5be5d-52e2-4a03-a9fa-6f608bba6de0","ios":"levelo://app?vid=d4a5be5d-52e2-4a03-a9fa-6f608bba6de0"},"vehicle_type_id":"4","last_reported":1747076912,"current_range_meters":19600,"station_id":"ce4bgk12rcd13ifvqbi0","pricing_plan_id":"cebpf4jnsgd1na2vs0mg"},{"bike_id":"8bd8ecaa-2414-487b-9de0-c80f58593f90","system_id":"levelo_inurba_marseille","lat":43.30307,"lon":5.39215,"is_reserved":false,"is_disabled":false,"rental_uris":{"android":"levelo://app?vid=8bd8ecaa-2414-487b-9de0-c80f58593f90","ios":"levelo://app?vid=8bd8ecaa-2414-487b-9de0-c80f58593f90"},"vehicle_type_id":"4","last_reported":1747076912,"current_range_meters":19600,"station_id":"ce4bgkh2rcd13ifvqbk0","pricing_plan_id":"cebpf4jnsgd1na2vs0mg"},{"bike_id":"456a5f23-42f8-4274-94a5-ce186549a6e0","system_id":"levelo_inurba_marseille","lat":43.30247,"lon":5.40063,"is_reserved":false,"is_disabled":false,"rental_uris":{"android":"levelo://app?vid=456a5f23-42f8-4274-94a5-ce186549a6e0","ios":"levelo://app?vid=456a5f23-42f8-4274-94a5-ce186549a6e0"},"vehicle_type_id":"4","last_reported":1747076912,"current_range_meters":19600,"station_id":"ce4bgvh2rcd13ifvqcs0","pricing_plan_id":"cebpf4jnsgd1na2vs0mg"},{"bike_id":"f1935af1-20ea-4dd6-9a75-619b65d30c6c","system_id":"levelo_inurba_marseille","lat":43.2857,"lon":5.39498,"is_reserved":false,"is_disabled":false,"rental_uris":{"android":"levelo://app?vid=f1935af1-20ea-4dd6-9a75-619b65d30c6c","ios":"levelo://app?vid=f1935af1-20ea-4dd6-9a75-619b65d30c6c"},"vehicle_type_id":"4","last_reported":1747076912,"current_range_meters":19600,"station_id":"ce4bh292rcd13ifvqdg0","pricing_plan_id":"cebpf4jnsgd1na2vs0mg"},{"bike_id":"e876107b-b2eb-4fb6-b0e9-97d485eb421a","system_id":"levelo_inurba_marseille","lat":43.28854,"lon":5.35863,"is_reserved":false,"is_disabled":false,"rental_uris":{"android":"levelo://app?vid=e876107b-b2eb-4fb6-b0e9-97d485eb421a","ios":"levelo://app?vid=e876107b-b2eb-4fb6-b0e9-97d485eb421a"},"vehicle_type_id":"4","last_reported":1747076912,"current_range_meters":19600,"station_id":"ce4bhb12rcd13ifvqem0","pricing_plan_id":"cebpf4jnsgd1na2vs0mg"},{"bike_id":"1e76b10d-bb0d-4ba3-bc4e-41ce9c4e24f9","system_id":"levelo_inurba_marseille","lat":43.28826,"lon":5.3587,"is_reserved":false,"is_disabled":false,"rental_uris":{"android":"levelo://app?vid=1e76b10d-bb0d-4ba3-bc4e-41ce9c4e24f9","ios":"levelo://app?vid=1e76b10d-bb0d-4ba3-bc4e-41ce9c4e24f9"},"vehicle_type_id":"4","last_reported":1747076912,"current_range_meters":19600,"station_id":"ce4bhb12rcd13ifvqem0","pricing_plan_id":"cebpf4jnsgd1na2vs0mg"},{"bike_id":"d0c8b7ca-130e-44c4-bc35-e44771c19fde","system_id":"levelo_inurba_marseille","lat":43.26491,"lon":5.39543,"is_reserved":false,"is_disabled":false,"rental_uris":{"android":"levelo://app?vid=d0c8b7ca-130e-44c4-bc35-e44771c19fde","ios":"levelo://app?vid=d0c8b7ca-130e-44c4-bc35-e44771c19fde"},"vehicle_type_id":"4","last_reported":1747076912,"current_range_meters":19600,"station_id":"ce4bhi12rcd13ifvqfq0","pricing_plan_id":"cebpf4jnsgd1na2vs0mg"},{"bike_id":"5cb13f10-276f-4306-abd4-5aa4bc8113aa","system_id":"levelo_inurba_marseille","lat":43.25117,"lon":5.40321,"is_reserved":false,"is_disabled":false,"rental_uris":{"android":"levelo://app?vid=5cb13f10-276f-4306-abd4-5aa4bc8113aa","ios":"levelo://app?vid=5cb13f10-276f-4306-abd4-5aa4bc8113aa"},"vehicle_type_id":"4","last_reported":1747076912,"current_range_meters":19600,"station_id":"ce4bhlh2rcd13ifvqgig","pricing_plan_id":"cebpf4jnsgd1na2vs0mg"},{"bike_id":"2b02467a-5ffd-42c5-bd01-79712910f637","system_id":"levelo_inurba_marseille","lat":43.28134,"lon":5.42656,"is_reserved":false,"is_disabled":false,"rental_uris":{"android":"levelo://app?vid=2b02467a-5ffd-42c5-bd01-79712910f637","ios":"levelo://app?vid=2b02467a-5ffd-42c5-bd01-79712910f637"},"vehicle_type_id":"4","last_reported":1747076912,"current_range_meters":19600,"station_id":"ce4bhnh2rcd13ifvqgug","pricing_plan_id":"cebpf4jnsgd1na2vs0mg"},{"bike_id":"106eb206-51bf-43cb-a6c5-ca9ab95c5e14","system_id":"levelo_inurba_marseille","lat":43.31705,"lon":5.4371,"is_reserved":false,"is_disabled":false,"rental_uris":{"android":"levelo://app?vid=106eb206-51bf-43cb-a6c5-ca9ab95c5e14","ios":"levelo://app?vid=106eb206-51bf-43cb-a6c5-ca9ab95c5e14"},"vehicle_type_id":"4","last_reported":1747076912,"current_range_meters":19600,"station_id":"ce4bhp92rcd13ifvqhcg","pricing_plan_id":"cebpf4jnsgd1na2vs0mg"},{"bike_id":"ba71d5fa-ac7a-4ab3-b140-8d82cd089cc6","system_id":"levelo_inurba_marseille","lat":43.29032,"lon":5.37568,"is_reserved":false,"is_disabled":false,"rental_uris":{"android":"levelo://app?vid=ba71d5fa-ac7a-4ab3-b140-8d82cd089cc6","ios":"levelo://app?vid=ba71d5fa-ac7a-4ab3-b140-8d82cd089cc6"},"vehicle_type_id":"4","last_reported":1747076912,"current_range_meters":20000,"station_id":"ce4bh692rcd13ifvqe90","pricing_plan_id":"cebpf4jnsgd1na2vs0mg"},{"bike_id":"df148f76-2a8e-4628-a81f-285a0607fa4c","system_id":"levelo_inurba_marseille","lat":43.28044,"lon":5.36944,"is_reserved":false,"is_disabled":false,"rental_uris":{"android":"levelo://app?vid=df148f76-2a8e-4628-a81f-285a0607fa4c","ios":"levelo://app?vid=df148f76-2a8e-4628-a81f-285a0607fa4c"},"vehicle_type_id":"4","last_reported":1747076912,"current_range_meters":20000,"station_id":"ce4bha12rcd13ifvqef0","pricing_plan_id":"cebpf4jnsgd1na2vs0mg"},{"bike_id":"e2b7593a-dbbc-4a30-b5c1-ee286ff2c1a1","system_id":"levelo_inurba_marseille","lat":43.24666,"lon":5.38171,"is_reserved":false,"is_disabled":false,"rental_uris":{"android":"levelo://app?vid=e2b7593a-dbbc-4a30-b5c1-ee286ff2c1a1","ios":"levelo://app?vid=e2b7593a-dbbc-4a30-b5c1-ee286ff2c1a1"},"vehicle_type_id":"4","last_reported":1747076912,"current_range_meters":20000,"station_id":"ce4bhih2rcd13ifvqfr0","pricing_plan_id":"cebpf4jnsgd1na2vs0mg"},{"bike_id":"a7fee56e-e21c-47fb-94ba-30460d0381b3","system_id":"levelo_inurba_marseille","lat":43.31713,"lon":5.43711,"is_reserved":false,"is_disabled":false,"rental_uris":{"android":"levelo://app?vid=a7fee56e-e21c-47fb-94ba-30460d0381b3","ios":"levelo://app?vid=a7fee56e-e21c-47fb-94ba-30460d0381b3"},"vehicle_type_id":"4","last_reported":1747076912,"current_range_meters":20000,"station_id":"ce4bhp92rcd13ifvqhcg","pricing_plan_id":"cebpf4jnsgd1na2vs0mg"},{"bike_id":"ef6641d3-d44b-41d1-9ea6-9ba20d2d0d44","system_id":"levelo_inurba_marseille","lat":43.28568,"lon":5.39492,"is_reserved":false,"is_disabled":false,"rental_uris":{"android":"levelo://app?vid=ef6641d3-d44b-41d1-9ea6-9ba20d2d0d44","ios":"levelo://app?vid=ef6641d3-d44b-41d1-9ea6-9ba20d2d0d44"},"vehicle_type_id":"4","last_reported":1747076912,"current_range_meters":20400,"station_id":"ce4bh292rcd13ifvqdg0","pricing_plan_id":"cebpf4jnsgd1na2vs0mg"},{"bike_id":"dd9a6dc4-ea33-4ad1-a005-584b45b67fc6","system_id":"levelo_inurba_marseille","lat":43.28407,"lon":5.3753,"is_reserved":false,"is_disabled":false,"rental_uris":{"android":"levelo://app?vid=dd9a6dc4-ea33-4ad1-a005-584b45b67fc6","ios":"levelo://app?vid=dd9a6dc4-ea33-4ad1-a005-584b45b67fc6"},"vehicle_type_id":"4","last_reported":1747076912,"current_range_meters":20400,"station_id":"ce4bh412rcd13ifvqds0","pricing_plan_id":"cebpf4jnsgd1na2vs0mg"},{"bike_id":"4187b095-6b3b-4ad7-ab58-e419591834c9","system_id":"levelo_inurba_marseille","lat":43.27813,"lon":5.4073,"is_reserved":false,"is_disabled":false,"rental_uris":{"android":"levelo://app?vid=4187b095-6b3b-4ad7-ab58-e419591834c9","ios":"levelo://app?vid=4187b095-6b3b-4ad7-ab58-e419591834c9"},"vehicle_type_id":"4","last_reported":1747076912,"current_range_meters":20400,"station_id":"ce4bhnh2rcd13ifvqgtg","pricing_plan_id":"cebpf4jnsgd1na2vs0mg"},{"bike_id":"c1234833-9229-4e89-b9fe-8e9717a034dd","system_id":"levelo_inurba_marseille","lat":43.32405,"lon":5.38955,"is_reserved":false,"is_disabled":false,"rental_uris":{"android":"levelo://app?vid=c1234833-9229-4e89-b9fe-8e9717a034dd","ios":"levelo://app?vid=c1234833-9229-4e89-b9fe-8e9717a034dd"},"vehicle_type_id":"4","last_reported":1747076912,"current_range_meters":20800,"station_id":"","pricing_plan_id":"cebpf4jnsgd1na2vs0mg"},{"bike_id":"28125580-9ad7-4c24-b51d-6f5b8c284b11","system_id":"levelo_inurba_marseille","lat":43.30958,"lon":5.39026,"is_reserved":false,"is_disabled":false,"rental_uris":{"android":"levelo://app?vid=28125580-9ad7-4c24-b51d-6f5b8c284b11","ios":"levelo://app?vid=28125580-9ad7-4c24-b51d-6f5b8c284b11"},"vehicle_type_id":"4","last_reported":1747076912,"current_range_meters":20800,"station_id":"ce4bgup2rcd13ifvqco0","pricing_plan_id":"cebpf4jnsgd1na2vs0mg"},{"bike_id":"074545cc-39c8-4852-bc40-79cf812156a7","system_id":"levelo_inurba_marseille","lat":43.28153,"lon":5.42676,"is_reserved":false,"is_disabled":false,"rental_uris":{"android":"levelo://app?vid=074545cc-39c8-4852-bc40-79cf812156a7","ios":"levelo://app?vid=074545cc-39c8-4852-bc40-79cf812156a7"},"vehicle_type_id":"4","last_reported":1747076912,"current_range_meters":20800,"station_id":"ce4bhnh2rcd13ifvqgug","pricing_plan_id":"cebpf4jnsgd1na2vs0mg"},{"bike_id":"942af74c-4c59-43c4-ae88-9b86f4c6a98d","system_id":"levelo_inurba_marseille","lat":43.2861,"lon":5.37057,"is_reserved":false,"is_disabled":false,"rental_uris":{"android":"levelo://app?vid=942af74c-4c59-43c4-ae88-9b86f4c6a98d","ios":"levelo://app?vid=942af74c-4c59-43c4-ae88-9b86f4c6a98d"},"vehicle_type_id":"4","last_reported":1747076912,"current_range_meters":20800,"station_id":"ce4bht12rcd13ifvqi60","pricing_plan_id":"cebpf4jnsgd1na2vs0mg"},{"bike_id":"0c893fb7-8626-4706-85bf-f404b871dea5","system_id":"levelo_inurba_marseille","lat":43.28091,"lon":5.44611,"is_reserved":false,"is_disabled":false,"rental_uris":{"android":"levelo://app?vid=0c893fb7-8626-4706-85bf-f404b871dea5","ios":"levelo://app?vid=0c893fb7-8626-4706-85bf-f404b871dea5"},"vehicle_type_id":"4","last_reported":1747076912,"current_range_meters":21600,"station_id":"","pricing_plan_id":"cebpf4jnsgd1na2vs0mg"},{"bike_id":"f78c7277-5a2d-4d73-b79d-de53660175c4","system_id":"levelo_inurba_marseille","lat":43.2809,"lon":5.37885,"is_reserved":false,"is_disabled":false,"rental_uris":{"android":"levelo://app?vid=f78c7277-5a2d-4d73-b79d-de53660175c4","ios":"levelo://app?vid=f78c7277-5a2d-4d73-b79d-de53660175c4"},"vehicle_type_id":"4","last_reported":1747076912,"current_range_meters":21600,"station_id":"ce4bha12rcd13ifvqee0","pricing_plan_id":"cebpf4jnsgd1na2vs0mg"},{"bike_id":"1095b252-790e-4155-ab4e-86136a24d6fc","system_id":"levelo_inurba_marseille","lat":43.284682,"lon":5.358891,"is_reserved":false,"is_disabled":false,"rental_uris":{"android":"levelo://app?vid=1095b252-790e-4155-ab4e-86136a24d6fc","ios":"levelo://app?vid=1095b252-790e-4155-ab4e-86136a24d6fc"},"vehicle_type_id":"4","last_reported":1747076912,"current_range_meters":21600,"station_id":"ce4bhah2rcd13ifvqei0","pricing_plan_id":"cebpf4jnsgd1na2vs0mg"},{"bike_id":"dc641743-b968-4496-812a-3b41120ce533","system_id":"levelo_inurba_marseille","lat":43.28419,"lon":5.34989,"is_reserved":false,"is_disabled":false,"rental_uris":{"android":"levelo://app?vid=dc641743-b968-4496-812a-3b41120ce533","ios":"levelo://app?vid=dc641743-b968-4496-812a-3b41120ce533"},"vehicle_type_id":"4","last_reported":1747076912,"current_range_meters":21600,"station_id":"ce4bhbh2rcd13ifvqepg","pricing_plan_id":"cebpf4jnsgd1na2vs0mg"},{"bike_id":"e83dcaca-181c-4b02-bf44-8d4da8809b5b","system_id":"levelo_inurba_marseille","lat":43.3171,"lon":5.43697,"is_reserved":false,"is_disabled":false,"rental_uris":{"android":"levelo://app?vid=e83dcaca-181c-4b02-bf44-8d4da8809b5b","ios":"levelo://app?vid=e83dcaca-181c-4b02-bf44-8d4da8809b5b"},"vehicle_type_id":"4","last_reported":1747076912,"current_range_meters":21600,"station_id":"ce4bhp92rcd13ifvqhcg","pricing_plan_id":"cebpf4jnsgd1na2vs0mg"},{"bike_id":"07103651-c08a-4986-b4f3-fd564a074e94","system_id":"levelo_inurba_marseille","lat":43.31483,"lon":5.37314,"is_reserved":false,"is_disabled":false,"rental_uris":{"android":"levelo://app?vid=07103651-c08a-4986-b4f3-fd564a074e94","ios":"levelo://app?vid=07103651-c08a-4986-b4f3-fd564a074e94"},"vehicle_type_id":"4","last_reported":1747076912,"current_range_meters":22000,"station_id":"ce4bgt12rcd13ifvqcd0","pricing_plan_id":"cebpf4jnsgd1na2vs0mg"},{"bike_id":"79a159ab-e07d-4aaa-a58e-b008b50fb3e3","system_id":"levelo_inurba_marseille","lat":43.283545,"lon":5.381078,"is_reserved":false,"is_disabled":false,"rental_uris":{"android":"levelo://app?vid=79a159ab-e07d-4aaa-a58e-b008b50fb3e3","ios":"levelo://app?vid=79a159ab-e07d-4aaa-a58e-b008b50fb3e3"},"vehicle_type_id":"4","last_reported":1747076912,"current_range_meters":22000,"station_id":"ce4bh412rcd13ifvqdr0","pricing_plan_id":"cebpf4jnsgd1na2vs0mg"},{"bike_id":"37660893-fecf-494b-83d6-35dc24a6a89b","system_id":"levelo_inurba_marseille","lat":43.28403,"lon":5.37526,"is_reserved":false,"is_disabled":false,"rental_uris":{"android":"levelo://app?vid=37660893-fecf-494b-83d6-35dc24a6a89b","ios":"levelo://app?vid=37660893-fecf-494b-83d6-35dc24a6a89b"},"vehicle_type_id":"4","last_reported":1747076912,"current_range_meters":22000,"station_id":"ce4bh412rcd13ifvqds0","pricing_plan_id":"cebpf4jnsgd1na2vs0mg"},{"bike_id":"1b713fe4-903b-42a8-b5ef-4865676db8f7","system_id":"levelo_inurba_marseille","lat":43.2511,"lon":5.40326,"is_reserved":false,"is_disabled":false,"rental_uris":{"android":"levelo://app?vid=1b713fe4-903b-42a8-b5ef-4865676db8f7","ios":"levelo://app?vid=1b713fe4-903b-42a8-b5ef-4865676db8f7"},"vehicle_type_id":"4","last_reported":1747076912,"current_range_meters":22000,"station_id":"ce4bhlh2rcd13ifvqgig","pricing_plan_id":"cebpf4jnsgd1na2vs0mg"},{"bike_id":"47d1412a-baaa-4068-91c4-e734560a4da3","system_id":"levelo_inurba_marseille","lat":43.27998,"lon":5.4002,"is_reserved":false,"is_disabled":false,"rental_uris":{"android":"levelo://app?vid=47d1412a-baaa-4068-91c4-e734560a4da3","ios":"levelo://app?vid=47d1412a-baaa-4068-91c4-e734560a4da3"},"vehicle_type_id":"4","last_reported":1747076912,"current_range_meters":22000,"station_id":"ce4bho92rcd13ifvqh4g","pricing_plan_id":"cebpf4jnsgd1na2vs0mg"},{"bike_id":"93d5ba5b-537d-470b-86e3-c68da7235c76","system_id":"levelo_inurba_marseille","lat":43.29701,"lon":5.37708,"is_reserved":false,"is_disabled":false,"rental_uris":{"android":"levelo://app?vid=93d5ba5b-537d-470b-86e3-c68da7235c76","ios":"levelo://app?vid=93d5ba5b-537d-470b-86e3-c68da7235c76"},"vehicle_type_id":"4","last_reported":1747076912,"current_range_meters":22400,"station_id":"ce4bgkh2rcd13ifvqbl0","pricing_plan_id":"cebpf4jnsgd1na2vs0mg"},{"bike_id":"af7ace18-cddf-40d7-bcf2-cc300cf1bf84","system_id":"levelo_inurba_marseille","lat":43.302124,"lon":5.394709,"is_reserved":false,"is_disabled":false,"rental_uris":{"android":"levelo://app?vid=af7ace18-cddf-40d7-bcf2-cc300cf1bf84","ios":"levelo://app?vid=af7ace18-cddf-40d7-bcf2-cc300cf1bf84"},"vehicle_type_id":"4","last_reported":1747076912,"current_range_meters":22400,"station_id":"ce4bh0p2rcd13ifvqd70","pricing_plan_id":"cebpf4jnsgd1na2vs0mg"},{"bike_id":"1fffebca-efae-4fa2-9a7a-26f04c17fbec","system_id":"levelo_inurba_marseille","lat":43.29024,"lon":5.38649,"is_reserved":false,"is_disabled":false,"rental_uris":{"android":"levelo://app?vid=1fffebca-efae-4fa2-9a7a-26f04c17fbec","ios":"levelo://app?vid=1fffebca-efae-4fa2-9a7a-26f04c17fbec"},"vehicle_type_id":"4","last_reported":1747076912,"current_range_meters":22400,"station_id":"ce4bh4p2rcd13ifvqe0g","pricing_plan_id":"cebpf4jnsgd1na2vs0mg"},{"bike_id":"2435752c-cf15-4472-a445-eac43c7b16d9","system_id":"levelo_inurba_marseille","lat":43.28946,"lon":5.36413,"is_reserved":false,"is_disabled":false,"rental_uris":{"android":"levelo://app?vid=2435752c-cf15-4472-a445-eac43c7b16d9","ios":"levelo://app?vid=2435752c-cf15-4472-a445-eac43c7b16d9"},"vehicle_type_id":"4","last_reported":1747076912,"current_range_meters":22400,"station_id":"ce4bhc92rcd13ifvqetg","pricing_plan_id":"cebpf4jnsgd1na2vs0mg"},{"bike_id":"581a76c6-406f-436c-80cf-424046378536","system_id":"levelo_inurba_marseille","lat":43.23147,"lon":5.43717,"is_reserved":false,"is_disabled":false,"rental_uris":{"android":"levelo://app?vid=581a76c6-406f-436c-80cf-424046378536","ios":"levelo://app?vid=581a76c6-406f-436c-80cf-424046378536"},"vehicle_type_id":"4","last_reported":1747076912,"current_range_meters":22400,"station_id":"ce4bhmp2rcd13ifvqgog","pricing_plan_id":"cebpf4jnsgd1na2vs0mg"},{"bike_id":"487ddcd3-6977-49be-84cb-d1c89a49dd82","system_id":"levelo_inurba_marseille","lat":43.28074,"lon":5.39622,"is_reserved":false,"is_disabled":false,"rental_uris":{"android":"levelo://app?vid=487ddcd3-6977-49be-84cb-d1c89a49dd82","ios":"levelo://app?vid=487ddcd3-6977-49be-84cb-d1c89a49dd82"},"vehicle_type_id":"4","last_reported":1747076912,"current_range_meters":22400,"station_id":"ce4bho12rcd13ifvqh2g","pricing_plan_id":"cebpf4jnsgd1na2vs0mg"},{"bike_id":"d36e3d25-6cf8-44a0-a137-c5db9cb1a515","system_id":"levelo_inurba_marseille","lat":43.31504,"lon":5.37278,"is_reserved":false,"is_disabled":false,"rental_uris":{"android":"levelo://app?vid=d36e3d25-6cf8-44a0-a137-c5db9cb1a515","ios":"levelo://app?vid=d36e3d25-6cf8-44a0-a137-c5db9cb1a515"},"vehicle_type_id":"4","last_reported":1747076912,"current_range_meters":22800,"station_id":"ce4bgt12rcd13ifvqcd0","pricing_plan_id":"cebpf4jnsgd1na2vs0mg"},{"bike_id":"cf315c2e-6261-4001-b20f-7819b9a8618c","system_id":"levelo_inurba_marseille","lat":43.31116,"lon":5.37772,"is_reserved":false,"is_disabled":false,"rental_uris":{"android":"levelo://app?vid=cf315c2e-6261-4001-b20f-7819b9a8618c","ios":"levelo://app?vid=cf315c2e-6261-4001-b20f-7819b9a8618c"},"vehicle_type_id":"4","last_reported":1747076912,"current_range_meters":22800,"station_id":"ce4bgt92rcd13ifvqcg0","pricing_plan_id":"cebpf4jnsgd1na2vs0mg"},{"bike_id":"669f4ed1-2194-4780-9a89-0fb01d208739","system_id":"levelo_inurba_marseille","lat":43.29275,"lon":5.36846,"is_reserved":false,"is_disabled":false,"rental_uris":{"android":"levelo://app?vid=669f4ed1-2194-4780-9a89-0fb01d208739","ios":"levelo://app?vid=669f4ed1-2194-4780-9a89-0fb01d208739"},"vehicle_type_id":"4","last_reported":1747076912,"current_range_meters":22800,"station_id":"ce4bhbp2rcd13ifvqesg","pricing_plan_id":"cebpf4jnsgd1na2vs0mg"},{"bike_id":"89bc804b-6a4f-4be5-a519-203cf29233b2","system_id":"levelo_inurba_marseille","lat":43.28119,"lon":5.42656,"is_reserved":false,"is_disabled":false,"rental_uris":{"android":"levelo://app?vid=89bc804b-6a4f-4be5-a519-203cf29233b2","ios":"levelo://app?vid=89bc804b-6a4f-4be5-a519-203cf29233b2"},"vehicle_type_id":"4","last_reported":1747076912,"current_range_meters":22800,"station_id":"ce4bhnh2rcd13ifvqgug","pricing_plan_id":"cebpf4jnsgd1na2vs0mg"},{"bike_id":"f3f30ef5-78ef-4805-8fb2-cbd995947f93","system_id":"levelo_inurba_marseille","lat":43.281482,"lon":5.426483,"is_reserved":false,"is_disabled":false,"rental_uris":{"android":"levelo://app?vid=f3f30ef5-78ef-4805-8fb2-cbd995947f93","ios":"levelo://app?vid=f3f30ef5-78ef-4805-8fb2-cbd995947f93"},"vehicle_type_id":"4","last_reported":1747076912,"current_range_meters":22800,"station_id":"ce4bhnh2rcd13ifvqgug","pricing_plan_id":"cebpf4jnsgd1na2vs0mg"},{"bike_id":"03faf9e3-0034-4d42-b4b7-ccae00546eb6","system_id":"levelo_inurba_marseille","lat":43.28,"lon":5.40012,"is_reserved":false,"is_disabled":false,"rental_uris":{"android":"levelo://app?vid=03faf9e3-0034-4d42-b4b7-ccae00546eb6","ios":"levelo://app?vid=03faf9e3-0034-4d42-b4b7-ccae00546eb6"},"vehicle_type_id":"4","last_reported":1747076912,"current_range_meters":22800,"station_id":"ce4bho92rcd13ifvqh4g","pricing_plan_id":"cebpf4jnsgd1na2vs0mg"},{"bike_id":"ad238f57-3727-4130-97ec-56b2903f59f4","system_id":"levelo_inurba_marseille","lat":43.292784,"lon":5.406904,"is_reserved":false,"is_disabled":false,"rental_uris":{"android":"levelo://app?vid=ad238f57-3727-4130-97ec-56b2903f59f4","ios":"levelo://app?vid=ad238f57-3727-4130-97ec-56b2903f59f4"},"vehicle_type_id":"4","last_reported":1747076912,"current_range_meters":23200,"station_id":"","pricing_plan_id":"cebpf4jnsgd1na2vs0mg"},{"bike_id":"9653765f-8e7e-4f2c-a3a7-79ac58a3100b","system_id":"levelo_inurba_marseille","lat":43.30422,"lon":5.39759,"is_reserved":false,"is_disabled":false,"rental_uris":{"android":"levelo://app?vid=9653765f-8e7e-4f2c-a3a7-79ac58a3100b","ios":"levelo://app?vid=9653765f-8e7e-4f2c-a3a7-79ac58a3100b"},"vehicle_type_id":"4","last_reported":1747076912,"current_range_meters":23200,"station_id":"ce4bh092rcd13ifvqd20","pricing_plan_id":"cebpf4jnsgd1na2vs0mg"},{"bike_id":"69fda361-10ad-4686-881e-4323bab87938","system_id":"levelo_inurba_marseille","lat":43.28953,"lon":5.3641,"is_reserved":false,"is_disabled":false,"rental_uris":{"android":"levelo://app?vid=69fda361-10ad-4686-881e-4323bab87938","ios":"levelo://app?vid=69fda361-10ad-4686-881e-4323bab87938"},"vehicle_type_id":"4","last_reported":1747076912,"current_range_meters":23200,"station_id":"ce4bhc92rcd13ifvqetg","pricing_plan_id":"cebpf4jnsgd1na2vs0mg"},{"bike_id":"0d19f400-7a92-49b0-8bde-33c71d956a65","system_id":"levelo_inurba_marseille","lat":43.28617,"lon":5.35107,"is_reserved":false,"is_disabled":false,"rental_uris":{"android":"levelo://app?vid=0d19f400-7a92-49b0-8bde-33c71d956a65","ios":"levelo://app?vid=0d19f400-7a92-49b0-8bde-33c71d956a65"},"vehicle_type_id":"4","last_reported":1747076912,"current_range_meters":23200,"station_id":"ce4bhch2rcd13ifvqeug","pricing_plan_id":"cebpf4jnsgd1na2vs0mg"},{"bike_id":"56e8dc81-cf58-408a-b28c-46ed141a2f2d","system_id":"levelo_inurba_marseille","lat":43.28154,"lon":5.42644,"is_reserved":false,"is_disabled":false,"rental_uris":{"android":"levelo://app?vid=56e8dc81-cf58-408a-b28c-46ed141a2f2d","ios":"levelo://app?vid=56e8dc81-cf58-408a-b28c-46ed141a2f2d"},"vehicle_type_id":"4","last_reported":1747076912,"current_range_meters":23200,"station_id":"ce4bhnh2rcd13ifvqgug","pricing_plan_id":"cebpf4jnsgd1na2vs0mg"},{"bike_id":"84951397-69e9-4cc4-a9b3-8bac0d4c150d","system_id":"levelo_inurba_marseille","lat":43.30382,"lon":5.42475,"is_reserved":false,"is_disabled":false,"rental_uris":{"android":"levelo://app?vid=84951397-69e9-4cc4-a9b3-8bac0d4c150d","ios":"levelo://app?vid=84951397-69e9-4cc4-a9b3-8bac0d4c150d"},"vehicle_type_id":"4","last_reported":1747076912,"current_range_meters":23200,"station_id":"ce4bhoh2rcd13ifvqh6g","pricing_plan_id":"cebpf4jnsgd1na2vs0mg"},{"bike_id":"64824209-6cba-4c12-875a-1502c403c27a","system_id":"levelo_inurba_marseille","lat":43.21193,"lon":5.35073,"is_reserved":false,"is_disabled":false,"rental_uris":{"android":"levelo://app?vid=64824209-6cba-4c12-875a-1502c403c27a","ios":"levelo://app?vid=64824209-6cba-4c12-875a-1502c403c27a"},"vehicle_type_id":"4","last_reported":1747076912,"current_range_meters":23200,"station_id":"st_cvj6sg6p6f1abm77japg","pricing_plan_id":"cebpf4jnsgd1na2vs0mg"},{"bike_id":"ed917814-b160-4608-b158-e7a0d25efd8d","system_id":"levelo_inurba_marseille","lat":43.2953,"lon":5.38541,"is_reserved":false,"is_disabled":false,"rental_uris":{"android":"levelo://app?vid=ed917814-b160-4608-b158-e7a0d25efd8d","ios":"levelo://app?vid=ed917814-b160-4608-b158-e7a0d25efd8d"},"vehicle_type_id":"4","last_reported":1747076912,"current_range_meters":24000,"station_id":"ce4bgih2rcd13ifvqba0","pricing_plan_id":"cebpf4jnsgd1na2vs0mg"},{"bike_id":"c4024545-4d5e-4d60-8ee4-bd11be11bc03","system_id":"levelo_inurba_marseille","lat":43.30304,"lon":5.36889,"is_reserved":false,"is_disabled":false,"rental_uris":{"android":"levelo://app?vid=c4024545-4d5e-4d60-8ee4-bd11be11bc03","ios":"levelo://app?vid=c4024545-4d5e-4d60-8ee4-bd11be11bc03"},"vehicle_type_id":"4","last_reported":1747076912,"current_range_meters":24000,"station_id":"ce4bgqh2rcd13ifvqc5g","pricing_plan_id":"cebpf4jnsgd1na2vs0mg"},{"bike_id":"c2c6fd1a-c7a2-47a7-a252-e04a59bcc73e","system_id":"levelo_inurba_marseille","lat":43.30939,"lon":5.40154,"is_reserved":false,"is_disabled":false,"rental_uris":{"android":"levelo://app?vid=c2c6fd1a-c7a2-47a7-a252-e04a59bcc73e","ios":"levelo://app?vid=c2c6fd1a-c7a2-47a7-a252-e04a59bcc73e"},"vehicle_type_id":"4","last_reported":1747076912,"current_range_meters":24000,"station_id":"ce4bgvp2rcd13ifvqct0","pricing_plan_id":"cebpf4jnsgd1na2vs0mg"},{"bike_id":"bfd21c38-9029-42f0-bd14-0df34b4c5fe2","system_id":"levelo_inurba_marseille","lat":43.30139,"lon":5.39842,"is_reserved":false,"is_disabled":false,"rental_uris":{"android":"levelo://app?vid=bfd21c38-9029-42f0-bd14-0df34b4c5fe2","ios":"levelo://app?vid=bfd21c38-9029-42f0-bd14-0df34b4c5fe2"},"vehicle_type_id":"4","last_reported":1747076912,"current_range_meters":24000,"station_id":"ce4bh0h2rcd13ifvqd40","pricing_plan_id":"cebpf4jnsgd1na2vs0mg"},{"bike_id":"ffa0f388-2f82-41f1-b14c-011ed59582fb","system_id":"levelo_inurba_marseille","lat":43.28846,"lon":5.35859,"is_reserved":false,"is_disabled":false,"rental_uris":{"android":"levelo://app?vid=ffa0f388-2f82-41f1-b14c-011ed59582fb","ios":"levelo://app?vid=ffa0f388-2f82-41f1-b14c-011ed59582fb"},"vehicle_type_id":"4","last_reported":1747076912,"current_range_meters":24000,"station_id":"ce4bhb12rcd13ifvqem0","pricing_plan_id":"cebpf4jnsgd1na2vs0mg"},{"bike_id":"a6613d3f-10bf-4275-a3fe-2d2c08b0abd0","system_id":"levelo_inurba_marseille","lat":43.246534,"lon":5.388993,"is_reserved":false,"is_disabled":false,"rental_uris":{"android":"levelo://app?vid=a6613d3f-10bf-4275-a3fe-2d2c08b0abd0","ios":"levelo://app?vid=a6613d3f-10bf-4275-a3fe-2d2c08b0abd0"},"vehicle_type_id":"4","last_reported":1747076912,"current_range_meters":24000,"station_id":"ce4bhg12rcd13ifvqf60","pricing_plan_id":"cebpf4jnsgd1na2vs0mg"},