{"last_updated":1738926444,"ttl":60,"version":"2.2","data":{"bikes":[{"bike_id":"2121da5c-22de-4ed2-81d2-cad5c0a5a4aa","system_id":"levelo_inurba_marseille","lat":43.29094,"lon":5.38131,"is_reserved":false,"is_disabled":false,"rental_uris":{"android":"levelo://app?vid=2121da5c-22de-4ed2-81d2-cad5c0a5a4aa","ios":"levelo://app?vid=2121da5c-22de-4ed2-81d2-cad5c0a5a4aa"},"vehicle_type_id":"4","last_reported":1738926445,"current_range_meters":38800,"station_id":"ce4bh512rcd13ifvqe2g","pricing_plan_id":"cebpf4jnsgd1na2vs0mg"},{"bike_id":"1a0e67de-9597-4d47-8182-41732e9786f3","system_id":"levelo_inurba_marseille","lat":43.32472,"lon":5.3657,"is_reserved":false,"is_disabled":true,"rental_uris":{"android":"levelo://app?vid=1a0e67de-9597-4d47-8182-41732e9786f3","ios":"levelo://app?vid=1a0e67de-9597-4d47-8182-41732e9786f3"},"vehicle_type_id":"4","last_reported":1738926445,"current_range_meters":0,"station_id":"ce4bhs12rcd13ifvqhvg","pricing_plan_id":"cebpf4jnsgd1na2vs0mg"},{"bike_id":"e7fa4c94-bff4-4680-b6c0-06ddcf0d06ea","system_id":"levelo_inurba_marseille","lat":43.24998,"lon":5.38936,"is_reserved":false,"is_disabled":false,"rental_uris":{"android":"levelo://app?vid=e7fa4c94-bff4-4680-b6c0-06ddcf0d06ea","ios":"levelo://app?vid=e7fa4c94-bff4-4680-b6c0-06ddcf0d06ea"},"vehicle_type_id":"4","last_reported":1738926445,"current_range_meters":38800,"station_id":"ce4bhgp2rcd13ifvqfd0","pricing_plan_id":"cebpf4jnsgd1na2vs0mg"},{"bike_id":"888f8230-2dc0-49a1-bba7-2dd2d6fda504","system_id":"levelo_inurba_marseille","lat":43.29632,"lon":5.40595,"is_reserved":false,"is_disabled":false,"rental_uris":{"android":"levelo://app?vid=888f8230-2dc0-49a1-bba7-2dd2d6fda504","ios":"levelo://app?vid=888f8230-2dc0-49a1-bba7-2dd2d6fda504"},"vehicle_type_id":"4","last_reported":1738926445,"current_range_meters":38400,"station_id":"ce4bh0h2rcd13ifvqd60","pricing_plan_id":"cebpf4jnsgd1na2vs0mg"},{"bike_id":"dc0d8996-ffcf-4544-98ed-43b2e4ccf0cd","system_id":"levelo_inurba_marseille","lat":43.32575,"lon":5.41441,"is_reserved":false,"is_disabled":false,"rental_uris":{"android":"levelo://app?vid=dc0d8996-ffcf-4544-98ed-43b2e4ccf0cd","ios":"levelo://app?vid=dc0d8996-ffcf-4544-98ed-43b2e4ccf0cd"},"vehicle_type_id":"4","last_reported":1738926445,"current_range_meters":38800,"station_id":"ce4bhq12rcd13ifvqhhg","pricing_plan_id":"cebpf4jnsgd1na2vs0mg"},{"bike_id":"b1e8e490-6de6-4c84-af8d-7e134ba8efdd","system_id":"levelo_inurba_marseille","lat":43.31701,"lon":5.43695,"is_reserved":false,"is_disabled":false,"rental_uris":{"android":"levelo://app?vid=b1e8e490-6de6-4c84-af8d-7e134ba8efdd","ios":"levelo://app?vid=b1e8e490-6de6-4c84-af8d-7e134ba8efdd"},"vehicle_type_id":"4","last_reported":1738926445,"current_range_meters":35600,"station_id":"ce4bhp92rcd13ifvqhcg","pricing_plan_id":"cebpf4jnsgd1na2vs0mg"},{"bike_id":"0b370460-2bdc-4346-a1f4-7aeb9dd2a707","system_id":"levelo_inurba_marseille","lat":43.28632,"lon":5.39138,"is_reserved":false,"is_disabled":true,"rental_uris":{"android":"levelo://app?vid=0b370460-2bdc-4346-a1f4-7aeb9dd2a707","ios":"levelo://app?vid=0b370460-2bdc-4346-a1f4-7aeb9dd2a707"},"vehicle_type_id":"4","last_reported":1738926445,"current_range_meters":15200,"station_id":"","pricing_plan_id":"cebpf4jnsgd1na2vs0mg"},{"bike_id":"9d31fb59-26e0-4e13-8364-dc44fa582ce7","system_id":"levelo_inurba_marseille","lat":43.28009,"lon":5.3692,"is_reserved":false,"is_disabled":false,"rental_uris":{"android":"levelo://app?vid=9d31fb59-26e0-4e13-8364-dc44fa582ce7","ios":"levelo://app?vid=9d31fb59-26e0-4e13-8364-dc44fa582ce7"},"vehicle_type_id":"4","last_reported":1738926445,"current_range_meters":38800,"station_id":"ce4bha12rcd13ifvqef0","pricing_plan_id":"cebpf4jnsgd1na2vs0mg"},{"bike_id":"c9cdb5e2-6331-40ad-bf40-96563397df39","system_id":"levelo_inurba_marseille","lat":43.29091,"lon":5.381441,"is_reserved":false,"is_disabled":false,"rental_uris":{"android":"levelo://app?vid=c9cdb5e2-6331-40ad-bf40-96563397df39","ios":"levelo://app?vid=c9cdb5e2-6331-40ad-bf40-96563397df39"},"vehicle_type_id":"4","last_reported":1738926445,"current_range_meters":38400,"station_id":"ce4bh512rcd13ifvqe2g","pricing_plan_id":"cebpf4jnsgd1na2vs0mg"},{"bike_id":"e0c5e844-cf3d-4c0a-a0f4-f0ded2743cff","system_id":"levelo_inurba_marseille","lat":43.2905,"lon":5.39964,"is_reserved":false,"is_disabled":false,"rental_uris":{"android":"levelo://app?vid=e0c5e844-cf3d-4c0a-a0f4-f0ded2743cff","ios":"levelo://app?vid=e0c5e844-cf3d-4c0a-a0f4-f0ded2743cff"},"vehicle_type_id":"4","last_reported":1738926445,"current_range_meters":38000,"station_id":"ce4bh392rcd13ifvqdm0","pricing_plan_id":"cebpf4jnsgd1na2vs0mg"},{"bike_id":"cdd38823-51c7-44f0-b54f-a9c4558b6ae9","system_id":"levelo_inurba_marseille","lat":43.24066,"lon":5.37754,"is_reserved":false,"is_disabled":false,"rental_uris":{"android":"levelo://app?vid=cdd38823-51c7-44f0-b54f-a9c4558b6ae9","ios":"levelo://app?vid=cdd38823-51c7-44f0-b54f-a9c4558b6ae9"},"vehicle_type_id":"4","last_reported":1738926445,"current_range_meters":36800,"station_id":"ce4bhnp2rcd13ifvqgvg","pricing_plan_id":"cebpf4jnsgd1na2vs0mg"},{"bike_id":"0f0967b4-1d54-4b6c-9905-1046537ac41b","system_id":"levelo_inurba_marseille","lat":43.30164,"lon":5.38087,"is_reserved":false,"is_disabled":false,"rental_uris":{"android":"levelo://app?vid=0f0967b4-1d54-4b6c-9905-1046537ac41b","ios":"levelo://app?vid=0f0967b4-1d54-4b6c-9905-1046537ac41b"},"vehicle_type_id":"4","last_reported":1738926445,"current_range_meters":34000,"station_id":"ce4bgjp2rcd13ifvqbh0","pricing_plan_id":"cebpf4jnsgd1na2vs0mg"},{"bike_id":"0a84bc02-c535-4ad2-bd8f-bafd16ec85e8","system_id":"levelo_inurba_marseille","lat":43.2594,"lon":5.40891,"is_reserved":false,"is_disabled":false,"rental_uris":{"android":"levelo://app?vid=0a84bc02-c535-4ad2-bd8f-bafd16ec85e8","ios":"levelo://app?vid=0a84bc02-c535-4ad2-bd8f-bafd16ec85e8"},"vehicle_type_id":"4","last_reported":1738926445,"current_range_meters":32800,"station_id":"ce4bhm92rcd13ifvqglg","pricing_plan_id":"cebpf4jnsgd1na2vs0mg"},{"bike_id":"0e3e205c-def0-409b-93d1-6bd9975a7ce8","system_id":"levelo_inurba_marseille","lat":43.33763,"lon":5.37438,"is_reserved":false,"is_disabled":false,"rental_uris":{"android":"levelo://app?vid=0e3e205c-def0-409b-93d1-6bd9975a7ce8","ios":"levelo://app?vid=0e3e205c-def0-409b-93d1-6bd9975a7ce8"},"vehicle_type_id":"4","last_reported":1738926445,"current_range_meters":6800,"station_id":"","pricing_plan_id":"cebpf4jnsgd1na2vs0mg"},{"bike_id":"69b72854-c8e6-4ffa-9a95-7c81ba8074a7","system_id":"levelo_inurba_marseille","lat":43.24548,"lon":5.39538,"is_reserved":false,"is_disabled":false,"rental_uris":{"android":"levelo://app?vid=69b72854-c8e6-4ffa-9a95-7c81ba8074a7","ios":"levelo://app?vid=69b72854-c8e6-4ffa-9a95-7c81ba8074a7"},"vehicle_type_id":"4","last_reported":1738926445,"current_range_meters":19600,"station_id":"ce4bhlp2rcd13ifvqgjg","pricing_plan_id":"cebpf4jnsgd1na2vs0mg"},{"bike_id":"906585c6-abbf-42f9-8438-69e4a2ec269b","system_id":"levelo_inurba_marseille","lat":43.29263,"lon":5.38448,"is_reserved":false,"is_disabled":false,"rental_uris":{"android":"levelo://app?vid=906585c6-abbf-42f9-8438-69e4a2ec269b","ios":"levelo://app?vid=906585c6-abbf-42f9-8438-69e4a2ec269b"},"vehicle_type_id":"4","last_reported":1738926445,"current_range_meters":38000,"station_id":"ce4bh692rcd13ifvqea0","pricing_plan_id":"cebpf4jnsgd1na2vs0mg"},{"bike_id":"7e001a59-f792-4a53-98ee-7627b89ec917","system_id":"levelo_inurba_marseille","lat":43.30538,"lon":5.3671,"is_reserved":false,"is_disabled":false,"rental_uris":{"android":"levelo://app?vid=7e001a59-f792-4a53-98ee-7627b89ec917","ios":"levelo://app?vid=7e001a59-f792-4a53-98ee-7627b89ec917"},"vehicle_type_id":"4","last_reported":1738926445,"current_range_meters":30000,"station_id":"ce4bgrp2rcd13ifvqc9g","pricing_plan_id":"cebpf4jnsgd1na2vs0mg"},{"bike_id":"f1db5486-5535-43f9-871f-a7948532b780","system_id":"levelo_inurba_marseille","lat":43.30159,"lon":5.38097,"is_reserved":false,"is_disabled":false,"rental_uris":{"android":"levelo://app?vid=f1db5486-5535-43f9-871f-a7948532b780","ios":"levelo://app?vid=f1db5486-5535-43f9-871f-a7948532b780"},"vehicle_type_id":"4","last_reported":1738926445,"current_range_meters":28000,"station_id":"ce4bgjp2rcd13ifvqbh0","pricing_plan_id":"cebpf4jnsgd1na2vs0mg"},{"bike_id":"6bd15c5e-d6b2-43ab-8fc9-854cbe9e9385","system_id":"levelo_inurba_marseille","lat":43.26055,"lon":5.39402,"is_reserved":false,"is_disabled":false,"rental_uris":{"android":"levelo://app?vid=6bd15c5e-d6b2-43ab-8fc9-854cbe9e9385","ios":"levelo://app?vid=6bd15c5e-d6b2-43ab-8fc9-854cbe9e9385"},"vehicle_type_id":"4","last_reported":1738926445,"current_range_meters":38800,"station_id":"ce4bhh92rcd13ifvqfj0","pricing_plan_id":"cebpf4jnsgd1na2vs0mg"},{"bike_id":"5f2172a2-f883-4786-872c-dc0a5649ef78","system_id":"levelo_inurba_marseille","lat":43.258671,"lon":5.398984,"is_reserved":false,"is_disabled":false,"rental_uris":{"android":"levelo://app?vid=5f2172a2-f883-4786-872c-dc0a5649ef78","ios":"levelo://app?vid=5f2172a2-f883-4786-872c-dc0a5649ef78"},"vehicle_type_id":"4","last_reported":1738926445,"current_range_meters":22800,"station_id":"ce4bhl92rcd13ifvqghg","pricing_plan_id":"cebpf4jnsgd1na2vs0mg"},{"bike_id":"3528aa62-06b4-44de-92de-1aa1318d56b7","system_id":"levelo_inurba_marseille","lat":43.262093,"lon":5.374403,"is_reserved":false,"is_disabled":false,"rental_uris":{"android":"levelo://app?vid=3528aa62-06b4-44de-92de-1aa1318d56b7","ios":"levelo://app?vid=3528aa62-06b4-44de-92de-1aa1318d56b7"},"vehicle_type_id":"4","last_reported":1738926445,"current_range_meters":36400,"station_id":"ce4bhgp2rcd13ifvqfc0","pricing_plan_id":"cebpf4jnsgd1na2vs0mg"},{"bike_id":"aa874f21-4899-4c94-ac56-d6c355723cbb","system_id":"levelo_inurba_marseille","lat":43.23195,"lon":5.40024,"is_reserved":false,"is_disabled":false,"rental_uris":{"android":"levelo://app?vid=aa874f21-4899-4c94-ac56-d6c355723cbb","ios":"levelo://app?vid=aa874f21-4899-4c94-ac56-d6c355723cbb"},"vehicle_type_id":"4","last_reported":1738926445,"current_range_meters":33600,"station_id":"ce4bhn12rcd13ifvqgqg","pricing_plan_id":"cebpf4jnsgd1na2vs0mg"},{"bike_id":"ff76c6e9-316d-475d-9f19-7e3b447f3b23","system_id":"levelo_inurba_marseille","lat":43.30265,"lon":5.36907,"is_reserved":false,"is_disabled":false,"rental_uris":{"android":"levelo://app?vid=ff76c6e9-316d-475d-9f19-7e3b447f3b23","ios":"levelo://app?vid=ff76c6e9-316d-475d-9f19-7e3b447f3b23"},"vehicle_type_id":"4","last_reported":1738926445,"current_range_meters":24800,"station_id":"ce4bgqh2rcd13ifvqc5g","pricing_plan_id":"cebpf4jnsgd1na2vs0mg"},{"bike_id":"79a50c87-77f6-4170-bc3e-48fd603b4b62","system_id":"levelo_inurba_marseille","lat":43.2668,"lon":5.38277,"is_reserved":false,"is_disabled":false,"rental_uris":{"android":"levelo://app?vid=79a50c87-77f6-4170-bc3e-48fd603b4b62","ios":"levelo://app?vid=79a50c87-77f6-4170-bc3e-48fd603b4b62"},"vehicle_type_id":"4","last_reported":1738926445,"current_range_meters":38800,"station_id":"ce4bhg92rcd13ifvqf90","pricing_plan_id":"cebpf4jnsgd1na2vs0mg"},{"bike_id":"08f30387-f7f9-47f8-9d0a-b4db93a8689d","system_id":"levelo_inurba_marseille","lat":43.29779,"lon":5.37085,"is_reserved":false,"is_disabled":false,"rental_uris":{"android":"levelo://app?vid=08f30387-f7f9-47f8-9d0a-b4db93a8689d","ios":"levelo://app?vid=08f30387-f7f9-47f8-9d0a-b4db93a8689d"},"vehicle_type_id":"4","last_reported":1738926445,"current_range_meters":28800,"station_id":"ce4bgop2rcd13ifvqc1g","pricing_plan_id":"cebpf4jnsgd1na2vs0mg"},{"bike_id":"422d1ae9-3f23-4c23-952d-112dc4aaa449","system_id":"levelo_inurba_marseille","lat":43.28428,"lon":5.38525,"is_reserved":false,"is_disabled":false,"rental_uris":{"android":"levelo://app?vid=422d1ae9-3f23-4c23-952d-112dc4aaa449","ios":"levelo://app?vid=422d1ae9-3f23-4c23-952d-112dc4aaa449"},"vehicle_type_id":"4","last_reported":1738926445,"current_range_meters":9200,"station_id":"","pricing_plan_id":"cebpf4jnsgd1na2vs0mg"},{"bike_id":"73040312-c166-43ba-a41a-fb3b6a2beca6","system_id":"levelo_inurba_marseille","lat":43.26163,"lon":5.37448,"is_reserved":false,"is_disabled":false,"rental_uris":{"android":"levelo://app?vid=73040312-c166-43ba-a41a-fb3b6a2beca6","ios":"levelo://app?vid=73040312-c166-43ba-a41a-fb3b6a2beca6"},"vehicle_type_id":"4","last_reported":1738926445,"current_range_meters":28800,"station_id":"ce4bhgp2rcd13ifvqfc0","pricing_plan_id":"cebpf4jnsgd1na2vs0mg"},{"bike_id":"c492b7e5-8fba-46e7-a4ee-f2c680b3ace4","system_id":"levelo_inurba_marseille","lat":43.30945,"lon":5.39029,"is_reserved":false,"is_disabled":false,"rental_uris":{"android":"levelo://app?vid=c492b7e5-8fba-46e7-a4ee-f2c680b3ace4","ios":"levelo://app?vid=c492b7e5-8fba-46e7-a4ee-f2c680b3ace4"},"vehicle_type_id":"4","last_reported":1738926445,"current_range_meters":34000,"station_id":"ce4bgup2rcd13ifvqco0","pricing_plan_id":"cebpf4jnsgd1na2vs0mg"},{"bike_id":"69994b62-68f6-4020-9cf7-7b3b7c80a316","system_id":"levelo_inurba_marseille","lat":43.29653,"lon":5.37693,"is_reserved":false,"is_disabled":false,"rental_uris":{"android":"levelo://app?vid=69994b62-68f6-4020-9cf7-7b3b7c80a316","ios":"levelo://app?vid=69994b62-68f6-4020-9cf7-7b3b7c80a316"},"vehicle_type_id":"4","last_reported":1738926445,"current_range_meters":28800,"station_id":"ce4bgi92rcd13ifvqb90","pricing_plan_id":"cebpf4jnsgd1na2vs0mg"},{"bike_id":"098d220b-e449-43ea-8d6d-9fc78e0abad9","system_id":"levelo_inurba_marseille","lat":43.22927,"lon":5.3538,"is_reserved":false,"is_disabled":false,"rental_uris":{"android":"levelo://app?vid=098d220b-e449-43ea-8d6d-9fc78e0abad9","ios":"levelo://app?vid=098d220b-e449-43ea-8d6d-9fc78e0abad9"},"vehicle_type_id":"4","last_reported":1738926445,"current_range_meters":38800,"station_id":"cpo3532slgdg3j2ikp40","pricing_plan_id":"cebpf4jnsgd1na2vs0mg"},{"bike_id":"3de2a62f-ee8b-4633-8581-80f610f7d857","system_id":"levelo_inurba_marseille","lat":43.24558,"lon":5.39522,"is_reserved":false,"is_disabled":false,"rental_uris":{"android":"levelo://app?vid=3de2a62f-ee8b-4633-8581-80f610f7d857","ios":"levelo://app?vid=3de2a62f-ee8b-4633-8581-80f610f7d857"},"vehicle_type_id":"4","last_reported":1738926445,"current_range_meters":38400,"station_id":"ce4bhlp2rcd13ifvqgjg","pricing_plan_id":"cebpf4jnsgd1na2vs0mg"},{"bike_id":"c833eddb-9922-4231-8de9-3b5b20da4485","system_id":"levelo_inurba_marseille","lat":43.28974,"lon":5.37835,"is_reserved":false,"is_disabled":false,"rental_uris":{"android":"levelo://app?vid=c833eddb-9922-4231-8de9-3b5b20da4485","ios":"levelo://app?vid=c833eddb-9922-4231-8de9-3b5b20da4485"},"vehicle_type_id":"4","last_reported":1738926445,"current_range_meters":38800,"station_id":"ce4bh9p2rcd13ifvqed0","pricing_plan_id":"cebpf4jnsgd1na2vs0mg"},{"bike_id":"25265f47-6177-48e9-b4ee-d5d5e25bf867","system_id":"levelo_inurba_marseille","lat":43.257,"lon":5.41118,"is_reserved":false,"is_disabled":false,"rental_uris":{"android":"levelo://app?vid=25265f47-6177-48e9-b4ee-d5d5e25bf867","ios":"levelo://app?vid=25265f47-6177-48e9-b4ee-d5d5e25bf867"},"vehicle_type_id":"4","last_reported":1738926445,"current_range_meters":18800,"station_id":"ce4bhkp2rcd13ifvqgd0","pricing_plan_id":"cebpf4jnsgd1na2vs0mg"},{"bike_id":"8134c42b-15c7-43df-91b1-9cea8c89299b","system_id":"levelo_inurba_marseille","lat":43.25876,"lon":5.39916,"is_reserved":false,"is_disabled":false,"rental_uris":{"android":"levelo://app?vid=8134c42b-15c7-43df-91b1-9cea8c89299b","ios":"levelo://app?vid=8134c42b-15c7-43df-91b1-9cea8c89299b"},"vehicle_type_id":"4","last_reported":1738926445,"current_range_meters":29600,"station_id":"ce4bhl92rcd13ifvqghg","pricing_plan_id":"cebpf4jnsgd1na2vs0mg"},{"bike_id":"109d8d07-d605-45c4-912d-3e7b38f9a9ae","system_id":"levelo_inurba_marseille","lat":43.24165,"lon":5.3641,"is_reserved":false,"is_disabled":false,"rental_uris":{"android":"levelo://app?vid=109d8d07-d605-45c4-912d-3e7b38f9a9ae","ios":"levelo://app?vid=109d8d07-d605-45c4-912d-3e7b38f9a9ae"},"vehicle_type_id":"4","last_reported":1738926445,"current_range_meters":19200,"station_id":"cpo36qri1sfpv3e86is0","pricing_plan_id":"cebpf4jnsgd1na2vs0mg"},{"bike_id":"d08886d9-f3a8-4cd2-86a6-500122438ce3","system_id":"levelo_inurba_marseille","lat":43.29255,"lon":5.40916,"is_reserved":false,"is_disabled":false,"rental_uris":{"android":"levelo://app?vid=d08886d9-f3a8-4cd2-86a6-500122438ce3","ios":"levelo://app?vid=d08886d9-f3a8-4cd2-86a6-500122438ce3"},"vehicle_type_id":"4","last_reported":1738926445,"current_range_meters":20800,"station_id":"ce4bh192rcd13ifvqdc0","pricing_plan_id":"cebpf4jnsgd1na2vs0mg"},{"bike_id":"af40deb1-f640-4b70-95d2-0b44fe79a0b8","system_id":"levelo_inurba_marseille","lat":43.26932,"lon":5.40235,"is_reserved":false,"is_disabled":false,"rental_uris":{"android":"levelo://app?vid=af40deb1-f640-4b70-95d2-0b44fe79a0b8","ios":"levelo://app?vid=af40deb1-f640-4b70-95d2-0b44fe79a0b8"},"vehicle_type_id":"4","last_reported":1738926445,"current_range_meters":21600,"station_id":"cjm6bp8fraef2m0cb0m0","pricing_plan_id":"cebpf4jnsgd1na2vs0mg"},{"bike_id":"21b12264-f29d-4fca-845a-96ca913cc1a6","system_id":"levelo_inurba_marseille","lat":43.29584,"lon":5.36746,"is_reserved":false,"is_disabled":false,"rental_uris":{"android":"levelo://app?vid=21b12264-f29d-4fca-845a-96ca913cc1a6","ios":"levelo://app?vid=21b12264-f29d-4fca-845a-96ca913cc1a6"},"vehicle_type_id":"4","last_reported":1738926445,"current_range_meters":37600,"station_id":"ce4bgph2rcd13ifvqc2g","pricing_plan_id":"cebpf4jnsgd1na2vs0mg"},{"bike_id":"6850b23e-5e80-4fd6-856a-27e743c90765","system_id":"levelo_inurba_marseille","lat":43.29821,"lon":5.3628,"is_reserved":false,"is_disabled":false,"rental_uris":{"android":"levelo://app?vid=6850b23e-5e80-4fd6-856a-27e743c90765","ios":"levelo://app?vid=6850b23e-5e80-4fd6-856a-27e743c90765"},"vehicle_type_id":"4","last_reported":1738926445,"current_range_meters":37600,"station_id":"ce4bgpp2rcd13ifvqc3g","pricing_plan_id":"cebpf4jnsgd1na2vs0mg"},{"bike_id":"ab1cfb5c-3fff-4b4b-ab43-b2b3f1f7e9b9","system_id":"levelo_inurba_marseille","lat":43.30595,"lon":5.3936,"is_reserved":false,"is_disabled":false,"rental_uris":{"android":"levelo://app?vid=ab1cfb5c-3fff-4b4b-ab43-b2b3f1f7e9b9","ios":"levelo://app?vid=ab1cfb5c-3fff-4b4b-ab43-b2b3f1f7e9b9"},"vehicle_type_id":"4","last_reported":1738926445,"current_range_meters":16000,"station_id":"ce4bh0p2rcd13ifvqd80","pricing_plan_id":"cebpf4jnsgd1na2vs0mg"},{"bike_id":"3078e8ce-5d59-4082-8b1a-8d753b4f6935","system_id":"levelo_inurba_marseille","lat":43.23183,"lon":5.40017,"is_reserved":false,"is_disabled":false,"rental_uris":{"android":"levelo://app?vid=3078e8ce-5d59-4082-8b1a-8d753b4f6935","ios":"levelo://app?vid=3078e8ce-5d59-4082-8b1a-8d753b4f6935"},"vehicle_type_id":"4","last_reported":1738926445,"current_range_meters":39200,"station_id":"ce4bhn12rcd13ifvqgqg","pricing_plan_id":"cebpf4jnsgd1na2vs0mg"},{"bike_id":"d22588f6-fad1-499a-b286-a97cf6b7bb36","system_id":"levelo_inurba_marseille","lat":43.24662,"lon":5.38163,"is_reserved":false,"is_disabled":false,"rental_uris":{"android":"levelo://app?vid=d22588f6-fad1-499a-b286-a97cf6b7bb36","ios":"levelo://app?vid=d22588f6-fad1-499a-b286-a97cf6b7bb36"},"vehicle_type_id":"4","last_reported":1738926445,"current_range_meters":20800,"station_id":"ce4bhih2rcd13ifvqfr0","pricing_plan_id":"cebpf4jnsgd1na2vs0mg"},{"bike_id":"d63dd219-1986-4b43-9904-d72ec9015c63","system_id":"levelo_inurba_marseille","lat":43.29849,"lon":5.3627,"is_reserved":false,"is_disabled":false,"rental_uris":{"android":"levelo://app?vid=d63dd219-1986-4b43-9904-d72ec9015c63","ios":"levelo://app?vid=d63dd219-1986-4b43-9904-d72ec9015c63"},"vehicle_type_id":"4","last_reported":1738926445,"current_range_meters":11600,"station_id":"ce4bgpp2rcd13ifvqc3g","pricing_plan_id":"cebpf4jnsgd1na2vs0mg"},{"bike_id":"5e9bcc01-b6dd-42e4-a066-d7d915379c07","system_id":"levelo_inurba_marseille","lat":43.30298,"lon":5.36911,"is_reserved":false,"is_disabled":false,"rental_uris":{"android":"levelo://app?vid=5e9bcc01-b6dd-42e4-a066-d7d915379c07","ios":"levelo://app?vid=5e9bcc01-b6dd-42e4-a066-d7d915379c07"},"vehicle_type_id":"4","last_reported":1738926445,"current_range_meters":38800,"station_id":"ce4bgqh2rcd13ifvqc5g","pricing_plan_id":"cebpf4jnsgd1na2vs0mg"},{"bike_id":"d9ab6823-bbd8-43e6-9a6b-b0e016f7c723","system_id":"levelo_inurba_marseille","lat":43.25918,"lon":5.40913,"is_reserved":false,"is_disabled":false,"rental_uris":{"android":"levelo://app?vid=d9ab6823-bbd8-43e6-9a6b-b0e016f7c723","ios":"levelo://app?vid=d9ab6823-bbd8-43e6-9a6b-b0e016f7c723"},"vehicle_type_id":"4","last_reported":1738926445,"current_range_meters":38800,"station_id":"ce4bhm92rcd13ifvqglg","pricing_plan_id":"cebpf4jnsgd1na2vs0mg"},{"bike_id":"414dce80-81dd-412c-b11b-8cb40c6d5354","system_id":"levelo_inurba_marseille","lat":43.29008,"lon":5.35619,"is_reserved":false,"is_disabled":false,"rental_uris":{"android":"levelo://app?vid=414dce80-81dd-412c-b11b-8cb40c6d5354","ios":"levelo://app?vid=414dce80-81dd-412c-b11b-8cb40c6d5354"},"vehicle_type_id":"4","last_reported":1738926445,"current_range_meters":38000,"station_id":"ce4bhb92rcd13ifvqen0","pricing_plan_id":"cebpf4jnsgd1na2vs0mg"},{"bike_id":"bebe8c20-6319-4764-a5b8-3de216df4503","system_id":"levelo_inurba_marseille","lat":43.25121,"lon":5.40328,"is_reserved":false,"is_disabled":false,"rental_uris":{"android":"levelo://app?vid=bebe8c20-6319-4764-a5b8-3de216df4503","ios":"levelo://app?vid=bebe8c20-6319-4764-a5b8-3de216df4503"},"vehicle_type_id":"4","last_reported":1738926445,"current_range_meters":23200,"station_id":"ce4bhlh2rcd13ifvqgig","pricing_plan_id":"cebpf4jnsgd1na2vs0mg"},{"bike_id":"846128a2-c79d-4f22-8b7e-bd8125590138","system_id":"levelo_inurba_marseille","lat":43.30136,"lon":5.37398,"is_reserved":false,"is_disabled":false,"rental_uris":{"android":"levelo://app?vid=846128a2-c79d-4f22-8b7e-bd8125590138","ios":"levelo://app?vid=846128a2-c79d-4f22-8b7e-bd8125590138"},"vehicle_type_id":"4","last_reported":1738926445,"current_range_meters":27200,"station_id":"ce4bgs92rcd13ifvqcc0","pricing_plan_id":"cebpf4jnsgd1na2vs0mg"},{"bike_id":"89912e32-c5f0-448f-82d2-e236e4d6d653","system_id":"levelo_inurba_marseille","lat":43.27794,"lon":5.39876,"is_reserved":false,"is_disabled":true,"rental_uris":{"android":"levelo://app?vid=89912e32-c5f0-448f-82d2-e236e4d6d653","ios":"levelo://app?vid=89912e32-c5f0-448f-82d2-e236e4d6d653"},"vehicle_type_id":"4","last_reported":1738926445,"current_range_meters":5600,"station_id":"","pricing_plan_id":"cebpf4jnsgd1na2vs0mg"},{"bike_id":"a80cc501-6091-457a-842f-9c5759e0bddd","system_id":"levelo_inurba_marseille","lat":43.27936,"lon":5.41053,"is_reserved":false,"is_disabled":false,"rental_uris":{"android":"levelo://app?vid=a80cc501-6091-457a-842f-9c5759e0bddd","ios":"levelo://app?vid=a80cc501-6091-457a-842f-9c5759e0bddd"},"vehicle_type_id":"4","last_reported":1738926445,"current_range_meters":36000,"station_id":"ce4bhnp2rcd13ifvqh0g","pricing_plan_id":"cebpf4jnsgd1na2vs0mg"},{"bike_id":"cca80919-b73f-431e-8d2d-b5618fa256de","system_id":"levelo_inurba_marseille","lat":43.26195,"lon":5.37927,"is_reserved":false,"is_disabled":false,"rental_uris":{"android":"levelo://app?vid=cca80919-b73f-431e-8d2d-b5618fa256de","ios":"levelo://app?vid=cca80919-b73f-431e-8d2d-b5618fa256de"},"vehicle_type_id":"4","last_reported":1738926445,"current_range_meters":18000,"station_id":"ce4bhjp2rcd13ifvqg90","pricing_plan_id":"cebpf4jnsgd1na2vs0mg"},{"bike_id":"542f46de-ec7c-476c-b5a5-101fe8b3cd87","system_id":"levelo_inurba_marseille","lat":43.29385,"lon":5.37848,"is_reserved":false,"is_disabled":false,"rental_uris":{"android":"levelo://app?vid=542f46de-ec7c-476c-b5a5-101fe8b3cd87","ios":"levelo://app?vid=542f46de-ec7c-476c-b5a5-101fe8b3cd87"},"vehicle_type_id":"4","last_reported":1738926445,"current_range_meters":19200,"station_id":"ce4bgjh2rcd13ifvqbf0","pricing_plan_id":"cebpf4jnsgd1na2vs0mg"},{"bike_id":"e7977921-668a-4b47-b045-ad8749063367","system_id":"levelo_inurba_marseille","lat":43.29517,"lon":5.39023,"is_reserved":false,"is_disabled":false,"rental_uris":{"android":"levelo://app?vid=e7977921-668a-4b47-b045-ad8749063367","ios":"levelo://app?vid=e7977921-668a-4b47-b045-ad8749063367"},"vehicle_type_id":"4","last_reported":1738926445,"current_range_meters":39200,"station_id":"ce4bh3p2rcd13ifvqdp0","pricing_plan_id":"cebpf4jnsgd1na2vs0mg"},{"bike_id":"23143502-ceee-44da-89f0-72f6c6ad3c2a","system_id":"levelo_inurba_marseille","lat":43.26681,"lon":5.38255,"is_reserved":false,"is_disabled":false,"rental_uris":{"android":"levelo://app?vid=23143502-ceee-44da-89f0-72f6c6ad3c2a","ios":"levelo://app?vid=23143502-ceee-44da-89f0-72f6c6ad3c2a"},"vehicle_type_id":"4","last_reported":1738926445,"current_range_meters":22000,"station_id":"ce4bhg92rcd13ifvqf90","pricing_plan_id":"cebpf4jnsgd1na2vs0mg"},{"bike_id":"fb5a704f-a51b-458c-a6e9-f5586a789b94","system_id":"levelo_inurba_marseille","lat":43.24161,"lon":5.36431,"is_reserved":false,"is_disabled":false,"rental_uris":{"android":"levelo://app?vid=fb5a704f-a51b-458c-a6e9-f5586a789b94","ios":"levelo://app?vid=fb5a704f-a51b-458c-a6e9-f5586a789b94"},"vehicle_type_id":"4","last_reported":1738926445,"current_range_meters":6400,"station_id":"cpo36qri1sfpv3e86is0","pricing_plan_id":"cebpf4jnsgd1na2vs0mg"},{"bike_id":"3982593f-4426-4d01-aa48-c9a5c2a038f7","system_id":"levelo_inurba_marseille","lat":43.25119,"lon":5.40323,"is_reserved":false,"is_disabled":false,"rental_uris":{"android":"levelo://app?vid=3982593f-4426-4d01-aa48-c9a5c2a038f7","ios":"levelo://app?vid=3982593f-4426-4d01-aa48-c9a5c2a038f7"},"vehicle_type_id":"4","last_reported":1738926445,"current_range_meters":38400,"station_id":"ce4bhlh2rcd13ifvqgig","pricing_plan_id":"cebpf4jnsgd1na2vs0mg"},{"bike_id":"20c806b3-fd91-451d-b15e-39fe7cd61a6a","system_id":"levelo_inurba_marseille","lat":43.2872,"lon":5.36089,"is_reserved":false,"is_disabled":false,"rental_uris":{"android":"levelo://app?vid=20c806b3-fd91-451d-b15e-39fe7cd61a6a","ios":"levelo://app?vid=20c806b3-fd91-451d-b15e-39fe7cd61a6a"},"vehicle_type_id":"4","last_reported":1738926445,"current_range_meters":9200,"station_id":"cki0cbj6b192h4jlfktg","pricing_plan_id":"cebpf4jnsgd1na2vs0mg"},{"bike_id":"b73937ba-05e4-41c7-8959-6f24613e2797","system_id":"levelo_inurba_marseille","lat":43.229318,"lon":5.353792,"is_reserved":false,"is_disabled":false,"rental_uris":{"android":"levelo://app?vid=b73937ba-05e4-41c7-8959-6f24613e2797","ios":"levelo://app?vid=b73937ba-05e4-41c7-8959-6f24613e2797"},"vehicle_type_id":"4","last_reported":1738926445,"current_range_meters":34000,"station_id":"cpo3532slgdg3j2ikp40","pricing_plan_id":"cebpf4jnsgd1na2vs0mg"},{"bike_id":"57d2f359-aa56-45f0-bd2e-b5ed21f9da83","system_id":"levelo_inurba_marseille","lat":43.30307,"lon":5.3692,"is_reserved":false,"is_disabled":false,"rental_uris":{"android":"levelo://app?vid=57d2f359-aa56-45f0-bd2e-b5ed21f9da83","ios":"levelo://app?vid=57d2f359-aa56-45f0-bd2e-b5ed21f9da83"},"vehicle_type_id":"4","last_reported":1738926445,"current_range_meters":17600,"station_id":"ce4bgqh2rcd13ifvqc5g","pricing_plan_id":"cebpf4jnsgd1na2vs0mg"},{"bike_id":"9dbc66af-ff64-41a8-a57c-5ef86f5cb77a","system_id":"levelo_inurba_marseille","lat":43.26798,"lon":5.40266,"is_reserved":false,"is_disabled":false,"rental_uris":{"android":"levelo://app?vid=9dbc66af-ff64-41a8-a57c-5ef86f5cb77a","ios":"levelo://app?vid=9dbc66af-ff64-41a8-a57c-5ef86f5cb77a"},"vehicle_type_id":"4","last_reported":1738926445,"current_range_meters":38400,"station_id":"ce501612rcd8frsf0b60","pricing_plan_id":"cebpf4jnsgd1na2vs0mg"},{"bike_id":"ab54e2d0-4c2c-486a-84c7-811ed9008ddc","system_id":"levelo_inurba_marseille","lat":43.27851,"lon":5.42557,"is_reserved":false,"is_disabled":true,"rental_uris":{"android":"levelo://app?vid=ab54e2d0-4c2c-486a-84c7-811ed9008ddc","ios":"levelo://app?vid=ab54e2d0-4c2c-486a-84c7-811ed9008ddc"},"vehicle_type_id":"4","last_reported":1738926445,"current_range_meters":0,"station_id":"","pricing_plan_id":"cebpf4jnsgd1na2vs0mg"},{"bike_id":"f1e9399a-c62d-4210-bc5f-f431eced8b39","system_id":"levelo_inurba_marseille","lat":43.32361,"lon":5.36787,"is_reserved":false,"is_disabled":false,"rental_uris":{"android":"levelo://app?vid=f1e9399a-c62d-4210-bc5f-f431eced8b39","ios":"levelo://app?vid=f1e9399a-c62d-4210-bc5f-f431eced8b39"},"vehicle_type_id":"4","last_reported":1738926445,"current_range_meters":8000,"station_id":"ce4bhsh2rcd13ifvqi2g","pricing_plan_id":"cebpf4jnsgd1na2vs0mg"},{"bike_id":"254eef42-3fd5-433f-aac6-bb2fa01578a9","system_id":"levelo_inurba_marseille","lat":43.30118,"lon":5.37427,"is_reserved":false,"is_disabled":false,"rental_uris":{"android":"levelo://app?vid=254eef42-3fd5-433f-aac6-bb2fa01578a9","ios":"levelo://app?vid=254eef42-3fd5-433f-aac6-bb2fa01578a9"},"vehicle_type_id":"4","last_reported":1738926445,"current_range_meters":12800,"station_id":"ce4bgs92rcd13ifvqcc0","pricing_plan_id":"cebpf4jnsgd1na2vs0mg"},{"bike_id":"85423e3e-4144-454b-a03d-159c22f85bad","system_id":"levelo_inurba_marseille","lat":43.301391,"lon":5.374159,"is_reserved":false,"is_disabled":false,"rental_uris":{"android":"levelo://app?vid=85423e3e-4144-454b-a03d-159c22f85bad","ios":"levelo://app?vid=85423e3e-4144-454b-a03d-159c22f85bad"},"vehicle_type_id":"4","last_reported":1738926445,"current_range_meters":18800,"station_id":"ce4bgs92rcd13ifvqcc0","pricing_plan_id":"cebpf4jnsgd1na2vs0mg"},{"bike_id":"e539e183-c0f1-49ba-8dd6-c6872560b272","system_id":"levelo_inurba_marseille","lat":43.33604,"lon":5.41027,"is_reserved":false,"is_disabled":false,"rental_uris":{"android":"levelo://app?vid=e539e183-c0f1-49ba-8dd6-c6872560b272","ios":"levelo://app?vid=e539e183-c0f1-49ba-8dd6-c6872560b272"},"vehicle_type_id":"4","last_reported":1738926445,"current_range_meters":38800,"station_id":"ce4bhqh2rcd13ifvqhmg","pricing_plan_id":"cebpf4jnsgd1na2vs0mg"},{"bike_id":"56e7f5f1-2770-4107-8a2c-87a8a5a3d58d","system_id":"levelo_inurba_marseille","lat":43.28936,"lon":5.3786,"is_reserved":false,"is_disabled":false,"rental_uris":{"android":"levelo://app?vid=56e7f5f1-2770-4107-8a2c-87a8a5a3d58d","ios":"levelo://app?vid=56e7f5f1-2770-4107-8a2c-87a8a5a3d58d"},"vehicle_type_id":"4","last_reported":1738926445,"current_range_meters":36400,"station_id":"ce4bh9p2rcd13ifvqed0","pricing_plan_id":"cebpf4jnsgd1na2vs0mg"},{"bike_id":"fa09e36c-a47b-4001-9a8d-150d04be1d51","system_id":"levelo_inurba_marseille","lat":43.27534,"lon":5.38417,"is_reserved":false,"is_disabled":false,"rental_uris":{"android":"levelo://app?vid=fa09e36c-a47b-4001-9a8d-150d04be1d51","ios":"levelo://app?vid=fa09e36c-a47b-4001-9a8d-150d04be1d51"},"vehicle_type_id":"4","last_reported":1738926445,"current_range_meters":38000,"station_id":"ce4bhh92rcd13ifvqfi0","pricing_plan_id":"cebpf4jnsgd1na2vs0mg"},{"bike_id":"363f89dc-7a31-4716-bf7c-5e8b960f961f","system_id":"levelo_inurba_marseille","lat":43.31082,"lon":5.424283,"is_reserved":false,"is_disabled":false,"rental_uris":{"android":"levelo://app?vid=363f89dc-7a31-4716-bf7c-5e8b960f961f","ios":"levelo://app?vid=363f89dc-7a31-4716-bf7c-5e8b960f961f"},"vehicle_type_id":"4","last_reported":1738926445,"current_range_meters":38800,"station_id":"ce4bhp92rcd13ifvqhag","pricing_plan_id":"cebpf4jnsgd1na2vs0mg"},{"bike_id":"7f759bda-18b2-4322-a322-8baa6fac3a3e","system_id":"levelo_inurba_marseille","lat":43.26221,"lon":5.37449,"is_reserved":false,"is_disabled":false,"rental_uris":{"android":"levelo://app?vid=7f759bda-18b2-4322-a322-8baa6fac3a3e","ios":"levelo://app?vid=7f759bda-18b2-4322-a322-8baa6fac3a3e"},"vehicle_type_id":"4","last_reported":1738926445,"current_range_meters":24800,"station_id":"ce4bhgp2rcd13ifvqfc0","pricing_plan_id":"cebpf4jnsgd1na2vs0mg"},{"bike_id":"3b5a67f4-14ab-4c02-8383-a4628630738c","system_id":"levelo_inurba_marseille","lat":43.27051,"lon":5.4026,"is_reserved":false,"is_disabled":false,"rental_uris":{"android":"levelo://app?vid=3b5a67f4-14ab-4c02-8383-a4628630738c","ios":"levelo://app?vid=3b5a67f4-14ab-4c02-8383-a4628630738c"},"vehicle_type_id":"4","last_reported":1738926445,"current_range_meters":38800,"station_id":"ce4bhk92rcd13ifvqgc0","pricing_plan_id":"cebpf4jnsgd1na2vs0mg"},{"bike_id":"b8829ab2-1487-4b8c-ae59-08c14afad745","system_id":"levelo_inurba_marseille","lat":43.32363,"lon":5.38877,"is_reserved":false,"is_disabled":false,"rental_uris":{"android":"levelo://app?vid=b8829ab2-1487-4b8c-ae59-08c14afad745","ios":"levelo://app?vid=b8829ab2-1487-4b8c-ae59-08c14afad745"},"vehicle_type_id":"4","last_reported":1738926445,"current_range_meters":20000,"station_id":"ce4bhqp2rcd13ifvqhog","pricing_plan_id":"cebpf4jnsgd1na2vs0mg"},{"bike_id":"99d86a7b-9f99-4507-be35-1cd1507b1dd2","system_id":"levelo_inurba_marseille","lat":43.23149,"lon":5.43722,"is_reserved":false,"is_disabled":false,"rental_uris":{"android":"levelo://app?vid=99d86a7b-9f99-4507-be35-1cd1507b1dd2","ios":"levelo://app?vid=99d86a7b-9f99-4507-be35-1cd1507b1dd2"},"vehicle_type_id":"4","last_reported":1738926445,"current_range_meters":9600,"station_id":"ce4bhmp2rcd13ifvqgog","pricing_plan_id":"cebpf4jnsgd1na2vs0mg"},{"bike_id":"1aafd4aa-ba2a-4c94-bc8a-0a2b42d0be90","system_id":"levelo_inurba_marseille","lat":43.27809,"lon":5.40702,"is_reserved":false,"is_disabled":false,"rental_uris":{"android":"levelo://app?vid=1aafd4aa-ba2a-4c94-bc8a-0a2b42d0be90","ios":"levelo://app?vid=1aafd4aa-ba2a-4c94-bc8a-0a2b42d0be90"},"vehicle_type_id":"4","last_reported":1738926445,"current_range_meters":8400,"station_id":"ce4bhnh2rcd13ifvqgtg","pricing_plan_id":"cebpf4jnsgd1na2vs0mg"},{"bike_id":"99edfd39-ea2c-4152-9a67-579e3aa4a733","system_id":"levelo_inurba_marseille","lat":43.239639,"lon":5.366339,"is_reserved":false,"is_disabled":false,"rental_uris":{"android":"levelo://app?vid=99edfd39-ea2c-4152-9a67-579e3aa4a733","ios":"levelo://app?vid=99edfd39-ea2c-4152-9a67-579e3aa4a733"},"vehicle_type_id":"4","last_reported":1738926445,"current_range_meters":38400,"station_id":"ce4bhi12rcd13ifvqfp0","pricing_plan_id":"cebpf4jnsgd1na2vs0mg"},{"bike_id":"0ea221ea-31ac-4446-85b6-71a4c94a4dd9","system_id":"levelo_inurba_marseille","lat":43.29848,"lon":5.36281,"is_reserved":false,"is_disabled":false,"rental_uris":{"android":"levelo://app?vid=0ea221ea-31ac-4446-85b6-71a4c94a4dd9","ios":"levelo://app?vid=0ea221ea-31ac-4446-85b6-71a4c94a4dd9"},"vehicle_type_id":"4","last_reported":1738926445,"current_range_meters":36800,"station_id":"ce4bgpp2rcd13ifvqc3g","pricing_plan_id":"cebpf4jnsgd1na2vs0mg"},{"bike_id":"9c634dd9-1983-4331-aac4-81caafdedb2b","system_id":"levelo_inurba_marseille","lat":43.273,"lon":5.39095,"is_reserved":false,"is_disabled":false,"rental_uris":{"android":"levelo://app?vid=9c634dd9-1983-4331-aac4-81caafdedb2b","ios":"levelo://app?vid=9c634dd9-1983-4331-aac4-81caafdedb2b"},"vehicle_type_id":"4","last_reported":1738926445,"current_range_meters":30400,"station_id":"ce4bhgp2rcd13ifvqfe0","pricing_plan_id":"cebpf4jnsgd1na2vs0mg"},{"bike_id":"89bad4de-9283-43de-abb5-342633ba3f91","system_id":"levelo_inurba_marseille","lat":43.32479,"lon":5.36582,"is_reserved":false,"is_disabled":false,"rental_uris":{"android":"levelo://app?vid=89bad4de-9283-43de-abb5-342633ba3f91","ios":"levelo://app?vid=89bad4de-9283-43de-abb5-342633ba3f91"},"vehicle_type_id":"4","last_reported":1738926445,"current_range_meters":24000,"station_id":"ce4bhs12rcd13ifvqhvg","pricing_plan_id":"cebpf4jnsgd1na2vs0mg"},{"bike_id":"4632dd20-fd44-4672-8864-e9adeb156ac4","system_id":"levelo_inurba_marseille","lat":43.30541,"lon":5.38442,"is_reserved":false,"is_disabled":false,"rental_uris":{"android":"levelo://app?vid=4632dd20-fd44-4672-8864-e9adeb156ac4","ios":"levelo://app?vid=4632dd20-fd44-4672-8864-e9adeb156ac4"},"vehicle_type_id":"4","last_reported":1738926445,"current_range_meters":38400,"station_id":"ce4bgg92rcd13ifvqb30","pricing_plan_id":"cebpf4jnsgd1na2vs0mg"},{"bike_id":"d094da60-0121-4672-b5b0-817285625761","system_id":"levelo_inurba_marseille","lat":43.30137,"lon":5.37428,"is_reserved":false,"is_disabled":false,"rental_uris":{"android":"levelo://app?vid=d094da60-0121-4672-b5b0-817285625761","ios":"levelo://app?vid=d094da60-0121-4672-b5b0-817285625761"},"vehicle_type_id":"4","last_reported":1738926445,"current_range_meters":27200,"station_id":"ce4bgs92rcd13ifvqcc0","pricing_plan_id":"cebpf4jnsgd1na2vs0mg"},{"bike_id":"4ccd7a71-f983-472a-bdc7-c6e21e34264c","system_id":"levelo_inurba_marseille","lat":43.29378,"lon":5.37859,"is_reserved":false,"is_disabled":false,"rental_uris":{"android":"levelo://app?vid=4ccd7a71-f983-472a-bdc7-c6e21e34264c","ios":"levelo://app?vid=4ccd7a71-f983-472a-bdc7-c6e21e34264c"},"vehicle_type_id":"4","last_reported":1738926445,"current_range_meters":39200,"station_id":"ce4bgjh2rcd13ifvqbf0","pricing_plan_id":"cebpf4jnsgd1na2vs0mg"},{"bike_id":"4b44671c-15f3-402b-89fc-7fed4cccabaf","system_id":"levelo_inurba_marseille","lat":43.30302,"lon":5.37722,"is_reserved":false,"is_disabled":false,"rental_uris":{"android":"levelo://app?vid=4b44671c-15f3-402b-89fc-7fed4cccabaf","ios":"levelo://app?vid=4b44671c-15f3-402b-89fc-7fed4cccabaf"},"vehicle_type_id":"4","last_reported":1738926445,"current_range_meters":26000,"station_id":"ce4bguh2rcd13ifvqcj0","pricing_plan_id":"cebpf4jnsgd1na2vs0mg"},{"bike_id":"aabe1f0b-89a1-4652-9d45-ac5bc92d0c24","system_id":"levelo_inurba_marseille","lat":43.30116,"lon":5.37393,"is_reserved":false,"is_disabled":false,"rental_uris":{"android":"levelo://app?vid=aabe1f0b-89a1-4652-9d45-ac5bc92d0c24","ios":"levelo://app?vid=aabe1f0b-89a1-4652-9d45-ac5bc92d0c24"},"vehicle_type_id":"4","last_reported":1738926445,"current_range_meters":9600,"station_id":"ce4bgs92rcd13ifvqcc0","pricing_plan_id":"cebpf4jnsgd1na2vs0mg"},{"bike_id":"e433e074-e11b-43d4-9613-a601b65f8b04","system_id":"levelo_inurba_marseille","lat":43.30919,"lon":5.36856,"is_reserved":false,"is_disabled":false,"rental_uris":{"android":"levelo://app?vid=e433e074-e11b-43d4-9613-a601b65f8b04","ios":"levelo://app?vid=e433e074-e11b-43d4-9613-a601b65f8b04"},"vehicle_type_id":"4","last_reported":1738926445,"current_range_meters":27600,"station_id":"ce4bgn92rcd13ifvqbvg","pricing_plan_id":"cebpf4jnsgd1na2vs0mg"},{"bike_id":"0391eb3c-93b3-4a9a-80c6-a36c8f1666df","system_id":"levelo_inurba_marseille","lat":43.30138,"lon":5.39874,"is_reserved":false,"is_disabled":false,"rental_uris":{"android":"levelo://app?vid=0391eb3c-93b3-4a9a-80c6-a36c8f1666df","ios":"levelo://app?vid=0391eb3c-93b3-4a9a-80c6-a36c8f1666df"},"vehicle_type_id":"4","last_reported":1738926445,"current_range_meters":28800,"station_id":"ce4bh0h2rcd13ifvqd40","pricing_plan_id":"cebpf4jnsgd1na2vs0mg"},{"bike_id":"7e33b631-2c72-4ce9-95d9-ad17f00376cb","system_id":"levelo_inurba_marseille","lat":43.30557,"lon":5.36658,"is_reserved":false,"is_disabled":false,"rental_uris":{"android":"levelo://app?vid=7e33b631-2c72-4ce9-95d9-ad17f00376cb","ios":"levelo://app?vid=7e33b631-2c72-4ce9-95d9-ad17f00376cb"},"vehicle_type_id":"4","last_reported":1738926445,"current_range_meters":38800,"station_id":"","pricing_plan_id":"cebpf4jnsgd1na2vs0mg"},{"bike_id":"73525c1d-a4a8-43be-9032-5138cf9566c3","system_id":"levelo_inurba_marseille","lat":43.23179,"lon":5.4377,"is_reserved":false,"is_disabled":false,"rental_uris":{"android":"levelo://app?vid=73525c1d-a4a8-43be-9032-5138cf9566c3","ios":"levelo://app?vid=73525c1d-a4a8-43be-9032-5138cf9566c3"},"vehicle_type_id":"4","last_reported":1738926445,"current_range_meters":38800,"station_id":"ce4bhmp2rcd13ifvqgog","pricing_plan_id":"cebpf4jnsgd1na2vs0mg"},{"bike_id":"db322422-c517-446e-a70d-da6e38f4bd2f","system_id":"levelo_inurba_marseille","lat":43.24164,"lon":5.39736,"is_reserved":false,"is_disabled":false,"rental_uris":{"android":"levelo://app?vid=db322422-c517-446e-a70d-da6e38f4bd2f","ios":"levelo://app?vid=db322422-c517-446e-a70d-da6e38f4bd2f"},"vehicle_type_id":"4","last_reported":1738926445,"current_range_meters":32000,"station_id":"ce4bhn12rcd13ifvqgpg","pricing_plan_id":"cebpf4jnsgd1na2vs0mg"},{"bike_id":"1b03b3cc-a136-4674-8609-37fc2f723584","system_id":"levelo_inurba_marseille","lat":43.28464,"lon":5.35895,"is_reserved":false,"is_disabled":false,"rental_uris":{"android":"levelo://app?vid=1b03b3cc-a136-4674-8609-37fc2f723584","ios":"levelo://app?vid=1b03b3cc-a136-4674-8609-37fc2f723584"},"vehicle_type_id":"4","last_reported":1738926445,"current_range_meters":16800,"station_id":"ce4bhah2rcd13ifvqei0","pricing_plan_id":"cebpf4jnsgd1na2vs0mg"},{"bike_id":"f67b7531-6c63-4f46-a9d4-4fdf588facb0","system_id":"levelo_inurba_marseille","lat":43.27875,"lon":5.40612,"is_reserved":false,"is_disabled":true,"rental_uris":{"android":"levelo://app?vid=f67b7531-6c63-4f46-a9d4-4fdf588facb0","ios":"levelo://app?vid=f67b7531-6c63-4f46-a9d4-4fdf588facb0"},"vehicle_type_id":"4","last_reported":1738926445,"current_range_meters":400,"station_id":"","pricing_plan_id":"cebpf4jnsgd1na2vs0mg"},{"bike_id":"d9eff926-2d4a-417c-9178-221575c14456","system_id":"levelo_inurba_marseille","lat":43.23154,"lon":5.4371,"is_reserved":false,"is_disabled":false,"rental_uris":{"android":"levelo://app?vid=d9eff926-2d4a-417c-9178-221575c14456","ios":"levelo://app?vid=d9eff926-2d4a-417c-9178-221575c14456"},"vehicle_type_id":"4","last_reported":1738926445,"current_range_meters":38800,"station_id":"ce4bhmp2rcd13ifvqgog","pricing_plan_id":"cebpf4jnsgd1na2vs0mg"},{"bike_id":"ccc0d99a-4f06-4847-88ea-bfbf26a9a708","system_id":"levelo_inurba_marseille","lat":43.27369,"lon":5.36263,"is_reserved":false,"is_disabled":false,"rental_uris":{"android":"levelo://app?vid=ccc0d99a-4f06-4847-88ea-bfbf26a9a708","ios":"levelo://app?vid=ccc0d99a-4f06-4847-88ea-bfbf26a9a708"},"vehicle_type_id":"4","last_reported":1738926445,"current_range_meters":38800,"station_id":"ce4bhbh2rcd13ifvqeo0","pricing_plan_id":"cebpf4jnsgd1na2vs0mg"},{"bike_id":"d90800d2-0b28-4666-b04d-68e5f6c3e9ab","system_id":"levelo_inurba_marseille","lat":43.2318,"lon":5.4,"is_reserved":false,"is_disabled":false,"rental_uris":{"android":"levelo://app?vid=d90800d2-0b28-4666-b04d-68e5f6c3e9ab","ios":"levelo://app?vid=d90800d2-0b28-4666-b04d-68e5f6c3e9ab"},"vehicle_type_id":"4","last_reported":1738926445,"current_range_meters":37600,"station_id":"","pricing_plan_id":"cebpf4jnsgd1na2vs0mg"},{"bike_id":"38a651c3-ba2c-4772-87b9-27136d31b42d","system_id":"levelo_inurba_marseille","lat":43.28698,"lon":5.39981,"is_reserved":false,"is_disabled":false,"rental_uris":{"android":"levelo://app?vid=38a651c3-ba2c-4772-87b9-27136d31b42d","ios":"levelo://app?vid=38a651c3-ba2c-4772-87b9-27136d31b42d"},"vehicle_type_id":"4","last_reported":1738926445,"current_range_meters":22800,"station_id":"ce4bho92rcd13ifvqh3g","pricing_plan_id":"cebpf4jnsgd1na2vs0mg"},{"bike_id":"530d3cae-aa9a-4844-8494-c6334be27ce7","system_id":"levelo_inurba_marseille","lat":43.24175,"lon":5.39738,"is_reserved":false,"is_disabled":false,"rental_uris":{"android":"levelo://app?vid=530d3cae-aa9a-4844-8494-c6334be27ce7","ios":"levelo://app?vid=530d3cae-aa9a-4844-8494-c6334be27ce7"},"vehicle_type_id":"4","last_reported":1738926445,"current_range_meters":38800,"station_id":"ce4bhn12rcd13ifvqgpg","pricing_plan_id":"cebpf4jnsgd1na2vs0mg"},{"bike_id":"55c531ba-cb99-413a-81f9-84f3b3d5979e","system_id":"levelo_inurba_marseille","lat":43.22913,"lon":5.35392,"is_reserved":false,"is_disabled":false,"rental_uris":{"android":"levelo://app?vid=55c531ba-cb99-413a-81f9-84f3b3d5979e","ios":"levelo://app?vid=55c531ba-cb99-413a-81f9-84f3b3d5979e"},"vehicle_type_id":"4","last_reported":1738926445,"current_range_meters":25600,"station_id":"cpo3532slgdg3j2ikp40","pricing_plan_id":"cebpf4jnsgd1na2vs0mg"},{"bike_id":"89160215-2cac-4a9a-967a-86e4f11043ec","system_id":"levelo_inurba_marseille","lat":43.30786,"lon":5.38135,"is_reserved":false,"is_disabled":false,"rental_uris":{"android":"levelo://app?vid=89160215-2cac-4a9a-967a-86e4f11043ec","ios":"levelo://app?vid=89160215-2cac-4a9a-967a-86e4f11043ec"},"vehicle_type_id":"4","last_reported":1738926445,"current_range_meters":38800,"station_id":"ce4bgt12rcd13ifvqce0","pricing_plan_id":"cebpf4jnsgd1na2vs0mg"},{"bike_id":"6a3ebbcf-ee39-47ea-b689-f3b066371aa9","system_id":"levelo_inurba_marseille","lat":43.29836,"lon":5.36278,"is_reserved":false,"is_disabled":false,"rental_uris":{"android":"levelo://app?vid=6a3ebbcf-ee39-47ea-b689-f3b066371aa9","ios":"levelo://app?vid=6a3ebbcf-ee39-47ea-b689-f3b066371aa9"},"vehicle_type_id":"4","last_reported":1738926445,"current_range_meters":38800,"station_id":"ce4bgpp2rcd13ifvqc3g","pricing_plan_id":"cebpf4jnsgd1na2vs0mg"},{"bike_id":"c3842c5d-66fd-424c-b9f9-2a0b519d57b3","system_id":"levelo_inurba_marseille","lat":43.24679,"lon":5.3816,"is_reserved":false,"is_disabled":false,"rental_uris":{"android":"levelo://app?vid=c3842c5d-66fd-424c-b9f9-2a0b519d57b3","ios":"levelo://app?vid=c3842c5d-66fd-424c-b9f9-2a0b519d57b3"},"vehicle_type_id":"4","last_reported":1738926445,"current_range_meters":34800,"station_id":"ce4bhih2rcd13ifvqfr0","pricing_plan_id":"cebpf4jnsgd1na2vs0mg"},{"bike_id":"3b6fc1a1-1e64-4698-a113-588a2563418f","system_id":"levelo_inurba_marseille","lat":43.28034,"lon":5.36958,"is_reserved":false,"is_disabled":false,"rental_uris":{"android":"levelo://app?vid=3b6fc1a1-1e64-4698-a113-588a2563418f","ios":"levelo://app?vid=3b6fc1a1-1e64-4698-a113-588a2563418f"},"vehicle_type_id":"4","last_reported":1738926445,"current_range_meters":38400,"station_id":"ce4bha12rcd13ifvqef0","pricing_plan_id":"cebpf4jnsgd1na2vs0mg"},{"bike_id":"42b00d6b-70d0-4750-bdd2-377deb18497e","system_id":"levelo_inurba_marseille","lat":43.22918,"lon":5.35389,"is_reserved":false,"is_disabled":false,"rental_uris":{"android":"levelo://app?vid=42b00d6b-70d0-4750-bdd2-377deb18497e","ios":"levelo://app?vid=42b00d6b-70d0-4750-bdd2-377deb18497e"},"vehicle_type_id":"4","last_reported":1738926445,"current_range_meters":28000,"station_id":"cpo3532slgdg3j2ikp40","pricing_plan_id":"cebpf4jnsgd1na2vs0mg"},{"bike_id":"52a53e47-a267-4df1-ba36-e795e04e8532","system_id":"levelo_inurba_marseille","lat":43.29041,"lon":5.3756,"is_reserved":false,"is_disabled":false,"rental_uris":{"android":"levelo://app?vid=52a53e47-a267-4df1-ba36-e795e04e8532","ios":"levelo://app?vid=52a53e47-a267-4df1-ba36-e795e04e8532"},"vehicle_type_id":"4","last_reported":1738926445,"current_range_meters":36800,"station_id":"ce4bh692rcd13ifvqe90","pricing_plan_id":"cebpf4jnsgd1na2vs0mg"},{"bike_id":"e0dd7050-657b-435d-8e69-83dc339c6c06","system_id":"levelo_inurba_marseille","lat":43.2814,"lon":5.42651,"is_reserved":false,"is_disabled":false,"rental_uris":{"android":"levelo://app?vid=e0dd7050-657b-435d-8e69-83dc339c6c06","ios":"levelo://app?vid=e0dd7050-657b-435d-8e69-83dc339c6c06"},"vehicle_type_id":"4","last_reported":1738926445,"current_range_meters":24800,"station_id":"ce4bhnh2rcd13ifvqgug","pricing_plan_id":"cebpf4jnsgd1na2vs0mg"},{"bike_id":"5bbbfe39-7b53-4993-bb70-97ec9ba45c86","system_id":"levelo_inurba_marseille","lat":43.26792,"lon":5.3941,"is_reserved":false,"is_disabled":false,"rental_uris":{"android":"levelo://app?vid=5bbbfe39-7b53-4993-bb70-97ec9ba45c86","ios":"levelo://app?vid=5bbbfe39-7b53-4993-bb70-97ec9ba45c86"},"vehicle_type_id":"4","last_reported":1738926445,"current_range_meters":3600,"station_id":"ce4bhh12rcd13ifvqfg0","pricing_plan_id":"cebpf4jnsgd1na2vs0mg"},{"bike_id":"f1bbac45-5b32-4b97-b4ef-d7ee065546b1","system_id":"levelo_inurba_marseille","lat":43.26044,"lon":5.37553,"is_reserved":false,"is_disabled":false,"rental_uris":{"android":"levelo://app?vid=f1bbac45-5b32-4b97-b4ef-d7ee065546b1","ios":"levelo://app?vid=f1bbac45-5b32-4b97-b4ef-d7ee065546b1"},"vehicle_type_id":"4","last_reported":1738926445,"current_range_meters":38000,"station_id":"ce4bhgh2rcd13ifvqfa0","pricing_plan_id":"cebpf4jnsgd1na2vs0mg"},{"bike_id":"0a4693fe-7f43-4180-a9b7-8bdcb33c85c2","system_id":"levelo_inurba_marseille","lat":43.27673,"lon":5.38924,"is_reserved":false,"is_disabled":false,"rental_uris":{"android":"levelo://app?vid=0a4693fe-7f43-4180-a9b7-8bdcb33c85c2","ios":"levelo://app?vid=0a4693fe-7f43-4180-a9b7-8bdcb33c85c2"},"vehicle_type_id":"4","last_reported":1738926445,"current_range_meters":38400,"station_id":"ce4bhi12rcd13ifvqfo0","pricing_plan_id":"cebpf4jnsgd1na2vs0mg"},{"bike_id":"273ce1ec-c001-406c-8596-421bf4063a4a","system_id":"levelo_inurba_marseille","lat":43.29527,"lon":5.39041,"is_reserved":false,"is_disabled":false,"rental_uris":{"android":"levelo://app?vid=273ce1ec-c001-406c-8596-421bf4063a4a","ios":"levelo://app?vid=273ce1ec-c001-406c-8596-421bf4063a4a"},"vehicle_type_id":"4","last_reported":1738926445,"current_range_meters":38400,"station_id":"ce4bh3p2rcd13ifvqdp0","pricing_plan_id":"cebpf4jnsgd1na2vs0mg"},{"bike_id":"5eb997aa-ba06-470a-b7fd-cd40e9642b35","system_id":"levelo_inurba_marseille","lat":43.26943,"lon":5.40249,"is_reserved":false,"is_disabled":false,"rental_uris":{"android":"levelo://app?vid=5eb997aa-ba06-470a-b7fd-cd40e9642b35","ios":"levelo://app?vid=5eb997aa-ba06-470a-b7fd-cd40e9642b35"},"vehicle_type_id":"4","last_reported":1738926445,"current_range_meters":38000,"station_id":"cjm6bp8fraef2m0cb0m0","pricing_plan_id":"cebpf4jnsgd1na2vs0mg"},{"bike_id":"5e14d97f-7a6f-485b-a711-17b8d31a4670","system_id":"levelo_inurba_marseille","lat":43.27207,"lon":5.39196,"is_reserved":false,"is_disabled":false,"rental_uris":{"android":"levelo://app?vid=5e14d97f-7a6f-485b-a711-17b8d31a4670","ios":"levelo://app?vid=5e14d97f-7a6f-485b-a711-17b8d31a4670"},"vehicle_type_id":"4","last_reported":1738926445,"current_range_meters":39200,"station_id":"ce4bhhp2rcd13ifvqfm0","pricing_plan_id":"cebpf4jnsgd1na2vs0mg"},{"bike_id":"74e03b58-092f-49df-8d5a-96d67891a646","system_id":"levelo_inurba_marseille","lat":43.29035,"lon":5.3995,"is_reserved":false,"is_disabled":false,"rental_uris":{"android":"levelo://app?vid=74e03b58-092f-49df-8d5a-96d67891a646","ios":"levelo://app?vid=74e03b58-092f-49df-8d5a-96d67891a646"},"vehicle_type_id":"4","last_reported":1738926445,"current_range_meters":19600,"station_id":"ce4bh392rcd13ifvqdm0","pricing_plan_id":"cebpf4jnsgd1na2vs0mg"},{"bike_id":"c6fc4b4a-5347-4905-8d96-67ea4d004656","system_id":"levelo_inurba_marseille","lat":43.23193,"lon":5.35552,"is_reserved":false,"is_disabled":false,"rental_uris":{"android":"levelo://app?vid=c6fc4b4a-5347-4905-8d96-67ea4d004656","ios":"levelo://app?vid=c6fc4b4a-5347-4905-8d96-67ea4d004656"},"vehicle_type_id":"4","last_reported":1738926445,"current_range_meters":10800,"station_id":"ce4bhu92rcd13ifvqi70","pricing_plan_id":"cebpf4jnsgd1na2vs0mg"},{"bike_id":"1da8b17b-ad28-4780-a711-431647c244ed","system_id":"levelo_inurba_marseille","lat":43.23964,"lon":5.36617,"is_reserved":false,"is_disabled":false,"rental_uris":{"android":"levelo://app?vid=1da8b17b-ad28-4780-a711-431647c244ed","ios":"levelo://app?vid=1da8b17b-ad28-4780-a711-431647c244ed"},"vehicle_type_id":"4","last_reported":1738926445,"current_range_meters":28400,"station_id":"ce4bhi12rcd13ifvqfp0","pricing_plan_id":"cebpf4jnsgd1na2vs0mg"},{"bike_id":"79d87c11-b562-4a7b-956c-61a3439dcd8e","system_id":"levelo_inurba_marseille","lat":43.28849,"lon":5.35867,"is_reserved":false,"is_disabled":false,"rental_uris":{"android":"levelo://app?vid=79d87c11-b562-4a7b-956c-61a3439dcd8e","ios":"levelo://app?vid=79d87c11-b562-4a7b-956c-61a3439dcd8e"},"vehicle_type_id":"4","last_reported":1738926445,"current_range_meters":18800,"station_id":"ce4bhb12rcd13ifvqem0","pricing_plan_id":"cebpf4jnsgd1na2vs0mg"},{"bike_id":"54630ec0-92ce-4c84-ba54-45269fbd607e","system_id":"levelo_inurba_marseille","lat":43.3034,"lon":5.41888,"is_reserved":false,"is_disabled":false,"rental_uris":{"android":"levelo://app?vid=54630ec0-92ce-4c84-ba54-45269fbd607e","ios":"levelo://app?vid=54630ec0-92ce-4c84-ba54-45269fbd607e"},"vehicle_type_id":"4","last_reported":1738926445,"current_range_meters":38800,"station_id":"","pricing_plan_id":"cebpf4jnsgd1na2vs0mg"},{"bike_id":"b2557e44-f517-4fd5-ad27-e5f8af6b2e67","system_id":"levelo_inurba_marseille","lat":43.24403,"lon":5.37049,"is_reserved":false,"is_disabled":false,"rental_uris":{"android":"levelo://app?vid=b2557e44-f517-4fd5-ad27-e5f8af6b2e67","ios":"levelo://app?vid=b2557e44-f517-4fd5-ad27-e5f8af6b2e67"},"vehicle_type_id":"4","last_reported":1738926445,"current_range_meters":38400,"station_id":"ce4bhhh2rcd13ifvqfk0","pricing_plan_id":"cebpf4jnsgd1na2vs0mg"},{"bike_id":"b9a24e4c-4b77-494e-818f-3ac0d8f4bba7","system_id":"levelo_inurba_marseille","lat":43.27838,"lon":5.39197,"is_reserved":false,"is_disabled":false,"rental_uris":{"android":"levelo://app?vid=b9a24e4c-4b77-494e-818f-3ac0d8f4bba7","ios":"levelo://app?vid=b9a24e4c-4b77-494e-818f-3ac0d8f4bba7"},"vehicle_type_id":"4","last_reported":1738926445,"current_range_meters":38800,"station_id":"ce4bhjp2rcd13ifvqga0","pricing_plan_id":"cebpf4jnsgd1na2vs0mg"},{"bike_id":"d32646a2-a245-4773-a94b-5f319b6425fa","system_id":"levelo_inurba_marseille","lat":43.29894,"lon":5.38145,"is_reserved":false,"is_disabled":false,"rental_uris":{"android":"levelo://app?vid=d32646a2-a245-4773-a94b-5f319b6425fa","ios":"levelo://app?vid=d32646a2-a245-4773-a94b-5f319b6425fa"},"vehicle_type_id":"4","last_reported":1738926445,"current_range_meters":27600,"station_id":"ce4bgj12rcd13ifvqbc0","pricing_plan_id":"cebpf4jnsgd1na2vs0mg"},{"bike_id":"b49e677c-3e48-4e1d-86b1-fa17f0e39ea8","system_id":"levelo_inurba_marseille","lat":43.2622,"lon":5.37442,"is_reserved":false,"is_disabled":false,"rental_uris":{"android":"levelo://app?vid=b49e677c-3e48-4e1d-86b1-fa17f0e39ea8","ios":"levelo://app?vid=b49e677c-3e48-4e1d-86b1-fa17f0e39ea8"},"vehicle_type_id":"4","last_reported":1738926445,"current_range_meters":35600,"station_id":"ce4bhgp2rcd13ifvqfc0","pricing_plan_id":"cebpf4jnsgd1na2vs0mg"},{"bike_id":"e408d721-1719-4f3b-bfb2-ee76b97560c7","system_id":"levelo_inurba_marseille","lat":43.24651,"lon":5.38897,"is_reserved":false,"is_disabled":false,"rental_uris":{"android":"levelo://app?vid=e408d721-1719-4f3b-bfb2-ee76b97560c7","ios":"levelo://app?vid=e408d721-1719-4f3b-bfb2-ee76b97560c7"},"vehicle_type_id":"4","last_reported":1738926445,"current_range_meters":38800,"station_id":"ce4bhg12rcd13ifvqf60","pricing_plan_id":"cebpf4jnsgd1na2vs0mg"},{"bike_id":"943eb673-c399-4501-9459-4e2f171a7665","system_id":"levelo_inurba_marseille","lat":43.30162,"lon":5.38101,"is_reserved":false,"is_disabled":false,"rental_uris":{"android":"levelo://app?vid=943eb673-c399-4501-9459-4e2f171a7665","ios":"levelo://app?vid=943eb673-c399-4501-9459-4e2f171a7665"},"vehicle_type_id":"4","last_reported":1738926445,"current_range_meters":39200,"station_id":"ce4bgjp2rcd13ifvqbh0","pricing_plan_id":"cebpf4jnsgd1na2vs0mg"},{"bike_id":"a1cf4082-a27a-41d6-bff1-336691c49132","system_id":"levelo_inurba_marseille","lat":43.30075,"lon":5.39092,"is_reserved":false,"is_disabled":false,"rental_uris":{"android":"levelo://app?vid=a1cf4082-a27a-41d6-bff1-336691c49132","ios":"levelo://app?vid=a1cf4082-a27a-41d6-bff1-336691c49132"},"vehicle_type_id":"4","last_reported":1738926445,"current_range_meters":35600,"station_id":"ce4bh192rcd13ifvqdb0","pricing_plan_id":"cebpf4jnsgd1na2vs0mg"},{"bike_id":"a7e2494c-4fcf-45ec-9d7e-c2e2256264e9","system_id":"levelo_inurba_marseille","lat":43.32539,"lon":5.4146,"is_reserved":false,"is_disabled":false,"rental_uris":{"android":"levelo://app?vid=a7e2494c-4fcf-45ec-9d7e-c2e2256264e9","ios":"levelo://app?vid=a7e2494c-4fcf-45ec-9d7e-c2e2256264e9"},"vehicle_type_id":"4","last_reported":1738926445,"current_range_meters":4000,"station_id":"ce4bhq12rcd13ifvqhhg","pricing_plan_id":"cebpf4jnsgd1na2vs0mg"},{"bike_id":"2b671ea3-0fd8-49ca-add6-64b6d7709dd0","system_id":"levelo_inurba_marseille","lat":43.31307,"lon":5.38527,"is_reserved":false,"is_disabled":false,"rental_uris":{"android":"levelo://app?vid=2b671ea3-0fd8-49ca-add6-64b6d7709dd0","ios":"levelo://app?vid=2b671ea3-0fd8-49ca-add6-64b6d7709dd0"},"vehicle_type_id":"4","last_reported":1738926445,"current_range_meters":4400,"station_id":"","pricing_plan_id":"cebpf4jnsgd1na2vs0mg"},{"bike_id":"d2243453-0fdd-44e2-b094-902ca8b1c6d1","system_id":"levelo_inurba_marseille","lat":43.27672,"lon":5.38947,"is_reserved":false,"is_disabled":false,"rental_uris":{"android":"levelo://app?vid=d2243453-0fdd-44e2-b094-902ca8b1c6d1","ios":"levelo://app?vid=d2243453-0fdd-44e2-b094-902ca8b1c6d1"},"vehicle_type_id":"4","last_reported":1738926445,"current_range_meters":38800,"station_id":"ce4bhi12rcd13ifvqfo0","pricing_plan_id":"cebpf4jnsgd1na2vs0mg"},{"bike_id":"921e8e41-d29a-46f3-9136-8ab416f52e4f","system_id":"levelo_inurba_marseille","lat":43.3017,"lon":5.37411,"is_reserved":false,"is_disabled":false,"rental_uris":{"android":"levelo://app?vid=921e8e41-d29a-46f3-9136-8ab416f52e4f","ios":"levelo://app?vid=921e8e41-d29a-46f3-9136-8ab416f52e4f"},"vehicle_type_id":"4","last_reported":1738926445,"current_range_meters":26000,"station_id":"ce4bgs92rcd13ifvqcc0","pricing_plan_id":"cebpf4jnsgd1na2vs0mg"},{"bike_id":"0ac53f20-a649-491e-8243-4a5fbba561bf","system_id":"levelo_inurba_marseille","lat":43.2987,"lon":5.39752,"is_reserved":false,"is_disabled":false,"rental_uris":{"android":"levelo://app?vid=0ac53f20-a649-491e-8243-4a5fbba561bf","ios":"levelo://app?vid=0ac53f20-a649-491e-8243-4a5fbba561bf"},"vehicle_type_id":"4","last_reported":1738926445,"current_range_meters":38800,"station_id":"ce4bh0h2rcd13ifvqd50","pricing_plan_id":"cebpf4jnsgd1na2vs0mg"},{"bike_id":"0831c67e-6d3e-41f8-8429-2cada861521c","system_id":"levelo_inurba_marseille","lat":43.29618,"lon":5.3772,"is_reserved":false,"is_disabled":false,"rental_uris":{"android":"levelo://app?vid=0831c67e-6d3e-41f8-8429-2cada861521c","ios":"levelo://app?vid=0831c67e-6d3e-41f8-8429-2cada861521c"},"vehicle_type_id":"4","last_reported":1738926445,"current_range_meters":38800,"station_id":"ce4bgi92rcd13ifvqb90","pricing_plan_id":"cebpf4jnsgd1na2vs0mg"},{"bike_id":"cd79f58f-9702-431d-ac37-95dcbfa35705","system_id":"levelo_inurba_marseille","lat":43.32412,"lon":5.36636,"is_reserved":false,"is_disabled":false,"rental_uris":{"android":"levelo://app?vid=cd79f58f-9702-431d-ac37-95dcbfa35705","ios":"levelo://app?vid=cd79f58f-9702-431d-ac37-95dcbfa35705"},"vehicle_type_id":"4","last_reported":1738926445,"current_range_meters":38000,"station_id":"ce4bhs12rcd13ifvqhvg","pricing_plan_id":"cebpf4jnsgd1na2vs0mg"},{"bike_id":"0197f52a-7fe4-448e-93cf-8bdd2aecb08b","system_id":"levelo_inurba_marseille","lat":43.27616,"lon":5.36118,"is_reserved":false,"is_disabled":false,"rental_uris":{"android":"levelo://app?vid=0197f52a-7fe4-448e-93cf-8bdd2aecb08b","ios":"levelo://app?vid=0197f52a-7fe4-448e-93cf-8bdd2aecb08b"},"vehicle_type_id":"4","last_reported":1738926445,"current_range_meters":20800,"station_id":"ce4bgj92rcd13ifvqbe0","pricing_plan_id":"cebpf4jnsgd1na2vs0mg"},{"bike_id":"6aaf3bd2-7610-42ed-8f59-14639efb102f","system_id":"levelo_inurba_marseille","lat":43.31361,"lon":5.385,"is_reserved":false,"is_disabled":false,"rental_uris":{"android":"levelo://app?vid=6aaf3bd2-7610-42ed-8f59-14639efb102f","ios":"levelo://app?vid=6aaf3bd2-7610-42ed-8f59-14639efb102f"},"vehicle_type_id":"4","last_reported":1738926445,"current_range_meters":20400,"station_id":"ce4bgt92rcd13ifvqcf0","pricing_plan_id":"cebpf4jnsgd1na2vs0mg"},{"bike_id":"6964e144-0c20-439f-8e52-e9a10a7db7cf","system_id":"levelo_inurba_marseille","lat":43.30276,"lon":5.37723,"is_reserved":false,"is_disabled":false,"rental_uris":{"android":"levelo://app?vid=6964e144-0c20-439f-8e52-e9a10a7db7cf","ios":"levelo://app?vid=6964e144-0c20-439f-8e52-e9a10a7db7cf"},"vehicle_type_id":"4","last_reported":1738926445,"current_range_meters":32400,"station_id":"ce4bguh2rcd13ifvqcj0","pricing_plan_id":"cebpf4jnsgd1na2vs0mg"},{"bike_id":"0bc38e38-92c3-4ed1-b28d-79cb5f04f246","system_id":"levelo_inurba_marseille","lat":43.26686,"lon":5.38279,"is_reserved":false,"is_disabled":false,"rental_uris":{"android":"levelo://app?vid=0bc38e38-92c3-4ed1-b28d-79cb5f04f246","ios":"levelo://app?vid=0bc38e38-92c3-4ed1-b28d-79cb5f04f246"},"vehicle_type_id":"4","last_reported":1738926445,"current_range_meters":38400,"station_id":"ce4bhg92rcd13ifvqf90","pricing_plan_id":"cebpf4jnsgd1na2vs0mg"},{"bike_id":"da10d3b6-6e7d-4a1f-958a-0b25eceb1fc4","system_id":"levelo_inurba_marseille","lat":43.33014,"lon":5.39037,"is_reserved":false,"is_disabled":false,"rental_uris":{"android":"levelo://app?vid=da10d3b6-6e7d-4a1f-958a-0b25eceb1fc4","ios":"levelo://app?vid=da10d3b6-6e7d-4a1f-958a-0b25eceb1fc4"},"vehicle_type_id":"4","last_reported":1738926445,"current_range_meters":38800,"station_id":"ce4bhr92rcd13ifvqhrg","pricing_plan_id":"cebpf4jnsgd1na2vs0mg"},{"bike_id":"b1950598-35f8-4faa-8175-9f6ebce1c34f","system_id":"levelo_inurba_marseille","lat":43.3053,"lon":5.38429,"is_reserved":false,"is_disabled":false,"rental_uris":{"android":"levelo://app?vid=b1950598-35f8-4faa-8175-9f6ebce1c34f","ios":"levelo://app?vid=b1950598-35f8-4faa-8175-9f6ebce1c34f"},"vehicle_type_id":"4","last_reported":1738926445,"current_range_meters":36400,"station_id":"ce4bgg92rcd13ifvqb30","pricing_plan_id":"cebpf4jnsgd1na2vs0mg"},{"bike_id":"48e4415f-4bfa-4dd7-b8c6-72b96454ae71","system_id":"levelo_inurba_marseille","lat":43.26804,"lon":5.40265,"is_reserved":false,"is_disabled":false,"rental_uris":{"android":"levelo://app?vid=48e4415f-4bfa-4dd7-b8c6-72b96454ae71","ios":"levelo://app?vid=48e4415f-4bfa-4dd7-b8c6-72b96454ae71"},"vehicle_type_id":"4","last_reported":1738926445,"current_range_meters":39200,"station_id":"ce501612rcd8frsf0b60","pricing_plan_id":"cebpf4jnsgd1na2vs0mg"},{"bike_id":"921e3fac-428b-40ff-9224-c3f13b9034c3","system_id":"levelo_inurba_marseille","lat":43.29597,"lon":5.36791,"is_reserved":false,"is_disabled":false,"rental_uris":{"android":"levelo://app?vid=921e3fac-428b-40ff-9224-c3f13b9034c3","ios":"levelo://app?vid=921e3fac-428b-40ff-9224-c3f13b9034c3"},"vehicle_type_id":"4","last_reported":1738926445,"current_range_meters":38800,"station_id":"ce4bgph2rcd13ifvqc2g","pricing_plan_id":"cebpf4jnsgd1na2vs0mg"},{"bike_id":"ff367720-d345-4894-b2da-040da08574ca","system_id":"levelo_inurba_marseille","lat":43.30535,"lon":5.36712,"is_reserved":false,"is_disabled":false,"rental_uris":{"android":"levelo://app?vid=ff367720-d345-4894-b2da-040da08574ca","ios":"levelo://app?vid=ff367720-d345-4894-b2da-040da08574ca"},"vehicle_type_id":"4","last_reported":1738926445,"current_range_meters":35600,"station_id":"ce4bgrp2rcd13ifvqc9g","pricing_plan_id":"cebpf4jnsgd1na2vs0mg"},{"bike_id":"0e6ab3e7-15b7-4eed-aa04-3a1458acb532","system_id":"levelo_inurba_marseille","lat":43.23971,"lon":5.36619,"is_reserved":false,"is_disabled":false,"rental_uris":{"android":"levelo://app?vid=0e6ab3e7-15b7-4eed-aa04-3a1458acb532","ios":"levelo://app?vid=0e6ab3e7-15b7-4eed-aa04-3a1458acb532"},"vehicle_type_id":"4","last_reported":1738926445,"current_range_meters":22400,"station_id":"ce4bhi12rcd13ifvqfp0","pricing_plan_id":"cebpf4jnsgd1na2vs0mg"},{"bike_id":"f6e36dd0-6e67-421a-9873-e68da406d5dc","system_id":"levelo_inurba_marseille","lat":43.27844,"lon":5.39223,"is_reserved":false,"is_disabled":false,"rental_uris":{"android":"levelo://app?vid=f6e36dd0-6e67-421a-9873-e68da406d5dc","ios":"levelo://app?vid=f6e36dd0-6e67-421a-9873-e68da406d5dc"},"vehicle_type_id":"4","last_reported":1738926445,"current_range_meters":38400,"station_id":"ce4bhjp2rcd13ifvqga0","pricing_plan_id":"cebpf4jnsgd1na2vs0mg"},{"bike_id":"664962be-acc7-4677-844a-5178817526eb","system_id":"levelo_inurba_marseille","lat":43.34141,"lon":5.40896,"is_reserved":false,"is_disabled":false,"rental_uris":{"android":"levelo://app?vid=664962be-acc7-4677-844a-5178817526eb","ios":"levelo://app?vid=664962be-acc7-4677-844a-5178817526eb"},"vehicle_type_id":"4","last_reported":1738926445,"current_range_meters":26000,"station_id":"ce4bhqh2rcd13ifvqhlg","pricing_plan_id":"cebpf4jnsgd1na2vs0mg"},{"bike_id":"d24de62b-f43d-4ee9-8636-eae3f9e1d596","system_id":"levelo_inurba_marseille","lat":43.27186,"lon":5.41001,"is_reserved":false,"is_disabled":false,"rental_uris":{"android":"levelo://app?vid=d24de62b-f43d-4ee9-8636-eae3f9e1d596","ios":"levelo://app?vid=d24de62b-f43d-4ee9-8636-eae3f9e1d596"},"vehicle_type_id":"4","last_reported":1738926445,"current_range_meters":33200,"station_id":"ce4bhl12rcd13ifvqgf0","pricing_plan_id":"cebpf4jnsgd1na2vs0mg"},{"bike_id":"45a63924-d03f-4bba-a9a6-3edee7c97c94","system_id":"levelo_inurba_marseille","lat":43.30098,"lon":5.390819,"is_reserved":false,"is_disabled":false,"rental_uris":{"android":"levelo://app?vid=45a63924-d03f-4bba-a9a6-3edee7c97c94","ios":"levelo://app?vid=45a63924-d03f-4bba-a9a6-3edee7c97c94"},"vehicle_type_id":"4","last_reported":1738926445,"current_range_meters":39200,"station_id":"ce4bh192rcd13ifvqdb0","pricing_plan_id":"cebpf4jnsgd1na2vs0mg"},{"bike_id":"b0b2e4a5-cf7b-4a0d-bb9f-3bd141029616","system_id":"levelo_inurba_marseille","lat":43.30906,"lon":5.37202,"is_reserved":false,"is_disabled":false,"rental_uris":{"android":"levelo://app?vid=b0b2e4a5-cf7b-4a0d-bb9f-3bd141029616","ios":"levelo://app?vid=b0b2e4a5-cf7b-4a0d-bb9f-3bd141029616"},"vehicle_type_id":"4","last_reported":1738926445,"current_range_meters":38000,"station_id":"ce4bguh2rcd13ifvqckg","pricing_plan_id":"cebpf4jnsgd1na2vs0mg"},{"bike_id":"4e6c7046-2cee-42b6-8e15-99d144047c27","system_id":"levelo_inurba_marseille","lat":43.29979,"lon":5.3849,"is_reserved":false,"is_disabled":false,"rental_uris":{"android":"levelo://app?vid=4e6c7046-2cee-42b6-8e15-99d144047c27","ios":"levelo://app?vid=4e6c7046-2cee-42b6-8e15-99d144047c27"},"vehicle_type_id":"4","last_reported":1738926445,"current_range_meters":26800,"station_id":"ce4bgj92rcd13ifvqbd0","pricing_plan_id":"cebpf4jnsgd1na2vs0mg"},{"bike_id":"19780fea-eb01-4c15-ab82-e742a85898ab","system_id":"levelo_inurba_marseille","lat":43.32475,"lon":5.36569,"is_reserved":false,"is_disabled":false,"rental_uris":{"android":"levelo://app?vid=19780fea-eb01-4c15-ab82-e742a85898ab","ios":"levelo://app?vid=19780fea-eb01-4c15-ab82-e742a85898ab"},"vehicle_type_id":"4","last_reported":1738926445,"current_range_meters":36800,"station_id":"ce4bhs12rcd13ifvqhvg","pricing_plan_id":"cebpf4jnsgd1na2vs0mg"},{"bike_id":"2849b7f6-52af-4ac8-9db1-b17b0910ec1a","system_id":"levelo_inurba_marseille","lat":43.27832,"lon":5.3922,"is_reserved":false,"is_disabled":false,"rental_uris":{"android":"levelo://app?vid=2849b7f6-52af-4ac8-9db1-b17b0910ec1a","ios":"levelo://app?vid=2849b7f6-52af-4ac8-9db1-b17b0910ec1a"},"vehicle_type_id":"4","last_reported":1738926445,"current_range_meters":33600,"station_id":"ce4bhjp2rcd13ifvqga0","pricing_plan_id":"cebpf4jnsgd1na2vs0mg"},{"bike_id":"ad2ef7b1-b7ad-4493-bd3b-881eb1491918","system_id":"levelo_inurba_marseille","lat":43.27808,"lon":5.40702,"is_reserved":false,"is_disabled":false,"rental_uris":{"android":"levelo://app?vid=ad2ef7b1-b7ad-4493-bd3b-881eb1491918","ios":"levelo://app?vid=ad2ef7b1-b7ad-4493-bd3b-881eb1491918"},"vehicle_type_id":"4","last_reported":1738926445,"current_range_meters":24800,"station_id":"ce4bhnh2rcd13ifvqgtg","pricing_plan_id":"cebpf4jnsgd1na2vs0mg"},{"bike_id":"775e7c57-7e2a-41a4-bb53-8e81069898dc","system_id":"levelo_inurba_marseille","lat":43.25577,"lon":5.38248,"is_reserved":false,"is_disabled":false,"rental_uris":{"android":"levelo://app?vid=775e7c57-7e2a-41a4-bb53-8e81069898dc","ios":"levelo://app?vid=775e7c57-7e2a-41a4-bb53-8e81069898dc"},"vehicle_type_id":"4","last_reported":1738926445,"current_range_meters":38800,"station_id":"ce4bhih2rcd13ifvqfs0","pricing_plan_id":"cebpf4jnsgd1na2vs0mg"},{"bike_id":"b3963e70-96e6-456d-b001-ed5cf011d887","system_id":"levelo_inurba_marseille","lat":43.30491,"lon":5.37908,"is_reserved":false,"is_disabled":true,"rental_uris":{"android":"levelo://app?vid=b3963e70-96e6-456d-b001-ed5cf011d887","ios":"levelo://app?vid=b3963e70-96e6-456d-b001-ed5cf011d887"},"vehicle_type_id":"4","last_reported":1738926445,"current_range_meters":800,"station_id":"ce4bgup2rcd13ifvqcn0","pricing_plan_id":"cebpf4jnsgd1na2vs0mg"},{"bike_id":"223095b3-c2e8-4b11-a7be-36f06c3b36a2","system_id":"levelo_inurba_marseille","lat":43.30529,"lon":5.36725,"is_reserved":false,"is_disabled":false,"rental_uris":{"android":"levelo://app?vid=223095b3-c2e8-4b11-a7be-36f06c3b36a2","ios":"levelo://app?vid=223095b3-c2e8-4b11-a7be-36f06c3b36a2"},"vehicle_type_id":"4","last_reported":1738926445,"current_range_meters":37600,"station_id":"ce4bgrp2rcd13ifvqc9g","pricing_plan_id":"cebpf4jnsgd1na2vs0mg"},{"bike_id":"e4649c42-b698-4823-88e4-3d347fa63686","system_id":"levelo_inurba_marseille","lat":43.337444,"lon":5.374475,"is_reserved":false,"is_disabled":false,"rental_uris":{"android":"levelo://app?vid=e4649c42-b698-4823-88e4-3d347fa63686","ios":"levelo://app?vid=e4649c42-b698-4823-88e4-3d347fa63686"},"vehicle_type_id":"4","last_reported":1738926445,"current_range_meters":38800,"station_id":"ce4bgj92rcd13ifvqbd0","pricing_plan_id":"cebpf4jnsgd1na2vs0mg"},{"bike_id":"c5789181-d252-4c46-b75d-908f3a6a38fe","system_id":"levelo_inurba_marseille","lat":43.33734,"lon":5.39185,"is_reserved":false,"is_disabled":false,"rental_uris":{"android":"levelo://app?vid=c5789181-d252-4c46-b75d-908f3a6a38fe","ios":"levelo://app?vid=c5789181-d252-4c46-b75d-908f3a6a38fe"},"vehicle_type_id":"4","last_reported":1738926445,"current_range_meters":38800,"station_id":"ce4bhr92rcd13ifvqhsg","pricing_plan_id":"cebpf4jnsgd1na2vs0mg"},{"bike_id":"70680240-c0ce-4c00-ba26-bfa78895a67c","system_id":"levelo_inurba_marseille","lat":43.28608,"lon":5.3706,"is_reserved":false,"is_disabled":true,"rental_uris":{"android":"levelo://app?vid=70680240-c0ce-4c00-ba26-bfa78895a67c","ios":"levelo://app?vid=70680240-c0ce-4c00-ba26-bfa78895a67c"},"vehicle_type_id":"4","last_reported":1738926445,"current_range_meters":38800,"station_id":"ce4bht12rcd13ifvqi60","pricing_plan_id":"cebpf4jnsgd1na2vs0mg"},{"bike_id":"c0860f29-00a1-43bc-a59a-93baa2420893","system_id":"levelo_inurba_marseille","lat":43.29373,"lon":5.3784,"is_reserved":false,"is_disabled":false,"rental_uris":{"android":"levelo://app?vid=c0860f29-00a1-43bc-a59a-93baa2420893","ios":"levelo://app?vid=c0860f29-00a1-43bc-a59a-93baa2420893"},"vehicle_type_id":"4","last_reported":1738926445,"current_range_meters":32000,"station_id":"ce4bgjh2rcd13ifvqbf0","pricing_plan_id":"cebpf4jnsgd1na2vs0mg"},{"bike_id":"ef9b62b4-8d02-4e23-970e-3e7fcb88040b","system_id":"levelo_inurba_marseille","lat":43.26221,"lon":5.38824,"is_reserved":false,"is_disabled":false,"rental_uris":{"android":"levelo://app?vid=ef9b62b4-8d02-4e23-970e-3e7fcb88040b","ios":"levelo://app?vid=ef9b62b4-8d02-4e23-970e-3e7fcb88040b"},"vehicle_type_id":"4","last_reported":1738926445,"current_range_meters":11200,"station_id":"","pricing_plan_id":"cebpf4jnsgd1na2vs0mg"},{"bike_id":"59bbc581-6def-41e5-a432-768ddc1babeb","system_id":"levelo_inurba_marseille","lat":43.27815,"lon":5.40701,"is_reserved":false,"is_disabled":false,"rental_uris":{"android":"levelo://app?vid=59bbc581-6def-41e5-a432-768ddc1babeb","ios":"levelo://app?vid=59bbc581-6def-41e5-a432-768ddc1babeb"},"vehicle_type_id":"4","last_reported":1738926445,"current_range_meters":39200,"station_id":"ce4bhnh2rcd13ifvqgtg","pricing_plan_id":"cebpf4jnsgd1na2vs0mg"},{"bike_id":"eb3fd904-badc-499a-a549-c5ec6801c1d1","system_id":"levelo_inurba_marseille","lat":43.30193,"lon":5.38089,"is_reserved":false,"is_disabled":false,"rental_uris":{"android":"levelo://app?vid=eb3fd904-badc-499a-a549-c5ec6801c1d1","ios":"levelo://app?vid=eb3fd904-badc-499a-a549-c5ec6801c1d1"},"vehicle_type_id":"4","last_reported":1738926445,"current_range_meters":39200,"station_id":"ce4bgjp2rcd13ifvqbh0","pricing_plan_id":"cebpf4jnsgd1na2vs0mg"},{"bike_id":"97e5104e-454d-4feb-a695-0f608b7e10b3","system_id":"levelo_inurba_marseille","lat":43.25089,"lon":5.39523,"is_reserved":false,"is_disabled":false,"rental_uris":{"android":"levelo://app?vid=97e5104e-454d-4feb-a695-0f608b7e10b3","ios":"levelo://app?vid=97e5104e-454d-4feb-a695-0f608b7e10b3"},"vehicle_type_id":"4","last_reported":1738926445,"current_range_meters":19600,"station_id":"ce4bhm12rcd13ifvqgkg","pricing_plan_id":"cebpf4jnsgd1na2vs0mg"},{"bike_id":"27cdb7ae-2760-4c39-a944-cc6114c40033","system_id":"levelo_inurba_marseille","lat":43.28944,"lon":5.39626,"is_reserved":false,"is_disabled":false,"rental_uris":{"android":"levelo://app?vid=27cdb7ae-2760-4c39-a944-cc6114c40033","ios":"levelo://app?vid=27cdb7ae-2760-4c39-a944-cc6114c40033"},"vehicle_type_id":"4","last_reported":1738926445,"current_range_meters":11200,"station_id":"ce4bh3h2rcd13ifvqdn0","pricing_plan_id":"cebpf4jnsgd1na2vs0mg"},{"bike_id":"c204f03f-a67e-4bd0-a04c-f14ecf273ff1","system_id":"levelo_inurba_marseille","lat":43.26952,"lon":5.38637,"is_reserved":false,"is_disabled":false,"rental_uris":{"android":"levelo://app?vid=c204f03f-a67e-4bd0-a04c-f14ecf273ff1","ios":"levelo://app?vid=c204f03f-a67e-4bd0-a04c-f14ecf273ff1"},"vehicle_type_id":"4","last_reported":1738926445,"current_range_meters":38800,"station_id":"ce4bhh92rcd13ifvqfh0","pricing_plan_id":"cebpf4jnsgd1na2vs0mg"},{"bike_id":"3a0b7116-3ff0-4b03-bc73-17b4c5581f82","system_id":"levelo_inurba_marseille","lat":43.29975,"lon":5.38505,"is_reserved":false,"is_disabled":false,"rental_uris":{"android":"levelo://app?vid=3a0b7116-3ff0-4b03-bc73-17b4c5581f82","ios":"levelo://app?vid=3a0b7116-3ff0-4b03-bc73-17b4c5581f82"},"vehicle_type_id":"4","last_reported":1738926445,"current_range_meters":16000,"station_id":"ce4bgj92rcd13ifvqbd0","pricing_plan_id":"cebpf4jnsgd1na2vs0mg"},{"bike_id":"33f37d6b-08fe-4642-b4da-79d2133e4243","system_id":"levelo_inurba_marseille","lat":43.2731,"lon":5.42325,"is_reserved":false,"is_disabled":true,"rental_uris":{"android":"levelo://app?vid=33f37d6b-08fe-4642-b4da-79d2133e4243","ios":"levelo://app?vid=33f37d6b-08fe-4642-b4da-79d2133e4243"},"vehicle_type_id":"4","last_reported":1738926445,"current_range_meters":1200,"station_id":"","pricing_plan_id":"cebpf4jnsgd1na2vs0mg"},{"bike_id":"61fa4b26-20c8-466a-9fd1-66899d5ff713","system_id":"levelo_inurba_marseille","lat":43.32344,"lon":5.4062,"is_reserved":false,"is_disabled":false,"rental_uris":{"android":"levelo://app?vid=61fa4b26-20c8-466a-9fd1-66899d5ff713","ios":"levelo://app?vid=61fa4b26-20c8-466a-9fd1-66899d5ff713"},"vehicle_type_id":"4","last_reported":1738926445,"current_range_meters":24000,"station_id":"ce4bhq92rcd13ifvqhjg","pricing_plan_id":"cebpf4jnsgd1na2vs0mg"},{"bike_id":"7bc2d4b6-7844-46be-a947-040b3c3e100d","system_id":"levelo_inurba_marseille","lat":43.27922,"lon":5.39601,"is_reserved":false,"is_disabled":false,"rental_uris":{"android":"levelo://app?vid=7bc2d4b6-7844-46be-a947-040b3c3e100d","ios":"levelo://app?vid=7bc2d4b6-7844-46be-a947-040b3c3e100d"},"vehicle_type_id":"4","last_reported":1738926445,"current_range_meters":37600,"station_id":"ce4bhf92rcd13ifvqf40","pricing_plan_id":"cebpf4jnsgd1na2vs0mg"},{"bike_id":"254048ed-538f-43db-8dbf-2f9d8ee68a52","system_id":"levelo_inurba_marseille","lat":43.27178,"lon":5.41005,"is_reserved":false,"is_disabled":false,"rental_uris":{"android":"levelo://app?vid=254048ed-538f-43db-8dbf-2f9d8ee68a52","ios":"levelo://app?vid=254048ed-538f-43db-8dbf-2f9d8ee68a52"},"vehicle_type_id":"4","last_reported":1738926445,"current_range_meters":34800,"station_id":"ce4bhl12rcd13ifvqgf0","pricing_plan_id":"cebpf4jnsgd1na2vs0mg"},{"bike_id":"103b0137-7f49-4a64-b0e0-0a718f066e12","system_id":"levelo_inurba_marseille","lat":43.2955,"lon":5.42297,"is_reserved":false,"is_disabled":false,"rental_uris":{"android":"levelo://app?vid=103b0137-7f49-4a64-b0e0-0a718f066e12","ios":"levelo://app?vid=103b0137-7f49-4a64-b0e0-0a718f066e12"},"vehicle_type_id":"4","last_reported":1738926445,"current_range_meters":37600,"station_id":"ce4bhph2rcd13ifvqhdg","pricing_plan_id":"cebpf4jnsgd1na2vs0mg"},{"bike_id":"c8de6b0e-d38f-4aa5-b1f3-a3f87b8c1537","system_id":"levelo_inurba_marseille","lat":43.3015,"lon":5.38082,"is_reserved":false,"is_disabled":false,"rental_uris":{"android":"levelo://app?vid=c8de6b0e-d38f-4aa5-b1f3-a3f87b8c1537","ios":"levelo://app?vid=c8de6b0e-d38f-4aa5-b1f3-a3f87b8c1537"},"vehicle_type_id":"4","last_reported":1738926445,"current_range_meters":27600,"station_id":"ce4bgjp2rcd13ifvqbh0","pricing_plan_id":"cebpf4jnsgd1na2vs0mg"},{"bike_id":"7f8c63f0-ae26-41a9-951c-614dbedf8833","system_id":"levelo_inurba_marseille","lat":43.29684,"lon":5.37297,"is_reserved":false,"is_disabled":true,"rental_uris":{"android":"levelo://app?vid=7f8c63f0-ae26-41a9-951c-614dbedf8833","ios":"levelo://app?vid=7f8c63f0-ae26-41a9-951c-614dbedf8833"},"vehicle_type_id":"4","last_reported":1738926445,"current_range_meters":9600,"station_id":"ce4bho92rcd13ifvqh3g","pricing_plan_id":"cebpf4jnsgd1na2vs0mg"},{"bike_id":"adea3fe0-0d5f-493f-bc7a-8db19cd779cc","system_id":"levelo_inurba_marseille","lat":43.26195,"lon":5.37924,"is_reserved":false,"is_disabled":false,"rental_uris":{"android":"levelo://app?vid=adea3fe0-0d5f-493f-bc7a-8db19cd779cc","ios":"levelo://app?vid=adea3fe0-0d5f-493f-bc7a-8db19cd779cc"},"vehicle_type_id":"4","last_reported":1738926445,"current_range_meters":36400,"station_id":"ce4bhjp2rcd13ifvqg90","pricing_plan_id":"cebpf4jnsgd1na2vs0mg"},{"bike_id":"6c20833b-b57b-4a5e-8f8c-e4faad3f5b61","system_id":"levelo_inurba_marseille","lat":43.28936,"lon":5.36402,"is_reserved":false,"is_disabled":false,"rental_uris":{"android":"levelo://app?vid=6c20833b-b57b-4a5e-8f8c-e4faad3f5b61","ios":"levelo://app?vid=6c20833b-b57b-4a5e-8f8c-e4faad3f5b61"},"vehicle_type_id":"4","last_reported":1738926445,"current_range_meters":36000,"station_id":"ce4bhc92rcd13ifvqetg","pricing_plan_id":"cebpf4jnsgd1na2vs0mg"},{"bike_id":"07bbbb02-8103-472b-8e2d-b8e1fb21467e","system_id":"levelo_inurba_marseille","lat":43.26537,"lon":5.39053,"is_reserved":false,"is_disabled":false,"rental_uris":{"android":"levelo://app?vid=07bbbb02-8103-472b-8e2d-b8e1fb21467e","ios":"levelo://app?vid=07bbbb02-8103-472b-8e2d-b8e1fb21467e"},"vehicle_type_id":"4","last_reported":1738926445,"current_range_meters":20000,"station_id":"ce4bhe12rcd13ifvqf30","pricing_plan_id":"cebpf4jnsgd1na2vs0mg"},{"bike_id":"c24a0944-9686-4c99-bfcb-6448fb0e1bb6","system_id":"levelo_inurba_marseille","lat":43.24059,"lon":5.37749,"is_reserved":false,"is_disabled":false,"rental_uris":{"android":"levelo://app?vid=c24a0944-9686-4c99-bfcb-6448fb0e1bb6","ios":"levelo://app?vid=c24a0944-9686-4c99-bfcb-6448fb0e1bb6"},"vehicle_type_id":"4","last_reported":1738926445,"current_range_meters":28400,"station_id":"ce4bhnp2rcd13ifvqgvg","pricing_plan_id":"cebpf4jnsgd1na2vs0mg"},{"bike_id":"8b11bba1-d0cf-40c9-9463-3c4eba99b678","system_id":"levelo_inurba_marseille","lat":43.30156,"lon":5.38082,"is_reserved":false,"is_disabled":false,"rental_uris":{"android":"levelo://app?vid=8b11bba1-d0cf-40c9-9463-3c4eba99b678","ios":"levelo://app?vid=8b11bba1-d0cf-40c9-9463-3c4eba99b678"},"vehicle_type_id":"4","last_reported":1738926445,"current_range_meters":24800,"station_id":"ce4bgjp2rcd13ifvqbh0","pricing_plan_id":"cebpf4jnsgd1na2vs0mg"},{"bike_id":"0c7b73f6-06cf-4f30-a5b5-cc680ecfa71d","system_id":"levelo_inurba_marseille","lat":43.33611,"lon":5.41012,"is_reserved":false,"is_disabled":true,"rental_uris":{"android":"levelo://app?vid=0c7b73f6-06cf-4f30-a5b5-cc680ecfa71d","ios":"levelo://app?vid=0c7b73f6-06cf-4f30-a5b5-cc680ecfa71d"},"vehicle_type_id":"4","last_reported":1738926445,"current_range_meters":0,"station_id":"ce4bhqh2rcd13ifvqhmg","pricing_plan_id":"cebpf4jnsgd1na2vs0mg"},{"bike_id":"a1a721af-f32f-426d-bef9-1c69a2986fa2","system_id":"levelo_inurba_marseille","lat":43.23153,"lon":5.43746,"is_reserved":false,"is_disabled":false,"rental_uris":{"android":"levelo://app?vid=a1a721af-f32f-426d-bef9-1c69a2986fa2","ios":"levelo://app?vid=a1a721af-f32f-426d-bef9-1c69a2986fa2"},"vehicle_type_id":"4","last_reported":1738926445,"current_range_meters":3200,"station_id":"ce4bhmp2rcd13ifvqgog","pricing_plan_id":"cebpf4jnsgd1na2vs0mg"},{"bike_id":"f2df57fd-48fb-42b4-9b53-5e639c9b06ad","system_id":"levelo_inurba_marseille","lat":43.32368,"lon":5.38877,"is_reserved":false,"is_disabled":false,"rental_uris":{"android":"levelo://app?vid=f2df57fd-48fb-42b4-9b53-5e639c9b06ad","ios":"levelo://app?vid=f2df57fd-48fb-42b4-9b53-5e639c9b06ad"},"vehicle_type_id":"4","last_reported":1738926445,"current_range_meters":38000,"station_id":"ce4bhqp2rcd13ifvqhog","pricing_plan_id":"cebpf4jnsgd1na2vs0mg"},{"bike_id":"4a07e574-0150-4492-a103-e4de79319a86","system_id":"levelo_inurba_marseille","lat":43.301819,"lon":5.366162,"is_reserved":false,"is_disabled":false,"rental_uris":{"android":"levelo://app?vid=4a07e574-0150-4492-a103-e4de79319a86","ios":"levelo://app?vid=4a07e574-0150-4492-a103-e4de79319a86"},"vehicle_type_id":"4","last_reported":1738926445,"current_range_meters":38800,"station_id":"ce4bgrh2rcd13ifvqc8g","pricing_plan_id":"cebpf4jnsgd1na2vs0mg"},{"bike_id":"1f817628-675a-46e7-8767-c97b0a6a2259","system_id":"levelo_inurba_marseille","lat":43.2679,"lon":5.39415,"is_reserved":false,"is_disabled":false,"rental_uris":{"android":"levelo://app?vid=1f817628-675a-46e7-8767-c97b0a6a2259","ios":"levelo://app?vid=1f817628-675a-46e7-8767-c97b0a6a2259"},"vehicle_type_id":"4","last_reported":1738926445,"current_range_meters":32400,"station_id":"ce4bhh12rcd13ifvqfg0","pricing_plan_id":"cebpf4jnsgd1na2vs0mg"},{"bike_id":"30848e21-3842-49e6-b9e8-e3d9163bf6f6","system_id":"levelo_inurba_marseille","lat":43.25917,"lon":5.40927,"is_reserved":false,"is_disabled":false,"rental_uris":{"android":"levelo://app?vid=30848e21-3842-49e6-b9e8-e3d9163bf6f6","ios":"levelo://app?vid=30848e21-3842-49e6-b9e8-e3d9163bf6f6"},"vehicle_type_id":"4","last_reported":1738926445,"current_range_meters":28400,"station_id":"ce4bhm92rcd13ifvqglg","pricing_plan_id":"cebpf4jnsgd1na2vs0mg"},{"bike_id":"59db9156-837c-4bef-bdf0-6cb05d00fb23","system_id":"levelo_inurba_marseille","lat":43.24172,"lon":5.36391,"is_reserved":false,"is_disabled":false,"rental_uris":{"android":"levelo://app?vid=59db9156-837c-4bef-bdf0-6cb05d00fb23","ios":"levelo://app?vid=59db9156-837c-4bef-bdf0-6cb05d00fb23"},"vehicle_type_id":"4","last_reported":1738926445,"current_range_meters":31200,"station_id":"cpo36qri1sfpv3e86is0","pricing_plan_id":"cebpf4jnsgd1na2vs0mg"},{"bike_id":"8a67da58-cf32-4163-a9c0-454a297e60c9","system_id":"levelo_inurba_marseille","lat":43.29554,"lon":5.4227,"is_reserved":false,"is_disabled":false,"rental_uris":{"android":"levelo://app?vid=8a67da58-cf32-4163-a9c0-454a297e60c9","ios":"levelo://app?vid=8a67da58-cf32-4163-a9c0-454a297e60c9"},"vehicle_type_id":"4","last_reported":1738926445,"current_range_meters":16000,"station_id":"ce4bhph2rcd13ifvqhdg","pricing_plan_id":"cebpf4jnsgd1na2vs0mg"},{"bike_id":"19c91191-64ee-4803-94d7-14a4a66340df","system_id":"levelo_inurba_marseille","lat":43.31706,"lon":5.42397,"is_reserved":false,"is_disabled":true,"rental_uris":{"android":"levelo://app?vid=19c91191-64ee-4803-94d7-14a4a66340df","ios":"levelo://app?vid=19c91191-64ee-4803-94d7-14a4a66340df"},"vehicle_type_id":"4","last_reported":1738926445,"current_range_meters":0,"station_id":"ce4bhp92rcd13ifvqhbg","pricing_plan_id":"cebpf4jnsgd1na2vs0mg"},{"bike_id":"8c695e9c-cbe7-4113-bccc-bc20b1379ba4","system_id":"levelo_inurba_marseille","lat":43.2936,"lon":5.3785,"is_reserved":false,"is_disabled":false,"rental_uris":{"android":"levelo://app?vid=8c695e9c-cbe7-4113-bccc-bc20b1379ba4","ios":"levelo://app?vid=8c695e9c-cbe7-4113-bccc-bc20b1379ba4"},"vehicle_type_id":"4","last_reported":1738926445,"current_range_meters":32800,"station_id":"ce4bgjh2rcd13ifvqbf0","pricing_plan_id":"cebpf4jnsgd1na2vs0mg"},{"bike_id":"c2254ed0-0838-424f-99f8-8eb5410c1ec3","system_id":"levelo_inurba_marseille","lat":43.24147,"lon":5.36425,"is_reserved":false,"is_disabled":false,"rental_uris":{"android":"levelo://app?vid=c2254ed0-0838-424f-99f8-8eb5410c1ec3","ios":"levelo://app?vid=c2254ed0-0838-424f-99f8-8eb5410c1ec3"},"vehicle_type_id":"4","last_reported":1738926445,"current_range_meters":30000,"station_id":"cpo36qri1sfpv3e86is0","pricing_plan_id":"cebpf4jnsgd1na2vs0mg"},{"bike_id":"63502e7d-71b3-44d6-b82d-6352b6e3809f","system_id":"levelo_inurba_marseille","lat":43.25826,"lon":5.39428,"is_reserved":false,"is_disabled":false,"rental_uris":{"android":"levelo://app?vid=63502e7d-71b3-44d6-b82d-6352b6e3809f","ios":"levelo://app?vid=63502e7d-71b3-44d6-b82d-6352b6e3809f"},"vehicle_type_id":"4","last_reported":1738926445,"current_range_meters":37600,"station_id":"ce4bhip2rcd13ifvqft0","pricing_plan_id":"cebpf4jnsgd1na2vs0mg"},{"bike_id":"ede7cb4e-21e3-4f60-b3e2-c06c1766d8c6","system_id":"levelo_inurba_marseille","lat":43.29803,"lon":5.37106,"is_reserved":false,"is_disabled":false,"rental_uris":{"android":"levelo://app?vid=ede7cb4e-21e3-4f60-b3e2-c06c1766d8c6","ios":"levelo://app?vid=ede7cb4e-21e3-4f60-b3e2-c06c1766d8c6"},"vehicle_type_id":"4","last_reported":1738926445,"current_range_meters":35600,"station_id":"ce4bgop2rcd13ifvqc1g","pricing_plan_id":"cebpf4jnsgd1na2vs0mg"},{"bike_id":"1ee45343-9eb3-4093-af39-176108dbf5fc","system_id":"levelo_inurba_marseille","lat":43.32456,"lon":5.36593,"is_reserved":false,"is_disabled":false,"rental_uris":{"android":"levelo://app?vid=1ee45343-9eb3-4093-af39-176108dbf5fc","ios":"levelo://app?vid=1ee45343-9eb3-4093-af39-176108dbf5fc"},"vehicle_type_id":"4","last_reported":1738926445,"current_range_meters":39200,"station_id":"ce4bhs12rcd13ifvqhvg","pricing_plan_id":"cebpf4jnsgd1na2vs0mg"},{"bike_id":"744f4122-a65c-499d-80ba-7729a1ce92fe","system_id":"levelo_inurba_marseille","lat":43.28427,"lon":5.39225,"is_reserved":false,"is_disabled":true,"rental_uris":{"android":"levelo://app?vid=744f4122-a65c-499d-80ba-7729a1ce92fe","ios":"levelo://app?vid=744f4122-a65c-499d-80ba-7729a1ce92fe"},"vehicle_type_id":"4","last_reported":1738926445,"current_range_meters":36400,"station_id":"ce4bhoh2rcd13ifvqh5g","pricing_plan_id":"cebpf4jnsgd1na2vs0mg"},{"bike_id":"5d1dacf3-3fa1-40ba-8373-ce163dd2d283","system_id":"levelo_inurba_marseille","lat":43.261929,"lon":5.379314,"is_reserved":false,"is_disabled":false,"rental_uris":{"android":"levelo://app?vid=5d1dacf3-3fa1-40ba-8373-ce163dd2d283","ios":"levelo://app?vid=5d1dacf3-3fa1-40ba-8373-ce163dd2d283"},"vehicle_type_id":"4","last_reported":1738926445,"current_range_meters":38800,"station_id":"ce4bhjp2rcd13ifvqg90","pricing_plan_id":"cebpf4jnsgd1na2vs0mg"},{"bike_id":"060a4ff1-665e-4d86-8eef-d19188356a04","system_id":"levelo_inurba_marseille","lat":43.30548,"lon":5.36712,"is_reserved":false,"is_disabled":false,"rental_uris":{"android":"levelo://app?vid=060a4ff1-665e-4d86-8eef-d19188356a04","ios":"levelo://app?vid=060a4ff1-665e-4d86-8eef-d19188356a04"},"vehicle_type_id":"4","last_reported":1738926445,"current_range_meters":22800,"station_id":"ce4bgrp2rcd13ifvqc9g","pricing_plan_id":"cebpf4jnsgd1na2vs0mg"},{"bike_id":"e608cc64-2730-4a71-8ccf-956d2b8dc5e0","system_id":"levelo_inurba_marseille","lat":43.3092,"lon":5.36852,"is_reserved":false,"is_disabled":false,"rental_uris":{"android":"levelo://app?vid=e608cc64-2730-4a71-8ccf-956d2b8dc5e0","ios":"levelo://app?vid=e608cc64-2730-4a71-8ccf-956d2b8dc5e0"},"vehicle_type_id":"4","last_reported":1738926445,"current_range_meters":19600,"station_id":"ce4bgn92rcd13ifvqbvg","pricing_plan_id":"cebpf4jnsgd1na2vs0mg"},{"bike_id":"996a2926-3d14-4a1b-9b52-c58d20992da5","system_id":"levelo_inurba_marseille","lat":43.30146,"lon":5.38084,"is_reserved":false,"is_disabled":false,"rental_uris":{"android":"levelo://app?vid=996a2926-3d14-4a1b-9b52-c58d20992da5","ios":"levelo://app?vid=996a2926-3d14-4a1b-9b52-c58d20992da5"},"vehicle_type_id":"4","last_reported":1738926445,"current_range_meters":24800,"station_id":"ce4bgjp2rcd13ifvqbh0","pricing_plan_id":"cebpf4jnsgd1na2vs0mg"},{"bike_id":"394fb33f-d9d4-4f64-9580-174995fc4b80","system_id":"levelo_inurba_marseille","lat":43.30556,"lon":5.36535,"is_reserved":false,"is_disabled":false,"rental_uris":{"android":"levelo://app?vid=394fb33f-d9d4-4f64-9580-174995fc4b80","ios":"levelo://app?vid=394fb33f-d9d4-4f64-9580-174995fc4b80"},"vehicle_type_id":"4","last_reported":1738926445,"current_range_meters":39200,"station_id":"ce4bgs12rcd13ifvqcag","pricing_plan_id":"cebpf4jnsgd1na2vs0mg"},{"bike_id":"1bd0ed6d-66a1-4d24-8429-2532d0103fd2","system_id":"levelo_inurba_marseille","lat":43.26216,"lon":5.37437,"is_reserved":false,"is_disabled":false,"rental_uris":{"android":"levelo://app?vid=1bd0ed6d-66a1-4d24-8429-2532d0103fd2","ios":"levelo://app?vid=1bd0ed6d-66a1-4d24-8429-2532d0103fd2"},"vehicle_type_id":"4","last_reported":1738926445,"current_range_meters":28000,"station_id":"ce4bhgp2rcd13ifvqfc0","pricing_plan_id":"cebpf4jnsgd1na2vs0mg"},{"bike_id":"013966e3-238f-4f27-83d7-59548e859f1f","system_id":"levelo_inurba_marseille","lat":43.29582,"lon":5.367434,"is_reserved":false,"is_disabled":false,"rental_uris":{"android":"levelo://app?vid=013966e3-238f-4f27-83d7-59548e859f1f","ios":"levelo://app?vid=013966e3-238f-4f27-83d7-59548e859f1f"},"vehicle_type_id":"4","last_reported":1738926445,"current_range_meters":36800,"station_id":"ce4bgph2rcd13ifvqc2g","pricing_plan_id":"cebpf4jnsgd1na2vs0mg"},{"bike_id":"528241cb-7275-47c1-85e9-ff7a37a61cca","system_id":"levelo_inurba_marseille","lat":43.30478,"lon":5.37902,"is_reserved":false,"is_disabled":false,"rental_uris":{"android":"levelo://app?vid=528241cb-7275-47c1-85e9-ff7a37a61cca","ios":"levelo://app?vid=528241cb-7275-47c1-85e9-ff7a37a61cca"},"vehicle_type_id":"4","last_reported":1738926445,"current_range_meters":32000,"station_id":"ce4bgup2rcd13ifvqcn0","pricing_plan_id":"cebpf4jnsgd1na2vs0mg"},{"bike_id":"7f015044-497d-43f0-82a7-ccbcbe7df214","system_id":"levelo_inurba_marseille","lat":43.28721,"lon":5.37934,"is_reserved":false,"is_disabled":false,"rental_uris":{"android":"levelo://app?vid=7f015044-497d-43f0-82a7-ccbcbe7df214","ios":"levelo://app?vid=7f015044-497d-43f0-82a7-ccbcbe7df214"},"vehicle_type_id":"4","last_reported":1738926445,"current_range_meters":8400,"station_id":"ce4bh9p2rcd13ifvqec0","pricing_plan_id":"cebpf4jnsgd1na2vs0mg"},{"bike_id":"e459ab85-5370-46c5-b936-ebc1bfe6bad3","system_id":"levelo_inurba_marseille","lat":43.29288,"lon":5.38453,"is_reserved":false,"is_disabled":false,"rental_uris":{"android":"levelo://app?vid=e459ab85-5370-46c5-b936-ebc1bfe6bad3","ios":"levelo://app?vid=e459ab85-5370-46c5-b936-ebc1bfe6bad3"},"vehicle_type_id":"4","last_reported":1738926445,"current_range_meters":38800,"station_id":"ce4bh692rcd13ifvqea0","pricing_plan_id":"cebpf4jnsgd1na2vs0mg"},{"bike_id":"c1f69703-9b05-4581-8fd1-87fea2a4b5e4","system_id":"levelo_inurba_marseille","lat":43.30933,"lon":5.40154,"is_reserved":false,"is_disabled":false,"rental_uris":{"android":"levelo://app?vid=c1f69703-9b05-4581-8fd1-87fea2a4b5e4","ios":"levelo://app?vid=c1f69703-9b05-4581-8fd1-87fea2a4b5e4"},"vehicle_type_id":"4","last_reported":1738926445,"current_range_meters":38800,"station_id":"ce4bgvp2rcd13ifvqct0","pricing_plan_id":"cebpf4jnsgd1na2vs0mg"},{"bike_id":"b98614fa-a351-4cb3-a391-b932d0bb66c8","system_id":"levelo_inurba_marseille","lat":43.28556,"lon":5.36013,"is_reserved":false,"is_disabled":false,"rental_uris":{"android":"levelo://app?vid=b98614fa-a351-4cb3-a391-b932d0bb66c8","ios":"levelo://app?vid=b98614fa-a351-4cb3-a391-b932d0bb66c8"},"vehicle_type_id":"4","last_reported":1738926445,"current_range_meters":17200,"station_id":"ce4bhah2rcd13ifvqei0","pricing_plan_id":"cebpf4jnsgd1na2vs0mg"},{"bike_id":"ed7e7ad0-5cb0-46c0-b26f-7e6a29732a1c","system_id":"levelo_inurba_marseille","lat":43.299628,"lon":5.413263,"is_reserved":false,"is_disabled":false,"rental_uris":{"android":"levelo://app?vid=ed7e7ad0-5cb0-46c0-b26f-7e6a29732a1c","ios":"levelo://app?vid=ed7e7ad0-5cb0-46c0-b26f-7e6a29732a1c"},"vehicle_type_id":"4","last_reported":1738926445,"current_range_meters":38800,"station_id":"ce4bhp12rcd13ifvqh9g","pricing_plan_id":"cebpf4jnsgd1na2vs0mg"},{"bike_id":"fe146960-7d51-43a8-8d5f-97dd150b0e2d","system_id":"levelo_inurba_marseille","lat":43.26054,"lon":5.39404,"is_reserved":false,"is_disabled":false,"rental_uris":{"android":"levelo://app?vid=fe146960-7d51-43a8-8d5f-97dd150b0e2d","ios":"levelo://app?vid=fe146960-7d51-43a8-8d5f-97dd150b0e2d"},"vehicle_type_id":"4","last_reported":1738926445,"current_range_meters":38800,"station_id":"ce4bhh92rcd13ifvqfj0","pricing_plan_id":"cebpf4jnsgd1na2vs0mg"},{"bike_id":"20a0debd-d939-4c2a-b08f-6028cb9297fa","system_id":"levelo_inurba_marseille","lat":43.30146,"lon":5.38112,"is_reserved":false,"is_disabled":false,"rental_uris":{"android":"levelo://app?vid=20a0debd-d939-4c2a-b08f-6028cb9297fa","ios":"levelo://app?vid=20a0debd-d939-4c2a-b08f-6028cb9297fa"},"vehicle_type_id":"4","last_reported":1738926445,"current_range_meters":30400,"station_id":"ce4bgjp2rcd13ifvqbh0","pricing_plan_id":"cebpf4jnsgd1na2vs0mg"},{"bike_id":"79eab85b-411d-47b7-ba8c-c70679ea549f","system_id":"levelo_inurba_marseille","lat":43.25453,"lon":5.38471,"is_reserved":false,"is_disabled":false,"rental_uris":{"android":"levelo://app?vid=79eab85b-411d-47b7-ba8c-c70679ea549f","ios":"levelo://app?vid=79eab85b-411d-47b7-ba8c-c70679ea549f"},"vehicle_type_id":"4","last_reported":1738926445,"current_range_meters":38400,"station_id":"","pricing_plan_id":"cebpf4jnsgd1na2vs0mg"},{"bike_id":"bec99846-c6d9-4983-8a05-58ed5efc4a7e","system_id":"levelo_inurba_marseille","lat":43.30521,"lon":5.36713,"is_reserved":false,"is_disabled":false,"rental_uris":{"android":"levelo://app?vid=bec99846-c6d9-4983-8a05-58ed5efc4a7e","ios":"levelo://app?vid=bec99846-c6d9-4983-8a05-58ed5efc4a7e"},"vehicle_type_id":"4","last_reported":1738926445,"current_range_meters":39200,"station_id":"ce4bgrp2rcd13ifvqc9g","pricing_plan_id":"cebpf4jnsgd1na2vs0mg"},{"bike_id":"0b1868a8-af44-41b2-ad81-b59c1c92136a","system_id":"levelo_inurba_marseille","lat":43.30544,"lon":5.36527,"is_reserved":false,"is_disabled":false,"rental_uris":{"android":"levelo://app?vid=0b1868a8-af44-41b2-ad81-b59c1c92136a","ios":"levelo://app?vid=0b1868a8-af44-41b2-ad81-b59c1c92136a"},"vehicle_type_id":"4","last_reported":1738926445,"current_range_meters":30000,"station_id":"ce4bgs12rcd13ifvqcag","pricing_plan_id":"cebpf4jnsgd1na2vs0mg"},{"bike_id":"341067f4-d7ed-4f99-954f-691c64a92e97","system_id":"levelo_inurba_marseille","lat":43.231946,"lon":5.399804,"is_reserved":false,"is_disabled":false,"rental_uris":{"android":"levelo://app?vid=341067f4-d7ed-4f99-954f-691c64a92e97","ios":"levelo://app?vid=341067f4-d7ed-4f99-954f-691c64a92e97"},"vehicle_type_id":"4","last_reported":1738926445,"current_range_meters":14400,"station_id":"ce4bhn12rcd13ifvqgqg","pricing_plan_id":"cebpf4jnsgd1na2vs0mg"},{"bike_id":"a0135d25-98cd-4526-b4b5-a4aed5a02ea2","system_id":"levelo_inurba_marseille","lat":43.30319,"lon":5.40435,"is_reserved":false,"is_disabled":false,"rental_uris":{"android":"levelo://app?vid=a0135d25-98cd-4526-b4b5-a4aed5a02ea2","ios":"levelo://app?vid=a0135d25-98cd-4526-b4b5-a4aed5a02ea2"},"vehicle_type_id":"4","last_reported":1738926445,"current_range_meters":32000,"station_id":"ce4bh012rcd13ifvqd10","pricing_plan_id":"cebpf4jnsgd1na2vs0mg"},{"bike_id":"9e1aad70-5c7d-4b09-82f0-976f7e5aefeb","system_id":"levelo_inurba_marseille","lat":43.30171,"lon":5.3808,"is_reserved":false,"is_disabled":false,"rental_uris":{"android":"levelo://app?vid=9e1aad70-5c7d-4b09-82f0-976f7e5aefeb","ios":"levelo://app?vid=9e1aad70-5c7d-4b09-82f0-976f7e5aefeb"},"vehicle_type_id":"4","last_reported":1738926445,"current_range_meters":10000,"station_id":"ce4bgjp2rcd13ifvqbh0","pricing_plan_id":"cebpf4jnsgd1na2vs0mg"},{"bike_id":"a95cf637-2c24-4b07-9685-7d2b46d8531a","system_id":"levelo_inurba_marseille","lat":43.30204,"lon":5.39486,"is_reserved":false,"is_disabled":false,"rental_uris":{"android":"levelo://app?vid=a95cf637-2c24-4b07-9685-7d2b46d8531a","ios":"levelo://app?vid=a95cf637-2c24-4b07-9685-7d2b46d8531a"},"vehicle_type_id":"4","last_reported":1738926445,"current_range_meters":38800,"station_id":"ce4bh0p2rcd13ifvqd70","pricing_plan_id":"cebpf4jnsgd1na2vs0mg"},{"bike_id":"c221e44a-284e-41d8-9c2e-38b65c045ea0","system_id":"levelo_inurba_marseille","lat":43.29293,"lon":5.37455,"is_reserved":false,"is_disabled":false,"rental_uris":{"android":"levelo://app?vid=c221e44a-284e-41d8-9c2e-38b65c045ea0","ios":"levelo://app?vid=c221e44a-284e-41d8-9c2e-38b65c045ea0"},"vehicle_type_id":"4","last_reported":1738926445,"current_range_meters":35200,"station_id":"ce4bgi12rcd13ifvqb70","pricing_plan_id":"cebpf4jnsgd1na2vs0mg"},{"bike_id":"d39a2685-ff1f-4a95-b7fe-802902b67914","system_id":"levelo_inurba_marseille","lat":43.320968,"lon":5.367759,"is_reserved":false,"is_disabled":false,"rental_uris":{"android":"levelo://app?vid=d39a2685-ff1f-4a95-b7fe-802902b67914","ios":"levelo://app?vid=d39a2685-ff1f-4a95-b7fe-802902b67914"},"vehicle_type_id":"4","last_reported":1738926445,"current_range_meters":25200,"station_id":"ce4bhrh2rcd13ifvqhug","pricing_plan_id":"cebpf4jnsgd1na2vs0mg"},{"bike_id":"bbf0701a-4b1a-4f1a-88cd-be3e8c2febd0","system_id":"levelo_inurba_marseille","lat":43.2591,"lon":5.4091,"is_reserved":false,"is_disabled":false,"rental_uris":{"android":"levelo://app?vid=bbf0701a-4b1a-4f1a-88cd-be3e8c2febd0","ios":"levelo://app?vid=bbf0701a-4b1a-4f1a-88cd-be3e8c2febd0"},"vehicle_type_id":"4","last_reported":1738926445,"current_range_meters":13600,"station_id":"ce4bhm92rcd13ifvqglg","pricing_plan_id":"cebpf4jnsgd1na2vs0mg"},{"bike_id":"0ab57b8a-d6ed-411e-8a39-e198fab37e1b","system_id":"levelo_inurba_marseille","lat":43.32292,"lon":5.38273,"is_reserved":false,"is_disabled":false,"rental_uris":{"android":"levelo://app?vid=0ab57b8a-d6ed-411e-8a39-e198fab37e1b","ios":"levelo://app?vid=0ab57b8a-d6ed-411e-8a39-e198fab37e1b"},"vehicle_type_id":"4","last_reported":1738926445,"current_range_meters":38800,"station_id":"ce4bhr12rcd13ifvqhqg","pricing_plan_id":"cebpf4jnsgd1na2vs0mg"},{"bike_id":"552ac4ac-6cc9-42ae-84ac-4c1533da5339","system_id":"levelo_inurba_marseille","lat":43.25493,"lon":5.37652,"is_reserved":false,"is_disabled":false,"rental_uris":{"android":"levelo://app?vid=552ac4ac-6cc9-42ae-84ac-4c1533da5339","ios":"levelo://app?vid=552ac4ac-6cc9-42ae-84ac-4c1533da5339"},"vehicle_type_id":"4","last_reported":1738926445,"current_range_meters":38800,"station_id":"ce4bhh12rcd13ifvqff0","pricing_plan_id":"cebpf4jnsgd1na2vs0mg"},{"bike_id":"55ed15b7-859f-455a-a68b-295f6721310b","system_id":"levelo_inurba_marseille","lat":43.27137,"lon":5.36285,"is_reserved":false,"is_disabled":false,"rental_uris":{"android":"levelo://app?vid=55ed15b7-859f-455a-a68b-295f6721310b","ios":"levelo://app?vid=55ed15b7-859f-455a-a68b-295f6721310b"},"vehicle_type_id":"4","last_reported":1738926445,"current_range_meters":36000,"station_id":"","pricing_plan_id":"cebpf4jnsgd1na2vs0mg"},{"bike_id":"33ceb6eb-6fa3-404c-9ec6-f07789a1efc6","system_id":"levelo_inurba_marseille","lat":43.28484,"lon":5.3845,"is_reserved":false,"is_disabled":true,"rental_uris":{"android":"levelo://app?vid=33ceb6eb-6fa3-404c-9ec6-f07789a1efc6","ios":"levelo://app?vid=33ceb6eb-6fa3-404c-9ec6-f07789a1efc6"},"vehicle_type_id":"4","last_reported":1738926445,"current_range_meters":36800,"station_id":"ce4bh512rcd13ifvqe3g","pricing_plan_id":"cebpf4jnsgd1na2vs0mg"},{"bike_id":"325b55aa-3b7e-4931-85ad-a3e8f792578d","system_id":"levelo_inurba_marseille","lat":43.28252,"lon":5.35083,"is_reserved":false,"is_disabled":false,"rental_uris":{"android":"levelo://app?vid=325b55aa-3b7e-4931-85ad-a3e8f792578d","ios":"levelo://app?vid=325b55aa-3b7e-4931-85ad-a3e8f792578d"},"vehicle_type_id":"4","last_reported":1738926445,"current_range_meters":37600,"station_id":"ce4bhbp2rcd13ifvqerg","pricing_plan_id":"cebpf4jnsgd1na2vs0mg"},{"bike_id":"63a9cb93-7594-40f5-b3a3-b3c860b48d0d","system_id":"levelo_inurba_marseille","lat":43.29259,"lon":5.38447,"is_reserved":false,"is_disabled":false,"rental_uris":{"android":"levelo://app?vid=63a9cb93-7594-40f5-b3a3-b3c860b48d0d","ios":"levelo://app?vid=63a9cb93-7594-40f5-b3a3-b3c860b48d0d"},"vehicle_type_id":"4","last_reported":1738926445,"current_range_meters":38400,"station_id":"ce4bh692rcd13ifvqea0","pricing_plan_id":"cebpf4jnsgd1na2vs0mg"},{"bike_id":"8acf8313-df0d-40c0-b731-0bb51e68a49e","system_id":"levelo_inurba_marseille","lat":43.3092,"lon":5.36852,"is_reserved":false,"is_disabled":false,"rental_uris":{"android":"levelo://app?vid=8acf8313-df0d-40c0-b731-0bb51e68a49e","ios":"levelo://app?vid=8acf8313-df0d-40c0-b731-0bb51e68a49e"},"vehicle_type_id":"4","last_reported":1738926445,"current_range_meters":27600,"station_id":"","pricing_plan_id":"cebpf4jnsgd1na2vs0mg"},