{"last_updated":1740399499,"ttl":60,"version":"2.2","data":{"bikes":[{"bike_id":"07217db7-bd64-40f4-b79d-9a31fdd5ad2c","system_id":"levelo_inurba_marseille","lat":43.28932,"lon":5.36397,"is_reserved":false,"is_disabled":false,"rental_uris":{"android":"levelo://app?vid=07217db7-bd64-40f4-b79d-9a31fdd5ad2c","ios":"levelo://app?vid=07217db7-bd64-40f4-b79d-9a31fdd5ad2c"},"vehicle_type_id":"4","last_reported":1740399499,"current_range_meters":2800,"station_id":"ce4bhc92rcd13ifvqetg","pricing_plan_id":"cebpf4jnsgd1na2vs0mg"},{"bike_id":"5de23fb7-3eae-42bf-9301-f28b9a95bd5e","system_id":"levelo_inurba_marseille","lat":43.24346,"lon":5.37984,"is_reserved":false,"is_disabled":false,"rental_uris":{"android":"levelo://app?vid=5de23fb7-3eae-42bf-9301-f28b9a95bd5e","ios":"levelo://app?vid=5de23fb7-3eae-42bf-9301-f28b9a95bd5e"},"vehicle_type_id":"4","last_reported":1740399499,"current_range_meters":3200,"station_id":"","pricing_plan_id":"cebpf4jnsgd1na2vs0mg"},{"bike_id":"a971344c-4c32-4552-bae2-6e1231905859","system_id":"levelo_inurba_marseille","lat":43.29604,"lon":5.37113,"is_reserved":false,"is_disabled":false,"rental_uris":{"android":"levelo://app?vid=a971344c-4c32-4552-bae2-6e1231905859","ios":"levelo://app?vid=a971344c-4c32-4552-bae2-6e1231905859"},"vehicle_type_id":"4","last_reported":1740399499,"current_range_meters":3600,"station_id":"ce4bgnh2rcd13ifvqc0g","pricing_plan_id":"cebpf4jnsgd1na2vs0mg"},{"bike_id":"46b6aad1-7138-4a90-8d09-f178f7c99367","system_id":"levelo_inurba_marseille","lat":43.28934,"lon":5.36379,"is_reserved":false,"is_disabled":false,"rental_uris":{"android":"levelo://app?vid=46b6aad1-7138-4a90-8d09-f178f7c99367","ios":"levelo://app?vid=46b6aad1-7138-4a90-8d09-f178f7c99367"},"vehicle_type_id":"4","last_reported":1740399499,"current_range_meters":4000,"station_id":"ce4bhc92rcd13ifvqetg","pricing_plan_id":"cebpf4jnsgd1na2vs0mg"},{"bike_id":"23f648b1-f292-44d0-ac0b-814281ff3a52","system_id":"levelo_inurba_marseille","lat":43.28937,"lon":5.36638,"is_reserved":false,"is_disabled":false,"rental_uris":{"android":"levelo://app?vid=23f648b1-f292-44d0-ac0b-814281ff3a52","ios":"levelo://app?vid=23f648b1-f292-44d0-ac0b-814281ff3a52"},"vehicle_type_id":"4","last_reported":1740399499,"current_range_meters":4400,"station_id":"ce4bhap2rcd13ifvqek0","pricing_plan_id":"cebpf4jnsgd1na2vs0mg"},{"bike_id":"46b6b18d-c051-4bd1-87f6-d7ded26cc731","system_id":"levelo_inurba_marseille","lat":43.3051,"lon":5.37329,"is_reserved":false,"is_disabled":true,"rental_uris":{"android":"levelo://app?vid=46b6b18d-c051-4bd1-87f6-d7ded26cc731","ios":"levelo://app?vid=46b6b18d-c051-4bd1-87f6-d7ded26cc731"},"vehicle_type_id":"4","last_reported":1740399499,"current_range_meters":4400,"station_id":"","pricing_plan_id":"cebpf4jnsgd1na2vs0mg"},{"bike_id":"f5af216d-2ead-4b1c-9466-8e97115c7880","system_id":"levelo_inurba_marseille","lat":43.30552,"lon":5.36549,"is_reserved":false,"is_disabled":false,"rental_uris":{"android":"levelo://app?vid=f5af216d-2ead-4b1c-9466-8e97115c7880","ios":"levelo://app?vid=f5af216d-2ead-4b1c-9466-8e97115c7880"},"vehicle_type_id":"4","last_reported":1740399499,"current_range_meters":4400,"station_id":"ce4bgs12rcd13ifvqcag","pricing_plan_id":"cebpf4jnsgd1na2vs0mg"},{"bike_id":"d28f80dc-b1c8-465b-8fb1-79d126f3de38","system_id":"levelo_inurba_marseille","lat":43.29613,"lon":5.38108,"is_reserved":false,"is_disabled":false,"rental_uris":{"android":"levelo://app?vid=d28f80dc-b1c8-465b-8fb1-79d126f3de38","ios":"levelo://app?vid=d28f80dc-b1c8-465b-8fb1-79d126f3de38"},"vehicle_type_id":"4","last_reported":1740399499,"current_range_meters":4800,"station_id":"ce4bgl12rcd13ifvqbo0","pricing_plan_id":"cebpf4jnsgd1na2vs0mg"},{"bike_id":"b6e09ba5-369c-40af-962e-77b569c2acf5","system_id":"levelo_inurba_marseille","lat":43.31706,"lon":5.37732,"is_reserved":false,"is_disabled":false,"rental_uris":{"android":"levelo://app?vid=b6e09ba5-369c-40af-962e-77b569c2acf5","ios":"levelo://app?vid=b6e09ba5-369c-40af-962e-77b569c2acf5"},"vehicle_type_id":"4","last_reported":1740399499,"current_range_meters":4800,"station_id":"ce4bgth2rcd13ifvqch0","pricing_plan_id":"cebpf4jnsgd1na2vs0mg"},{"bike_id":"e83d5ace-a253-4760-9e0d-e8ba85478b71","system_id":"levelo_inurba_marseille","lat":43.30606,"lon":5.39332,"is_reserved":false,"is_disabled":false,"rental_uris":{"android":"levelo://app?vid=e83d5ace-a253-4760-9e0d-e8ba85478b71","ios":"levelo://app?vid=e83d5ace-a253-4760-9e0d-e8ba85478b71"},"vehicle_type_id":"4","last_reported":1740399499,"current_range_meters":3200,"station_id":"ce4bh0p2rcd13ifvqd80","pricing_plan_id":"cebpf4jnsgd1na2vs0mg"},{"bike_id":"f1075aed-0c1f-4362-b184-4e5bc77fa624","system_id":"levelo_inurba_marseille","lat":43.31249,"lon":5.3685,"is_reserved":false,"is_disabled":false,"rental_uris":{"android":"levelo://app?vid=f1075aed-0c1f-4362-b184-4e5bc77fa624","ios":"levelo://app?vid=f1075aed-0c1f-4362-b184-4e5bc77fa624"},"vehicle_type_id":"4","last_reported":1740399499,"current_range_meters":1600,"station_id":"ce4bgl92rcd13ifvqbq0","pricing_plan_id":"cebpf4jnsgd1na2vs0mg"},{"bike_id":"7a93c541-3de7-458e-bf47-85e109f4fdd8","system_id":"levelo_inurba_marseille","lat":43.29877,"lon":5.3892,"is_reserved":false,"is_disabled":false,"rental_uris":{"android":"levelo://app?vid=7a93c541-3de7-458e-bf47-85e109f4fdd8","ios":"levelo://app?vid=7a93c541-3de7-458e-bf47-85e109f4fdd8"},"vehicle_type_id":"4","last_reported":1740399499,"current_range_meters":4800,"station_id":"ce4bh392rcd13ifvqdl0","pricing_plan_id":"cebpf4jnsgd1na2vs0mg"},{"bike_id":"648d3e50-8ac1-4e39-a7ae-aeb8266dcb2d","system_id":"levelo_inurba_marseille","lat":43.30215,"lon":5.39472,"is_reserved":false,"is_disabled":false,"rental_uris":{"android":"levelo://app?vid=648d3e50-8ac1-4e39-a7ae-aeb8266dcb2d","ios":"levelo://app?vid=648d3e50-8ac1-4e39-a7ae-aeb8266dcb2d"},"vehicle_type_id":"4","last_reported":1740399499,"current_range_meters":5600,"station_id":"ce4bh0p2rcd13ifvqd70","pricing_plan_id":"cebpf4jnsgd1na2vs0mg"},{"bike_id":"09da680d-c1dc-4be7-95a1-0892c30493e9","system_id":"levelo_inurba_marseille","lat":43.26556,"lon":5.37305,"is_reserved":false,"is_disabled":true,"rental_uris":{"android":"levelo://app?vid=09da680d-c1dc-4be7-95a1-0892c30493e9","ios":"levelo://app?vid=09da680d-c1dc-4be7-95a1-0892c30493e9"},"vehicle_type_id":"4","last_reported":1740399499,"current_range_meters":5600,"station_id":"ce4bhg12rcd13ifvqf70","pricing_plan_id":"cebpf4jnsgd1na2vs0mg"},{"bike_id":"bc327d57-9835-4f93-a7fa-33e763eace96","system_id":"levelo_inurba_marseille","lat":43.28715,"lon":5.37929,"is_reserved":false,"is_disabled":false,"rental_uris":{"android":"levelo://app?vid=bc327d57-9835-4f93-a7fa-33e763eace96","ios":"levelo://app?vid=bc327d57-9835-4f93-a7fa-33e763eace96"},"vehicle_type_id":"4","last_reported":1740399499,"current_range_meters":4800,"station_id":"ce4bh9p2rcd13ifvqec0","pricing_plan_id":"cebpf4jnsgd1na2vs0mg"},{"bike_id":"4065208e-2592-492d-8226-700f8a2f5c00","system_id":"levelo_inurba_marseille","lat":43.28614,"lon":5.35103,"is_reserved":false,"is_disabled":false,"rental_uris":{"android":"levelo://app?vid=4065208e-2592-492d-8226-700f8a2f5c00","ios":"levelo://app?vid=4065208e-2592-492d-8226-700f8a2f5c00"},"vehicle_type_id":"4","last_reported":1740399499,"current_range_meters":5600,"station_id":"ce4bhch2rcd13ifvqeug","pricing_plan_id":"cebpf4jnsgd1na2vs0mg"},{"bike_id":"413dc171-4546-4050-9354-c607ae4433bf","system_id":"levelo_inurba_marseille","lat":43.30126,"lon":5.39578,"is_reserved":false,"is_disabled":true,"rental_uris":{"android":"levelo://app?vid=413dc171-4546-4050-9354-c607ae4433bf","ios":"levelo://app?vid=413dc171-4546-4050-9354-c607ae4433bf"},"vehicle_type_id":"4","last_reported":1740399499,"current_range_meters":6400,"station_id":"","pricing_plan_id":"cebpf4jnsgd1na2vs0mg"},{"bike_id":"382e5233-5cfe-4334-a0f3-a3461ab2933c","system_id":"levelo_inurba_marseille","lat":43.30559,"lon":5.36684,"is_reserved":false,"is_disabled":false,"rental_uris":{"android":"levelo://app?vid=382e5233-5cfe-4334-a0f3-a3461ab2933c","ios":"levelo://app?vid=382e5233-5cfe-4334-a0f3-a3461ab2933c"},"vehicle_type_id":"4","last_reported":1740399499,"current_range_meters":6400,"station_id":"ce4bgrp2rcd13ifvqc9g","pricing_plan_id":"cebpf4jnsgd1na2vs0mg"},{"bike_id":"20706f49-707e-4dc7-bdfd-5eebc60f358c","system_id":"levelo_inurba_marseille","lat":43.24163,"lon":5.3642,"is_reserved":false,"is_disabled":false,"rental_uris":{"android":"levelo://app?vid=20706f49-707e-4dc7-bdfd-5eebc60f358c","ios":"levelo://app?vid=20706f49-707e-4dc7-bdfd-5eebc60f358c"},"vehicle_type_id":"4","last_reported":1740399499,"current_range_meters":6800,"station_id":"cpo36qri1sfpv3e86is0","pricing_plan_id":"cebpf4jnsgd1na2vs0mg"},{"bike_id":"39228e71-e322-4459-b828-d84a825a576f","system_id":"levelo_inurba_marseille","lat":43.24996,"lon":5.38936,"is_reserved":false,"is_disabled":false,"rental_uris":{"android":"levelo://app?vid=39228e71-e322-4459-b828-d84a825a576f","ios":"levelo://app?vid=39228e71-e322-4459-b828-d84a825a576f"},"vehicle_type_id":"4","last_reported":1740399499,"current_range_meters":6000,"station_id":"ce4bhgp2rcd13ifvqfd0","pricing_plan_id":"cebpf4jnsgd1na2vs0mg"},{"bike_id":"2675431b-bcdf-4508-b8eb-eea4be9250f7","system_id":"levelo_inurba_marseille","lat":43.264893,"lon":5.395646,"is_reserved":false,"is_disabled":false,"rental_uris":{"android":"levelo://app?vid=2675431b-bcdf-4508-b8eb-eea4be9250f7","ios":"levelo://app?vid=2675431b-bcdf-4508-b8eb-eea4be9250f7"},"vehicle_type_id":"4","last_reported":1740399499,"current_range_meters":6800,"station_id":"ce4bhi12rcd13ifvqfq0","pricing_plan_id":"cebpf4jnsgd1na2vs0mg"},{"bike_id":"90df2f38-669c-48e4-aa95-258b0a030130","system_id":"levelo_inurba_marseille","lat":43.31266,"lon":5.36885,"is_reserved":false,"is_disabled":false,"rental_uris":{"android":"levelo://app?vid=90df2f38-669c-48e4-aa95-258b0a030130","ios":"levelo://app?vid=90df2f38-669c-48e4-aa95-258b0a030130"},"vehicle_type_id":"4","last_reported":1740399499,"current_range_meters":6800,"station_id":"","pricing_plan_id":"cebpf4jnsgd1na2vs0mg"},{"bike_id":"3095385b-d4a0-4cfe-b50e-c3aacbb0c915","system_id":"levelo_inurba_marseille","lat":43.26031,"lon":5.37553,"is_reserved":false,"is_disabled":false,"rental_uris":{"android":"levelo://app?vid=3095385b-d4a0-4cfe-b50e-c3aacbb0c915","ios":"levelo://app?vid=3095385b-d4a0-4cfe-b50e-c3aacbb0c915"},"vehicle_type_id":"4","last_reported":1740399499,"current_range_meters":8000,"station_id":"ce4bhgh2rcd13ifvqfa0","pricing_plan_id":"cebpf4jnsgd1na2vs0mg"},{"bike_id":"11d3080c-a700-4e5c-9646-a3cf723700c6","system_id":"levelo_inurba_marseille","lat":43.29001,"lon":5.35616,"is_reserved":false,"is_disabled":false,"rental_uris":{"android":"levelo://app?vid=11d3080c-a700-4e5c-9646-a3cf723700c6","ios":"levelo://app?vid=11d3080c-a700-4e5c-9646-a3cf723700c6"},"vehicle_type_id":"4","last_reported":1740399499,"current_range_meters":7200,"station_id":"ce4bhb92rcd13ifvqen0","pricing_plan_id":"cebpf4jnsgd1na2vs0mg"},{"bike_id":"75701ab5-3895-4c0e-abaf-4b048512e01b","system_id":"levelo_inurba_marseille","lat":43.30217,"lon":5.3948,"is_reserved":false,"is_disabled":false,"rental_uris":{"android":"levelo://app?vid=75701ab5-3895-4c0e-abaf-4b048512e01b","ios":"levelo://app?vid=75701ab5-3895-4c0e-abaf-4b048512e01b"},"vehicle_type_id":"4","last_reported":1740399499,"current_range_meters":7200,"station_id":"ce4bh0p2rcd13ifvqd70","pricing_plan_id":"cebpf4jnsgd1na2vs0mg"},{"bike_id":"80db1b4f-c760-4c08-9e24-fb96115d5e2c","system_id":"levelo_inurba_marseille","lat":43.32109,"lon":5.36825,"is_reserved":false,"is_disabled":false,"rental_uris":{"android":"levelo://app?vid=80db1b4f-c760-4c08-9e24-fb96115d5e2c","ios":"levelo://app?vid=80db1b4f-c760-4c08-9e24-fb96115d5e2c"},"vehicle_type_id":"4","last_reported":1740399499,"current_range_meters":3200,"station_id":"ce4bhrh2rcd13ifvqhug","pricing_plan_id":"cebpf4jnsgd1na2vs0mg"},{"bike_id":"14687c58-ddd7-4a83-9004-77919a344842","system_id":"levelo_inurba_marseille","lat":43.32489,"lon":5.36563,"is_reserved":false,"is_disabled":false,"rental_uris":{"android":"levelo://app?vid=14687c58-ddd7-4a83-9004-77919a344842","ios":"levelo://app?vid=14687c58-ddd7-4a83-9004-77919a344842"},"vehicle_type_id":"4","last_reported":1740399499,"current_range_meters":8000,"station_id":"ce4bhs12rcd13ifvqhvg","pricing_plan_id":"cebpf4jnsgd1na2vs0mg"},{"bike_id":"9c8e0b65-daa9-4b83-9c06-e5ebecb69fed","system_id":"levelo_inurba_marseille","lat":43.30611,"lon":5.37223,"is_reserved":false,"is_disabled":false,"rental_uris":{"android":"levelo://app?vid=9c8e0b65-daa9-4b83-9c06-e5ebecb69fed","ios":"levelo://app?vid=9c8e0b65-daa9-4b83-9c06-e5ebecb69fed"},"vehicle_type_id":"4","last_reported":1740399499,"current_range_meters":8400,"station_id":"ce4bgqh2rcd13ifvqc4g","pricing_plan_id":"cebpf4jnsgd1na2vs0mg"},{"bike_id":"e1e622b7-94b9-4227-9056-d889e47df6c3","system_id":"levelo_inurba_marseille","lat":43.23183,"lon":5.39999,"is_reserved":false,"is_disabled":false,"rental_uris":{"android":"levelo://app?vid=e1e622b7-94b9-4227-9056-d889e47df6c3","ios":"levelo://app?vid=e1e622b7-94b9-4227-9056-d889e47df6c3"},"vehicle_type_id":"4","last_reported":1740399499,"current_range_meters":8400,"station_id":"ce4bhn12rcd13ifvqgqg","pricing_plan_id":"cebpf4jnsgd1na2vs0mg"},{"bike_id":"c1a7b9fc-f9d9-43fe-a6d2-2df1526ca53b","system_id":"levelo_inurba_marseille","lat":43.25597,"lon":5.38295,"is_reserved":false,"is_disabled":false,"rental_uris":{"android":"levelo://app?vid=c1a7b9fc-f9d9-43fe-a6d2-2df1526ca53b","ios":"levelo://app?vid=c1a7b9fc-f9d9-43fe-a6d2-2df1526ca53b"},"vehicle_type_id":"4","last_reported":1740399499,"current_range_meters":8400,"station_id":"","pricing_plan_id":"cebpf4jnsgd1na2vs0mg"},{"bike_id":"dc1fae4a-9c79-41cf-8bc7-73a2b69b4ca1","system_id":"levelo_inurba_marseille","lat":43.29193,"lon":5.39994,"is_reserved":false,"is_disabled":false,"rental_uris":{"android":"levelo://app?vid=dc1fae4a-9c79-41cf-8bc7-73a2b69b4ca1","ios":"levelo://app?vid=dc1fae4a-9c79-41cf-8bc7-73a2b69b4ca1"},"vehicle_type_id":"4","last_reported":1740399499,"current_range_meters":8400,"station_id":"","pricing_plan_id":"cebpf4jnsgd1na2vs0mg"},{"bike_id":"4941ab44-467c-43d2-b276-cdb1e8c96b3d","system_id":"levelo_inurba_marseille","lat":43.2732,"lon":5.39075,"is_reserved":false,"is_disabled":false,"rental_uris":{"android":"levelo://app?vid=4941ab44-467c-43d2-b276-cdb1e8c96b3d","ios":"levelo://app?vid=4941ab44-467c-43d2-b276-cdb1e8c96b3d"},"vehicle_type_id":"4","last_reported":1740399499,"current_range_meters":8000,"station_id":"ce4bhgp2rcd13ifvqfe0","pricing_plan_id":"cebpf4jnsgd1na2vs0mg"},{"bike_id":"9df8b5dc-3c3f-4b2f-b5f1-0fcba17542e8","system_id":"levelo_inurba_marseille","lat":43.29716,"lon":5.36621,"is_reserved":false,"is_disabled":false,"rental_uris":{"android":"levelo://app?vid=9df8b5dc-3c3f-4b2f-b5f1-0fcba17542e8","ios":"levelo://app?vid=9df8b5dc-3c3f-4b2f-b5f1-0fcba17542e8"},"vehicle_type_id":"4","last_reported":1740399499,"current_range_meters":8400,"station_id":"ce4bgn12rcd13ifvqbt0","pricing_plan_id":"cebpf4jnsgd1na2vs0mg"},{"bike_id":"bd1c9204-109d-453d-a655-cc2878aad0c5","system_id":"levelo_inurba_marseille","lat":43.29905,"lon":5.43668,"is_reserved":false,"is_disabled":false,"rental_uris":{"android":"levelo://app?vid=bd1c9204-109d-453d-a655-cc2878aad0c5","ios":"levelo://app?vid=bd1c9204-109d-453d-a655-cc2878aad0c5"},"vehicle_type_id":"4","last_reported":1740399499,"current_range_meters":8800,"station_id":"ce4bhpp2rcd13ifvqhfg","pricing_plan_id":"cebpf4jnsgd1na2vs0mg"},{"bike_id":"c2cb75d2-1cc0-4bb8-8462-295d51cf471c","system_id":"levelo_inurba_marseille","lat":43.2501,"lon":5.38921,"is_reserved":false,"is_disabled":false,"rental_uris":{"android":"levelo://app?vid=c2cb75d2-1cc0-4bb8-8462-295d51cf471c","ios":"levelo://app?vid=c2cb75d2-1cc0-4bb8-8462-295d51cf471c"},"vehicle_type_id":"4","last_reported":1740399499,"current_range_meters":8800,"station_id":"ce4bhgp2rcd13ifvqfd0","pricing_plan_id":"cebpf4jnsgd1na2vs0mg"},{"bike_id":"6d0f173c-44de-433f-bc7c-15663f711133","system_id":"levelo_inurba_marseille","lat":43.31112,"lon":5.37736,"is_reserved":false,"is_disabled":true,"rental_uris":{"android":"levelo://app?vid=6d0f173c-44de-433f-bc7c-15663f711133","ios":"levelo://app?vid=6d0f173c-44de-433f-bc7c-15663f711133"},"vehicle_type_id":"4","last_reported":1740399499,"current_range_meters":8800,"station_id":"ce4bgt92rcd13ifvqcg0","pricing_plan_id":"cebpf4jnsgd1na2vs0mg"},{"bike_id":"1e02fef8-5fd4-407c-af05-3bfb83b6bd78","system_id":"levelo_inurba_marseille","lat":43.32128,"lon":5.36739,"is_reserved":false,"is_disabled":false,"rental_uris":{"android":"levelo://app?vid=1e02fef8-5fd4-407c-af05-3bfb83b6bd78","ios":"levelo://app?vid=1e02fef8-5fd4-407c-af05-3bfb83b6bd78"},"vehicle_type_id":"4","last_reported":1740399499,"current_range_meters":9200,"station_id":"ce4bhrh2rcd13ifvqhug","pricing_plan_id":"cebpf4jnsgd1na2vs0mg"},{"bike_id":"1b0ba662-1378-4a7f-8019-7c3e04ab5162","system_id":"levelo_inurba_marseille","lat":43.28152,"lon":5.42636,"is_reserved":false,"is_disabled":false,"rental_uris":{"android":"levelo://app?vid=1b0ba662-1378-4a7f-8019-7c3e04ab5162","ios":"levelo://app?vid=1b0ba662-1378-4a7f-8019-7c3e04ab5162"},"vehicle_type_id":"4","last_reported":1740399499,"current_range_meters":9200,"station_id":"ce4bhnh2rcd13ifvqgug","pricing_plan_id":"cebpf4jnsgd1na2vs0mg"},{"bike_id":"b67cd77b-3ddb-44e1-ba6e-363c623fe15f","system_id":"levelo_inurba_marseille","lat":43.32556,"lon":5.41446,"is_reserved":false,"is_disabled":false,"rental_uris":{"android":"levelo://app?vid=b67cd77b-3ddb-44e1-ba6e-363c623fe15f","ios":"levelo://app?vid=b67cd77b-3ddb-44e1-ba6e-363c623fe15f"},"vehicle_type_id":"4","last_reported":1740399499,"current_range_meters":9200,"station_id":"ce4bhq12rcd13ifvqhhg","pricing_plan_id":"cebpf4jnsgd1na2vs0mg"},{"bike_id":"7e26a3e9-4c57-4918-aa17-698a0ce4ac78","system_id":"levelo_inurba_marseille","lat":43.306741,"lon":5.375266,"is_reserved":false,"is_disabled":false,"rental_uris":{"android":"levelo://app?vid=7e26a3e9-4c57-4918-aa17-698a0ce4ac78","ios":"levelo://app?vid=7e26a3e9-4c57-4918-aa17-698a0ce4ac78"},"vehicle_type_id":"4","last_reported":1740399499,"current_range_meters":9200,"station_id":"","pricing_plan_id":"cebpf4jnsgd1na2vs0mg"},{"bike_id":"d205081a-fefd-4fe8-8999-fd8844057bca","system_id":"levelo_inurba_marseille","lat":43.29847,"lon":5.362763,"is_reserved":false,"is_disabled":false,"rental_uris":{"android":"levelo://app?vid=d205081a-fefd-4fe8-8999-fd8844057bca","ios":"levelo://app?vid=d205081a-fefd-4fe8-8999-fd8844057bca"},"vehicle_type_id":"4","last_reported":1740399499,"current_range_meters":9200,"station_id":"ce4bgpp2rcd13ifvqc3g","pricing_plan_id":"cebpf4jnsgd1na2vs0mg"},{"bike_id":"87bbda1f-0db0-4d79-a046-a87b5e94995a","system_id":"levelo_inurba_marseille","lat":43.24176,"lon":5.36391,"is_reserved":false,"is_disabled":false,"rental_uris":{"android":"levelo://app?vid=87bbda1f-0db0-4d79-a046-a87b5e94995a","ios":"levelo://app?vid=87bbda1f-0db0-4d79-a046-a87b5e94995a"},"vehicle_type_id":"4","last_reported":1740399499,"current_range_meters":9600,"station_id":"cpo36qri1sfpv3e86is0","pricing_plan_id":"cebpf4jnsgd1na2vs0mg"},{"bike_id":"2dc35ebd-4c40-42ed-8d08-f04fbfa9cf0e","system_id":"levelo_inurba_marseille","lat":43.29291,"lon":5.40126,"is_reserved":false,"is_disabled":false,"rental_uris":{"android":"levelo://app?vid=2dc35ebd-4c40-42ed-8d08-f04fbfa9cf0e","ios":"levelo://app?vid=2dc35ebd-4c40-42ed-8d08-f04fbfa9cf0e"},"vehicle_type_id":"4","last_reported":1740399499,"current_range_meters":9600,"station_id":"ce4bh312rcd13ifvqdk0","pricing_plan_id":"cebpf4jnsgd1na2vs0mg"},{"bike_id":"2e43aed3-aa12-47d9-8590-cc3ce9ca5779","system_id":"levelo_inurba_marseille","lat":43.29615,"lon":5.38094,"is_reserved":false,"is_disabled":false,"rental_uris":{"android":"levelo://app?vid=2e43aed3-aa12-47d9-8590-cc3ce9ca5779","ios":"levelo://app?vid=2e43aed3-aa12-47d9-8590-cc3ce9ca5779"},"vehicle_type_id":"4","last_reported":1740399499,"current_range_meters":9600,"station_id":"ce4bgl12rcd13ifvqbo0","pricing_plan_id":"cebpf4jnsgd1na2vs0mg"},{"bike_id":"6b1f8f3e-45ef-456f-aaee-da935071e671","system_id":"levelo_inurba_marseille","lat":43.28283,"lon":5.35075,"is_reserved":false,"is_disabled":true,"rental_uris":{"android":"levelo://app?vid=6b1f8f3e-45ef-456f-aaee-da935071e671","ios":"levelo://app?vid=6b1f8f3e-45ef-456f-aaee-da935071e671"},"vehicle_type_id":"4","last_reported":1740399499,"current_range_meters":9600,"station_id":"ce4bhbp2rcd13ifvqerg","pricing_plan_id":"cebpf4jnsgd1na2vs0mg"},{"bike_id":"b86048c4-f305-4d68-ad78-087443649aaa","system_id":"levelo_inurba_marseille","lat":43.23152,"lon":5.43721,"is_reserved":false,"is_disabled":false,"rental_uris":{"android":"levelo://app?vid=b86048c4-f305-4d68-ad78-087443649aaa","ios":"levelo://app?vid=b86048c4-f305-4d68-ad78-087443649aaa"},"vehicle_type_id":"4","last_reported":1740399499,"current_range_meters":9200,"station_id":"ce4bhmp2rcd13ifvqgog","pricing_plan_id":"cebpf4jnsgd1na2vs0mg"},{"bike_id":"214abdbc-6efb-4674-a60d-2a5a4e72714d","system_id":"levelo_inurba_marseille","lat":43.30534,"lon":5.36705,"is_reserved":false,"is_disabled":false,"rental_uris":{"android":"levelo://app?vid=214abdbc-6efb-4674-a60d-2a5a4e72714d","ios":"levelo://app?vid=214abdbc-6efb-4674-a60d-2a5a4e72714d"},"vehicle_type_id":"4","last_reported":1740399499,"current_range_meters":10000,"station_id":"ce4bgrp2rcd13ifvqc9g","pricing_plan_id":"cebpf4jnsgd1na2vs0mg"},{"bike_id":"a8c1ac6e-4fe0-4484-9bf9-ba50ac4d6956","system_id":"levelo_inurba_marseille","lat":43.26507,"lon":5.3906,"is_reserved":false,"is_disabled":true,"rental_uris":{"android":"levelo://app?vid=a8c1ac6e-4fe0-4484-9bf9-ba50ac4d6956","ios":"levelo://app?vid=a8c1ac6e-4fe0-4484-9bf9-ba50ac4d6956"},"vehicle_type_id":"4","last_reported":1740399499,"current_range_meters":10000,"station_id":"ce4bhe12rcd13ifvqf30","pricing_plan_id":"cebpf4jnsgd1na2vs0mg"},{"bike_id":"20707589-78f3-4196-a31e-2fe35aadfe8c","system_id":"levelo_inurba_marseille","lat":43.24547,"lon":5.39532,"is_reserved":false,"is_disabled":false,"rental_uris":{"android":"levelo://app?vid=20707589-78f3-4196-a31e-2fe35aadfe8c","ios":"levelo://app?vid=20707589-78f3-4196-a31e-2fe35aadfe8c"},"vehicle_type_id":"4","last_reported":1740399499,"current_range_meters":10000,"station_id":"ce4bhlp2rcd13ifvqgjg","pricing_plan_id":"cebpf4jnsgd1na2vs0mg"},{"bike_id":"7764cb33-5426-4b94-909c-ac480986db17","system_id":"levelo_inurba_marseille","lat":43.29335,"lon":5.372584,"is_reserved":false,"is_disabled":false,"rental_uris":{"android":"levelo://app?vid=7764cb33-5426-4b94-909c-ac480986db17","ios":"levelo://app?vid=7764cb33-5426-4b94-909c-ac480986db17"},"vehicle_type_id":"4","last_reported":1740399499,"current_range_meters":10000,"station_id":"","pricing_plan_id":"cebpf4jnsgd1na2vs0mg"},{"bike_id":"677d3730-d5c3-402c-bcca-b17d61b0f031","system_id":"levelo_inurba_marseille","lat":43.313663,"lon":5.36654,"is_reserved":false,"is_disabled":false,"rental_uris":{"android":"levelo://app?vid=677d3730-d5c3-402c-bcca-b17d61b0f031","ios":"levelo://app?vid=677d3730-d5c3-402c-bcca-b17d61b0f031"},"vehicle_type_id":"4","last_reported":1740399499,"current_range_meters":12000,"station_id":"","pricing_plan_id":"cebpf4jnsgd1na2vs0mg"},{"bike_id":"54ff382f-82bc-49d4-beef-58195cb6c422","system_id":"levelo_inurba_marseille","lat":43.29288,"lon":5.40154,"is_reserved":false,"is_disabled":false,"rental_uris":{"android":"levelo://app?vid=54ff382f-82bc-49d4-beef-58195cb6c422","ios":"levelo://app?vid=54ff382f-82bc-49d4-beef-58195cb6c422"},"vehicle_type_id":"4","last_reported":1740399499,"current_range_meters":10000,"station_id":"ce4bh312rcd13ifvqdk0","pricing_plan_id":"cebpf4jnsgd1na2vs0mg"},{"bike_id":"6a3112f7-34bf-4b42-849d-216f33de370e","system_id":"levelo_inurba_marseille","lat":43.24078,"lon":5.37763,"is_reserved":false,"is_disabled":false,"rental_uris":{"android":"levelo://app?vid=6a3112f7-34bf-4b42-849d-216f33de370e","ios":"levelo://app?vid=6a3112f7-34bf-4b42-849d-216f33de370e"},"vehicle_type_id":"4","last_reported":1740399499,"current_range_meters":12400,"station_id":"ce4bhnp2rcd13ifvqgvg","pricing_plan_id":"cebpf4jnsgd1na2vs0mg"},{"bike_id":"216bb77f-c769-4011-8970-e66d63254aa2","system_id":"levelo_inurba_marseille","lat":43.29921,"lon":5.37863,"is_reserved":false,"is_disabled":false,"rental_uris":{"android":"levelo://app?vid=216bb77f-c769-4011-8970-e66d63254aa2","ios":"levelo://app?vid=216bb77f-c769-4011-8970-e66d63254aa2"},"vehicle_type_id":"4","last_reported":1740399499,"current_range_meters":10800,"station_id":"","pricing_plan_id":"cebpf4jnsgd1na2vs0mg"},{"bike_id":"8bb2615c-f15d-47cf-8d48-d20b360650e0","system_id":"levelo_inurba_marseille","lat":43.23349,"lon":5.435979,"is_reserved":false,"is_disabled":false,"rental_uris":{"android":"levelo://app?vid=8bb2615c-f15d-47cf-8d48-d20b360650e0","ios":"levelo://app?vid=8bb2615c-f15d-47cf-8d48-d20b360650e0"},"vehicle_type_id":"4","last_reported":1740399499,"current_range_meters":10800,"station_id":"ce4bhmp2rcd13ifvqgog","pricing_plan_id":"cebpf4jnsgd1na2vs0mg"},{"bike_id":"9b3c5fcf-7d3b-40fe-bf83-ea0c970275ee","system_id":"levelo_inurba_marseille","lat":43.31268,"lon":5.40171,"is_reserved":false,"is_disabled":false,"rental_uris":{"android":"levelo://app?vid=9b3c5fcf-7d3b-40fe-bf83-ea0c970275ee","ios":"levelo://app?vid=9b3c5fcf-7d3b-40fe-bf83-ea0c970275ee"},"vehicle_type_id":"4","last_reported":1740399499,"current_range_meters":10000,"station_id":"ce4bh092rcd13ifvqd30","pricing_plan_id":"cebpf4jnsgd1na2vs0mg"},{"bike_id":"b3daf4f4-b605-42a7-bd4b-531ddf848fbd","system_id":"levelo_inurba_marseille","lat":43.30821,"lon":5.38172,"is_reserved":false,"is_disabled":false,"rental_uris":{"android":"levelo://app?vid=b3daf4f4-b605-42a7-bd4b-531ddf848fbd","ios":"levelo://app?vid=b3daf4f4-b605-42a7-bd4b-531ddf848fbd"},"vehicle_type_id":"4","last_reported":1740399499,"current_range_meters":10800,"station_id":"ce4bgt12rcd13ifvqce0","pricing_plan_id":"cebpf4jnsgd1na2vs0mg"},{"bike_id":"6cd9e29c-750c-43f0-bd5a-a0573ca6f52d","system_id":"levelo_inurba_marseille","lat":43.25577,"lon":5.38227,"is_reserved":false,"is_disabled":false,"rental_uris":{"android":"levelo://app?vid=6cd9e29c-750c-43f0-bd5a-a0573ca6f52d","ios":"levelo://app?vid=6cd9e29c-750c-43f0-bd5a-a0573ca6f52d"},"vehicle_type_id":"4","last_reported":1740399499,"current_range_meters":11200,"station_id":"ce4bhih2rcd13ifvqfs0","pricing_plan_id":"cebpf4jnsgd1na2vs0mg"},{"bike_id":"44fede2a-2199-449f-b6ee-92cc56c6a359","system_id":"levelo_inurba_marseille","lat":43.29628,"lon":5.37164,"is_reserved":false,"is_disabled":false,"rental_uris":{"android":"levelo://app?vid=44fede2a-2199-449f-b6ee-92cc56c6a359","ios":"levelo://app?vid=44fede2a-2199-449f-b6ee-92cc56c6a359"},"vehicle_type_id":"4","last_reported":1740399499,"current_range_meters":11200,"station_id":"ce4bgnh2rcd13ifvqc0g","pricing_plan_id":"cebpf4jnsgd1na2vs0mg"},{"bike_id":"fbae922a-9748-4d3f-80df-8766e0572d04","system_id":"levelo_inurba_marseille","lat":43.26364,"lon":5.39603,"is_reserved":false,"is_disabled":false,"rental_uris":{"android":"levelo://app?vid=fbae922a-9748-4d3f-80df-8766e0572d04","ios":"levelo://app?vid=fbae922a-9748-4d3f-80df-8766e0572d04"},"vehicle_type_id":"4","last_reported":1740399499,"current_range_meters":11200,"station_id":"","pricing_plan_id":"cebpf4jnsgd1na2vs0mg"},{"bike_id":"af3b6082-e1d5-40a6-a684-cde66d4be0b0","system_id":"levelo_inurba_marseille","lat":43.23137,"lon":5.43725,"is_reserved":false,"is_disabled":false,"rental_uris":{"android":"levelo://app?vid=af3b6082-e1d5-40a6-a684-cde66d4be0b0","ios":"levelo://app?vid=af3b6082-e1d5-40a6-a684-cde66d4be0b0"},"vehicle_type_id":"4","last_reported":1740399499,"current_range_meters":11600,"station_id":"ce4bhmp2rcd13ifvqgog","pricing_plan_id":"cebpf4jnsgd1na2vs0mg"},{"bike_id":"243758a6-c08c-4f05-a708-338a05b43e7c","system_id":"levelo_inurba_marseille","lat":43.29571,"lon":5.36747,"is_reserved":false,"is_disabled":false,"rental_uris":{"android":"levelo://app?vid=243758a6-c08c-4f05-a708-338a05b43e7c","ios":"levelo://app?vid=243758a6-c08c-4f05-a708-338a05b43e7c"},"vehicle_type_id":"4","last_reported":1740399499,"current_range_meters":11600,"station_id":"ce4bgph2rcd13ifvqc2g","pricing_plan_id":"cebpf4jnsgd1na2vs0mg"},{"bike_id":"615e212e-047c-4187-9b0f-7a3031a5adda","system_id":"levelo_inurba_marseille","lat":43.27501,"lon":5.42431,"is_reserved":false,"is_disabled":false,"rental_uris":{"android":"levelo://app?vid=615e212e-047c-4187-9b0f-7a3031a5adda","ios":"levelo://app?vid=615e212e-047c-4187-9b0f-7a3031a5adda"},"vehicle_type_id":"4","last_reported":1740399499,"current_range_meters":12000,"station_id":"ce4bhn92rcd13ifvqgrg","pricing_plan_id":"cebpf4jnsgd1na2vs0mg"},{"bike_id":"37c39da8-11d5-4cdb-8e9b-287b72c82f96","system_id":"levelo_inurba_marseille","lat":43.25838,"lon":5.39423,"is_reserved":false,"is_disabled":false,"rental_uris":{"android":"levelo://app?vid=37c39da8-11d5-4cdb-8e9b-287b72c82f96","ios":"levelo://app?vid=37c39da8-11d5-4cdb-8e9b-287b72c82f96"},"vehicle_type_id":"4","last_reported":1740399499,"current_range_meters":12000,"station_id":"ce4bhip2rcd13ifvqft0","pricing_plan_id":"cebpf4jnsgd1na2vs0mg"},{"bike_id":"7d462d73-4828-42de-9728-af386b3d6d1f","system_id":"levelo_inurba_marseille","lat":43.30526,"lon":5.3669,"is_reserved":false,"is_disabled":false,"rental_uris":{"android":"levelo://app?vid=7d462d73-4828-42de-9728-af386b3d6d1f","ios":"levelo://app?vid=7d462d73-4828-42de-9728-af386b3d6d1f"},"vehicle_type_id":"4","last_reported":1740399499,"current_range_meters":13600,"station_id":"ce4bgrp2rcd13ifvqc9g","pricing_plan_id":"cebpf4jnsgd1na2vs0mg"},{"bike_id":"13a001f8-a5f6-4548-badf-12f175e393eb","system_id":"levelo_inurba_marseille","lat":43.305386,"lon":5.365369,"is_reserved":false,"is_disabled":false,"rental_uris":{"android":"levelo://app?vid=13a001f8-a5f6-4548-badf-12f175e393eb","ios":"levelo://app?vid=13a001f8-a5f6-4548-badf-12f175e393eb"},"vehicle_type_id":"4","last_reported":1740399499,"current_range_meters":12400,"station_id":"ce4bgs12rcd13ifvqcag","pricing_plan_id":"cebpf4jnsgd1na2vs0mg"},{"bike_id":"e30df1ca-0636-4053-a1a2-68f49a2952f4","system_id":"levelo_inurba_marseille","lat":43.28949,"lon":5.39633,"is_reserved":false,"is_disabled":true,"rental_uris":{"android":"levelo://app?vid=e30df1ca-0636-4053-a1a2-68f49a2952f4","ios":"levelo://app?vid=e30df1ca-0636-4053-a1a2-68f49a2952f4"},"vehicle_type_id":"4","last_reported":1740399499,"current_range_meters":12400,"station_id":"ce4bh3h2rcd13ifvqdn0","pricing_plan_id":"cebpf4jnsgd1na2vs0mg"},{"bike_id":"dd5f1b40-b2bd-48cd-b16a-c562588833eb","system_id":"levelo_inurba_marseille","lat":43.30496,"lon":5.3652,"is_reserved":false,"is_disabled":false,"rental_uris":{"android":"levelo://app?vid=dd5f1b40-b2bd-48cd-b16a-c562588833eb","ios":"levelo://app?vid=dd5f1b40-b2bd-48cd-b16a-c562588833eb"},"vehicle_type_id":"4","last_reported":1740399499,"current_range_meters":12400,"station_id":"ce4bgs12rcd13ifvqcag","pricing_plan_id":"cebpf4jnsgd1na2vs0mg"},{"bike_id":"06cb31e5-0be9-4644-9108-b909347d2d4e","system_id":"levelo_inurba_marseille","lat":43.26786,"lon":5.39416,"is_reserved":false,"is_disabled":false,"rental_uris":{"android":"levelo://app?vid=06cb31e5-0be9-4644-9108-b909347d2d4e","ios":"levelo://app?vid=06cb31e5-0be9-4644-9108-b909347d2d4e"},"vehicle_type_id":"4","last_reported":1740399499,"current_range_meters":12000,"station_id":"ce4bhh12rcd13ifvqfg0","pricing_plan_id":"cebpf4jnsgd1na2vs0mg"},{"bike_id":"79b167f8-57d8-4524-903e-36fbd0499f2c","system_id":"levelo_inurba_marseille","lat":43.28151,"lon":5.42657,"is_reserved":false,"is_disabled":true,"rental_uris":{"android":"levelo://app?vid=79b167f8-57d8-4524-903e-36fbd0499f2c","ios":"levelo://app?vid=79b167f8-57d8-4524-903e-36fbd0499f2c"},"vehicle_type_id":"4","last_reported":1740399499,"current_range_meters":13600,"station_id":"ce4bhnh2rcd13ifvqgug","pricing_plan_id":"cebpf4jnsgd1na2vs0mg"},{"bike_id":"67c35bf9-0ef0-49ea-8900-59ed49627d59","system_id":"levelo_inurba_marseille","lat":43.30441,"lon":5.39747,"is_reserved":false,"is_disabled":false,"rental_uris":{"android":"levelo://app?vid=67c35bf9-0ef0-49ea-8900-59ed49627d59","ios":"levelo://app?vid=67c35bf9-0ef0-49ea-8900-59ed49627d59"},"vehicle_type_id":"4","last_reported":1740399499,"current_range_meters":12800,"station_id":"ce4bh092rcd13ifvqd20","pricing_plan_id":"cebpf4jnsgd1na2vs0mg"},{"bike_id":"aba4b0ca-bd7e-473e-a7a5-13d43db8a4b2","system_id":"levelo_inurba_marseille","lat":43.32338,"lon":5.36627,"is_reserved":false,"is_disabled":false,"rental_uris":{"android":"levelo://app?vid=aba4b0ca-bd7e-473e-a7a5-13d43db8a4b2","ios":"levelo://app?vid=aba4b0ca-bd7e-473e-a7a5-13d43db8a4b2"},"vehicle_type_id":"4","last_reported":1740399499,"current_range_meters":12800,"station_id":"ce4bhsh2rcd13ifvqi2g","pricing_plan_id":"cebpf4jnsgd1na2vs0mg"},{"bike_id":"7f5eb350-b057-473c-a1e6-fb3d49cd9f91","system_id":"levelo_inurba_marseille","lat":43.28,"lon":5.4002,"is_reserved":false,"is_disabled":false,"rental_uris":{"android":"levelo://app?vid=7f5eb350-b057-473c-a1e6-fb3d49cd9f91","ios":"levelo://app?vid=7f5eb350-b057-473c-a1e6-fb3d49cd9f91"},"vehicle_type_id":"4","last_reported":1740399499,"current_range_meters":12800,"station_id":"ce4bho92rcd13ifvqh4g","pricing_plan_id":"cebpf4jnsgd1na2vs0mg"},{"bike_id":"fb6a8be3-dc0e-4d4f-a97c-8ba1e88733e2","system_id":"levelo_inurba_marseille","lat":43.24146,"lon":5.37886,"is_reserved":false,"is_disabled":false,"rental_uris":{"android":"levelo://app?vid=fb6a8be3-dc0e-4d4f-a97c-8ba1e88733e2","ios":"levelo://app?vid=fb6a8be3-dc0e-4d4f-a97c-8ba1e88733e2"},"vehicle_type_id":"4","last_reported":1740399499,"current_range_meters":12800,"station_id":"","pricing_plan_id":"cebpf4jnsgd1na2vs0mg"},{"bike_id":"674cb057-5d42-4512-ae8c-448c1f63016b","system_id":"levelo_inurba_marseille","lat":43.30362,"lon":5.39443,"is_reserved":false,"is_disabled":false,"rental_uris":{"android":"levelo://app?vid=674cb057-5d42-4512-ae8c-448c1f63016b","ios":"levelo://app?vid=674cb057-5d42-4512-ae8c-448c1f63016b"},"vehicle_type_id":"4","last_reported":1740399499,"current_range_meters":13600,"station_id":"","pricing_plan_id":"cebpf4jnsgd1na2vs0mg"},{"bike_id":"198a96ba-d925-4a45-a2ed-f105624070d5","system_id":"levelo_inurba_marseille","lat":43.2466,"lon":5.38903,"is_reserved":false,"is_disabled":false,"rental_uris":{"android":"levelo://app?vid=198a96ba-d925-4a45-a2ed-f105624070d5","ios":"levelo://app?vid=198a96ba-d925-4a45-a2ed-f105624070d5"},"vehicle_type_id":"4","last_reported":1740399499,"current_range_meters":13600,"station_id":"ce4bhg12rcd13ifvqf60","pricing_plan_id":"cebpf4jnsgd1na2vs0mg"},{"bike_id":"643fc280-ca54-48e7-a137-f1a059dd085c","system_id":"levelo_inurba_marseille","lat":43.2417,"lon":5.39741,"is_reserved":false,"is_disabled":false,"rental_uris":{"android":"levelo://app?vid=643fc280-ca54-48e7-a137-f1a059dd085c","ios":"levelo://app?vid=643fc280-ca54-48e7-a137-f1a059dd085c"},"vehicle_type_id":"4","last_reported":1740399499,"current_range_meters":13600,"station_id":"ce4bhn12rcd13ifvqgpg","pricing_plan_id":"cebpf4jnsgd1na2vs0mg"},{"bike_id":"a2d983fa-b1df-4cf2-a15e-7a22d4131e2d","system_id":"levelo_inurba_marseille","lat":43.24072,"lon":5.37731,"is_reserved":false,"is_disabled":false,"rental_uris":{"android":"levelo://app?vid=a2d983fa-b1df-4cf2-a15e-7a22d4131e2d","ios":"levelo://app?vid=a2d983fa-b1df-4cf2-a15e-7a22d4131e2d"},"vehicle_type_id":"4","last_reported":1740399499,"current_range_meters":12400,"station_id":"ce4bhnp2rcd13ifvqgvg","pricing_plan_id":"cebpf4jnsgd1na2vs0mg"},{"bike_id":"b32b2208-421b-42ed-9379-1b1cf20aa27f","system_id":"levelo_inurba_marseille","lat":43.31356,"lon":5.38474,"is_reserved":false,"is_disabled":false,"rental_uris":{"android":"levelo://app?vid=b32b2208-421b-42ed-9379-1b1cf20aa27f","ios":"levelo://app?vid=b32b2208-421b-42ed-9379-1b1cf20aa27f"},"vehicle_type_id":"4","last_reported":1740399499,"current_range_meters":13600,"station_id":"ce4bgt92rcd13ifvqcf0","pricing_plan_id":"cebpf4jnsgd1na2vs0mg"},{"bike_id":"548175b3-050a-474b-b94e-2d5f0d777576","system_id":"levelo_inurba_marseille","lat":43.27496,"lon":5.42461,"is_reserved":false,"is_disabled":false,"rental_uris":{"android":"levelo://app?vid=548175b3-050a-474b-b94e-2d5f0d777576","ios":"levelo://app?vid=548175b3-050a-474b-b94e-2d5f0d777576"},"vehicle_type_id":"4","last_reported":1740399499,"current_range_meters":10800,"station_id":"ce4bhn92rcd13ifvqgrg","pricing_plan_id":"cebpf4jnsgd1na2vs0mg"},{"bike_id":"dcfaf5c6-be3a-42e9-9c96-99d4a05b5ac2","system_id":"levelo_inurba_marseille","lat":43.25924,"lon":5.40884,"is_reserved":false,"is_disabled":false,"rental_uris":{"android":"levelo://app?vid=dcfaf5c6-be3a-42e9-9c96-99d4a05b5ac2","ios":"levelo://app?vid=dcfaf5c6-be3a-42e9-9c96-99d4a05b5ac2"},"vehicle_type_id":"4","last_reported":1740399499,"current_range_meters":14000,"station_id":"ce4bhm92rcd13ifvqglg","pricing_plan_id":"cebpf4jnsgd1na2vs0mg"},{"bike_id":"24ad255b-2d05-45ba-9d7a-a8555014c415","system_id":"levelo_inurba_marseille","lat":43.27998,"lon":5.40009,"is_reserved":false,"is_disabled":false,"rental_uris":{"android":"levelo://app?vid=24ad255b-2d05-45ba-9d7a-a8555014c415","ios":"levelo://app?vid=24ad255b-2d05-45ba-9d7a-a8555014c415"},"vehicle_type_id":"4","last_reported":1740399499,"current_range_meters":14800,"station_id":"ce4bho92rcd13ifvqh4g","pricing_plan_id":"cebpf4jnsgd1na2vs0mg"},{"bike_id":"fa595f6c-9f90-4981-b434-bd6957d274e8","system_id":"levelo_inurba_marseille","lat":43.30195,"lon":5.36623,"is_reserved":false,"is_disabled":false,"rental_uris":{"android":"levelo://app?vid=fa595f6c-9f90-4981-b434-bd6957d274e8","ios":"levelo://app?vid=fa595f6c-9f90-4981-b434-bd6957d274e8"},"vehicle_type_id":"4","last_reported":1740399499,"current_range_meters":13600,"station_id":"ce4bgrh2rcd13ifvqc8g","pricing_plan_id":"cebpf4jnsgd1na2vs0mg"},{"bike_id":"2c79d0e9-b47c-4e9e-90d0-9d0bb000588f","system_id":"levelo_inurba_marseille","lat":43.295227,"lon":5.394063,"is_reserved":false,"is_disabled":false,"rental_uris":{"android":"levelo://app?vid=2c79d0e9-b47c-4e9e-90d0-9d0bb000588f","ios":"levelo://app?vid=2c79d0e9-b47c-4e9e-90d0-9d0bb000588f"},"vehicle_type_id":"4","last_reported":1740399499,"current_range_meters":14000,"station_id":"ce4bh3p2rcd13ifvqdq0","pricing_plan_id":"cebpf4jnsgd1na2vs0mg"},{"bike_id":"407dba33-8688-4352-a772-b99434a8afb7","system_id":"levelo_inurba_marseille","lat":43.2844,"lon":5.39186,"is_reserved":false,"is_disabled":false,"rental_uris":{"android":"levelo://app?vid=407dba33-8688-4352-a772-b99434a8afb7","ios":"levelo://app?vid=407dba33-8688-4352-a772-b99434a8afb7"},"vehicle_type_id":"4","last_reported":1740399499,"current_range_meters":14400,"station_id":"ce4bhoh2rcd13ifvqh5g","pricing_plan_id":"cebpf4jnsgd1na2vs0mg"},{"bike_id":"83630c54-d46e-46ef-9c2b-07a9635d74e3","system_id":"levelo_inurba_marseille","lat":43.29998,"lon":5.37182,"is_reserved":false,"is_disabled":false,"rental_uris":{"android":"levelo://app?vid=83630c54-d46e-46ef-9c2b-07a9635d74e3","ios":"levelo://app?vid=83630c54-d46e-46ef-9c2b-07a9635d74e3"},"vehicle_type_id":"4","last_reported":1740399499,"current_range_meters":14000,"station_id":"ce4bgr92rcd13ifvqc7g","pricing_plan_id":"cebpf4jnsgd1na2vs0mg"},{"bike_id":"2faea67b-00b9-44f4-86a5-ccca349622da","system_id":"levelo_inurba_marseille","lat":43.25867,"lon":5.40832,"is_reserved":false,"is_disabled":false,"rental_uris":{"android":"levelo://app?vid=2faea67b-00b9-44f4-86a5-ccca349622da","ios":"levelo://app?vid=2faea67b-00b9-44f4-86a5-ccca349622da"},"vehicle_type_id":"4","last_reported":1740399499,"current_range_meters":14000,"station_id":"","pricing_plan_id":"cebpf4jnsgd1na2vs0mg"},{"bike_id":"b0956cd4-a0d3-4419-85b7-205c3d19c002","system_id":"levelo_inurba_marseille","lat":43.3133,"lon":5.39708,"is_reserved":false,"is_disabled":true,"rental_uris":{"android":"levelo://app?vid=b0956cd4-a0d3-4419-85b7-205c3d19c002","ios":"levelo://app?vid=b0956cd4-a0d3-4419-85b7-205c3d19c002"},"vehicle_type_id":"4","last_reported":1740399499,"current_range_meters":14400,"station_id":"ce4bgvp2rcd13ifvqcu0","pricing_plan_id":"cebpf4jnsgd1na2vs0mg"},{"bike_id":"c460d540-098a-44c5-9711-1c960eb338a3","system_id":"levelo_inurba_marseille","lat":43.282173,"lon":5.378813,"is_reserved":false,"is_disabled":false,"rental_uris":{"android":"levelo://app?vid=c460d540-098a-44c5-9711-1c960eb338a3","ios":"levelo://app?vid=c460d540-098a-44c5-9711-1c960eb338a3"},"vehicle_type_id":"4","last_reported":1740399499,"current_range_meters":14400,"station_id":"ce4bhap2rcd13ifvqek0","pricing_plan_id":"cebpf4jnsgd1na2vs0mg"},{"bike_id":"8b205258-8de8-4704-a7d9-58229027ffdb","system_id":"levelo_inurba_marseille","lat":43.24085,"lon":5.37763,"is_reserved":false,"is_disabled":false,"rental_uris":{"android":"levelo://app?vid=8b205258-8de8-4704-a7d9-58229027ffdb","ios":"levelo://app?vid=8b205258-8de8-4704-a7d9-58229027ffdb"},"vehicle_type_id":"4","last_reported":1740399499,"current_range_meters":14800,"station_id":"ce4bhnp2rcd13ifvqgvg","pricing_plan_id":"cebpf4jnsgd1na2vs0mg"},{"bike_id":"27a3e911-3015-4fe1-95db-9084e087a055","system_id":"levelo_inurba_marseille","lat":43.27493,"lon":5.42451,"is_reserved":false,"is_disabled":false,"rental_uris":{"android":"levelo://app?vid=27a3e911-3015-4fe1-95db-9084e087a055","ios":"levelo://app?vid=27a3e911-3015-4fe1-95db-9084e087a055"},"vehicle_type_id":"4","last_reported":1740399499,"current_range_meters":16000,"station_id":"ce4bhn92rcd13ifvqgrg","pricing_plan_id":"cebpf4jnsgd1na2vs0mg"},{"bike_id":"130ab319-f673-4e36-9717-343d196c6cce","system_id":"levelo_inurba_marseille","lat":43.23198,"lon":5.39995,"is_reserved":false,"is_disabled":false,"rental_uris":{"android":"levelo://app?vid=130ab319-f673-4e36-9717-343d196c6cce","ios":"levelo://app?vid=130ab319-f673-4e36-9717-343d196c6cce"},"vehicle_type_id":"4","last_reported":1740399499,"current_range_meters":15200,"station_id":"ce4bhn12rcd13ifvqgqg","pricing_plan_id":"cebpf4jnsgd1na2vs0mg"},{"bike_id":"a6b411f0-6e0a-4885-aa7b-53f1e438f5af","system_id":"levelo_inurba_marseille","lat":43.28414,"lon":5.37513,"is_reserved":false,"is_disabled":false,"rental_uris":{"android":"levelo://app?vid=a6b411f0-6e0a-4885-aa7b-53f1e438f5af","ios":"levelo://app?vid=a6b411f0-6e0a-4885-aa7b-53f1e438f5af"},"vehicle_type_id":"4","last_reported":1740399499,"current_range_meters":16800,"station_id":"ce4bh412rcd13ifvqds0","pricing_plan_id":"cebpf4jnsgd1na2vs0mg"},{"bike_id":"c22253c3-8407-40c3-9681-53c04d21145a","system_id":"levelo_inurba_marseille","lat":43.28941,"lon":5.36389,"is_reserved":false,"is_disabled":false,"rental_uris":{"android":"levelo://app?vid=c22253c3-8407-40c3-9681-53c04d21145a","ios":"levelo://app?vid=c22253c3-8407-40c3-9681-53c04d21145a"},"vehicle_type_id":"4","last_reported":1740399499,"current_range_meters":14800,"station_id":"ce4bhc92rcd13ifvqetg","pricing_plan_id":"cebpf4jnsgd1na2vs0mg"},{"bike_id":"dc86b0d3-3360-49b4-9f3f-5c2f2e8eb085","system_id":"levelo_inurba_marseille","lat":43.23971,"lon":5.36634,"is_reserved":false,"is_disabled":false,"rental_uris":{"android":"levelo://app?vid=dc86b0d3-3360-49b4-9f3f-5c2f2e8eb085","ios":"levelo://app?vid=dc86b0d3-3360-49b4-9f3f-5c2f2e8eb085"},"vehicle_type_id":"4","last_reported":1740399499,"current_range_meters":15200,"station_id":"ce4bhi12rcd13ifvqfp0","pricing_plan_id":"cebpf4jnsgd1na2vs0mg"},{"bike_id":"6f9eb619-ce1a-440a-9085-673242f78425","system_id":"levelo_inurba_marseille","lat":43.29496,"lon":5.37529,"is_reserved":false,"is_disabled":true,"rental_uris":{"android":"levelo://app?vid=6f9eb619-ce1a-440a-9085-673242f78425","ios":"levelo://app?vid=6f9eb619-ce1a-440a-9085-673242f78425"},"vehicle_type_id":"4","last_reported":1740399499,"current_range_meters":16000,"station_id":"","pricing_plan_id":"cebpf4jnsgd1na2vs0mg"},{"bike_id":"8e3e6f13-2d9f-4b9c-9895-8df836891ed8","system_id":"levelo_inurba_marseille","lat":43.30527,"lon":5.36698,"is_reserved":false,"is_disabled":false,"rental_uris":{"android":"levelo://app?vid=8e3e6f13-2d9f-4b9c-9895-8df836891ed8","ios":"levelo://app?vid=8e3e6f13-2d9f-4b9c-9895-8df836891ed8"},"vehicle_type_id":"4","last_reported":1740399499,"current_range_meters":16400,"station_id":"ce4bgrp2rcd13ifvqc9g","pricing_plan_id":"cebpf4jnsgd1na2vs0mg"},{"bike_id":"dacd6abf-57c0-4371-947d-3111646be974","system_id":"levelo_inurba_marseille","lat":43.28497,"lon":5.36923,"is_reserved":false,"is_disabled":true,"rental_uris":{"android":"levelo://app?vid=dacd6abf-57c0-4371-947d-3111646be974","ios":"levelo://app?vid=dacd6abf-57c0-4371-947d-3111646be974"},"vehicle_type_id":"4","last_reported":1740399499,"current_range_meters":16000,"station_id":"","pricing_plan_id":"cebpf4jnsgd1na2vs0mg"},{"bike_id":"8f44dda1-9d79-448e-8863-709f19de9a07","system_id":"levelo_inurba_marseille","lat":43.31222,"lon":5.37226,"is_reserved":false,"is_disabled":false,"rental_uris":{"android":"levelo://app?vid=8f44dda1-9d79-448e-8863-709f19de9a07","ios":"levelo://app?vid=8f44dda1-9d79-448e-8863-709f19de9a07"},"vehicle_type_id":"4","last_reported":1740399499,"current_range_meters":16400,"station_id":"","pricing_plan_id":"cebpf4jnsgd1na2vs0mg"},{"bike_id":"abef7188-d18a-451c-9be1-a5cb1a90671b","system_id":"levelo_inurba_marseille","lat":43.2305,"lon":5.35493,"is_reserved":false,"is_disabled":false,"rental_uris":{"android":"levelo://app?vid=abef7188-d18a-451c-9be1-a5cb1a90671b","ios":"levelo://app?vid=abef7188-d18a-451c-9be1-a5cb1a90671b"},"vehicle_type_id":"4","last_reported":1740399499,"current_range_meters":16400,"station_id":"","pricing_plan_id":"cebpf4jnsgd1na2vs0mg"},{"bike_id":"fd880d6c-2406-4655-9519-fcef16eff44e","system_id":"levelo_inurba_marseille","lat":43.30682,"lon":5.4007,"is_reserved":false,"is_disabled":true,"rental_uris":{"android":"levelo://app?vid=fd880d6c-2406-4655-9519-fcef16eff44e","ios":"levelo://app?vid=fd880d6c-2406-4655-9519-fcef16eff44e"},"vehicle_type_id":"4","last_reported":1740399499,"current_range_meters":16800,"station_id":"ce4bh112rcd13ifvqda0","pricing_plan_id":"cebpf4jnsgd1na2vs0mg"},{"bike_id":"d2610799-3b25-4010-8a8a-a9ba4108f5fb","system_id":"levelo_inurba_marseille","lat":43.25019,"lon":5.38921,"is_reserved":false,"is_disabled":false,"rental_uris":{"android":"levelo://app?vid=d2610799-3b25-4010-8a8a-a9ba4108f5fb","ios":"levelo://app?vid=d2610799-3b25-4010-8a8a-a9ba4108f5fb"},"vehicle_type_id":"4","last_reported":1740399499,"current_range_meters":16400,"station_id":"ce4bhgp2rcd13ifvqfd0","pricing_plan_id":"cebpf4jnsgd1na2vs0mg"},{"bike_id":"594b82a1-e766-4577-a702-607d7e3f6c1c","system_id":"levelo_inurba_marseille","lat":43.3137,"lon":5.38491,"is_reserved":false,"is_disabled":false,"rental_uris":{"android":"levelo://app?vid=594b82a1-e766-4577-a702-607d7e3f6c1c","ios":"levelo://app?vid=594b82a1-e766-4577-a702-607d7e3f6c1c"},"vehicle_type_id":"4","last_reported":1740399499,"current_range_meters":16400,"station_id":"ce4bgt92rcd13ifvqcf0","pricing_plan_id":"cebpf4jnsgd1na2vs0mg"},{"bike_id":"0b34a62a-7f3e-4742-9292-621b7d6fa579","system_id":"levelo_inurba_marseille","lat":43.28085,"lon":5.39634,"is_reserved":false,"is_disabled":false,"rental_uris":{"android":"levelo://app?vid=0b34a62a-7f3e-4742-9292-621b7d6fa579","ios":"levelo://app?vid=0b34a62a-7f3e-4742-9292-621b7d6fa579"},"vehicle_type_id":"4","last_reported":1740399499,"current_range_meters":16800,"station_id":"ce4bho12rcd13ifvqh2g","pricing_plan_id":"cebpf4jnsgd1na2vs0mg"},{"bike_id":"e7ae3d24-6896-4bb8-98ac-9b53f11561fd","system_id":"levelo_inurba_marseille","lat":43.28441,"lon":5.39187,"is_reserved":false,"is_disabled":false,"rental_uris":{"android":"levelo://app?vid=e7ae3d24-6896-4bb8-98ac-9b53f11561fd","ios":"levelo://app?vid=e7ae3d24-6896-4bb8-98ac-9b53f11561fd"},"vehicle_type_id":"4","last_reported":1740399499,"current_range_meters":16400,"station_id":"ce4bhoh2rcd13ifvqh5g","pricing_plan_id":"cebpf4jnsgd1na2vs0mg"},{"bike_id":"397648b3-2ec3-4c0d-ae8c-0e96588129c7","system_id":"levelo_inurba_marseille","lat":43.28926,"lon":5.38389,"is_reserved":false,"is_disabled":false,"rental_uris":{"android":"levelo://app?vid=397648b3-2ec3-4c0d-ae8c-0e96588129c7","ios":"levelo://app?vid=397648b3-2ec3-4c0d-ae8c-0e96588129c7"},"vehicle_type_id":"4","last_reported":1740399499,"current_range_meters":16800,"station_id":"ce4bh612rcd13ifvqe6g","pricing_plan_id":"cebpf4jnsgd1na2vs0mg"},{"bike_id":"490e0b2f-1cb1-49dd-90c6-d8ed026aeda8","system_id":"levelo_inurba_marseille","lat":43.30538,"lon":5.36697,"is_reserved":false,"is_disabled":false,"rental_uris":{"android":"levelo://app?vid=490e0b2f-1cb1-49dd-90c6-d8ed026aeda8","ios":"levelo://app?vid=490e0b2f-1cb1-49dd-90c6-d8ed026aeda8"},"vehicle_type_id":"4","last_reported":1740399499,"current_range_meters":16800,"station_id":"ce4bgrp2rcd13ifvqc9g","pricing_plan_id":"cebpf4jnsgd1na2vs0mg"},{"bike_id":"d9de26da-71a6-4d45-9fc2-3e03202d2096","system_id":"levelo_inurba_marseille","lat":43.29979,"lon":5.37168,"is_reserved":false,"is_disabled":false,"rental_uris":{"android":"levelo://app?vid=d9de26da-71a6-4d45-9fc2-3e03202d2096","ios":"levelo://app?vid=d9de26da-71a6-4d45-9fc2-3e03202d2096"},"vehicle_type_id":"4","last_reported":1740399499,"current_range_meters":16800,"station_id":"ce4bgr92rcd13ifvqc7g","pricing_plan_id":"cebpf4jnsgd1na2vs0mg"},{"bike_id":"ca364d26-fd85-449e-b5fb-16acdafc47f2","system_id":"levelo_inurba_marseille","lat":43.27999,"lon":5.40011,"is_reserved":false,"is_disabled":false,"rental_uris":{"android":"levelo://app?vid=ca364d26-fd85-449e-b5fb-16acdafc47f2","ios":"levelo://app?vid=ca364d26-fd85-449e-b5fb-16acdafc47f2"},"vehicle_type_id":"4","last_reported":1740399499,"current_range_meters":17200,"station_id":"ce4bho92rcd13ifvqh4g","pricing_plan_id":"cebpf4jnsgd1na2vs0mg"},{"bike_id":"be1807f1-3ff8-4d68-bfa3-1bcc169ac2a8","system_id":"levelo_inurba_marseille","lat":43.23154,"lon":5.4372,"is_reserved":false,"is_disabled":false,"rental_uris":{"android":"levelo://app?vid=be1807f1-3ff8-4d68-bfa3-1bcc169ac2a8","ios":"levelo://app?vid=be1807f1-3ff8-4d68-bfa3-1bcc169ac2a8"},"vehicle_type_id":"4","last_reported":1740399499,"current_range_meters":17200,"station_id":"ce4bhmp2rcd13ifvqgog","pricing_plan_id":"cebpf4jnsgd1na2vs0mg"},{"bike_id":"0eedbe85-de94-4ab4-8204-1d494cf8d7d4","system_id":"levelo_inurba_marseille","lat":43.31688,"lon":5.40471,"is_reserved":false,"is_disabled":false,"rental_uris":{"android":"levelo://app?vid=0eedbe85-de94-4ab4-8204-1d494cf8d7d4","ios":"levelo://app?vid=0eedbe85-de94-4ab4-8204-1d494cf8d7d4"},"vehicle_type_id":"4","last_reported":1740399499,"current_range_meters":17200,"station_id":"ce4bh012rcd13ifvqd00","pricing_plan_id":"cebpf4jnsgd1na2vs0mg"},{"bike_id":"406b704d-fe90-4cb0-a1ac-cd180797968e","system_id":"levelo_inurba_marseille","lat":43.270519,"lon":5.402606,"is_reserved":false,"is_disabled":false,"rental_uris":{"android":"levelo://app?vid=406b704d-fe90-4cb0-a1ac-cd180797968e","ios":"levelo://app?vid=406b704d-fe90-4cb0-a1ac-cd180797968e"},"vehicle_type_id":"4","last_reported":1740399499,"current_range_meters":17200,"station_id":"","pricing_plan_id":"cebpf4jnsgd1na2vs0mg"},{"bike_id":"05f51bd6-bf8c-4b6c-ba2f-d7bf7cec3006","system_id":"levelo_inurba_marseille","lat":43.23171,"lon":5.35484,"is_reserved":false,"is_disabled":false,"rental_uris":{"android":"levelo://app?vid=05f51bd6-bf8c-4b6c-ba2f-d7bf7cec3006","ios":"levelo://app?vid=05f51bd6-bf8c-4b6c-ba2f-d7bf7cec3006"},"vehicle_type_id":"4","last_reported":1740399499,"current_range_meters":17200,"station_id":"","pricing_plan_id":"cebpf4jnsgd1na2vs0mg"},{"bike_id":"22932245-244a-4813-887f-331ed2710f5f","system_id":"levelo_inurba_marseille","lat":43.28622,"lon":5.35105,"is_reserved":false,"is_disabled":false,"rental_uris":{"android":"levelo://app?vid=22932245-244a-4813-887f-331ed2710f5f","ios":"levelo://app?vid=22932245-244a-4813-887f-331ed2710f5f"},"vehicle_type_id":"4","last_reported":1740399499,"current_range_meters":17200,"station_id":"ce4bhch2rcd13ifvqeug","pricing_plan_id":"cebpf4jnsgd1na2vs0mg"},{"bike_id":"ee83707b-16c2-4154-8c55-dd06ab591e73","system_id":"levelo_inurba_marseille","lat":43.32374,"lon":5.3676,"is_reserved":false,"is_disabled":false,"rental_uris":{"android":"levelo://app?vid=ee83707b-16c2-4154-8c55-dd06ab591e73","ios":"levelo://app?vid=ee83707b-16c2-4154-8c55-dd06ab591e73"},"vehicle_type_id":"4","last_reported":1740399499,"current_range_meters":17200,"station_id":"ce4bhsh2rcd13ifvqi2g","pricing_plan_id":"cebpf4jnsgd1na2vs0mg"},{"bike_id":"d2241545-a394-449b-8224-bf4eafbeda95","system_id":"levelo_inurba_marseille","lat":43.29262,"lon":5.37628,"is_reserved":false,"is_disabled":false,"rental_uris":{"android":"levelo://app?vid=d2241545-a394-449b-8224-bf4eafbeda95","ios":"levelo://app?vid=d2241545-a394-449b-8224-bf4eafbeda95"},"vehicle_type_id":"4","last_reported":1740399499,"current_range_meters":17200,"station_id":"ce4bgi12rcd13ifvqb80","pricing_plan_id":"cebpf4jnsgd1na2vs0mg"},{"bike_id":"45a19c8e-2d94-4018-8646-3507003fa4a6","system_id":"levelo_inurba_marseille","lat":43.27495,"lon":5.42448,"is_reserved":false,"is_disabled":false,"rental_uris":{"android":"levelo://app?vid=45a19c8e-2d94-4018-8646-3507003fa4a6","ios":"levelo://app?vid=45a19c8e-2d94-4018-8646-3507003fa4a6"},"vehicle_type_id":"4","last_reported":1740399499,"current_range_meters":17600,"station_id":"ce4bhn92rcd13ifvqgrg","pricing_plan_id":"cebpf4jnsgd1na2vs0mg"},{"bike_id":"517bfb15-70ce-4798-a097-3e1d9a844af1","system_id":"levelo_inurba_marseille","lat":43.24073,"lon":5.37764,"is_reserved":false,"is_disabled":false,"rental_uris":{"android":"levelo://app?vid=517bfb15-70ce-4798-a097-3e1d9a844af1","ios":"levelo://app?vid=517bfb15-70ce-4798-a097-3e1d9a844af1"},"vehicle_type_id":"4","last_reported":1740399499,"current_range_meters":18000,"station_id":"ce4bhnp2rcd13ifvqgvg","pricing_plan_id":"cebpf4jnsgd1na2vs0mg"},{"bike_id":"cb951299-7e93-45e0-b5cf-ec11c74e3ace","system_id":"levelo_inurba_marseille","lat":43.30926,"lon":5.40158,"is_reserved":false,"is_disabled":true,"rental_uris":{"android":"levelo://app?vid=cb951299-7e93-45e0-b5cf-ec11c74e3ace","ios":"levelo://app?vid=cb951299-7e93-45e0-b5cf-ec11c74e3ace"},"vehicle_type_id":"4","last_reported":1740399499,"current_range_meters":17600,"station_id":"ce4bgvp2rcd13ifvqct0","pricing_plan_id":"cebpf4jnsgd1na2vs0mg"},{"bike_id":"1c2f3bdc-68fa-40a8-b99e-fcf41f32f9e4","system_id":"levelo_inurba_marseille","lat":43.292118,"lon":5.405173,"is_reserved":false,"is_disabled":false,"rental_uris":{"android":"levelo://app?vid=1c2f3bdc-68fa-40a8-b99e-fcf41f32f9e4","ios":"levelo://app?vid=1c2f3bdc-68fa-40a8-b99e-fcf41f32f9e4"},"vehicle_type_id":"4","last_reported":1740399499,"current_range_meters":17600,"station_id":"","pricing_plan_id":"cebpf4jnsgd1na2vs0mg"},{"bike_id":"a9afe926-b99e-40c4-8f4d-f067936df36b","system_id":"levelo_inurba_marseille","lat":43.32105,"lon":5.36771,"is_reserved":false,"is_disabled":false,"rental_uris":{"android":"levelo://app?vid=a9afe926-b99e-40c4-8f4d-f067936df36b","ios":"levelo://app?vid=a9afe926-b99e-40c4-8f4d-f067936df36b"},"vehicle_type_id":"4","last_reported":1740399499,"current_range_meters":17600,"station_id":"ce4bhrh2rcd13ifvqhug","pricing_plan_id":"cebpf4jnsgd1na2vs0mg"},{"bike_id":"e2edf1c5-3539-4d93-8f5a-492d597882f8","system_id":"levelo_inurba_marseille","lat":43.276867,"lon":5.388627,"is_reserved":false,"is_disabled":false,"rental_uris":{"android":"levelo://app?vid=e2edf1c5-3539-4d93-8f5a-492d597882f8","ios":"levelo://app?vid=e2edf1c5-3539-4d93-8f5a-492d597882f8"},"vehicle_type_id":"4","last_reported":1740399499,"current_range_meters":17600,"station_id":"ce4bhi12rcd13ifvqfo0","pricing_plan_id":"cebpf4jnsgd1na2vs0mg"},{"bike_id":"98e2477f-3ee6-40c7-9c80-67c5218b2975","system_id":"levelo_inurba_marseille","lat":43.27198,"lon":5.39173,"is_reserved":false,"is_disabled":false,"rental_uris":{"android":"levelo://app?vid=98e2477f-3ee6-40c7-9c80-67c5218b2975","ios":"levelo://app?vid=98e2477f-3ee6-40c7-9c80-67c5218b2975"},"vehicle_type_id":"4","last_reported":1740399499,"current_range_meters":17600,"station_id":"ce4bhhp2rcd13ifvqfm0","pricing_plan_id":"cebpf4jnsgd1na2vs0mg"},{"bike_id":"06ced694-3061-4d4d-9fe3-470517e0c6f3","system_id":"levelo_inurba_marseille","lat":43.28942,"lon":5.3664,"is_reserved":false,"is_disabled":false,"rental_uris":{"android":"levelo://app?vid=06ced694-3061-4d4d-9fe3-470517e0c6f3","ios":"levelo://app?vid=06ced694-3061-4d4d-9fe3-470517e0c6f3"},"vehicle_type_id":"4","last_reported":1740399499,"current_range_meters":17600,"station_id":"ce4bhap2rcd13ifvqek0","pricing_plan_id":"cebpf4jnsgd1na2vs0mg"},{"bike_id":"254b67b1-580a-4ebb-b883-ef27f702d657","system_id":"levelo_inurba_marseille","lat":43.28162,"lon":5.42669,"is_reserved":false,"is_disabled":false,"rental_uris":{"android":"levelo://app?vid=254b67b1-580a-4ebb-b883-ef27f702d657","ios":"levelo://app?vid=254b67b1-580a-4ebb-b883-ef27f702d657"},"vehicle_type_id":"4","last_reported":1740399499,"current_range_meters":18000,"station_id":"ce4bhnh2rcd13ifvqgug","pricing_plan_id":"cebpf4jnsgd1na2vs0mg"},{"bike_id":"7e55ec4d-f3f8-4ffc-aa6c-87f386062f44","system_id":"levelo_inurba_marseille","lat":43.30198,"lon":5.36616,"is_reserved":false,"is_disabled":false,"rental_uris":{"android":"levelo://app?vid=7e55ec4d-f3f8-4ffc-aa6c-87f386062f44","ios":"levelo://app?vid=7e55ec4d-f3f8-4ffc-aa6c-87f386062f44"},"vehicle_type_id":"4","last_reported":1740399499,"current_range_meters":18000,"station_id":"ce4bgrh2rcd13ifvqc8g","pricing_plan_id":"cebpf4jnsgd1na2vs0mg"},{"bike_id":"dd5d5bf7-e3f2-4105-8f7c-d35f0f384e0e","system_id":"levelo_inurba_marseille","lat":43.23186,"lon":5.39992,"is_reserved":false,"is_disabled":false,"rental_uris":{"android":"levelo://app?vid=dd5d5bf7-e3f2-4105-8f7c-d35f0f384e0e","ios":"levelo://app?vid=dd5d5bf7-e3f2-4105-8f7c-d35f0f384e0e"},"vehicle_type_id":"4","last_reported":1740399499,"current_range_meters":17600,"station_id":"ce4bhn12rcd13ifvqgqg","pricing_plan_id":"cebpf4jnsgd1na2vs0mg"},{"bike_id":"6f20dd05-a602-49b3-9fbf-ad37e307aa3c","system_id":"levelo_inurba_marseille","lat":43.27673,"lon":5.38907,"is_reserved":false,"is_disabled":false,"rental_uris":{"android":"levelo://app?vid=6f20dd05-a602-49b3-9fbf-ad37e307aa3c","ios":"levelo://app?vid=6f20dd05-a602-49b3-9fbf-ad37e307aa3c"},"vehicle_type_id":"4","last_reported":1740399499,"current_range_meters":18800,"station_id":"ce4bhi12rcd13ifvqfo0","pricing_plan_id":"cebpf4jnsgd1na2vs0mg"},{"bike_id":"b6ed5dba-b7ad-478f-a878-4c52654e0d6a","system_id":"levelo_inurba_marseille","lat":43.30574,"lon":5.36533,"is_reserved":false,"is_disabled":false,"rental_uris":{"android":"levelo://app?vid=b6ed5dba-b7ad-478f-a878-4c52654e0d6a","ios":"levelo://app?vid=b6ed5dba-b7ad-478f-a878-4c52654e0d6a"},"vehicle_type_id":"4","last_reported":1740399499,"current_range_meters":18000,"station_id":"ce4bgs12rcd13ifvqcag","pricing_plan_id":"cebpf4jnsgd1na2vs0mg"},{"bike_id":"d99dc8ce-908b-435c-8ab9-fa3f751d1dcd","system_id":"levelo_inurba_marseille","lat":43.29388,"lon":5.40988,"is_reserved":false,"is_disabled":false,"rental_uris":{"android":"levelo://app?vid=d99dc8ce-908b-435c-8ab9-fa3f751d1dcd","ios":"levelo://app?vid=d99dc8ce-908b-435c-8ab9-fa3f751d1dcd"},"vehicle_type_id":"4","last_reported":1740399499,"current_range_meters":18000,"station_id":"ce4bh192rcd13ifvqdc0","pricing_plan_id":"cebpf4jnsgd1na2vs0mg"},{"bike_id":"e9450d61-7e12-49ac-9e64-6fdcd904c3ba","system_id":"levelo_inurba_marseille","lat":43.30302,"lon":5.36922,"is_reserved":false,"is_disabled":false,"rental_uris":{"android":"levelo://app?vid=e9450d61-7e12-49ac-9e64-6fdcd904c3ba","ios":"levelo://app?vid=e9450d61-7e12-49ac-9e64-6fdcd904c3ba"},"vehicle_type_id":"4","last_reported":1740399499,"current_range_meters":18800,"station_id":"ce4bgqh2rcd13ifvqc5g","pricing_plan_id":"cebpf4jnsgd1na2vs0mg"},{"bike_id":"9062f7b6-9c81-49b8-a1bd-5df58202afcd","system_id":"levelo_inurba_marseille","lat":43.317,"lon":5.43699,"is_reserved":false,"is_disabled":false,"rental_uris":{"android":"levelo://app?vid=9062f7b6-9c81-49b8-a1bd-5df58202afcd","ios":"levelo://app?vid=9062f7b6-9c81-49b8-a1bd-5df58202afcd"},"vehicle_type_id":"4","last_reported":1740399499,"current_range_meters":18000,"station_id":"ce4bhp92rcd13ifvqhcg","pricing_plan_id":"cebpf4jnsgd1na2vs0mg"},{"bike_id":"6d671fa3-b1ce-4470-905e-4421960aae20","system_id":"levelo_inurba_marseille","lat":43.25918,"lon":5.408667,"is_reserved":false,"is_disabled":false,"rental_uris":{"android":"levelo://app?vid=6d671fa3-b1ce-4470-905e-4421960aae20","ios":"levelo://app?vid=6d671fa3-b1ce-4470-905e-4421960aae20"},"vehicle_type_id":"4","last_reported":1740399499,"current_range_meters":18800,"station_id":"ce4bhm92rcd13ifvqglg","pricing_plan_id":"cebpf4jnsgd1na2vs0mg"},{"bike_id":"2036f24d-841d-4656-8ff6-76ae435303b7","system_id":"levelo_inurba_marseille","lat":43.29643,"lon":5.37166,"is_reserved":false,"is_disabled":false,"rental_uris":{"android":"levelo://app?vid=2036f24d-841d-4656-8ff6-76ae435303b7","ios":"levelo://app?vid=2036f24d-841d-4656-8ff6-76ae435303b7"},"vehicle_type_id":"4","last_reported":1740399499,"current_range_meters":18000,"station_id":"ce4bgnh2rcd13ifvqc0g","pricing_plan_id":"cebpf4jnsgd1na2vs0mg"},{"bike_id":"4af6f7e9-77ff-48cf-90ba-ce655813c77d","system_id":"levelo_inurba_marseille","lat":43.28488,"lon":5.38548,"is_reserved":false,"is_disabled":false,"rental_uris":{"android":"levelo://app?vid=4af6f7e9-77ff-48cf-90ba-ce655813c77d","ios":"levelo://app?vid=4af6f7e9-77ff-48cf-90ba-ce655813c77d"},"vehicle_type_id":"4","last_reported":1740399499,"current_range_meters":18000,"station_id":"ce4bh8p2rcd13ifvqeb0","pricing_plan_id":"cebpf4jnsgd1na2vs0mg"},{"bike_id":"8889495f-2701-4dcd-925d-626fbf30f0fe","system_id":"levelo_inurba_marseille","lat":43.24148,"lon":5.39691,"is_reserved":false,"is_disabled":false,"rental_uris":{"android":"levelo://app?vid=8889495f-2701-4dcd-925d-626fbf30f0fe","ios":"levelo://app?vid=8889495f-2701-4dcd-925d-626fbf30f0fe"},"vehicle_type_id":"4","last_reported":1740399499,"current_range_meters":18000,"station_id":"ce4bhn12rcd13ifvqgpg","pricing_plan_id":"cebpf4jnsgd1na2vs0mg"},{"bike_id":"c9817a06-8b50-4bc7-8076-31fb9e3bc1ad","system_id":"levelo_inurba_marseille","lat":43.30195,"lon":5.36614,"is_reserved":false,"is_disabled":false,"rental_uris":{"android":"levelo://app?vid=c9817a06-8b50-4bc7-8076-31fb9e3bc1ad","ios":"levelo://app?vid=c9817a06-8b50-4bc7-8076-31fb9e3bc1ad"},"vehicle_type_id":"4","last_reported":1740399499,"current_range_meters":18000,"station_id":"ce4bgrh2rcd13ifvqc8g","pricing_plan_id":"cebpf4jnsgd1na2vs0mg"},{"bike_id":"e4a72806-5e16-4838-9b5b-357db64fb0a7","system_id":"levelo_inurba_marseille","lat":43.29232,"lon":5.36078,"is_reserved":false,"is_disabled":false,"rental_uris":{"android":"levelo://app?vid=e4a72806-5e16-4838-9b5b-357db64fb0a7","ios":"levelo://app?vid=e4a72806-5e16-4838-9b5b-357db64fb0a7"},"vehicle_type_id":"4","last_reported":1740399499,"current_range_meters":18000,"station_id":"ce4bhbh2rcd13ifvqeqg","pricing_plan_id":"cebpf4jnsgd1na2vs0mg"},{"bike_id":"48c9d238-ef44-4ccb-9d08-e828ced5223d","system_id":"levelo_inurba_marseille","lat":43.29023,"lon":5.37555,"is_reserved":false,"is_disabled":false,"rental_uris":{"android":"levelo://app?vid=48c9d238-ef44-4ccb-9d08-e828ced5223d","ios":"levelo://app?vid=48c9d238-ef44-4ccb-9d08-e828ced5223d"},"vehicle_type_id":"4","last_reported":1740399499,"current_range_meters":18000,"station_id":"ce4bh692rcd13ifvqe90","pricing_plan_id":"cebpf4jnsgd1na2vs0mg"},{"bike_id":"f0baf3cd-f5f4-4aa9-9be8-6a00869df268","system_id":"levelo_inurba_marseille","lat":43.23137,"lon":5.43701,"is_reserved":false,"is_disabled":false,"rental_uris":{"android":"levelo://app?vid=f0baf3cd-f5f4-4aa9-9be8-6a00869df268","ios":"levelo://app?vid=f0baf3cd-f5f4-4aa9-9be8-6a00869df268"},"vehicle_type_id":"4","last_reported":1740399499,"current_range_meters":19200,"station_id":"ce4bhmp2rcd13ifvqgog","pricing_plan_id":"cebpf4jnsgd1na2vs0mg"},{"bike_id":"959bbf73-2cc7-473d-8172-5d961c47beca","system_id":"levelo_inurba_marseille","lat":43.29868,"lon":5.3974,"is_reserved":false,"is_disabled":false,"rental_uris":{"android":"levelo://app?vid=959bbf73-2cc7-473d-8172-5d961c47beca","ios":"levelo://app?vid=959bbf73-2cc7-473d-8172-5d961c47beca"},"vehicle_type_id":"4","last_reported":1740399499,"current_range_meters":18800,"station_id":"ce4bh0h2rcd13ifvqd50","pricing_plan_id":"cebpf4jnsgd1na2vs0mg"},{"bike_id":"a1f423f9-dad5-4e4f-8b5c-48069a32f8bb","system_id":"levelo_inurba_marseille","lat":43.31184,"lon":5.36873,"is_reserved":false,"is_disabled":false,"rental_uris":{"android":"levelo://app?vid=a1f423f9-dad5-4e4f-8b5c-48069a32f8bb","ios":"levelo://app?vid=a1f423f9-dad5-4e4f-8b5c-48069a32f8bb"},"vehicle_type_id":"4","last_reported":1740399499,"current_range_meters":18800,"station_id":"ce4bgl92rcd13ifvqbq0","pricing_plan_id":"cebpf4jnsgd1na2vs0mg"},{"bike_id":"0ab6615e-a910-4815-a705-f66a1611c63f","system_id":"levelo_inurba_marseille","lat":43.27493,"lon":5.42459,"is_reserved":false,"is_disabled":false,"rental_uris":{"android":"levelo://app?vid=0ab6615e-a910-4815-a705-f66a1611c63f","ios":"levelo://app?vid=0ab6615e-a910-4815-a705-f66a1611c63f"},"vehicle_type_id":"4","last_reported":1740399499,"current_range_meters":18800,"station_id":"ce4bhn92rcd13ifvqgrg","pricing_plan_id":"cebpf4jnsgd1na2vs0mg"},{"bike_id":"c372f22a-d3cc-447f-a0fd-d4d386ee662e","system_id":"levelo_inurba_marseille","lat":43.30313,"lon":5.39217,"is_reserved":false,"is_disabled":false,"rental_uris":{"android":"levelo://app?vid=c372f22a-d3cc-447f-a0fd-d4d386ee662e","ios":"levelo://app?vid=c372f22a-d3cc-447f-a0fd-d4d386ee662e"},"vehicle_type_id":"4","last_reported":1740399499,"current_range_meters":18800,"station_id":"ce4bgkh2rcd13ifvqbk0","pricing_plan_id":"cebpf4jnsgd1na2vs0mg"},{"bike_id":"8ca6ff39-86f5-466b-bb6a-42a9490518ab","system_id":"levelo_inurba_marseille","lat":43.29907,"lon":5.38906,"is_reserved":false,"is_disabled":false,"rental_uris":{"android":"levelo://app?vid=8ca6ff39-86f5-466b-bb6a-42a9490518ab","ios":"levelo://app?vid=8ca6ff39-86f5-466b-bb6a-42a9490518ab"},"vehicle_type_id":"4","last_reported":1740399499,"current_range_meters":18000,"station_id":"ce4bh392rcd13ifvqdl0","pricing_plan_id":"cebpf4jnsgd1na2vs0mg"},{"bike_id":"0944513a-bad8-4107-aff1-c7f39ac9d5d5","system_id":"levelo_inurba_marseille","lat":43.28847,"lon":5.39299,"is_reserved":false,"is_disabled":false,"rental_uris":{"android":"levelo://app?vid=0944513a-bad8-4107-aff1-c7f39ac9d5d5","ios":"levelo://app?vid=0944513a-bad8-4107-aff1-c7f39ac9d5d5"},"vehicle_type_id":"4","last_reported":1740399499,"current_range_meters":18800,"station_id":"ce4bh2p2rcd13ifvqdi0","pricing_plan_id":"cebpf4jnsgd1na2vs0mg"},{"bike_id":"dc2d9f5b-11af-454a-b74e-059f7196f952","system_id":"levelo_inurba_marseille","lat":43.3014,"lon":5.39874,"is_reserved":false,"is_disabled":false,"rental_uris":{"android":"levelo://app?vid=dc2d9f5b-11af-454a-b74e-059f7196f952","ios":"levelo://app?vid=dc2d9f5b-11af-454a-b74e-059f7196f952"},"vehicle_type_id":"4","last_reported":1740399499,"current_range_meters":19200,"station_id":"ce4bh0h2rcd13ifvqd40","pricing_plan_id":"cebpf4jnsgd1na2vs0mg"},{"bike_id":"38fa9d4b-0a92-4f37-8f79-16dee37e2ee8","system_id":"levelo_inurba_marseille","lat":43.33569,"lon":5.40966,"is_reserved":false,"is_disabled":false,"rental_uris":{"android":"levelo://app?vid=38fa9d4b-0a92-4f37-8f79-16dee37e2ee8","ios":"levelo://app?vid=38fa9d4b-0a92-4f37-8f79-16dee37e2ee8"},"vehicle_type_id":"4","last_reported":1740399499,"current_range_meters":19200,"station_id":"","pricing_plan_id":"cebpf4jnsgd1na2vs0mg"},{"bike_id":"a169bf3c-2a49-4480-ba5b-e01a488e14b9","system_id":"levelo_inurba_marseille","lat":43.30547,"lon":5.36533,"is_reserved":false,"is_disabled":false,"rental_uris":{"android":"levelo://app?vid=a169bf3c-2a49-4480-ba5b-e01a488e14b9","ios":"levelo://app?vid=a169bf3c-2a49-4480-ba5b-e01a488e14b9"},"vehicle_type_id":"4","last_reported":1740399499,"current_range_meters":19200,"station_id":"ce4bgs12rcd13ifvqcag","pricing_plan_id":"cebpf4jnsgd1na2vs0mg"},{"bike_id":"a03da2e3-5959-44c1-8172-f042db168121","system_id":"levelo_inurba_marseille","lat":43.3176,"lon":5.39014,"is_reserved":false,"is_disabled":false,"rental_uris":{"android":"levelo://app?vid=a03da2e3-5959-44c1-8172-f042db168121","ios":"levelo://app?vid=a03da2e3-5959-44c1-8172-f042db168121"},"vehicle_type_id":"4","last_reported":1740399499,"current_range_meters":19200,"station_id":"ce4bhqp2rcd13ifvqhng","pricing_plan_id":"cebpf4jnsgd1na2vs0mg"},{"bike_id":"af1fd4c0-1f64-4d0d-9b9b-4575ff8bee0f","system_id":"levelo_inurba_marseille","lat":43.29415,"lon":5.38565,"is_reserved":false,"is_disabled":true,"rental_uris":{"android":"levelo://app?vid=af1fd4c0-1f64-4d0d-9b9b-4575ff8bee0f","ios":"levelo://app?vid=af1fd4c0-1f64-4d0d-9b9b-4575ff8bee0f"},"vehicle_type_id":"4","last_reported":1740399499,"current_range_meters":19200,"station_id":"","pricing_plan_id":"cebpf4jnsgd1na2vs0mg"},{"bike_id":"17d6361a-2d29-4201-a6c1-586da822ded5","system_id":"levelo_inurba_marseille","lat":43.23964,"lon":5.36623,"is_reserved":false,"is_disabled":false,"rental_uris":{"android":"levelo://app?vid=17d6361a-2d29-4201-a6c1-586da822ded5","ios":"levelo://app?vid=17d6361a-2d29-4201-a6c1-586da822ded5"},"vehicle_type_id":"4","last_reported":1740399499,"current_range_meters":19200,"station_id":"ce4bhi12rcd13ifvqfp0","pricing_plan_id":"cebpf4jnsgd1na2vs0mg"},{"bike_id":"7c45866a-bd99-4c12-9747-66203f12a96e","system_id":"levelo_inurba_marseille","lat":43.23147,"lon":5.35513,"is_reserved":false,"is_disabled":false,"rental_uris":{"android":"levelo://app?vid=7c45866a-bd99-4c12-9747-66203f12a96e","ios":"levelo://app?vid=7c45866a-bd99-4c12-9747-66203f12a96e"},"vehicle_type_id":"4","last_reported":1740399499,"current_range_meters":19600,"station_id":"","pricing_plan_id":"cebpf4jnsgd1na2vs0mg"},{"bike_id":"c59f4351-6e18-4ee1-adf6-8f136aab31bb","system_id":"levelo_inurba_marseille","lat":43.2931,"lon":5.37191,"is_reserved":false,"is_disabled":false,"rental_uris":{"android":"levelo://app?vid=c59f4351-6e18-4ee1-adf6-8f136aab31bb","ios":"levelo://app?vid=c59f4351-6e18-4ee1-adf6-8f136aab31bb"},"vehicle_type_id":"4","last_reported":1740399499,"current_range_meters":19600,"station_id":"ce4bgh92rcd13ifvqb40","pricing_plan_id":"cebpf4jnsgd1na2vs0mg"},{"bike_id":"3b39d8ac-c140-48e7-aaa7-82bed1353112","system_id":"levelo_inurba_marseille","lat":43.25007,"lon":5.38917,"is_reserved":false,"is_disabled":false,"rental_uris":{"android":"levelo://app?vid=3b39d8ac-c140-48e7-aaa7-82bed1353112","ios":"levelo://app?vid=3b39d8ac-c140-48e7-aaa7-82bed1353112"},"vehicle_type_id":"4","last_reported":1740399499,"current_range_meters":20000,"station_id":"ce4bhgp2rcd13ifvqfd0","pricing_plan_id":"cebpf4jnsgd1na2vs0mg"},{"bike_id":"a0682e35-9550-4e13-af8c-29beb2cb3f8b","system_id":"levelo_inurba_marseille","lat":43.24073,"lon":5.37768,"is_reserved":false,"is_disabled":false,"rental_uris":{"android":"levelo://app?vid=a0682e35-9550-4e13-af8c-29beb2cb3f8b","ios":"levelo://app?vid=a0682e35-9550-4e13-af8c-29beb2cb3f8b"},"vehicle_type_id":"4","last_reported":1740399499,"current_range_meters":19600,"station_id":"ce4bhnp2rcd13ifvqgvg","pricing_plan_id":"cebpf4jnsgd1na2vs0mg"},{"bike_id":"4f2f9c61-9578-43b4-81ad-a6bb58e64064","system_id":"levelo_inurba_marseille","lat":43.27488,"lon":5.4244,"is_reserved":false,"is_disabled":false,"rental_uris":{"android":"levelo://app?vid=4f2f9c61-9578-43b4-81ad-a6bb58e64064","ios":"levelo://app?vid=4f2f9c61-9578-43b4-81ad-a6bb58e64064"},"vehicle_type_id":"4","last_reported":1740399499,"current_range_meters":19200,"station_id":"ce4bhn92rcd13ifvqgrg","pricing_plan_id":"cebpf4jnsgd1na2vs0mg"},{"bike_id":"1498f73b-91ab-41a1-ac90-0cd5dfed0c92","system_id":"levelo_inurba_marseille","lat":43.283435,"lon":5.380985,"is_reserved":false,"is_disabled":false,"rental_uris":{"android":"levelo://app?vid=1498f73b-91ab-41a1-ac90-0cd5dfed0c92","ios":"levelo://app?vid=1498f73b-91ab-41a1-ac90-0cd5dfed0c92"},"vehicle_type_id":"4","last_reported":1740399499,"current_range_meters":19200,"station_id":"ce4bh412rcd13ifvqdr0","pricing_plan_id":"cebpf4jnsgd1na2vs0mg"},{"bike_id":"c7f4eb3c-daeb-4229-9834-48732a4d0db7","system_id":"levelo_inurba_marseille","lat":43.28516,"lon":5.3778,"is_reserved":false,"is_disabled":false,"rental_uris":{"android":"levelo://app?vid=c7f4eb3c-daeb-4229-9834-48732a4d0db7","ios":"levelo://app?vid=c7f4eb3c-daeb-4229-9834-48732a4d0db7"},"vehicle_type_id":"4","last_reported":1740399499,"current_range_meters":19600,"station_id":"ce4bh412rcd13ifvqdr0","pricing_plan_id":"cebpf4jnsgd1na2vs0mg"},{"bike_id":"28958614-894e-478c-a467-c9d8ae375fd9","system_id":"levelo_inurba_marseille","lat":43.29101,"lon":5.38098,"is_reserved":false,"is_disabled":false,"rental_uris":{"android":"levelo://app?vid=28958614-894e-478c-a467-c9d8ae375fd9","ios":"levelo://app?vid=28958614-894e-478c-a467-c9d8ae375fd9"},"vehicle_type_id":"4","last_reported":1740399499,"current_range_meters":19600,"station_id":"ce4bh512rcd13ifvqe2g","pricing_plan_id":"cebpf4jnsgd1na2vs0mg"},{"bike_id":"cb9be10d-df8d-4083-8713-dee630fbf9e9","system_id":"levelo_inurba_marseille","lat":43.24073,"lon":5.37766,"is_reserved":false,"is_disabled":false,"rental_uris":{"android":"levelo://app?vid=cb9be10d-df8d-4083-8713-dee630fbf9e9","ios":"levelo://app?vid=cb9be10d-df8d-4083-8713-dee630fbf9e9"},"vehicle_type_id":"4","last_reported":1740399499,"current_range_meters":18800,"station_id":"ce4bhnp2rcd13ifvqgvg","pricing_plan_id":"cebpf4jnsgd1na2vs0mg"},{"bike_id":"daa81a56-4d68-4007-b9ff-c3093b084140","system_id":"levelo_inurba_marseille","lat":43.2857,"lon":5.39495,"is_reserved":false,"is_disabled":false,"rental_uris":{"android":"levelo://app?vid=daa81a56-4d68-4007-b9ff-c3093b084140","ios":"levelo://app?vid=daa81a56-4d68-4007-b9ff-c3093b084140"},"vehicle_type_id":"4","last_reported":1740399499,"current_range_meters":19600,"station_id":"ce4bh292rcd13ifvqdg0","pricing_plan_id":"cebpf4jnsgd1na2vs0mg"},{"bike_id":"ece7d902-7f3c-4571-93a7-993f52ccdf23","system_id":"levelo_inurba_marseille","lat":43.30138,"lon":5.39877,"is_reserved":false,"is_disabled":false,"rental_uris":{"android":"levelo://app?vid=ece7d902-7f3c-4571-93a7-993f52ccdf23","ios":"levelo://app?vid=ece7d902-7f3c-4571-93a7-993f52ccdf23"},"vehicle_type_id":"4","last_reported":1740399499,"current_range_meters":20000,"station_id":"ce4bh0h2rcd13ifvqd40","pricing_plan_id":"cebpf4jnsgd1na2vs0mg"},{"bike_id":"8097addf-73df-48eb-9d6c-cf05962a9b0e","system_id":"levelo_inurba_marseille","lat":43.33393,"lon":5.44089,"is_reserved":false,"is_disabled":true,"rental_uris":{"android":"levelo://app?vid=8097addf-73df-48eb-9d6c-cf05962a9b0e","ios":"levelo://app?vid=8097addf-73df-48eb-9d6c-cf05962a9b0e"},"vehicle_type_id":"4","last_reported":1740399499,"current_range_meters":20000,"station_id":"","pricing_plan_id":"cebpf4jnsgd1na2vs0mg"},{"bike_id":"f9da9abe-e6c6-4031-992d-baa0b568b64a","system_id":"levelo_inurba_marseille","lat":43.24115,"lon":5.39768,"is_reserved":false,"is_disabled":false,"rental_uris":{"android":"levelo://app?vid=f9da9abe-e6c6-4031-992d-baa0b568b64a","ios":"levelo://app?vid=f9da9abe-e6c6-4031-992d-baa0b568b64a"},"vehicle_type_id":"4","last_reported":1740399499,"current_range_meters":20400,"station_id":"ce4bhn12rcd13ifvqgpg","pricing_plan_id":"cebpf4jnsgd1na2vs0mg"},{"bike_id":"29646617-ae79-4fdf-827e-c0fac2a9fd98","system_id":"levelo_inurba_marseille","lat":43.29429,"lon":5.38634,"is_reserved":false,"is_disabled":false,"rental_uris":{"android":"levelo://app?vid=29646617-ae79-4fdf-827e-c0fac2a9fd98","ios":"levelo://app?vid=29646617-ae79-4fdf-827e-c0fac2a9fd98"},"vehicle_type_id":"4","last_reported":1740399499,"current_range_meters":19600,"station_id":"ce4bh2h2rcd13ifvqdh0","pricing_plan_id":"cebpf4jnsgd1na2vs0mg"},{"bike_id":"05b9f403-f224-47e0-887c-862d2dce55e3","system_id":"levelo_inurba_marseille","lat":43.32484,"lon":5.3657,"is_reserved":false,"is_disabled":false,"rental_uris":{"android":"levelo://app?vid=05b9f403-f224-47e0-887c-862d2dce55e3","ios":"levelo://app?vid=05b9f403-f224-47e0-887c-862d2dce55e3"},"vehicle_type_id":"4","last_reported":1740399499,"current_range_meters":20000,"station_id":"ce4bhs12rcd13ifvqhvg","pricing_plan_id":"cebpf4jnsgd1na2vs0mg"},{"bike_id":"7ffb6d41-e0b3-455c-9e71-56128f670693","system_id":"levelo_inurba_marseille","lat":43.29194,"lon":5.39322,"is_reserved":false,"is_disabled":false,"rental_uris":{"android":"levelo://app?vid=7ffb6d41-e0b3-455c-9e71-56128f670693","ios":"levelo://app?vid=7ffb6d41-e0b3-455c-9e71-56128f670693"},"vehicle_type_id":"4","last_reported":1740399499,"current_range_meters":20000,"station_id":"ce4bh192rcd13ifvqdd0","pricing_plan_id":"cebpf4jnsgd1na2vs0mg"},{"bike_id":"9c5a038e-ea5d-4516-905d-52b9c56c1ad7","system_id":"levelo_inurba_marseille","lat":43.24547,"lon":5.39527,"is_reserved":false,"is_disabled":false,"rental_uris":{"android":"levelo://app?vid=9c5a038e-ea5d-4516-905d-52b9c56c1ad7","ios":"levelo://app?vid=9c5a038e-ea5d-4516-905d-52b9c56c1ad7"},"vehicle_type_id":"4","last_reported":1740399499,"current_range_meters":20000,"station_id":"ce4bhlp2rcd13ifvqgjg","pricing_plan_id":"cebpf4jnsgd1na2vs0mg"},{"bike_id":"87a81a88-7f5f-401a-bb25-653b20c0eff3","system_id":"levelo_inurba_marseille","lat":43.30605,"lon":5.39336,"is_reserved":false,"is_disabled":true,"rental_uris":{"android":"levelo://app?vid=87a81a88-7f5f-401a-bb25-653b20c0eff3","ios":"levelo://app?vid=87a81a88-7f5f-401a-bb25-653b20c0eff3"},"vehicle_type_id":"4","last_reported":1740399499,"current_range_meters":20000,"station_id":"ce4bh0p2rcd13ifvqd80","pricing_plan_id":"cebpf4jnsgd1na2vs0mg"},{"bike_id":"f89f27f9-d18f-4888-b147-5f0109eeb79d","system_id":"levelo_inurba_marseille","lat":43.24079,"lon":5.37752,"is_reserved":false,"is_disabled":false,"rental_uris":{"android":"levelo://app?vid=f89f27f9-d18f-4888-b147-5f0109eeb79d","ios":"levelo://app?vid=f89f27f9-d18f-4888-b147-5f0109eeb79d"},"vehicle_type_id":"4","last_reported":1740399499,"current_range_meters":20000,"station_id":"ce4bhnp2rcd13ifvqgvg","pricing_plan_id":"cebpf4jnsgd1na2vs0mg"},{"bike_id":"97f04c5a-7acb-49a0-90f5-8cb7871b7af0","system_id":"levelo_inurba_marseille","lat":43.2593,"lon":5.40882,"is_reserved":false,"is_disabled":false,"rental_uris":{"android":"levelo://app?vid=97f04c5a-7acb-49a0-90f5-8cb7871b7af0","ios":"levelo://app?vid=97f04c5a-7acb-49a0-90f5-8cb7871b7af0"},"vehicle_type_id":"4","last_reported":1740399499,"current_range_meters":20400,"station_id":"ce4bhm92rcd13ifvqglg","pricing_plan_id":"cebpf4jnsgd1na2vs0mg"},{"bike_id":"7eff2f12-b910-407d-b9be-7f71620e1004","system_id":"levelo_inurba_marseille","lat":43.31163,"lon":5.3873,"is_reserved":false,"is_disabled":false,"rental_uris":{"android":"levelo://app?vid=7eff2f12-b910-407d-b9be-7f71620e1004","ios":"levelo://app?vid=7eff2f12-b910-407d-b9be-7f71620e1004"},"vehicle_type_id":"4","last_reported":1740399499,"current_range_meters":20000,"station_id":"ce4bgv12rcd13ifvqcp0","pricing_plan_id":"cebpf4jnsgd1na2vs0mg"},{"bike_id":"91cae957-83d4-4654-8660-cabad611e3b0","system_id":"levelo_inurba_marseille","lat":43.29085,"lon":5.37138,"is_reserved":false,"is_disabled":false,"rental_uris":{"android":"levelo://app?vid=91cae957-83d4-4654-8660-cabad611e3b0","ios":"levelo://app?vid=91cae957-83d4-4654-8660-cabad611e3b0"},"vehicle_type_id":"4","last_reported":1740399499,"current_range_meters":20000,"station_id":"ce4bh5p2rcd13ifvqe4g","pricing_plan_id":"cebpf4jnsgd1na2vs0mg"},{"bike_id":"99a6215f-6506-4f6e-9c5e-ddad7f4be2a5","system_id":"levelo_inurba_marseille","lat":43.29902,"lon":5.4366,"is_reserved":false,"is_disabled":false,"rental_uris":{"android":"levelo://app?vid=99a6215f-6506-4f6e-9c5e-ddad7f4be2a5","ios":"levelo://app?vid=99a6215f-6506-4f6e-9c5e-ddad7f4be2a5"},"vehicle_type_id":"4","last_reported":1740399499,"current_range_meters":20400,"station_id":"ce4bhpp2rcd13ifvqhfg","pricing_plan_id":"cebpf4jnsgd1na2vs0mg"},{"bike_id":"c61fdb28-8f5a-42bf-8c6d-2bda33a2e55e","system_id":"levelo_inurba_marseille","lat":43.26201,"lon":5.37931,"is_reserved":false,"is_disabled":false,"rental_uris":{"android":"levelo://app?vid=c61fdb28-8f5a-42bf-8c6d-2bda33a2e55e","ios":"levelo://app?vid=c61fdb28-8f5a-42bf-8c6d-2bda33a2e55e"},"vehicle_type_id":"4","last_reported":1740399499,"current_range_meters":20800,"station_id":"ce4bhjp2rcd13ifvqg90","pricing_plan_id":"cebpf4jnsgd1na2vs0mg"},{"bike_id":"9bcb6e74-9384-4520-a191-6ca3da24e600","system_id":"levelo_inurba_marseille","lat":43.24164,"lon":5.36393,"is_reserved":false,"is_disabled":false,"rental_uris":{"android":"levelo://app?vid=9bcb6e74-9384-4520-a191-6ca3da24e600","ios":"levelo://app?vid=9bcb6e74-9384-4520-a191-6ca3da24e600"},"vehicle_type_id":"4","last_reported":1740399499,"current_range_meters":23200,"station_id":"cpo36qri1sfpv3e86is0","pricing_plan_id":"cebpf4jnsgd1na2vs0mg"},{"bike_id":"48f59ff9-c687-464a-8449-b0c502522164","system_id":"levelo_inurba_marseille","lat":43.28353,"lon":5.38613,"is_reserved":false,"is_disabled":false,"rental_uris":{"android":"levelo://app?vid=48f59ff9-c687-464a-8449-b0c502522164","ios":"levelo://app?vid=48f59ff9-c687-464a-8449-b0c502522164"},"vehicle_type_id":"4","last_reported":1740399499,"current_range_meters":20800,"station_id":"ce4bh492rcd13ifvqdvg","pricing_plan_id":"cebpf4jnsgd1na2vs0mg"},{"bike_id":"05388da8-9671-4cce-a9c6-be5a5bec9026","system_id":"levelo_inurba_marseille","lat":43.32309,"lon":5.36674,"is_reserved":false,"is_disabled":false,"rental_uris":{"android":"levelo://app?vid=05388da8-9671-4cce-a9c6-be5a5bec9026","ios":"levelo://app?vid=05388da8-9671-4cce-a9c6-be5a5bec9026"},"vehicle_type_id":"4","last_reported":1740399499,"current_range_meters":20800,"station_id":"","pricing_plan_id":"cebpf4jnsgd1na2vs0mg"},{"bike_id":"fdb72bd2-7240-4ef6-9cd2-363f6b3e54ad","system_id":"levelo_inurba_marseille","lat":43.29305,"lon":5.37164,"is_reserved":false,"is_disabled":false,"rental_uris":{"android":"levelo://app?vid=fdb72bd2-7240-4ef6-9cd2-363f6b3e54ad","ios":"levelo://app?vid=fdb72bd2-7240-4ef6-9cd2-363f6b3e54ad"},"vehicle_type_id":"4","last_reported":1740399499,"current_range_meters":20800,"station_id":"ce4bgh92rcd13ifvqb40","pricing_plan_id":"cebpf4jnsgd1na2vs0mg"},{"bike_id":"e00d4716-81ba-4b42-a393-48e7217fbbdf","system_id":"levelo_inurba_marseille","lat":43.23183,"lon":5.39995,"is_reserved":false,"is_disabled":false,"rental_uris":{"android":"levelo://app?vid=e00d4716-81ba-4b42-a393-48e7217fbbdf","ios":"levelo://app?vid=e00d4716-81ba-4b42-a393-48e7217fbbdf"},"vehicle_type_id":"4","last_reported":1740399499,"current_range_meters":20800,"station_id":"ce4bhn12rcd13ifvqgqg","pricing_plan_id":"cebpf4jnsgd1na2vs0mg"},{"bike_id":"7834cc6b-13d6-48ba-a1c7-c51cc1bb327b","system_id":"levelo_inurba_marseille","lat":43.24071,"lon":5.37733,"is_reserved":false,"is_disabled":false,"rental_uris":{"android":"levelo://app?vid=7834cc6b-13d6-48ba-a1c7-c51cc1bb327b","ios":"levelo://app?vid=7834cc6b-13d6-48ba-a1c7-c51cc1bb327b"},"vehicle_type_id":"4","last_reported":1740399499,"current_range_meters":21600,"station_id":"ce4bhnp2rcd13ifvqgvg","pricing_plan_id":"cebpf4jnsgd1na2vs0mg"},{"bike_id":"20d942ec-0ba5-46e7-9da7-18a2d558967b","system_id":"levelo_inurba_marseille","lat":43.28725,"lon":5.37931,"is_reserved":false,"is_disabled":false,"rental_uris":{"android":"levelo://app?vid=20d942ec-0ba5-46e7-9da7-18a2d558967b","ios":"levelo://app?vid=20d942ec-0ba5-46e7-9da7-18a2d558967b"},"vehicle_type_id":"4","last_reported":1740399499,"current_range_meters":20400,"station_id":"ce4bh9p2rcd13ifvqec0","pricing_plan_id":"cebpf4jnsgd1na2vs0mg"},{"bike_id":"7e554baf-822e-4021-9894-70c2517bc745","system_id":"levelo_inurba_marseille","lat":43.29869,"lon":5.39731,"is_reserved":false,"is_disabled":false,"rental_uris":{"android":"levelo://app?vid=7e554baf-822e-4021-9894-70c2517bc745","ios":"levelo://app?vid=7e554baf-822e-4021-9894-70c2517bc745"},"vehicle_type_id":"4","last_reported":1740399499,"current_range_meters":20800,"station_id":"ce4bh0h2rcd13ifvqd50","pricing_plan_id":"cebpf4jnsgd1na2vs0mg"},{"bike_id":"2c5b41d8-2247-4fb1-8662-067a63dc29af","system_id":"levelo_inurba_marseille","lat":43.29927,"lon":5.36519,"is_reserved":false,"is_disabled":false,"rental_uris":{"android":"levelo://app?vid=2c5b41d8-2247-4fb1-8662-067a63dc29af","ios":"levelo://app?vid=2c5b41d8-2247-4fb1-8662-067a63dc29af"},"vehicle_type_id":"4","last_reported":1740399499,"current_range_meters":21600,"station_id":"ce4bgm92rcd13ifvqbr0","pricing_plan_id":"cebpf4jnsgd1na2vs0mg"},{"bike_id":"4676f1f1-1c0b-498e-9f70-aa608ea1c362","system_id":"levelo_inurba_marseille","lat":43.31193,"lon":5.36904,"is_reserved":false,"is_disabled":false,"rental_uris":{"android":"levelo://app?vid=4676f1f1-1c0b-498e-9f70-aa608ea1c362","ios":"levelo://app?vid=4676f1f1-1c0b-498e-9f70-aa608ea1c362"},"vehicle_type_id":"4","last_reported":1740399499,"current_range_meters":21600,"station_id":"ce4bgl92rcd13ifvqbq0","pricing_plan_id":"cebpf4jnsgd1na2vs0mg"},{"bike_id":"8a63c22d-7f81-401f-9bdd-b3783cf617b1","system_id":"levelo_inurba_marseille","lat":43.29911,"lon":5.37487,"is_reserved":false,"is_disabled":false,"rental_uris":{"android":"levelo://app?vid=8a63c22d-7f81-401f-9bdd-b3783cf617b1","ios":"levelo://app?vid=8a63c22d-7f81-401f-9bdd-b3783cf617b1"},"vehicle_type_id":"4","last_reported":1740399499,"current_range_meters":21600,"station_id":"ce4bgjh2rcd13ifvqbg0","pricing_plan_id":"cebpf4jnsgd1na2vs0mg"},{"bike_id":"1c255e0b-8060-4c3b-aa6e-d40fbafb0f5a","system_id":"levelo_inurba_marseille","lat":43.29065,"lon":5.35914,"is_reserved":false,"is_disabled":false,"rental_uris":{"android":"levelo://app?vid=1c255e0b-8060-4c3b-aa6e-d40fbafb0f5a","ios":"levelo://app?vid=1c255e0b-8060-4c3b-aa6e-d40fbafb0f5a"},"vehicle_type_id":"4","last_reported":1740399499,"current_range_meters":20800,"station_id":"ce4bha92rcd13ifvqeg0","pricing_plan_id":"cebpf4jnsgd1na2vs0mg"},{"bike_id":"a7202821-d608-41ca-8507-3de3f294dc26","system_id":"levelo_inurba_marseille","lat":43.29852,"lon":5.36292,"is_reserved":false,"is_disabled":false,"rental_uris":{"android":"levelo://app?vid=a7202821-d608-41ca-8507-3de3f294dc26","ios":"levelo://app?vid=a7202821-d608-41ca-8507-3de3f294dc26"},"vehicle_type_id":"4","last_reported":1740399499,"current_range_meters":21600,"station_id":"ce4bgpp2rcd13ifvqc3g","pricing_plan_id":"cebpf4jnsgd1na2vs0mg"},{"bike_id":"35b2537f-602f-4c1c-bfba-02a4b878f83d","system_id":"levelo_inurba_marseille","lat":43.31215,"lon":5.3688,"is_reserved":false,"is_disabled":false,"rental_uris":{"android":"levelo://app?vid=35b2537f-602f-4c1c-bfba-02a4b878f83d","ios":"levelo://app?vid=35b2537f-602f-4c1c-bfba-02a4b878f83d"},"vehicle_type_id":"4","last_reported":1740399499,"current_range_meters":21600,"station_id":"ce4bgl92rcd13ifvqbq0","pricing_plan_id":"cebpf4jnsgd1na2vs0mg"},{"bike_id":"abfe5b41-6f1e-45ac-81a5-3037f46b32dc","system_id":"levelo_inurba_marseille","lat":43.27981,"lon":5.38736,"is_reserved":false,"is_disabled":false,"rental_uris":{"android":"levelo://app?vid=abfe5b41-6f1e-45ac-81a5-3037f46b32dc","ios":"levelo://app?vid=abfe5b41-6f1e-45ac-81a5-3037f46b32dc"},"vehicle_type_id":"4","last_reported":1740399499,"current_range_meters":22000,"station_id":"ce4bhg12rcd13ifvqf80","pricing_plan_id":"cebpf4jnsgd1na2vs0mg"},{"bike_id":"4ff246d8-7945-479c-a286-c67f29b3dade","system_id":"levelo_inurba_marseille","lat":43.28857,"lon":5.39306,"is_reserved":false,"is_disabled":false,"rental_uris":{"android":"levelo://app?vid=4ff246d8-7945-479c-a286-c67f29b3dade","ios":"levelo://app?vid=4ff246d8-7945-479c-a286-c67f29b3dade"},"vehicle_type_id":"4","last_reported":1740399499,"current_range_meters":22000,"station_id":"ce4bh2p2rcd13ifvqdi0","pricing_plan_id":"cebpf4jnsgd1na2vs0mg"},{"bike_id":"a5877d4b-d97f-41c6-b18f-c6036ebd6644","system_id":"levelo_inurba_marseille","lat":43.324852,"lon":5.3657,"is_reserved":false,"is_disabled":false,"rental_uris":{"android":"levelo://app?vid=a5877d4b-d97f-41c6-b18f-c6036ebd6644","ios":"levelo://app?vid=a5877d4b-d97f-41c6-b18f-c6036ebd6644"},"vehicle_type_id":"4","last_reported":1740399499,"current_range_meters":22000,"station_id":"ce4bhs12rcd13ifvqhvg","pricing_plan_id":"cebpf4jnsgd1na2vs0mg"},{"bike_id":"240c4bc0-9a0e-417b-857d-71ed3bda8ffe","system_id":"levelo_inurba_marseille","lat":43.25727,"lon":5.41114,"is_reserved":false,"is_disabled":false,"rental_uris":{"android":"levelo://app?vid=240c4bc0-9a0e-417b-857d-71ed3bda8ffe","ios":"levelo://app?vid=240c4bc0-9a0e-417b-857d-71ed3bda8ffe"},"vehicle_type_id":"4","last_reported":1740399499,"current_range_meters":22400,"station_id":"ce4bhkp2rcd13ifvqgd0","pricing_plan_id":"cebpf4jnsgd1na2vs0mg"},{"bike_id":"c3eaf577-384f-49be-90a6-7d88e2904d90","system_id":"levelo_inurba_marseille","lat":43.3362,"lon":5.41026,"is_reserved":false,"is_disabled":true,"rental_uris":{"android":"levelo://app?vid=c3eaf577-384f-49be-90a6-7d88e2904d90","ios":"levelo://app?vid=c3eaf577-384f-49be-90a6-7d88e2904d90"},"vehicle_type_id":"4","last_reported":1740399499,"current_range_meters":22000,"station_id":"ce4bhqh2rcd13ifvqhmg","pricing_plan_id":"cebpf4jnsgd1na2vs0mg"},{"bike_id":"20c24631-dfa0-47f2-8ef7-e8b71951c71e","system_id":"levelo_inurba_marseille","lat":43.30257,"lon":5.40079,"is_reserved":false,"is_disabled":false,"rental_uris":{"android":"levelo://app?vid=20c24631-dfa0-47f2-8ef7-e8b71951c71e","ios":"levelo://app?vid=20c24631-dfa0-47f2-8ef7-e8b71951c71e"},"vehicle_type_id":"4","last_reported":1740399499,"current_range_meters":22400,"station_id":"ce4bgvh2rcd13ifvqcs0","pricing_plan_id":"cebpf4jnsgd1na2vs0mg"},{"bike_id":"f51f8844-b785-44c1-9394-bfa92d9c9287","system_id":"levelo_inurba_marseille","lat":43.30919,"lon":5.36851,"is_reserved":false,"is_disabled":false,"rental_uris":{"android":"levelo://app?vid=f51f8844-b785-44c1-9394-bfa92d9c9287","ios":"levelo://app?vid=f51f8844-b785-44c1-9394-bfa92d9c9287"},"vehicle_type_id":"4","last_reported":1740399499,"current_range_meters":22800,"station_id":"ce4bgn92rcd13ifvqbvg","pricing_plan_id":"cebpf4jnsgd1na2vs0mg"},{"bike_id":"2bc0ab56-be92-4aff-a80d-3f34dcd0d257","system_id":"levelo_inurba_marseille","lat":43.29191,"lon":5.3581,"is_reserved":false,"is_disabled":false,"rental_uris":{"android":"levelo://app?vid=2bc0ab56-be92-4aff-a80d-3f34dcd0d257","ios":"levelo://app?vid=2bc0ab56-be92-4aff-a80d-3f34dcd0d257"},"vehicle_type_id":"4","last_reported":1740399499,"current_range_meters":22800,"station_id":"ce4bhb12rcd13ifvqel0","pricing_plan_id":"cebpf4jnsgd1na2vs0mg"},{"bike_id":"46814d2f-dec0-460c-883a-bfd2811fc0e2","system_id":"levelo_inurba_marseille","lat":43.29554,"lon":5.36718,"is_reserved":false,"is_disabled":false,"rental_uris":{"android":"levelo://app?vid=46814d2f-dec0-460c-883a-bfd2811fc0e2","ios":"levelo://app?vid=46814d2f-dec0-460c-883a-bfd2811fc0e2"},"vehicle_type_id":"4","last_reported":1740399499,"current_range_meters":22800,"station_id":"ce4bgph2rcd13ifvqc2g","pricing_plan_id":"cebpf4jnsgd1na2vs0mg"},{"bike_id":"d7b9e101-0dc4-419a-918c-9d39728c7b8b","system_id":"levelo_inurba_marseille","lat":43.28157,"lon":5.42633,"is_reserved":false,"is_disabled":false,"rental_uris":{"android":"levelo://app?vid=d7b9e101-0dc4-419a-918c-9d39728c7b8b","ios":"levelo://app?vid=d7b9e101-0dc4-419a-918c-9d39728c7b8b"},"vehicle_type_id":"4","last_reported":1740399499,"current_range_meters":22800,"station_id":"ce4bhnh2rcd13ifvqgug","pricing_plan_id":"cebpf4jnsgd1na2vs0mg"},{"bike_id":"7d9e3ec6-3eb4-450f-8242-d6cb2b8dad75","system_id":"levelo_inurba_marseille","lat":43.29521,"lon":5.39031,"is_reserved":false,"is_disabled":false,"rental_uris":{"android":"levelo://app?vid=7d9e3ec6-3eb4-450f-8242-d6cb2b8dad75","ios":"levelo://app?vid=7d9e3ec6-3eb4-450f-8242-d6cb2b8dad75"},"vehicle_type_id":"4","last_reported":1740399499,"current_range_meters":22800,"station_id":"ce4bh3p2rcd13ifvqdp0","pricing_plan_id":"cebpf4jnsgd1na2vs0mg"},{"bike_id":"845d62df-6173-4041-a6c6-65a8375b32a3","system_id":"levelo_inurba_marseille","lat":43.26201,"lon":5.37934,"is_reserved":false,"is_disabled":false,"rental_uris":{"android":"levelo://app?vid=845d62df-6173-4041-a6c6-65a8375b32a3","ios":"levelo://app?vid=845d62df-6173-4041-a6c6-65a8375b32a3"},"vehicle_type_id":"4","last_reported":1740399499,"current_range_meters":23200,"station_id":"ce4bhjp2rcd13ifvqg90","pricing_plan_id":"cebpf4jnsgd1na2vs0mg"},{"bike_id":"8593fc0d-57d6-4ffa-92d4-85b9f00ea638","system_id":"levelo_inurba_marseille","lat":43.29192,"lon":5.39328,"is_reserved":false,"is_disabled":false,"rental_uris":{"android":"levelo://app?vid=8593fc0d-57d6-4ffa-92d4-85b9f00ea638","ios":"levelo://app?vid=8593fc0d-57d6-4ffa-92d4-85b9f00ea638"},"vehicle_type_id":"4","last_reported":1740399499,"current_range_meters":20400,"station_id":"ce4bh192rcd13ifvqdd0","pricing_plan_id":"cebpf4jnsgd1na2vs0mg"},{"bike_id":"bac0a805-ce16-4521-ba9e-0b4ce002aa86","system_id":"levelo_inurba_marseille","lat":43.31121,"lon":5.37752,"is_reserved":false,"is_disabled":true,"rental_uris":{"android":"levelo://app?vid=bac0a805-ce16-4521-ba9e-0b4ce002aa86","ios":"levelo://app?vid=bac0a805-ce16-4521-ba9e-0b4ce002aa86"},"vehicle_type_id":"4","last_reported":1740399499,"current_range_meters":22800,"station_id":"ce4bgt92rcd13ifvqcg0","pricing_plan_id":"cebpf4jnsgd1na2vs0mg"},{"bike_id":"c1778e32-eaa8-4671-a805-fd3ab9c8561a","system_id":"levelo_inurba_marseille","lat":43.3236,"lon":5.36763,"is_reserved":false,"is_disabled":false,"rental_uris":{"android":"levelo://app?vid=c1778e32-eaa8-4671-a805-fd3ab9c8561a","ios":"levelo://app?vid=c1778e32-eaa8-4671-a805-fd3ab9c8561a"},"vehicle_type_id":"4","last_reported":1740399499,"current_range_meters":22800,"station_id":"ce4bhsh2rcd13ifvqi2g","pricing_plan_id":"cebpf4jnsgd1na2vs0mg"},{"bike_id":"f260095f-eedb-4165-86a8-366e9cbaf65d","system_id":"levelo_inurba_marseille","lat":43.2601,"lon":5.41741,"is_reserved":false,"is_disabled":false,"rental_uris":{"android":"levelo://app?vid=f260095f-eedb-4165-86a8-366e9cbaf65d","ios":"levelo://app?vid=f260095f-eedb-4165-86a8-366e9cbaf65d"},"vehicle_type_id":"4","last_reported":1740399499,"current_range_meters":22800,"station_id":"","pricing_plan_id":"cebpf4jnsgd1na2vs0mg"},{"bike_id":"ed45dfd5-5ecd-4677-b829-a607e3e861b7","system_id":"levelo_inurba_marseille","lat":43.29524,"lon":5.39421,"is_reserved":false,"is_disabled":false,"rental_uris":{"android":"levelo://app?vid=ed45dfd5-5ecd-4677-b829-a607e3e861b7","ios":"levelo://app?vid=ed45dfd5-5ecd-4677-b829-a607e3e861b7"},"vehicle_type_id":"4","last_reported":1740399499,"current_range_meters":22400,"station_id":"ce4bh292rcd13ifvqdf0","pricing_plan_id":"cebpf4jnsgd1na2vs0mg"},{"bike_id":"8f4a1533-c4d4-475a-9b7c-dea64c90da2e","system_id":"levelo_inurba_marseille","lat":43.28425,"lon":5.34977,"is_reserved":false,"is_disabled":false,"rental_uris":{"android":"levelo://app?vid=8f4a1533-c4d4-475a-9b7c-dea64c90da2e","ios":"levelo://app?vid=8f4a1533-c4d4-475a-9b7c-dea64c90da2e"},"vehicle_type_id":"4","last_reported":1740399499,"current_range_meters":23200,"station_id":"ce4bhbh2rcd13ifvqepg","pricing_plan_id":"cebpf4jnsgd1na2vs0mg"},{"bike_id":"b7f736a8-d79f-4b2d-b8f9-0cfe53f3cac9","system_id":"levelo_inurba_marseille","lat":43.27805,"lon":5.4071,"is_reserved":false,"is_disabled":false,"rental_uris":{"android":"levelo://app?vid=b7f736a8-d79f-4b2d-b8f9-0cfe53f3cac9","ios":"levelo://app?vid=b7f736a8-d79f-4b2d-b8f9-0cfe53f3cac9"},"vehicle_type_id":"4","last_reported":1740399499,"current_range_meters":23200,"station_id":"ce4bhnh2rcd13ifvqgtg","pricing_plan_id":"cebpf4jnsgd1na2vs0mg"},{"bike_id":"6fbc88d6-583a-42d9-b928-dcf50077b2b0","system_id":"levelo_inurba_marseille","lat":43.31486,"lon":5.37301,"is_reserved":false,"is_disabled":false,"rental_uris":{"android":"levelo://app?vid=6fbc88d6-583a-42d9-b928-dcf50077b2b0","ios":"levelo://app?vid=6fbc88d6-583a-42d9-b928-dcf50077b2b0"},"vehicle_type_id":"4","last_reported":1740399499,"current_range_meters":23200,"station_id":"ce4bgt12rcd13ifvqcd0","pricing_plan_id":"cebpf4jnsgd1na2vs0mg"},{"bike_id":"4ca12fc2-5ec3-4c43-af0f-94fe0f83f18f","system_id":"levelo_inurba_marseille","lat":43.28452,"lon":5.3589,"is_reserved":false,"is_disabled":true,"rental_uris":{"android":"levelo://app?vid=4ca12fc2-5ec3-4c43-af0f-94fe0f83f18f","ios":"levelo://app?vid=4ca12fc2-5ec3-4c43-af0f-94fe0f83f18f"},"vehicle_type_id":"4","last_reported":1740399499,"current_range_meters":23200,"station_id":"ce4bhah2rcd13ifvqei0","pricing_plan_id":"cebpf4jnsgd1na2vs0mg"},{"bike_id":"03a592db-77c9-4af3-9f94-9f54f5ce1d0a","system_id":"levelo_inurba_marseille","lat":43.24093,"lon":5.37745,"is_reserved":false,"is_disabled":false,"rental_uris":{"android":"levelo://app?vid=03a592db-77c9-4af3-9f94-9f54f5ce1d0a","ios":"levelo://app?vid=03a592db-77c9-4af3-9f94-9f54f5ce1d0a"},"vehicle_type_id":"4","last_reported":1740399499,"current_range_meters":23200,"station_id":"ce4bhnp2rcd13ifvqgvg","pricing_plan_id":"cebpf4jnsgd1na2vs0mg"},{"bike_id":"f28d4bbd-cd53-4203-91ac-78724cd26adf","system_id":"levelo_inurba_marseille","lat":43.25927,"lon":5.40877,"is_reserved":false,"is_disabled":false,"rental_uris":{"android":"levelo://app?vid=f28d4bbd-cd53-4203-91ac-78724cd26adf","ios":"levelo://app?vid=f28d4bbd-cd53-4203-91ac-78724cd26adf"},"vehicle_type_id":"4","last_reported":1740399499,"current_range_meters":23200,"station_id":"ce4bhm92rcd13ifvqglg","pricing_plan_id":"cebpf4jnsgd1na2vs0mg"},{"bike_id":"283c0380-2697-4699-9da8-ce47c18073bc","system_id":"levelo_inurba_marseille","lat":43.25939,"lon":5.40902,"is_reserved":false,"is_disabled":false,"rental_uris":{"android":"levelo://app?vid=283c0380-2697-4699-9da8-ce47c18073bc","ios":"levelo://app?vid=283c0380-2697-4699-9da8-ce47c18073bc"},"vehicle_type_id":"4","last_reported":1740399499,"current_range_meters":24000,"station_id":"ce4bhm92rcd13ifvqglg","pricing_plan_id":"cebpf4jnsgd1na2vs0mg"},{"bike_id":"220837e6-44d1-411a-aaca-6e3d59340904","system_id":"levelo_inurba_marseille","lat":43.301318,"lon":5.387765,"is_reserved":false,"is_disabled":true,"rental_uris":{"android":"levelo://app?vid=220837e6-44d1-411a-aaca-6e3d59340904","ios":"levelo://app?vid=220837e6-44d1-411a-aaca-6e3d59340904"},"vehicle_type_id":"4","last_reported":1740399499,"current_range_meters":24000,"station_id":"","pricing_plan_id":"cebpf4jnsgd1na2vs0mg"},{"bike_id":"98dc2d23-9165-43d3-8c7e-16ea719a50e2","system_id":"levelo_inurba_marseille","lat":43.29368,"lon":5.37859,"is_reserved":false,"is_disabled":false,"rental_uris":{"android":"levelo://app?vid=98dc2d23-9165-43d3-8c7e-16ea719a50e2","ios":"levelo://app?vid=98dc2d23-9165-43d3-8c7e-16ea719a50e2"},"vehicle_type_id":"4","last_reported":1740399499,"current_range_meters":24000,"station_id":"ce4bgjh2rcd13ifvqbf0","pricing_plan_id":"cebpf4jnsgd1na2vs0mg"},{"bike_id":"e401e0aa-177a-4fd8-b289-62e6e8a80b5c","system_id":"levelo_inurba_marseille","lat":43.28722,"lon":5.361,"is_reserved":false,"is_disabled":false,"rental_uris":{"android":"levelo://app?vid=e401e0aa-177a-4fd8-b289-62e6e8a80b5c","ios":"levelo://app?vid=e401e0aa-177a-4fd8-b289-62e6e8a80b5c"},"vehicle_type_id":"4","last_reported":1740399499,"current_range_meters":21600,"station_id":"cki0cbj6b192h4jlfktg","pricing_plan_id":"cebpf4jnsgd1na2vs0mg"},{"bike_id":"f3d6001a-9a04-45ed-9f8a-b652b014a056","system_id":"levelo_inurba_marseille","lat":43.29703,"lon":5.36607,"is_reserved":false,"is_disabled":false,"rental_uris":{"android":"levelo://app?vid=f3d6001a-9a04-45ed-9f8a-b652b014a056","ios":"levelo://app?vid=f3d6001a-9a04-45ed-9f8a-b652b014a056"},"vehicle_type_id":"4","last_reported":1740399499,"current_range_meters":23200,"station_id":"ce4bgn12rcd13ifvqbt0","pricing_plan_id":"cebpf4jnsgd1na2vs0mg"},{"bike_id":"fabf6105-592a-4ebf-aac0-7ff923dda05b","system_id":"levelo_inurba_marseille","lat":43.24656,"lon":5.38164,"is_reserved":false,"is_disabled":false,"rental_uris":{"android":"levelo://app?vid=fabf6105-592a-4ebf-aac0-7ff923dda05b","ios":"levelo://app?vid=fabf6105-592a-4ebf-aac0-7ff923dda05b"},"vehicle_type_id":"4","last_reported":1740399499,"current_range_meters":24000,"station_id":"","pricing_plan_id":"cebpf4jnsgd1na2vs0mg"},{"bike_id":"5ff15132-4a3d-4f9d-9f0c-d17908bb5c3a","system_id":"levelo_inurba_marseille","lat":43.24079,"lon":5.37725,"is_reserved":false,"is_disabled":true,"rental_uris":{"android":"levelo://app?vid=5ff15132-4a3d-4f9d-9f0c-d17908bb5c3a","ios":"levelo://app?vid=5ff15132-4a3d-4f9d-9f0c-d17908bb5c3a"},"vehicle_type_id":"4","last_reported":1740399499,"current_range_meters":24000,"station_id":"ce4bhnp2rcd13ifvqgvg","pricing_plan_id":"cebpf4jnsgd1na2vs0mg"},