{"last_updated":1701291977,"ttl":30,"version":"2.2","data":{"bikes":[{"bike_id":"6ffd48ce-ab43-4b34-b451-cb0d9194933b","system_id":"levelo_inurba_marseille","lat":43.312239,"lon":5.368562,"is_reserved":false,"is_disabled":false,"rental_uris":{"android":"levelo://app?vid=6ffd48ce-ab43-4b34-b451-cb0d9194933b","ios":"levelo://app?vid=6ffd48ce-ab43-4b34-b451-cb0d9194933b"},"vehicle_type_id":"4","last_reported":1701291977,"current_range_meters":10000,"station_id":"ce4bgl92rcd13ifvqbq0","pricing_plan_id":"free"},{"bike_id":"08387f54-5b4f-4080-a351-0b393a9e00a0","system_id":"levelo_inurba_marseille","lat":43.312239,"lon":5.368562,"is_reserved":false,"is_disabled":false,"rental_uris":{"android":"levelo://app?vid=08387f54-5b4f-4080-a351-0b393a9e00a0","ios":"levelo://app?vid=08387f54-5b4f-4080-a351-0b393a9e00a0"},"vehicle_type_id":"4","last_reported":1701291977,"current_range_meters":0,"station_id":"ce4bgl92rcd13ifvqbq0","pricing_plan_id":"free"},{"bike_id":"ea70de95-6730-4f41-99f1-4bde190c0344","system_id":"levelo_inurba_marseille","lat":43.30911,"lon":5.36842,"is_reserved":false,"is_disabled":false,"rental_uris":{"android":"levelo://app?vid=ea70de95-6730-4f41-99f1-4bde190c0344","ios":"levelo://app?vid=ea70de95-6730-4f41-99f1-4bde190c0344"},"vehicle_type_id":"4","last_reported":1701291977,"current_range_meters":24000,"station_id":"ce4bgn92rcd13ifvqbvg","pricing_plan_id":"free"},{"bike_id":"9413d753-c67b-47aa-9bf7-af332f49c656","system_id":"levelo_inurba_marseille","lat":43.309076,"lon":5.368465,"is_reserved":false,"is_disabled":false,"rental_uris":{"android":"levelo://app?vid=9413d753-c67b-47aa-9bf7-af332f49c656","ios":"levelo://app?vid=9413d753-c67b-47aa-9bf7-af332f49c656"},"vehicle_type_id":"4","last_reported":1701291977,"current_range_meters":16800,"station_id":"ce4bgn92rcd13ifvqbvg","pricing_plan_id":"free"},{"bike_id":"054b1570-f75c-423b-b756-858dd77075ce","system_id":"levelo_inurba_marseille","lat":43.305368,"lon":5.367343,"is_reserved":false,"is_disabled":false,"rental_uris":{"android":"levelo://app?vid=054b1570-f75c-423b-b756-858dd77075ce","ios":"levelo://app?vid=054b1570-f75c-423b-b756-858dd77075ce"},"vehicle_type_id":"4","last_reported":1701291977,"current_range_meters":0,"station_id":"ce4bgrp2rcd13ifvqc9g","pricing_plan_id":"free"},{"bike_id":"12631c3d-383c-43f6-be5e-921540dae4f9","system_id":"levelo_inurba_marseille","lat":43.305989,"lon":5.37225,"is_reserved":false,"is_disabled":false,"rental_uris":{"android":"levelo://app?vid=12631c3d-383c-43f6-be5e-921540dae4f9","ios":"levelo://app?vid=12631c3d-383c-43f6-be5e-921540dae4f9"},"vehicle_type_id":"4","last_reported":1701291977,"current_range_meters":20000,"station_id":"ce4bgqh2rcd13ifvqc4g","pricing_plan_id":"free"},{"bike_id":"871a5f3c-cd7c-45db-ba15-edf9cf7103df","system_id":"levelo_inurba_marseille","lat":43.305989,"lon":5.37225,"is_reserved":false,"is_disabled":false,"rental_uris":{"android":"levelo://app?vid=871a5f3c-cd7c-45db-ba15-edf9cf7103df","ios":"levelo://app?vid=871a5f3c-cd7c-45db-ba15-edf9cf7103df"},"vehicle_type_id":"4","last_reported":1701291977,"current_range_meters":22400,"station_id":"ce4bgqh2rcd13ifvqc4g","pricing_plan_id":"free"},{"bike_id":"3e84bf05-f929-433c-a9fb-f92307e7ed62","system_id":"levelo_inurba_marseille","lat":43.305989,"lon":5.37225,"is_reserved":false,"is_disabled":false,"rental_uris":{"android":"levelo://app?vid=3e84bf05-f929-433c-a9fb-f92307e7ed62","ios":"levelo://app?vid=3e84bf05-f929-433c-a9fb-f92307e7ed62"},"vehicle_type_id":"4","last_reported":1701291977,"current_range_meters":10400,"station_id":"ce4bgqh2rcd13ifvqc4g","pricing_plan_id":"free"},{"bike_id":"b5129530-3639-47e5-92b6-d358b01a2cff","system_id":"levelo_inurba_marseille","lat":43.308214,"lon":5.376616,"is_reserved":false,"is_disabled":false,"rental_uris":{"android":"levelo://app?vid=b5129530-3639-47e5-92b6-d358b01a2cff","ios":"levelo://app?vid=b5129530-3639-47e5-92b6-d358b01a2cff"},"vehicle_type_id":"4","last_reported":1701291977,"current_range_meters":23600,"station_id":"ce4bgv92rcd13ifvqcq0","pricing_plan_id":"free"},{"bike_id":"f427a2c3-6e4a-446b-ae2f-9be8aa7f4122","system_id":"levelo_inurba_marseille","lat":43.31719,"lon":5.376813,"is_reserved":false,"is_disabled":false,"rental_uris":{"android":"levelo://app?vid=f427a2c3-6e4a-446b-ae2f-9be8aa7f4122","ios":"levelo://app?vid=f427a2c3-6e4a-446b-ae2f-9be8aa7f4122"},"vehicle_type_id":"4","last_reported":1701291977,"current_range_meters":8400,"station_id":"ce4bgth2rcd13ifvqch0","pricing_plan_id":"free"},{"bike_id":"e913f328-1e31-4c22-bd87-f809ea246de4","system_id":"levelo_inurba_marseille","lat":43.317168,"lon":5.376883,"is_reserved":false,"is_disabled":false,"rental_uris":{"android":"levelo://app?vid=e913f328-1e31-4c22-bd87-f809ea246de4","ios":"levelo://app?vid=e913f328-1e31-4c22-bd87-f809ea246de4"},"vehicle_type_id":"4","last_reported":1701291977,"current_range_meters":10400,"station_id":"ce4bgth2rcd13ifvqch0","pricing_plan_id":"free"},{"bike_id":"02a4a675-370a-42ba-a413-9c9e08192a78","system_id":"levelo_inurba_marseille","lat":43.307945,"lon":5.376487,"is_reserved":false,"is_disabled":false,"rental_uris":{"android":"levelo://app?vid=02a4a675-370a-42ba-a413-9c9e08192a78","ios":"levelo://app?vid=02a4a675-370a-42ba-a413-9c9e08192a78"},"vehicle_type_id":"4","last_reported":1701291977,"current_range_meters":400,"station_id":"ce4bgv92rcd13ifvqcq0","pricing_plan_id":"free"},{"bike_id":"80e145bf-9a54-4fb4-abfa-0314c775dc38","system_id":"levelo_inurba_marseille","lat":43.317075,"lon":5.377367,"is_reserved":false,"is_disabled":false,"rental_uris":{"android":"levelo://app?vid=80e145bf-9a54-4fb4-abfa-0314c775dc38","ios":"levelo://app?vid=80e145bf-9a54-4fb4-abfa-0314c775dc38"},"vehicle_type_id":"4","last_reported":1701291977,"current_range_meters":24400,"station_id":"ce4bgth2rcd13ifvqch0","pricing_plan_id":"free"},{"bike_id":"4be22a3f-8832-43c4-b308-a2c51e0f6fbe","system_id":"levelo_inurba_marseille","lat":43.30304,"lon":5.368987,"is_reserved":false,"is_disabled":false,"rental_uris":{"android":"levelo://app?vid=4be22a3f-8832-43c4-b308-a2c51e0f6fbe","ios":"levelo://app?vid=4be22a3f-8832-43c4-b308-a2c51e0f6fbe"},"vehicle_type_id":"4","last_reported":1701291977,"current_range_meters":11600,"station_id":"ce4bgqh2rcd13ifvqc5g","pricing_plan_id":"free"},{"bike_id":"8869af68-3c93-427c-b011-238e628d3a0c","system_id":"levelo_inurba_marseille","lat":43.30798,"lon":5.38161,"is_reserved":false,"is_disabled":false,"rental_uris":{"android":"levelo://app?vid=8869af68-3c93-427c-b011-238e628d3a0c","ios":"levelo://app?vid=8869af68-3c93-427c-b011-238e628d3a0c"},"vehicle_type_id":"4","last_reported":1701291977,"current_range_meters":19600,"station_id":"ce4bgt12rcd13ifvqce0","pricing_plan_id":"free"},{"bike_id":"2fc13fde-6ce6-4f12-93d0-517b361546d7","system_id":"levelo_inurba_marseille","lat":43.308012,"lon":5.381511,"is_reserved":false,"is_disabled":false,"rental_uris":{"android":"levelo://app?vid=2fc13fde-6ce6-4f12-93d0-517b361546d7","ios":"levelo://app?vid=2fc13fde-6ce6-4f12-93d0-517b361546d7"},"vehicle_type_id":"4","last_reported":1701291977,"current_range_meters":0,"station_id":"ce4bgt12rcd13ifvqce0","pricing_plan_id":"free"},{"bike_id":"5f0dcc7e-fe2f-41ae-b9b7-07b5430b86ee","system_id":"levelo_inurba_marseille","lat":43.32473,"lon":5.36558,"is_reserved":false,"is_disabled":false,"rental_uris":{"android":"levelo://app?vid=5f0dcc7e-fe2f-41ae-b9b7-07b5430b86ee","ios":"levelo://app?vid=5f0dcc7e-fe2f-41ae-b9b7-07b5430b86ee"},"vehicle_type_id":"4","last_reported":1701291977,"current_range_meters":17200,"station_id":"ce4bhs12rcd13ifvqhvg","pricing_plan_id":"free"},{"bike_id":"5f404070-e56a-43ba-b7ae-b95c51c02b1e","system_id":"levelo_inurba_marseille","lat":43.31989,"lon":5.381373,"is_reserved":false,"is_disabled":false,"rental_uris":{"android":"levelo://app?vid=5f404070-e56a-43ba-b7ae-b95c51c02b1e","ios":"levelo://app?vid=5f404070-e56a-43ba-b7ae-b95c51c02b1e"},"vehicle_type_id":"4","last_reported":1701291977,"current_range_meters":0,"station_id":"ce4bhr12rcd13ifvqhpg","pricing_plan_id":"free"},{"bike_id":"3e01df68-27f0-42b4-ac09-2ec4a13acda6","system_id":"levelo_inurba_marseille","lat":43.31996,"lon":5.38142,"is_reserved":false,"is_disabled":false,"rental_uris":{"android":"levelo://app?vid=3e01df68-27f0-42b4-ac09-2ec4a13acda6","ios":"levelo://app?vid=3e01df68-27f0-42b4-ac09-2ec4a13acda6"},"vehicle_type_id":"4","last_reported":1701291977,"current_range_meters":11600,"station_id":"ce4bhr12rcd13ifvqhpg","pricing_plan_id":"free"},{"bike_id":"2275aca5-3158-4c2c-8022-ca5d2714bc86","system_id":"levelo_inurba_marseille","lat":43.319997,"lon":5.381594,"is_reserved":false,"is_disabled":false,"rental_uris":{"android":"levelo://app?vid=2275aca5-3158-4c2c-8022-ca5d2714bc86","ios":"levelo://app?vid=2275aca5-3158-4c2c-8022-ca5d2714bc86"},"vehicle_type_id":"4","last_reported":1701291977,"current_range_meters":25600,"station_id":"ce4bhr12rcd13ifvqhpg","pricing_plan_id":"free"},{"bike_id":"565095b7-316d-4677-b34c-7054bea3c533","system_id":"levelo_inurba_marseille","lat":43.31997,"lon":5.38169,"is_reserved":false,"is_disabled":false,"rental_uris":{"android":"levelo://app?vid=565095b7-316d-4677-b34c-7054bea3c533","ios":"levelo://app?vid=565095b7-316d-4677-b34c-7054bea3c533"},"vehicle_type_id":"4","last_reported":1701291977,"current_range_meters":20400,"station_id":"ce4bhr12rcd13ifvqhpg","pricing_plan_id":"free"},{"bike_id":"0d018c40-879c-4b54-a728-7f28c71665bd","system_id":"levelo_inurba_marseille","lat":43.313571,"lon":5.384829,"is_reserved":false,"is_disabled":false,"rental_uris":{"android":"levelo://app?vid=0d018c40-879c-4b54-a728-7f28c71665bd","ios":"levelo://app?vid=0d018c40-879c-4b54-a728-7f28c71665bd"},"vehicle_type_id":"4","last_reported":1701291977,"current_range_meters":3600,"station_id":"ce4bgt92rcd13ifvqcf0","pricing_plan_id":"free"},{"bike_id":"ce4b2c92-4130-494b-b60f-c782d2d61ffe","system_id":"levelo_inurba_marseille","lat":43.313571,"lon":5.384829,"is_reserved":false,"is_disabled":false,"rental_uris":{"android":"levelo://app?vid=ce4b2c92-4130-494b-b60f-c782d2d61ffe","ios":"levelo://app?vid=ce4b2c92-4130-494b-b60f-c782d2d61ffe"},"vehicle_type_id":"4","last_reported":1701291977,"current_range_meters":24000,"station_id":"ce4bgt92rcd13ifvqcf0","pricing_plan_id":"free"},{"bike_id":"9932764a-3948-4788-b226-8a5f8749e452","system_id":"levelo_inurba_marseille","lat":43.299222,"lon":5.365554,"is_reserved":false,"is_disabled":false,"rental_uris":{"android":"levelo://app?vid=9932764a-3948-4788-b226-8a5f8749e452","ios":"levelo://app?vid=9932764a-3948-4788-b226-8a5f8749e452"},"vehicle_type_id":"4","last_reported":1701291977,"current_range_meters":3600,"station_id":"ce4bgm92rcd13ifvqbr0","pricing_plan_id":"free"},{"bike_id":"3c918a36-02d1-4d96-a595-0ac160396a2c","system_id":"levelo_inurba_marseille","lat":43.299724,"lon":5.371829,"is_reserved":false,"is_disabled":false,"rental_uris":{"android":"levelo://app?vid=3c918a36-02d1-4d96-a595-0ac160396a2c","ios":"levelo://app?vid=3c918a36-02d1-4d96-a595-0ac160396a2c"},"vehicle_type_id":"4","last_reported":1701291977,"current_range_meters":19600,"station_id":"ce4bgr92rcd13ifvqc7g","pricing_plan_id":"free"},{"bike_id":"5a1af099-e3b6-4c1b-95f9-980d7dcdee07","system_id":"levelo_inurba_marseille","lat":43.305364,"lon":5.384119,"is_reserved":false,"is_disabled":false,"rental_uris":{"android":"levelo://app?vid=5a1af099-e3b6-4c1b-95f9-980d7dcdee07","ios":"levelo://app?vid=5a1af099-e3b6-4c1b-95f9-980d7dcdee07"},"vehicle_type_id":"4","last_reported":1701291977,"current_range_meters":14000,"station_id":"ce4bgg92rcd13ifvqb30","pricing_plan_id":"free"},{"bike_id":"f1869728-27c0-49cb-b803-0f676cca23b4","system_id":"levelo_inurba_marseille","lat":43.311722,"lon":5.387247,"is_reserved":false,"is_disabled":false,"rental_uris":{"android":"levelo://app?vid=f1869728-27c0-49cb-b803-0f676cca23b4","ios":"levelo://app?vid=f1869728-27c0-49cb-b803-0f676cca23b4"},"vehicle_type_id":"4","last_reported":1701291977,"current_range_meters":10000,"station_id":"ce4bgv12rcd13ifvqcp0","pricing_plan_id":"free"},{"bike_id":"179dd9e3-b810-4d64-90e2-ff30ca9ac636","system_id":"levelo_inurba_marseille","lat":43.311722,"lon":5.387247,"is_reserved":false,"is_disabled":false,"rental_uris":{"android":"levelo://app?vid=179dd9e3-b810-4d64-90e2-ff30ca9ac636","ios":"levelo://app?vid=179dd9e3-b810-4d64-90e2-ff30ca9ac636"},"vehicle_type_id":"4","last_reported":1701291977,"current_range_meters":26000,"station_id":"ce4bgv12rcd13ifvqcp0","pricing_plan_id":"free"},{"bike_id":"aebb5f1f-3a1e-4323-a4f0-ae83e0b78d14","system_id":"levelo_inurba_marseille","lat":43.327603,"lon":5.36705,"is_reserved":false,"is_disabled":false,"rental_uris":{"android":"levelo://app?vid=aebb5f1f-3a1e-4323-a4f0-ae83e0b78d14","ios":"levelo://app?vid=aebb5f1f-3a1e-4323-a4f0-ae83e0b78d14"},"vehicle_type_id":"4","last_reported":1701291977,"current_range_meters":27200,"station_id":"","pricing_plan_id":"free"},{"bike_id":"0da4b62f-0db6-4479-8cb1-8d25ba70b760","system_id":"levelo_inurba_marseille","lat":43.322872,"lon":5.382756,"is_reserved":false,"is_disabled":false,"rental_uris":{"android":"levelo://app?vid=0da4b62f-0db6-4479-8cb1-8d25ba70b760","ios":"levelo://app?vid=0da4b62f-0db6-4479-8cb1-8d25ba70b760"},"vehicle_type_id":"4","last_reported":1701291977,"current_range_meters":30000,"station_id":"ce4bhr12rcd13ifvqhqg","pricing_plan_id":"free"},{"bike_id":"d36e4daa-8cbf-4921-b012-b92a6a8b8bf6","system_id":"levelo_inurba_marseille","lat":43.322872,"lon":5.382756,"is_reserved":false,"is_disabled":false,"rental_uris":{"android":"levelo://app?vid=d36e4daa-8cbf-4921-b012-b92a6a8b8bf6","ios":"levelo://app?vid=d36e4daa-8cbf-4921-b012-b92a6a8b8bf6"},"vehicle_type_id":"4","last_reported":1701291977,"current_range_meters":27200,"station_id":"ce4bhr12rcd13ifvqhqg","pricing_plan_id":"free"},{"bike_id":"3c655d81-69bd-4de9-b72e-2190c7749aaf","system_id":"levelo_inurba_marseille","lat":43.297163,"lon":5.365866,"is_reserved":false,"is_disabled":false,"rental_uris":{"android":"levelo://app?vid=3c655d81-69bd-4de9-b72e-2190c7749aaf","ios":"levelo://app?vid=3c655d81-69bd-4de9-b72e-2190c7749aaf"},"vehicle_type_id":"4","last_reported":1701291977,"current_range_meters":18000,"station_id":"ce4bgn12rcd13ifvqbt0","pricing_plan_id":"free"},{"bike_id":"56768e4e-9386-4af4-86a9-5511352d419c","system_id":"levelo_inurba_marseille","lat":43.29593,"lon":5.36729,"is_reserved":false,"is_disabled":false,"rental_uris":{"android":"levelo://app?vid=56768e4e-9386-4af4-86a9-5511352d419c","ios":"levelo://app?vid=56768e4e-9386-4af4-86a9-5511352d419c"},"vehicle_type_id":"4","last_reported":1701291977,"current_range_meters":10800,"station_id":"ce4bgph2rcd13ifvqc2g","pricing_plan_id":"free"},{"bike_id":"79541276-f99e-49d1-9903-e7446b57fa22","system_id":"levelo_inurba_marseille","lat":43.29573,"lon":5.367355,"is_reserved":false,"is_disabled":false,"rental_uris":{"android":"levelo://app?vid=79541276-f99e-49d1-9903-e7446b57fa22","ios":"levelo://app?vid=79541276-f99e-49d1-9903-e7446b57fa22"},"vehicle_type_id":"4","last_reported":1701291977,"current_range_meters":23600,"station_id":"ce4bgph2rcd13ifvqc2g","pricing_plan_id":"free"},{"bike_id":"f3449596-e9b3-46af-9337-6058b9c8cebb","system_id":"levelo_inurba_marseille","lat":43.29573,"lon":5.367355,"is_reserved":false,"is_disabled":false,"rental_uris":{"android":"levelo://app?vid=f3449596-e9b3-46af-9337-6058b9c8cebb","ios":"levelo://app?vid=f3449596-e9b3-46af-9337-6058b9c8cebb"},"vehicle_type_id":"4","last_reported":1701291977,"current_range_meters":20800,"station_id":"ce4bgph2rcd13ifvqc2g","pricing_plan_id":"free"},{"bike_id":"58af9d59-5609-444f-84df-f6e9140e1c96","system_id":"levelo_inurba_marseille","lat":43.309598,"lon":5.39048,"is_reserved":false,"is_disabled":false,"rental_uris":{"android":"levelo://app?vid=58af9d59-5609-444f-84df-f6e9140e1c96","ios":"levelo://app?vid=58af9d59-5609-444f-84df-f6e9140e1c96"},"vehicle_type_id":"4","last_reported":1701291977,"current_range_meters":0,"station_id":"ce4bgup2rcd13ifvqco0","pricing_plan_id":"free"},{"bike_id":"2b9b2ec5-f3c9-4640-b75a-456672f2fd59","system_id":"levelo_inurba_marseille","lat":43.317557,"lon":5.390173,"is_reserved":false,"is_disabled":false,"rental_uris":{"android":"levelo://app?vid=2b9b2ec5-f3c9-4640-b75a-456672f2fd59","ios":"levelo://app?vid=2b9b2ec5-f3c9-4640-b75a-456672f2fd59"},"vehicle_type_id":"4","last_reported":1701291977,"current_range_meters":28000,"station_id":"ce4bhqp2rcd13ifvqhng","pricing_plan_id":"free"},{"bike_id":"057ae66f-c5eb-4cf3-ad62-ae217c15f56b","system_id":"levelo_inurba_marseille","lat":43.317557,"lon":5.390173,"is_reserved":false,"is_disabled":false,"rental_uris":{"android":"levelo://app?vid=057ae66f-c5eb-4cf3-ad62-ae217c15f56b","ios":"levelo://app?vid=057ae66f-c5eb-4cf3-ad62-ae217c15f56b"},"vehicle_type_id":"4","last_reported":1701291977,"current_range_meters":31200,"station_id":"ce4bhqp2rcd13ifvqhng","pricing_plan_id":"free"},{"bike_id":"6ed22076-9ba5-4488-a16d-4aa18d2dd911","system_id":"levelo_inurba_marseille","lat":43.317557,"lon":5.390173,"is_reserved":false,"is_disabled":false,"rental_uris":{"android":"levelo://app?vid=6ed22076-9ba5-4488-a16d-4aa18d2dd911","ios":"levelo://app?vid=6ed22076-9ba5-4488-a16d-4aa18d2dd911"},"vehicle_type_id":"4","last_reported":1701291977,"current_range_meters":800,"station_id":"ce4bhqp2rcd13ifvqhng","pricing_plan_id":"free"},{"bike_id":"5efdf9c8-7bab-4ca2-88eb-9af005a80759","system_id":"levelo_inurba_marseille","lat":43.29786,"lon":5.381037,"is_reserved":false,"is_disabled":false,"rental_uris":{"android":"levelo://app?vid=5efdf9c8-7bab-4ca2-88eb-9af005a80759","ios":"levelo://app?vid=5efdf9c8-7bab-4ca2-88eb-9af005a80759"},"vehicle_type_id":"4","last_reported":1701291977,"current_range_meters":0,"station_id":"ce4bgip2rcd13ifvqbb0","pricing_plan_id":"free"},{"bike_id":"8dd6119c-7aef-4d30-9ad4-05127783a43f","system_id":"levelo_inurba_marseille","lat":43.28856,"lon":5.358371,"is_reserved":false,"is_disabled":false,"rental_uris":{"android":"levelo://app?vid=8dd6119c-7aef-4d30-9ad4-05127783a43f","ios":"levelo://app?vid=8dd6119c-7aef-4d30-9ad4-05127783a43f"},"vehicle_type_id":"4","last_reported":1701291977,"current_range_meters":7200,"station_id":"ce4bhb12rcd13ifvqem0","pricing_plan_id":"free"},{"bike_id":"cbf3edcb-1956-4c2a-83ad-e0b9753427d7","system_id":"levelo_inurba_marseille","lat":43.292644,"lon":5.384257,"is_reserved":false,"is_disabled":false,"rental_uris":{"android":"levelo://app?vid=cbf3edcb-1956-4c2a-83ad-e0b9753427d7","ios":"levelo://app?vid=cbf3edcb-1956-4c2a-83ad-e0b9753427d7"},"vehicle_type_id":"4","last_reported":1701291977,"current_range_meters":17600,"station_id":"ce4bh692rcd13ifvqea0","pricing_plan_id":"free"},{"bike_id":"099657ef-80f7-4768-96bc-e56858743e4d","system_id":"levelo_inurba_marseille","lat":43.292311,"lon":5.360731,"is_reserved":false,"is_disabled":false,"rental_uris":{"android":"levelo://app?vid=099657ef-80f7-4768-96bc-e56858743e4d","ios":"levelo://app?vid=099657ef-80f7-4768-96bc-e56858743e4d"},"vehicle_type_id":"4","last_reported":1701291977,"current_range_meters":400,"station_id":"ce4bhbh2rcd13ifvqeqg","pricing_plan_id":"free"},{"bike_id":"02a3bc81-5d5e-42e1-ab58-6a5734084f3a","system_id":"levelo_inurba_marseille","lat":43.300852,"lon":5.390859,"is_reserved":false,"is_disabled":false,"rental_uris":{"android":"levelo://app?vid=02a3bc81-5d5e-42e1-ab58-6a5734084f3a","ios":"levelo://app?vid=02a3bc81-5d5e-42e1-ab58-6a5734084f3a"},"vehicle_type_id":"4","last_reported":1701291977,"current_range_meters":0,"station_id":"ce4bh192rcd13ifvqdb0","pricing_plan_id":"free"},{"bike_id":"93515fd9-74ef-42bd-89e5-d1ff158690f0","system_id":"levelo_inurba_marseille","lat":43.291675,"lon":5.371583,"is_reserved":false,"is_disabled":false,"rental_uris":{"android":"levelo://app?vid=93515fd9-74ef-42bd-89e5-d1ff158690f0","ios":"levelo://app?vid=93515fd9-74ef-42bd-89e5-d1ff158690f0"},"vehicle_type_id":"4","last_reported":1701291977,"current_range_meters":8000,"station_id":"ce4bha92rcd13ifvqeh0","pricing_plan_id":"free"},{"bike_id":"6f0a2a3b-c002-4ccb-9f27-1834b5c805da","system_id":"levelo_inurba_marseille","lat":43.298764,"lon":5.388973,"is_reserved":false,"is_disabled":false,"rental_uris":{"android":"levelo://app?vid=6f0a2a3b-c002-4ccb-9f27-1834b5c805da","ios":"levelo://app?vid=6f0a2a3b-c002-4ccb-9f27-1834b5c805da"},"vehicle_type_id":"4","last_reported":1701291977,"current_range_meters":26800,"station_id":"ce4bh392rcd13ifvqdl0","pricing_plan_id":"free"},{"bike_id":"8c609ec8-7d6b-4e57-917c-760701cbc3ac","system_id":"levelo_inurba_marseille","lat":43.314811,"lon":5.373103,"is_reserved":false,"is_disabled":false,"rental_uris":{"android":"levelo://app?vid=8c609ec8-7d6b-4e57-917c-760701cbc3ac","ios":"levelo://app?vid=8c609ec8-7d6b-4e57-917c-760701cbc3ac"},"vehicle_type_id":"4","last_reported":1701291977,"current_range_meters":21600,"station_id":"ce4bgt12rcd13ifvqcd0","pricing_plan_id":"free"},{"bike_id":"9fc02e1b-18cf-4ba2-a4b6-43fb4433d289","system_id":"levelo_inurba_marseille","lat":43.30888,"lon":5.39628,"is_reserved":false,"is_disabled":false,"rental_uris":{"android":"levelo://app?vid=9fc02e1b-18cf-4ba2-a4b6-43fb4433d289","ios":"levelo://app?vid=9fc02e1b-18cf-4ba2-a4b6-43fb4433d289"},"vehicle_type_id":"4","last_reported":1701291977,"current_range_meters":0,"station_id":"ce4bh012rcd13ifvqcv0","pricing_plan_id":"free"},{"bike_id":"19f83519-64de-4937-9c93-7e8d3565fa39","system_id":"levelo_inurba_marseille","lat":43.291994,"lon":5.357886,"is_reserved":false,"is_disabled":false,"rental_uris":{"android":"levelo://app?vid=19f83519-64de-4937-9c93-7e8d3565fa39","ios":"levelo://app?vid=19f83519-64de-4937-9c93-7e8d3565fa39"},"vehicle_type_id":"4","last_reported":1701291977,"current_range_meters":13200,"station_id":"ce4bhb12rcd13ifvqel0","pricing_plan_id":"free"},{"bike_id":"d3c6091f-bc1e-4fcc-99a3-266ab434bc60","system_id":"levelo_inurba_marseille","lat":43.313291,"lon":5.396838,"is_reserved":false,"is_disabled":false,"rental_uris":{"android":"levelo://app?vid=d3c6091f-bc1e-4fcc-99a3-266ab434bc60","ios":"levelo://app?vid=d3c6091f-bc1e-4fcc-99a3-266ab434bc60"},"vehicle_type_id":"4","last_reported":1701291977,"current_range_meters":24800,"station_id":"ce4bgvp2rcd13ifvqcu0","pricing_plan_id":"free"},{"bike_id":"d83f094f-82ea-4268-83eb-6c4ef0f8caeb","system_id":"levelo_inurba_marseille","lat":43.313243,"lon":5.396977,"is_reserved":false,"is_disabled":false,"rental_uris":{"android":"levelo://app?vid=d83f094f-82ea-4268-83eb-6c4ef0f8caeb","ios":"levelo://app?vid=d83f094f-82ea-4268-83eb-6c4ef0f8caeb"},"vehicle_type_id":"4","last_reported":1701291977,"current_range_meters":10000,"station_id":"ce4bgvp2rcd13ifvqcu0","pricing_plan_id":"free"},{"bike_id":"7c3a263f-151a-4a8a-88c3-35f7de6c51ae","system_id":"levelo_inurba_marseille","lat":43.31332,"lon":5.397,"is_reserved":false,"is_disabled":false,"rental_uris":{"android":"levelo://app?vid=7c3a263f-151a-4a8a-88c3-35f7de6c51ae","ios":"levelo://app?vid=7c3a263f-151a-4a8a-88c3-35f7de6c51ae"},"vehicle_type_id":"4","last_reported":1701291977,"current_range_meters":31200,"station_id":"ce4bgvp2rcd13ifvqcu0","pricing_plan_id":"free"},{"bike_id":"3842212e-cdf8-408b-b825-8e132af203fd","system_id":"levelo_inurba_marseille","lat":43.309038,"lon":5.396546,"is_reserved":false,"is_disabled":false,"rental_uris":{"android":"levelo://app?vid=3842212e-cdf8-408b-b825-8e132af203fd","ios":"levelo://app?vid=3842212e-cdf8-408b-b825-8e132af203fd"},"vehicle_type_id":"4","last_reported":1701291977,"current_range_meters":30400,"station_id":"ce4bh012rcd13ifvqcv0","pricing_plan_id":"free"},{"bike_id":"af9a57fc-d396-4f9c-86aa-60043d7802c7","system_id":"levelo_inurba_marseille","lat":43.309038,"lon":5.396546,"is_reserved":false,"is_disabled":false,"rental_uris":{"android":"levelo://app?vid=af9a57fc-d396-4f9c-86aa-60043d7802c7","ios":"levelo://app?vid=af9a57fc-d396-4f9c-86aa-60043d7802c7"},"vehicle_type_id":"4","last_reported":1701291977,"current_range_meters":4400,"station_id":"ce4bh012rcd13ifvqcv0","pricing_plan_id":"free"},{"bike_id":"9f1f8159-9cd6-4550-ac17-3ed1493f323c","system_id":"levelo_inurba_marseille","lat":43.309047,"lon":5.396551,"is_reserved":false,"is_disabled":false,"rental_uris":{"android":"levelo://app?vid=9f1f8159-9cd6-4550-ac17-3ed1493f323c","ios":"levelo://app?vid=9f1f8159-9cd6-4550-ac17-3ed1493f323c"},"vehicle_type_id":"4","last_reported":1701291977,"current_range_meters":26400,"station_id":"ce4bh012rcd13ifvqcv0","pricing_plan_id":"free"},{"bike_id":"56b1c58f-178a-41e1-bc35-05dc326c3f04","system_id":"levelo_inurba_marseille","lat":43.29529,"lon":5.385581,"is_reserved":false,"is_disabled":false,"rental_uris":{"android":"levelo://app?vid=56b1c58f-178a-41e1-bc35-05dc326c3f04","ios":"levelo://app?vid=56b1c58f-178a-41e1-bc35-05dc326c3f04"},"vehicle_type_id":"4","last_reported":1701291977,"current_range_meters":20400,"station_id":"ce4bgih2rcd13ifvqba0","pricing_plan_id":"free"},{"bike_id":"a5e14e11-aa97-4c4e-b3c3-43485e4d725f","system_id":"levelo_inurba_marseille","lat":43.290779,"lon":5.371482,"is_reserved":false,"is_disabled":false,"rental_uris":{"android":"levelo://app?vid=a5e14e11-aa97-4c4e-b3c3-43485e4d725f","ios":"levelo://app?vid=a5e14e11-aa97-4c4e-b3c3-43485e4d725f"},"vehicle_type_id":"4","last_reported":1701291977,"current_range_meters":12400,"station_id":"ce4bh5p2rcd13ifvqe4g","pricing_plan_id":"free"},{"bike_id":"05c05149-417f-425d-808d-6cff875d8460","system_id":"levelo_inurba_marseille","lat":43.302085,"lon":5.39461,"is_reserved":false,"is_disabled":false,"rental_uris":{"android":"levelo://app?vid=05c05149-417f-425d-808d-6cff875d8460","ios":"levelo://app?vid=05c05149-417f-425d-808d-6cff875d8460"},"vehicle_type_id":"4","last_reported":1701291977,"current_range_meters":10400,"station_id":"ce4bh0p2rcd13ifvqd70","pricing_plan_id":"free"},{"bike_id":"fc01d778-e9d5-4de9-aa67-ced43556c93f","system_id":"levelo_inurba_marseille","lat":43.298764,"lon":5.388973,"is_reserved":false,"is_disabled":false,"rental_uris":{"android":"levelo://app?vid=fc01d778-e9d5-4de9-aa67-ced43556c93f","ios":"levelo://app?vid=fc01d778-e9d5-4de9-aa67-ced43556c93f"},"vehicle_type_id":"4","last_reported":1701291977,"current_range_meters":18000,"station_id":"ce4bh392rcd13ifvqdl0","pricing_plan_id":"free"},{"bike_id":"2724cc8f-085b-459c-b2b4-8796f455ea3f","system_id":"levelo_inurba_marseille","lat":43.290631,"lon":5.359244,"is_reserved":false,"is_disabled":false,"rental_uris":{"android":"levelo://app?vid=2724cc8f-085b-459c-b2b4-8796f455ea3f","ios":"levelo://app?vid=2724cc8f-085b-459c-b2b4-8796f455ea3f"},"vehicle_type_id":"4","last_reported":1701291977,"current_range_meters":15600,"station_id":"ce4bha92rcd13ifvqeg0","pricing_plan_id":"free"},{"bike_id":"8c4c3a0d-b312-410f-ae68-f9cf4abd95c3","system_id":"levelo_inurba_marseille","lat":43.294153,"lon":5.386305,"is_reserved":false,"is_disabled":false,"rental_uris":{"android":"levelo://app?vid=8c4c3a0d-b312-410f-ae68-f9cf4abd95c3","ios":"levelo://app?vid=8c4c3a0d-b312-410f-ae68-f9cf4abd95c3"},"vehicle_type_id":"4","last_reported":1701291977,"current_range_meters":23200,"station_id":"ce4bh2h2rcd13ifvqdh0","pricing_plan_id":"free"},{"bike_id":"71be3a91-6ee8-4381-82ab-9a39c4380cf8","system_id":"levelo_inurba_marseille","lat":43.294153,"lon":5.386305,"is_reserved":false,"is_disabled":false,"rental_uris":{"android":"levelo://app?vid=71be3a91-6ee8-4381-82ab-9a39c4380cf8","ios":"levelo://app?vid=71be3a91-6ee8-4381-82ab-9a39c4380cf8"},"vehicle_type_id":"4","last_reported":1701291977,"current_range_meters":0,"station_id":"ce4bh2h2rcd13ifvqdh0","pricing_plan_id":"free"},{"bike_id":"561600c7-fb29-4c6e-b6e3-ba6ec1022b99","system_id":"levelo_inurba_marseille","lat":43.2894,"lon":5.36637,"is_reserved":false,"is_disabled":false,"rental_uris":{"android":"levelo://app?vid=561600c7-fb29-4c6e-b6e3-ba6ec1022b99","ios":"levelo://app?vid=561600c7-fb29-4c6e-b6e3-ba6ec1022b99"},"vehicle_type_id":"4","last_reported":1701291977,"current_range_meters":6400,"station_id":"ce4bhap2rcd13ifvqek0","pricing_plan_id":"free"},{"bike_id":"76423419-7097-4e35-980b-09a4ff2b0be0","system_id":"levelo_inurba_marseille","lat":43.2894,"lon":5.36368,"is_reserved":false,"is_disabled":false,"rental_uris":{"android":"levelo://app?vid=76423419-7097-4e35-980b-09a4ff2b0be0","ios":"levelo://app?vid=76423419-7097-4e35-980b-09a4ff2b0be0"},"vehicle_type_id":"4","last_reported":1701291977,"current_range_meters":10000,"station_id":"ce4bhc92rcd13ifvqetg","pricing_plan_id":"free"},{"bike_id":"164db871-a446-476d-8fc7-00cc85951711","system_id":"levelo_inurba_marseille","lat":43.29056,"lon":5.37791,"is_reserved":false,"is_disabled":false,"rental_uris":{"android":"levelo://app?vid=164db871-a446-476d-8fc7-00cc85951711","ios":"levelo://app?vid=164db871-a446-476d-8fc7-00cc85951711"},"vehicle_type_id":"4","last_reported":1701291977,"current_range_meters":0,"station_id":"","pricing_plan_id":"free"},{"bike_id":"95e90f2a-3f11-4940-9d54-d3acea581a70","system_id":"levelo_inurba_marseille","lat":43.292644,"lon":5.384257,"is_reserved":false,"is_disabled":false,"rental_uris":{"android":"levelo://app?vid=95e90f2a-3f11-4940-9d54-d3acea581a70","ios":"levelo://app?vid=95e90f2a-3f11-4940-9d54-d3acea581a70"},"vehicle_type_id":"4","last_reported":1701291977,"current_range_meters":2800,"station_id":"ce4bh692rcd13ifvqea0","pricing_plan_id":"free"},{"bike_id":"54bbdb35-5117-4013-8623-1db83b6dca71","system_id":"levelo_inurba_marseille","lat":43.290103,"lon":5.356114,"is_reserved":false,"is_disabled":false,"rental_uris":{"android":"levelo://app?vid=54bbdb35-5117-4013-8623-1db83b6dca71","ios":"levelo://app?vid=54bbdb35-5117-4013-8623-1db83b6dca71"},"vehicle_type_id":"4","last_reported":1701291977,"current_range_meters":16000,"station_id":"ce4bhb92rcd13ifvqen0","pricing_plan_id":"free"},{"bike_id":"ad2f7736-9eec-4d71-a71a-65726625f89e","system_id":"levelo_inurba_marseille","lat":43.33043,"lon":5.3892,"is_reserved":false,"is_disabled":false,"rental_uris":{"android":"levelo://app?vid=ad2f7736-9eec-4d71-a71a-65726625f89e","ios":"levelo://app?vid=ad2f7736-9eec-4d71-a71a-65726625f89e"},"vehicle_type_id":"4","last_reported":1701291977,"current_range_meters":4400,"station_id":"ce4bhr92rcd13ifvqhrg","pricing_plan_id":"free"},{"bike_id":"b9e26a79-b093-4baa-8338-22a3fac2fb7d","system_id":"levelo_inurba_marseille","lat":43.304296,"lon":5.397513,"is_reserved":false,"is_disabled":false,"rental_uris":{"android":"levelo://app?vid=b9e26a79-b093-4baa-8338-22a3fac2fb7d","ios":"levelo://app?vid=b9e26a79-b093-4baa-8338-22a3fac2fb7d"},"vehicle_type_id":"4","last_reported":1701291977,"current_range_meters":21200,"station_id":"ce4bh092rcd13ifvqd20","pricing_plan_id":"free"},{"bike_id":"dd2169e6-d554-4534-bbc7-6685222618d8","system_id":"levelo_inurba_marseille","lat":43.290103,"lon":5.356114,"is_reserved":false,"is_disabled":false,"rental_uris":{"android":"levelo://app?vid=dd2169e6-d554-4534-bbc7-6685222618d8","ios":"levelo://app?vid=dd2169e6-d554-4534-bbc7-6685222618d8"},"vehicle_type_id":"4","last_reported":1701291977,"current_range_meters":400,"station_id":"ce4bhb92rcd13ifvqen0","pricing_plan_id":"free"},{"bike_id":"17b312e6-0a84-4e07-9283-3c6566ac04d9","system_id":"levelo_inurba_marseille","lat":43.290995,"lon":5.381361,"is_reserved":false,"is_disabled":false,"rental_uris":{"android":"levelo://app?vid=17b312e6-0a84-4e07-9283-3c6566ac04d9","ios":"levelo://app?vid=17b312e6-0a84-4e07-9283-3c6566ac04d9"},"vehicle_type_id":"4","last_reported":1701291977,"current_range_meters":26000,"station_id":"ce4bh512rcd13ifvqe2g","pricing_plan_id":"free"},{"bike_id":"17a1f976-5147-4e4b-8261-df6c06701252","system_id":"levelo_inurba_marseille","lat":43.290104,"lon":5.356111,"is_reserved":false,"is_disabled":false,"rental_uris":{"android":"levelo://app?vid=17a1f976-5147-4e4b-8261-df6c06701252","ios":"levelo://app?vid=17a1f976-5147-4e4b-8261-df6c06701252"},"vehicle_type_id":"4","last_reported":1701291977,"current_range_meters":27200,"station_id":"ce4bhb92rcd13ifvqen0","pricing_plan_id":"free"},{"bike_id":"e221fd05-80ba-42e3-abd3-ada804d73a11","system_id":"levelo_inurba_marseille","lat":43.295169,"lon":5.390426,"is_reserved":false,"is_disabled":false,"rental_uris":{"android":"levelo://app?vid=e221fd05-80ba-42e3-abd3-ada804d73a11","ios":"levelo://app?vid=e221fd05-80ba-42e3-abd3-ada804d73a11"},"vehicle_type_id":"4","last_reported":1701291977,"current_range_meters":21600,"station_id":"ce4bh3p2rcd13ifvqdp0","pricing_plan_id":"free"},{"bike_id":"bd5a5c31-6495-426c-82e9-f1d928ff8b17","system_id":"levelo_inurba_marseille","lat":43.28856,"lon":5.358371,"is_reserved":false,"is_disabled":false,"rental_uris":{"android":"levelo://app?vid=bd5a5c31-6495-426c-82e9-f1d928ff8b17","ios":"levelo://app?vid=bd5a5c31-6495-426c-82e9-f1d928ff8b17"},"vehicle_type_id":"4","last_reported":1701291977,"current_range_meters":14800,"station_id":"ce4bhb12rcd13ifvqem0","pricing_plan_id":"free"},{"bike_id":"98ddda32-c298-4de9-9ca2-0877a836d041","system_id":"levelo_inurba_marseille","lat":43.28856,"lon":5.358371,"is_reserved":false,"is_disabled":false,"rental_uris":{"android":"levelo://app?vid=98ddda32-c298-4de9-9ca2-0877a836d041","ios":"levelo://app?vid=98ddda32-c298-4de9-9ca2-0877a836d041"},"vehicle_type_id":"4","last_reported":1701291977,"current_range_meters":26400,"station_id":"ce4bhb12rcd13ifvqem0","pricing_plan_id":"free"},{"bike_id":"58b62225-256e-4d7a-addd-88854b12de0e","system_id":"levelo_inurba_marseille","lat":43.28856,"lon":5.358371,"is_reserved":false,"is_disabled":false,"rental_uris":{"android":"levelo://app?vid=58b62225-256e-4d7a-addd-88854b12de0e","ios":"levelo://app?vid=58b62225-256e-4d7a-addd-88854b12de0e"},"vehicle_type_id":"4","last_reported":1701291977,"current_range_meters":20400,"station_id":"ce4bhb12rcd13ifvqem0","pricing_plan_id":"free"},{"bike_id":"f294f06c-942d-492a-9674-b89096137224","system_id":"levelo_inurba_marseille","lat":43.28856,"lon":5.358371,"is_reserved":false,"is_disabled":false,"rental_uris":{"android":"levelo://app?vid=f294f06c-942d-492a-9674-b89096137224","ios":"levelo://app?vid=f294f06c-942d-492a-9674-b89096137224"},"vehicle_type_id":"4","last_reported":1701291977,"current_range_meters":0,"station_id":"ce4bhb12rcd13ifvqem0","pricing_plan_id":"free"},{"bike_id":"5ddd24b1-903a-4eeb-bd20-5d4de09bb75d","system_id":"levelo_inurba_marseille","lat":43.28856,"lon":5.358371,"is_reserved":false,"is_disabled":false,"rental_uris":{"android":"levelo://app?vid=5ddd24b1-903a-4eeb-bd20-5d4de09bb75d","ios":"levelo://app?vid=5ddd24b1-903a-4eeb-bd20-5d4de09bb75d"},"vehicle_type_id":"4","last_reported":1701291977,"current_range_meters":6000,"station_id":"ce4bhb12rcd13ifvqem0","pricing_plan_id":"free"},{"bike_id":"f3090319-3b82-4b93-8444-9fab36f667e8","system_id":"levelo_inurba_marseille","lat":43.28842,"lon":5.35835,"is_reserved":false,"is_disabled":false,"rental_uris":{"android":"levelo://app?vid=f3090319-3b82-4b93-8444-9fab36f667e8","ios":"levelo://app?vid=f3090319-3b82-4b93-8444-9fab36f667e8"},"vehicle_type_id":"4","last_reported":1701291977,"current_range_meters":12800,"station_id":"ce4bhb12rcd13ifvqem0","pricing_plan_id":"free"},{"bike_id":"b0fe66fd-06f1-4ae0-8c0d-e012e807dc95","system_id":"levelo_inurba_marseille","lat":43.30929,"lon":5.40141,"is_reserved":false,"is_disabled":false,"rental_uris":{"android":"levelo://app?vid=b0fe66fd-06f1-4ae0-8c0d-e012e807dc95","ios":"levelo://app?vid=b0fe66fd-06f1-4ae0-8c0d-e012e807dc95"},"vehicle_type_id":"4","last_reported":1701291977,"current_range_meters":12400,"station_id":"ce4bgvp2rcd13ifvqct0","pricing_plan_id":"free"},{"bike_id":"ecdbc40c-eb0d-41d0-a69f-ac5b430fc7de","system_id":"levelo_inurba_marseille","lat":43.309371,"lon":5.401449,"is_reserved":false,"is_disabled":false,"rental_uris":{"android":"levelo://app?vid=ecdbc40c-eb0d-41d0-a69f-ac5b430fc7de","ios":"levelo://app?vid=ecdbc40c-eb0d-41d0-a69f-ac5b430fc7de"},"vehicle_type_id":"4","last_reported":1701291977,"current_range_meters":2400,"station_id":"ce4bgvp2rcd13ifvqct0","pricing_plan_id":"free"},{"bike_id":"6ea13113-8a59-4240-b979-38b120a1f26f","system_id":"levelo_inurba_marseille","lat":43.30654,"lon":5.400909,"is_reserved":false,"is_disabled":false,"rental_uris":{"android":"levelo://app?vid=6ea13113-8a59-4240-b979-38b120a1f26f","ios":"levelo://app?vid=6ea13113-8a59-4240-b979-38b120a1f26f"},"vehicle_type_id":"4","last_reported":1701291977,"current_range_meters":0,"station_id":"ce4bh112rcd13ifvqda0","pricing_plan_id":"free"},{"bike_id":"aa6beeb4-d406-4a8a-8945-4e13fd7c0445","system_id":"levelo_inurba_marseille","lat":43.28727,"lon":5.36078,"is_reserved":false,"is_disabled":false,"rental_uris":{"android":"levelo://app?vid=aa6beeb4-d406-4a8a-8945-4e13fd7c0445","ios":"levelo://app?vid=aa6beeb4-d406-4a8a-8945-4e13fd7c0445"},"vehicle_type_id":"4","last_reported":1701291977,"current_range_meters":10400,"station_id":"cki0cbj6b192h4jlfktg","pricing_plan_id":"free"},{"bike_id":"08e6fbc7-0e72-42c6-b27b-f10786339583","system_id":"levelo_inurba_marseille","lat":43.28727,"lon":5.36078,"is_reserved":false,"is_disabled":false,"rental_uris":{"android":"levelo://app?vid=08e6fbc7-0e72-42c6-b27b-f10786339583","ios":"levelo://app?vid=08e6fbc7-0e72-42c6-b27b-f10786339583"},"vehicle_type_id":"4","last_reported":1701291977,"current_range_meters":0,"station_id":"cki0cbj6b192h4jlfktg","pricing_plan_id":"free"},{"bike_id":"629fe102-6cd1-4b81-89be-c9d5ebc679c5","system_id":"levelo_inurba_marseille","lat":43.286591,"lon":5.363346,"is_reserved":false,"is_disabled":false,"rental_uris":{"android":"levelo://app?vid=629fe102-6cd1-4b81-89be-c9d5ebc679c5","ios":"levelo://app?vid=629fe102-6cd1-4b81-89be-c9d5ebc679c5"},"vehicle_type_id":"4","last_reported":1701291977,"current_range_meters":12000,"station_id":"ce4bhah2rcd13ifvqej0","pricing_plan_id":"free"},{"bike_id":"713f67b8-b4c7-4572-95f9-6af4967dff9c","system_id":"levelo_inurba_marseille","lat":43.287008,"lon":5.373868,"is_reserved":false,"is_disabled":false,"rental_uris":{"android":"levelo://app?vid=713f67b8-b4c7-4572-95f9-6af4967dff9c","ios":"levelo://app?vid=713f67b8-b4c7-4572-95f9-6af4967dff9c"},"vehicle_type_id":"4","last_reported":1701291977,"current_range_meters":0,"station_id":"ce4bh3p2rcd13ifvqdq0","pricing_plan_id":"free"},{"bike_id":"636089dd-2d6e-40b7-91a2-c6a464f7ed6e","system_id":"levelo_inurba_marseille","lat":43.298681,"lon":5.397225,"is_reserved":false,"is_disabled":false,"rental_uris":{"android":"levelo://app?vid=636089dd-2d6e-40b7-91a2-c6a464f7ed6e","ios":"levelo://app?vid=636089dd-2d6e-40b7-91a2-c6a464f7ed6e"},"vehicle_type_id":"4","last_reported":1701291977,"current_range_meters":25600,"station_id":"ce4bh0h2rcd13ifvqd50","pricing_plan_id":"free"},{"bike_id":"4dcab8fa-239b-40f5-afc2-25565b98c0c3","system_id":"levelo_inurba_marseille","lat":43.286591,"lon":5.363346,"is_reserved":false,"is_disabled":false,"rental_uris":{"android":"levelo://app?vid=4dcab8fa-239b-40f5-afc2-25565b98c0c3","ios":"levelo://app?vid=4dcab8fa-239b-40f5-afc2-25565b98c0c3"},"vehicle_type_id":"4","last_reported":1701291977,"current_range_meters":14800,"station_id":"ce4bhah2rcd13ifvqej0","pricing_plan_id":"free"},{"bike_id":"8dd54952-cd1e-4ec8-b903-f7e8ff7d59d7","system_id":"levelo_inurba_marseille","lat":43.286961,"lon":5.373785,"is_reserved":false,"is_disabled":false,"rental_uris":{"android":"levelo://app?vid=8dd54952-cd1e-4ec8-b903-f7e8ff7d59d7","ios":"levelo://app?vid=8dd54952-cd1e-4ec8-b903-f7e8ff7d59d7"},"vehicle_type_id":"4","last_reported":1701291977,"current_range_meters":12400,"station_id":"ce4bh3p2rcd13ifvqdq0","pricing_plan_id":"free"},{"bike_id":"5ac8e1af-c0cc-43cb-bd71-f0606fb7b957","system_id":"levelo_inurba_marseille","lat":43.286961,"lon":5.373785,"is_reserved":false,"is_disabled":false,"rental_uris":{"android":"levelo://app?vid=5ac8e1af-c0cc-43cb-bd71-f0606fb7b957","ios":"levelo://app?vid=5ac8e1af-c0cc-43cb-bd71-f0606fb7b957"},"vehicle_type_id":"4","last_reported":1701291977,"current_range_meters":21600,"station_id":"ce4bh3p2rcd13ifvqdq0","pricing_plan_id":"free"},{"bike_id":"85f4ba32-c0a4-4b43-96ff-951eeafc0a39","system_id":"levelo_inurba_marseille","lat":43.295196,"lon":5.39397,"is_reserved":false,"is_disabled":false,"rental_uris":{"android":"levelo://app?vid=85f4ba32-c0a4-4b43-96ff-951eeafc0a39","ios":"levelo://app?vid=85f4ba32-c0a4-4b43-96ff-951eeafc0a39"},"vehicle_type_id":"4","last_reported":1701291977,"current_range_meters":31200,"station_id":"ce4bh292rcd13ifvqdf0","pricing_plan_id":"free"},{"bike_id":"407b3908-d614-4957-a9a7-646d2dd04fda","system_id":"levelo_inurba_marseille","lat":43.29027,"lon":5.38639,"is_reserved":false,"is_disabled":false,"rental_uris":{"android":"levelo://app?vid=407b3908-d614-4957-a9a7-646d2dd04fda","ios":"levelo://app?vid=407b3908-d614-4957-a9a7-646d2dd04fda"},"vehicle_type_id":"4","last_reported":1701291977,"current_range_meters":6000,"station_id":"","pricing_plan_id":"free"},{"bike_id":"a3bdef2f-81c6-4599-862b-b373eae28b8b","system_id":"levelo_inurba_marseille","lat":43.29026,"lon":5.38648,"is_reserved":false,"is_disabled":false,"rental_uris":{"android":"levelo://app?vid=a3bdef2f-81c6-4599-862b-b373eae28b8b","ios":"levelo://app?vid=a3bdef2f-81c6-4599-862b-b373eae28b8b"},"vehicle_type_id":"4","last_reported":1701291977,"current_range_meters":28000,"station_id":"","pricing_plan_id":"free"},{"bike_id":"c285de71-5a76-4488-ba62-6687d26111e4","system_id":"levelo_inurba_marseille","lat":43.316517,"lon":5.404375,"is_reserved":false,"is_disabled":false,"rental_uris":{"android":"levelo://app?vid=c285de71-5a76-4488-ba62-6687d26111e4","ios":"levelo://app?vid=c285de71-5a76-4488-ba62-6687d26111e4"},"vehicle_type_id":"4","last_reported":1701291977,"current_range_meters":23600,"station_id":"ce4bh012rcd13ifvqd00","pricing_plan_id":"free"},{"bike_id":"589bbc17-bf14-4455-bff8-c1a011b76a56","system_id":"levelo_inurba_marseille","lat":43.316517,"lon":5.404375,"is_reserved":false,"is_disabled":false,"rental_uris":{"android":"levelo://app?vid=589bbc17-bf14-4455-bff8-c1a011b76a56","ios":"levelo://app?vid=589bbc17-bf14-4455-bff8-c1a011b76a56"},"vehicle_type_id":"4","last_reported":1701291977,"current_range_meters":22800,"station_id":"ce4bh012rcd13ifvqd00","pricing_plan_id":"free"},{"bike_id":"02fcc584-c8b8-4992-9f27-1b91b53f8229","system_id":"levelo_inurba_marseille","lat":43.28464,"lon":5.35894,"is_reserved":false,"is_disabled":false,"rental_uris":{"android":"levelo://app?vid=02fcc584-c8b8-4992-9f27-1b91b53f8229","ios":"levelo://app?vid=02fcc584-c8b8-4992-9f27-1b91b53f8229"},"vehicle_type_id":"4","last_reported":1701291977,"current_range_meters":0,"station_id":"ce4bhah2rcd13ifvqei0","pricing_plan_id":"free"},{"bike_id":"7399e7de-2b26-4998-9714-2466aa91e3a6","system_id":"levelo_inurba_marseille","lat":43.284534,"lon":5.358662,"is_reserved":false,"is_disabled":false,"rental_uris":{"android":"levelo://app?vid=7399e7de-2b26-4998-9714-2466aa91e3a6","ios":"levelo://app?vid=7399e7de-2b26-4998-9714-2466aa91e3a6"},"vehicle_type_id":"4","last_reported":1701291977,"current_range_meters":25600,"station_id":"ce4bhah2rcd13ifvqei0","pricing_plan_id":"free"},{"bike_id":"92ef320b-a6b1-419c-a06a-ac77dfd0d2e3","system_id":"levelo_inurba_marseille","lat":43.294314,"lon":5.397498,"is_reserved":false,"is_disabled":false,"rental_uris":{"android":"levelo://app?vid=92ef320b-a6b1-419c-a06a-ac77dfd0d2e3","ios":"levelo://app?vid=92ef320b-a6b1-419c-a06a-ac77dfd0d2e3"},"vehicle_type_id":"4","last_reported":1701291977,"current_range_meters":28000,"station_id":"ce4bh3h2rcd13ifvqdo0","pricing_plan_id":"free"},{"bike_id":"72468243-3a7c-4a9e-9a5c-2fe0917825ae","system_id":"levelo_inurba_marseille","lat":43.294333,"lon":5.39747,"is_reserved":false,"is_disabled":false,"rental_uris":{"android":"levelo://app?vid=72468243-3a7c-4a9e-9a5c-2fe0917825ae","ios":"levelo://app?vid=72468243-3a7c-4a9e-9a5c-2fe0917825ae"},"vehicle_type_id":"4","last_reported":1701291977,"current_range_meters":25200,"station_id":"ce4bh3h2rcd13ifvqdo0","pricing_plan_id":"free"},{"bike_id":"f9601311-7b5a-45ca-b201-3634bd08062d","system_id":"levelo_inurba_marseille","lat":43.28615,"lon":5.35101,"is_reserved":false,"is_disabled":false,"rental_uris":{"android":"levelo://app?vid=f9601311-7b5a-45ca-b201-3634bd08062d","ios":"levelo://app?vid=f9601311-7b5a-45ca-b201-3634bd08062d"},"vehicle_type_id":"4","last_reported":1701291977,"current_range_meters":20400,"station_id":"ce4bhch2rcd13ifvqeug","pricing_plan_id":"free"},{"bike_id":"702d0fd4-d176-48d8-8568-2e1456896b85","system_id":"levelo_inurba_marseille","lat":43.283998,"lon":5.375062,"is_reserved":false,"is_disabled":false,"rental_uris":{"android":"levelo://app?vid=702d0fd4-d176-48d8-8568-2e1456896b85","ios":"levelo://app?vid=702d0fd4-d176-48d8-8568-2e1456896b85"},"vehicle_type_id":"4","last_reported":1701291977,"current_range_meters":800,"station_id":"ce4bh412rcd13ifvqds0","pricing_plan_id":"free"},{"bike_id":"87982c98-aa48-4360-9231-8dcc8e21859c","system_id":"levelo_inurba_marseille","lat":43.323464,"lon":5.406297,"is_reserved":false,"is_disabled":false,"rental_uris":{"android":"levelo://app?vid=87982c98-aa48-4360-9231-8dcc8e21859c","ios":"levelo://app?vid=87982c98-aa48-4360-9231-8dcc8e21859c"},"vehicle_type_id":"4","last_reported":1701291977,"current_range_meters":28400,"station_id":"ce4bhq92rcd13ifvqhjg","pricing_plan_id":"free"},{"bike_id":"0a01a476-ee65-43f0-86ce-1b71d00c4784","system_id":"levelo_inurba_marseille","lat":43.29795,"lon":5.404086,"is_reserved":false,"is_disabled":false,"rental_uris":{"android":"levelo://app?vid=0a01a476-ee65-43f0-86ce-1b71d00c4784","ios":"levelo://app?vid=0a01a476-ee65-43f0-86ce-1b71d00c4784"},"vehicle_type_id":"4","last_reported":1701291977,"current_range_meters":28000,"station_id":"ce4bh112rcd13ifvqd90","pricing_plan_id":"free"},{"bike_id":"39173b6c-5c4e-4507-8015-07d87cc7e0ad","system_id":"levelo_inurba_marseille","lat":43.283494,"lon":5.380945,"is_reserved":false,"is_disabled":false,"rental_uris":{"android":"levelo://app?vid=39173b6c-5c4e-4507-8015-07d87cc7e0ad","ios":"levelo://app?vid=39173b6c-5c4e-4507-8015-07d87cc7e0ad"},"vehicle_type_id":"4","last_reported":1701291977,"current_range_meters":26400,"station_id":"ce4bh412rcd13ifvqdr0","pricing_plan_id":"free"},{"bike_id":"d2120d76-0fad-47eb-b244-dc59d199f1f4","system_id":"levelo_inurba_marseille","lat":43.3334,"lon":5.39872,"is_reserved":false,"is_disabled":false,"rental_uris":{"android":"levelo://app?vid=d2120d76-0fad-47eb-b244-dc59d199f1f4","ios":"levelo://app?vid=d2120d76-0fad-47eb-b244-dc59d199f1f4"},"vehicle_type_id":"4","last_reported":1701291977,"current_range_meters":1600,"station_id":"","pricing_plan_id":"free"},{"bike_id":"03a2720d-c89d-4b2b-8eac-8284e65277bd","system_id":"levelo_inurba_marseille","lat":43.283498,"lon":5.380948,"is_reserved":false,"is_disabled":false,"rental_uris":{"android":"levelo://app?vid=03a2720d-c89d-4b2b-8eac-8284e65277bd","ios":"levelo://app?vid=03a2720d-c89d-4b2b-8eac-8284e65277bd"},"vehicle_type_id":"4","last_reported":1701291977,"current_range_meters":12000,"station_id":"ce4bh412rcd13ifvqdr0","pricing_plan_id":"free"},{"bike_id":"905fede1-9d8a-4cff-9c7f-900efd540e3d","system_id":"levelo_inurba_marseille","lat":43.282744,"lon":5.350533,"is_reserved":false,"is_disabled":false,"rental_uris":{"android":"levelo://app?vid=905fede1-9d8a-4cff-9c7f-900efd540e3d","ios":"levelo://app?vid=905fede1-9d8a-4cff-9c7f-900efd540e3d"},"vehicle_type_id":"4","last_reported":1701291977,"current_range_meters":26400,"station_id":"ce4bhbp2rcd13ifvqerg","pricing_plan_id":"free"},{"bike_id":"34bd56fe-1e78-4f52-bfbe-32ff63417704","system_id":"levelo_inurba_marseille","lat":43.2827,"lon":5.35059,"is_reserved":false,"is_disabled":false,"rental_uris":{"android":"levelo://app?vid=34bd56fe-1e78-4f52-bfbe-32ff63417704","ios":"levelo://app?vid=34bd56fe-1e78-4f52-bfbe-32ff63417704"},"vehicle_type_id":"4","last_reported":1701291977,"current_range_meters":31200,"station_id":"ce4bhbp2rcd13ifvqerg","pricing_plan_id":"free"},{"bike_id":"963d6a9c-7612-4a37-803a-3af335937e69","system_id":"levelo_inurba_marseille","lat":43.282754,"lon":5.350519,"is_reserved":false,"is_disabled":false,"rental_uris":{"android":"levelo://app?vid=963d6a9c-7612-4a37-803a-3af335937e69","ios":"levelo://app?vid=963d6a9c-7612-4a37-803a-3af335937e69"},"vehicle_type_id":"4","last_reported":1701291977,"current_range_meters":22000,"station_id":"ce4bhbp2rcd13ifvqerg","pricing_plan_id":"free"},{"bike_id":"f3edfa28-1f6b-4879-b4f7-158bdbbdee95","system_id":"levelo_inurba_marseille","lat":43.280382,"lon":5.369291,"is_reserved":false,"is_disabled":false,"rental_uris":{"android":"levelo://app?vid=f3edfa28-1f6b-4879-b4f7-158bdbbdee95","ios":"levelo://app?vid=f3edfa28-1f6b-4879-b4f7-158bdbbdee95"},"vehicle_type_id":"4","last_reported":1701291977,"current_range_meters":31200,"station_id":"ce4bha12rcd13ifvqef0","pricing_plan_id":"free"},{"bike_id":"b39cf2b2-ecca-4141-a4e9-def827cec38f","system_id":"levelo_inurba_marseille","lat":43.2804,"lon":5.36937,"is_reserved":false,"is_disabled":false,"rental_uris":{"android":"levelo://app?vid=b39cf2b2-ecca-4141-a4e9-def827cec38f","ios":"levelo://app?vid=b39cf2b2-ecca-4141-a4e9-def827cec38f"},"vehicle_type_id":"4","last_reported":1701291977,"current_range_meters":6000,"station_id":"ce4bha12rcd13ifvqef0","pricing_plan_id":"free"},{"bike_id":"730d6574-35f2-4c7e-a4c2-72ac67eb3b70","system_id":"levelo_inurba_marseille","lat":43.280382,"lon":5.369291,"is_reserved":false,"is_disabled":false,"rental_uris":{"android":"levelo://app?vid=730d6574-35f2-4c7e-a4c2-72ac67eb3b70","ios":"levelo://app?vid=730d6574-35f2-4c7e-a4c2-72ac67eb3b70"},"vehicle_type_id":"4","last_reported":1701291977,"current_range_meters":30000,"station_id":"ce4bha12rcd13ifvqef0","pricing_plan_id":"free"},{"bike_id":"275d6402-0ea6-4af0-8fc5-9b35462d469f","system_id":"levelo_inurba_marseille","lat":43.280382,"lon":5.369291,"is_reserved":false,"is_disabled":false,"rental_uris":{"android":"levelo://app?vid=275d6402-0ea6-4af0-8fc5-9b35462d469f","ios":"levelo://app?vid=275d6402-0ea6-4af0-8fc5-9b35462d469f"},"vehicle_type_id":"4","last_reported":1701291977,"current_range_meters":25600,"station_id":"ce4bha12rcd13ifvqef0","pricing_plan_id":"free"},{"bike_id":"f6ebb7a9-b097-4f65-bad2-e6900739b283","system_id":"levelo_inurba_marseille","lat":43.28039,"lon":5.369297,"is_reserved":false,"is_disabled":false,"rental_uris":{"android":"levelo://app?vid=f6ebb7a9-b097-4f65-bad2-e6900739b283","ios":"levelo://app?vid=f6ebb7a9-b097-4f65-bad2-e6900739b283"},"vehicle_type_id":"4","last_reported":1701291977,"current_range_meters":29600,"station_id":"ce4bha12rcd13ifvqef0","pricing_plan_id":"free"},{"bike_id":"16d3bd81-7a86-44bf-8a72-00e5025d1104","system_id":"levelo_inurba_marseille","lat":43.29041,"lon":5.399634,"is_reserved":false,"is_disabled":false,"rental_uris":{"android":"levelo://app?vid=16d3bd81-7a86-44bf-8a72-00e5025d1104","ios":"levelo://app?vid=16d3bd81-7a86-44bf-8a72-00e5025d1104"},"vehicle_type_id":"4","last_reported":1701291977,"current_range_meters":24000,"station_id":"ce4bh392rcd13ifvqdm0","pricing_plan_id":"free"},{"bike_id":"cb269f5a-f40c-4f54-a97c-e4dad92c0bef","system_id":"levelo_inurba_marseille","lat":43.296263,"lon":5.40601,"is_reserved":false,"is_disabled":false,"rental_uris":{"android":"levelo://app?vid=cb269f5a-f40c-4f54-a97c-e4dad92c0bef","ios":"levelo://app?vid=cb269f5a-f40c-4f54-a97c-e4dad92c0bef"},"vehicle_type_id":"4","last_reported":1701291977,"current_range_meters":4800,"station_id":"ce4bh0h2rcd13ifvqd60","pricing_plan_id":"free"},{"bike_id":"8385f870-6662-4352-8348-3b0848ef34b5","system_id":"levelo_inurba_marseille","lat":43.296263,"lon":5.40601,"is_reserved":false,"is_disabled":false,"rental_uris":{"android":"levelo://app?vid=8385f870-6662-4352-8348-3b0848ef34b5","ios":"levelo://app?vid=8385f870-6662-4352-8348-3b0848ef34b5"},"vehicle_type_id":"4","last_reported":1701291977,"current_range_meters":11200,"station_id":"ce4bh0h2rcd13ifvqd60","pricing_plan_id":"free"},{"bike_id":"c5715a9c-fe69-4bd7-8288-472041893a9d","system_id":"levelo_inurba_marseille","lat":43.296263,"lon":5.40601,"is_reserved":false,"is_disabled":false,"rental_uris":{"android":"levelo://app?vid=c5715a9c-fe69-4bd7-8288-472041893a9d","ios":"levelo://app?vid=c5715a9c-fe69-4bd7-8288-472041893a9d"},"vehicle_type_id":"4","last_reported":1701291977,"current_range_meters":11600,"station_id":"ce4bh0h2rcd13ifvqd60","pricing_plan_id":"free"},{"bike_id":"fba1bf70-eee7-4253-be10-052639b58afc","system_id":"levelo_inurba_marseille","lat":43.284462,"lon":5.392121,"is_reserved":false,"is_disabled":false,"rental_uris":{"android":"levelo://app?vid=fba1bf70-eee7-4253-be10-052639b58afc","ios":"levelo://app?vid=fba1bf70-eee7-4253-be10-052639b58afc"},"vehicle_type_id":"4","last_reported":1701291977,"current_range_meters":21600,"station_id":"ce4bhoh2rcd13ifvqh5g","pricing_plan_id":"free"},{"bike_id":"37acad65-f8cd-47e0-9eae-e83a3ca3156e","system_id":"levelo_inurba_marseille","lat":43.284462,"lon":5.392121,"is_reserved":false,"is_disabled":false,"rental_uris":{"android":"levelo://app?vid=37acad65-f8cd-47e0-9eae-e83a3ca3156e","ios":"levelo://app?vid=37acad65-f8cd-47e0-9eae-e83a3ca3156e"},"vehicle_type_id":"4","last_reported":1701291977,"current_range_meters":24400,"station_id":"ce4bhoh2rcd13ifvqh5g","pricing_plan_id":"free"},{"bike_id":"03633c6f-9755-4744-b4fa-def7692391db","system_id":"levelo_inurba_marseille","lat":43.285742,"lon":5.395004,"is_reserved":false,"is_disabled":false,"rental_uris":{"android":"levelo://app?vid=03633c6f-9755-4744-b4fa-def7692391db","ios":"levelo://app?vid=03633c6f-9755-4744-b4fa-def7692391db"},"vehicle_type_id":"4","last_reported":1701291977,"current_range_meters":2400,"station_id":"ce4bh292rcd13ifvqdg0","pricing_plan_id":"free"},{"bike_id":"b68219d4-fad7-4a12-bac0-33d9b017f229","system_id":"levelo_inurba_marseille","lat":43.285742,"lon":5.395004,"is_reserved":false,"is_disabled":false,"rental_uris":{"android":"levelo://app?vid=b68219d4-fad7-4a12-bac0-33d9b017f229","ios":"levelo://app?vid=b68219d4-fad7-4a12-bac0-33d9b017f229"},"vehicle_type_id":"4","last_reported":1701291977,"current_range_meters":13200,"station_id":"ce4bh292rcd13ifvqdg0","pricing_plan_id":"free"},{"bike_id":"393a927a-5e84-4b98-ac83-113d36c799a8","system_id":"levelo_inurba_marseille","lat":43.28573,"lon":5.394992,"is_reserved":false,"is_disabled":false,"rental_uris":{"android":"levelo://app?vid=393a927a-5e84-4b98-ac83-113d36c799a8","ios":"levelo://app?vid=393a927a-5e84-4b98-ac83-113d36c799a8"},"vehicle_type_id":"4","last_reported":1701291977,"current_range_meters":23600,"station_id":"ce4bh292rcd13ifvqdg0","pricing_plan_id":"free"},{"bike_id":"85e78dd5-a1ef-47ab-a5ab-a15b7c11fdf7","system_id":"levelo_inurba_marseille","lat":43.28573,"lon":5.394992,"is_reserved":false,"is_disabled":false,"rental_uris":{"android":"levelo://app?vid=85e78dd5-a1ef-47ab-a5ab-a15b7c11fdf7","ios":"levelo://app?vid=85e78dd5-a1ef-47ab-a5ab-a15b7c11fdf7"},"vehicle_type_id":"4","last_reported":1701291977,"current_range_meters":23200,"station_id":"ce4bh292rcd13ifvqdg0","pricing_plan_id":"free"},{"bike_id":"12d72361-b548-4eff-ac6b-f81c81bb0ba9","system_id":"levelo_inurba_marseille","lat":43.28573,"lon":5.394992,"is_reserved":false,"is_disabled":false,"rental_uris":{"android":"levelo://app?vid=12d72361-b548-4eff-ac6b-f81c81bb0ba9","ios":"levelo://app?vid=12d72361-b548-4eff-ac6b-f81c81bb0ba9"},"vehicle_type_id":"4","last_reported":1701291977,"current_range_meters":6000,"station_id":"ce4bh292rcd13ifvqdg0","pricing_plan_id":"free"},{"bike_id":"010d9f9f-5238-4fb9-b42b-e62d985c34ce","system_id":"levelo_inurba_marseille","lat":43.304188,"lon":5.412904,"is_reserved":false,"is_disabled":false,"rental_uris":{"android":"levelo://app?vid=010d9f9f-5238-4fb9-b42b-e62d985c34ce","ios":"levelo://app?vid=010d9f9f-5238-4fb9-b42b-e62d985c34ce"},"vehicle_type_id":"4","last_reported":1701291977,"current_range_meters":23600,"station_id":"ce4bhop2rcd13ifvqh8g","pricing_plan_id":"free"},{"bike_id":"e3713d96-8452-4f2a-b1d6-acdb5f14e91b","system_id":"levelo_inurba_marseille","lat":43.304188,"lon":5.412904,"is_reserved":false,"is_disabled":false,"rental_uris":{"android":"levelo://app?vid=e3713d96-8452-4f2a-b1d6-acdb5f14e91b","ios":"levelo://app?vid=e3713d96-8452-4f2a-b1d6-acdb5f14e91b"},"vehicle_type_id":"4","last_reported":1701291977,"current_range_meters":15600,"station_id":"ce4bhop2rcd13ifvqh8g","pricing_plan_id":"free"},{"bike_id":"65007239-262e-4ded-a710-dd1385475011","system_id":"levelo_inurba_marseille","lat":43.279087,"lon":5.380114,"is_reserved":false,"is_disabled":false,"rental_uris":{"android":"levelo://app?vid=65007239-262e-4ded-a710-dd1385475011","ios":"levelo://app?vid=65007239-262e-4ded-a710-dd1385475011"},"vehicle_type_id":"4","last_reported":1701291977,"current_range_meters":14400,"station_id":"ce4bhf92rcd13ifvqf50","pricing_plan_id":"free"},{"bike_id":"4dfe3209-9d78-4a45-9d5e-710d41e729d6","system_id":"levelo_inurba_marseille","lat":43.279742,"lon":5.38744,"is_reserved":false,"is_disabled":false,"rental_uris":{"android":"levelo://app?vid=4dfe3209-9d78-4a45-9d5e-710d41e729d6","ios":"levelo://app?vid=4dfe3209-9d78-4a45-9d5e-710d41e729d6"},"vehicle_type_id":"4","last_reported":1701291977,"current_range_meters":0,"station_id":"ce4bhg12rcd13ifvqf80","pricing_plan_id":"free"},{"bike_id":"dec95bca-6e2c-4768-a173-128059aecf98","system_id":"levelo_inurba_marseille","lat":43.299577,"lon":5.413277,"is_reserved":false,"is_disabled":false,"rental_uris":{"android":"levelo://app?vid=dec95bca-6e2c-4768-a173-128059aecf98","ios":"levelo://app?vid=dec95bca-6e2c-4768-a173-128059aecf98"},"vehicle_type_id":"4","last_reported":1701291977,"current_range_meters":10800,"station_id":"ce4bhp12rcd13ifvqh9g","pricing_plan_id":"free"},{"bike_id":"8e6cacc9-e6e2-4787-a2f9-eb30e6b95ae9","system_id":"levelo_inurba_marseille","lat":43.292571,"lon":5.409107,"is_reserved":false,"is_disabled":false,"rental_uris":{"android":"levelo://app?vid=8e6cacc9-e6e2-4787-a2f9-eb30e6b95ae9","ios":"levelo://app?vid=8e6cacc9-e6e2-4787-a2f9-eb30e6b95ae9"},"vehicle_type_id":"4","last_reported":1701291977,"current_range_meters":4800,"station_id":"ce4bh192rcd13ifvqdc0","pricing_plan_id":"free"},{"bike_id":"ed9b8387-82a7-47e9-9de0-0dcbb28c2109","system_id":"levelo_inurba_marseille","lat":43.280784,"lon":5.396622,"is_reserved":false,"is_disabled":false,"rental_uris":{"android":"levelo://app?vid=ed9b8387-82a7-47e9-9de0-0dcbb28c2109","ios":"levelo://app?vid=ed9b8387-82a7-47e9-9de0-0dcbb28c2109"},"vehicle_type_id":"4","last_reported":1701291977,"current_range_meters":26400,"station_id":"ce4bho12rcd13ifvqh2g","pricing_plan_id":"free"},{"bike_id":"6f4b33e5-56e0-48a2-969b-d8d5c5b771f7","system_id":"levelo_inurba_marseille","lat":43.2784,"lon":5.392115,"is_reserved":false,"is_disabled":false,"rental_uris":{"android":"levelo://app?vid=6f4b33e5-56e0-48a2-969b-d8d5c5b771f7","ios":"levelo://app?vid=6f4b33e5-56e0-48a2-969b-d8d5c5b771f7"},"vehicle_type_id":"4","last_reported":1701291977,"current_range_meters":31200,"station_id":"ce4bhjp2rcd13ifvqga0","pricing_plan_id":"free"},{"bike_id":"aeb6aae8-277f-467f-8c00-8f540be5604a","system_id":"levelo_inurba_marseille","lat":43.278345,"lon":5.391975,"is_reserved":false,"is_disabled":false,"rental_uris":{"android":"levelo://app?vid=aeb6aae8-277f-467f-8c00-8f540be5604a","ios":"levelo://app?vid=aeb6aae8-277f-467f-8c00-8f540be5604a"},"vehicle_type_id":"4","last_reported":1701291977,"current_range_meters":29200,"station_id":"ce4bhjp2rcd13ifvqga0","pricing_plan_id":"free"},{"bike_id":"296f705c-8804-4ce5-861e-e9c04f4fe098","system_id":"levelo_inurba_marseille","lat":43.27832,"lon":5.39204,"is_reserved":false,"is_disabled":false,"rental_uris":{"android":"levelo://app?vid=296f705c-8804-4ce5-861e-e9c04f4fe098","ios":"levelo://app?vid=296f705c-8804-4ce5-861e-e9c04f4fe098"},"vehicle_type_id":"4","last_reported":1701291977,"current_range_meters":31200,"station_id":"ce4bhjp2rcd13ifvqga0","pricing_plan_id":"free"},{"bike_id":"219e42b5-e331-4a56-a977-7bb0616fc90a","system_id":"levelo_inurba_marseille","lat":43.278401,"lon":5.392152,"is_reserved":false,"is_disabled":false,"rental_uris":{"android":"levelo://app?vid=219e42b5-e331-4a56-a977-7bb0616fc90a","ios":"levelo://app?vid=219e42b5-e331-4a56-a977-7bb0616fc90a"},"vehicle_type_id":"4","last_reported":1701291977,"current_range_meters":19200,"station_id":"ce4bhjp2rcd13ifvqga0","pricing_plan_id":"free"},{"bike_id":"51906621-8246-492d-ac66-399d5e20cda5","system_id":"levelo_inurba_marseille","lat":43.278399,"lon":5.392139,"is_reserved":false,"is_disabled":false,"rental_uris":{"android":"levelo://app?vid=51906621-8246-492d-ac66-399d5e20cda5","ios":"levelo://app?vid=51906621-8246-492d-ac66-399d5e20cda5"},"vehicle_type_id":"4","last_reported":1701291977,"current_range_meters":31600,"station_id":"ce4bhjp2rcd13ifvqga0","pricing_plan_id":"free"},{"bike_id":"9d142aeb-b679-4d87-a6b0-de38f0581765","system_id":"levelo_inurba_marseille","lat":43.336148,"lon":5.410349,"is_reserved":false,"is_disabled":false,"rental_uris":{"android":"levelo://app?vid=9d142aeb-b679-4d87-a6b0-de38f0581765","ios":"levelo://app?vid=9d142aeb-b679-4d87-a6b0-de38f0581765"},"vehicle_type_id":"4","last_reported":1701291977,"current_range_meters":30000,"station_id":"ce4bhqh2rcd13ifvqhmg","pricing_plan_id":"free"},{"bike_id":"ae944ce2-e7fe-407f-a11d-0561779717d0","system_id":"levelo_inurba_marseille","lat":43.273613,"lon":5.362705,"is_reserved":false,"is_disabled":false,"rental_uris":{"android":"levelo://app?vid=ae944ce2-e7fe-407f-a11d-0561779717d0","ios":"levelo://app?vid=ae944ce2-e7fe-407f-a11d-0561779717d0"},"vehicle_type_id":"4","last_reported":1701291977,"current_range_meters":2000,"station_id":"ce4bhbh2rcd13ifvqeo0","pricing_plan_id":"free"},{"bike_id":"b2dce51d-ce4e-40fb-9ef2-73d9b2b72d52","system_id":"levelo_inurba_marseille","lat":43.273609,"lon":5.362708,"is_reserved":false,"is_disabled":false,"rental_uris":{"android":"levelo://app?vid=b2dce51d-ce4e-40fb-9ef2-73d9b2b72d52","ios":"levelo://app?vid=b2dce51d-ce4e-40fb-9ef2-73d9b2b72d52"},"vehicle_type_id":"4","last_reported":1701291977,"current_range_meters":26000,"station_id":"ce4bhbh2rcd13ifvqeo0","pricing_plan_id":"free"},{"bike_id":"9a0a29ad-7574-42cb-a4fc-de7c094c3a31","system_id":"levelo_inurba_marseille","lat":43.273613,"lon":5.362705,"is_reserved":false,"is_disabled":false,"rental_uris":{"android":"levelo://app?vid=9a0a29ad-7574-42cb-a4fc-de7c094c3a31","ios":"levelo://app?vid=9a0a29ad-7574-42cb-a4fc-de7c094c3a31"},"vehicle_type_id":"4","last_reported":1701291977,"current_range_meters":30000,"station_id":"ce4bhbh2rcd13ifvqeo0","pricing_plan_id":"free"},{"bike_id":"02bbaec1-5fe3-4433-9407-81171b2a94ea","system_id":"levelo_inurba_marseille","lat":43.275625,"lon":5.384392,"is_reserved":false,"is_disabled":false,"rental_uris":{"android":"levelo://app?vid=02bbaec1-5fe3-4433-9407-81171b2a94ea","ios":"levelo://app?vid=02bbaec1-5fe3-4433-9407-81171b2a94ea"},"vehicle_type_id":"4","last_reported":1701291977,"current_range_meters":29600,"station_id":"ce4bhh92rcd13ifvqfi0","pricing_plan_id":"free"},{"bike_id":"a76aea1e-f460-4283-9591-8fd8c7ac0ea7","system_id":"levelo_inurba_marseille","lat":43.34116,"lon":5.40583,"is_reserved":false,"is_disabled":false,"rental_uris":{"android":"levelo://app?vid=a76aea1e-f460-4283-9591-8fd8c7ac0ea7","ios":"levelo://app?vid=a76aea1e-f460-4283-9591-8fd8c7ac0ea7"},"vehicle_type_id":"4","last_reported":1701291977,"current_range_meters":14000,"station_id":"","pricing_plan_id":"free"},{"bike_id":"2ff8d530-edfd-4dcb-b395-370a78501d2b","system_id":"levelo_inurba_marseille","lat":43.275903,"lon":5.389357,"is_reserved":false,"is_disabled":false,"rental_uris":{"android":"levelo://app?vid=2ff8d530-edfd-4dcb-b395-370a78501d2b","ios":"levelo://app?vid=2ff8d530-edfd-4dcb-b395-370a78501d2b"},"vehicle_type_id":"4","last_reported":1701291977,"current_range_meters":26000,"station_id":"","pricing_plan_id":"free"},{"bike_id":"8f307e62-2714-4eb0-b692-109243afdcbc","system_id":"levelo_inurba_marseille","lat":43.279952,"lon":5.400085,"is_reserved":false,"is_disabled":false,"rental_uris":{"android":"levelo://app?vid=8f307e62-2714-4eb0-b692-109243afdcbc","ios":"levelo://app?vid=8f307e62-2714-4eb0-b692-109243afdcbc"},"vehicle_type_id":"4","last_reported":1701291977,"current_range_meters":1200,"station_id":"ce4bho92rcd13ifvqh4g","pricing_plan_id":"free"},{"bike_id":"ebda0b6e-7465-4608-841e-9d7a331ae123","system_id":"levelo_inurba_marseille","lat":43.279952,"lon":5.400085,"is_reserved":false,"is_disabled":false,"rental_uris":{"android":"levelo://app?vid=ebda0b6e-7465-4608-841e-9d7a331ae123","ios":"levelo://app?vid=ebda0b6e-7465-4608-841e-9d7a331ae123"},"vehicle_type_id":"4","last_reported":1701291977,"current_range_meters":27600,"station_id":"ce4bho92rcd13ifvqh4g","pricing_plan_id":"free"},{"bike_id":"3c50c062-4b6b-4e52-ac0a-ef7174711fa9","system_id":"levelo_inurba_marseille","lat":43.279952,"lon":5.400085,"is_reserved":false,"is_disabled":false,"rental_uris":{"android":"levelo://app?vid=3c50c062-4b6b-4e52-ac0a-ef7174711fa9","ios":"levelo://app?vid=3c50c062-4b6b-4e52-ac0a-ef7174711fa9"},"vehicle_type_id":"4","last_reported":1701291977,"current_range_meters":19600,"station_id":"ce4bho92rcd13ifvqh4g","pricing_plan_id":"free"},{"bike_id":"69074476-d243-4f41-9b35-a2ca1c437551","system_id":"levelo_inurba_marseille","lat":43.317121,"lon":5.423936,"is_reserved":false,"is_disabled":false,"rental_uris":{"android":"levelo://app?vid=69074476-d243-4f41-9b35-a2ca1c437551","ios":"levelo://app?vid=69074476-d243-4f41-9b35-a2ca1c437551"},"vehicle_type_id":"4","last_reported":1701291977,"current_range_meters":31600,"station_id":"ce4bhp92rcd13ifvqhbg","pricing_plan_id":"free"},{"bike_id":"b222eba3-6fd7-4d0a-856e-40e60d0566a6","system_id":"levelo_inurba_marseille","lat":43.274103,"lon":5.394016,"is_reserved":false,"is_disabled":false,"rental_uris":{"android":"levelo://app?vid=b222eba3-6fd7-4d0a-856e-40e60d0566a6","ios":"levelo://app?vid=b222eba3-6fd7-4d0a-856e-40e60d0566a6"},"vehicle_type_id":"4","last_reported":1701291977,"current_range_meters":4000,"station_id":"ce4bhdp2rcd13ifvqf20","pricing_plan_id":"free"},{"bike_id":"9ea1e46e-1f37-478a-8ea8-016bcfb89e06","system_id":"levelo_inurba_marseille","lat":43.274103,"lon":5.394016,"is_reserved":false,"is_disabled":false,"rental_uris":{"android":"levelo://app?vid=9ea1e46e-1f37-478a-8ea8-016bcfb89e06","ios":"levelo://app?vid=9ea1e46e-1f37-478a-8ea8-016bcfb89e06"},"vehicle_type_id":"4","last_reported":1701291977,"current_range_meters":8800,"station_id":"ce4bhdp2rcd13ifvqf20","pricing_plan_id":"free"},{"bike_id":"4629788e-4f7a-4103-b95e-583d0b30f54b","system_id":"levelo_inurba_marseille","lat":43.272826,"lon":5.390918,"is_reserved":false,"is_disabled":false,"rental_uris":{"android":"levelo://app?vid=4629788e-4f7a-4103-b95e-583d0b30f54b","ios":"levelo://app?vid=4629788e-4f7a-4103-b95e-583d0b30f54b"},"vehicle_type_id":"4","last_reported":1701291977,"current_range_meters":0,"station_id":"ce4bhgp2rcd13ifvqfe0","pricing_plan_id":"free"},{"bike_id":"7335a393-cc37-4e1d-b729-82d3cd0e69fb","system_id":"levelo_inurba_marseille","lat":43.29519,"lon":5.4227,"is_reserved":false,"is_disabled":false,"rental_uris":{"android":"levelo://app?vid=7335a393-cc37-4e1d-b729-82d3cd0e69fb","ios":"levelo://app?vid=7335a393-cc37-4e1d-b729-82d3cd0e69fb"},"vehicle_type_id":"4","last_reported":1701291977,"current_range_meters":23200,"station_id":"ce4bhph2rcd13ifvqhdg","pricing_plan_id":"free"},{"bike_id":"d6196e04-2494-4446-a9da-1bc4c12e52ee","system_id":"levelo_inurba_marseille","lat":43.295523,"lon":5.422926,"is_reserved":false,"is_disabled":false,"rental_uris":{"android":"levelo://app?vid=d6196e04-2494-4446-a9da-1bc4c12e52ee","ios":"levelo://app?vid=d6196e04-2494-4446-a9da-1bc4c12e52ee"},"vehicle_type_id":"4","last_reported":1701291977,"current_range_meters":16000,"station_id":"ce4bhph2rcd13ifvqhdg","pricing_plan_id":"free"},{"bike_id":"799503f3-e179-42db-9435-2b71c78c0fdd","system_id":"levelo_inurba_marseille","lat":43.278128,"lon":5.407195,"is_reserved":false,"is_disabled":false,"rental_uris":{"android":"levelo://app?vid=799503f3-e179-42db-9435-2b71c78c0fdd","ios":"levelo://app?vid=799503f3-e179-42db-9435-2b71c78c0fdd"},"vehicle_type_id":"4","last_reported":1701291977,"current_range_meters":22400,"station_id":"ce4bhnh2rcd13ifvqgtg","pricing_plan_id":"free"},{"bike_id":"a77ff4ee-8be9-4d58-9101-6e5b4c0186f4","system_id":"levelo_inurba_marseille","lat":43.278128,"lon":5.407195,"is_reserved":false,"is_disabled":false,"rental_uris":{"android":"levelo://app?vid=a77ff4ee-8be9-4d58-9101-6e5b4c0186f4","ios":"levelo://app?vid=a77ff4ee-8be9-4d58-9101-6e5b4c0186f4"},"vehicle_type_id":"4","last_reported":1701291977,"current_range_meters":21200,"station_id":"ce4bhnh2rcd13ifvqgtg","pricing_plan_id":"free"},{"bike_id":"a6d6ea0c-cbb7-416f-aef4-2f51f0d191c7","system_id":"levelo_inurba_marseille","lat":43.279465,"lon":5.410561,"is_reserved":false,"is_disabled":false,"rental_uris":{"android":"levelo://app?vid=a6d6ea0c-cbb7-416f-aef4-2f51f0d191c7","ios":"levelo://app?vid=a6d6ea0c-cbb7-416f-aef4-2f51f0d191c7"},"vehicle_type_id":"4","last_reported":1701291977,"current_range_meters":18400,"station_id":"ce4bhnp2rcd13ifvqh0g","pricing_plan_id":"free"},{"bike_id":"897c7477-704f-4ada-86df-3c153fdea6b8","system_id":"levelo_inurba_marseille","lat":43.2655,"lon":5.37289,"is_reserved":false,"is_disabled":false,"rental_uris":{"android":"levelo://app?vid=897c7477-704f-4ada-86df-3c153fdea6b8","ios":"levelo://app?vid=897c7477-704f-4ada-86df-3c153fdea6b8"},"vehicle_type_id":"4","last_reported":1701291977,"current_range_meters":0,"station_id":"ce4bhg12rcd13ifvqf70","pricing_plan_id":"free"},{"bike_id":"703abfcc-f20f-413b-8c0b-9f821a972b6c","system_id":"levelo_inurba_marseille","lat":43.27996,"lon":5.416624,"is_reserved":false,"is_disabled":false,"rental_uris":{"android":"levelo://app?vid=703abfcc-f20f-413b-8c0b-9f821a972b6c","ios":"levelo://app?vid=703abfcc-f20f-413b-8c0b-9f821a972b6c"},"vehicle_type_id":"4","last_reported":1701291977,"current_range_meters":28000,"station_id":"ce4bho12rcd13ifvqh1g","pricing_plan_id":"free"},{"bike_id":"678707f0-f18b-4526-938d-cbb54df77004","system_id":"levelo_inurba_marseille","lat":43.26787,"lon":5.396015,"is_reserved":false,"is_disabled":false,"rental_uris":{"android":"levelo://app?vid=678707f0-f18b-4526-938d-cbb54df77004","ios":"levelo://app?vid=678707f0-f18b-4526-938d-cbb54df77004"},"vehicle_type_id":"4","last_reported":1701291977,"current_range_meters":30000,"station_id":"","pricing_plan_id":"free"},{"bike_id":"f554caff-ea27-4c9a-835c-3ef548d12f07","system_id":"levelo_inurba_marseille","lat":43.317104,"lon":5.436818,"is_reserved":false,"is_disabled":false,"rental_uris":{"android":"levelo://app?vid=f554caff-ea27-4c9a-835c-3ef548d12f07","ios":"levelo://app?vid=f554caff-ea27-4c9a-835c-3ef548d12f07"},"vehicle_type_id":"4","last_reported":1701291977,"current_range_meters":5200,"station_id":"ce4bhp92rcd13ifvqhcg","pricing_plan_id":"free"},{"bike_id":"a840c070-fc43-4b8e-aaa0-06a7984fb6f2","system_id":"levelo_inurba_marseille","lat":43.317104,"lon":5.436818,"is_reserved":false,"is_disabled":false,"rental_uris":{"android":"levelo://app?vid=a840c070-fc43-4b8e-aaa0-06a7984fb6f2","ios":"levelo://app?vid=a840c070-fc43-4b8e-aaa0-06a7984fb6f2"},"vehicle_type_id":"4","last_reported":1701291977,"current_range_meters":3200,"station_id":"ce4bhp92rcd13ifvqhcg","pricing_plan_id":"free"},{"bike_id":"1c859d8c-6823-4772-9abb-da577a635321","system_id":"levelo_inurba_marseille","lat":43.317104,"lon":5.436818,"is_reserved":false,"is_disabled":false,"rental_uris":{"android":"levelo://app?vid=1c859d8c-6823-4772-9abb-da577a635321","ios":"levelo://app?vid=1c859d8c-6823-4772-9abb-da577a635321"},"vehicle_type_id":"4","last_reported":1701291977,"current_range_meters":20400,"station_id":"ce4bhp92rcd13ifvqhcg","pricing_plan_id":"free"},{"bike_id":"99d63533-62af-4498-b6d6-41c459d84925","system_id":"levelo_inurba_marseille","lat":43.317104,"lon":5.436818,"is_reserved":false,"is_disabled":false,"rental_uris":{"android":"levelo://app?vid=99d63533-62af-4498-b6d6-41c459d84925","ios":"levelo://app?vid=99d63533-62af-4498-b6d6-41c459d84925"},"vehicle_type_id":"4","last_reported":1701291977,"current_range_meters":22000,"station_id":"ce4bhp92rcd13ifvqhcg","pricing_plan_id":"free"},{"bike_id":"3b0c0bb4-5989-4886-a288-42d1a3878a2b","system_id":"levelo_inurba_marseille","lat":43.27175,"lon":5.40987,"is_reserved":false,"is_disabled":false,"rental_uris":{"android":"levelo://app?vid=3b0c0bb4-5989-4886-a288-42d1a3878a2b","ios":"levelo://app?vid=3b0c0bb4-5989-4886-a288-42d1a3878a2b"},"vehicle_type_id":"4","last_reported":1701291977,"current_range_meters":0,"station_id":"ce4bhl12rcd13ifvqgf0","pricing_plan_id":"free"},{"bike_id":"03e17a8f-3f64-4b8c-a621-076b090d5338","system_id":"levelo_inurba_marseille","lat":43.271368,"lon":5.40928,"is_reserved":false,"is_disabled":false,"rental_uris":{"android":"levelo://app?vid=03e17a8f-3f64-4b8c-a621-076b090d5338","ios":"levelo://app?vid=03e17a8f-3f64-4b8c-a621-076b090d5338"},"vehicle_type_id":"4","last_reported":1701291977,"current_range_meters":15200,"station_id":"ce4bhl12rcd13ifvqgf0","pricing_plan_id":"free"},{"bike_id":"c27ac3f7-47c8-4e42-aa5d-a5083ed3eb8a","system_id":"levelo_inurba_marseille","lat":43.271388,"lon":5.409269,"is_reserved":false,"is_disabled":false,"rental_uris":{"android":"levelo://app?vid=c27ac3f7-47c8-4e42-aa5d-a5083ed3eb8a","ios":"levelo://app?vid=c27ac3f7-47c8-4e42-aa5d-a5083ed3eb8a"},"vehicle_type_id":"4","last_reported":1701291977,"current_range_meters":21200,"station_id":"ce4bhl12rcd13ifvqgf0","pricing_plan_id":"free"},{"bike_id":"0048fac2-56d5-4842-9efe-a79340b04119","system_id":"levelo_inurba_marseille","lat":43.29896,"lon":5.43665,"is_reserved":false,"is_disabled":false,"rental_uris":{"android":"levelo://app?vid=0048fac2-56d5-4842-9efe-a79340b04119","ios":"levelo://app?vid=0048fac2-56d5-4842-9efe-a79340b04119"},"vehicle_type_id":"4","last_reported":1701291977,"current_range_meters":14800,"station_id":"ce4bhpp2rcd13ifvqhfg","pricing_plan_id":"free"},{"bike_id":"2cbd4b3c-d8dd-4b95-ac76-1323d53b4182","system_id":"levelo_inurba_marseille","lat":43.281548,"lon":5.42643,"is_reserved":false,"is_disabled":false,"rental_uris":{"android":"levelo://app?vid=2cbd4b3c-d8dd-4b95-ac76-1323d53b4182","ios":"levelo://app?vid=2cbd4b3c-d8dd-4b95-ac76-1323d53b4182"},"vehicle_type_id":"4","last_reported":1701291977,"current_range_meters":31200,"station_id":"ce4bhnh2rcd13ifvqgug","pricing_plan_id":"free"},{"bike_id":"6a423f92-9b07-4949-8514-2ee167e03bcf","system_id":"levelo_inurba_marseille","lat":43.281548,"lon":5.42643,"is_reserved":false,"is_disabled":false,"rental_uris":{"android":"levelo://app?vid=6a423f92-9b07-4949-8514-2ee167e03bcf","ios":"levelo://app?vid=6a423f92-9b07-4949-8514-2ee167e03bcf"},"vehicle_type_id":"4","last_reported":1701291977,"current_range_meters":30400,"station_id":"ce4bhnh2rcd13ifvqgug","pricing_plan_id":"free"},{"bike_id":"bd71c321-451e-4db9-9483-b3fea5f99947","system_id":"levelo_inurba_marseille","lat":43.281548,"lon":5.42643,"is_reserved":false,"is_disabled":false,"rental_uris":{"android":"levelo://app?vid=bd71c321-451e-4db9-9483-b3fea5f99947","ios":"levelo://app?vid=bd71c321-451e-4db9-9483-b3fea5f99947"},"vehicle_type_id":"4","last_reported":1701291977,"current_range_meters":27200,"station_id":"ce4bhnh2rcd13ifvqgug","pricing_plan_id":"free"},{"bike_id":"5d6c08b1-f1a5-4de3-874d-829b5159ed1d","system_id":"levelo_inurba_marseille","lat":43.281548,"lon":5.42643,"is_reserved":false,"is_disabled":false,"rental_uris":{"android":"levelo://app?vid=5d6c08b1-f1a5-4de3-874d-829b5159ed1d","ios":"levelo://app?vid=5d6c08b1-f1a5-4de3-874d-829b5159ed1d"},"vehicle_type_id":"4","last_reported":1701291977,"current_range_meters":26000,"station_id":"ce4bhnh2rcd13ifvqgug","pricing_plan_id":"free"},{"bike_id":"7dd4c909-c4b2-400f-9b7a-caa808388dc4","system_id":"levelo_inurba_marseille","lat":43.281548,"lon":5.42643,"is_reserved":false,"is_disabled":false,"rental_uris":{"android":"levelo://app?vid=7dd4c909-c4b2-400f-9b7a-caa808388dc4","ios":"levelo://app?vid=7dd4c909-c4b2-400f-9b7a-caa808388dc4"},"vehicle_type_id":"4","last_reported":1701291977,"current_range_meters":12400,"station_id":"ce4bhnh2rcd13ifvqgug","pricing_plan_id":"free"},{"bike_id":"54e7103a-044b-433e-9f97-9f60b9ff0bee","system_id":"levelo_inurba_marseille","lat":43.281548,"lon":5.42643,"is_reserved":false,"is_disabled":false,"rental_uris":{"android":"levelo://app?vid=54e7103a-044b-433e-9f97-9f60b9ff0bee","ios":"levelo://app?vid=54e7103a-044b-433e-9f97-9f60b9ff0bee"},"vehicle_type_id":"4","last_reported":1701291977,"current_range_meters":26800,"station_id":"ce4bhnh2rcd13ifvqgug","pricing_plan_id":"free"},{"bike_id":"85158950-5b86-488b-bdb1-726b8dfbb936","system_id":"levelo_inurba_marseille","lat":43.281548,"lon":5.42643,"is_reserved":false,"is_disabled":false,"rental_uris":{"android":"levelo://app?vid=85158950-5b86-488b-bdb1-726b8dfbb936","ios":"levelo://app?vid=85158950-5b86-488b-bdb1-726b8dfbb936"},"vehicle_type_id":"4","last_reported":1701291977,"current_range_meters":15600,"station_id":"ce4bhnh2rcd13ifvqgug","pricing_plan_id":"free"},{"bike_id":"00d1bf49-5f2f-40eb-ba1c-6d61ac984990","system_id":"levelo_inurba_marseille","lat":43.281548,"lon":5.42643,"is_reserved":false,"is_disabled":false,"rental_uris":{"android":"levelo://app?vid=00d1bf49-5f2f-40eb-ba1c-6d61ac984990","ios":"levelo://app?vid=00d1bf49-5f2f-40eb-ba1c-6d61ac984990"},"vehicle_type_id":"4","last_reported":1701291977,"current_range_meters":30000,"station_id":"ce4bhnh2rcd13ifvqgug","pricing_plan_id":"free"},{"bike_id":"ecf17c06-f85c-45b3-88f9-e573b3bb3c29","system_id":"levelo_inurba_marseille","lat":43.258224,"lon":5.394369,"is_reserved":false,"is_disabled":false,"rental_uris":{"android":"levelo://app?vid=ecf17c06-f85c-45b3-88f9-e573b3bb3c29","ios":"levelo://app?vid=ecf17c06-f85c-45b3-88f9-e573b3bb3c29"},"vehicle_type_id":"4","last_reported":1701291977,"current_range_meters":30800,"station_id":"ce4bhip2rcd13ifvqft0","pricing_plan_id":"free"},{"bike_id":"39623ebf-a3b7-4fb2-99b1-0c72cfeab56b","system_id":"levelo_inurba_marseille","lat":43.25578,"lon":5.38228,"is_reserved":false,"is_disabled":false,"rental_uris":{"android":"levelo://app?vid=39623ebf-a3b7-4fb2-99b1-0c72cfeab56b","ios":"levelo://app?vid=39623ebf-a3b7-4fb2-99b1-0c72cfeab56b"},"vehicle_type_id":"4","last_reported":1701291977,"current_range_meters":29600,"station_id":"ce4bhih2rcd13ifvqfs0","pricing_plan_id":"free"},{"bike_id":"9b44a643-1166-4c95-9594-56d6a6b9e969","system_id":"levelo_inurba_marseille","lat":43.258224,"lon":5.394369,"is_reserved":false,"is_disabled":false,"rental_uris":{"android":"levelo://app?vid=9b44a643-1166-4c95-9594-56d6a6b9e969","ios":"levelo://app?vid=9b44a643-1166-4c95-9594-56d6a6b9e969"},"vehicle_type_id":"4","last_reported":1701291977,"current_range_meters":30400,"station_id":"ce4bhip2rcd13ifvqft0","pricing_plan_id":"free"},{"bike_id":"9adae74f-3e93-483c-863d-d9d8e3d8aa00","system_id":"levelo_inurba_marseille","lat":43.25499,"lon":5.37648,"is_reserved":false,"is_disabled":false,"rental_uris":{"android":"levelo://app?vid=9adae74f-3e93-483c-863d-d9d8e3d8aa00","ios":"levelo://app?vid=9adae74f-3e93-483c-863d-d9d8e3d8aa00"},"vehicle_type_id":"4","last_reported":1701291977,"current_range_meters":28800,"station_id":"ce4bhh12rcd13ifvqff0","pricing_plan_id":"free"},{"bike_id":"501f856d-f81d-4170-a7e3-ab763cedc7f6","system_id":"levelo_inurba_marseille","lat":43.254947,"lon":5.376454,"is_reserved":false,"is_disabled":false,"rental_uris":{"android":"levelo://app?vid=501f856d-f81d-4170-a7e3-ab763cedc7f6","ios":"levelo://app?vid=501f856d-f81d-4170-a7e3-ab763cedc7f6"},"vehicle_type_id":"4","last_reported":1701291977,"current_range_meters":31200,"station_id":"ce4bhh12rcd13ifvqff0","pricing_plan_id":"free"},{"bike_id":"30565658-e7be-4be7-92bf-bc263e190872","system_id":"levelo_inurba_marseille","lat":43.2549,"lon":5.37647,"is_reserved":false,"is_disabled":false,"rental_uris":{"android":"levelo://app?vid=30565658-e7be-4be7-92bf-bc263e190872","ios":"levelo://app?vid=30565658-e7be-4be7-92bf-bc263e190872"},"vehicle_type_id":"4","last_reported":1701291977,"current_range_meters":31200,"station_id":"ce4bhh12rcd13ifvqff0","pricing_plan_id":"free"},{"bike_id":"4e0bd320-2cd9-4caa-8a11-234b11e8d880","system_id":"levelo_inurba_marseille","lat":43.254947,"lon":5.376454,"is_reserved":false,"is_disabled":false,"rental_uris":{"android":"levelo://app?vid=4e0bd320-2cd9-4caa-8a11-234b11e8d880","ios":"levelo://app?vid=4e0bd320-2cd9-4caa-8a11-234b11e8d880"},"vehicle_type_id":"4","last_reported":1701291977,"current_range_meters":16800,"station_id":"ce4bhh12rcd13ifvqff0","pricing_plan_id":"free"},{"bike_id":"70df88eb-3384-4c1e-b5c4-a24bdcb4ab75","system_id":"levelo_inurba_marseille","lat":43.270721,"lon":5.422764,"is_reserved":false,"is_disabled":false,"rental_uris":{"android":"levelo://app?vid=70df88eb-3384-4c1e-b5c4-a24bdcb4ab75","ios":"levelo://app?vid=70df88eb-3384-4c1e-b5c4-a24bdcb4ab75"},"vehicle_type_id":"4","last_reported":1701291977,"current_range_meters":22000,"station_id":"ce4bhk92rcd13ifvqgb0","pricing_plan_id":"free"},{"bike_id":"19029ed7-bf97-4f4d-a8c2-7d27e70ef7f7","system_id":"levelo_inurba_marseille","lat":43.270721,"lon":5.422764,"is_reserved":false,"is_disabled":false,"rental_uris":{"android":"levelo://app?vid=19029ed7-bf97-4f4d-a8c2-7d27e70ef7f7","ios":"levelo://app?vid=19029ed7-bf97-4f4d-a8c2-7d27e70ef7f7"},"vehicle_type_id":"4","last_reported":1701291977,"current_range_meters":31200,"station_id":"ce4bhk92rcd13ifvqgb0","pricing_plan_id":"free"},{"bike_id":"ccee216e-5faf-4999-b768-7a0903d5fe3e","system_id":"levelo_inurba_marseille","lat":43.259013,"lon":5.409301,"is_reserved":false,"is_disabled":false,"rental_uris":{"android":"levelo://app?vid=ccee216e-5faf-4999-b768-7a0903d5fe3e","ios":"levelo://app?vid=ccee216e-5faf-4999-b768-7a0903d5fe3e"},"vehicle_type_id":"4","last_reported":1701291977,"current_range_meters":6000,"station_id":"ce4bhm92rcd13ifvqglg","pricing_plan_id":"free"},{"bike_id":"7ff12f0c-6754-4cd6-8deb-7d18274362d7","system_id":"levelo_inurba_marseille","lat":43.259332,"lon":5.409113,"is_reserved":false,"is_disabled":false,"rental_uris":{"android":"levelo://app?vid=7ff12f0c-6754-4cd6-8deb-7d18274362d7","ios":"levelo://app?vid=7ff12f0c-6754-4cd6-8deb-7d18274362d7"},"vehicle_type_id":"4","last_reported":1701291977,"current_range_meters":8000,"station_id":"ce4bhm92rcd13ifvqglg","pricing_plan_id":"free"},{"bike_id":"916224f8-83b6-4e7c-8933-ae5fb7bcd879","system_id":"levelo_inurba_marseille","lat":43.257079,"lon":5.411051,"is_reserved":false,"is_disabled":false,"rental_uris":{"android":"levelo://app?vid=916224f8-83b6-4e7c-8933-ae5fb7bcd879","ios":"levelo://app?vid=916224f8-83b6-4e7c-8933-ae5fb7bcd879"},"vehicle_type_id":"4","last_reported":1701291977,"current_range_meters":29600,"station_id":"ce4bhkp2rcd13ifvqgd0","pricing_plan_id":"free"},{"bike_id":"89a99e0e-84f9-4cb4-9aa6-53df93c20d13","system_id":"levelo_inurba_marseille","lat":43.2572,"lon":5.41115,"is_reserved":false,"is_disabled":false,"rental_uris":{"android":"levelo://app?vid=89a99e0e-84f9-4cb4-9aa6-53df93c20d13","ios":"levelo://app?vid=89a99e0e-84f9-4cb4-9aa6-53df93c20d13"},"vehicle_type_id":"4","last_reported":1701291977,"current_range_meters":22400,"station_id":"ce4bhkp2rcd13ifvqgd0","pricing_plan_id":"free"},{"bike_id":"2c7e039a-889d-4dd4-abf6-e9c6289f881a","system_id":"levelo_inurba_marseille","lat":43.250009,"lon":5.389195,"is_reserved":false,"is_disabled":false,"rental_uris":{"android":"levelo://app?vid=2c7e039a-889d-4dd4-abf6-e9c6289f881a","ios":"levelo://app?vid=2c7e039a-889d-4dd4-abf6-e9c6289f881a"},"vehicle_type_id":"4","last_reported":1701291977,"current_range_meters":0,"station_id":"ce4bhgp2rcd13ifvqfd0","pricing_plan_id":"free"},{"bike_id":"c7eecb61-3304-492f-842e-de21f9a06b69","system_id":"levelo_inurba_marseille","lat":43.24806,"lon":5.37452,"is_reserved":false,"is_disabled":false,"rental_uris":{"android":"levelo://app?vid=c7eecb61-3304-492f-842e-de21f9a06b69","ios":"levelo://app?vid=c7eecb61-3304-492f-842e-de21f9a06b69"},"vehicle_type_id":"4","last_reported":1701291977,"current_range_meters":0,"station_id":"ce4bhgh2rcd13ifvqfb0","pricing_plan_id":"free"},{"bike_id":"9509c40c-2a9f-4895-b657-250555260673","system_id":"levelo_inurba_marseille","lat":43.24806,"lon":5.37455,"is_reserved":false,"is_disabled":false,"rental_uris":{"android":"levelo://app?vid=9509c40c-2a9f-4895-b657-250555260673","ios":"levelo://app?vid=9509c40c-2a9f-4895-b657-250555260673"},"vehicle_type_id":"4","last_reported":1701291977,"current_range_meters":14000,"station_id":"ce4bhgh2rcd13ifvqfb0","pricing_plan_id":"free"},{"bike_id":"1ee6ccac-fa0e-40cb-ad63-a576623c103c","system_id":"levelo_inurba_marseille","lat":43.250966,"lon":5.395186,"is_reserved":false,"is_disabled":false,"rental_uris":{"android":"levelo://app?vid=1ee6ccac-fa0e-40cb-ad63-a576623c103c","ios":"levelo://app?vid=1ee6ccac-fa0e-40cb-ad63-a576623c103c"},"vehicle_type_id":"4","last_reported":1701291977,"current_range_meters":30800,"station_id":"ce4bhm12rcd13ifvqgkg","pricing_plan_id":"free"},{"bike_id":"4967ab4e-a884-4957-bdb9-f89f823e0acd","system_id":"levelo_inurba_marseille","lat":43.25092,"lon":5.3952,"is_reserved":false,"is_disabled":false,"rental_uris":{"android":"levelo://app?vid=4967ab4e-a884-4957-bdb9-f89f823e0acd","ios":"levelo://app?vid=4967ab4e-a884-4957-bdb9-f89f823e0acd"},"vehicle_type_id":"4","last_reported":1701291977,"current_range_meters":30000,"station_id":"ce4bhm12rcd13ifvqgkg","pricing_plan_id":"free"},{"bike_id":"9228a6fe-c5e2-45f4-a167-7f60ff317749","system_id":"levelo_inurba_marseille","lat":43.250966,"lon":5.395186,"is_reserved":false,"is_disabled":false,"rental_uris":{"android":"levelo://app?vid=9228a6fe-c5e2-45f4-a167-7f60ff317749","ios":"levelo://app?vid=9228a6fe-c5e2-45f4-a167-7f60ff317749"},"vehicle_type_id":"4","last_reported":1701291977,"current_range_meters":28000,"station_id":"ce4bhm12rcd13ifvqgkg","pricing_plan_id":"free"},{"bike_id":"987ff51d-b31d-4176-9915-e7c653778fdc","system_id":"levelo_inurba_marseille","lat":43.250966,"lon":5.395186,"is_reserved":false,"is_disabled":false,"rental_uris":{"android":"levelo://app?vid=987ff51d-b31d-4176-9915-e7c653778fdc","ios":"levelo://app?vid=987ff51d-b31d-4176-9915-e7c653778fdc"},"vehicle_type_id":"4","last_reported":1701291977,"current_range_meters":9200,"station_id":"ce4bhm12rcd13ifvqgkg","pricing_plan_id":"free"},{"bike_id":"f2e7ea44-1802-445c-b14e-d15b1d57b78d","system_id":"levelo_inurba_marseille","lat":43.24693,"lon":5.382096,"is_reserved":false,"is_disabled":false,"rental_uris":{"android":"levelo://app?vid=f2e7ea44-1802-445c-b14e-d15b1d57b78d","ios":"levelo://app?vid=f2e7ea44-1802-445c-b14e-d15b1d57b78d"},"vehicle_type_id":"4","last_reported":1701291977,"current_range_meters":10800,"station_id":"ce4bhih2rcd13ifvqfr0","pricing_plan_id":"free"},{"bike_id":"8078dd8c-54d7-48bb-bf76-667b16f596f8","system_id":"levelo_inurba_marseille","lat":43.24693,"lon":5.382096,"is_reserved":false,"is_disabled":false,"rental_uris":{"android":"levelo://app?vid=8078dd8c-54d7-48bb-bf76-667b16f596f8","ios":"levelo://app?vid=8078dd8c-54d7-48bb-bf76-667b16f596f8"},"vehicle_type_id":"4","last_reported":1701291977,"current_range_meters":28000,"station_id":"ce4bhih2rcd13ifvqfr0","pricing_plan_id":"free"},{"bike_id":"5ad1a78d-ff92-4702-80f1-f578973a3ab4","system_id":"levelo_inurba_marseille","lat":43.25102,"lon":5.403214,"is_reserved":false,"is_disabled":false,"rental_uris":{"android":"levelo://app?vid=5ad1a78d-ff92-4702-80f1-f578973a3ab4","ios":"levelo://app?vid=5ad1a78d-ff92-4702-80f1-f578973a3ab4"},"vehicle_type_id":"4","last_reported":1701291977,"current_range_meters":16000,"station_id":"ce4bhlh2rcd13ifvqgig","pricing_plan_id":"free"},{"bike_id":"fb3e7491-856f-4e08-bdfb-a2213e852ccf","system_id":"levelo_inurba_marseille","lat":43.25102,"lon":5.403214,"is_reserved":false,"is_disabled":false,"rental_uris":{"android":"levelo://app?vid=fb3e7491-856f-4e08-bdfb-a2213e852ccf","ios":"levelo://app?vid=fb3e7491-856f-4e08-bdfb-a2213e852ccf"},"vehicle_type_id":"4","last_reported":1701291977,"current_range_meters":3200,"station_id":"ce4bhlh2rcd13ifvqgig","pricing_plan_id":"free"},{"bike_id":"5911d145-f8c8-44e9-afa8-bf232365c635","system_id":"levelo_inurba_marseille","lat":43.25102,"lon":5.403214,"is_reserved":false,"is_disabled":false,"rental_uris":{"android":"levelo://app?vid=5911d145-f8c8-44e9-afa8-bf232365c635","ios":"levelo://app?vid=5911d145-f8c8-44e9-afa8-bf232365c635"},"vehicle_type_id":"4","last_reported":1701291977,"current_range_meters":14800,"station_id":"ce4bhlh2rcd13ifvqgig","pricing_plan_id":"free"},{"bike_id":"e3d09a6b-46f8-4049-9245-e5b95a6446e7","system_id":"levelo_inurba_marseille","lat":43.246461,"lon":5.389014,"is_reserved":false,"is_disabled":false,"rental_uris":{"android":"levelo://app?vid=e3d09a6b-46f8-4049-9245-e5b95a6446e7","ios":"levelo://app?vid=e3d09a6b-46f8-4049-9245-e5b95a6446e7"},"vehicle_type_id":"4","last_reported":1701291977,"current_range_meters":30000,"station_id":"ce4bhg12rcd13ifvqf60","pricing_plan_id":"free"},{"bike_id":"515f5ba1-12e1-4db2-9fd8-4bcf104b3778","system_id":"levelo_inurba_marseille","lat":43.246467,"lon":5.388984,"is_reserved":false,"is_disabled":false,"rental_uris":{"android":"levelo://app?vid=515f5ba1-12e1-4db2-9fd8-4bcf104b3778","ios":"levelo://app?vid=515f5ba1-12e1-4db2-9fd8-4bcf104b3778"},"vehicle_type_id":"4","last_reported":1701291977,"current_range_meters":29200,"station_id":"ce4bhg12rcd13ifvqf60","pricing_plan_id":"free"},{"bike_id":"d24d75ab-5b89-4fed-aec9-cdbe284f48f5","system_id":"levelo_inurba_marseille","lat":43.246467,"lon":5.388984,"is_reserved":false,"is_disabled":false,"rental_uris":{"android":"levelo://app?vid=d24d75ab-5b89-4fed-aec9-cdbe284f48f5","ios":"levelo://app?vid=d24d75ab-5b89-4fed-aec9-cdbe284f48f5"},"vehicle_type_id":"4","last_reported":1701291977,"current_range_meters":18400,"station_id":"ce4bhg12rcd13ifvqf60","pricing_plan_id":"free"},{"bike_id":"285dece3-9d26-4a73-9d21-5686695f9c74","system_id":"levelo_inurba_marseille","lat":43.24382,"lon":5.37052,"is_reserved":false,"is_disabled":false,"rental_uris":{"android":"levelo://app?vid=285dece3-9d26-4a73-9d21-5686695f9c74","ios":"levelo://app?vid=285dece3-9d26-4a73-9d21-5686695f9c74"},"vehicle_type_id":"4","last_reported":1701291977,"current_range_meters":6400,"station_id":"ce4bhhh2rcd13ifvqfk0","pricing_plan_id":"free"},{"bike_id":"f0a1b1ca-b497-41ae-8dca-0e5799f12b95","system_id":"levelo_inurba_marseille","lat":43.245581,"lon":5.395069,"is_reserved":false,"is_disabled":false,"rental_uris":{"android":"levelo://app?vid=f0a1b1ca-b497-41ae-8dca-0e5799f12b95","ios":"levelo://app?vid=f0a1b1ca-b497-41ae-8dca-0e5799f12b95"},"vehicle_type_id":"4","last_reported":1701291977,"current_range_meters":21200,"station_id":"ce4bhlp2rcd13ifvqgjg","pricing_plan_id":"free"},{"bike_id":"bae450d4-0dd8-4937-a099-78153b6b9a44","system_id":"levelo_inurba_marseille","lat":43.2455,"lon":5.39523,"is_reserved":false,"is_disabled":false,"rental_uris":{"android":"levelo://app?vid=bae450d4-0dd8-4937-a099-78153b6b9a44","ios":"levelo://app?vid=bae450d4-0dd8-4937-a099-78153b6b9a44"},"vehicle_type_id":"4","last_reported":1701291977,"current_range_meters":31200,"station_id":"ce4bhlp2rcd13ifvqgjg","pricing_plan_id":"free"},{"bike_id":"c25e2f8e-e410-4de7-afb3-54cc9c79ad32","system_id":"levelo_inurba_marseille","lat":43.245581,"lon":5.395069,"is_reserved":false,"is_disabled":false,"rental_uris":{"android":"levelo://app?vid=c25e2f8e-e410-4de7-afb3-54cc9c79ad32","ios":"levelo://app?vid=c25e2f8e-e410-4de7-afb3-54cc9c79ad32"},"vehicle_type_id":"4","last_reported":1701291977,"current_range_meters":31600,"station_id":"ce4bhlp2rcd13ifvqgjg","pricing_plan_id":"free"},{"bike_id":"89a262b1-744b-4962-bf8c-ec45ae71b53d","system_id":"levelo_inurba_marseille","lat":43.24076,"lon":5.37759,"is_reserved":false,"is_disabled":false,"rental_uris":{"android":"levelo://app?vid=89a262b1-744b-4962-bf8c-ec45ae71b53d","ios":"levelo://app?vid=89a262b1-744b-4962-bf8c-ec45ae71b53d"},"vehicle_type_id":"4","last_reported":1701291977,"current_range_meters":10000,"station_id":"ce4bhnp2rcd13ifvqgvg","pricing_plan_id":"free"},{"bike_id":"72cddfac-add6-49c8-8c38-8b67a598d05b","system_id":"levelo_inurba_marseille","lat":43.240623,"lon":5.377642,"is_reserved":false,"is_disabled":false,"rental_uris":{"android":"levelo://app?vid=72cddfac-add6-49c8-8c38-8b67a598d05b","ios":"levelo://app?vid=72cddfac-add6-49c8-8c38-8b67a598d05b"},"vehicle_type_id":"4","last_reported":1701291977,"current_range_meters":20400,"station_id":"ce4bhnp2rcd13ifvqgvg","pricing_plan_id":"free"},{"bike_id":"6c945398-7692-4cb1-a157-710bd68ec856","system_id":"levelo_inurba_marseille","lat":43.239588,"lon":5.366238,"is_reserved":false,"is_disabled":false,"rental_uris":{"android":"levelo://app?vid=6c945398-7692-4cb1-a157-710bd68ec856","ios":"levelo://app?vid=6c945398-7692-4cb1-a157-710bd68ec856"},"vehicle_type_id":"4","last_reported":1701291977,"current_range_meters":25600,"station_id":"ce4bhi12rcd13ifvqfp0","pricing_plan_id":"free"},{"bike_id":"929d1267-85aa-433e-bcdf-d579ff90976b","system_id":"levelo_inurba_marseille","lat":43.24725,"lon":5.41216,"is_reserved":false,"is_disabled":false,"rental_uris":{"android":"levelo://app?vid=929d1267-85aa-433e-bcdf-d579ff90976b","ios":"levelo://app?vid=929d1267-85aa-433e-bcdf-d579ff90976b"},"vehicle_type_id":"4","last_reported":1701291977,"current_range_meters":8400,"station_id":"","pricing_plan_id":"free"},{"bike_id":"5ecd8134-9fa6-4f20-8d3c-1b0ed686e976","system_id":"levelo_inurba_marseille","lat":43.241782,"lon":5.397261,"is_reserved":false,"is_disabled":false,"rental_uris":{"android":"levelo://app?vid=5ecd8134-9fa6-4f20-8d3c-1b0ed686e976","ios":"levelo://app?vid=5ecd8134-9fa6-4f20-8d3c-1b0ed686e976"},"vehicle_type_id":"4","last_reported":1701291977,"current_range_meters":29200,"station_id":"ce4bhn12rcd13ifvqgpg","pricing_plan_id":"free"},{"bike_id":"c0f80aba-5e52-4d39-8d9c-e4dd952afa90","system_id":"levelo_inurba_marseille","lat":43.24172,"lon":5.39723,"is_reserved":false,"is_disabled":false,"rental_uris":{"android":"levelo://app?vid=c0f80aba-5e52-4d39-8d9c-e4dd952afa90","ios":"levelo://app?vid=c0f80aba-5e52-4d39-8d9c-e4dd952afa90"},"vehicle_type_id":"4","last_reported":1701291977,"current_range_meters":25200,"station_id":"ce4bhn12rcd13ifvqgpg","pricing_plan_id":"free"},{"bike_id":"5823558f-5e45-4b8f-8bb1-5079aaae37c9","system_id":"levelo_inurba_marseille","lat":43.231923,"lon":5.355545,"is_reserved":false,"is_disabled":false,"rental_uris":{"android":"levelo://app?vid=5823558f-5e45-4b8f-8bb1-5079aaae37c9","ios":"levelo://app?vid=5823558f-5e45-4b8f-8bb1-5079aaae37c9"},"vehicle_type_id":"4","last_reported":1701291977,"current_range_meters":16800,"station_id":"ce4bhu92rcd13ifvqi70","pricing_plan_id":"free"},{"bike_id":"6a15bd61-65f5-44c0-9706-42eeb78c349c","system_id":"levelo_inurba_marseille","lat":43.231919,"lon":5.355532,"is_reserved":false,"is_disabled":false,"rental_uris":{"android":"levelo://app?vid=6a15bd61-65f5-44c0-9706-42eeb78c349c","ios":"levelo://app?vid=6a15bd61-65f5-44c0-9706-42eeb78c349c"},"vehicle_type_id":"4","last_reported":1701291977,"current_range_meters":31200,"station_id":"ce4bhu92rcd13ifvqi70","pricing_plan_id":"free"},{"bike_id":"be42eec5-4aaf-4f1c-8445-219a8901db92","system_id":"levelo_inurba_marseille","lat":43.231923,"lon":5.355545,"is_reserved":false,"is_disabled":false,"rental_uris":{"android":"levelo://app?vid=be42eec5-4aaf-4f1c-8445-219a8901db92","ios":"levelo://app?vid=be42eec5-4aaf-4f1c-8445-219a8901db92"},"vehicle_type_id":"4","last_reported":1701291977,"current_range_meters":3600,"station_id":"ce4bhu92rcd13ifvqi70","pricing_plan_id":"free"},{"bike_id":"cbfd3ecb-82d7-42e1-b7c3-225449a4cc54","system_id":"levelo_inurba_marseille","lat":43.231923,"lon":5.355545,"is_reserved":false,"is_disabled":false,"rental_uris":{"android":"levelo://app?vid=cbfd3ecb-82d7-42e1-b7c3-225449a4cc54","ios":"levelo://app?vid=cbfd3ecb-82d7-42e1-b7c3-225449a4cc54"},"vehicle_type_id":"4","last_reported":1701291977,"current_range_meters":2400,"station_id":"ce4bhu92rcd13ifvqi70","pricing_plan_id":"free"},{"bike_id":"b37cf8bc-ef87-4960-b38c-3279b894369f","system_id":"levelo_inurba_marseille","lat":43.231923,"lon":5.355545,"is_reserved":false,"is_disabled":false,"rental_uris":{"android":"levelo://app?vid=b37cf8bc-ef87-4960-b38c-3279b894369f","ios":"levelo://app?vid=b37cf8bc-ef87-4960-b38c-3279b894369f"},"vehicle_type_id":"4","last_reported":1701291977,"current_range_meters":31600,"station_id":"ce4bhu92rcd13ifvqi70","pricing_plan_id":"free"},{"bike_id":"26cd3036-9e31-4635-8449-e01c086f6041","system_id":"levelo_inurba_marseille","lat":43.231923,"lon":5.355545,"is_reserved":false,"is_disabled":false,"rental_uris":{"android":"levelo://app?vid=26cd3036-9e31-4635-8449-e01c086f6041","ios":"levelo://app?vid=26cd3036-9e31-4635-8449-e01c086f6041"},"vehicle_type_id":"4","last_reported":1701291977,"current_range_meters":21600,"station_id":"ce4bhu92rcd13ifvqi70","pricing_plan_id":"free"},{"bike_id":"3bbe1fd5-b7d2-484c-969b-f57a381950c3","system_id":"levelo_inurba_marseille","lat":43.231923,"lon":5.355545,"is_reserved":false,"is_disabled":false,"rental_uris":{"android":"levelo://app?vid=3bbe1fd5-b7d2-484c-969b-f57a381950c3","ios":"levelo://app?vid=3bbe1fd5-b7d2-484c-969b-f57a381950c3"},"vehicle_type_id":"4","last_reported":1701291977,"current_range_meters":14000,"station_id":"ce4bhu92rcd13ifvqi70","pricing_plan_id":"free"},{"bike_id":"d1703505-b125-4a98-a807-11024241bc04","system_id":"levelo_inurba_marseille","lat":43.231923,"lon":5.355545,"is_reserved":false,"is_disabled":false,"rental_uris":{"android":"levelo://app?vid=d1703505-b125-4a98-a807-11024241bc04","ios":"levelo://app?vid=d1703505-b125-4a98-a807-11024241bc04"},"vehicle_type_id":"4","last_reported":1701291977,"current_range_meters":31600,"station_id":"ce4bhu92rcd13ifvqi70","pricing_plan_id":"free"},{"bike_id":"675c970c-c0cf-4822-a023-175273da4489","system_id":"levelo_inurba_marseille","lat":43.231923,"lon":5.355545,"is_reserved":false,"is_disabled":false,"rental_uris":{"android":"levelo://app?vid=675c970c-c0cf-4822-a023-175273da4489","ios":"levelo://app?vid=675c970c-c0cf-4822-a023-175273da4489"},"vehicle_type_id":"4","last_reported":1701291977,"current_range_meters":10000,"station_id":"ce4bhu92rcd13ifvqi70","pricing_plan_id":"free"},{"bike_id":"c0c7fee1-5737-446f-a765-fa607e9e3e85","system_id":"levelo_inurba_marseille","lat":43.231793,"lon":5.400044,"is_reserved":false,"is_disabled":false,"rental_uris":{"android":"levelo://app?vid=c0c7fee1-5737-446f-a765-fa607e9e3e85","ios":"levelo://app?vid=c0c7fee1-5737-446f-a765-fa607e9e3e85"},"vehicle_type_id":"4","last_reported":1701291977,"current_range_meters":20000,"station_id":"ce4bhn12rcd13ifvqgqg","pricing_plan_id":"free"},{"bike_id":"5ff68776-d431-4895-866c-f190f6faec3c","system_id":"levelo_inurba_marseille","lat":43.231793,"lon":5.400044,"is_reserved":false,"is_disabled":false,"rental_uris":{"android":"levelo://app?vid=5ff68776-d431-4895-866c-f190f6faec3c","ios":"levelo://app?vid=5ff68776-d431-4895-866c-f190f6faec3c"},"vehicle_type_id":"4","last_reported":1701291977,"current_range_meters":31600,"station_id":"ce4bhn12rcd13ifvqgqg","pricing_plan_id":"free"},{"bike_id":"aa92b96d-64d8-4c3b-a126-5fd9d905cd28","system_id":"levelo_inurba_marseille","lat":43.231793,"lon":5.400044,"is_reserved":false,"is_disabled":false,"rental_uris":{"android":"levelo://app?vid=aa92b96d-64d8-4c3b-a126-5fd9d905cd28","ios":"levelo://app?vid=aa92b96d-64d8-4c3b-a126-5fd9d905cd28"},"vehicle_type_id":"4","last_reported":1701291977,"current_range_meters":31600,"station_id":"ce4bhn12rcd13ifvqgqg","pricing_plan_id":"free"},{"bike_id":"5c24af45-4ee2-4093-93e4-b4426fd403c2","system_id":"levelo_inurba_marseille","lat":43.231794,"lon":5.400052,"is_reserved":false,"is_disabled":false,"rental_uris":{"android":"levelo://app?vid=5c24af45-4ee2-4093-93e4-b4426fd403c2","ios":"levelo://app?vid=5c24af45-4ee2-4093-93e4-b4426fd403c2"},"vehicle_type_id":"4","last_reported":1701291977,"current_range_meters":28800,"station_id":"ce4bhn12rcd13ifvqgqg","pricing_plan_id":"free"},