{"last_updated":1746022229,"ttl":60,"version":"2.2","data":{"bikes":[{"bike_id":"14bf850c-e1b5-4f10-a6b8-4e93662d7ae6","system_id":"levelo_inurba_marseille","lat":43.28406,"lon":5.34975,"is_reserved":false,"is_disabled":false,"rental_uris":{"android":"levelo://app?vid=14bf850c-e1b5-4f10-a6b8-4e93662d7ae6","ios":"levelo://app?vid=14bf850c-e1b5-4f10-a6b8-4e93662d7ae6"},"vehicle_type_id":"4","last_reported":1746022229,"current_range_meters":2800,"station_id":"ce4bhbh2rcd13ifvqepg","pricing_plan_id":"cebpf4jnsgd1na2vs0mg"},{"bike_id":"177386ac-c694-4634-845c-23b00d866553","system_id":"levelo_inurba_marseille","lat":43.30251,"lon":5.40066,"is_reserved":false,"is_disabled":false,"rental_uris":{"android":"levelo://app?vid=177386ac-c694-4634-845c-23b00d866553","ios":"levelo://app?vid=177386ac-c694-4634-845c-23b00d866553"},"vehicle_type_id":"4","last_reported":1746022229,"current_range_meters":2800,"station_id":"ce4bgvh2rcd13ifvqcs0","pricing_plan_id":"cebpf4jnsgd1na2vs0mg"},{"bike_id":"5afdcf67-94ae-4fd5-9d5e-f838ff8e4733","system_id":"levelo_inurba_marseille","lat":43.25865,"lon":5.39895,"is_reserved":false,"is_disabled":false,"rental_uris":{"android":"levelo://app?vid=5afdcf67-94ae-4fd5-9d5e-f838ff8e4733","ios":"levelo://app?vid=5afdcf67-94ae-4fd5-9d5e-f838ff8e4733"},"vehicle_type_id":"4","last_reported":1746022229,"current_range_meters":2800,"station_id":"ce4bhl92rcd13ifvqghg","pricing_plan_id":"cebpf4jnsgd1na2vs0mg"},{"bike_id":"24dac734-d00c-44b0-a0e2-9e2be9b36570","system_id":"levelo_inurba_marseille","lat":43.24811,"lon":5.37444,"is_reserved":false,"is_disabled":false,"rental_uris":{"android":"levelo://app?vid=24dac734-d00c-44b0-a0e2-9e2be9b36570","ios":"levelo://app?vid=24dac734-d00c-44b0-a0e2-9e2be9b36570"},"vehicle_type_id":"4","last_reported":1746022229,"current_range_meters":2800,"station_id":"ce4bhgh2rcd13ifvqfb0","pricing_plan_id":"cebpf4jnsgd1na2vs0mg"},{"bike_id":"a29b25ea-497a-443c-bd16-c8541fda7be9","system_id":"levelo_inurba_marseille","lat":43.28446,"lon":5.39186,"is_reserved":false,"is_disabled":false,"rental_uris":{"android":"levelo://app?vid=a29b25ea-497a-443c-bd16-c8541fda7be9","ios":"levelo://app?vid=a29b25ea-497a-443c-bd16-c8541fda7be9"},"vehicle_type_id":"4","last_reported":1746022229,"current_range_meters":2800,"station_id":"ce4bhoh2rcd13ifvqh5g","pricing_plan_id":"cebpf4jnsgd1na2vs0mg"},{"bike_id":"4963db9a-2c06-4636-b647-d24acbce2cb3","system_id":"levelo_inurba_marseille","lat":43.31136,"lon":5.37745,"is_reserved":false,"is_disabled":false,"rental_uris":{"android":"levelo://app?vid=4963db9a-2c06-4636-b647-d24acbce2cb3","ios":"levelo://app?vid=4963db9a-2c06-4636-b647-d24acbce2cb3"},"vehicle_type_id":"4","last_reported":1746022229,"current_range_meters":2800,"station_id":"ce4bgt92rcd13ifvqcg0","pricing_plan_id":"cebpf4jnsgd1na2vs0mg"},{"bike_id":"e5b4b90d-e268-4de2-98f4-f6d0513f8801","system_id":"levelo_inurba_marseille","lat":43.2654,"lon":5.42217,"is_reserved":false,"is_disabled":false,"rental_uris":{"android":"levelo://app?vid=e5b4b90d-e268-4de2-98f4-f6d0513f8801","ios":"levelo://app?vid=e5b4b90d-e268-4de2-98f4-f6d0513f8801"},"vehicle_type_id":"4","last_reported":1746022229,"current_range_meters":3200,"station_id":"","pricing_plan_id":"cebpf4jnsgd1na2vs0mg"},{"bike_id":"f1e16f2d-7ccf-4529-9f00-2ed2ac5a7f02","system_id":"levelo_inurba_marseille","lat":43.23193,"lon":5.35557,"is_reserved":false,"is_disabled":false,"rental_uris":{"android":"levelo://app?vid=f1e16f2d-7ccf-4529-9f00-2ed2ac5a7f02","ios":"levelo://app?vid=f1e16f2d-7ccf-4529-9f00-2ed2ac5a7f02"},"vehicle_type_id":"4","last_reported":1746022229,"current_range_meters":3200,"station_id":"ce4bhu92rcd13ifvqi70","pricing_plan_id":"cebpf4jnsgd1na2vs0mg"},{"bike_id":"29bd6401-dd33-4420-b374-1d5a7df16e81","system_id":"levelo_inurba_marseille","lat":43.27366,"lon":5.36237,"is_reserved":false,"is_disabled":false,"rental_uris":{"android":"levelo://app?vid=29bd6401-dd33-4420-b374-1d5a7df16e81","ios":"levelo://app?vid=29bd6401-dd33-4420-b374-1d5a7df16e81"},"vehicle_type_id":"4","last_reported":1746022229,"current_range_meters":3200,"station_id":"ce4bhbh2rcd13ifvqeo0","pricing_plan_id":"cebpf4jnsgd1na2vs0mg"},{"bike_id":"f1e3c12a-02a3-4893-b9e1-1aacd74f3f49","system_id":"levelo_inurba_marseille","lat":43.321171,"lon":5.367752,"is_reserved":false,"is_disabled":false,"rental_uris":{"android":"levelo://app?vid=f1e3c12a-02a3-4893-b9e1-1aacd74f3f49","ios":"levelo://app?vid=f1e3c12a-02a3-4893-b9e1-1aacd74f3f49"},"vehicle_type_id":"4","last_reported":1746022229,"current_range_meters":3600,"station_id":"ce4bhrh2rcd13ifvqhug","pricing_plan_id":"cebpf4jnsgd1na2vs0mg"},{"bike_id":"f69edb28-5138-4387-9a36-977cede8180b","system_id":"levelo_inurba_marseille","lat":43.26213,"lon":5.37438,"is_reserved":false,"is_disabled":false,"rental_uris":{"android":"levelo://app?vid=f69edb28-5138-4387-9a36-977cede8180b","ios":"levelo://app?vid=f69edb28-5138-4387-9a36-977cede8180b"},"vehicle_type_id":"4","last_reported":1746022229,"current_range_meters":3600,"station_id":"ce4bhgp2rcd13ifvqfc0","pricing_plan_id":"cebpf4jnsgd1na2vs0mg"},{"bike_id":"0981e771-7fe6-410f-a815-d494a1ad8b36","system_id":"levelo_inurba_marseille","lat":43.26553,"lon":5.37284,"is_reserved":false,"is_disabled":false,"rental_uris":{"android":"levelo://app?vid=0981e771-7fe6-410f-a815-d494a1ad8b36","ios":"levelo://app?vid=0981e771-7fe6-410f-a815-d494a1ad8b36"},"vehicle_type_id":"4","last_reported":1746022229,"current_range_meters":3600,"station_id":"ce4bhg12rcd13ifvqf70","pricing_plan_id":"cebpf4jnsgd1na2vs0mg"},{"bike_id":"277ec423-6783-4afc-9475-1812e46780c9","system_id":"levelo_inurba_marseille","lat":43.29784,"lon":5.37093,"is_reserved":false,"is_disabled":false,"rental_uris":{"android":"levelo://app?vid=277ec423-6783-4afc-9475-1812e46780c9","ios":"levelo://app?vid=277ec423-6783-4afc-9475-1812e46780c9"},"vehicle_type_id":"4","last_reported":1746022229,"current_range_meters":3600,"station_id":"ce4bgop2rcd13ifvqc1g","pricing_plan_id":"cebpf4jnsgd1na2vs0mg"},{"bike_id":"86eb5751-0962-45bf-93e1-02fa17ea2600","system_id":"levelo_inurba_marseille","lat":43.28417,"lon":5.34982,"is_reserved":false,"is_disabled":false,"rental_uris":{"android":"levelo://app?vid=86eb5751-0962-45bf-93e1-02fa17ea2600","ios":"levelo://app?vid=86eb5751-0962-45bf-93e1-02fa17ea2600"},"vehicle_type_id":"4","last_reported":1746022229,"current_range_meters":3600,"station_id":"ce4bhbh2rcd13ifvqepg","pricing_plan_id":"cebpf4jnsgd1na2vs0mg"},{"bike_id":"2b02f039-fab4-4e87-8c08-06428d589073","system_id":"levelo_inurba_marseille","lat":43.291,"lon":5.38131,"is_reserved":false,"is_disabled":false,"rental_uris":{"android":"levelo://app?vid=2b02f039-fab4-4e87-8c08-06428d589073","ios":"levelo://app?vid=2b02f039-fab4-4e87-8c08-06428d589073"},"vehicle_type_id":"4","last_reported":1746022229,"current_range_meters":3600,"station_id":"ce4bh512rcd13ifvqe2g","pricing_plan_id":"cebpf4jnsgd1na2vs0mg"},{"bike_id":"db1c965b-0b01-4c1c-85ff-0cce569524bd","system_id":"levelo_inurba_marseille","lat":43.3026,"lon":5.40073,"is_reserved":false,"is_disabled":false,"rental_uris":{"android":"levelo://app?vid=db1c965b-0b01-4c1c-85ff-0cce569524bd","ios":"levelo://app?vid=db1c965b-0b01-4c1c-85ff-0cce569524bd"},"vehicle_type_id":"4","last_reported":1746022229,"current_range_meters":3600,"station_id":"ce4bgvh2rcd13ifvqcs0","pricing_plan_id":"cebpf4jnsgd1na2vs0mg"},{"bike_id":"0b03924a-af24-4974-8fc8-29c5c286f3c7","system_id":"levelo_inurba_marseille","lat":43.28274,"lon":5.3506,"is_reserved":false,"is_disabled":false,"rental_uris":{"android":"levelo://app?vid=0b03924a-af24-4974-8fc8-29c5c286f3c7","ios":"levelo://app?vid=0b03924a-af24-4974-8fc8-29c5c286f3c7"},"vehicle_type_id":"4","last_reported":1746022229,"current_range_meters":4000,"station_id":"ce4bhbp2rcd13ifvqerg","pricing_plan_id":"cebpf4jnsgd1na2vs0mg"},{"bike_id":"f45a6e61-d894-44a0-9a65-eb0a9e0cc1c7","system_id":"levelo_inurba_marseille","lat":43.21194,"lon":5.35068,"is_reserved":false,"is_disabled":false,"rental_uris":{"android":"levelo://app?vid=f45a6e61-d894-44a0-9a65-eb0a9e0cc1c7","ios":"levelo://app?vid=f45a6e61-d894-44a0-9a65-eb0a9e0cc1c7"},"vehicle_type_id":"4","last_reported":1746022229,"current_range_meters":4000,"station_id":"st_cvj6sg6p6f1abm77japg","pricing_plan_id":"cebpf4jnsgd1na2vs0mg"},{"bike_id":"b01a7e2b-c9f1-4ac2-a255-3ec190f6b2dc","system_id":"levelo_inurba_marseille","lat":43.241743,"lon":5.363947,"is_reserved":false,"is_disabled":false,"rental_uris":{"android":"levelo://app?vid=b01a7e2b-c9f1-4ac2-a255-3ec190f6b2dc","ios":"levelo://app?vid=b01a7e2b-c9f1-4ac2-a255-3ec190f6b2dc"},"vehicle_type_id":"4","last_reported":1746022229,"current_range_meters":4000,"station_id":"cpo36qri1sfpv3e86is0","pricing_plan_id":"cebpf4jnsgd1na2vs0mg"},{"bike_id":"ddde0b62-85ad-48bb-aec0-aaef8566dd81","system_id":"levelo_inurba_marseille","lat":43.28997,"lon":5.35605,"is_reserved":false,"is_disabled":false,"rental_uris":{"android":"levelo://app?vid=ddde0b62-85ad-48bb-aec0-aaef8566dd81","ios":"levelo://app?vid=ddde0b62-85ad-48bb-aec0-aaef8566dd81"},"vehicle_type_id":"4","last_reported":1746022229,"current_range_meters":1600,"station_id":"ce4bhb92rcd13ifvqen0","pricing_plan_id":"cebpf4jnsgd1na2vs0mg"},{"bike_id":"76435ee1-826e-46cf-8a77-89cb1c40ad15","system_id":"levelo_inurba_marseille","lat":43.26564,"lon":5.3901,"is_reserved":false,"is_disabled":false,"rental_uris":{"android":"levelo://app?vid=76435ee1-826e-46cf-8a77-89cb1c40ad15","ios":"levelo://app?vid=76435ee1-826e-46cf-8a77-89cb1c40ad15"},"vehicle_type_id":"4","last_reported":1746022229,"current_range_meters":4400,"station_id":"","pricing_plan_id":"cebpf4jnsgd1na2vs0mg"},{"bike_id":"57169e15-4506-43b1-809c-cb3a1fe5479e","system_id":"levelo_inurba_marseille","lat":43.28415,"lon":5.34988,"is_reserved":false,"is_disabled":false,"rental_uris":{"android":"levelo://app?vid=57169e15-4506-43b1-809c-cb3a1fe5479e","ios":"levelo://app?vid=57169e15-4506-43b1-809c-cb3a1fe5479e"},"vehicle_type_id":"4","last_reported":1746022229,"current_range_meters":4400,"station_id":"ce4bhbh2rcd13ifvqepg","pricing_plan_id":"cebpf4jnsgd1na2vs0mg"},{"bike_id":"53c0586b-1619-44ae-bc1b-651b39691667","system_id":"levelo_inurba_marseille","lat":43.303,"lon":5.39202,"is_reserved":false,"is_disabled":false,"rental_uris":{"android":"levelo://app?vid=53c0586b-1619-44ae-bc1b-651b39691667","ios":"levelo://app?vid=53c0586b-1619-44ae-bc1b-651b39691667"},"vehicle_type_id":"4","last_reported":1746022229,"current_range_meters":4000,"station_id":"ce4bgkh2rcd13ifvqbk0","pricing_plan_id":"cebpf4jnsgd1na2vs0mg"},{"bike_id":"4df50a3f-ec75-4abb-a66a-7f49c68de98b","system_id":"levelo_inurba_marseille","lat":43.29899,"lon":5.436586,"is_reserved":false,"is_disabled":false,"rental_uris":{"android":"levelo://app?vid=4df50a3f-ec75-4abb-a66a-7f49c68de98b","ios":"levelo://app?vid=4df50a3f-ec75-4abb-a66a-7f49c68de98b"},"vehicle_type_id":"4","last_reported":1746022229,"current_range_meters":4400,"station_id":"ce4bhpp2rcd13ifvqhfg","pricing_plan_id":"cebpf4jnsgd1na2vs0mg"},{"bike_id":"6020c120-8a29-470e-bca4-4cc53bf71d71","system_id":"levelo_inurba_marseille","lat":43.232007,"lon":5.355505,"is_reserved":false,"is_disabled":false,"rental_uris":{"android":"levelo://app?vid=6020c120-8a29-470e-bca4-4cc53bf71d71","ios":"levelo://app?vid=6020c120-8a29-470e-bca4-4cc53bf71d71"},"vehicle_type_id":"4","last_reported":1746022229,"current_range_meters":4400,"station_id":"ce4bhu92rcd13ifvqi70","pricing_plan_id":"cebpf4jnsgd1na2vs0mg"},{"bike_id":"91b9bd29-cf6f-4457-9d7e-1ed790c35a72","system_id":"levelo_inurba_marseille","lat":43.2847,"lon":5.3586,"is_reserved":false,"is_disabled":false,"rental_uris":{"android":"levelo://app?vid=91b9bd29-cf6f-4457-9d7e-1ed790c35a72","ios":"levelo://app?vid=91b9bd29-cf6f-4457-9d7e-1ed790c35a72"},"vehicle_type_id":"4","last_reported":1746022229,"current_range_meters":4800,"station_id":"ce4bhah2rcd13ifvqei0","pricing_plan_id":"cebpf4jnsgd1na2vs0mg"},{"bike_id":"66bb437c-465c-4011-bb9a-cf533123bfe2","system_id":"levelo_inurba_marseille","lat":43.21748,"lon":5.34604,"is_reserved":false,"is_disabled":false,"rental_uris":{"android":"levelo://app?vid=66bb437c-465c-4011-bb9a-cf533123bfe2","ios":"levelo://app?vid=66bb437c-465c-4011-bb9a-cf533123bfe2"},"vehicle_type_id":"4","last_reported":1746022229,"current_range_meters":4800,"station_id":"st_cvj6r9ubvosntc0bgbag","pricing_plan_id":"cebpf4jnsgd1na2vs0mg"},{"bike_id":"a8f1148f-01b4-4c5d-8fa8-7b8278584a55","system_id":"levelo_inurba_marseille","lat":43.29071,"lon":5.37154,"is_reserved":false,"is_disabled":false,"rental_uris":{"android":"levelo://app?vid=a8f1148f-01b4-4c5d-8fa8-7b8278584a55","ios":"levelo://app?vid=a8f1148f-01b4-4c5d-8fa8-7b8278584a55"},"vehicle_type_id":"4","last_reported":1746022229,"current_range_meters":4800,"station_id":"ce4bh5p2rcd13ifvqe4g","pricing_plan_id":"cebpf4jnsgd1na2vs0mg"},{"bike_id":"35c8853d-6942-4698-b2cc-b443fdc70f14","system_id":"levelo_inurba_marseille","lat":43.25494,"lon":5.37666,"is_reserved":false,"is_disabled":false,"rental_uris":{"android":"levelo://app?vid=35c8853d-6942-4698-b2cc-b443fdc70f14","ios":"levelo://app?vid=35c8853d-6942-4698-b2cc-b443fdc70f14"},"vehicle_type_id":"4","last_reported":1746022229,"current_range_meters":4800,"station_id":"ce4bhh12rcd13ifvqff0","pricing_plan_id":"cebpf4jnsgd1na2vs0mg"},{"bike_id":"8172da5a-e76e-4d1d-976f-8ddf474d0430","system_id":"levelo_inurba_marseille","lat":43.26558,"lon":5.37297,"is_reserved":false,"is_disabled":false,"rental_uris":{"android":"levelo://app?vid=8172da5a-e76e-4d1d-976f-8ddf474d0430","ios":"levelo://app?vid=8172da5a-e76e-4d1d-976f-8ddf474d0430"},"vehicle_type_id":"4","last_reported":1746022229,"current_range_meters":4800,"station_id":"ce4bhg12rcd13ifvqf70","pricing_plan_id":"cebpf4jnsgd1na2vs0mg"},{"bike_id":"7bdc40be-8136-4768-bcbe-771ace38e2eb","system_id":"levelo_inurba_marseille","lat":43.28465,"lon":5.35884,"is_reserved":false,"is_disabled":false,"rental_uris":{"android":"levelo://app?vid=7bdc40be-8136-4768-bcbe-771ace38e2eb","ios":"levelo://app?vid=7bdc40be-8136-4768-bcbe-771ace38e2eb"},"vehicle_type_id":"4","last_reported":1746022229,"current_range_meters":6000,"station_id":"ce4bhah2rcd13ifvqei0","pricing_plan_id":"cebpf4jnsgd1na2vs0mg"},{"bike_id":"a07647d8-a3ae-44f7-8513-526dd86a2737","system_id":"levelo_inurba_marseille","lat":43.28273,"lon":5.35055,"is_reserved":false,"is_disabled":false,"rental_uris":{"android":"levelo://app?vid=a07647d8-a3ae-44f7-8513-526dd86a2737","ios":"levelo://app?vid=a07647d8-a3ae-44f7-8513-526dd86a2737"},"vehicle_type_id":"4","last_reported":1746022229,"current_range_meters":5600,"station_id":"ce4bhbp2rcd13ifvqerg","pricing_plan_id":"cebpf4jnsgd1na2vs0mg"},{"bike_id":"60aabf46-20a6-48dd-97c7-ece02c47cd76","system_id":"levelo_inurba_marseille","lat":43.27991,"lon":5.4165,"is_reserved":false,"is_disabled":false,"rental_uris":{"android":"levelo://app?vid=60aabf46-20a6-48dd-97c7-ece02c47cd76","ios":"levelo://app?vid=60aabf46-20a6-48dd-97c7-ece02c47cd76"},"vehicle_type_id":"4","last_reported":1746022229,"current_range_meters":4800,"station_id":"ce4bho12rcd13ifvqh1g","pricing_plan_id":"cebpf4jnsgd1na2vs0mg"},{"bike_id":"2144794b-6817-4325-af77-9914a366a095","system_id":"levelo_inurba_marseille","lat":43.28273,"lon":5.35061,"is_reserved":false,"is_disabled":false,"rental_uris":{"android":"levelo://app?vid=2144794b-6817-4325-af77-9914a366a095","ios":"levelo://app?vid=2144794b-6817-4325-af77-9914a366a095"},"vehicle_type_id":"4","last_reported":1746022229,"current_range_meters":5600,"station_id":"ce4bhbp2rcd13ifvqerg","pricing_plan_id":"cebpf4jnsgd1na2vs0mg"},{"bike_id":"9c80c126-defe-4280-ad76-50c5d832a365","system_id":"levelo_inurba_marseille","lat":43.296165,"lon":5.371518,"is_reserved":false,"is_disabled":false,"rental_uris":{"android":"levelo://app?vid=9c80c126-defe-4280-ad76-50c5d832a365","ios":"levelo://app?vid=9c80c126-defe-4280-ad76-50c5d832a365"},"vehicle_type_id":"4","last_reported":1746022229,"current_range_meters":4000,"station_id":"ce4bgnh2rcd13ifvqc0g","pricing_plan_id":"cebpf4jnsgd1na2vs0mg"},{"bike_id":"6666b149-f8c7-41ac-bbf4-219673411026","system_id":"levelo_inurba_marseille","lat":43.294466,"lon":5.374539,"is_reserved":false,"is_disabled":false,"rental_uris":{"android":"levelo://app?vid=6666b149-f8c7-41ac-bbf4-219673411026","ios":"levelo://app?vid=6666b149-f8c7-41ac-bbf4-219673411026"},"vehicle_type_id":"4","last_reported":1746022229,"current_range_meters":6000,"station_id":"ce4bgkp2rcd13ifvqbmg","pricing_plan_id":"cebpf4jnsgd1na2vs0mg"},{"bike_id":"76b24ce2-028d-4242-be77-aff18401ff6c","system_id":"levelo_inurba_marseille","lat":43.27375,"lon":5.36255,"is_reserved":false,"is_disabled":false,"rental_uris":{"android":"levelo://app?vid=76b24ce2-028d-4242-be77-aff18401ff6c","ios":"levelo://app?vid=76b24ce2-028d-4242-be77-aff18401ff6c"},"vehicle_type_id":"4","last_reported":1746022229,"current_range_meters":6000,"station_id":"ce4bhbh2rcd13ifvqeo0","pricing_plan_id":"cebpf4jnsgd1na2vs0mg"},{"bike_id":"bf9ba034-a50b-4927-9375-9affe7b126db","system_id":"levelo_inurba_marseille","lat":43.23154,"lon":5.43713,"is_reserved":false,"is_disabled":false,"rental_uris":{"android":"levelo://app?vid=bf9ba034-a50b-4927-9375-9affe7b126db","ios":"levelo://app?vid=bf9ba034-a50b-4927-9375-9affe7b126db"},"vehicle_type_id":"4","last_reported":1746022229,"current_range_meters":6000,"station_id":"ce4bhmp2rcd13ifvqgog","pricing_plan_id":"cebpf4jnsgd1na2vs0mg"},{"bike_id":"fd362644-f154-4e35-9c8c-b19fa81b2ca5","system_id":"levelo_inurba_marseille","lat":43.30932,"lon":5.4015,"is_reserved":false,"is_disabled":false,"rental_uris":{"android":"levelo://app?vid=fd362644-f154-4e35-9c8c-b19fa81b2ca5","ios":"levelo://app?vid=fd362644-f154-4e35-9c8c-b19fa81b2ca5"},"vehicle_type_id":"4","last_reported":1746022229,"current_range_meters":6000,"station_id":"ce4bgvp2rcd13ifvqct0","pricing_plan_id":"cebpf4jnsgd1na2vs0mg"},{"bike_id":"71b8502c-0a71-4af3-99d4-7ee872048194","system_id":"levelo_inurba_marseille","lat":43.30934,"lon":5.4014,"is_reserved":false,"is_disabled":false,"rental_uris":{"android":"levelo://app?vid=71b8502c-0a71-4af3-99d4-7ee872048194","ios":"levelo://app?vid=71b8502c-0a71-4af3-99d4-7ee872048194"},"vehicle_type_id":"4","last_reported":1746022229,"current_range_meters":6400,"station_id":"ce4bgvp2rcd13ifvqct0","pricing_plan_id":"cebpf4jnsgd1na2vs0mg"},{"bike_id":"4957cd64-8b57-4f12-b86c-7956edb964ee","system_id":"levelo_inurba_marseille","lat":43.301868,"lon":5.374286,"is_reserved":false,"is_disabled":false,"rental_uris":{"android":"levelo://app?vid=4957cd64-8b57-4f12-b86c-7956edb964ee","ios":"levelo://app?vid=4957cd64-8b57-4f12-b86c-7956edb964ee"},"vehicle_type_id":"4","last_reported":1746022229,"current_range_meters":6400,"station_id":"ce4bhrh2rcd13ifvqhug","pricing_plan_id":"cebpf4jnsgd1na2vs0mg"},{"bike_id":"6768b798-9bdd-4cc5-97f1-ad6a4b68dfb6","system_id":"levelo_inurba_marseille","lat":43.23153,"lon":5.4372,"is_reserved":false,"is_disabled":false,"rental_uris":{"android":"levelo://app?vid=6768b798-9bdd-4cc5-97f1-ad6a4b68dfb6","ios":"levelo://app?vid=6768b798-9bdd-4cc5-97f1-ad6a4b68dfb6"},"vehicle_type_id":"4","last_reported":1746022229,"current_range_meters":6400,"station_id":"ce4bhmp2rcd13ifvqgog","pricing_plan_id":"cebpf4jnsgd1na2vs0mg"},{"bike_id":"cc17bd4e-c893-4b1b-b664-95122e822ad0","system_id":"levelo_inurba_marseille","lat":43.21748,"lon":5.34602,"is_reserved":false,"is_disabled":false,"rental_uris":{"android":"levelo://app?vid=cc17bd4e-c893-4b1b-b664-95122e822ad0","ios":"levelo://app?vid=cc17bd4e-c893-4b1b-b664-95122e822ad0"},"vehicle_type_id":"4","last_reported":1746022229,"current_range_meters":6400,"station_id":"st_cvj6r9ubvosntc0bgbag","pricing_plan_id":"cebpf4jnsgd1na2vs0mg"},{"bike_id":"572b04a0-6fcc-4210-81d0-1db779f111e3","system_id":"levelo_inurba_marseille","lat":43.25494,"lon":5.37651,"is_reserved":false,"is_disabled":false,"rental_uris":{"android":"levelo://app?vid=572b04a0-6fcc-4210-81d0-1db779f111e3","ios":"levelo://app?vid=572b04a0-6fcc-4210-81d0-1db779f111e3"},"vehicle_type_id":"4","last_reported":1746022229,"current_range_meters":6400,"station_id":"ce4bhh12rcd13ifvqff0","pricing_plan_id":"cebpf4jnsgd1na2vs0mg"},{"bike_id":"10cbed48-ed17-482f-be70-94c18352d24c","system_id":"levelo_inurba_marseille","lat":43.29183,"lon":5.35781,"is_reserved":false,"is_disabled":false,"rental_uris":{"android":"levelo://app?vid=10cbed48-ed17-482f-be70-94c18352d24c","ios":"levelo://app?vid=10cbed48-ed17-482f-be70-94c18352d24c"},"vehicle_type_id":"4","last_reported":1746022229,"current_range_meters":6400,"station_id":"ce4bhb12rcd13ifvqel0","pricing_plan_id":"cebpf4jnsgd1na2vs0mg"},{"bike_id":"89e9553b-359a-4286-8dbe-b7ac879dcc90","system_id":"levelo_inurba_marseille","lat":43.32473,"lon":5.36577,"is_reserved":false,"is_disabled":false,"rental_uris":{"android":"levelo://app?vid=89e9553b-359a-4286-8dbe-b7ac879dcc90","ios":"levelo://app?vid=89e9553b-359a-4286-8dbe-b7ac879dcc90"},"vehicle_type_id":"4","last_reported":1746022229,"current_range_meters":6400,"station_id":"ce4bhs12rcd13ifvqhvg","pricing_plan_id":"cebpf4jnsgd1na2vs0mg"},{"bike_id":"c89c72f1-acfb-4433-88a4-34cc2e0d6e0e","system_id":"levelo_inurba_marseille","lat":43.301852,"lon":5.366277,"is_reserved":false,"is_disabled":false,"rental_uris":{"android":"levelo://app?vid=c89c72f1-acfb-4433-88a4-34cc2e0d6e0e","ios":"levelo://app?vid=c89c72f1-acfb-4433-88a4-34cc2e0d6e0e"},"vehicle_type_id":"4","last_reported":1746022229,"current_range_meters":6400,"station_id":"ce4bgrh2rcd13ifvqc8g","pricing_plan_id":"cebpf4jnsgd1na2vs0mg"},{"bike_id":"3234a140-97c2-4441-8e61-c29a79e88c11","system_id":"levelo_inurba_marseille","lat":43.2736,"lon":5.36225,"is_reserved":false,"is_disabled":false,"rental_uris":{"android":"levelo://app?vid=3234a140-97c2-4441-8e61-c29a79e88c11","ios":"levelo://app?vid=3234a140-97c2-4441-8e61-c29a79e88c11"},"vehicle_type_id":"4","last_reported":1746022229,"current_range_meters":6800,"station_id":"ce4bhbh2rcd13ifvqeo0","pricing_plan_id":"cebpf4jnsgd1na2vs0mg"},{"bike_id":"e701bc4d-8846-42c9-977f-9240d16a063e","system_id":"levelo_inurba_marseille","lat":43.28,"lon":5.40008,"is_reserved":false,"is_disabled":false,"rental_uris":{"android":"levelo://app?vid=e701bc4d-8846-42c9-977f-9240d16a063e","ios":"levelo://app?vid=e701bc4d-8846-42c9-977f-9240d16a063e"},"vehicle_type_id":"4","last_reported":1746022229,"current_range_meters":6400,"station_id":"ce4bho92rcd13ifvqh4g","pricing_plan_id":"cebpf4jnsgd1na2vs0mg"},{"bike_id":"64d3189e-3cce-4a27-89b5-f425064632b3","system_id":"levelo_inurba_marseille","lat":43.28956,"lon":5.36378,"is_reserved":false,"is_disabled":false,"rental_uris":{"android":"levelo://app?vid=64d3189e-3cce-4a27-89b5-f425064632b3","ios":"levelo://app?vid=64d3189e-3cce-4a27-89b5-f425064632b3"},"vehicle_type_id":"4","last_reported":1746022229,"current_range_meters":6400,"station_id":"ce4bhc92rcd13ifvqetg","pricing_plan_id":"cebpf4jnsgd1na2vs0mg"},{"bike_id":"afb5fd72-e5b4-4630-a677-e1c0f5ac01d3","system_id":"levelo_inurba_marseille","lat":43.25832,"lon":5.3942,"is_reserved":false,"is_disabled":false,"rental_uris":{"android":"levelo://app?vid=afb5fd72-e5b4-4630-a677-e1c0f5ac01d3","ios":"levelo://app?vid=afb5fd72-e5b4-4630-a677-e1c0f5ac01d3"},"vehicle_type_id":"4","last_reported":1746022229,"current_range_meters":6800,"station_id":"ce4bhip2rcd13ifvqft0","pricing_plan_id":"cebpf4jnsgd1na2vs0mg"},{"bike_id":"ea9fec3d-8748-4e9a-a2ec-d0b2ea85f1f3","system_id":"levelo_inurba_marseille","lat":43.24169,"lon":5.36395,"is_reserved":false,"is_disabled":false,"rental_uris":{"android":"levelo://app?vid=ea9fec3d-8748-4e9a-a2ec-d0b2ea85f1f3","ios":"levelo://app?vid=ea9fec3d-8748-4e9a-a2ec-d0b2ea85f1f3"},"vehicle_type_id":"4","last_reported":1746022229,"current_range_meters":6800,"station_id":"cpo36qri1sfpv3e86is0","pricing_plan_id":"cebpf4jnsgd1na2vs0mg"},{"bike_id":"f758be3e-0379-4f5e-8a8f-5f7d25bbfefe","system_id":"levelo_inurba_marseille","lat":43.31367,"lon":5.38483,"is_reserved":false,"is_disabled":false,"rental_uris":{"android":"levelo://app?vid=f758be3e-0379-4f5e-8a8f-5f7d25bbfefe","ios":"levelo://app?vid=f758be3e-0379-4f5e-8a8f-5f7d25bbfefe"},"vehicle_type_id":"4","last_reported":1746022229,"current_range_meters":4000,"station_id":"ce4bgt92rcd13ifvqcf0","pricing_plan_id":"cebpf4jnsgd1na2vs0mg"},{"bike_id":"87f3c6d6-b161-495f-9fce-0486758b0b65","system_id":"levelo_inurba_marseille","lat":43.30561,"lon":5.36489,"is_reserved":false,"is_disabled":false,"rental_uris":{"android":"levelo://app?vid=87f3c6d6-b161-495f-9fce-0486758b0b65","ios":"levelo://app?vid=87f3c6d6-b161-495f-9fce-0486758b0b65"},"vehicle_type_id":"4","last_reported":1746022229,"current_range_meters":6800,"station_id":"","pricing_plan_id":"cebpf4jnsgd1na2vs0mg"},{"bike_id":"373780b6-3ca7-4926-9bf4-ae13ddc2663c","system_id":"levelo_inurba_marseille","lat":43.32344,"lon":5.40622,"is_reserved":false,"is_disabled":false,"rental_uris":{"android":"levelo://app?vid=373780b6-3ca7-4926-9bf4-ae13ddc2663c","ios":"levelo://app?vid=373780b6-3ca7-4926-9bf4-ae13ddc2663c"},"vehicle_type_id":"4","last_reported":1746022229,"current_range_meters":7200,"station_id":"ce4bhq92rcd13ifvqhjg","pricing_plan_id":"cebpf4jnsgd1na2vs0mg"},{"bike_id":"3a099ec1-7990-4038-9313-3c1f2562a259","system_id":"levelo_inurba_marseille","lat":43.26189,"lon":5.37555,"is_reserved":false,"is_disabled":false,"rental_uris":{"android":"levelo://app?vid=3a099ec1-7990-4038-9313-3c1f2562a259","ios":"levelo://app?vid=3a099ec1-7990-4038-9313-3c1f2562a259"},"vehicle_type_id":"4","last_reported":1746022229,"current_range_meters":7200,"station_id":"","pricing_plan_id":"cebpf4jnsgd1na2vs0mg"},{"bike_id":"d2778355-e0fc-4355-b734-01e1aa42a5ce","system_id":"levelo_inurba_marseille","lat":43.2738,"lon":5.36255,"is_reserved":false,"is_disabled":false,"rental_uris":{"android":"levelo://app?vid=d2778355-e0fc-4355-b734-01e1aa42a5ce","ios":"levelo://app?vid=d2778355-e0fc-4355-b734-01e1aa42a5ce"},"vehicle_type_id":"4","last_reported":1746022229,"current_range_meters":4000,"station_id":"ce4bhbh2rcd13ifvqeo0","pricing_plan_id":"cebpf4jnsgd1na2vs0mg"},{"bike_id":"ce5b795d-b5f5-4c2f-bb50-69e2ec328996","system_id":"levelo_inurba_marseille","lat":43.3299,"lon":5.384299,"is_reserved":false,"is_disabled":false,"rental_uris":{"android":"levelo://app?vid=ce5b795d-b5f5-4c2f-bb50-69e2ec328996","ios":"levelo://app?vid=ce5b795d-b5f5-4c2f-bb50-69e2ec328996"},"vehicle_type_id":"4","last_reported":1746022229,"current_range_meters":7200,"station_id":"","pricing_plan_id":"cebpf4jnsgd1na2vs0mg"},{"bike_id":"3fb12616-28b3-4734-a9e3-557a869878c0","system_id":"levelo_inurba_marseille","lat":43.231943,"lon":5.39976,"is_reserved":false,"is_disabled":false,"rental_uris":{"android":"levelo://app?vid=3fb12616-28b3-4734-a9e3-557a869878c0","ios":"levelo://app?vid=3fb12616-28b3-4734-a9e3-557a869878c0"},"vehicle_type_id":"4","last_reported":1746022229,"current_range_meters":7200,"station_id":"ce4bhn12rcd13ifvqgqg","pricing_plan_id":"cebpf4jnsgd1na2vs0mg"},{"bike_id":"e74e596f-077a-4dba-a378-917648492f23","system_id":"levelo_inurba_marseille","lat":43.269295,"lon":5.40257,"is_reserved":false,"is_disabled":false,"rental_uris":{"android":"levelo://app?vid=e74e596f-077a-4dba-a378-917648492f23","ios":"levelo://app?vid=e74e596f-077a-4dba-a378-917648492f23"},"vehicle_type_id":"4","last_reported":1746022229,"current_range_meters":8400,"station_id":"cjm6bp8fraef2m0cb0m0","pricing_plan_id":"cebpf4jnsgd1na2vs0mg"},{"bike_id":"c7d4ca92-020f-4c6f-815a-ddc6fdf77b1f","system_id":"levelo_inurba_marseille","lat":43.23479,"lon":5.380393,"is_reserved":false,"is_disabled":false,"rental_uris":{"android":"levelo://app?vid=c7d4ca92-020f-4c6f-815a-ddc6fdf77b1f","ios":"levelo://app?vid=c7d4ca92-020f-4c6f-815a-ddc6fdf77b1f"},"vehicle_type_id":"4","last_reported":1746022229,"current_range_meters":8000,"station_id":"","pricing_plan_id":"cebpf4jnsgd1na2vs0mg"},{"bike_id":"e7437578-5c21-459d-a9a9-162acb594aaf","system_id":"levelo_inurba_marseille","lat":43.30671,"lon":5.4009,"is_reserved":false,"is_disabled":false,"rental_uris":{"android":"levelo://app?vid=e7437578-5c21-459d-a9a9-162acb594aaf","ios":"levelo://app?vid=e7437578-5c21-459d-a9a9-162acb594aaf"},"vehicle_type_id":"4","last_reported":1746022229,"current_range_meters":8000,"station_id":"ce4bh112rcd13ifvqda0","pricing_plan_id":"cebpf4jnsgd1na2vs0mg"},{"bike_id":"ac174655-7d29-4a94-bb04-29532fc5cb0c","system_id":"levelo_inurba_marseille","lat":43.29367,"lon":5.37811,"is_reserved":false,"is_disabled":false,"rental_uris":{"android":"levelo://app?vid=ac174655-7d29-4a94-bb04-29532fc5cb0c","ios":"levelo://app?vid=ac174655-7d29-4a94-bb04-29532fc5cb0c"},"vehicle_type_id":"4","last_reported":1746022229,"current_range_meters":8000,"station_id":"ce4bgjh2rcd13ifvqbf0","pricing_plan_id":"cebpf4jnsgd1na2vs0mg"},{"bike_id":"81639ad4-d304-4dde-971f-39b9cfc58904","system_id":"levelo_inurba_marseille","lat":43.28279,"lon":5.35066,"is_reserved":false,"is_disabled":false,"rental_uris":{"android":"levelo://app?vid=81639ad4-d304-4dde-971f-39b9cfc58904","ios":"levelo://app?vid=81639ad4-d304-4dde-971f-39b9cfc58904"},"vehicle_type_id":"4","last_reported":1746022229,"current_range_meters":8000,"station_id":"ce4bhbp2rcd13ifvqerg","pricing_plan_id":"cebpf4jnsgd1na2vs0mg"},{"bike_id":"f7d434d6-c94a-44aa-85df-690d8ef2922e","system_id":"levelo_inurba_marseille","lat":43.32484,"lon":5.36577,"is_reserved":false,"is_disabled":false,"rental_uris":{"android":"levelo://app?vid=f7d434d6-c94a-44aa-85df-690d8ef2922e","ios":"levelo://app?vid=f7d434d6-c94a-44aa-85df-690d8ef2922e"},"vehicle_type_id":"4","last_reported":1746022229,"current_range_meters":8400,"station_id":"ce4bhs12rcd13ifvqhvg","pricing_plan_id":"cebpf4jnsgd1na2vs0mg"},{"bike_id":"345beb45-1013-4fe4-a741-0ebc9e01dc01","system_id":"levelo_inurba_marseille","lat":43.29043,"lon":5.37563,"is_reserved":false,"is_disabled":false,"rental_uris":{"android":"levelo://app?vid=345beb45-1013-4fe4-a741-0ebc9e01dc01","ios":"levelo://app?vid=345beb45-1013-4fe4-a741-0ebc9e01dc01"},"vehicle_type_id":"4","last_reported":1746022229,"current_range_meters":8400,"station_id":"","pricing_plan_id":"cebpf4jnsgd1na2vs0mg"},{"bike_id":"c06f07d3-1013-483e-a267-a905eac3630f","system_id":"levelo_inurba_marseille","lat":43.29278,"lon":5.37624,"is_reserved":false,"is_disabled":false,"rental_uris":{"android":"levelo://app?vid=c06f07d3-1013-483e-a267-a905eac3630f","ios":"levelo://app?vid=c06f07d3-1013-483e-a267-a905eac3630f"},"vehicle_type_id":"4","last_reported":1746022229,"current_range_meters":8400,"station_id":"ce4bgi12rcd13ifvqb80","pricing_plan_id":"cebpf4jnsgd1na2vs0mg"},{"bike_id":"6c762325-22d4-409f-abd0-63634b302a04","system_id":"levelo_inurba_marseille","lat":43.23166,"lon":5.43731,"is_reserved":false,"is_disabled":false,"rental_uris":{"android":"levelo://app?vid=6c762325-22d4-409f-abd0-63634b302a04","ios":"levelo://app?vid=6c762325-22d4-409f-abd0-63634b302a04"},"vehicle_type_id":"4","last_reported":1746022229,"current_range_meters":8800,"station_id":"ce4bhmp2rcd13ifvqgog","pricing_plan_id":"cebpf4jnsgd1na2vs0mg"},{"bike_id":"646103b3-06d9-474d-9289-55e5086a2c69","system_id":"levelo_inurba_marseille","lat":43.288038,"lon":5.40017,"is_reserved":false,"is_disabled":false,"rental_uris":{"android":"levelo://app?vid=646103b3-06d9-474d-9289-55e5086a2c69","ios":"levelo://app?vid=646103b3-06d9-474d-9289-55e5086a2c69"},"vehicle_type_id":"4","last_reported":1746022229,"current_range_meters":8800,"station_id":"ce4bho92rcd13ifvqh3g","pricing_plan_id":"cebpf4jnsgd1na2vs0mg"},{"bike_id":"64c8d3ea-9c6f-455a-b2d7-00a036fae7a4","system_id":"levelo_inurba_marseille","lat":43.268593,"lon":5.39177,"is_reserved":false,"is_disabled":false,"rental_uris":{"android":"levelo://app?vid=64c8d3ea-9c6f-455a-b2d7-00a036fae7a4","ios":"levelo://app?vid=64c8d3ea-9c6f-455a-b2d7-00a036fae7a4"},"vehicle_type_id":"4","last_reported":1746022229,"current_range_meters":8800,"station_id":"","pricing_plan_id":"cebpf4jnsgd1na2vs0mg"},{"bike_id":"a0f4bd78-f5c4-42c9-acdf-e7276b835249","system_id":"levelo_inurba_marseille","lat":43.33157,"lon":5.38239,"is_reserved":false,"is_disabled":false,"rental_uris":{"android":"levelo://app?vid=a0f4bd78-f5c4-42c9-acdf-e7276b835249","ios":"levelo://app?vid=a0f4bd78-f5c4-42c9-acdf-e7276b835249"},"vehicle_type_id":"4","last_reported":1746022229,"current_range_meters":8800,"station_id":"","pricing_plan_id":"cebpf4jnsgd1na2vs0mg"},{"bike_id":"b30a4e07-2588-4e25-9c7a-a8e40cc19909","system_id":"levelo_inurba_marseille","lat":43.25121,"lon":5.40316,"is_reserved":false,"is_disabled":false,"rental_uris":{"android":"levelo://app?vid=b30a4e07-2588-4e25-9c7a-a8e40cc19909","ios":"levelo://app?vid=b30a4e07-2588-4e25-9c7a-a8e40cc19909"},"vehicle_type_id":"4","last_reported":1746022229,"current_range_meters":8800,"station_id":"ce4bhlh2rcd13ifvqgig","pricing_plan_id":"cebpf4jnsgd1na2vs0mg"},{"bike_id":"bd90c11e-b1a7-4919-8dc9-b52f361ebef9","system_id":"levelo_inurba_marseille","lat":43.25124,"lon":5.40311,"is_reserved":false,"is_disabled":false,"rental_uris":{"android":"levelo://app?vid=bd90c11e-b1a7-4919-8dc9-b52f361ebef9","ios":"levelo://app?vid=bd90c11e-b1a7-4919-8dc9-b52f361ebef9"},"vehicle_type_id":"4","last_reported":1746022229,"current_range_meters":8800,"station_id":"ce4bhlh2rcd13ifvqgig","pricing_plan_id":"cebpf4jnsgd1na2vs0mg"},{"bike_id":"41e4b444-923b-4306-b804-d94c4b30eca7","system_id":"levelo_inurba_marseille","lat":43.29905,"lon":5.43651,"is_reserved":false,"is_disabled":false,"rental_uris":{"android":"levelo://app?vid=41e4b444-923b-4306-b804-d94c4b30eca7","ios":"levelo://app?vid=41e4b444-923b-4306-b804-d94c4b30eca7"},"vehicle_type_id":"4","last_reported":1746022229,"current_range_meters":8400,"station_id":"ce4bhpp2rcd13ifvqhfg","pricing_plan_id":"cebpf4jnsgd1na2vs0mg"},{"bike_id":"bb823fdf-9c19-43dd-8023-221b745cad6b","system_id":"levelo_inurba_marseille","lat":43.26562,"lon":5.37293,"is_reserved":false,"is_disabled":false,"rental_uris":{"android":"levelo://app?vid=bb823fdf-9c19-43dd-8023-221b745cad6b","ios":"levelo://app?vid=bb823fdf-9c19-43dd-8023-221b745cad6b"},"vehicle_type_id":"4","last_reported":1746022229,"current_range_meters":9200,"station_id":"ce4bhg12rcd13ifvqf70","pricing_plan_id":"cebpf4jnsgd1na2vs0mg"},{"bike_id":"489415b8-9254-45c1-b00c-e7554d56755c","system_id":"levelo_inurba_marseille","lat":43.24518,"lon":5.41213,"is_reserved":false,"is_disabled":false,"rental_uris":{"android":"levelo://app?vid=489415b8-9254-45c1-b00c-e7554d56755c","ios":"levelo://app?vid=489415b8-9254-45c1-b00c-e7554d56755c"},"vehicle_type_id":"4","last_reported":1746022229,"current_range_meters":9200,"station_id":"","pricing_plan_id":"cebpf4jnsgd1na2vs0mg"},{"bike_id":"56efb43a-5ea2-4c85-a56d-b7ddf689c245","system_id":"levelo_inurba_marseille","lat":43.30936,"lon":5.40146,"is_reserved":false,"is_disabled":false,"rental_uris":{"android":"levelo://app?vid=56efb43a-5ea2-4c85-a56d-b7ddf689c245","ios":"levelo://app?vid=56efb43a-5ea2-4c85-a56d-b7ddf689c245"},"vehicle_type_id":"4","last_reported":1746022229,"current_range_meters":9200,"station_id":"ce4bgvp2rcd13ifvqct0","pricing_plan_id":"cebpf4jnsgd1na2vs0mg"},{"bike_id":"531574f6-6d6c-4dbb-8af7-d0029c624630","system_id":"levelo_inurba_marseille","lat":43.26486,"lon":5.39551,"is_reserved":false,"is_disabled":false,"rental_uris":{"android":"levelo://app?vid=531574f6-6d6c-4dbb-8af7-d0029c624630","ios":"levelo://app?vid=531574f6-6d6c-4dbb-8af7-d0029c624630"},"vehicle_type_id":"4","last_reported":1746022229,"current_range_meters":9200,"station_id":"ce4bhi12rcd13ifvqfq0","pricing_plan_id":"cebpf4jnsgd1na2vs0mg"},{"bike_id":"b247cfa0-2a9e-4389-993a-0446b8975648","system_id":"levelo_inurba_marseille","lat":43.24826,"lon":5.3745,"is_reserved":false,"is_disabled":false,"rental_uris":{"android":"levelo://app?vid=b247cfa0-2a9e-4389-993a-0446b8975648","ios":"levelo://app?vid=b247cfa0-2a9e-4389-993a-0446b8975648"},"vehicle_type_id":"4","last_reported":1746022229,"current_range_meters":9600,"station_id":"ce4bhgh2rcd13ifvqfb0","pricing_plan_id":"cebpf4jnsgd1na2vs0mg"},{"bike_id":"91342df5-cefa-40ce-bb35-6c34b2cac56c","system_id":"levelo_inurba_marseille","lat":43.311579,"lon":5.371215,"is_reserved":false,"is_disabled":false,"rental_uris":{"android":"levelo://app?vid=91342df5-cefa-40ce-bb35-6c34b2cac56c","ios":"levelo://app?vid=91342df5-cefa-40ce-bb35-6c34b2cac56c"},"vehicle_type_id":"4","last_reported":1746022229,"current_range_meters":9600,"station_id":"","pricing_plan_id":"cebpf4jnsgd1na2vs0mg"},{"bike_id":"07edfd45-c3fa-4b57-b865-cf1bf9963264","system_id":"levelo_inurba_marseille","lat":43.23399,"lon":5.3643,"is_reserved":false,"is_disabled":false,"rental_uris":{"android":"levelo://app?vid=07edfd45-c3fa-4b57-b865-cf1bf9963264","ios":"levelo://app?vid=07edfd45-c3fa-4b57-b865-cf1bf9963264"},"vehicle_type_id":"4","last_reported":1746022229,"current_range_meters":9600,"station_id":"","pricing_plan_id":"cebpf4jnsgd1na2vs0mg"},{"bike_id":"cbd46ef3-5c65-498c-ba3b-c43baa9819c3","system_id":"levelo_inurba_marseille","lat":43.29385,"lon":5.37857,"is_reserved":false,"is_disabled":false,"rental_uris":{"android":"levelo://app?vid=cbd46ef3-5c65-498c-ba3b-c43baa9819c3","ios":"levelo://app?vid=cbd46ef3-5c65-498c-ba3b-c43baa9819c3"},"vehicle_type_id":"4","last_reported":1746022229,"current_range_meters":9600,"station_id":"ce4bgjh2rcd13ifvqbf0","pricing_plan_id":"cebpf4jnsgd1na2vs0mg"},{"bike_id":"a732b3d6-472a-46b2-b5fc-7d86a14ed2fc","system_id":"levelo_inurba_marseille","lat":43.33029,"lon":5.3903,"is_reserved":false,"is_disabled":false,"rental_uris":{"android":"levelo://app?vid=a732b3d6-472a-46b2-b5fc-7d86a14ed2fc","ios":"levelo://app?vid=a732b3d6-472a-46b2-b5fc-7d86a14ed2fc"},"vehicle_type_id":"4","last_reported":1746022229,"current_range_meters":10000,"station_id":"ce4bhr92rcd13ifvqhrg","pricing_plan_id":"cebpf4jnsgd1na2vs0mg"},{"bike_id":"dd26ecd7-4857-4e33-aee0-9420c26e4020","system_id":"levelo_inurba_marseille","lat":43.27402,"lon":5.36275,"is_reserved":false,"is_disabled":false,"rental_uris":{"android":"levelo://app?vid=dd26ecd7-4857-4e33-aee0-9420c26e4020","ios":"levelo://app?vid=dd26ecd7-4857-4e33-aee0-9420c26e4020"},"vehicle_type_id":"4","last_reported":1746022229,"current_range_meters":10800,"station_id":"ce4bhbh2rcd13ifvqeo0","pricing_plan_id":"cebpf4jnsgd1na2vs0mg"},{"bike_id":"ac80e985-cfdf-4940-bf6d-bf2ebe2c2fd0","system_id":"levelo_inurba_marseille","lat":43.32103,"lon":5.36796,"is_reserved":false,"is_disabled":false,"rental_uris":{"android":"levelo://app?vid=ac80e985-cfdf-4940-bf6d-bf2ebe2c2fd0","ios":"levelo://app?vid=ac80e985-cfdf-4940-bf6d-bf2ebe2c2fd0"},"vehicle_type_id":"4","last_reported":1746022229,"current_range_meters":10800,"station_id":"ce4bhrh2rcd13ifvqhug","pricing_plan_id":"cebpf4jnsgd1na2vs0mg"},{"bike_id":"d4d68283-ed9e-4353-ac79-251f0103d3b8","system_id":"levelo_inurba_marseille","lat":43.329693,"lon":5.363877,"is_reserved":false,"is_disabled":false,"rental_uris":{"android":"levelo://app?vid=d4d68283-ed9e-4353-ac79-251f0103d3b8","ios":"levelo://app?vid=d4d68283-ed9e-4353-ac79-251f0103d3b8"},"vehicle_type_id":"4","last_reported":1746022229,"current_range_meters":10800,"station_id":"","pricing_plan_id":"cebpf4jnsgd1na2vs0mg"},{"bike_id":"bb5919b3-a585-4360-859d-7698316d89fd","system_id":"levelo_inurba_marseille","lat":43.26559,"lon":5.37281,"is_reserved":false,"is_disabled":false,"rental_uris":{"android":"levelo://app?vid=bb5919b3-a585-4360-859d-7698316d89fd","ios":"levelo://app?vid=bb5919b3-a585-4360-859d-7698316d89fd"},"vehicle_type_id":"4","last_reported":1746022229,"current_range_meters":10800,"station_id":"ce4bhg12rcd13ifvqf70","pricing_plan_id":"cebpf4jnsgd1na2vs0mg"},{"bike_id":"2c5ec366-1e71-48a0-838b-cdd4be06b798","system_id":"levelo_inurba_marseille","lat":43.28614,"lon":5.35102,"is_reserved":false,"is_disabled":false,"rental_uris":{"android":"levelo://app?vid=2c5ec366-1e71-48a0-838b-cdd4be06b798","ios":"levelo://app?vid=2c5ec366-1e71-48a0-838b-cdd4be06b798"},"vehicle_type_id":"4","last_reported":1746022229,"current_range_meters":10800,"station_id":"ce4bhch2rcd13ifvqeug","pricing_plan_id":"cebpf4jnsgd1na2vs0mg"},{"bike_id":"dcb0b990-89f9-495c-a9c1-10b17ae39667","system_id":"levelo_inurba_marseille","lat":43.234699,"lon":5.380437,"is_reserved":false,"is_disabled":false,"rental_uris":{"android":"levelo://app?vid=dcb0b990-89f9-495c-a9c1-10b17ae39667","ios":"levelo://app?vid=dcb0b990-89f9-495c-a9c1-10b17ae39667"},"vehicle_type_id":"4","last_reported":1746022229,"current_range_meters":10800,"station_id":"","pricing_plan_id":"cebpf4jnsgd1na2vs0mg"},{"bike_id":"4f5908cc-1f49-42bb-829a-d20ae0a1bf03","system_id":"levelo_inurba_marseille","lat":43.30889,"lon":5.39657,"is_reserved":false,"is_disabled":false,"rental_uris":{"android":"levelo://app?vid=4f5908cc-1f49-42bb-829a-d20ae0a1bf03","ios":"levelo://app?vid=4f5908cc-1f49-42bb-829a-d20ae0a1bf03"},"vehicle_type_id":"4","last_reported":1746022229,"current_range_meters":13600,"station_id":"ce4bh012rcd13ifvqcv0","pricing_plan_id":"cebpf4jnsgd1na2vs0mg"},{"bike_id":"b69332f2-4ab0-4256-af0a-87d8903de498","system_id":"levelo_inurba_marseille","lat":43.3013,"lon":5.39838,"is_reserved":false,"is_disabled":false,"rental_uris":{"android":"levelo://app?vid=b69332f2-4ab0-4256-af0a-87d8903de498","ios":"levelo://app?vid=b69332f2-4ab0-4256-af0a-87d8903de498"},"vehicle_type_id":"4","last_reported":1746022229,"current_range_meters":10000,"station_id":"ce4bh0h2rcd13ifvqd40","pricing_plan_id":"cebpf4jnsgd1na2vs0mg"},{"bike_id":"a372a58b-489c-4029-bc61-7d9dbc61985c","system_id":"levelo_inurba_marseille","lat":43.29775,"lon":5.37104,"is_reserved":false,"is_disabled":false,"rental_uris":{"android":"levelo://app?vid=a372a58b-489c-4029-bc61-7d9dbc61985c","ios":"levelo://app?vid=a372a58b-489c-4029-bc61-7d9dbc61985c"},"vehicle_type_id":"4","last_reported":1746022229,"current_range_meters":10800,"station_id":"ce4bgop2rcd13ifvqc1g","pricing_plan_id":"cebpf4jnsgd1na2vs0mg"},{"bike_id":"5ff292af-277b-4942-8df7-bf63ffe17592","system_id":"levelo_inurba_marseille","lat":43.23145,"lon":5.43711,"is_reserved":false,"is_disabled":false,"rental_uris":{"android":"levelo://app?vid=5ff292af-277b-4942-8df7-bf63ffe17592","ios":"levelo://app?vid=5ff292af-277b-4942-8df7-bf63ffe17592"},"vehicle_type_id":"4","last_reported":1746022229,"current_range_meters":10800,"station_id":"ce4bhmp2rcd13ifvqgog","pricing_plan_id":"cebpf4jnsgd1na2vs0mg"},{"bike_id":"369e23e5-2240-4e38-ac42-96c3371f4bfe","system_id":"levelo_inurba_marseille","lat":43.28667,"lon":5.3635,"is_reserved":false,"is_disabled":false,"rental_uris":{"android":"levelo://app?vid=369e23e5-2240-4e38-ac42-96c3371f4bfe","ios":"levelo://app?vid=369e23e5-2240-4e38-ac42-96c3371f4bfe"},"vehicle_type_id":"4","last_reported":1746022229,"current_range_meters":11200,"station_id":"ce4bhah2rcd13ifvqej0","pricing_plan_id":"cebpf4jnsgd1na2vs0mg"},{"bike_id":"1ecc8740-cbb3-4e7e-b2f3-011f095d2ac5","system_id":"levelo_inurba_marseille","lat":43.24168,"lon":5.36396,"is_reserved":false,"is_disabled":false,"rental_uris":{"android":"levelo://app?vid=1ecc8740-cbb3-4e7e-b2f3-011f095d2ac5","ios":"levelo://app?vid=1ecc8740-cbb3-4e7e-b2f3-011f095d2ac5"},"vehicle_type_id":"4","last_reported":1746022229,"current_range_meters":11200,"station_id":"cpo36qri1sfpv3e86is0","pricing_plan_id":"cebpf4jnsgd1na2vs0mg"},{"bike_id":"3305eb03-d172-4754-9cd8-b1a07869ed3a","system_id":"levelo_inurba_marseille","lat":43.28274,"lon":5.35077,"is_reserved":false,"is_disabled":false,"rental_uris":{"android":"levelo://app?vid=3305eb03-d172-4754-9cd8-b1a07869ed3a","ios":"levelo://app?vid=3305eb03-d172-4754-9cd8-b1a07869ed3a"},"vehicle_type_id":"4","last_reported":1746022229,"current_range_meters":11200,"station_id":"ce4bhbp2rcd13ifvqerg","pricing_plan_id":"cebpf4jnsgd1na2vs0mg"},{"bike_id":"7f770ba9-2e48-47c9-8bb4-942855273bad","system_id":"levelo_inurba_marseille","lat":43.253353,"lon":5.424149,"is_reserved":false,"is_disabled":false,"rental_uris":{"android":"levelo://app?vid=7f770ba9-2e48-47c9-8bb4-942855273bad","ios":"levelo://app?vid=7f770ba9-2e48-47c9-8bb4-942855273bad"},"vehicle_type_id":"4","last_reported":1746022229,"current_range_meters":11200,"station_id":"","pricing_plan_id":"cebpf4jnsgd1na2vs0mg"},{"bike_id":"78d35512-d565-43ab-baa3-30a84eecd323","system_id":"levelo_inurba_marseille","lat":43.266803,"lon":5.382737,"is_reserved":false,"is_disabled":false,"rental_uris":{"android":"levelo://app?vid=78d35512-d565-43ab-baa3-30a84eecd323","ios":"levelo://app?vid=78d35512-d565-43ab-baa3-30a84eecd323"},"vehicle_type_id":"4","last_reported":1746022229,"current_range_meters":11600,"station_id":"ce4bhg92rcd13ifvqf90","pricing_plan_id":"cebpf4jnsgd1na2vs0mg"},{"bike_id":"7066bf6e-1400-4942-9742-efc1607fc1cd","system_id":"levelo_inurba_marseille","lat":43.23969,"lon":5.36673,"is_reserved":false,"is_disabled":false,"rental_uris":{"android":"levelo://app?vid=7066bf6e-1400-4942-9742-efc1607fc1cd","ios":"levelo://app?vid=7066bf6e-1400-4942-9742-efc1607fc1cd"},"vehicle_type_id":"4","last_reported":1746022229,"current_range_meters":12000,"station_id":"ce4bhi12rcd13ifvqfp0","pricing_plan_id":"cebpf4jnsgd1na2vs0mg"},{"bike_id":"337933d3-48bc-4ff6-a293-a6b360255d79","system_id":"levelo_inurba_marseille","lat":43.26942,"lon":5.4025,"is_reserved":false,"is_disabled":false,"rental_uris":{"android":"levelo://app?vid=337933d3-48bc-4ff6-a293-a6b360255d79","ios":"levelo://app?vid=337933d3-48bc-4ff6-a293-a6b360255d79"},"vehicle_type_id":"4","last_reported":1746022229,"current_range_meters":12000,"station_id":"cjm6bp8fraef2m0cb0m0","pricing_plan_id":"cebpf4jnsgd1na2vs0mg"},{"bike_id":"e5e92a64-e709-4b1a-a9b1-cbffe85789ca","system_id":"levelo_inurba_marseille","lat":43.255413,"lon":5.381415,"is_reserved":false,"is_disabled":false,"rental_uris":{"android":"levelo://app?vid=e5e92a64-e709-4b1a-a9b1-cbffe85789ca","ios":"levelo://app?vid=e5e92a64-e709-4b1a-a9b1-cbffe85789ca"},"vehicle_type_id":"4","last_reported":1746022229,"current_range_meters":12000,"station_id":"","pricing_plan_id":"cebpf4jnsgd1na2vs0mg"},{"bike_id":"9aa46099-3b01-4795-a11f-5c16321cf0cd","system_id":"levelo_inurba_marseille","lat":43.2621,"lon":5.37454,"is_reserved":false,"is_disabled":false,"rental_uris":{"android":"levelo://app?vid=9aa46099-3b01-4795-a11f-5c16321cf0cd","ios":"levelo://app?vid=9aa46099-3b01-4795-a11f-5c16321cf0cd"},"vehicle_type_id":"4","last_reported":1746022229,"current_range_meters":12400,"station_id":"ce4bhgp2rcd13ifvqfc0","pricing_plan_id":"cebpf4jnsgd1na2vs0mg"},{"bike_id":"38705924-242d-409a-8158-e005e176a42d","system_id":"levelo_inurba_marseille","lat":43.2603,"lon":5.37548,"is_reserved":false,"is_disabled":false,"rental_uris":{"android":"levelo://app?vid=38705924-242d-409a-8158-e005e176a42d","ios":"levelo://app?vid=38705924-242d-409a-8158-e005e176a42d"},"vehicle_type_id":"4","last_reported":1746022229,"current_range_meters":12400,"station_id":"ce4bhgh2rcd13ifvqfa0","pricing_plan_id":"cebpf4jnsgd1na2vs0mg"},{"bike_id":"0ef033bb-1cc9-43d3-9ed0-6a0691f6e630","system_id":"levelo_inurba_marseille","lat":43.334295,"lon":5.400313,"is_reserved":false,"is_disabled":false,"rental_uris":{"android":"levelo://app?vid=0ef033bb-1cc9-43d3-9ed0-6a0691f6e630","ios":"levelo://app?vid=0ef033bb-1cc9-43d3-9ed0-6a0691f6e630"},"vehicle_type_id":"4","last_reported":1746022229,"current_range_meters":12800,"station_id":"","pricing_plan_id":"cebpf4jnsgd1na2vs0mg"},{"bike_id":"0beb731d-1a24-4758-a2f3-d04dcea2f74e","system_id":"levelo_inurba_marseille","lat":43.28274,"lon":5.35056,"is_reserved":false,"is_disabled":false,"rental_uris":{"android":"levelo://app?vid=0beb731d-1a24-4758-a2f3-d04dcea2f74e","ios":"levelo://app?vid=0beb731d-1a24-4758-a2f3-d04dcea2f74e"},"vehicle_type_id":"4","last_reported":1746022229,"current_range_meters":12800,"station_id":"ce4bhbp2rcd13ifvqerg","pricing_plan_id":"cebpf4jnsgd1na2vs0mg"},{"bike_id":"95dc61f4-7327-40fd-aa67-320f921b0eef","system_id":"levelo_inurba_marseille","lat":43.29307,"lon":5.37175,"is_reserved":false,"is_disabled":false,"rental_uris":{"android":"levelo://app?vid=95dc61f4-7327-40fd-aa67-320f921b0eef","ios":"levelo://app?vid=95dc61f4-7327-40fd-aa67-320f921b0eef"},"vehicle_type_id":"4","last_reported":1746022229,"current_range_meters":14800,"station_id":"ce4bgh92rcd13ifvqb40","pricing_plan_id":"cebpf4jnsgd1na2vs0mg"},{"bike_id":"fca9dc8b-9c20-4eab-83ff-17d0ce9a6922","system_id":"levelo_inurba_marseille","lat":43.26029,"lon":5.41736,"is_reserved":false,"is_disabled":false,"rental_uris":{"android":"levelo://app?vid=fca9dc8b-9c20-4eab-83ff-17d0ce9a6922","ios":"levelo://app?vid=fca9dc8b-9c20-4eab-83ff-17d0ce9a6922"},"vehicle_type_id":"4","last_reported":1746022229,"current_range_meters":13600,"station_id":"","pricing_plan_id":"cebpf4jnsgd1na2vs0mg"},{"bike_id":"1ac7b620-58e7-4f02-b063-1915fb772b19","system_id":"levelo_inurba_marseille","lat":43.29272,"lon":5.36848,"is_reserved":false,"is_disabled":false,"rental_uris":{"android":"levelo://app?vid=1ac7b620-58e7-4f02-b063-1915fb772b19","ios":"levelo://app?vid=1ac7b620-58e7-4f02-b063-1915fb772b19"},"vehicle_type_id":"4","last_reported":1746022229,"current_range_meters":14000,"station_id":"ce4bhbp2rcd13ifvqesg","pricing_plan_id":"cebpf4jnsgd1na2vs0mg"},{"bike_id":"995039c6-42f4-4a31-ad95-7fc30d9a04e4","system_id":"levelo_inurba_marseille","lat":43.30156,"lon":5.39878,"is_reserved":false,"is_disabled":false,"rental_uris":{"android":"levelo://app?vid=995039c6-42f4-4a31-ad95-7fc30d9a04e4","ios":"levelo://app?vid=995039c6-42f4-4a31-ad95-7fc30d9a04e4"},"vehicle_type_id":"4","last_reported":1746022229,"current_range_meters":13600,"station_id":"ce4bh0h2rcd13ifvqd40","pricing_plan_id":"cebpf4jnsgd1na2vs0mg"},{"bike_id":"c1cbc237-cfab-474a-aa26-81a87506105a","system_id":"levelo_inurba_marseille","lat":43.21757,"lon":5.34606,"is_reserved":false,"is_disabled":false,"rental_uris":{"android":"levelo://app?vid=c1cbc237-cfab-474a-aa26-81a87506105a","ios":"levelo://app?vid=c1cbc237-cfab-474a-aa26-81a87506105a"},"vehicle_type_id":"4","last_reported":1746022229,"current_range_meters":14000,"station_id":"st_cvj6r9ubvosntc0bgbag","pricing_plan_id":"cebpf4jnsgd1na2vs0mg"},{"bike_id":"e6dbf88b-a76e-4b79-b704-484109e38993","system_id":"levelo_inurba_marseille","lat":43.27371,"lon":5.36252,"is_reserved":false,"is_disabled":false,"rental_uris":{"android":"levelo://app?vid=e6dbf88b-a76e-4b79-b704-484109e38993","ios":"levelo://app?vid=e6dbf88b-a76e-4b79-b704-484109e38993"},"vehicle_type_id":"4","last_reported":1746022229,"current_range_meters":14000,"station_id":"ce4bhbh2rcd13ifvqeo0","pricing_plan_id":"cebpf4jnsgd1na2vs0mg"},{"bike_id":"f049f752-cd02-4a3f-8c8d-ac6dbafce647","system_id":"levelo_inurba_marseille","lat":43.32288,"lon":5.38274,"is_reserved":false,"is_disabled":false,"rental_uris":{"android":"levelo://app?vid=f049f752-cd02-4a3f-8c8d-ac6dbafce647","ios":"levelo://app?vid=f049f752-cd02-4a3f-8c8d-ac6dbafce647"},"vehicle_type_id":"4","last_reported":1746022229,"current_range_meters":14400,"station_id":"ce4bhr12rcd13ifvqhqg","pricing_plan_id":"cebpf4jnsgd1na2vs0mg"},{"bike_id":"e37f2b82-4870-40a4-b358-8b8e1840c02e","system_id":"levelo_inurba_marseille","lat":43.29369,"lon":5.37841,"is_reserved":false,"is_disabled":false,"rental_uris":{"android":"levelo://app?vid=e37f2b82-4870-40a4-b358-8b8e1840c02e","ios":"levelo://app?vid=e37f2b82-4870-40a4-b358-8b8e1840c02e"},"vehicle_type_id":"4","last_reported":1746022229,"current_range_meters":14400,"station_id":"ce4bgjh2rcd13ifvqbf0","pricing_plan_id":"cebpf4jnsgd1na2vs0mg"},{"bike_id":"19e5131d-f89f-4163-a032-e238b5d6d7ef","system_id":"levelo_inurba_marseille","lat":43.28468,"lon":5.35897,"is_reserved":false,"is_disabled":false,"rental_uris":{"android":"levelo://app?vid=19e5131d-f89f-4163-a032-e238b5d6d7ef","ios":"levelo://app?vid=19e5131d-f89f-4163-a032-e238b5d6d7ef"},"vehicle_type_id":"4","last_reported":1746022229,"current_range_meters":14400,"station_id":"ce4bhah2rcd13ifvqei0","pricing_plan_id":"cebpf4jnsgd1na2vs0mg"},{"bike_id":"6c12ff60-ca47-4317-8fd9-41b438c555cc","system_id":"levelo_inurba_marseille","lat":43.21762,"lon":5.34615,"is_reserved":false,"is_disabled":false,"rental_uris":{"android":"levelo://app?vid=6c12ff60-ca47-4317-8fd9-41b438c555cc","ios":"levelo://app?vid=6c12ff60-ca47-4317-8fd9-41b438c555cc"},"vehicle_type_id":"4","last_reported":1746022229,"current_range_meters":14400,"station_id":"st_cvj6r9ubvosntc0bgbag","pricing_plan_id":"cebpf4jnsgd1na2vs0mg"},{"bike_id":"2cbe2fab-72a1-4bcd-8c44-98069ca26f60","system_id":"levelo_inurba_marseille","lat":43.309079,"lon":5.368509,"is_reserved":false,"is_disabled":false,"rental_uris":{"android":"levelo://app?vid=2cbe2fab-72a1-4bcd-8c44-98069ca26f60","ios":"levelo://app?vid=2cbe2fab-72a1-4bcd-8c44-98069ca26f60"},"vehicle_type_id":"4","last_reported":1746022229,"current_range_meters":14400,"station_id":"ce4bgn92rcd13ifvqbvg","pricing_plan_id":"cebpf4jnsgd1na2vs0mg"},{"bike_id":"a9a17684-c04f-4e6f-9b68-475a0a85c0c1","system_id":"levelo_inurba_marseille","lat":43.30785,"lon":5.37633,"is_reserved":false,"is_disabled":false,"rental_uris":{"android":"levelo://app?vid=a9a17684-c04f-4e6f-9b68-475a0a85c0c1","ios":"levelo://app?vid=a9a17684-c04f-4e6f-9b68-475a0a85c0c1"},"vehicle_type_id":"4","last_reported":1746022229,"current_range_meters":13600,"station_id":"ce4bgv92rcd13ifvqcq0","pricing_plan_id":"cebpf4jnsgd1na2vs0mg"},{"bike_id":"942560b3-f7eb-4ce2-bcbc-4dcceb8f4b87","system_id":"levelo_inurba_marseille","lat":43.24168,"lon":5.36398,"is_reserved":false,"is_disabled":false,"rental_uris":{"android":"levelo://app?vid=942560b3-f7eb-4ce2-bcbc-4dcceb8f4b87","ios":"levelo://app?vid=942560b3-f7eb-4ce2-bcbc-4dcceb8f4b87"},"vehicle_type_id":"4","last_reported":1746022229,"current_range_meters":14400,"station_id":"cpo36qri1sfpv3e86is0","pricing_plan_id":"cebpf4jnsgd1na2vs0mg"},{"bike_id":"772c2df1-59ca-42dc-b4ed-ba91205a4b51","system_id":"levelo_inurba_marseille","lat":43.31334,"lon":5.39721,"is_reserved":false,"is_disabled":false,"rental_uris":{"android":"levelo://app?vid=772c2df1-59ca-42dc-b4ed-ba91205a4b51","ios":"levelo://app?vid=772c2df1-59ca-42dc-b4ed-ba91205a4b51"},"vehicle_type_id":"4","last_reported":1746022229,"current_range_meters":14400,"station_id":"ce4bgvp2rcd13ifvqcu0","pricing_plan_id":"cebpf4jnsgd1na2vs0mg"},{"bike_id":"93fad628-b030-4fe9-98dc-10d051d985f1","system_id":"levelo_inurba_marseille","lat":43.31755,"lon":5.39014,"is_reserved":false,"is_disabled":false,"rental_uris":{"android":"levelo://app?vid=93fad628-b030-4fe9-98dc-10d051d985f1","ios":"levelo://app?vid=93fad628-b030-4fe9-98dc-10d051d985f1"},"vehicle_type_id":"4","last_reported":1746022229,"current_range_meters":14400,"station_id":"ce4bhqp2rcd13ifvqhng","pricing_plan_id":"cebpf4jnsgd1na2vs0mg"},{"bike_id":"dc3ba869-8718-4888-999b-efcfb464e5c7","system_id":"levelo_inurba_marseille","lat":43.28426,"lon":5.34986,"is_reserved":false,"is_disabled":false,"rental_uris":{"android":"levelo://app?vid=dc3ba869-8718-4888-999b-efcfb464e5c7","ios":"levelo://app?vid=dc3ba869-8718-4888-999b-efcfb464e5c7"},"vehicle_type_id":"4","last_reported":1746022229,"current_range_meters":14800,"station_id":"ce4bhbh2rcd13ifvqepg","pricing_plan_id":"cebpf4jnsgd1na2vs0mg"},{"bike_id":"e44af5d3-68bd-43dc-8846-4e4bd6e99007","system_id":"levelo_inurba_marseille","lat":43.29711,"lon":5.37685,"is_reserved":false,"is_disabled":false,"rental_uris":{"android":"levelo://app?vid=e44af5d3-68bd-43dc-8846-4e4bd6e99007","ios":"levelo://app?vid=e44af5d3-68bd-43dc-8846-4e4bd6e99007"},"vehicle_type_id":"4","last_reported":1746022229,"current_range_meters":16000,"station_id":"ce4bgkh2rcd13ifvqbl0","pricing_plan_id":"cebpf4jnsgd1na2vs0mg"},{"bike_id":"3af33880-44b4-4b75-97ae-43e2b91a0e2f","system_id":"levelo_inurba_marseille","lat":43.25821,"lon":5.39419,"is_reserved":false,"is_disabled":false,"rental_uris":{"android":"levelo://app?vid=3af33880-44b4-4b75-97ae-43e2b91a0e2f","ios":"levelo://app?vid=3af33880-44b4-4b75-97ae-43e2b91a0e2f"},"vehicle_type_id":"4","last_reported":1746022229,"current_range_meters":14800,"station_id":"ce4bhip2rcd13ifvqft0","pricing_plan_id":"cebpf4jnsgd1na2vs0mg"},{"bike_id":"d8823978-bb5b-4761-9324-b08421b9241f","system_id":"levelo_inurba_marseille","lat":43.25822,"lon":5.39428,"is_reserved":false,"is_disabled":false,"rental_uris":{"android":"levelo://app?vid=d8823978-bb5b-4761-9324-b08421b9241f","ios":"levelo://app?vid=d8823978-bb5b-4761-9324-b08421b9241f"},"vehicle_type_id":"4","last_reported":1746022229,"current_range_meters":15200,"station_id":"ce4bhip2rcd13ifvqft0","pricing_plan_id":"cebpf4jnsgd1na2vs0mg"},{"bike_id":"fd56ac65-16d8-4157-94e1-bc9422435082","system_id":"levelo_inurba_marseille","lat":43.25582,"lon":5.38238,"is_reserved":false,"is_disabled":false,"rental_uris":{"android":"levelo://app?vid=fd56ac65-16d8-4157-94e1-bc9422435082","ios":"levelo://app?vid=fd56ac65-16d8-4157-94e1-bc9422435082"},"vehicle_type_id":"4","last_reported":1746022229,"current_range_meters":15200,"station_id":"ce4bhih2rcd13ifvqfs0","pricing_plan_id":"cebpf4jnsgd1na2vs0mg"},{"bike_id":"b12db72c-3dea-4fb6-a379-03afa6d20383","system_id":"levelo_inurba_marseille","lat":43.28428,"lon":5.3501,"is_reserved":false,"is_disabled":false,"rental_uris":{"android":"levelo://app?vid=b12db72c-3dea-4fb6-a379-03afa6d20383","ios":"levelo://app?vid=b12db72c-3dea-4fb6-a379-03afa6d20383"},"vehicle_type_id":"4","last_reported":1746022229,"current_range_meters":15200,"station_id":"ce4bhbh2rcd13ifvqepg","pricing_plan_id":"cebpf4jnsgd1na2vs0mg"},{"bike_id":"536eb4af-6603-467c-a76b-98f5a843ca10","system_id":"levelo_inurba_marseille","lat":43.2417,"lon":5.36397,"is_reserved":false,"is_disabled":false,"rental_uris":{"android":"levelo://app?vid=536eb4af-6603-467c-a76b-98f5a843ca10","ios":"levelo://app?vid=536eb4af-6603-467c-a76b-98f5a843ca10"},"vehicle_type_id":"4","last_reported":1746022229,"current_range_meters":15200,"station_id":"cpo36qri1sfpv3e86is0","pricing_plan_id":"cebpf4jnsgd1na2vs0mg"},{"bike_id":"8ec2068c-6383-49f6-8423-dd597497f40d","system_id":"levelo_inurba_marseille","lat":43.27623,"lon":5.36111,"is_reserved":false,"is_disabled":false,"rental_uris":{"android":"levelo://app?vid=8ec2068c-6383-49f6-8423-dd597497f40d","ios":"levelo://app?vid=8ec2068c-6383-49f6-8423-dd597497f40d"},"vehicle_type_id":"4","last_reported":1746022229,"current_range_meters":16000,"station_id":"ce4bgj92rcd13ifvqbe0","pricing_plan_id":"cebpf4jnsgd1na2vs0mg"},{"bike_id":"02c34c65-9e29-4adf-87ca-500c6052f434","system_id":"levelo_inurba_marseille","lat":43.21187,"lon":5.35064,"is_reserved":false,"is_disabled":false,"rental_uris":{"android":"levelo://app?vid=02c34c65-9e29-4adf-87ca-500c6052f434","ios":"levelo://app?vid=02c34c65-9e29-4adf-87ca-500c6052f434"},"vehicle_type_id":"4","last_reported":1746022229,"current_range_meters":16000,"station_id":"st_cvj6sg6p6f1abm77japg","pricing_plan_id":"cebpf4jnsgd1na2vs0mg"},{"bike_id":"77202ba1-a1e8-4136-acc2-c4b668809ab3","system_id":"levelo_inurba_marseille","lat":43.3031,"lon":5.3687,"is_reserved":false,"is_disabled":false,"rental_uris":{"android":"levelo://app?vid=77202ba1-a1e8-4136-acc2-c4b668809ab3","ios":"levelo://app?vid=77202ba1-a1e8-4136-acc2-c4b668809ab3"},"vehicle_type_id":"4","last_reported":1746022229,"current_range_meters":16000,"station_id":"ce4bgqh2rcd13ifvqc5g","pricing_plan_id":"cebpf4jnsgd1na2vs0mg"},{"bike_id":"86c2979e-8cf6-48ed-bdb1-835ff11e3adc","system_id":"levelo_inurba_marseille","lat":43.25393,"lon":5.41863,"is_reserved":false,"is_disabled":false,"rental_uris":{"android":"levelo://app?vid=86c2979e-8cf6-48ed-bdb1-835ff11e3adc","ios":"levelo://app?vid=86c2979e-8cf6-48ed-bdb1-835ff11e3adc"},"vehicle_type_id":"4","last_reported":1746022229,"current_range_meters":16000,"station_id":"","pricing_plan_id":"cebpf4jnsgd1na2vs0mg"},{"bike_id":"d99bf105-2a68-4379-a106-5dfa667da890","system_id":"levelo_inurba_marseille","lat":43.33026,"lon":5.3904,"is_reserved":false,"is_disabled":false,"rental_uris":{"android":"levelo://app?vid=d99bf105-2a68-4379-a106-5dfa667da890","ios":"levelo://app?vid=d99bf105-2a68-4379-a106-5dfa667da890"},"vehicle_type_id":"4","last_reported":1746022229,"current_range_meters":16000,"station_id":"ce4bhr92rcd13ifvqhrg","pricing_plan_id":"cebpf4jnsgd1na2vs0mg"},{"bike_id":"27677013-4a3e-41cb-adef-810b72d5bde7","system_id":"levelo_inurba_marseille","lat":43.28615,"lon":5.35108,"is_reserved":false,"is_disabled":false,"rental_uris":{"android":"levelo://app?vid=27677013-4a3e-41cb-adef-810b72d5bde7","ios":"levelo://app?vid=27677013-4a3e-41cb-adef-810b72d5bde7"},"vehicle_type_id":"4","last_reported":1746022229,"current_range_meters":16000,"station_id":"ce4bhch2rcd13ifvqeug","pricing_plan_id":"cebpf4jnsgd1na2vs0mg"},{"bike_id":"df1cd735-c9cc-4b5c-8919-9e900ddc2485","system_id":"levelo_inurba_marseille","lat":43.28279,"lon":5.35079,"is_reserved":false,"is_disabled":false,"rental_uris":{"android":"levelo://app?vid=df1cd735-c9cc-4b5c-8919-9e900ddc2485","ios":"levelo://app?vid=df1cd735-c9cc-4b5c-8919-9e900ddc2485"},"vehicle_type_id":"4","last_reported":1746022229,"current_range_meters":16000,"station_id":"ce4bhbp2rcd13ifvqerg","pricing_plan_id":"cebpf4jnsgd1na2vs0mg"},{"bike_id":"85d41d74-9d1e-4717-be27-06f5a8403b09","system_id":"levelo_inurba_marseille","lat":43.23196,"lon":5.35552,"is_reserved":false,"is_disabled":false,"rental_uris":{"android":"levelo://app?vid=85d41d74-9d1e-4717-be27-06f5a8403b09","ios":"levelo://app?vid=85d41d74-9d1e-4717-be27-06f5a8403b09"},"vehicle_type_id":"4","last_reported":1746022229,"current_range_meters":16400,"station_id":"ce4bhu92rcd13ifvqi70","pricing_plan_id":"cebpf4jnsgd1na2vs0mg"},{"bike_id":"99e30cfd-2702-46cb-82ba-fd6b177695a3","system_id":"levelo_inurba_marseille","lat":43.26201,"lon":5.3793,"is_reserved":false,"is_disabled":false,"rental_uris":{"android":"levelo://app?vid=99e30cfd-2702-46cb-82ba-fd6b177695a3","ios":"levelo://app?vid=99e30cfd-2702-46cb-82ba-fd6b177695a3"},"vehicle_type_id":"4","last_reported":1746022229,"current_range_meters":16400,"station_id":"ce4bhjp2rcd13ifvqg90","pricing_plan_id":"cebpf4jnsgd1na2vs0mg"},{"bike_id":"496d5cf8-c8b7-466f-b11c-cd5f06ced048","system_id":"levelo_inurba_marseille","lat":43.30527,"lon":5.36534,"is_reserved":false,"is_disabled":false,"rental_uris":{"android":"levelo://app?vid=496d5cf8-c8b7-466f-b11c-cd5f06ced048","ios":"levelo://app?vid=496d5cf8-c8b7-466f-b11c-cd5f06ced048"},"vehicle_type_id":"4","last_reported":1746022229,"current_range_meters":16400,"station_id":"ce4bgs12rcd13ifvqcag","pricing_plan_id":"cebpf4jnsgd1na2vs0mg"},{"bike_id":"c7be9834-8125-4cae-9638-d3c4697f3bdd","system_id":"levelo_inurba_marseille","lat":43.27053,"lon":5.40261,"is_reserved":false,"is_disabled":false,"rental_uris":{"android":"levelo://app?vid=c7be9834-8125-4cae-9638-d3c4697f3bdd","ios":"levelo://app?vid=c7be9834-8125-4cae-9638-d3c4697f3bdd"},"vehicle_type_id":"4","last_reported":1746022229,"current_range_meters":16800,"station_id":"ce4bhk92rcd13ifvqgc0","pricing_plan_id":"cebpf4jnsgd1na2vs0mg"},{"bike_id":"f30f6f4c-378c-461f-b191-ae6d7f6fd0eb","system_id":"levelo_inurba_marseille","lat":43.23191,"lon":5.3998,"is_reserved":false,"is_disabled":false,"rental_uris":{"android":"levelo://app?vid=f30f6f4c-378c-461f-b191-ae6d7f6fd0eb","ios":"levelo://app?vid=f30f6f4c-378c-461f-b191-ae6d7f6fd0eb"},"vehicle_type_id":"4","last_reported":1746022229,"current_range_meters":16800,"station_id":"ce4bhn12rcd13ifvqgqg","pricing_plan_id":"cebpf4jnsgd1na2vs0mg"},{"bike_id":"0f529f7e-a456-4cfc-a011-cb129fffcc60","system_id":"levelo_inurba_marseille","lat":43.29606,"lon":5.37732,"is_reserved":false,"is_disabled":false,"rental_uris":{"android":"levelo://app?vid=0f529f7e-a456-4cfc-a011-cb129fffcc60","ios":"levelo://app?vid=0f529f7e-a456-4cfc-a011-cb129fffcc60"},"vehicle_type_id":"4","last_reported":1746022229,"current_range_meters":16800,"station_id":"ce4bgi92rcd13ifvqb90","pricing_plan_id":"cebpf4jnsgd1na2vs0mg"},{"bike_id":"7940bc1b-eaa7-4f49-a435-46dc9391f6a1","system_id":"levelo_inurba_marseille","lat":43.212025,"lon":5.350665,"is_reserved":false,"is_disabled":false,"rental_uris":{"android":"levelo://app?vid=7940bc1b-eaa7-4f49-a435-46dc9391f6a1","ios":"levelo://app?vid=7940bc1b-eaa7-4f49-a435-46dc9391f6a1"},"vehicle_type_id":"4","last_reported":1746022229,"current_range_meters":16800,"station_id":"st_cvj6sg6p6f1abm77japg","pricing_plan_id":"cebpf4jnsgd1na2vs0mg"},{"bike_id":"15f7d609-f684-4a18-b25b-023242af188e","system_id":"levelo_inurba_marseille","lat":43.24662,"lon":5.38157,"is_reserved":false,"is_disabled":false,"rental_uris":{"android":"levelo://app?vid=15f7d609-f684-4a18-b25b-023242af188e","ios":"levelo://app?vid=15f7d609-f684-4a18-b25b-023242af188e"},"vehicle_type_id":"4","last_reported":1746022229,"current_range_meters":16800,"station_id":"ce4bhih2rcd13ifvqfr0","pricing_plan_id":"cebpf4jnsgd1na2vs0mg"},{"bike_id":"34b484ab-c0f1-4e55-b51a-e2bafdafb63e","system_id":"levelo_inurba_marseille","lat":43.23054,"lon":5.355,"is_reserved":false,"is_disabled":false,"rental_uris":{"android":"levelo://app?vid=34b484ab-c0f1-4e55-b51a-e2bafdafb63e","ios":"levelo://app?vid=34b484ab-c0f1-4e55-b51a-e2bafdafb63e"},"vehicle_type_id":"4","last_reported":1746022229,"current_range_meters":16800,"station_id":"cpo3342slgdg3j2ifvpg","pricing_plan_id":"cebpf4jnsgd1na2vs0mg"},{"bike_id":"d2696307-56f6-4240-88a6-4166a510499d","system_id":"levelo_inurba_marseille","lat":43.28347,"lon":5.38111,"is_reserved":false,"is_disabled":false,"rental_uris":{"android":"levelo://app?vid=d2696307-56f6-4240-88a6-4166a510499d","ios":"levelo://app?vid=d2696307-56f6-4240-88a6-4166a510499d"},"vehicle_type_id":"4","last_reported":1746022229,"current_range_meters":16800,"station_id":"ce4bh412rcd13ifvqdr0","pricing_plan_id":"cebpf4jnsgd1na2vs0mg"},{"bike_id":"ff0f8320-5dfd-46c6-a87a-1efcad02d955","system_id":"levelo_inurba_marseille","lat":43.28272,"lon":5.35061,"is_reserved":false,"is_disabled":false,"rental_uris":{"android":"levelo://app?vid=ff0f8320-5dfd-46c6-a87a-1efcad02d955","ios":"levelo://app?vid=ff0f8320-5dfd-46c6-a87a-1efcad02d955"},"vehicle_type_id":"4","last_reported":1746022229,"current_range_meters":16800,"station_id":"ce4bhbp2rcd13ifvqerg","pricing_plan_id":"cebpf4jnsgd1na2vs0mg"},{"bike_id":"cca8a764-ec49-4b0e-959c-266981f5dfb3","system_id":"levelo_inurba_marseille","lat":43.29294,"lon":5.37183,"is_reserved":false,"is_disabled":false,"rental_uris":{"android":"levelo://app?vid=cca8a764-ec49-4b0e-959c-266981f5dfb3","ios":"levelo://app?vid=cca8a764-ec49-4b0e-959c-266981f5dfb3"},"vehicle_type_id":"4","last_reported":1746022229,"current_range_meters":16800,"station_id":"ce4bgh92rcd13ifvqb40","pricing_plan_id":"cebpf4jnsgd1na2vs0mg"},{"bike_id":"3b9423ef-7a70-4f95-8a48-8ffcd107e8f8","system_id":"levelo_inurba_marseille","lat":43.28152,"lon":5.42632,"is_reserved":false,"is_disabled":false,"rental_uris":{"android":"levelo://app?vid=3b9423ef-7a70-4f95-8a48-8ffcd107e8f8","ios":"levelo://app?vid=3b9423ef-7a70-4f95-8a48-8ffcd107e8f8"},"vehicle_type_id":"4","last_reported":1746022229,"current_range_meters":16800,"station_id":"ce4bhnh2rcd13ifvqgug","pricing_plan_id":"cebpf4jnsgd1na2vs0mg"},{"bike_id":"6f22906b-94c9-4d7b-9ebc-9fe65ec0611d","system_id":"levelo_inurba_marseille","lat":43.32145,"lon":5.36814,"is_reserved":false,"is_disabled":false,"rental_uris":{"android":"levelo://app?vid=6f22906b-94c9-4d7b-9ebc-9fe65ec0611d","ios":"levelo://app?vid=6f22906b-94c9-4d7b-9ebc-9fe65ec0611d"},"vehicle_type_id":"4","last_reported":1746022229,"current_range_meters":17200,"station_id":"ce4bhrh2rcd13ifvqhug","pricing_plan_id":"cebpf4jnsgd1na2vs0mg"},{"bike_id":"70a3f063-7f49-40dc-b61e-768d1217ff91","system_id":"levelo_inurba_marseille","lat":43.282785,"lon":5.350625,"is_reserved":false,"is_disabled":false,"rental_uris":{"android":"levelo://app?vid=70a3f063-7f49-40dc-b61e-768d1217ff91","ios":"levelo://app?vid=70a3f063-7f49-40dc-b61e-768d1217ff91"},"vehicle_type_id":"4","last_reported":1746022229,"current_range_meters":17200,"station_id":"ce4bhbp2rcd13ifvqerg","pricing_plan_id":"cebpf4jnsgd1na2vs0mg"},{"bike_id":"fbc06cba-96dc-4358-9708-3b7ffab04f4f","system_id":"levelo_inurba_marseille","lat":43.26942,"lon":5.40253,"is_reserved":false,"is_disabled":false,"rental_uris":{"android":"levelo://app?vid=fbc06cba-96dc-4358-9708-3b7ffab04f4f","ios":"levelo://app?vid=fbc06cba-96dc-4358-9708-3b7ffab04f4f"},"vehicle_type_id":"4","last_reported":1746022229,"current_range_meters":17200,"station_id":"cjm6bp8fraef2m0cb0m0","pricing_plan_id":"cebpf4jnsgd1na2vs0mg"},{"bike_id":"f45cb270-4341-4559-ac93-77d6b7d82886","system_id":"levelo_inurba_marseille","lat":43.282657,"lon":5.350611,"is_reserved":false,"is_disabled":false,"rental_uris":{"android":"levelo://app?vid=f45cb270-4341-4559-ac93-77d6b7d82886","ios":"levelo://app?vid=f45cb270-4341-4559-ac93-77d6b7d82886"},"vehicle_type_id":"4","last_reported":1746022229,"current_range_meters":17200,"station_id":"","pricing_plan_id":"cebpf4jnsgd1na2vs0mg"},{"bike_id":"a1149e9c-fd50-4602-8f0f-b1511a3cc33e","system_id":"levelo_inurba_marseille","lat":43.31995,"lon":5.38164,"is_reserved":false,"is_disabled":false,"rental_uris":{"android":"levelo://app?vid=a1149e9c-fd50-4602-8f0f-b1511a3cc33e","ios":"levelo://app?vid=a1149e9c-fd50-4602-8f0f-b1511a3cc33e"},"vehicle_type_id":"4","last_reported":1746022229,"current_range_meters":17200,"station_id":"ce4bhr12rcd13ifvqhpg","pricing_plan_id":"cebpf4jnsgd1na2vs0mg"},{"bike_id":"10a637ed-43c9-4970-ad9b-ca6d4f9e9905","system_id":"levelo_inurba_marseille","lat":43.25829,"lon":5.3943,"is_reserved":false,"is_disabled":false,"rental_uris":{"android":"levelo://app?vid=10a637ed-43c9-4970-ad9b-ca6d4f9e9905","ios":"levelo://app?vid=10a637ed-43c9-4970-ad9b-ca6d4f9e9905"},"vehicle_type_id":"4","last_reported":1746022229,"current_range_meters":17200,"station_id":"ce4bhip2rcd13ifvqft0","pricing_plan_id":"cebpf4jnsgd1na2vs0mg"},{"bike_id":"1a348c0d-f19d-460f-8d9e-32b530507a88","system_id":"levelo_inurba_marseille","lat":43.29261,"lon":5.3762,"is_reserved":false,"is_disabled":false,"rental_uris":{"android":"levelo://app?vid=1a348c0d-f19d-460f-8d9e-32b530507a88","ios":"levelo://app?vid=1a348c0d-f19d-460f-8d9e-32b530507a88"},"vehicle_type_id":"4","last_reported":1746022229,"current_range_meters":17600,"station_id":"ce4bgi12rcd13ifvqb80","pricing_plan_id":"cebpf4jnsgd1na2vs0mg"},{"bike_id":"ab4c61ec-8f3f-4a09-a374-19497fe382d7","system_id":"levelo_inurba_marseille","lat":43.30936,"lon":5.4014,"is_reserved":false,"is_disabled":false,"rental_uris":{"android":"levelo://app?vid=ab4c61ec-8f3f-4a09-a374-19497fe382d7","ios":"levelo://app?vid=ab4c61ec-8f3f-4a09-a374-19497fe382d7"},"vehicle_type_id":"4","last_reported":1746022229,"current_range_meters":17600,"station_id":"ce4bgvp2rcd13ifvqct0","pricing_plan_id":"cebpf4jnsgd1na2vs0mg"},{"bike_id":"2630d445-f68f-4f7b-9887-d0c207d6bfa9","system_id":"levelo_inurba_marseille","lat":43.298993,"lon":5.436657,"is_reserved":false,"is_disabled":false,"rental_uris":{"android":"levelo://app?vid=2630d445-f68f-4f7b-9887-d0c207d6bfa9","ios":"levelo://app?vid=2630d445-f68f-4f7b-9887-d0c207d6bfa9"},"vehicle_type_id":"4","last_reported":1746022229,"current_range_meters":17200,"station_id":"ce4bhpp2rcd13ifvqhfg","pricing_plan_id":"cebpf4jnsgd1na2vs0mg"},{"bike_id":"68387bcf-91b9-4d94-9345-8087e5f6d466","system_id":"levelo_inurba_marseille","lat":43.31333,"lon":5.36771,"is_reserved":false,"is_disabled":false,"rental_uris":{"android":"levelo://app?vid=68387bcf-91b9-4d94-9345-8087e5f6d466","ios":"levelo://app?vid=68387bcf-91b9-4d94-9345-8087e5f6d466"},"vehicle_type_id":"4","last_reported":1746022229,"current_range_meters":18000,"station_id":"","pricing_plan_id":"cebpf4jnsgd1na2vs0mg"},{"bike_id":"34f6bef6-9812-42f6-9d83-56b323ffad45","system_id":"levelo_inurba_marseille","lat":43.282714,"lon":5.350723,"is_reserved":false,"is_disabled":false,"rental_uris":{"android":"levelo://app?vid=34f6bef6-9812-42f6-9d83-56b323ffad45","ios":"levelo://app?vid=34f6bef6-9812-42f6-9d83-56b323ffad45"},"vehicle_type_id":"4","last_reported":1746022229,"current_range_meters":18000,"station_id":"ce4bhbp2rcd13ifvqerg","pricing_plan_id":"cebpf4jnsgd1na2vs0mg"},{"bike_id":"63478189-f4dc-41c0-bf87-a3a3ffd193fc","system_id":"levelo_inurba_marseille","lat":43.2844,"lon":5.35001,"is_reserved":false,"is_disabled":false,"rental_uris":{"android":"levelo://app?vid=63478189-f4dc-41c0-bf87-a3a3ffd193fc","ios":"levelo://app?vid=63478189-f4dc-41c0-bf87-a3a3ffd193fc"},"vehicle_type_id":"4","last_reported":1746022229,"current_range_meters":18000,"station_id":"ce4bhbh2rcd13ifvqepg","pricing_plan_id":"cebpf4jnsgd1na2vs0mg"},{"bike_id":"cb8e1b19-8fba-4896-a258-382f21af406d","system_id":"levelo_inurba_marseille","lat":43.24173,"lon":5.36398,"is_reserved":false,"is_disabled":false,"rental_uris":{"android":"levelo://app?vid=cb8e1b19-8fba-4896-a258-382f21af406d","ios":"levelo://app?vid=cb8e1b19-8fba-4896-a258-382f21af406d"},"vehicle_type_id":"4","last_reported":1746022229,"current_range_meters":18000,"station_id":"cpo36qri1sfpv3e86is0","pricing_plan_id":"cebpf4jnsgd1na2vs0mg"},{"bike_id":"43d72a23-3670-4c98-a287-ec244d73e6d2","system_id":"levelo_inurba_marseille","lat":43.28565,"lon":5.39493,"is_reserved":false,"is_disabled":false,"rental_uris":{"android":"levelo://app?vid=43d72a23-3670-4c98-a287-ec244d73e6d2","ios":"levelo://app?vid=43d72a23-3670-4c98-a287-ec244d73e6d2"},"vehicle_type_id":"4","last_reported":1746022229,"current_range_meters":18800,"station_id":"ce4bh292rcd13ifvqdg0","pricing_plan_id":"cebpf4jnsgd1na2vs0mg"},{"bike_id":"c1f3acbf-9d7a-4a68-a052-54ea7f77b051","system_id":"levelo_inurba_marseille","lat":43.27373,"lon":5.36259,"is_reserved":false,"is_disabled":false,"rental_uris":{"android":"levelo://app?vid=c1f3acbf-9d7a-4a68-a052-54ea7f77b051","ios":"levelo://app?vid=c1f3acbf-9d7a-4a68-a052-54ea7f77b051"},"vehicle_type_id":"4","last_reported":1746022229,"current_range_meters":18800,"station_id":"ce4bhbh2rcd13ifvqeo0","pricing_plan_id":"cebpf4jnsgd1na2vs0mg"},{"bike_id":"1c30356f-668e-4020-a7a6-dfcc7f0040df","system_id":"levelo_inurba_marseille","lat":43.24811,"lon":5.37454,"is_reserved":false,"is_disabled":false,"rental_uris":{"android":"levelo://app?vid=1c30356f-668e-4020-a7a6-dfcc7f0040df","ios":"levelo://app?vid=1c30356f-668e-4020-a7a6-dfcc7f0040df"},"vehicle_type_id":"4","last_reported":1746022229,"current_range_meters":18800,"station_id":"ce4bhgh2rcd13ifvqfb0","pricing_plan_id":"cebpf4jnsgd1na2vs0mg"},{"bike_id":"cf2676fd-2529-4668-b08d-6c4e1d5698f3","system_id":"levelo_inurba_marseille","lat":43.3132,"lon":5.39687,"is_reserved":false,"is_disabled":false,"rental_uris":{"android":"levelo://app?vid=cf2676fd-2529-4668-b08d-6c4e1d5698f3","ios":"levelo://app?vid=cf2676fd-2529-4668-b08d-6c4e1d5698f3"},"vehicle_type_id":"4","last_reported":1746022229,"current_range_meters":18800,"station_id":"ce4bgvp2rcd13ifvqcu0","pricing_plan_id":"cebpf4jnsgd1na2vs0mg"},{"bike_id":"91b82875-44ac-4a59-9684-90eec5808d3e","system_id":"levelo_inurba_marseille","lat":43.25495,"lon":5.37648,"is_reserved":false,"is_disabled":false,"rental_uris":{"android":"levelo://app?vid=91b82875-44ac-4a59-9684-90eec5808d3e","ios":"levelo://app?vid=91b82875-44ac-4a59-9684-90eec5808d3e"},"vehicle_type_id":"4","last_reported":1746022229,"current_range_meters":18800,"station_id":"ce4bhh12rcd13ifvqff0","pricing_plan_id":"cebpf4jnsgd1na2vs0mg"},{"bike_id":"6d514e84-bd0b-4fee-95e8-26878678602a","system_id":"levelo_inurba_marseille","lat":43.217509,"lon":5.346048,"is_reserved":false,"is_disabled":false,"rental_uris":{"android":"levelo://app?vid=6d514e84-bd0b-4fee-95e8-26878678602a","ios":"levelo://app?vid=6d514e84-bd0b-4fee-95e8-26878678602a"},"vehicle_type_id":"4","last_reported":1746022229,"current_range_meters":18800,"station_id":"st_cvj6r9ubvosntc0bgbag","pricing_plan_id":"cebpf4jnsgd1na2vs0mg"},{"bike_id":"1a1266bd-3bcf-4816-b0ce-bff9ab63584f","system_id":"levelo_inurba_marseille","lat":43.26202,"lon":5.37482,"is_reserved":false,"is_disabled":false,"rental_uris":{"android":"levelo://app?vid=1a1266bd-3bcf-4816-b0ce-bff9ab63584f","ios":"levelo://app?vid=1a1266bd-3bcf-4816-b0ce-bff9ab63584f"},"vehicle_type_id":"4","last_reported":1746022229,"current_range_meters":18800,"station_id":"ce4bhgp2rcd13ifvqfc0","pricing_plan_id":"cebpf4jnsgd1na2vs0mg"},{"bike_id":"b58385b2-d1b2-4ecc-af75-eb7cf4772905","system_id":"levelo_inurba_marseille","lat":43.23064,"lon":5.35498,"is_reserved":false,"is_disabled":false,"rental_uris":{"android":"levelo://app?vid=b58385b2-d1b2-4ecc-af75-eb7cf4772905","ios":"levelo://app?vid=b58385b2-d1b2-4ecc-af75-eb7cf4772905"},"vehicle_type_id":"4","last_reported":1746022229,"current_range_meters":18800,"station_id":"cpo3342slgdg3j2ifvpg","pricing_plan_id":"cebpf4jnsgd1na2vs0mg"},{"bike_id":"0e316dc8-d31b-4553-8fe6-37ed7d376ff8","system_id":"levelo_inurba_marseille","lat":43.28294,"lon":5.35077,"is_reserved":false,"is_disabled":false,"rental_uris":{"android":"levelo://app?vid=0e316dc8-d31b-4553-8fe6-37ed7d376ff8","ios":"levelo://app?vid=0e316dc8-d31b-4553-8fe6-37ed7d376ff8"},"vehicle_type_id":"4","last_reported":1746022229,"current_range_meters":18800,"station_id":"ce4bhbp2rcd13ifvqerg","pricing_plan_id":"cebpf4jnsgd1na2vs0mg"},{"bike_id":"992cae2b-7133-4ebe-90c6-723aa72b4fca","system_id":"levelo_inurba_marseille","lat":43.31234,"lon":5.36853,"is_reserved":false,"is_disabled":false,"rental_uris":{"android":"levelo://app?vid=992cae2b-7133-4ebe-90c6-723aa72b4fca","ios":"levelo://app?vid=992cae2b-7133-4ebe-90c6-723aa72b4fca"},"vehicle_type_id":"4","last_reported":1746022229,"current_range_meters":18800,"station_id":"ce4bgl92rcd13ifvqbq0","pricing_plan_id":"cebpf4jnsgd1na2vs0mg"},{"bike_id":"20b301fd-9dc7-48d1-ab75-16ae5b35d3cb","system_id":"levelo_inurba_marseille","lat":43.28414,"lon":5.34976,"is_reserved":false,"is_disabled":false,"rental_uris":{"android":"levelo://app?vid=20b301fd-9dc7-48d1-ab75-16ae5b35d3cb","ios":"levelo://app?vid=20b301fd-9dc7-48d1-ab75-16ae5b35d3cb"},"vehicle_type_id":"4","last_reported":1746022229,"current_range_meters":18800,"station_id":"ce4bhbh2rcd13ifvqepg","pricing_plan_id":"cebpf4jnsgd1na2vs0mg"},{"bike_id":"25432744-d705-461b-be79-5c36c8a24129","system_id":"levelo_inurba_marseille","lat":43.3095,"lon":5.39025,"is_reserved":false,"is_disabled":false,"rental_uris":{"android":"levelo://app?vid=25432744-d705-461b-be79-5c36c8a24129","ios":"levelo://app?vid=25432744-d705-461b-be79-5c36c8a24129"},"vehicle_type_id":"4","last_reported":1746022229,"current_range_meters":20000,"station_id":"ce4bgup2rcd13ifvqco0","pricing_plan_id":"cebpf4jnsgd1na2vs0mg"},{"bike_id":"3f977889-8b72-4f3e-ac02-76abc53e01de","system_id":"levelo_inurba_marseille","lat":43.25824,"lon":5.39428,"is_reserved":false,"is_disabled":false,"rental_uris":{"android":"levelo://app?vid=3f977889-8b72-4f3e-ac02-76abc53e01de","ios":"levelo://app?vid=3f977889-8b72-4f3e-ac02-76abc53e01de"},"vehicle_type_id":"4","last_reported":1746022229,"current_range_meters":19200,"station_id":"ce4bhip2rcd13ifvqft0","pricing_plan_id":"cebpf4jnsgd1na2vs0mg"},{"bike_id":"627f6a19-f030-4b36-a27f-7b70d9f403d4","system_id":"levelo_inurba_marseille","lat":43.25728,"lon":5.41106,"is_reserved":false,"is_disabled":false,"rental_uris":{"android":"levelo://app?vid=627f6a19-f030-4b36-a27f-7b70d9f403d4","ios":"levelo://app?vid=627f6a19-f030-4b36-a27f-7b70d9f403d4"},"vehicle_type_id":"4","last_reported":1746022229,"current_range_meters":19200,"station_id":"ce4bhkp2rcd13ifvqgd0","pricing_plan_id":"cebpf4jnsgd1na2vs0mg"},{"bike_id":"238622d8-773b-4e24-839f-9de0b72b3e6d","system_id":"levelo_inurba_marseille","lat":43.30132,"lon":5.39853,"is_reserved":false,"is_disabled":false,"rental_uris":{"android":"levelo://app?vid=238622d8-773b-4e24-839f-9de0b72b3e6d","ios":"levelo://app?vid=238622d8-773b-4e24-839f-9de0b72b3e6d"},"vehicle_type_id":"4","last_reported":1746022229,"current_range_meters":19200,"station_id":"ce4bh0h2rcd13ifvqd40","pricing_plan_id":"cebpf4jnsgd1na2vs0mg"},{"bike_id":"3827674c-2c9d-48e3-a4ad-ecf939e7b109","system_id":"levelo_inurba_marseille","lat":43.24194,"lon":5.39636,"is_reserved":false,"is_disabled":false,"rental_uris":{"android":"levelo://app?vid=3827674c-2c9d-48e3-a4ad-ecf939e7b109","ios":"levelo://app?vid=3827674c-2c9d-48e3-a4ad-ecf939e7b109"},"vehicle_type_id":"4","last_reported":1746022229,"current_range_meters":19200,"station_id":"ce4bhn12rcd13ifvqgpg","pricing_plan_id":"cebpf4jnsgd1na2vs0mg"},{"bike_id":"a476e7b1-6337-4da1-a8a7-24c662acd4a6","system_id":"levelo_inurba_marseille","lat":43.32341,"lon":5.40618,"is_reserved":false,"is_disabled":false,"rental_uris":{"android":"levelo://app?vid=a476e7b1-6337-4da1-a8a7-24c662acd4a6","ios":"levelo://app?vid=a476e7b1-6337-4da1-a8a7-24c662acd4a6"},"vehicle_type_id":"4","last_reported":1746022229,"current_range_meters":19600,"station_id":"ce4bhq92rcd13ifvqhjg","pricing_plan_id":"cebpf4jnsgd1na2vs0mg"},{"bike_id":"2d90d92c-e010-4034-9c8a-92ec848e2a6f","system_id":"levelo_inurba_marseille","lat":43.30296,"lon":5.36904,"is_reserved":false,"is_disabled":false,"rental_uris":{"android":"levelo://app?vid=2d90d92c-e010-4034-9c8a-92ec848e2a6f","ios":"levelo://app?vid=2d90d92c-e010-4034-9c8a-92ec848e2a6f"},"vehicle_type_id":"4","last_reported":1746022229,"current_range_meters":19600,"station_id":"ce4bgqh2rcd13ifvqc5g","pricing_plan_id":"cebpf4jnsgd1na2vs0mg"},{"bike_id":"6b974cc3-0ef9-49d9-ae0e-082f8d8251a1","system_id":"levelo_inurba_marseille","lat":43.265583,"lon":5.372785,"is_reserved":false,"is_disabled":false,"rental_uris":{"android":"levelo://app?vid=6b974cc3-0ef9-49d9-ae0e-082f8d8251a1","ios":"levelo://app?vid=6b974cc3-0ef9-49d9-ae0e-082f8d8251a1"},"vehicle_type_id":"4","last_reported":1746022229,"current_range_meters":19600,"station_id":"ce4bhg12rcd13ifvqf70","pricing_plan_id":"cebpf4jnsgd1na2vs0mg"},{"bike_id":"cc72cace-c85b-480b-b8ff-980710dfe869","system_id":"levelo_inurba_marseille","lat":43.28429,"lon":5.34999,"is_reserved":false,"is_disabled":false,"rental_uris":{"android":"levelo://app?vid=cc72cace-c85b-480b-b8ff-980710dfe869","ios":"levelo://app?vid=cc72cace-c85b-480b-b8ff-980710dfe869"},"vehicle_type_id":"4","last_reported":1746022229,"current_range_meters":19600,"station_id":"ce4bhbh2rcd13ifvqepg","pricing_plan_id":"cebpf4jnsgd1na2vs0mg"},{"bike_id":"ea356429-689c-470e-8e05-f49607a2466e","system_id":"levelo_inurba_marseille","lat":43.28413,"lon":5.34977,"is_reserved":false,"is_disabled":false,"rental_uris":{"android":"levelo://app?vid=ea356429-689c-470e-8e05-f49607a2466e","ios":"levelo://app?vid=ea356429-689c-470e-8e05-f49607a2466e"},"vehicle_type_id":"4","last_reported":1746022229,"current_range_meters":19600,"station_id":"ce4bhbh2rcd13ifvqepg","pricing_plan_id":"cebpf4jnsgd1na2vs0mg"},{"bike_id":"f193e987-a996-4daa-b87c-a4390e514fb4","system_id":"levelo_inurba_marseille","lat":43.23965,"lon":5.36622,"is_reserved":false,"is_disabled":false,"rental_uris":{"android":"levelo://app?vid=f193e987-a996-4daa-b87c-a4390e514fb4","ios":"levelo://app?vid=f193e987-a996-4daa-b87c-a4390e514fb4"},"vehicle_type_id":"4","last_reported":1746022229,"current_range_meters":20000,"station_id":"ce4bhi12rcd13ifvqfp0","pricing_plan_id":"cebpf4jnsgd1na2vs0mg"},{"bike_id":"91ca2536-47db-4e8f-b272-0629eb8b94f3","system_id":"levelo_inurba_marseille","lat":43.30954,"lon":5.39029,"is_reserved":false,"is_disabled":false,"rental_uris":{"android":"levelo://app?vid=91ca2536-47db-4e8f-b272-0629eb8b94f3","ios":"levelo://app?vid=91ca2536-47db-4e8f-b272-0629eb8b94f3"},"vehicle_type_id":"4","last_reported":1746022229,"current_range_meters":20000,"station_id":"ce4bgup2rcd13ifvqco0","pricing_plan_id":"cebpf4jnsgd1na2vs0mg"},{"bike_id":"2c6b91ee-fd35-4b58-82ec-b27e4507ac8a","system_id":"levelo_inurba_marseille","lat":43.27059,"lon":5.40256,"is_reserved":false,"is_disabled":false,"rental_uris":{"android":"levelo://app?vid=2c6b91ee-fd35-4b58-82ec-b27e4507ac8a","ios":"levelo://app?vid=2c6b91ee-fd35-4b58-82ec-b27e4507ac8a"},"vehicle_type_id":"4","last_reported":1746022229,"current_range_meters":20000,"station_id":"ce4bhk92rcd13ifvqgc0","pricing_plan_id":"cebpf4jnsgd1na2vs0mg"},{"bike_id":"48fe0a61-16d8-4c4d-8014-6583682528ed","system_id":"levelo_inurba_marseille","lat":43.2175,"lon":5.34599,"is_reserved":false,"is_disabled":false,"rental_uris":{"android":"levelo://app?vid=48fe0a61-16d8-4c4d-8014-6583682528ed","ios":"levelo://app?vid=48fe0a61-16d8-4c4d-8014-6583682528ed"},"vehicle_type_id":"4","last_reported":1746022229,"current_range_meters":20000,"station_id":"st_cvj6r9ubvosntc0bgbag","pricing_plan_id":"cebpf4jnsgd1na2vs0mg"},{"bike_id":"7cd1ae21-3978-4ec3-9fc9-18be72f0dc6f","system_id":"levelo_inurba_marseille","lat":43.28445,"lon":5.39201,"is_reserved":false,"is_disabled":false,"rental_uris":{"android":"levelo://app?vid=7cd1ae21-3978-4ec3-9fc9-18be72f0dc6f","ios":"levelo://app?vid=7cd1ae21-3978-4ec3-9fc9-18be72f0dc6f"},"vehicle_type_id":"4","last_reported":1746022229,"current_range_meters":20000,"station_id":"ce4bhoh2rcd13ifvqh5g","pricing_plan_id":"cebpf4jnsgd1na2vs0mg"},{"bike_id":"347ed23a-c6d9-4358-be5e-51ffc2b76a0b","system_id":"levelo_inurba_marseille","lat":43.3133,"lon":5.3969,"is_reserved":false,"is_disabled":false,"rental_uris":{"android":"levelo://app?vid=347ed23a-c6d9-4358-be5e-51ffc2b76a0b","ios":"levelo://app?vid=347ed23a-c6d9-4358-be5e-51ffc2b76a0b"},"vehicle_type_id":"4","last_reported":1746022229,"current_range_meters":20400,"station_id":"ce4bgvp2rcd13ifvqcu0","pricing_plan_id":"cebpf4jnsgd1na2vs0mg"},{"bike_id":"65e68c64-e7bf-4470-8bc7-0c14f257da08","system_id":"levelo_inurba_marseille","lat":43.2893,"lon":5.36397,"is_reserved":false,"is_disabled":false,"rental_uris":{"android":"levelo://app?vid=65e68c64-e7bf-4470-8bc7-0c14f257da08","ios":"levelo://app?vid=65e68c64-e7bf-4470-8bc7-0c14f257da08"},"vehicle_type_id":"4","last_reported":1746022229,"current_range_meters":20400,"station_id":"ce4bhc92rcd13ifvqetg","pricing_plan_id":"cebpf4jnsgd1na2vs0mg"},{"bike_id":"c488e739-0a54-4e13-a506-6a8bf15f38af","system_id":"levelo_inurba_marseille","lat":43.28422,"lon":5.34994,"is_reserved":false,"is_disabled":false,"rental_uris":{"android":"levelo://app?vid=c488e739-0a54-4e13-a506-6a8bf15f38af","ios":"levelo://app?vid=c488e739-0a54-4e13-a506-6a8bf15f38af"},"vehicle_type_id":"4","last_reported":1746022229,"current_range_meters":20400,"station_id":"ce4bhbh2rcd13ifvqepg","pricing_plan_id":"cebpf4jnsgd1na2vs0mg"},{"bike_id":"78bd6b36-168d-41d2-bcce-932b973e2e8d","system_id":"levelo_inurba_marseille","lat":43.28125,"lon":5.37854,"is_reserved":false,"is_disabled":false,"rental_uris":{"android":"levelo://app?vid=78bd6b36-168d-41d2-bcce-932b973e2e8d","ios":"levelo://app?vid=78bd6b36-168d-41d2-bcce-932b973e2e8d"},"vehicle_type_id":"4","last_reported":1746022229,"current_range_meters":20400,"station_id":"ce4bha12rcd13ifvqee0","pricing_plan_id":"cebpf4jnsgd1na2vs0mg"},{"bike_id":"29cc9dd1-3807-451d-9bd5-d4a35804534d","system_id":"levelo_inurba_marseille","lat":43.273723,"lon":5.362591,"is_reserved":false,"is_disabled":false,"rental_uris":{"android":"levelo://app?vid=29cc9dd1-3807-451d-9bd5-d4a35804534d","ios":"levelo://app?vid=29cc9dd1-3807-451d-9bd5-d4a35804534d"},"vehicle_type_id":"4","last_reported":1746022229,"current_range_meters":20400,"station_id":"","pricing_plan_id":"cebpf4jnsgd1na2vs0mg"},{"bike_id":"8a108257-ba62-40f1-b151-5864796d192a","system_id":"levelo_inurba_marseille","lat":43.21748,"lon":5.34601,"is_reserved":false,"is_disabled":false,"rental_uris":{"android":"levelo://app?vid=8a108257-ba62-40f1-b151-5864796d192a","ios":"levelo://app?vid=8a108257-ba62-40f1-b151-5864796d192a"},"vehicle_type_id":"4","last_reported":1746022229,"current_range_meters":20400,"station_id":"st_cvj6r9ubvosntc0bgbag","pricing_plan_id":"cebpf4jnsgd1na2vs0mg"},{"bike_id":"1440538b-55c9-4a78-b1d6-33bb154d21bf","system_id":"levelo_inurba_marseille","lat":43.26056,"lon":5.39396,"is_reserved":false,"is_disabled":false,"rental_uris":{"android":"levelo://app?vid=1440538b-55c9-4a78-b1d6-33bb154d21bf","ios":"levelo://app?vid=1440538b-55c9-4a78-b1d6-33bb154d21bf"},"vehicle_type_id":"4","last_reported":1746022229,"current_range_meters":20400,"station_id":"ce4bhh92rcd13ifvqfj0","pricing_plan_id":"cebpf4jnsgd1na2vs0mg"},{"bike_id":"a0b01763-5881-4aa6-b7ff-5cb4131f6c67","system_id":"levelo_inurba_marseille","lat":43.239639,"lon":5.366263,"is_reserved":false,"is_disabled":false,"rental_uris":{"android":"levelo://app?vid=a0b01763-5881-4aa6-b7ff-5cb4131f6c67","ios":"levelo://app?vid=a0b01763-5881-4aa6-b7ff-5cb4131f6c67"},"vehicle_type_id":"4","last_reported":1746022229,"current_range_meters":20400,"station_id":"ce4bhi12rcd13ifvqfp0","pricing_plan_id":"cebpf4jnsgd1na2vs0mg"},{"bike_id":"2ba4f2a6-ea88-4fb2-9b4b-2f69082498eb","system_id":"levelo_inurba_marseille","lat":43.27378,"lon":5.36254,"is_reserved":false,"is_disabled":false,"rental_uris":{"android":"levelo://app?vid=2ba4f2a6-ea88-4fb2-9b4b-2f69082498eb","ios":"levelo://app?vid=2ba4f2a6-ea88-4fb2-9b4b-2f69082498eb"},"vehicle_type_id":"4","last_reported":1746022229,"current_range_meters":20400,"station_id":"ce4bhbh2rcd13ifvqeo0","pricing_plan_id":"cebpf4jnsgd1na2vs0mg"},{"bike_id":"cd3c6f75-9299-4b57-8132-f144695ce02b","system_id":"levelo_inurba_marseille","lat":43.28472,"lon":5.35873,"is_reserved":false,"is_disabled":false,"rental_uris":{"android":"levelo://app?vid=cd3c6f75-9299-4b57-8132-f144695ce02b","ios":"levelo://app?vid=cd3c6f75-9299-4b57-8132-f144695ce02b"},"vehicle_type_id":"4","last_reported":1746022229,"current_range_meters":20400,"station_id":"ce4bhah2rcd13ifvqei0","pricing_plan_id":"cebpf4jnsgd1na2vs0mg"},{"bike_id":"b7128737-bad2-45f2-a1f0-eb21b0b4a0af","system_id":"levelo_inurba_marseille","lat":43.297053,"lon":5.376928,"is_reserved":false,"is_disabled":false,"rental_uris":{"android":"levelo://app?vid=b7128737-bad2-45f2-a1f0-eb21b0b4a0af","ios":"levelo://app?vid=b7128737-bad2-45f2-a1f0-eb21b0b4a0af"},"vehicle_type_id":"4","last_reported":1746022229,"current_range_meters":20800,"station_id":"ce4bgkh2rcd13ifvqbl0","pricing_plan_id":"cebpf4jnsgd1na2vs0mg"},{"bike_id":"cde443bb-9a98-4dfc-a82f-cbb08d6f149e","system_id":"levelo_inurba_marseille","lat":43.24182,"lon":5.39724,"is_reserved":false,"is_disabled":false,"rental_uris":{"android":"levelo://app?vid=cde443bb-9a98-4dfc-a82f-cbb08d6f149e","ios":"levelo://app?vid=cde443bb-9a98-4dfc-a82f-cbb08d6f149e"},"vehicle_type_id":"4","last_reported":1746022229,"current_range_meters":20800,"station_id":"ce4bhn12rcd13ifvqgpg","pricing_plan_id":"cebpf4jnsgd1na2vs0mg"},{"bike_id":"cdcb50a2-3beb-4586-94ea-c6962ac3cbe5","system_id":"levelo_inurba_marseille","lat":43.24175,"lon":5.39735,"is_reserved":false,"is_disabled":false,"rental_uris":{"android":"levelo://app?vid=cdcb50a2-3beb-4586-94ea-c6962ac3cbe5","ios":"levelo://app?vid=cdcb50a2-3beb-4586-94ea-c6962ac3cbe5"},"vehicle_type_id":"4","last_reported":1746022229,"current_range_meters":20800,"station_id":"ce4bhn12rcd13ifvqgpg","pricing_plan_id":"cebpf4jnsgd1na2vs0mg"},{"bike_id":"e2e61a8c-bdc6-4f5b-8077-037999f48fdc","system_id":"levelo_inurba_marseille","lat":43.28394,"lon":5.34985,"is_reserved":false,"is_disabled":false,"rental_uris":{"android":"levelo://app?vid=e2e61a8c-bdc6-4f5b-8077-037999f48fdc","ios":"levelo://app?vid=e2e61a8c-bdc6-4f5b-8077-037999f48fdc"},"vehicle_type_id":"4","last_reported":1746022229,"current_range_meters":20800,"station_id":"ce4bhbh2rcd13ifvqepg","pricing_plan_id":"cebpf4jnsgd1na2vs0mg"},{"bike_id":"4a9cc1f8-b832-4556-a5c2-84c9c5716a9a","system_id":"levelo_inurba_marseille","lat":43.25126,"lon":5.40369,"is_reserved":false,"is_disabled":false,"rental_uris":{"android":"levelo://app?vid=4a9cc1f8-b832-4556-a5c2-84c9c5716a9a","ios":"levelo://app?vid=4a9cc1f8-b832-4556-a5c2-84c9c5716a9a"},"vehicle_type_id":"4","last_reported":1746022229,"current_range_meters":20800,"station_id":"ce4bhlh2rcd13ifvqgig","pricing_plan_id":"cebpf4jnsgd1na2vs0mg"},{"bike_id":"14ad4215-57c9-4423-b3f2-3d8acf4bce45","system_id":"levelo_inurba_marseille","lat":43.2738,"lon":5.36252,"is_reserved":false,"is_disabled":false,"rental_uris":{"android":"levelo://app?vid=14ad4215-57c9-4423-b3f2-3d8acf4bce45","ios":"levelo://app?vid=14ad4215-57c9-4423-b3f2-3d8acf4bce45"},"vehicle_type_id":"4","last_reported":1746022229,"current_range_meters":20800,"station_id":"ce4bhbh2rcd13ifvqeo0","pricing_plan_id":"cebpf4jnsgd1na2vs0mg"},{"bike_id":"740bc79e-08ac-46f8-8165-1a060ce6bfbc","system_id":"levelo_inurba_marseille","lat":43.27619,"lon":5.36104,"is_reserved":false,"is_disabled":false,"rental_uris":{"android":"levelo://app?vid=740bc79e-08ac-46f8-8165-1a060ce6bfbc","ios":"levelo://app?vid=740bc79e-08ac-46f8-8165-1a060ce6bfbc"},"vehicle_type_id":"4","last_reported":1746022229,"current_range_meters":20800,"station_id":"ce4bgj92rcd13ifvqbe0","pricing_plan_id":"cebpf4jnsgd1na2vs0mg"},{"bike_id":"b1f7c917-3b5e-4204-92b6-ec1726caa565","system_id":"levelo_inurba_marseille","lat":43.29574,"lon":5.39964,"is_reserved":false,"is_disabled":false,"rental_uris":{"android":"levelo://app?vid=b1f7c917-3b5e-4204-92b6-ec1726caa565","ios":"levelo://app?vid=b1f7c917-3b5e-4204-92b6-ec1726caa565"},"vehicle_type_id":"4","last_reported":1746022229,"current_range_meters":20800,"station_id":"ce4bh312rcd13ifvqdj0","pricing_plan_id":"cebpf4jnsgd1na2vs0mg"},{"bike_id":"6d8e29b2-f13b-4619-8db8-a77225145285","system_id":"levelo_inurba_marseille","lat":43.25583,"lon":5.38225,"is_reserved":false,"is_disabled":false,"rental_uris":{"android":"levelo://app?vid=6d8e29b2-f13b-4619-8db8-a77225145285","ios":"levelo://app?vid=6d8e29b2-f13b-4619-8db8-a77225145285"},"vehicle_type_id":"4","last_reported":1746022229,"current_range_meters":21600,"station_id":"ce4bhih2rcd13ifvqfs0","pricing_plan_id":"cebpf4jnsgd1na2vs0mg"},{"bike_id":"48ee4ecb-742a-4d30-9d91-da6b6d049dd5","system_id":"levelo_inurba_marseille","lat":43.31336,"lon":5.39689,"is_reserved":false,"is_disabled":false,"rental_uris":{"android":"levelo://app?vid=48ee4ecb-742a-4d30-9d91-da6b6d049dd5","ios":"levelo://app?vid=48ee4ecb-742a-4d30-9d91-da6b6d049dd5"},"vehicle_type_id":"4","last_reported":1746022229,"current_range_meters":21600,"station_id":"ce4bgvp2rcd13ifvqcu0","pricing_plan_id":"cebpf4jnsgd1na2vs0mg"},{"bike_id":"75f2e852-6bcb-4e0a-a9fa-c53f053ad628","system_id":"levelo_inurba_marseille","lat":43.30796,"lon":5.38147,"is_reserved":false,"is_disabled":false,"rental_uris":{"android":"levelo://app?vid=75f2e852-6bcb-4e0a-a9fa-c53f053ad628","ios":"levelo://app?vid=75f2e852-6bcb-4e0a-a9fa-c53f053ad628"},"vehicle_type_id":"4","last_reported":1746022229,"current_range_meters":21600,"station_id":"ce4bgt12rcd13ifvqce0","pricing_plan_id":"cebpf4jnsgd1na2vs0mg"},{"bike_id":"9a6d1a0d-0520-4c44-b0a9-74ddbe754418","system_id":"levelo_inurba_marseille","lat":43.25759,"lon":5.41063,"is_reserved":false,"is_disabled":false,"rental_uris":{"android":"levelo://app?vid=9a6d1a0d-0520-4c44-b0a9-74ddbe754418","ios":"levelo://app?vid=9a6d1a0d-0520-4c44-b0a9-74ddbe754418"},"vehicle_type_id":"4","last_reported":1746022229,"current_range_meters":22000,"station_id":"","pricing_plan_id":"cebpf4jnsgd1na2vs0mg"},{"bike_id":"d3abd524-621b-412b-bb7c-ad094d9b6e8c","system_id":"levelo_inurba_marseille","lat":43.31085,"lon":5.42427,"is_reserved":false,"is_disabled":false,"rental_uris":{"android":"levelo://app?vid=d3abd524-621b-412b-bb7c-ad094d9b6e8c","ios":"levelo://app?vid=d3abd524-621b-412b-bb7c-ad094d9b6e8c"},"vehicle_type_id":"4","last_reported":1746022229,"current_range_meters":22000,"station_id":"ce4bhp92rcd13ifvqhag","pricing_plan_id":"cebpf4jnsgd1na2vs0mg"},{"bike_id":"74fd8441-cd71-4e47-95f4-0ecd33f45747","system_id":"levelo_inurba_marseille","lat":43.32289,"lon":5.38266,"is_reserved":false,"is_disabled":false,"rental_uris":{"android":"levelo://app?vid=74fd8441-cd71-4e47-95f4-0ecd33f45747","ios":"levelo://app?vid=74fd8441-cd71-4e47-95f4-0ecd33f45747"},"vehicle_type_id":"4","last_reported":1746022229,"current_range_meters":20800,"station_id":"ce4bhr12rcd13ifvqhqg","pricing_plan_id":"cebpf4jnsgd1na2vs0mg"},{"bike_id":"42c28565-d089-4c8f-9c0c-e8f843e7062e","system_id":"levelo_inurba_marseille","lat":43.296305,"lon":5.371485,"is_reserved":false,"is_disabled":false,"rental_uris":{"android":"levelo://app?vid=42c28565-d089-4c8f-9c0c-e8f843e7062e","ios":"levelo://app?vid=42c28565-d089-4c8f-9c0c-e8f843e7062e"},"vehicle_type_id":"4","last_reported":1746022229,"current_range_meters":22000,"station_id":"ce4bgnh2rcd13ifvqc0g","pricing_plan_id":"cebpf4jnsgd1na2vs0mg"},{"bike_id":"e07d62a1-8528-4e05-9e15-828a10ab3116","system_id":"levelo_inurba_marseille","lat":43.28269,"lon":5.350705,"is_reserved":false,"is_disabled":false,"rental_uris":{"android":"levelo://app?vid=e07d62a1-8528-4e05-9e15-828a10ab3116","ios":"levelo://app?vid=e07d62a1-8528-4e05-9e15-828a10ab3116"},"vehicle_type_id":"4","last_reported":1746022229,"current_range_meters":22000,"station_id":"ce4bhbp2rcd13ifvqerg","pricing_plan_id":"cebpf4jnsgd1na2vs0mg"},{"bike_id":"8061eba4-54eb-4084-95c7-5999c397f89c","system_id":"levelo_inurba_marseille","lat":43.32117,"lon":5.36799,"is_reserved":false,"is_disabled":false,"rental_uris":{"android":"levelo://app?vid=8061eba4-54eb-4084-95c7-5999c397f89c","ios":"levelo://app?vid=8061eba4-54eb-4084-95c7-5999c397f89c"},"vehicle_type_id":"4","last_reported":1746022229,"current_range_meters":22400,"station_id":"ce4bhrh2rcd13ifvqhug","pricing_plan_id":"cebpf4jnsgd1na2vs0mg"},{"bike_id":"92f4a1fb-5678-43ad-8c47-f3e699838d72","system_id":"levelo_inurba_marseille","lat":43.27367,"lon":5.36247,"is_reserved":false,"is_disabled":false,"rental_uris":{"android":"levelo://app?vid=92f4a1fb-5678-43ad-8c47-f3e699838d72","ios":"levelo://app?vid=92f4a1fb-5678-43ad-8c47-f3e699838d72"},"vehicle_type_id":"4","last_reported":1746022229,"current_range_meters":22400,"station_id":"ce4bhbh2rcd13ifvqeo0","pricing_plan_id":"cebpf4jnsgd1na2vs0mg"},{"bike_id":"3f62c11c-bdc4-4400-8e36-e216fa79ed0c","system_id":"levelo_inurba_marseille","lat":43.29277,"lon":5.38432,"is_reserved":false,"is_disabled":false,"rental_uris":{"android":"levelo://app?vid=3f62c11c-bdc4-4400-8e36-e216fa79ed0c","ios":"levelo://app?vid=3f62c11c-bdc4-4400-8e36-e216fa79ed0c"},"vehicle_type_id":"4","last_reported":1746022229,"current_range_meters":22400,"station_id":"ce4bh692rcd13ifvqea0","pricing_plan_id":"cebpf4jnsgd1na2vs0mg"},{"bike_id":"0bbc06ca-396e-444b-ac5a-91786c91639f","system_id":"levelo_inurba_marseille","lat":43.31331,"lon":5.39689,"is_reserved":false,"is_disabled":false,"rental_uris":{"android":"levelo://app?vid=0bbc06ca-396e-444b-ac5a-91786c91639f","ios":"levelo://app?vid=0bbc06ca-396e-444b-ac5a-91786c91639f"},"vehicle_type_id":"4","last_reported":1746022229,"current_range_meters":22800,"station_id":"ce4bgvp2rcd13ifvqcu0","pricing_plan_id":"cebpf4jnsgd1na2vs0mg"},{"bike_id":"3aeb961f-88b6-47fd-986a-c7b2a855fefd","system_id":"levelo_inurba_marseille","lat":43.23081,"lon":5.35516,"is_reserved":false,"is_disabled":false,"rental_uris":{"android":"levelo://app?vid=3aeb961f-88b6-47fd-986a-c7b2a855fefd","ios":"levelo://app?vid=3aeb961f-88b6-47fd-986a-c7b2a855fefd"},"vehicle_type_id":"4","last_reported":1746022229,"current_range_meters":22800,"station_id":"cpo3342slgdg3j2ifvpg","pricing_plan_id":"cebpf4jnsgd1na2vs0mg"},{"bike_id":"347e8e80-c660-42cc-a851-575f053225e0","system_id":"levelo_inurba_marseille","lat":43.23158,"lon":5.43713,"is_reserved":false,"is_disabled":false,"rental_uris":{"android":"levelo://app?vid=347e8e80-c660-42cc-a851-575f053225e0","ios":"levelo://app?vid=347e8e80-c660-42cc-a851-575f053225e0"},"vehicle_type_id":"4","last_reported":1746022229,"current_range_meters":22800,"station_id":"ce4bhmp2rcd13ifvqgog","pricing_plan_id":"cebpf4jnsgd1na2vs0mg"},{"bike_id":"3b70334b-df33-44e5-8058-1147f3518590","system_id":"levelo_inurba_marseille","lat":43.31325,"lon":5.39695,"is_reserved":false,"is_disabled":false,"rental_uris":{"android":"levelo://app?vid=3b70334b-df33-44e5-8058-1147f3518590","ios":"levelo://app?vid=3b70334b-df33-44e5-8058-1147f3518590"},"vehicle_type_id":"4","last_reported":1746022229,"current_range_meters":22800,"station_id":"ce4bgvp2rcd13ifvqcu0","pricing_plan_id":"cebpf4jnsgd1na2vs0mg"},{"bike_id":"58da268d-a992-42b8-8721-9d5a9af0632f","system_id":"levelo_inurba_marseille","lat":43.28279,"lon":5.35066,"is_reserved":false,"is_disabled":false,"rental_uris":{"android":"levelo://app?vid=58da268d-a992-42b8-8721-9d5a9af0632f","ios":"levelo://app?vid=58da268d-a992-42b8-8721-9d5a9af0632f"},