{"last_updated":1742231308,"ttl":60,"version":"2.2","data":{"bikes":[{"bike_id":"9a2de320-196e-44b6-91b6-0d424eaa2a88","system_id":"levelo_inurba_marseille","lat":43.2572,"lon":5.42167,"is_reserved":false,"is_disabled":false,"rental_uris":{"android":"levelo://app?vid=9a2de320-196e-44b6-91b6-0d424eaa2a88","ios":"levelo://app?vid=9a2de320-196e-44b6-91b6-0d424eaa2a88"},"vehicle_type_id":"4","last_reported":1742231308,"current_range_meters":2800,"station_id":"","pricing_plan_id":"cebpf4jnsgd1na2vs0mg"},{"bike_id":"fb63a6a7-a14b-41ed-93ed-52396cd8c68a","system_id":"levelo_inurba_marseille","lat":43.30136,"lon":5.37422,"is_reserved":false,"is_disabled":false,"rental_uris":{"android":"levelo://app?vid=fb63a6a7-a14b-41ed-93ed-52396cd8c68a","ios":"levelo://app?vid=fb63a6a7-a14b-41ed-93ed-52396cd8c68a"},"vehicle_type_id":"4","last_reported":1742231308,"current_range_meters":2000,"station_id":"ce4bgs92rcd13ifvqcc0","pricing_plan_id":"cebpf4jnsgd1na2vs0mg"},{"bike_id":"2887c066-6a70-419a-a4ca-eafa05f6ec89","system_id":"levelo_inurba_marseille","lat":43.2465,"lon":5.43634,"is_reserved":false,"is_disabled":false,"rental_uris":{"android":"levelo://app?vid=2887c066-6a70-419a-a4ca-eafa05f6ec89","ios":"levelo://app?vid=2887c066-6a70-419a-a4ca-eafa05f6ec89"},"vehicle_type_id":"4","last_reported":1742231308,"current_range_meters":2800,"station_id":"","pricing_plan_id":"cebpf4jnsgd1na2vs0mg"},{"bike_id":"1c2a888c-4e95-46d2-a3bd-412099d3a642","system_id":"levelo_inurba_marseille","lat":43.30927,"lon":5.40134,"is_reserved":false,"is_disabled":false,"rental_uris":{"android":"levelo://app?vid=1c2a888c-4e95-46d2-a3bd-412099d3a642","ios":"levelo://app?vid=1c2a888c-4e95-46d2-a3bd-412099d3a642"},"vehicle_type_id":"4","last_reported":1742231308,"current_range_meters":2800,"station_id":"ce4bgvp2rcd13ifvqct0","pricing_plan_id":"cebpf4jnsgd1na2vs0mg"},{"bike_id":"e7bc364f-5dfc-437f-8dd3-63beb7a69243","system_id":"levelo_inurba_marseille","lat":43.2315,"lon":5.43713,"is_reserved":false,"is_disabled":false,"rental_uris":{"android":"levelo://app?vid=e7bc364f-5dfc-437f-8dd3-63beb7a69243","ios":"levelo://app?vid=e7bc364f-5dfc-437f-8dd3-63beb7a69243"},"vehicle_type_id":"4","last_reported":1742231308,"current_range_meters":2800,"station_id":"ce4bhmp2rcd13ifvqgog","pricing_plan_id":"cebpf4jnsgd1na2vs0mg"},{"bike_id":"c95c2d7f-de33-46a7-80f8-55e7af3b5e8b","system_id":"levelo_inurba_marseille","lat":43.28729,"lon":5.4004,"is_reserved":false,"is_disabled":false,"rental_uris":{"android":"levelo://app?vid=c95c2d7f-de33-46a7-80f8-55e7af3b5e8b","ios":"levelo://app?vid=c95c2d7f-de33-46a7-80f8-55e7af3b5e8b"},"vehicle_type_id":"4","last_reported":1742231308,"current_range_meters":1600,"station_id":"ce4bho92rcd13ifvqh3g","pricing_plan_id":"cebpf4jnsgd1na2vs0mg"},{"bike_id":"c5d8f801-942b-415c-a565-f0fe0320c060","system_id":"levelo_inurba_marseille","lat":43.29082,"lon":5.37179,"is_reserved":false,"is_disabled":false,"rental_uris":{"android":"levelo://app?vid=c5d8f801-942b-415c-a565-f0fe0320c060","ios":"levelo://app?vid=c5d8f801-942b-415c-a565-f0fe0320c060"},"vehicle_type_id":"4","last_reported":1742231308,"current_range_meters":3600,"station_id":"ce4bh5p2rcd13ifvqe4g","pricing_plan_id":"cebpf4jnsgd1na2vs0mg"},{"bike_id":"ffa035d2-758e-4f87-9678-7a04fa0a3543","system_id":"levelo_inurba_marseille","lat":43.32109,"lon":5.36772,"is_reserved":false,"is_disabled":false,"rental_uris":{"android":"levelo://app?vid=ffa035d2-758e-4f87-9678-7a04fa0a3543","ios":"levelo://app?vid=ffa035d2-758e-4f87-9678-7a04fa0a3543"},"vehicle_type_id":"4","last_reported":1742231308,"current_range_meters":2800,"station_id":"ce4bhrh2rcd13ifvqhug","pricing_plan_id":"cebpf4jnsgd1na2vs0mg"},{"bike_id":"090dc278-8e7d-4a6b-a6d4-c24a73db0d81","system_id":"levelo_inurba_marseille","lat":43.2721,"lon":5.39188,"is_reserved":false,"is_disabled":false,"rental_uris":{"android":"levelo://app?vid=090dc278-8e7d-4a6b-a6d4-c24a73db0d81","ios":"levelo://app?vid=090dc278-8e7d-4a6b-a6d4-c24a73db0d81"},"vehicle_type_id":"4","last_reported":1742231308,"current_range_meters":400,"station_id":"ce4bhhp2rcd13ifvqfm0","pricing_plan_id":"cebpf4jnsgd1na2vs0mg"},{"bike_id":"a7d6f90d-107f-4111-bfc9-211a22365d83","system_id":"levelo_inurba_marseille","lat":43.2903,"lon":5.35911,"is_reserved":false,"is_disabled":false,"rental_uris":{"android":"levelo://app?vid=a7d6f90d-107f-4111-bfc9-211a22365d83","ios":"levelo://app?vid=a7d6f90d-107f-4111-bfc9-211a22365d83"},"vehicle_type_id":"4","last_reported":1742231308,"current_range_meters":2800,"station_id":"ce4bha92rcd13ifvqeg0","pricing_plan_id":"cebpf4jnsgd1na2vs0mg"},{"bike_id":"ae010d50-b808-433f-9751-ecb71f5c76e6","system_id":"levelo_inurba_marseille","lat":43.2743,"lon":5.39416,"is_reserved":false,"is_disabled":false,"rental_uris":{"android":"levelo://app?vid=ae010d50-b808-433f-9751-ecb71f5c76e6","ios":"levelo://app?vid=ae010d50-b808-433f-9751-ecb71f5c76e6"},"vehicle_type_id":"4","last_reported":1742231308,"current_range_meters":3200,"station_id":"ce4bhdp2rcd13ifvqf20","pricing_plan_id":"cebpf4jnsgd1na2vs0mg"},{"bike_id":"2ad2ccb9-8d0c-46cc-bd9d-935edf1a34b7","system_id":"levelo_inurba_marseille","lat":43.28669,"lon":5.36358,"is_reserved":false,"is_disabled":false,"rental_uris":{"android":"levelo://app?vid=2ad2ccb9-8d0c-46cc-bd9d-935edf1a34b7","ios":"levelo://app?vid=2ad2ccb9-8d0c-46cc-bd9d-935edf1a34b7"},"vehicle_type_id":"4","last_reported":1742231308,"current_range_meters":3200,"station_id":"ce4bhah2rcd13ifvqej0","pricing_plan_id":"cebpf4jnsgd1na2vs0mg"},{"bike_id":"3a4099fc-8cda-4a6c-a30a-0b92f3665d27","system_id":"levelo_inurba_marseille","lat":43.3033,"lon":5.40438,"is_reserved":false,"is_disabled":false,"rental_uris":{"android":"levelo://app?vid=3a4099fc-8cda-4a6c-a30a-0b92f3665d27","ios":"levelo://app?vid=3a4099fc-8cda-4a6c-a30a-0b92f3665d27"},"vehicle_type_id":"4","last_reported":1742231308,"current_range_meters":3200,"station_id":"ce4bh012rcd13ifvqd10","pricing_plan_id":"cebpf4jnsgd1na2vs0mg"},{"bike_id":"0fc1f0dc-d411-4676-abfc-a771321e236e","system_id":"levelo_inurba_marseille","lat":43.25584,"lon":5.38255,"is_reserved":false,"is_disabled":false,"rental_uris":{"android":"levelo://app?vid=0fc1f0dc-d411-4676-abfc-a771321e236e","ios":"levelo://app?vid=0fc1f0dc-d411-4676-abfc-a771321e236e"},"vehicle_type_id":"4","last_reported":1742231308,"current_range_meters":3200,"station_id":"ce4bhih2rcd13ifvqfs0","pricing_plan_id":"cebpf4jnsgd1na2vs0mg"},{"bike_id":"f5e6c9ef-8d36-4a87-9665-3960ffd74d08","system_id":"levelo_inurba_marseille","lat":43.29425,"lon":5.38639,"is_reserved":false,"is_disabled":false,"rental_uris":{"android":"levelo://app?vid=f5e6c9ef-8d36-4a87-9665-3960ffd74d08","ios":"levelo://app?vid=f5e6c9ef-8d36-4a87-9665-3960ffd74d08"},"vehicle_type_id":"4","last_reported":1742231308,"current_range_meters":3200,"station_id":"ce4bh2h2rcd13ifvqdh0","pricing_plan_id":"cebpf4jnsgd1na2vs0mg"},{"bike_id":"fe535ac1-f859-4328-a553-181bec5165fc","system_id":"levelo_inurba_marseille","lat":43.24992,"lon":5.3893,"is_reserved":false,"is_disabled":false,"rental_uris":{"android":"levelo://app?vid=fe535ac1-f859-4328-a553-181bec5165fc","ios":"levelo://app?vid=fe535ac1-f859-4328-a553-181bec5165fc"},"vehicle_type_id":"4","last_reported":1742231308,"current_range_meters":3200,"station_id":"ce4bhgp2rcd13ifvqfd0","pricing_plan_id":"cebpf4jnsgd1na2vs0mg"},{"bike_id":"8f4e154d-dfb7-4ff5-9e70-7d0f9141319e","system_id":"levelo_inurba_marseille","lat":43.26792,"lon":5.39417,"is_reserved":false,"is_disabled":false,"rental_uris":{"android":"levelo://app?vid=8f4e154d-dfb7-4ff5-9e70-7d0f9141319e","ios":"levelo://app?vid=8f4e154d-dfb7-4ff5-9e70-7d0f9141319e"},"vehicle_type_id":"4","last_reported":1742231308,"current_range_meters":3200,"station_id":"ce4bhh12rcd13ifvqfg0","pricing_plan_id":"cebpf4jnsgd1na2vs0mg"},{"bike_id":"5f11853b-afaa-4f7b-a5d9-3678c83229fa","system_id":"levelo_inurba_marseille","lat":43.32344,"lon":5.4062,"is_reserved":false,"is_disabled":false,"rental_uris":{"android":"levelo://app?vid=5f11853b-afaa-4f7b-a5d9-3678c83229fa","ios":"levelo://app?vid=5f11853b-afaa-4f7b-a5d9-3678c83229fa"},"vehicle_type_id":"4","last_reported":1742231308,"current_range_meters":3200,"station_id":"ce4bhq92rcd13ifvqhjg","pricing_plan_id":"cebpf4jnsgd1na2vs0mg"},{"bike_id":"f88f33f0-b21b-489a-881f-a1cbf86349e0","system_id":"levelo_inurba_marseille","lat":43.31079,"lon":5.38358,"is_reserved":false,"is_disabled":false,"rental_uris":{"android":"levelo://app?vid=f88f33f0-b21b-489a-881f-a1cbf86349e0","ios":"levelo://app?vid=f88f33f0-b21b-489a-881f-a1cbf86349e0"},"vehicle_type_id":"4","last_reported":1742231308,"current_range_meters":3200,"station_id":"ce4bgv92rcd13ifvqcr0","pricing_plan_id":"cebpf4jnsgd1na2vs0mg"},{"bike_id":"be1d558e-8ecb-4270-8f2d-5565fcdc1f42","system_id":"levelo_inurba_marseille","lat":43.27072,"lon":5.4228,"is_reserved":false,"is_disabled":false,"rental_uris":{"android":"levelo://app?vid=be1d558e-8ecb-4270-8f2d-5565fcdc1f42","ios":"levelo://app?vid=be1d558e-8ecb-4270-8f2d-5565fcdc1f42"},"vehicle_type_id":"4","last_reported":1742231308,"current_range_meters":3200,"station_id":"ce4bhk92rcd13ifvqgb0","pricing_plan_id":"cebpf4jnsgd1na2vs0mg"},{"bike_id":"21166d41-4014-4bd8-ac69-731adebb5df7","system_id":"levelo_inurba_marseille","lat":43.24557,"lon":5.37321,"is_reserved":false,"is_disabled":false,"rental_uris":{"android":"levelo://app?vid=21166d41-4014-4bd8-ac69-731adebb5df7","ios":"levelo://app?vid=21166d41-4014-4bd8-ac69-731adebb5df7"},"vehicle_type_id":"4","last_reported":1742231308,"current_range_meters":3600,"station_id":"","pricing_plan_id":"cebpf4jnsgd1na2vs0mg"},{"bike_id":"dd3d4b9f-e0d1-40e3-a2d4-87cf7aaa3477","system_id":"levelo_inurba_marseille","lat":43.3015,"lon":5.39889,"is_reserved":false,"is_disabled":false,"rental_uris":{"android":"levelo://app?vid=dd3d4b9f-e0d1-40e3-a2d4-87cf7aaa3477","ios":"levelo://app?vid=dd3d4b9f-e0d1-40e3-a2d4-87cf7aaa3477"},"vehicle_type_id":"4","last_reported":1742231308,"current_range_meters":3600,"station_id":"ce4bh0h2rcd13ifvqd40","pricing_plan_id":"cebpf4jnsgd1na2vs0mg"},{"bike_id":"e3a35cdc-e5c7-4f82-952e-d5ab618ab20f","system_id":"levelo_inurba_marseille","lat":43.29028,"lon":5.39989,"is_reserved":false,"is_disabled":false,"rental_uris":{"android":"levelo://app?vid=e3a35cdc-e5c7-4f82-952e-d5ab618ab20f","ios":"levelo://app?vid=e3a35cdc-e5c7-4f82-952e-d5ab618ab20f"},"vehicle_type_id":"4","last_reported":1742231308,"current_range_meters":3600,"station_id":"ce4bh392rcd13ifvqdm0","pricing_plan_id":"cebpf4jnsgd1na2vs0mg"},{"bike_id":"75eca607-f4fe-4195-b2a5-9ee078b9149d","system_id":"levelo_inurba_marseille","lat":43.29564,"lon":5.42284,"is_reserved":false,"is_disabled":false,"rental_uris":{"android":"levelo://app?vid=75eca607-f4fe-4195-b2a5-9ee078b9149d","ios":"levelo://app?vid=75eca607-f4fe-4195-b2a5-9ee078b9149d"},"vehicle_type_id":"4","last_reported":1742231308,"current_range_meters":4000,"station_id":"ce4bhph2rcd13ifvqhdg","pricing_plan_id":"cebpf4jnsgd1na2vs0mg"},{"bike_id":"20bfc6c0-5d60-4ca3-96c3-8474c002fb53","system_id":"levelo_inurba_marseille","lat":43.29781,"lon":5.38112,"is_reserved":false,"is_disabled":false,"rental_uris":{"android":"levelo://app?vid=20bfc6c0-5d60-4ca3-96c3-8474c002fb53","ios":"levelo://app?vid=20bfc6c0-5d60-4ca3-96c3-8474c002fb53"},"vehicle_type_id":"4","last_reported":1742231308,"current_range_meters":4000,"station_id":"ce4bgip2rcd13ifvqbb0","pricing_plan_id":"cebpf4jnsgd1na2vs0mg"},{"bike_id":"da4af89f-b57e-4338-a2dc-1fb2e55820b1","system_id":"levelo_inurba_marseille","lat":43.2306,"lon":5.3549,"is_reserved":false,"is_disabled":false,"rental_uris":{"android":"levelo://app?vid=da4af89f-b57e-4338-a2dc-1fb2e55820b1","ios":"levelo://app?vid=da4af89f-b57e-4338-a2dc-1fb2e55820b1"},"vehicle_type_id":"4","last_reported":1742231308,"current_range_meters":4400,"station_id":"cpo3342slgdg3j2ifvpg","pricing_plan_id":"cebpf4jnsgd1na2vs0mg"},{"bike_id":"e35a1814-ec44-4289-93a9-c637dd85a7a3","system_id":"levelo_inurba_marseille","lat":43.26789,"lon":5.39415,"is_reserved":false,"is_disabled":false,"rental_uris":{"android":"levelo://app?vid=e35a1814-ec44-4289-93a9-c637dd85a7a3","ios":"levelo://app?vid=e35a1814-ec44-4289-93a9-c637dd85a7a3"},"vehicle_type_id":"4","last_reported":1742231308,"current_range_meters":4400,"station_id":"ce4bhh12rcd13ifvqfg0","pricing_plan_id":"cebpf4jnsgd1na2vs0mg"},{"bike_id":"ec0b81e3-b6b8-4b65-b201-dccd83258511","system_id":"levelo_inurba_marseille","lat":43.29264,"lon":5.38444,"is_reserved":false,"is_disabled":false,"rental_uris":{"android":"levelo://app?vid=ec0b81e3-b6b8-4b65-b201-dccd83258511","ios":"levelo://app?vid=ec0b81e3-b6b8-4b65-b201-dccd83258511"},"vehicle_type_id":"4","last_reported":1742231308,"current_range_meters":4400,"station_id":"ce4bh692rcd13ifvqea0","pricing_plan_id":"cebpf4jnsgd1na2vs0mg"},{"bike_id":"bf77353c-a64f-414c-a5ce-ac16840be2cc","system_id":"levelo_inurba_marseille","lat":43.2971,"lon":5.36611,"is_reserved":false,"is_disabled":false,"rental_uris":{"android":"levelo://app?vid=bf77353c-a64f-414c-a5ce-ac16840be2cc","ios":"levelo://app?vid=bf77353c-a64f-414c-a5ce-ac16840be2cc"},"vehicle_type_id":"4","last_reported":1742231308,"current_range_meters":4000,"station_id":"ce4bgn12rcd13ifvqbt0","pricing_plan_id":"cebpf4jnsgd1na2vs0mg"},{"bike_id":"3fb52932-5480-41a7-9647-c5a9100c3c67","system_id":"levelo_inurba_marseille","lat":43.32369,"lon":5.38889,"is_reserved":false,"is_disabled":false,"rental_uris":{"android":"levelo://app?vid=3fb52932-5480-41a7-9647-c5a9100c3c67","ios":"levelo://app?vid=3fb52932-5480-41a7-9647-c5a9100c3c67"},"vehicle_type_id":"4","last_reported":1742231308,"current_range_meters":4800,"station_id":"ce4bhqp2rcd13ifvqhog","pricing_plan_id":"cebpf4jnsgd1na2vs0mg"},{"bike_id":"5d3dbd3a-1365-40c0-af69-8ba2c314a313","system_id":"levelo_inurba_marseille","lat":43.29919,"lon":5.43612,"is_reserved":false,"is_disabled":false,"rental_uris":{"android":"levelo://app?vid=5d3dbd3a-1365-40c0-af69-8ba2c314a313","ios":"levelo://app?vid=5d3dbd3a-1365-40c0-af69-8ba2c314a313"},"vehicle_type_id":"4","last_reported":1742231308,"current_range_meters":4800,"station_id":"","pricing_plan_id":"cebpf4jnsgd1na2vs0mg"},{"bike_id":"436163ae-329e-4516-a54b-ab951f1eae33","system_id":"levelo_inurba_marseille","lat":43.25591,"lon":5.38237,"is_reserved":false,"is_disabled":false,"rental_uris":{"android":"levelo://app?vid=436163ae-329e-4516-a54b-ab951f1eae33","ios":"levelo://app?vid=436163ae-329e-4516-a54b-ab951f1eae33"},"vehicle_type_id":"4","last_reported":1742231308,"current_range_meters":4800,"station_id":"ce4bhih2rcd13ifvqfs0","pricing_plan_id":"cebpf4jnsgd1na2vs0mg"},{"bike_id":"0ffb8409-551c-4a1d-bba3-6290337fb542","system_id":"levelo_inurba_marseille","lat":43.27988,"lon":5.41651,"is_reserved":false,"is_disabled":false,"rental_uris":{"android":"levelo://app?vid=0ffb8409-551c-4a1d-bba3-6290337fb542","ios":"levelo://app?vid=0ffb8409-551c-4a1d-bba3-6290337fb542"},"vehicle_type_id":"4","last_reported":1742231308,"current_range_meters":4800,"station_id":"ce4bho12rcd13ifvqh1g","pricing_plan_id":"cebpf4jnsgd1na2vs0mg"},{"bike_id":"d87d01b0-53bb-405d-a34e-24df13294a43","system_id":"levelo_inurba_marseille","lat":43.29209,"lon":5.39316,"is_reserved":false,"is_disabled":true,"rental_uris":{"android":"levelo://app?vid=d87d01b0-53bb-405d-a34e-24df13294a43","ios":"levelo://app?vid=d87d01b0-53bb-405d-a34e-24df13294a43"},"vehicle_type_id":"4","last_reported":1742231308,"current_range_meters":4800,"station_id":"ce4bh192rcd13ifvqdd0","pricing_plan_id":"cebpf4jnsgd1na2vs0mg"},{"bike_id":"dcf21b4d-8529-44dd-982b-b5bb454725cd","system_id":"levelo_inurba_marseille","lat":43.23186,"lon":5.39986,"is_reserved":false,"is_disabled":false,"rental_uris":{"android":"levelo://app?vid=dcf21b4d-8529-44dd-982b-b5bb454725cd","ios":"levelo://app?vid=dcf21b4d-8529-44dd-982b-b5bb454725cd"},"vehicle_type_id":"4","last_reported":1742231308,"current_range_meters":4800,"station_id":"ce4bhn12rcd13ifvqgqg","pricing_plan_id":"cebpf4jnsgd1na2vs0mg"},{"bike_id":"bf2c9aa1-e792-4fb6-9fd7-08fd9e5dd890","system_id":"levelo_inurba_marseille","lat":43.31761,"lon":5.3902,"is_reserved":false,"is_disabled":false,"rental_uris":{"android":"levelo://app?vid=bf2c9aa1-e792-4fb6-9fd7-08fd9e5dd890","ios":"levelo://app?vid=bf2c9aa1-e792-4fb6-9fd7-08fd9e5dd890"},"vehicle_type_id":"4","last_reported":1742231308,"current_range_meters":4800,"station_id":"ce4bhqp2rcd13ifvqhng","pricing_plan_id":"cebpf4jnsgd1na2vs0mg"},{"bike_id":"14e819c1-9106-44dc-84e3-2ec10874d882","system_id":"levelo_inurba_marseille","lat":43.27812,"lon":5.40716,"is_reserved":false,"is_disabled":false,"rental_uris":{"android":"levelo://app?vid=14e819c1-9106-44dc-84e3-2ec10874d882","ios":"levelo://app?vid=14e819c1-9106-44dc-84e3-2ec10874d882"},"vehicle_type_id":"4","last_reported":1742231308,"current_range_meters":4800,"station_id":"ce4bhnh2rcd13ifvqgtg","pricing_plan_id":"cebpf4jnsgd1na2vs0mg"},{"bike_id":"995f26b5-130b-4eec-b3a2-62a80d1057b3","system_id":"levelo_inurba_marseille","lat":43.28435,"lon":5.3499,"is_reserved":false,"is_disabled":false,"rental_uris":{"android":"levelo://app?vid=995f26b5-130b-4eec-b3a2-62a80d1057b3","ios":"levelo://app?vid=995f26b5-130b-4eec-b3a2-62a80d1057b3"},"vehicle_type_id":"4","last_reported":1742231308,"current_range_meters":4800,"station_id":"ce4bhbh2rcd13ifvqepg","pricing_plan_id":"cebpf4jnsgd1na2vs0mg"},{"bike_id":"f762fd6f-ca69-45f6-995f-65c0e25825a3","system_id":"levelo_inurba_marseille","lat":43.32537,"lon":5.41501,"is_reserved":false,"is_disabled":true,"rental_uris":{"android":"levelo://app?vid=f762fd6f-ca69-45f6-995f-65c0e25825a3","ios":"levelo://app?vid=f762fd6f-ca69-45f6-995f-65c0e25825a3"},"vehicle_type_id":"4","last_reported":1742231308,"current_range_meters":5600,"station_id":"ce4bhq12rcd13ifvqhhg","pricing_plan_id":"cebpf4jnsgd1na2vs0mg"},{"bike_id":"bdbba12a-426c-4cda-81af-ab9bef70318e","system_id":"levelo_inurba_marseille","lat":43.31727,"lon":5.4371,"is_reserved":false,"is_disabled":false,"rental_uris":{"android":"levelo://app?vid=bdbba12a-426c-4cda-81af-ab9bef70318e","ios":"levelo://app?vid=bdbba12a-426c-4cda-81af-ab9bef70318e"},"vehicle_type_id":"4","last_reported":1742231308,"current_range_meters":5600,"station_id":"ce4bhp92rcd13ifvqhcg","pricing_plan_id":"cebpf4jnsgd1na2vs0mg"},{"bike_id":"6ae6f76c-6a01-4d75-9d3f-dfa610803a78","system_id":"levelo_inurba_marseille","lat":43.23085,"lon":5.35493,"is_reserved":false,"is_disabled":false,"rental_uris":{"android":"levelo://app?vid=6ae6f76c-6a01-4d75-9d3f-dfa610803a78","ios":"levelo://app?vid=6ae6f76c-6a01-4d75-9d3f-dfa610803a78"},"vehicle_type_id":"4","last_reported":1742231308,"current_range_meters":5600,"station_id":"cpo3342slgdg3j2ifvpg","pricing_plan_id":"cebpf4jnsgd1na2vs0mg"},{"bike_id":"d2edf35e-ff36-4055-a2c6-451604f34339","system_id":"levelo_inurba_marseille","lat":43.29036,"lon":5.375536,"is_reserved":false,"is_disabled":false,"rental_uris":{"android":"levelo://app?vid=d2edf35e-ff36-4055-a2c6-451604f34339","ios":"levelo://app?vid=d2edf35e-ff36-4055-a2c6-451604f34339"},"vehicle_type_id":"4","last_reported":1742231308,"current_range_meters":4800,"station_id":"ce4bh412rcd13ifvqds0","pricing_plan_id":"cebpf4jnsgd1na2vs0mg"},{"bike_id":"807d1c46-1543-4f63-8003-0d789a8aaaa9","system_id":"levelo_inurba_marseille","lat":43.28339,"lon":5.40133,"is_reserved":false,"is_disabled":false,"rental_uris":{"android":"levelo://app?vid=807d1c46-1543-4f63-8003-0d789a8aaaa9","ios":"levelo://app?vid=807d1c46-1543-4f63-8003-0d789a8aaaa9"},"vehicle_type_id":"4","last_reported":1742231308,"current_range_meters":5600,"station_id":"","pricing_plan_id":"cebpf4jnsgd1na2vs0mg"},{"bike_id":"b6c81d8e-325e-4857-b5d1-b13a1aaefc5f","system_id":"levelo_inurba_marseille","lat":43.31279,"lon":5.40233,"is_reserved":false,"is_disabled":false,"rental_uris":{"android":"levelo://app?vid=b6c81d8e-325e-4857-b5d1-b13a1aaefc5f","ios":"levelo://app?vid=b6c81d8e-325e-4857-b5d1-b13a1aaefc5f"},"vehicle_type_id":"4","last_reported":1742231308,"current_range_meters":5600,"station_id":"","pricing_plan_id":"cebpf4jnsgd1na2vs0mg"},{"bike_id":"6fc12898-2397-4b4f-ac69-eddefb442ad6","system_id":"levelo_inurba_marseille","lat":43.27946,"lon":5.41044,"is_reserved":false,"is_disabled":false,"rental_uris":{"android":"levelo://app?vid=6fc12898-2397-4b4f-ac69-eddefb442ad6","ios":"levelo://app?vid=6fc12898-2397-4b4f-ac69-eddefb442ad6"},"vehicle_type_id":"4","last_reported":1742231308,"current_range_meters":6000,"station_id":"ce4bhnp2rcd13ifvqh0g","pricing_plan_id":"cebpf4jnsgd1na2vs0mg"},{"bike_id":"6222df0f-bda6-41d5-ade4-b4d3ca5dc59e","system_id":"levelo_inurba_marseille","lat":43.25734,"lon":5.41088,"is_reserved":false,"is_disabled":false,"rental_uris":{"android":"levelo://app?vid=6222df0f-bda6-41d5-ade4-b4d3ca5dc59e","ios":"levelo://app?vid=6222df0f-bda6-41d5-ade4-b4d3ca5dc59e"},"vehicle_type_id":"4","last_reported":1742231308,"current_range_meters":6400,"station_id":"ce4bhkp2rcd13ifvqgd0","pricing_plan_id":"cebpf4jnsgd1na2vs0mg"},{"bike_id":"5d33ee2e-ab8c-4d48-b2e3-8df7c0b816e1","system_id":"levelo_inurba_marseille","lat":43.23059,"lon":5.35508,"is_reserved":false,"is_disabled":false,"rental_uris":{"android":"levelo://app?vid=5d33ee2e-ab8c-4d48-b2e3-8df7c0b816e1","ios":"levelo://app?vid=5d33ee2e-ab8c-4d48-b2e3-8df7c0b816e1"},"vehicle_type_id":"4","last_reported":1742231308,"current_range_meters":6000,"station_id":"cpo3342slgdg3j2ifvpg","pricing_plan_id":"cebpf4jnsgd1na2vs0mg"},{"bike_id":"5e7401c2-c372-430f-8491-0557cf6a4ff2","system_id":"levelo_inurba_marseille","lat":43.24553,"lon":5.37369,"is_reserved":false,"is_disabled":true,"rental_uris":{"android":"levelo://app?vid=5e7401c2-c372-430f-8491-0557cf6a4ff2","ios":"levelo://app?vid=5e7401c2-c372-430f-8491-0557cf6a4ff2"},"vehicle_type_id":"4","last_reported":1742231308,"current_range_meters":6000,"station_id":"","pricing_plan_id":"cebpf4jnsgd1na2vs0mg"},{"bike_id":"ca72026d-ea45-4b04-b33f-70977e7d1adf","system_id":"levelo_inurba_marseille","lat":43.30328,"lon":5.40432,"is_reserved":false,"is_disabled":false,"rental_uris":{"android":"levelo://app?vid=ca72026d-ea45-4b04-b33f-70977e7d1adf","ios":"levelo://app?vid=ca72026d-ea45-4b04-b33f-70977e7d1adf"},"vehicle_type_id":"4","last_reported":1742231308,"current_range_meters":6000,"station_id":"ce4bh012rcd13ifvqd10","pricing_plan_id":"cebpf4jnsgd1na2vs0mg"},{"bike_id":"314017e1-d9ca-48e7-92d6-fb40181dc302","system_id":"levelo_inurba_marseille","lat":43.282735,"lon":5.350711,"is_reserved":false,"is_disabled":false,"rental_uris":{"android":"levelo://app?vid=314017e1-d9ca-48e7-92d6-fb40181dc302","ios":"levelo://app?vid=314017e1-d9ca-48e7-92d6-fb40181dc302"},"vehicle_type_id":"4","last_reported":1742231308,"current_range_meters":6000,"station_id":"ce4bh2h2rcd13ifvqdh0","pricing_plan_id":"cebpf4jnsgd1na2vs0mg"},{"bike_id":"1417dc3d-b93b-4dd3-9886-84a60a075032","system_id":"levelo_inurba_marseille","lat":43.314915,"lon":5.373051,"is_reserved":false,"is_disabled":false,"rental_uris":{"android":"levelo://app?vid=1417dc3d-b93b-4dd3-9886-84a60a075032","ios":"levelo://app?vid=1417dc3d-b93b-4dd3-9886-84a60a075032"},"vehicle_type_id":"4","last_reported":1742231308,"current_range_meters":6000,"station_id":"ce4bgt12rcd13ifvqcd0","pricing_plan_id":"cebpf4jnsgd1na2vs0mg"},{"bike_id":"a156d38d-c587-49b6-879d-43f4f5296b6d","system_id":"levelo_inurba_marseille","lat":43.26551,"lon":5.38999,"is_reserved":false,"is_disabled":true,"rental_uris":{"android":"levelo://app?vid=a156d38d-c587-49b6-879d-43f4f5296b6d","ios":"levelo://app?vid=a156d38d-c587-49b6-879d-43f4f5296b6d"},"vehicle_type_id":"4","last_reported":1742231308,"current_range_meters":6000,"station_id":"ce4bhe12rcd13ifvqf30","pricing_plan_id":"cebpf4jnsgd1na2vs0mg"},{"bike_id":"cfa7e782-dad6-4dd1-8c87-12f3d6075fb2","system_id":"levelo_inurba_marseille","lat":43.28159,"lon":5.42643,"is_reserved":false,"is_disabled":false,"rental_uris":{"android":"levelo://app?vid=cfa7e782-dad6-4dd1-8c87-12f3d6075fb2","ios":"levelo://app?vid=cfa7e782-dad6-4dd1-8c87-12f3d6075fb2"},"vehicle_type_id":"4","last_reported":1742231308,"current_range_meters":6400,"station_id":"ce4bhnh2rcd13ifvqgug","pricing_plan_id":"cebpf4jnsgd1na2vs0mg"},{"bike_id":"d68f26de-7501-47f2-90e2-0d330aa5f198","system_id":"levelo_inurba_marseille","lat":43.24168,"lon":5.36394,"is_reserved":false,"is_disabled":false,"rental_uris":{"android":"levelo://app?vid=d68f26de-7501-47f2-90e2-0d330aa5f198","ios":"levelo://app?vid=d68f26de-7501-47f2-90e2-0d330aa5f198"},"vehicle_type_id":"4","last_reported":1742231308,"current_range_meters":6400,"station_id":"cpo36qri1sfpv3e86is0","pricing_plan_id":"cebpf4jnsgd1na2vs0mg"},{"bike_id":"8acd17cc-8964-4ec0-8c3a-d00f99282917","system_id":"levelo_inurba_marseille","lat":43.28418,"lon":5.34984,"is_reserved":false,"is_disabled":false,"rental_uris":{"android":"levelo://app?vid=8acd17cc-8964-4ec0-8c3a-d00f99282917","ios":"levelo://app?vid=8acd17cc-8964-4ec0-8c3a-d00f99282917"},"vehicle_type_id":"4","last_reported":1742231308,"current_range_meters":6400,"station_id":"ce4bhbh2rcd13ifvqepg","pricing_plan_id":"cebpf4jnsgd1na2vs0mg"},{"bike_id":"320eb7fc-989b-455b-9c24-34f046488b02","system_id":"levelo_inurba_marseille","lat":43.297898,"lon":5.393514,"is_reserved":false,"is_disabled":false,"rental_uris":{"android":"levelo://app?vid=320eb7fc-989b-455b-9c24-34f046488b02","ios":"levelo://app?vid=320eb7fc-989b-455b-9c24-34f046488b02"},"vehicle_type_id":"4","last_reported":1742231308,"current_range_meters":6000,"station_id":"ce4bh112rcd13ifvqda0","pricing_plan_id":"cebpf4jnsgd1na2vs0mg"},{"bike_id":"e73d0753-9aa9-46b1-8170-3b016fdb8f9a","system_id":"levelo_inurba_marseille","lat":43.33023,"lon":5.39038,"is_reserved":false,"is_disabled":false,"rental_uris":{"android":"levelo://app?vid=e73d0753-9aa9-46b1-8170-3b016fdb8f9a","ios":"levelo://app?vid=e73d0753-9aa9-46b1-8170-3b016fdb8f9a"},"vehicle_type_id":"4","last_reported":1742231308,"current_range_meters":6000,"station_id":"ce4bhr92rcd13ifvqhrg","pricing_plan_id":"cebpf4jnsgd1na2vs0mg"},{"bike_id":"f31da457-6e9b-4ad6-be1d-5ffba7cbc733","system_id":"levelo_inurba_marseille","lat":43.24999,"lon":5.38944,"is_reserved":false,"is_disabled":false,"rental_uris":{"android":"levelo://app?vid=f31da457-6e9b-4ad6-be1d-5ffba7cbc733","ios":"levelo://app?vid=f31da457-6e9b-4ad6-be1d-5ffba7cbc733"},"vehicle_type_id":"4","last_reported":1742231308,"current_range_meters":6400,"station_id":"ce4bhgp2rcd13ifvqfd0","pricing_plan_id":"cebpf4jnsgd1na2vs0mg"},{"bike_id":"50bcbe03-8566-442f-baf0-cc555aa6f669","system_id":"levelo_inurba_marseille","lat":43.29043,"lon":5.35918,"is_reserved":false,"is_disabled":false,"rental_uris":{"android":"levelo://app?vid=50bcbe03-8566-442f-baf0-cc555aa6f669","ios":"levelo://app?vid=50bcbe03-8566-442f-baf0-cc555aa6f669"},"vehicle_type_id":"4","last_reported":1742231308,"current_range_meters":6400,"station_id":"ce4bha92rcd13ifvqeg0","pricing_plan_id":"cebpf4jnsgd1na2vs0mg"},{"bike_id":"9e2fcf04-35eb-4c39-98a4-f9f808ee3610","system_id":"levelo_inurba_marseille","lat":43.27841,"lon":5.39203,"is_reserved":false,"is_disabled":false,"rental_uris":{"android":"levelo://app?vid=9e2fcf04-35eb-4c39-98a4-f9f808ee3610","ios":"levelo://app?vid=9e2fcf04-35eb-4c39-98a4-f9f808ee3610"},"vehicle_type_id":"4","last_reported":1742231308,"current_range_meters":6400,"station_id":"ce4bhjp2rcd13ifvqga0","pricing_plan_id":"cebpf4jnsgd1na2vs0mg"},{"bike_id":"12f41082-42f1-4438-9dd6-d797caf490a8","system_id":"levelo_inurba_marseille","lat":43.26066,"lon":5.394,"is_reserved":false,"is_disabled":false,"rental_uris":{"android":"levelo://app?vid=12f41082-42f1-4438-9dd6-d797caf490a8","ios":"levelo://app?vid=12f41082-42f1-4438-9dd6-d797caf490a8"},"vehicle_type_id":"4","last_reported":1742231308,"current_range_meters":6000,"station_id":"ce4bhh92rcd13ifvqfj0","pricing_plan_id":"cebpf4jnsgd1na2vs0mg"},{"bike_id":"1f2ca29d-df46-4c07-80be-ce982efa349b","system_id":"levelo_inurba_marseille","lat":43.23074,"lon":5.35505,"is_reserved":false,"is_disabled":false,"rental_uris":{"android":"levelo://app?vid=1f2ca29d-df46-4c07-80be-ce982efa349b","ios":"levelo://app?vid=1f2ca29d-df46-4c07-80be-ce982efa349b"},"vehicle_type_id":"4","last_reported":1742231308,"current_range_meters":6400,"station_id":"cpo3342slgdg3j2ifvpg","pricing_plan_id":"cebpf4jnsgd1na2vs0mg"},{"bike_id":"2cad790d-8767-4dde-a366-83aeeac91662","system_id":"levelo_inurba_marseille","lat":43.24172,"lon":5.39717,"is_reserved":false,"is_disabled":false,"rental_uris":{"android":"levelo://app?vid=2cad790d-8767-4dde-a366-83aeeac91662","ios":"levelo://app?vid=2cad790d-8767-4dde-a366-83aeeac91662"},"vehicle_type_id":"4","last_reported":1742231308,"current_range_meters":6400,"station_id":"ce4bhn12rcd13ifvqgpg","pricing_plan_id":"cebpf4jnsgd1na2vs0mg"},{"bike_id":"d1e3ca98-a3c7-42c8-9393-f654bab6409d","system_id":"levelo_inurba_marseille","lat":43.2927,"lon":5.38424,"is_reserved":false,"is_disabled":false,"rental_uris":{"android":"levelo://app?vid=d1e3ca98-a3c7-42c8-9393-f654bab6409d","ios":"levelo://app?vid=d1e3ca98-a3c7-42c8-9393-f654bab6409d"},"vehicle_type_id":"4","last_reported":1742231308,"current_range_meters":6800,"station_id":"ce4bh692rcd13ifvqea0","pricing_plan_id":"cebpf4jnsgd1na2vs0mg"},{"bike_id":"d62841a2-6dc2-4a3c-a2b1-52e5b3d95014","system_id":"levelo_inurba_marseille","lat":43.26615,"lon":5.3901,"is_reserved":false,"is_disabled":false,"rental_uris":{"android":"levelo://app?vid=d62841a2-6dc2-4a3c-a2b1-52e5b3d95014","ios":"levelo://app?vid=d62841a2-6dc2-4a3c-a2b1-52e5b3d95014"},"vehicle_type_id":"4","last_reported":1742231308,"current_range_meters":6800,"station_id":"ce4bhe12rcd13ifvqf30","pricing_plan_id":"cebpf4jnsgd1na2vs0mg"},{"bike_id":"14cd229a-e82f-4d5d-bc54-5bd7b491925a","system_id":"levelo_inurba_marseille","lat":43.23204,"lon":5.4,"is_reserved":false,"is_disabled":false,"rental_uris":{"android":"levelo://app?vid=14cd229a-e82f-4d5d-bc54-5bd7b491925a","ios":"levelo://app?vid=14cd229a-e82f-4d5d-bc54-5bd7b491925a"},"vehicle_type_id":"4","last_reported":1742231308,"current_range_meters":6800,"station_id":"ce4bhn12rcd13ifvqgqg","pricing_plan_id":"cebpf4jnsgd1na2vs0mg"},{"bike_id":"1a2a8d34-656c-4965-b24b-00dd37b8dab6","system_id":"levelo_inurba_marseille","lat":43.26789,"lon":5.39415,"is_reserved":false,"is_disabled":false,"rental_uris":{"android":"levelo://app?vid=1a2a8d34-656c-4965-b24b-00dd37b8dab6","ios":"levelo://app?vid=1a2a8d34-656c-4965-b24b-00dd37b8dab6"},"vehicle_type_id":"4","last_reported":1742231308,"current_range_meters":6800,"station_id":"ce4bhh12rcd13ifvqfg0","pricing_plan_id":"cebpf4jnsgd1na2vs0mg"},{"bike_id":"1ed1b7a5-a58f-4ce1-a727-034accc88977","system_id":"levelo_inurba_marseille","lat":43.30107,"lon":5.39059,"is_reserved":false,"is_disabled":false,"rental_uris":{"android":"levelo://app?vid=1ed1b7a5-a58f-4ce1-a727-034accc88977","ios":"levelo://app?vid=1ed1b7a5-a58f-4ce1-a727-034accc88977"},"vehicle_type_id":"4","last_reported":1742231308,"current_range_meters":6800,"station_id":"ce4bh192rcd13ifvqdb0","pricing_plan_id":"cebpf4jnsgd1na2vs0mg"},{"bike_id":"8dcbc101-5389-472b-a198-ba4bb48d3885","system_id":"levelo_inurba_marseille","lat":43.27375,"lon":5.36261,"is_reserved":false,"is_disabled":false,"rental_uris":{"android":"levelo://app?vid=8dcbc101-5389-472b-a198-ba4bb48d3885","ios":"levelo://app?vid=8dcbc101-5389-472b-a198-ba4bb48d3885"},"vehicle_type_id":"4","last_reported":1742231308,"current_range_meters":6800,"station_id":"ce4bhbh2rcd13ifvqeo0","pricing_plan_id":"cebpf4jnsgd1na2vs0mg"},{"bike_id":"a1652038-ac69-46c1-96cf-f0a7292a55cd","system_id":"levelo_inurba_marseille","lat":43.28613,"lon":5.35109,"is_reserved":false,"is_disabled":false,"rental_uris":{"android":"levelo://app?vid=a1652038-ac69-46c1-96cf-f0a7292a55cd","ios":"levelo://app?vid=a1652038-ac69-46c1-96cf-f0a7292a55cd"},"vehicle_type_id":"4","last_reported":1742231308,"current_range_meters":6800,"station_id":"ce4bhch2rcd13ifvqeug","pricing_plan_id":"cebpf4jnsgd1na2vs0mg"},{"bike_id":"b29a0463-5e75-49d5-8955-7693d791a747","system_id":"levelo_inurba_marseille","lat":43.27626,"lon":5.36122,"is_reserved":false,"is_disabled":false,"rental_uris":{"android":"levelo://app?vid=b29a0463-5e75-49d5-8955-7693d791a747","ios":"levelo://app?vid=b29a0463-5e75-49d5-8955-7693d791a747"},"vehicle_type_id":"4","last_reported":1742231308,"current_range_meters":6800,"station_id":"ce4bgj92rcd13ifvqbe0","pricing_plan_id":"cebpf4jnsgd1na2vs0mg"},{"bike_id":"e278d90a-c6e8-45f9-89a3-4b872019b485","system_id":"levelo_inurba_marseille","lat":43.264121,"lon":5.40415,"is_reserved":false,"is_disabled":false,"rental_uris":{"android":"levelo://app?vid=e278d90a-c6e8-45f9-89a3-4b872019b485","ios":"levelo://app?vid=e278d90a-c6e8-45f9-89a3-4b872019b485"},"vehicle_type_id":"4","last_reported":1742231308,"current_range_meters":8800,"station_id":"ce4bhkp2rcd13ifvqgd0","pricing_plan_id":"cebpf4jnsgd1na2vs0mg"},{"bike_id":"f2816768-5b56-4970-8aff-fd76535fc240","system_id":"levelo_inurba_marseille","lat":43.27813,"lon":5.40715,"is_reserved":false,"is_disabled":false,"rental_uris":{"android":"levelo://app?vid=f2816768-5b56-4970-8aff-fd76535fc240","ios":"levelo://app?vid=f2816768-5b56-4970-8aff-fd76535fc240"},"vehicle_type_id":"4","last_reported":1742231308,"current_range_meters":7200,"station_id":"ce4bhnh2rcd13ifvqgtg","pricing_plan_id":"cebpf4jnsgd1na2vs0mg"},{"bike_id":"20d1554b-2679-4742-bc27-4522fdac34cd","system_id":"levelo_inurba_marseille","lat":43.29171,"lon":5.37151,"is_reserved":false,"is_disabled":false,"rental_uris":{"android":"levelo://app?vid=20d1554b-2679-4742-bc27-4522fdac34cd","ios":"levelo://app?vid=20d1554b-2679-4742-bc27-4522fdac34cd"},"vehicle_type_id":"4","last_reported":1742231308,"current_range_meters":7200,"station_id":"ce4bha92rcd13ifvqeh0","pricing_plan_id":"cebpf4jnsgd1na2vs0mg"},{"bike_id":"cd6bd228-ec34-418f-8538-14abbf44a6a3","system_id":"levelo_inurba_marseille","lat":43.31978,"lon":5.37444,"is_reserved":false,"is_disabled":false,"rental_uris":{"android":"levelo://app?vid=cd6bd228-ec34-418f-8538-14abbf44a6a3","ios":"levelo://app?vid=cd6bd228-ec34-418f-8538-14abbf44a6a3"},"vehicle_type_id":"4","last_reported":1742231308,"current_range_meters":7200,"station_id":"","pricing_plan_id":"cebpf4jnsgd1na2vs0mg"},{"bike_id":"8a944509-44d6-4e18-8b26-ca2048bbb5af","system_id":"levelo_inurba_marseille","lat":43.26204,"lon":5.37931,"is_reserved":false,"is_disabled":false,"rental_uris":{"android":"levelo://app?vid=8a944509-44d6-4e18-8b26-ca2048bbb5af","ios":"levelo://app?vid=8a944509-44d6-4e18-8b26-ca2048bbb5af"},"vehicle_type_id":"4","last_reported":1742231308,"current_range_meters":6800,"station_id":"ce4bhjp2rcd13ifvqg90","pricing_plan_id":"cebpf4jnsgd1na2vs0mg"},{"bike_id":"abd48a52-c8cc-4abb-a801-8dce64155a4a","system_id":"levelo_inurba_marseille","lat":43.24998,"lon":5.38945,"is_reserved":false,"is_disabled":false,"rental_uris":{"android":"levelo://app?vid=abd48a52-c8cc-4abb-a801-8dce64155a4a","ios":"levelo://app?vid=abd48a52-c8cc-4abb-a801-8dce64155a4a"},"vehicle_type_id":"4","last_reported":1742231308,"current_range_meters":7200,"station_id":"ce4bhgp2rcd13ifvqfd0","pricing_plan_id":"cebpf4jnsgd1na2vs0mg"},{"bike_id":"e39f083d-4542-4f7b-9173-1e8fe9e09597","system_id":"levelo_inurba_marseille","lat":43.27513,"lon":5.42483,"is_reserved":false,"is_disabled":true,"rental_uris":{"android":"levelo://app?vid=e39f083d-4542-4f7b-9173-1e8fe9e09597","ios":"levelo://app?vid=e39f083d-4542-4f7b-9173-1e8fe9e09597"},"vehicle_type_id":"4","last_reported":1742231308,"current_range_meters":7200,"station_id":"ce4bhn92rcd13ifvqgrg","pricing_plan_id":"cebpf4jnsgd1na2vs0mg"},{"bike_id":"a36a2d40-981c-4d6f-9c4d-e1e4b933ee41","system_id":"levelo_inurba_marseille","lat":43.31271,"lon":5.40178,"is_reserved":false,"is_disabled":false,"rental_uris":{"android":"levelo://app?vid=a36a2d40-981c-4d6f-9c4d-e1e4b933ee41","ios":"levelo://app?vid=a36a2d40-981c-4d6f-9c4d-e1e4b933ee41"},"vehicle_type_id":"4","last_reported":1742231308,"current_range_meters":6800,"station_id":"ce4bh092rcd13ifvqd30","pricing_plan_id":"cebpf4jnsgd1na2vs0mg"},{"bike_id":"91e83f9b-b615-452a-9892-29769b3c4789","system_id":"levelo_inurba_marseille","lat":43.28446,"lon":5.39204,"is_reserved":false,"is_disabled":false,"rental_uris":{"android":"levelo://app?vid=91e83f9b-b615-452a-9892-29769b3c4789","ios":"levelo://app?vid=91e83f9b-b615-452a-9892-29769b3c4789"},"vehicle_type_id":"4","last_reported":1742231308,"current_range_meters":7200,"station_id":"ce4bhoh2rcd13ifvqh5g","pricing_plan_id":"cebpf4jnsgd1na2vs0mg"},{"bike_id":"a561f3af-dc1c-4af4-b9a4-ead55b35e495","system_id":"levelo_inurba_marseille","lat":43.23192,"lon":5.35555,"is_reserved":false,"is_disabled":false,"rental_uris":{"android":"levelo://app?vid=a561f3af-dc1c-4af4-b9a4-ead55b35e495","ios":"levelo://app?vid=a561f3af-dc1c-4af4-b9a4-ead55b35e495"},"vehicle_type_id":"4","last_reported":1742231308,"current_range_meters":7200,"station_id":"ce4bhu92rcd13ifvqi70","pricing_plan_id":"cebpf4jnsgd1na2vs0mg"},{"bike_id":"74620aff-b1f0-4b60-8841-bc8a0a2edc3e","system_id":"levelo_inurba_marseille","lat":43.23193,"lon":5.35552,"is_reserved":false,"is_disabled":false,"rental_uris":{"android":"levelo://app?vid=74620aff-b1f0-4b60-8841-bc8a0a2edc3e","ios":"levelo://app?vid=74620aff-b1f0-4b60-8841-bc8a0a2edc3e"},"vehicle_type_id":"4","last_reported":1742231308,"current_range_meters":8000,"station_id":"ce4bhu92rcd13ifvqi70","pricing_plan_id":"cebpf4jnsgd1na2vs0mg"},{"bike_id":"80d42908-7f63-46b2-8311-71239d85492c","system_id":"levelo_inurba_marseille","lat":43.30422,"lon":5.41283,"is_reserved":false,"is_disabled":false,"rental_uris":{"android":"levelo://app?vid=80d42908-7f63-46b2-8311-71239d85492c","ios":"levelo://app?vid=80d42908-7f63-46b2-8311-71239d85492c"},"vehicle_type_id":"4","last_reported":1742231308,"current_range_meters":8000,"station_id":"ce4bhop2rcd13ifvqh8g","pricing_plan_id":"cebpf4jnsgd1na2vs0mg"},{"bike_id":"ef9b20c2-24a5-462d-8f71-a0b89cbc915f","system_id":"levelo_inurba_marseille","lat":43.2604,"lon":5.41755,"is_reserved":false,"is_disabled":false,"rental_uris":{"android":"levelo://app?vid=ef9b20c2-24a5-462d-8f71-a0b89cbc915f","ios":"levelo://app?vid=ef9b20c2-24a5-462d-8f71-a0b89cbc915f"},"vehicle_type_id":"4","last_reported":1742231308,"current_range_meters":8000,"station_id":"","pricing_plan_id":"cebpf4jnsgd1na2vs0mg"},{"bike_id":"17c7755e-ec60-47be-bd8e-6d1d3ff9c344","system_id":"levelo_inurba_marseille","lat":43.29171,"lon":5.37166,"is_reserved":false,"is_disabled":false,"rental_uris":{"android":"levelo://app?vid=17c7755e-ec60-47be-bd8e-6d1d3ff9c344","ios":"levelo://app?vid=17c7755e-ec60-47be-bd8e-6d1d3ff9c344"},"vehicle_type_id":"4","last_reported":1742231308,"current_range_meters":8000,"station_id":"ce4bha92rcd13ifvqeh0","pricing_plan_id":"cebpf4jnsgd1na2vs0mg"},{"bike_id":"2fe6b5d4-c6f7-40d2-9a0b-4798d57f392b","system_id":"levelo_inurba_marseille","lat":43.23062,"lon":5.3549,"is_reserved":false,"is_disabled":false,"rental_uris":{"android":"levelo://app?vid=2fe6b5d4-c6f7-40d2-9a0b-4798d57f392b","ios":"levelo://app?vid=2fe6b5d4-c6f7-40d2-9a0b-4798d57f392b"},"vehicle_type_id":"4","last_reported":1742231308,"current_range_meters":8000,"station_id":"cpo3342slgdg3j2ifvpg","pricing_plan_id":"cebpf4jnsgd1na2vs0mg"},{"bike_id":"eb2324ae-6d73-4dfe-93dc-cd4f0dffd928","system_id":"levelo_inurba_marseille","lat":43.27987,"lon":5.4166,"is_reserved":false,"is_disabled":false,"rental_uris":{"android":"levelo://app?vid=eb2324ae-6d73-4dfe-93dc-cd4f0dffd928","ios":"levelo://app?vid=eb2324ae-6d73-4dfe-93dc-cd4f0dffd928"},"vehicle_type_id":"4","last_reported":1742231308,"current_range_meters":8000,"station_id":"ce4bho12rcd13ifvqh1g","pricing_plan_id":"cebpf4jnsgd1na2vs0mg"},{"bike_id":"c483a682-e751-4f8c-bf03-eebb9f81e26c","system_id":"levelo_inurba_marseille","lat":43.26489,"lon":5.3955,"is_reserved":false,"is_disabled":false,"rental_uris":{"android":"levelo://app?vid=c483a682-e751-4f8c-bf03-eebb9f81e26c","ios":"levelo://app?vid=c483a682-e751-4f8c-bf03-eebb9f81e26c"},"vehicle_type_id":"4","last_reported":1742231308,"current_range_meters":8000,"station_id":"ce4bhi12rcd13ifvqfq0","pricing_plan_id":"cebpf4jnsgd1na2vs0mg"},{"bike_id":"6bbfabc7-b433-4a0f-a690-761ea544a166","system_id":"levelo_inurba_marseille","lat":43.29057,"lon":5.35909,"is_reserved":false,"is_disabled":false,"rental_uris":{"android":"levelo://app?vid=6bbfabc7-b433-4a0f-a690-761ea544a166","ios":"levelo://app?vid=6bbfabc7-b433-4a0f-a690-761ea544a166"},"vehicle_type_id":"4","last_reported":1742231308,"current_range_meters":7200,"station_id":"ce4bha92rcd13ifvqeg0","pricing_plan_id":"cebpf4jnsgd1na2vs0mg"},{"bike_id":"021238b5-2b9d-46d2-b80c-a5e816fdc135","system_id":"levelo_inurba_marseille","lat":43.2952,"lon":5.42485,"is_reserved":false,"is_disabled":false,"rental_uris":{"android":"levelo://app?vid=021238b5-2b9d-46d2-b80c-a5e816fdc135","ios":"levelo://app?vid=021238b5-2b9d-46d2-b80c-a5e816fdc135"},"vehicle_type_id":"4","last_reported":1742231308,"current_range_meters":8000,"station_id":"","pricing_plan_id":"cebpf4jnsgd1na2vs0mg"},{"bike_id":"51835b8a-18d7-488d-8e74-f8d1a63073a4","system_id":"levelo_inurba_marseille","lat":43.291992,"lon":5.358083,"is_reserved":false,"is_disabled":false,"rental_uris":{"android":"levelo://app?vid=51835b8a-18d7-488d-8e74-f8d1a63073a4","ios":"levelo://app?vid=51835b8a-18d7-488d-8e74-f8d1a63073a4"},"vehicle_type_id":"4","last_reported":1742231308,"current_range_meters":8000,"station_id":"ce4bgip2rcd13ifvqbb0","pricing_plan_id":"cebpf4jnsgd1na2vs0mg"},{"bike_id":"4a82e9fa-897e-4db9-9848-eca7bdecdfdc","system_id":"levelo_inurba_marseille","lat":43.27917,"lon":5.38239,"is_reserved":false,"is_disabled":false,"rental_uris":{"android":"levelo://app?vid=4a82e9fa-897e-4db9-9848-eca7bdecdfdc","ios":"levelo://app?vid=4a82e9fa-897e-4db9-9848-eca7bdecdfdc"},"vehicle_type_id":"4","last_reported":1742231308,"current_range_meters":8000,"station_id":"","pricing_plan_id":"cebpf4jnsgd1na2vs0mg"},{"bike_id":"7b867de2-87d2-41b7-a155-c5f98f12245f","system_id":"levelo_inurba_marseille","lat":43.29843,"lon":5.36274,"is_reserved":false,"is_disabled":false,"rental_uris":{"android":"levelo://app?vid=7b867de2-87d2-41b7-a155-c5f98f12245f","ios":"levelo://app?vid=7b867de2-87d2-41b7-a155-c5f98f12245f"},"vehicle_type_id":"4","last_reported":1742231308,"current_range_meters":8000,"station_id":"ce4bgpp2rcd13ifvqc3g","pricing_plan_id":"cebpf4jnsgd1na2vs0mg"},{"bike_id":"6b8ffa9f-0e09-4bfb-a7c9-f730a8d18a65","system_id":"levelo_inurba_marseille","lat":43.24408,"lon":5.37053,"is_reserved":false,"is_disabled":false,"rental_uris":{"android":"levelo://app?vid=6b8ffa9f-0e09-4bfb-a7c9-f730a8d18a65","ios":"levelo://app?vid=6b8ffa9f-0e09-4bfb-a7c9-f730a8d18a65"},"vehicle_type_id":"4","last_reported":1742231308,"current_range_meters":8000,"station_id":"ce4bhhh2rcd13ifvqfk0","pricing_plan_id":"cebpf4jnsgd1na2vs0mg"},{"bike_id":"2b7011fc-7dee-42c2-86d6-7293fa23c29b","system_id":"levelo_inurba_marseille","lat":43.286136,"lon":5.35108,"is_reserved":false,"is_disabled":true,"rental_uris":{"android":"levelo://app?vid=2b7011fc-7dee-42c2-86d6-7293fa23c29b","ios":"levelo://app?vid=2b7011fc-7dee-42c2-86d6-7293fa23c29b"},"vehicle_type_id":"4","last_reported":1742231308,"current_range_meters":8000,"station_id":"","pricing_plan_id":"cebpf4jnsgd1na2vs0mg"},{"bike_id":"63234c60-eee1-4701-a076-b2fc8d33cf5d","system_id":"levelo_inurba_marseille","lat":43.279107,"lon":5.395814,"is_reserved":false,"is_disabled":false,"rental_uris":{"android":"levelo://app?vid=63234c60-eee1-4701-a076-b2fc8d33cf5d","ios":"levelo://app?vid=63234c60-eee1-4701-a076-b2fc8d33cf5d"},"vehicle_type_id":"4","last_reported":1742231308,"current_range_meters":8000,"station_id":"ce4bh392rcd13ifvqdl0","pricing_plan_id":"cebpf4jnsgd1na2vs0mg"},{"bike_id":"e1395652-2154-45e2-929e-f73f87a77b1d","system_id":"levelo_inurba_marseille","lat":43.23152,"lon":5.43716,"is_reserved":false,"is_disabled":false,"rental_uris":{"android":"levelo://app?vid=e1395652-2154-45e2-929e-f73f87a77b1d","ios":"levelo://app?vid=e1395652-2154-45e2-929e-f73f87a77b1d"},"vehicle_type_id":"4","last_reported":1742231308,"current_range_meters":8400,"station_id":"ce4bhmp2rcd13ifvqgog","pricing_plan_id":"cebpf4jnsgd1na2vs0mg"},{"bike_id":"6439c0ed-2e8f-4747-8137-3ddb912f5ee4","system_id":"levelo_inurba_marseille","lat":43.29185,"lon":5.35809,"is_reserved":false,"is_disabled":false,"rental_uris":{"android":"levelo://app?vid=6439c0ed-2e8f-4747-8137-3ddb912f5ee4","ios":"levelo://app?vid=6439c0ed-2e8f-4747-8137-3ddb912f5ee4"},"vehicle_type_id":"4","last_reported":1742231308,"current_range_meters":8400,"station_id":"ce4bhb12rcd13ifvqel0","pricing_plan_id":"cebpf4jnsgd1na2vs0mg"},{"bike_id":"9dcb622a-e621-4cef-b659-02a845217b91","system_id":"levelo_inurba_marseille","lat":43.3237,"lon":5.38895,"is_reserved":false,"is_disabled":false,"rental_uris":{"android":"levelo://app?vid=9dcb622a-e621-4cef-b659-02a845217b91","ios":"levelo://app?vid=9dcb622a-e621-4cef-b659-02a845217b91"},"vehicle_type_id":"4","last_reported":1742231308,"current_range_meters":8400,"station_id":"ce4bhqp2rcd13ifvqhog","pricing_plan_id":"cebpf4jnsgd1na2vs0mg"},{"bike_id":"b0d4f5f0-79ce-4a3f-92ac-2959ecb2dee0","system_id":"levelo_inurba_marseille","lat":43.33046,"lon":5.39039,"is_reserved":false,"is_disabled":false,"rental_uris":{"android":"levelo://app?vid=b0d4f5f0-79ce-4a3f-92ac-2959ecb2dee0","ios":"levelo://app?vid=b0d4f5f0-79ce-4a3f-92ac-2959ecb2dee0"},"vehicle_type_id":"4","last_reported":1742231308,"current_range_meters":8400,"station_id":"ce4bhr92rcd13ifvqhrg","pricing_plan_id":"cebpf4jnsgd1na2vs0mg"},{"bike_id":"676274a4-3442-4394-935a-0d9c834c7496","system_id":"levelo_inurba_marseille","lat":43.31712,"lon":5.40458,"is_reserved":false,"is_disabled":false,"rental_uris":{"android":"levelo://app?vid=676274a4-3442-4394-935a-0d9c834c7496","ios":"levelo://app?vid=676274a4-3442-4394-935a-0d9c834c7496"},"vehicle_type_id":"4","last_reported":1742231308,"current_range_meters":8400,"station_id":"ce4bh012rcd13ifvqd00","pricing_plan_id":"cebpf4jnsgd1na2vs0mg"},{"bike_id":"9ee8265a-0fdc-4849-933f-8351e6c3b1de","system_id":"levelo_inurba_marseille","lat":43.23194,"lon":5.40002,"is_reserved":false,"is_disabled":false,"rental_uris":{"android":"levelo://app?vid=9ee8265a-0fdc-4849-933f-8351e6c3b1de","ios":"levelo://app?vid=9ee8265a-0fdc-4849-933f-8351e6c3b1de"},"vehicle_type_id":"4","last_reported":1742231308,"current_range_meters":8400,"station_id":"ce4bhn12rcd13ifvqgqg","pricing_plan_id":"cebpf4jnsgd1na2vs0mg"},{"bike_id":"0a018086-283c-4259-a1ff-a9304b066761","system_id":"levelo_inurba_marseille","lat":43.25029,"lon":5.38939,"is_reserved":false,"is_disabled":false,"rental_uris":{"android":"levelo://app?vid=0a018086-283c-4259-a1ff-a9304b066761","ios":"levelo://app?vid=0a018086-283c-4259-a1ff-a9304b066761"},"vehicle_type_id":"4","last_reported":1742231308,"current_range_meters":8400,"station_id":"ce4bhgp2rcd13ifvqfd0","pricing_plan_id":"cebpf4jnsgd1na2vs0mg"},{"bike_id":"cdd394cb-39cc-41e2-8964-0d256c8181bd","system_id":"levelo_inurba_marseille","lat":43.29747,"lon":5.37682,"is_reserved":false,"is_disabled":false,"rental_uris":{"android":"levelo://app?vid=cdd394cb-39cc-41e2-8964-0d256c8181bd","ios":"levelo://app?vid=cdd394cb-39cc-41e2-8964-0d256c8181bd"},"vehicle_type_id":"4","last_reported":1742231308,"current_range_meters":8000,"station_id":"ce4bgkh2rcd13ifvqbl0","pricing_plan_id":"cebpf4jnsgd1na2vs0mg"},{"bike_id":"0d126537-def7-47c3-bba6-892f83e3c00f","system_id":"levelo_inurba_marseille","lat":43.25003,"lon":5.38934,"is_reserved":false,"is_disabled":false,"rental_uris":{"android":"levelo://app?vid=0d126537-def7-47c3-bba6-892f83e3c00f","ios":"levelo://app?vid=0d126537-def7-47c3-bba6-892f83e3c00f"},"vehicle_type_id":"4","last_reported":1742231308,"current_range_meters":8800,"station_id":"ce4bhgp2rcd13ifvqfd0","pricing_plan_id":"cebpf4jnsgd1na2vs0mg"},{"bike_id":"644fc9d7-6c57-445e-9bd2-b544456d162b","system_id":"levelo_inurba_marseille","lat":43.255064,"lon":5.376336,"is_reserved":false,"is_disabled":false,"rental_uris":{"android":"levelo://app?vid=644fc9d7-6c57-445e-9bd2-b544456d162b","ios":"levelo://app?vid=644fc9d7-6c57-445e-9bd2-b544456d162b"},"vehicle_type_id":"4","last_reported":1742231308,"current_range_meters":8400,"station_id":"ce4bhh12rcd13ifvqff0","pricing_plan_id":"cebpf4jnsgd1na2vs0mg"},{"bike_id":"e8e16802-e446-4da0-b393-51fb151037de","system_id":"levelo_inurba_marseille","lat":43.29519,"lon":5.39055,"is_reserved":false,"is_disabled":false,"rental_uris":{"android":"levelo://app?vid=e8e16802-e446-4da0-b393-51fb151037de","ios":"levelo://app?vid=e8e16802-e446-4da0-b393-51fb151037de"},"vehicle_type_id":"4","last_reported":1742231308,"current_range_meters":8800,"station_id":"ce4bh3p2rcd13ifvqdp0","pricing_plan_id":"cebpf4jnsgd1na2vs0mg"},{"bike_id":"46b9316d-f407-4ce2-b383-a1d07a7a24a8","system_id":"levelo_inurba_marseille","lat":43.28155,"lon":5.4264,"is_reserved":false,"is_disabled":false,"rental_uris":{"android":"levelo://app?vid=46b9316d-f407-4ce2-b383-a1d07a7a24a8","ios":"levelo://app?vid=46b9316d-f407-4ce2-b383-a1d07a7a24a8"},"vehicle_type_id":"4","last_reported":1742231308,"current_range_meters":8800,"station_id":"ce4bhnh2rcd13ifvqgug","pricing_plan_id":"cebpf4jnsgd1na2vs0mg"},{"bike_id":"ba22b769-c7e4-474a-a7e5-3ff558251ffd","system_id":"levelo_inurba_marseille","lat":43.25582,"lon":5.3825,"is_reserved":false,"is_disabled":false,"rental_uris":{"android":"levelo://app?vid=ba22b769-c7e4-474a-a7e5-3ff558251ffd","ios":"levelo://app?vid=ba22b769-c7e4-474a-a7e5-3ff558251ffd"},"vehicle_type_id":"4","last_reported":1742231308,"current_range_meters":8800,"station_id":"ce4bhih2rcd13ifvqfs0","pricing_plan_id":"cebpf4jnsgd1na2vs0mg"},{"bike_id":"285916f8-2592-4c2f-a06e-5a1f71613048","system_id":"levelo_inurba_marseille","lat":43.287042,"lon":5.399931,"is_reserved":false,"is_disabled":false,"rental_uris":{"android":"levelo://app?vid=285916f8-2592-4c2f-a06e-5a1f71613048","ios":"levelo://app?vid=285916f8-2592-4c2f-a06e-5a1f71613048"},"vehicle_type_id":"4","last_reported":1742231308,"current_range_meters":8800,"station_id":"ce4bho92rcd13ifvqh3g","pricing_plan_id":"cebpf4jnsgd1na2vs0mg"},{"bike_id":"9d786460-ccae-4fca-9599-0554824be9f3","system_id":"levelo_inurba_marseille","lat":43.30318,"lon":5.39205,"is_reserved":false,"is_disabled":false,"rental_uris":{"android":"levelo://app?vid=9d786460-ccae-4fca-9599-0554824be9f3","ios":"levelo://app?vid=9d786460-ccae-4fca-9599-0554824be9f3"},"vehicle_type_id":"4","last_reported":1742231308,"current_range_meters":8800,"station_id":"ce4bgkh2rcd13ifvqbk0","pricing_plan_id":"cebpf4jnsgd1na2vs0mg"},{"bike_id":"dd117a7c-a536-40a1-91af-43693b0b8fe5","system_id":"levelo_inurba_marseille","lat":43.2593,"lon":5.40895,"is_reserved":false,"is_disabled":false,"rental_uris":{"android":"levelo://app?vid=dd117a7c-a536-40a1-91af-43693b0b8fe5","ios":"levelo://app?vid=dd117a7c-a536-40a1-91af-43693b0b8fe5"},"vehicle_type_id":"4","last_reported":1742231308,"current_range_meters":8800,"station_id":"ce4bhm92rcd13ifvqglg","pricing_plan_id":"cebpf4jnsgd1na2vs0mg"},{"bike_id":"5e31fbed-d4b7-49e5-97ef-d23adbdbc443","system_id":"levelo_inurba_marseille","lat":43.25715,"lon":5.41117,"is_reserved":false,"is_disabled":false,"rental_uris":{"android":"levelo://app?vid=5e31fbed-d4b7-49e5-97ef-d23adbdbc443","ios":"levelo://app?vid=5e31fbed-d4b7-49e5-97ef-d23adbdbc443"},"vehicle_type_id":"4","last_reported":1742231308,"current_range_meters":8800,"station_id":"ce4bhkp2rcd13ifvqgd0","pricing_plan_id":"cebpf4jnsgd1na2vs0mg"},{"bike_id":"c610338b-0008-4d1e-8a0a-c61418d52eac","system_id":"levelo_inurba_marseille","lat":43.3109,"lon":5.42434,"is_reserved":false,"is_disabled":false,"rental_uris":{"android":"levelo://app?vid=c610338b-0008-4d1e-8a0a-c61418d52eac","ios":"levelo://app?vid=c610338b-0008-4d1e-8a0a-c61418d52eac"},"vehicle_type_id":"4","last_reported":1742231308,"current_range_meters":8800,"station_id":"ce4bhp92rcd13ifvqhag","pricing_plan_id":"cebpf4jnsgd1na2vs0mg"},{"bike_id":"53442fe7-de68-45d4-9150-aea310bd7291","system_id":"levelo_inurba_marseille","lat":43.23153,"lon":5.4372,"is_reserved":false,"is_disabled":false,"rental_uris":{"android":"levelo://app?vid=53442fe7-de68-45d4-9150-aea310bd7291","ios":"levelo://app?vid=53442fe7-de68-45d4-9150-aea310bd7291"},"vehicle_type_id":"4","last_reported":1742231308,"current_range_meters":9200,"station_id":"ce4bhmp2rcd13ifvqgog","pricing_plan_id":"cebpf4jnsgd1na2vs0mg"},{"bike_id":"c9b860cb-cbe4-476d-a2c2-a181f8bf47a9","system_id":"levelo_inurba_marseille","lat":43.27997,"lon":5.40016,"is_reserved":false,"is_disabled":false,"rental_uris":{"android":"levelo://app?vid=c9b860cb-cbe4-476d-a2c2-a181f8bf47a9","ios":"levelo://app?vid=c9b860cb-cbe4-476d-a2c2-a181f8bf47a9"},"vehicle_type_id":"4","last_reported":1742231308,"current_range_meters":9200,"station_id":"ce4bho92rcd13ifvqh4g","pricing_plan_id":"cebpf4jnsgd1na2vs0mg"},{"bike_id":"73ba6054-b256-49f9-a881-8617a962027d","system_id":"levelo_inurba_marseille","lat":43.23054,"lon":5.35497,"is_reserved":false,"is_disabled":false,"rental_uris":{"android":"levelo://app?vid=73ba6054-b256-49f9-a881-8617a962027d","ios":"levelo://app?vid=73ba6054-b256-49f9-a881-8617a962027d"},"vehicle_type_id":"4","last_reported":1742231308,"current_range_meters":9200,"station_id":"cpo3342slgdg3j2ifvpg","pricing_plan_id":"cebpf4jnsgd1na2vs0mg"},{"bike_id":"e95151cd-abc4-4dae-8ab5-1de4cba734f5","system_id":"levelo_inurba_marseille","lat":43.24253,"lon":5.39744,"is_reserved":false,"is_disabled":false,"rental_uris":{"android":"levelo://app?vid=e95151cd-abc4-4dae-8ab5-1de4cba734f5","ios":"levelo://app?vid=e95151cd-abc4-4dae-8ab5-1de4cba734f5"},"vehicle_type_id":"4","last_reported":1742231308,"current_range_meters":9200,"station_id":"ce4bhn12rcd13ifvqgpg","pricing_plan_id":"cebpf4jnsgd1na2vs0mg"},{"bike_id":"fa5f15ab-8994-45e1-84de-31aa4c8b3ced","system_id":"levelo_inurba_marseille","lat":43.23186,"lon":5.35569,"is_reserved":false,"is_disabled":false,"rental_uris":{"android":"levelo://app?vid=fa5f15ab-8994-45e1-84de-31aa4c8b3ced","ios":"levelo://app?vid=fa5f15ab-8994-45e1-84de-31aa4c8b3ced"},"vehicle_type_id":"4","last_reported":1742231308,"current_range_meters":9200,"station_id":"ce4bhu92rcd13ifvqi70","pricing_plan_id":"cebpf4jnsgd1na2vs0mg"},{"bike_id":"b54a649d-2707-4569-87ee-d2c230e19409","system_id":"levelo_inurba_marseille","lat":43.27469,"lon":5.4091,"is_reserved":false,"is_disabled":false,"rental_uris":{"android":"levelo://app?vid=b54a649d-2707-4569-87ee-d2c230e19409","ios":"levelo://app?vid=b54a649d-2707-4569-87ee-d2c230e19409"},"vehicle_type_id":"4","last_reported":1742231308,"current_range_meters":9200,"station_id":"","pricing_plan_id":"cebpf4jnsgd1na2vs0mg"},{"bike_id":"1ecb9fc8-c55f-4906-a6b3-3b2b095fb135","system_id":"levelo_inurba_marseille","lat":43.29585,"lon":5.42309,"is_reserved":false,"is_disabled":false,"rental_uris":{"android":"levelo://app?vid=1ecb9fc8-c55f-4906-a6b3-3b2b095fb135","ios":"levelo://app?vid=1ecb9fc8-c55f-4906-a6b3-3b2b095fb135"},"vehicle_type_id":"4","last_reported":1742231308,"current_range_meters":9200,"station_id":"ce4bhph2rcd13ifvqhdg","pricing_plan_id":"cebpf4jnsgd1na2vs0mg"},{"bike_id":"9b4044b9-a073-4c83-980a-fa6ed0189d7d","system_id":"levelo_inurba_marseille","lat":43.27812,"lon":5.40712,"is_reserved":false,"is_disabled":false,"rental_uris":{"android":"levelo://app?vid=9b4044b9-a073-4c83-980a-fa6ed0189d7d","ios":"levelo://app?vid=9b4044b9-a073-4c83-980a-fa6ed0189d7d"},"vehicle_type_id":"4","last_reported":1742231308,"current_range_meters":9200,"station_id":"ce4bhnh2rcd13ifvqgtg","pricing_plan_id":"cebpf4jnsgd1na2vs0mg"},{"bike_id":"79396a03-2fb5-40d2-83a8-0a00610d489d","system_id":"levelo_inurba_marseille","lat":43.28107,"lon":5.37839,"is_reserved":false,"is_disabled":false,"rental_uris":{"android":"levelo://app?vid=79396a03-2fb5-40d2-83a8-0a00610d489d","ios":"levelo://app?vid=79396a03-2fb5-40d2-83a8-0a00610d489d"},"vehicle_type_id":"4","last_reported":1742231308,"current_range_meters":11200,"station_id":"ce4bha12rcd13ifvqee0","pricing_plan_id":"cebpf4jnsgd1na2vs0mg"},{"bike_id":"93b86a84-e445-4da1-99d8-e0a98c4289ea","system_id":"levelo_inurba_marseille","lat":43.297729,"lon":5.381012,"is_reserved":false,"is_disabled":false,"rental_uris":{"android":"levelo://app?vid=93b86a84-e445-4da1-99d8-e0a98c4289ea","ios":"levelo://app?vid=93b86a84-e445-4da1-99d8-e0a98c4289ea"},"vehicle_type_id":"4","last_reported":1742231308,"current_range_meters":9600,"station_id":"ce4bgip2rcd13ifvqbb0","pricing_plan_id":"cebpf4jnsgd1na2vs0mg"},{"bike_id":"6d8e8090-a4c7-4966-a3f4-a833922b9e5a","system_id":"levelo_inurba_marseille","lat":43.23189,"lon":5.35578,"is_reserved":false,"is_disabled":false,"rental_uris":{"android":"levelo://app?vid=6d8e8090-a4c7-4966-a3f4-a833922b9e5a","ios":"levelo://app?vid=6d8e8090-a4c7-4966-a3f4-a833922b9e5a"},"vehicle_type_id":"4","last_reported":1742231308,"current_range_meters":9600,"station_id":"ce4bhu92rcd13ifvqi70","pricing_plan_id":"cebpf4jnsgd1na2vs0mg"},{"bike_id":"d155b6d7-4f04-4869-a663-a1baa5b8f97e","system_id":"levelo_inurba_marseille","lat":43.23205,"lon":5.35595,"is_reserved":false,"is_disabled":false,"rental_uris":{"android":"levelo://app?vid=d155b6d7-4f04-4869-a663-a1baa5b8f97e","ios":"levelo://app?vid=d155b6d7-4f04-4869-a663-a1baa5b8f97e"},"vehicle_type_id":"4","last_reported":1742231308,"current_range_meters":9600,"station_id":"ce4bhu92rcd13ifvqi70","pricing_plan_id":"cebpf4jnsgd1na2vs0mg"},{"bike_id":"d0ecd06f-b344-485c-8550-9fa5bf448f53","system_id":"levelo_inurba_marseille","lat":43.25823,"lon":5.39426,"is_reserved":false,"is_disabled":false,"rental_uris":{"android":"levelo://app?vid=d0ecd06f-b344-485c-8550-9fa5bf448f53","ios":"levelo://app?vid=d0ecd06f-b344-485c-8550-9fa5bf448f53"},"vehicle_type_id":"4","last_reported":1742231308,"current_range_meters":9600,"station_id":"ce4bhip2rcd13ifvqft0","pricing_plan_id":"cebpf4jnsgd1na2vs0mg"},{"bike_id":"68c57267-0826-45b1-820f-19fbd105c8f5","system_id":"levelo_inurba_marseille","lat":43.25503,"lon":5.37647,"is_reserved":false,"is_disabled":false,"rental_uris":{"android":"levelo://app?vid=68c57267-0826-45b1-820f-19fbd105c8f5","ios":"levelo://app?vid=68c57267-0826-45b1-820f-19fbd105c8f5"},"vehicle_type_id":"4","last_reported":1742231308,"current_range_meters":9600,"station_id":"ce4bhh12rcd13ifvqff0","pricing_plan_id":"cebpf4jnsgd1na2vs0mg"},{"bike_id":"aff748b5-8d9a-4b8a-a24f-7f36925fd180","system_id":"levelo_inurba_marseille","lat":43.29777,"lon":5.37112,"is_reserved":false,"is_disabled":false,"rental_uris":{"android":"levelo://app?vid=aff748b5-8d9a-4b8a-a24f-7f36925fd180","ios":"levelo://app?vid=aff748b5-8d9a-4b8a-a24f-7f36925fd180"},"vehicle_type_id":"4","last_reported":1742231308,"current_range_meters":9600,"station_id":"ce4bgop2rcd13ifvqc1g","pricing_plan_id":"cebpf4jnsgd1na2vs0mg"},{"bike_id":"a1f1dffa-c5de-415a-815e-7e9916587d61","system_id":"levelo_inurba_marseille","lat":43.274,"lon":5.36249,"is_reserved":false,"is_disabled":false,"rental_uris":{"android":"levelo://app?vid=a1f1dffa-c5de-415a-815e-7e9916587d61","ios":"levelo://app?vid=a1f1dffa-c5de-415a-815e-7e9916587d61"},"vehicle_type_id":"4","last_reported":1742231308,"current_range_meters":9600,"station_id":"ce4bhbh2rcd13ifvqeo0","pricing_plan_id":"cebpf4jnsgd1na2vs0mg"},{"bike_id":"32d316ac-fbff-4a46-b089-c9659d2f694c","system_id":"levelo_inurba_marseille","lat":43.3303,"lon":5.39067,"is_reserved":false,"is_disabled":false,"rental_uris":{"android":"levelo://app?vid=32d316ac-fbff-4a46-b089-c9659d2f694c","ios":"levelo://app?vid=32d316ac-fbff-4a46-b089-c9659d2f694c"},"vehicle_type_id":"4","last_reported":1742231308,"current_range_meters":9600,"station_id":"ce4bhr92rcd13ifvqhrg","pricing_plan_id":"cebpf4jnsgd1na2vs0mg"},{"bike_id":"836e6160-43fb-4e74-bca4-6228c501760e","system_id":"levelo_inurba_marseille","lat":43.25547,"lon":5.37689,"is_reserved":false,"is_disabled":false,"rental_uris":{"android":"levelo://app?vid=836e6160-43fb-4e74-bca4-6228c501760e","ios":"levelo://app?vid=836e6160-43fb-4e74-bca4-6228c501760e"},"vehicle_type_id":"4","last_reported":1742231308,"current_range_meters":9600,"station_id":"","pricing_plan_id":"cebpf4jnsgd1na2vs0mg"},{"bike_id":"06414f31-65c3-4faa-a2d0-41625dc677e9","system_id":"levelo_inurba_marseille","lat":43.29037,"lon":5.39974,"is_reserved":false,"is_disabled":false,"rental_uris":{"android":"levelo://app?vid=06414f31-65c3-4faa-a2d0-41625dc677e9","ios":"levelo://app?vid=06414f31-65c3-4faa-a2d0-41625dc677e9"},"vehicle_type_id":"4","last_reported":1742231308,"current_range_meters":9600,"station_id":"ce4bh392rcd13ifvqdm0","pricing_plan_id":"cebpf4jnsgd1na2vs0mg"},{"bike_id":"b1b41327-66f3-4983-ac80-93a6af2a034d","system_id":"levelo_inurba_marseille","lat":43.23067,"lon":5.35501,"is_reserved":false,"is_disabled":false,"rental_uris":{"android":"levelo://app?vid=b1b41327-66f3-4983-ac80-93a6af2a034d","ios":"levelo://app?vid=b1b41327-66f3-4983-ac80-93a6af2a034d"},"vehicle_type_id":"4","last_reported":1742231308,"current_range_meters":10000,"station_id":"cpo3342slgdg3j2ifvpg","pricing_plan_id":"cebpf4jnsgd1na2vs0mg"},{"bike_id":"cc127605-97f5-449d-ad23-12b6f80c9639","system_id":"levelo_inurba_marseille","lat":43.29303,"lon":5.3747,"is_reserved":false,"is_disabled":true,"rental_uris":{"android":"levelo://app?vid=cc127605-97f5-449d-ad23-12b6f80c9639","ios":"levelo://app?vid=cc127605-97f5-449d-ad23-12b6f80c9639"},"vehicle_type_id":"4","last_reported":1742231308,"current_range_meters":10000,"station_id":"ce4bgi12rcd13ifvqb70","pricing_plan_id":"cebpf4jnsgd1na2vs0mg"},{"bike_id":"6fc8f3d1-538d-4a6a-b6c2-ed8c477c10e0","system_id":"levelo_inurba_marseille","lat":43.25117,"lon":5.40329,"is_reserved":false,"is_disabled":false,"rental_uris":{"android":"levelo://app?vid=6fc8f3d1-538d-4a6a-b6c2-ed8c477c10e0","ios":"levelo://app?vid=6fc8f3d1-538d-4a6a-b6c2-ed8c477c10e0"},"vehicle_type_id":"4","last_reported":1742231308,"current_range_meters":10000,"station_id":"ce4bhlh2rcd13ifvqgig","pricing_plan_id":"cebpf4jnsgd1na2vs0mg"},{"bike_id":"fddb55d4-2f6d-458b-a063-69a98e83f2fb","system_id":"levelo_inurba_marseille","lat":43.2419,"lon":5.39759,"is_reserved":false,"is_disabled":false,"rental_uris":{"android":"levelo://app?vid=fddb55d4-2f6d-458b-a063-69a98e83f2fb","ios":"levelo://app?vid=fddb55d4-2f6d-458b-a063-69a98e83f2fb"},"vehicle_type_id":"4","last_reported":1742231308,"current_range_meters":10000,"station_id":"ce4bhn12rcd13ifvqgpg","pricing_plan_id":"cebpf4jnsgd1na2vs0mg"},{"bike_id":"631b551f-fba8-4a15-a41a-614948e5a0b0","system_id":"levelo_inurba_marseille","lat":43.28417,"lon":5.34969,"is_reserved":false,"is_disabled":false,"rental_uris":{"android":"levelo://app?vid=631b551f-fba8-4a15-a41a-614948e5a0b0","ios":"levelo://app?vid=631b551f-fba8-4a15-a41a-614948e5a0b0"},"vehicle_type_id":"4","last_reported":1742231308,"current_range_meters":10000,"station_id":"ce4bhbh2rcd13ifvqepg","pricing_plan_id":"cebpf4jnsgd1na2vs0mg"},{"bike_id":"f726d16a-5cce-4273-b849-56297f73384d","system_id":"levelo_inurba_marseille","lat":43.27998,"lon":5.41666,"is_reserved":false,"is_disabled":false,"rental_uris":{"android":"levelo://app?vid=f726d16a-5cce-4273-b849-56297f73384d","ios":"levelo://app?vid=f726d16a-5cce-4273-b849-56297f73384d"},"vehicle_type_id":"4","last_reported":1742231308,"current_range_meters":10000,"station_id":"ce4bho12rcd13ifvqh1g","pricing_plan_id":"cebpf4jnsgd1na2vs0mg"},{"bike_id":"0d3accb9-853e-4df0-b9d8-4607b8048f46","system_id":"levelo_inurba_marseille","lat":43.24169,"lon":5.36395,"is_reserved":false,"is_disabled":false,"rental_uris":{"android":"levelo://app?vid=0d3accb9-853e-4df0-b9d8-4607b8048f46","ios":"levelo://app?vid=0d3accb9-853e-4df0-b9d8-4607b8048f46"},"vehicle_type_id":"4","last_reported":1742231308,"current_range_meters":10000,"station_id":"cpo36qri1sfpv3e86is0","pricing_plan_id":"cebpf4jnsgd1na2vs0mg"},{"bike_id":"63f7ced7-28e5-4e4d-b971-b9393747d678","system_id":"levelo_inurba_marseille","lat":43.29609,"lon":5.38112,"is_reserved":false,"is_disabled":false,"rental_uris":{"android":"levelo://app?vid=63f7ced7-28e5-4e4d-b971-b9393747d678","ios":"levelo://app?vid=63f7ced7-28e5-4e4d-b971-b9393747d678"},"vehicle_type_id":"4","last_reported":1742231308,"current_range_meters":10000,"station_id":"ce4bgl12rcd13ifvqbo0","pricing_plan_id":"cebpf4jnsgd1na2vs0mg"},{"bike_id":"ef4ae94b-255a-46c7-906c-25509fa19963","system_id":"levelo_inurba_marseille","lat":43.24169,"lon":5.3971,"is_reserved":false,"is_disabled":false,"rental_uris":{"android":"levelo://app?vid=ef4ae94b-255a-46c7-906c-25509fa19963","ios":"levelo://app?vid=ef4ae94b-255a-46c7-906c-25509fa19963"},"vehicle_type_id":"4","last_reported":1742231308,"current_range_meters":10000,"station_id":"ce4bhn12rcd13ifvqgpg","pricing_plan_id":"cebpf4jnsgd1na2vs0mg"},{"bike_id":"dd29daf7-bc1a-4dda-808f-41b8a0bfc0e8","system_id":"levelo_inurba_marseille","lat":43.29285,"lon":5.37461,"is_reserved":false,"is_disabled":false,"rental_uris":{"android":"levelo://app?vid=dd29daf7-bc1a-4dda-808f-41b8a0bfc0e8","ios":"levelo://app?vid=dd29daf7-bc1a-4dda-808f-41b8a0bfc0e8"},"vehicle_type_id":"4","last_reported":1742231308,"current_range_meters":8400,"station_id":"ce4bgi12rcd13ifvqb70","pricing_plan_id":"cebpf4jnsgd1na2vs0mg"},{"bike_id":"6ce6594f-1460-4d62-8c26-35226d190255","system_id":"levelo_inurba_marseille","lat":43.28418,"lon":5.34984,"is_reserved":false,"is_disabled":false,"rental_uris":{"android":"levelo://app?vid=6ce6594f-1460-4d62-8c26-35226d190255","ios":"levelo://app?vid=6ce6594f-1460-4d62-8c26-35226d190255"},"vehicle_type_id":"4","last_reported":1742231308,"current_range_meters":10000,"station_id":"ce4bhbh2rcd13ifvqepg","pricing_plan_id":"cebpf4jnsgd1na2vs0mg"},{"bike_id":"4c4708a6-4fe1-43b4-a500-72b5c041efab","system_id":"levelo_inurba_marseille","lat":43.2938,"lon":5.37835,"is_reserved":false,"is_disabled":false,"rental_uris":{"android":"levelo://app?vid=4c4708a6-4fe1-43b4-a500-72b5c041efab","ios":"levelo://app?vid=4c4708a6-4fe1-43b4-a500-72b5c041efab"},"vehicle_type_id":"4","last_reported":1742231308,"current_range_meters":10800,"station_id":"ce4bgjh2rcd13ifvqbf0","pricing_plan_id":"cebpf4jnsgd1na2vs0mg"},{"bike_id":"08b4ee77-0bf6-456b-b77a-bfe55e632052","system_id":"levelo_inurba_marseille","lat":43.30099,"lon":5.39064,"is_reserved":false,"is_disabled":false,"rental_uris":{"android":"levelo://app?vid=08b4ee77-0bf6-456b-b77a-bfe55e632052","ios":"levelo://app?vid=08b4ee77-0bf6-456b-b77a-bfe55e632052"},"vehicle_type_id":"4","last_reported":1742231308,"current_range_meters":10800,"station_id":"ce4bh192rcd13ifvqdb0","pricing_plan_id":"cebpf4jnsgd1na2vs0mg"},{"bike_id":"33e53089-0e67-407f-901f-f51ffc174a4d","system_id":"levelo_inurba_marseille","lat":43.29843,"lon":5.36267,"is_reserved":false,"is_disabled":false,"rental_uris":{"android":"levelo://app?vid=33e53089-0e67-407f-901f-f51ffc174a4d","ios":"levelo://app?vid=33e53089-0e67-407f-901f-f51ffc174a4d"},"vehicle_type_id":"4","last_reported":1742231308,"current_range_meters":10800,"station_id":"ce4bgpp2rcd13ifvqc3g","pricing_plan_id":"cebpf4jnsgd1na2vs0mg"},{"bike_id":"7f11dac0-b27b-408d-a7cc-bcc0c3e0137c","system_id":"levelo_inurba_marseille","lat":43.28158,"lon":5.42648,"is_reserved":false,"is_disabled":false,"rental_uris":{"android":"levelo://app?vid=7f11dac0-b27b-408d-a7cc-bcc0c3e0137c","ios":"levelo://app?vid=7f11dac0-b27b-408d-a7cc-bcc0c3e0137c"},"vehicle_type_id":"4","last_reported":1742231308,"current_range_meters":10800,"station_id":"ce4bhnh2rcd13ifvqgug","pricing_plan_id":"cebpf4jnsgd1na2vs0mg"},{"bike_id":"2665cc4b-07ed-4ae6-a66f-2b09983c709d","system_id":"levelo_inurba_marseille","lat":43.33761,"lon":5.37489,"is_reserved":false,"is_disabled":false,"rental_uris":{"android":"levelo://app?vid=2665cc4b-07ed-4ae6-a66f-2b09983c709d","ios":"levelo://app?vid=2665cc4b-07ed-4ae6-a66f-2b09983c709d"},"vehicle_type_id":"4","last_reported":1742231308,"current_range_meters":10800,"station_id":"","pricing_plan_id":"cebpf4jnsgd1na2vs0mg"},{"bike_id":"d0b13512-d5f7-4d7d-8b1e-c16e1a8ab314","system_id":"levelo_inurba_marseille","lat":43.28451,"lon":5.39199,"is_reserved":false,"is_disabled":false,"rental_uris":{"android":"levelo://app?vid=d0b13512-d5f7-4d7d-8b1e-c16e1a8ab314","ios":"levelo://app?vid=d0b13512-d5f7-4d7d-8b1e-c16e1a8ab314"},"vehicle_type_id":"4","last_reported":1742231308,"current_range_meters":10800,"station_id":"ce4bhoh2rcd13ifvqh5g","pricing_plan_id":"cebpf4jnsgd1na2vs0mg"},{"bike_id":"1f7e0809-4ec7-4a2c-869d-2478330cc4bc","system_id":"levelo_inurba_marseille","lat":43.27953,"lon":5.41047,"is_reserved":false,"is_disabled":false,"rental_uris":{"android":"levelo://app?vid=1f7e0809-4ec7-4a2c-869d-2478330cc4bc","ios":"levelo://app?vid=1f7e0809-4ec7-4a2c-869d-2478330cc4bc"},"vehicle_type_id":"4","last_reported":1742231308,"current_range_meters":10800,"station_id":"ce4bhnp2rcd13ifvqh0g","pricing_plan_id":"cebpf4jnsgd1na2vs0mg"},{"bike_id":"0fd2dd3a-7268-496a-b704-2ed1325ae90d","system_id":"levelo_inurba_marseille","lat":43.2857,"lon":5.395,"is_reserved":false,"is_disabled":false,"rental_uris":{"android":"levelo://app?vid=0fd2dd3a-7268-496a-b704-2ed1325ae90d","ios":"levelo://app?vid=0fd2dd3a-7268-496a-b704-2ed1325ae90d"},"vehicle_type_id":"4","last_reported":1742231308,"current_range_meters":10800,"station_id":"ce4bh292rcd13ifvqdg0","pricing_plan_id":"cebpf4jnsgd1na2vs0mg"},{"bike_id":"ac767398-3a37-4b25-a151-49e4b1e3ef78","system_id":"levelo_inurba_marseille","lat":43.25091,"lon":5.39523,"is_reserved":false,"is_disabled":false,"rental_uris":{"android":"levelo://app?vid=ac767398-3a37-4b25-a151-49e4b1e3ef78","ios":"levelo://app?vid=ac767398-3a37-4b25-a151-49e4b1e3ef78"},"vehicle_type_id":"4","last_reported":1742231308,"current_range_meters":10800,"station_id":"ce4bhm12rcd13ifvqgkg","pricing_plan_id":"cebpf4jnsgd1na2vs0mg"},{"bike_id":"737a1d64-a21d-4452-b1f9-a22f87a8d6bd","system_id":"levelo_inurba_marseille","lat":43.23057,"lon":5.35491,"is_reserved":false,"is_disabled":false,"rental_uris":{"android":"levelo://app?vid=737a1d64-a21d-4452-b1f9-a22f87a8d6bd","ios":"levelo://app?vid=737a1d64-a21d-4452-b1f9-a22f87a8d6bd"},"vehicle_type_id":"4","last_reported":1742231308,"current_range_meters":10800,"station_id":"cpo3342slgdg3j2ifvpg","pricing_plan_id":"cebpf4jnsgd1na2vs0mg"},{"bike_id":"8fe7e33b-57fc-439c-ba02-015988635c80","system_id":"levelo_inurba_marseille","lat":43.27079,"lon":5.42293,"is_reserved":false,"is_disabled":true,"rental_uris":{"android":"levelo://app?vid=8fe7e33b-57fc-439c-ba02-015988635c80","ios":"levelo://app?vid=8fe7e33b-57fc-439c-ba02-015988635c80"},"vehicle_type_id":"4","last_reported":1742231308,"current_range_meters":10800,"station_id":"ce4bhk92rcd13ifvqgb0","pricing_plan_id":"cebpf4jnsgd1na2vs0mg"},{"bike_id":"7a8a8ccb-b5ee-4bab-9535-af226cc12302","system_id":"levelo_inurba_marseille","lat":43.29115,"lon":5.42396,"is_reserved":false,"is_disabled":false,"rental_uris":{"android":"levelo://app?vid=7a8a8ccb-b5ee-4bab-9535-af226cc12302","ios":"levelo://app?vid=7a8a8ccb-b5ee-4bab-9535-af226cc12302"},"vehicle_type_id":"4","last_reported":1742231308,"current_range_meters":10800,"station_id":"","pricing_plan_id":"cebpf4jnsgd1na2vs0mg"},{"bike_id":"c81541cf-ce84-496e-8cf0-57a1bb760979","system_id":"levelo_inurba_marseille","lat":43.25878,"lon":5.39903,"is_reserved":false,"is_disabled":false,"rental_uris":{"android":"levelo://app?vid=c81541cf-ce84-496e-8cf0-57a1bb760979","ios":"levelo://app?vid=c81541cf-ce84-496e-8cf0-57a1bb760979"},"vehicle_type_id":"4","last_reported":1742231308,"current_range_meters":11200,"station_id":"ce4bhl92rcd13ifvqghg","pricing_plan_id":"cebpf4jnsgd1na2vs0mg"},{"bike_id":"65d6cf9c-aa9f-455a-900f-8454900d28cf","system_id":"levelo_inurba_marseille","lat":43.29661,"lon":5.37434,"is_reserved":false,"is_disabled":false,"rental_uris":{"android":"levelo://app?vid=65d6cf9c-aa9f-455a-900f-8454900d28cf","ios":"levelo://app?vid=65d6cf9c-aa9f-455a-900f-8454900d28cf"},"vehicle_type_id":"4","last_reported":1742231308,"current_range_meters":11200,"station_id":"ce4bgk12rcd13ifvqbj0","pricing_plan_id":"cebpf4jnsgd1na2vs0mg"},{"bike_id":"06e6eede-4ecb-4319-9d79-1a567e57af49","system_id":"levelo_inurba_marseille","lat":43.26039,"lon":5.41741,"is_reserved":false,"is_disabled":false,"rental_uris":{"android":"levelo://app?vid=06e6eede-4ecb-4319-9d79-1a567e57af49","ios":"levelo://app?vid=06e6eede-4ecb-4319-9d79-1a567e57af49"},"vehicle_type_id":"4","last_reported":1742231308,"current_range_meters":11200,"station_id":"","pricing_plan_id":"cebpf4jnsgd1na2vs0mg"},{"bike_id":"28571755-918f-4fd1-8bf2-6c11266a721b","system_id":"levelo_inurba_marseille","lat":43.24792,"lon":5.37458,"is_reserved":false,"is_disabled":false,"rental_uris":{"android":"levelo://app?vid=28571755-918f-4fd1-8bf2-6c11266a721b","ios":"levelo://app?vid=28571755-918f-4fd1-8bf2-6c11266a721b"},"vehicle_type_id":"4","last_reported":1742231308,"current_range_meters":11200,"station_id":"ce4bhgh2rcd13ifvqfb0","pricing_plan_id":"cebpf4jnsgd1na2vs0mg"},{"bike_id":"136e3224-78fe-49f0-ab83-398238bd4c97","system_id":"levelo_inurba_marseille","lat":43.26213,"lon":5.37441,"is_reserved":false,"is_disabled":false,"rental_uris":{"android":"levelo://app?vid=136e3224-78fe-49f0-ab83-398238bd4c97","ios":"levelo://app?vid=136e3224-78fe-49f0-ab83-398238bd4c97"},"vehicle_type_id":"4","last_reported":1742231308,"current_range_meters":11200,"station_id":"ce4bhgp2rcd13ifvqfc0","pricing_plan_id":"cebpf4jnsgd1na2vs0mg"},{"bike_id":"3dc0322f-ab6e-46df-aae4-5c16f0cd9d92","system_id":"levelo_inurba_marseille","lat":43.29572,"lon":5.39961,"is_reserved":false,"is_disabled":false,"rental_uris":{"android":"levelo://app?vid=3dc0322f-ab6e-46df-aae4-5c16f0cd9d92","ios":"levelo://app?vid=3dc0322f-ab6e-46df-aae4-5c16f0cd9d92"},"vehicle_type_id":"4","last_reported":1742231308,"current_range_meters":11200,"station_id":"ce4bh312rcd13ifvqdj0","pricing_plan_id":"cebpf4jnsgd1na2vs0mg"},{"bike_id":"73a79ca3-ae2d-4ff8-8fa9-2eb1cf3af867","system_id":"levelo_inurba_marseille","lat":43.29192,"lon":5.35794,"is_reserved":false,"is_disabled":false,"rental_uris":{"android":"levelo://app?vid=73a79ca3-ae2d-4ff8-8fa9-2eb1cf3af867","ios":"levelo://app?vid=73a79ca3-ae2d-4ff8-8fa9-2eb1cf3af867"},"vehicle_type_id":"4","last_reported":1742231308,"current_range_meters":11200,"station_id":"ce4bhb12rcd13ifvqel0","pricing_plan_id":"cebpf4jnsgd1na2vs0mg"},{"bike_id":"bf53558a-323c-40e3-9c37-ac64ba388e1c","system_id":"levelo_inurba_marseille","lat":43.23965,"lon":5.3663,"is_reserved":false,"is_disabled":false,"rental_uris":{"android":"levelo://app?vid=bf53558a-323c-40e3-9c37-ac64ba388e1c","ios":"levelo://app?vid=bf53558a-323c-40e3-9c37-ac64ba388e1c"},"vehicle_type_id":"4","last_reported":1742231308,"current_range_meters":11200,"station_id":"ce4bhi12rcd13ifvqfp0","pricing_plan_id":"cebpf4jnsgd1na2vs0mg"},{"bike_id":"ba17eb78-f062-4f77-b8b0-1a4a31d62a9e","system_id":"levelo_inurba_marseille","lat":43.25762,"lon":5.41141,"is_reserved":false,"is_disabled":true,"rental_uris":{"android":"levelo://app?vid=ba17eb78-f062-4f77-b8b0-1a4a31d62a9e","ios":"levelo://app?vid=ba17eb78-f062-4f77-b8b0-1a4a31d62a9e"},"vehicle_type_id":"4","last_reported":1742231308,"current_range_meters":11200,"station_id":"ce4bhkp2rcd13ifvqgd0","pricing_plan_id":"cebpf4jnsgd1na2vs0mg"},{"bike_id":"e2161be6-a5d1-478f-889a-e037473b4859","system_id":"levelo_inurba_marseille","lat":43.26948,"lon":5.40249,"is_reserved":false,"is_disabled":false,"rental_uris":{"android":"levelo://app?vid=e2161be6-a5d1-478f-889a-e037473b4859","ios":"levelo://app?vid=e2161be6-a5d1-478f-889a-e037473b4859"},"vehicle_type_id":"4","last_reported":1742231308,"current_range_meters":11200,"station_id":"cjm6bp8fraef2m0cb0m0","pricing_plan_id":"cebpf4jnsgd1na2vs0mg"},{"bike_id":"92079324-6c0d-49b6-b339-ed3a6af09af0","system_id":"levelo_inurba_marseille","lat":43.28079,"lon":5.3966,"is_reserved":false,"is_disabled":false,"rental_uris":{"android":"levelo://app?vid=92079324-6c0d-49b6-b339-ed3a6af09af0","ios":"levelo://app?vid=92079324-6c0d-49b6-b339-ed3a6af09af0"},"vehicle_type_id":"4","last_reported":1742231308,"current_range_meters":11600,"station_id":"ce4bho12rcd13ifvqh2g","pricing_plan_id":"cebpf4jnsgd1na2vs0mg"},{"bike_id":"13cf58df-5147-4d91-a162-42dc98b9d75b","system_id":"levelo_inurba_marseille","lat":43.31006,"lon":5.38111,"is_reserved":false,"is_disabled":false,"rental_uris":{"android":"levelo://app?vid=13cf58df-5147-4d91-a162-42dc98b9d75b","ios":"levelo://app?vid=13cf58df-5147-4d91-a162-42dc98b9d75b"},"vehicle_type_id":"4","last_reported":1742231308,"current_range_meters":11600,"station_id":"","pricing_plan_id":"cebpf4jnsgd1na2vs0mg"},{"bike_id":"d2092817-2681-416b-84eb-bb2644123048","system_id":"levelo_inurba_marseille","lat":43.28157,"lon":5.42648,"is_reserved":false,"is_disabled":false,"rental_uris":{"android":"levelo://app?vid=d2092817-2681-416b-84eb-bb2644123048","ios":"levelo://app?vid=d2092817-2681-416b-84eb-bb2644123048"},"vehicle_type_id":"4","last_reported":1742231308,"current_range_meters":11200,"station_id":"ce4bhnh2rcd13ifvqgug","pricing_plan_id":"cebpf4jnsgd1na2vs0mg"},{"bike_id":"4b1cc1e3-70d0-46ec-af1b-3547c853f7a6","system_id":"levelo_inurba_marseille","lat":43.27995,"lon":5.40014,"is_reserved":false,"is_disabled":false,"rental_uris":{"android":"levelo://app?vid=4b1cc1e3-70d0-46ec-af1b-3547c853f7a6","ios":"levelo://app?vid=4b1cc1e3-70d0-46ec-af1b-3547c853f7a6"},"vehicle_type_id":"4","last_reported":1742231308,"current_range_meters":10800,"station_id":"ce4bho92rcd13ifvqh4g","pricing_plan_id":"cebpf4jnsgd1na2vs0mg"},{"bike_id":"b5ced30c-8ad0-4690-b0f0-a28689d9f502","system_id":"levelo_inurba_marseille","lat":43.33725,"lon":5.39189,"is_reserved":false,"is_disabled":false,"rental_uris":{"android":"levelo://app?vid=b5ced30c-8ad0-4690-b0f0-a28689d9f502","ios":"levelo://app?vid=b5ced30c-8ad0-4690-b0f0-a28689d9f502"},"vehicle_type_id":"4","last_reported":1742231308,"current_range_meters":11200,"station_id":"ce4bhr92rcd13ifvqhsg","pricing_plan_id":"cebpf4jnsgd1na2vs0mg"},{"bike_id":"ee54ac11-db4c-4dd1-9f8e-34ff11e58d2c","system_id":"levelo_inurba_marseille","lat":43.2671,"lon":5.383,"is_reserved":false,"is_disabled":false,"rental_uris":{"android":"levelo://app?vid=ee54ac11-db4c-4dd1-9f8e-34ff11e58d2c","ios":"levelo://app?vid=ee54ac11-db4c-4dd1-9f8e-34ff11e58d2c"},"vehicle_type_id":"4","last_reported":1742231308,"current_range_meters":11600,"station_id":"ce4bhg92rcd13ifvqf90","pricing_plan_id":"cebpf4jnsgd1na2vs0mg"},{"bike_id":"bc7f40b5-9488-47c6-88c9-b4a474e1c057","system_id":"levelo_inurba_marseille","lat":43.28448,"lon":5.39192,"is_reserved":false,"is_disabled":false,"rental_uris":{"android":"levelo://app?vid=bc7f40b5-9488-47c6-88c9-b4a474e1c057","ios":"levelo://app?vid=bc7f40b5-9488-47c6-88c9-b4a474e1c057"},"vehicle_type_id":"4","last_reported":1742231308,"current_range_meters":12000,"station_id":"ce4bhoh2rcd13ifvqh5g","pricing_plan_id":"cebpf4jnsgd1na2vs0mg"},{"bike_id":"0ab96156-8352-449f-b0e1-89d71869d9a7","system_id":"levelo_inurba_marseille","lat":43.32368,"lon":5.38882,"is_reserved":false,"is_disabled":false,"rental_uris":{"android":"levelo://app?vid=0ab96156-8352-449f-b0e1-89d71869d9a7","ios":"levelo://app?vid=0ab96156-8352-449f-b0e1-89d71869d9a7"},"vehicle_type_id":"4","last_reported":1742231308,"current_range_meters":12000,"station_id":"ce4bhqp2rcd13ifvqhog","pricing_plan_id":"cebpf4jnsgd1na2vs0mg"},{"bike_id":"cb6ebe93-1cd1-4524-935b-a36104fcfe40","system_id":"levelo_inurba_marseille","lat":43.29979,"lon":5.38476,"is_reserved":false,"is_disabled":false,"rental_uris":{"android":"levelo://app?vid=cb6ebe93-1cd1-4524-935b-a36104fcfe40","ios":"levelo://app?vid=cb6ebe93-1cd1-4524-935b-a36104fcfe40"},"vehicle_type_id":"4","last_reported":1742231308,"current_range_meters":10800,"station_id":"ce4bgj92rcd13ifvqbd0","pricing_plan_id":"cebpf4jnsgd1na2vs0mg"},{"bike_id":"501f0c4a-fa74-4fd6-9c9a-03e618c9ec65","system_id":"levelo_inurba_marseille","lat":43.29966,"lon":5.38494,"is_reserved":false,"is_disabled":false,"rental_uris":{"android":"levelo://app?vid=501f0c4a-fa74-4fd6-9c9a-03e618c9ec65","ios":"levelo://app?vid=501f0c4a-fa74-4fd6-9c9a-03e618c9ec65"},"vehicle_type_id":"4","last_reported":1742231308,"current_range_meters":11600,"station_id":"ce4bgj92rcd13ifvqbd0","pricing_plan_id":"cebpf4jnsgd1na2vs0mg"},{"bike_id":"42e35520-f310-4cc9-afe0-cc69621e6853","system_id":"levelo_inurba_marseille","lat":43.3224,"lon":5.38908,"is_reserved":false,"is_disabled":false,"rental_uris":{"android":"levelo://app?vid=42e35520-f310-4cc9-afe0-cc69621e6853","ios":"levelo://app?vid=42e35520-f310-4cc9-afe0-cc69621e6853"},"vehicle_type_id":"4","last_reported":1742231308,"current_range_meters":12000,"station_id":"ce4bhqp2rcd13ifvqhog","pricing_plan_id":"cebpf4jnsgd1na2vs0mg"},{"bike_id":"c140f702-33a8-4761-aa51-c7457480bfc2","system_id":"levelo_inurba_marseille","lat":43.29879,"lon":5.39728,"is_reserved":false,"is_disabled":false,"rental_uris":{"android":"levelo://app?vid=c140f702-33a8-4761-aa51-c7457480bfc2","ios":"levelo://app?vid=c140f702-33a8-4761-aa51-c7457480bfc2"},"vehicle_type_id":"4","last_reported":1742231308,"current_range_meters":12400,"station_id":"ce4bh0h2rcd13ifvqd50","pricing_plan_id":"cebpf4jnsgd1na2vs0mg"},{"bike_id":"7515b60c-c37b-4021-875c-6f16850d40e9","system_id":"levelo_inurba_marseille","lat":43.28404,"lon":5.37521,"is_reserved":false,"is_disabled":false,"rental_uris":{"android":"levelo://app?vid=7515b60c-c37b-4021-875c-6f16850d40e9","ios":"levelo://app?vid=7515b60c-c37b-4021-875c-6f16850d40e9"},"vehicle_type_id":"4","last_reported":1742231308,"current_range_meters":12400,"station_id":"ce4bh412rcd13ifvqds0","pricing_plan_id":"cebpf4jnsgd1na2vs0mg"},{"bike_id":"cdbc9846-b1c9-44d0-bccc-6931e1c1079d","system_id":"levelo_inurba_marseille","lat":43.28489,"lon":5.34995,"is_reserved":false,"is_disabled":false,"rental_uris":{"android":"levelo://app?vid=cdbc9846-b1c9-44d0-bccc-6931e1c1079d","ios":"levelo://app?vid=cdbc9846-b1c9-44d0-bccc-6931e1c1079d"},"vehicle_type_id":"4","last_reported":1742231308,"current_range_meters":12400,"station_id":"ce4bhbh2rcd13ifvqepg","pricing_plan_id":"cebpf4jnsgd1na2vs0mg"},{"bike_id":"63b9368e-44a3-4950-b4a9-27e0a37a7c06","system_id":"levelo_inurba_marseille","lat":43.26543,"lon":5.37309,"is_reserved":false,"is_disabled":false,"rental_uris":{"android":"levelo://app?vid=63b9368e-44a3-4950-b4a9-27e0a37a7c06","ios":"levelo://app?vid=63b9368e-44a3-4950-b4a9-27e0a37a7c06"},"vehicle_type_id":"4","last_reported":1742231308,"current_range_meters":12400,"station_id":"ce4bhg12rcd13ifvqf70","pricing_plan_id":"cebpf4jnsgd1na2vs0mg"},{"bike_id":"09be20b3-ccfa-43d5-8616-036d82fe33a0","system_id":"levelo_inurba_marseille","lat":43.24991,"lon":5.38934,"is_reserved":false,"is_disabled":false,"rental_uris":{"android":"levelo://app?vid=09be20b3-ccfa-43d5-8616-036d82fe33a0","ios":"levelo://app?vid=09be20b3-ccfa-43d5-8616-036d82fe33a0"},"vehicle_type_id":"4","last_reported":1742231308,"current_range_meters":12400,"station_id":"ce4bhgp2rcd13ifvqfd0","pricing_plan_id":"cebpf4jnsgd1na2vs0mg"},{"bike_id":"68efa26f-19bd-4d41-bebe-c8935b4d7da9","system_id":"levelo_inurba_marseille","lat":43.3303,"lon":5.39049,"is_reserved":false,"is_disabled":false,"rental_uris":{"android":"levelo://app?vid=68efa26f-19bd-4d41-bebe-c8935b4d7da9","ios":"levelo://app?vid=68efa26f-19bd-4d41-bebe-c8935b4d7da9"},"vehicle_type_id":"4","last_reported":1742231308,"current_range_meters":12400,"station_id":"ce4bhr92rcd13ifvqhrg","pricing_plan_id":"cebpf4jnsgd1na2vs0mg"},{"bike_id":"21fca7a4-605b-4d37-9546-c28d227fd856","system_id":"levelo_inurba_marseille","lat":43.26793,"lon":5.39421,"is_reserved":false,"is_disabled":false,"rental_uris":{"android":"levelo://app?vid=21fca7a4-605b-4d37-9546-c28d227fd856","ios":"levelo://app?vid=21fca7a4-605b-4d37-9546-c28d227fd856"},"vehicle_type_id":"4","last_reported":1742231308,"current_range_meters":12000,"station_id":"ce4bhh12rcd13ifvqfg0","pricing_plan_id":"cebpf4jnsgd1na2vs0mg"},{"bike_id":"46e9cbe0-4bec-4368-889b-87912b57c2b1","system_id":"levelo_inurba_marseille","lat":43.26029,"lon":5.41751,"is_reserved":false,"is_disabled":false,"rental_uris":{"android":"levelo://app?vid=46e9cbe0-4bec-4368-889b-87912b57c2b1","ios":"levelo://app?vid=46e9cbe0-4bec-4368-889b-87912b57c2b1"},"vehicle_type_id":"4","last_reported":1742231308,"current_range_meters":12800,"station_id":"","pricing_plan_id":"cebpf4jnsgd1na2vs0mg"},{"bike_id":"a12acfc4-96dc-4a49-8002-131e57dcf3f1","system_id":"levelo_inurba_marseille","lat":43.2895,"lon":5.36409,"is_reserved":false,"is_disabled":false,"rental_uris":{"android":"levelo://app?vid=a12acfc4-96dc-4a49-8002-131e57dcf3f1","ios":"levelo://app?vid=a12acfc4-96dc-4a49-8002-131e57dcf3f1"},"vehicle_type_id":"4","last_reported":1742231308,"current_range_meters":12800,"station_id":"ce4bhc92rcd13ifvqetg","pricing_plan_id":"cebpf4jnsgd1na2vs0mg"},{"bike_id":"83388855-f72c-48b6-b9e8-bdfa5845ebe6","system_id":"levelo_inurba_marseille","lat":43.33027,"lon":5.39041,"is_reserved":false,"is_disabled":false,"rental_uris":{"android":"levelo://app?vid=83388855-f72c-48b6-b9e8-bdfa5845ebe6","ios":"levelo://app?vid=83388855-f72c-48b6-b9e8-bdfa5845ebe6"},"vehicle_type_id":"4","last_reported":1742231308,"current_range_meters":12800,"station_id":"ce4bhr92rcd13ifvqhrg","pricing_plan_id":"cebpf4jnsgd1na2vs0mg"},{"bike_id":"15b855dc-77a7-4b50-993a-29ecf81ef3d8","system_id":"levelo_inurba_marseille","lat":43.31186,"lon":5.38711,"is_reserved":false,"is_disabled":false,"rental_uris":{"android":"levelo://app?vid=15b855dc-77a7-4b50-993a-29ecf81ef3d8","ios":"levelo://app?vid=15b855dc-77a7-4b50-993a-29ecf81ef3d8"},"vehicle_type_id":"4","last_reported":1742231308,"current_range_meters":12800,"station_id":"ce4bgv12rcd13ifvqcp0","pricing_plan_id":"cebpf4jnsgd1na2vs0mg"},{"bike_id":"cb151f2f-c8d4-493c-8040-3bc4d320acac","system_id":"levelo_inurba_marseille","lat":43.30827,"lon":5.38181,"is_reserved":false,"is_disabled":true,"rental_uris":{"android":"levelo://app?vid=cb151f2f-c8d4-493c-8040-3bc4d320acac","ios":"levelo://app?vid=cb151f2f-c8d4-493c-8040-3bc4d320acac"},"vehicle_type_id":"4","last_reported":1742231308,"current_range_meters":12800,"station_id":"ce4bgt12rcd13ifvqce0","pricing_plan_id":"cebpf4jnsgd1na2vs0mg"},{"bike_id":"de4d9f1a-50c4-4b87-907e-82ab0858b0d1","system_id":"levelo_inurba_marseille","lat":43.2936,"lon":5.37823,"is_reserved":false,"is_disabled":false,"rental_uris":{"android":"levelo://app?vid=de4d9f1a-50c4-4b87-907e-82ab0858b0d1","ios":"levelo://app?vid=de4d9f1a-50c4-4b87-907e-82ab0858b0d1"},"vehicle_type_id":"4","last_reported":1742231308,"current_range_meters":13600,"station_id":"ce4bgjh2rcd13ifvqbf0","pricing_plan_id":"cebpf4jnsgd1na2vs0mg"},{"bike_id":"408a6937-f650-4d8f-8858-2fb6996175d2","system_id":"levelo_inurba_marseille","lat":43.32335,"lon":5.4062,"is_reserved":false,"is_disabled":false,"rental_uris":{"android":"levelo://app?vid=408a6937-f650-4d8f-8858-2fb6996175d2","ios":"levelo://app?vid=408a6937-f650-4d8f-8858-2fb6996175d2"},"vehicle_type_id":"4","last_reported":1742231308,"current_range_meters":12800,"station_id":"ce4bhq92rcd13ifvqhjg","pricing_plan_id":"cebpf4jnsgd1na2vs0mg"},{"bike_id":"5476dac3-5d06-4737-a83c-a1b74595ffce","system_id":"levelo_inurba_marseille","lat":43.31703,"lon":5.43701,"is_reserved":false,"is_disabled":false,"rental_uris":{"android":"levelo://app?vid=5476dac3-5d06-4737-a83c-a1b74595ffce","ios":"levelo://app?vid=5476dac3-5d06-4737-a83c-a1b74595ffce"},"vehicle_type_id":"4","last_reported":1742231308,"current_range_meters":13600,"station_id":"ce4bhp92rcd13ifvqhcg","pricing_plan_id":"cebpf4jnsgd1na2vs0mg"},{"bike_id":"f283f9bc-4fae-43ae-af35-0322eb35e21f","system_id":"levelo_inurba_marseille","lat":43.31721,"lon":5.42394,"is_reserved":false,"is_disabled":false,"rental_uris":{"android":"levelo://app?vid=f283f9bc-4fae-43ae-af35-0322eb35e21f","ios":"levelo://app?vid=f283f9bc-4fae-43ae-af35-0322eb35e21f"},"vehicle_type_id":"4","last_reported":1742231308,"current_range_meters":12800,"station_id":"ce4bhp92rcd13ifvqhbg","pricing_plan_id":"cebpf4jnsgd1na2vs0mg"},{"bike_id":"738d5a2a-1fe0-49dd-a3a3-3b9ad8ed3acf","system_id":"levelo_inurba_marseille","lat":43.29414,"lon":5.38609,"is_reserved":false,"is_disabled":true,"rental_uris":{"android":"levelo://app?vid=738d5a2a-1fe0-49dd-a3a3-3b9ad8ed3acf","ios":"levelo://app?vid=738d5a2a-1fe0-49dd-a3a3-3b9ad8ed3acf"},"vehicle_type_id":"4","last_reported":1742231308,"current_range_meters":13600,"station_id":"ce4bh2h2rcd13ifvqdh0","pricing_plan_id":"cebpf4jnsgd1na2vs0mg"},{"bike_id":"0677992e-e762-4cc3-a8e0-bef1b7c26cbf","system_id":"levelo_inurba_marseille","lat":43.27518,"lon":5.38996,"is_reserved":false,"is_disabled":false,"rental_uris":{"android":"levelo://app?vid=0677992e-e762-4cc3-a8e0-bef1b7c26cbf","ios":"levelo://app?vid=0677992e-e762-4cc3-a8e0-bef1b7c26cbf"},"vehicle_type_id":"4","last_reported":1742231308,"current_range_meters":14000,"station_id":"ce4bhi12rcd13ifvqfo0","pricing_plan_id":"cebpf4jnsgd1na2vs0mg"},{"bike_id":"4e950670-b096-4049-8c8c-3012830ea5a4","system_id":"levelo_inurba_marseille","lat":43.24405,"lon":5.37058,"is_reserved":false,"is_disabled":false,"rental_uris":{"android":"levelo://app?vid=4e950670-b096-4049-8c8c-3012830ea5a4","ios":"levelo://app?vid=4e950670-b096-4049-8c8c-3012830ea5a4"},"vehicle_type_id":"4","last_reported":1742231308,"current_range_meters":13600,"station_id":"ce4bhhh2rcd13ifvqfk0","pricing_plan_id":"cebpf4jnsgd1na2vs0mg"},{"bike_id":"6026d272-f0a9-4e22-9b2d-b6d86e97afe7","system_id":"levelo_inurba_marseille","lat":43.28158,"lon":5.42646,"is_reserved":false,"is_disabled":false,"rental_uris":{"android":"levelo://app?vid=6026d272-f0a9-4e22-9b2d-b6d86e97afe7","ios":"levelo://app?vid=6026d272-f0a9-4e22-9b2d-b6d86e97afe7"},"vehicle_type_id":"4","last_reported":1742231308,"current_range_meters":13600,"station_id":"ce4bhnh2rcd13ifvqgug","pricing_plan_id":"cebpf4jnsgd1na2vs0mg"},{"bike_id":"e2de728d-dd73-4f8a-a6b9-b65047c01077","system_id":"levelo_inurba_marseille","lat":43.27947,"lon":5.41042,"is_reserved":false,"is_disabled":false,"rental_uris":{"android":"levelo://app?vid=e2de728d-dd73-4f8a-a6b9-b65047c01077","ios":"levelo://app?vid=e2de728d-dd73-4f8a-a6b9-b65047c01077"},"vehicle_type_id":"4","last_reported":1742231308,"current_range_meters":14000,"station_id":"ce4bhnp2rcd13ifvqh0g","pricing_plan_id":"cebpf4jnsgd1na2vs0mg"},{"bike_id":"ecf74965-646b-4ac7-9ab4-ce36d10c2ea3","system_id":"levelo_inurba_marseille","lat":43.25723,"lon":5.41116,"is_reserved":false,"is_disabled":false,"rental_uris":{"android":"levelo://app?vid=ecf74965-646b-4ac7-9ab4-ce36d10c2ea3","ios":"levelo://app?vid=ecf74965-646b-4ac7-9ab4-ce36d10c2ea3"},"vehicle_type_id":"4","last_reported":1742231308,"current_range_meters":14000,"station_id":"ce4bhkp2rcd13ifvqgd0","pricing_plan_id":"cebpf4jnsgd1na2vs0mg"},{"bike_id":"1e25ab86-ca10-4e7b-bb76-cf8bed83f347","system_id":"levelo_inurba_marseille","lat":43.2886,"lon":5.35875,"is_reserved":false,"is_disabled":false,"rental_uris":{"android":"levelo://app?vid=1e25ab86-ca10-4e7b-bb76-cf8bed83f347","ios":"levelo://app?vid=1e25ab86-ca10-4e7b-bb76-cf8bed83f347"},"vehicle_type_id":"4","last_reported":1742231308,"current_range_meters":14000,"station_id":"ce4bhb12rcd13ifvqem0","pricing_plan_id":"cebpf4jnsgd1na2vs0mg"},{"bike_id":"d73c4f12-b87a-46ab-8795-1dd0cb156265","system_id":"levelo_inurba_marseille","lat":43.28662,"lon":5.3635,"is_reserved":false,"is_disabled":false,"rental_uris":{"android":"levelo://app?vid=d73c4f12-b87a-46ab-8795-1dd0cb156265","ios":"levelo://app?vid=d73c4f12-b87a-46ab-8795-1dd0cb156265"},"vehicle_type_id":"4","last_reported":1742231308,"current_range_meters":14000,"station_id":"ce4bhah2rcd13ifvqej0","pricing_plan_id":"cebpf4jnsgd1na2vs0mg"},{"bike_id":"90a9c67f-8b6a-4ec5-90db-503ca52fd34d","system_id":"levelo_inurba_marseille","lat":43.30275,"lon":5.40072,"is_reserved":false,"is_disabled":false,"rental_uris":{"android":"levelo://app?vid=90a9c67f-8b6a-4ec5-90db-503ca52fd34d","ios":"levelo://app?vid=90a9c67f-8b6a-4ec5-90db-503ca52fd34d"},"vehicle_type_id":"4","last_reported":1742231308,"current_range_meters":14000,"station_id":"ce4bgvh2rcd13ifvqcs0","pricing_plan_id":"cebpf4jnsgd1na2vs0mg"},{"bike_id":"32b05340-4d38-4022-b40a-d074117bd445","system_id":"levelo_inurba_marseille","lat":43.2781,"lon":5.40704,"is_reserved":false,"is_disabled":false,"rental_uris":{"android":"levelo://app?vid=32b05340-4d38-4022-b40a-d074117bd445","ios":"levelo://app?vid=32b05340-4d38-4022-b40a-d074117bd445"},"vehicle_type_id":"4","last_reported":1742231308,"current_range_meters":14000,"station_id":"ce4bhnh2rcd13ifvqgtg","pricing_plan_id":"cebpf4jnsgd1na2vs0mg"},{"bike_id":"61922ae2-ec13-48a3-8f32-4e29d0f3b917","system_id":"levelo_inurba_marseille","lat":43.29259,"lon":5.4091,"is_reserved":false,"is_disabled":false,"rental_uris":{"android":"levelo://app?vid=61922ae2-ec13-48a3-8f32-4e29d0f3b917","ios":"levelo://app?vid=61922ae2-ec13-48a3-8f32-4e29d0f3b917"},"vehicle_type_id":"4","last_reported":1742231308,"current_range_meters":14000,"station_id":"ce4bh192rcd13ifvqdc0","pricing_plan_id":"cebpf4jnsgd1na2vs0mg"},{"bike_id":"a6ac2d09-5d5b-4458-877f-1a998bf954c5","system_id":"levelo_inurba_marseille","lat":43.29418,"lon":5.38629,"is_reserved":false,"is_disabled":false,"rental_uris":{"android":"levelo://app?vid=a6ac2d09-5d5b-4458-877f-1a998bf954c5","ios":"levelo://app?vid=a6ac2d09-5d5b-4458-877f-1a998bf954c5"},"vehicle_type_id":"4","last_reported":1742231308,"current_range_meters":14000,"station_id":"ce4bh2h2rcd13ifvqdh0","pricing_plan_id":"cebpf4jnsgd1na2vs0mg"},{"bike_id":"2be559d6-d92c-43bd-ba9c-119229ab0323","system_id":"levelo_inurba_marseille","lat":43.29315,"lon":5.37162,"is_reserved":false,"is_disabled":false,"rental_uris":{"android":"levelo://app?vid=2be559d6-d92c-43bd-ba9c-119229ab0323","ios":"levelo://app?vid=2be559d6-d92c-43bd-ba9c-119229ab0323"},"vehicle_type_id":"4","last_reported":1742231308,"current_range_meters":14000,"station_id":"ce4bgh92rcd13ifvqb40","pricing_plan_id":"cebpf4jnsgd1na2vs0mg"},{"bike_id":"39d2df96-c36f-4593-8a68-432fe8c8d072","system_id":"levelo_inurba_marseille","lat":43.29898,"lon":5.43649,"is_reserved":false,"is_disabled":false,"rental_uris":{"android":"levelo://app?vid=39d2df96-c36f-4593-8a68-432fe8c8d072","ios":"levelo://app?vid=39d2df96-c36f-4593-8a68-432fe8c8d072"},"vehicle_type_id":"4","last_reported":1742231308,"current_range_meters":14400,"station_id":"ce4bhpp2rcd13ifvqhfg","pricing_plan_id":"cebpf4jnsgd1na2vs0mg"},{"bike_id":"5258970b-1d85-4751-b981-1764829cf202","system_id":"levelo_inurba_marseille","lat":43.2843,"lon":5.3499,"is_reserved":false,"is_disabled":false,"rental_uris":{"android":"levelo://app?vid=5258970b-1d85-4751-b981-1764829cf202","ios":"levelo://app?vid=5258970b-1d85-4751-b981-1764829cf202"},"vehicle_type_id":"4","last_reported":1742231308,"current_range_meters":14400,"station_id":"ce4bhbh2rcd13ifvqepg","pricing_plan_id":"cebpf4jnsgd1na2vs0mg"},{"bike_id":"12527f85-a72e-4be2-af47-5cdf2494e740","system_id":"levelo_inurba_marseille","lat":43.32199,"lon":5.38963,"is_reserved":false,"is_disabled":false,"rental_uris":{"android":"levelo://app?vid=12527f85-a72e-4be2-af47-5cdf2494e740","ios":"levelo://app?vid=12527f85-a72e-4be2-af47-5cdf2494e740"},"vehicle_type_id":"4","last_reported":1742231308,"current_range_meters":14400,"station_id":"","pricing_plan_id":"cebpf4jnsgd1na2vs0mg"},{"bike_id":"96e89a39-929a-49fe-8d6c-e47bf8ca7a6f","system_id":"levelo_inurba_marseille","lat":43.23059,"lon":5.35493,"is_reserved":false,"is_disabled":false,"rental_uris":{"android":"levelo://app?vid=96e89a39-929a-49fe-8d6c-e47bf8ca7a6f","ios":"levelo://app?vid=96e89a39-929a-49fe-8d6c-e47bf8ca7a6f"},"vehicle_type_id":"4","last_reported":1742231308,"current_range_meters":14400,"station_id":"cpo3342slgdg3j2ifvpg","pricing_plan_id":"cebpf4jnsgd1na2vs0mg"},{"bike_id":"522f99cb-f105-4bf1-8b05-dccec75ba908","system_id":"levelo_inurba_marseille","lat":43.302756,"lon":5.37683,"is_reserved":false,"is_disabled":false,"rental_uris":{"android":"levelo://app?vid=522f99cb-f105-4bf1-8b05-dccec75ba908","ios":"levelo://app?vid=522f99cb-f105-4bf1-8b05-dccec75ba908"},"vehicle_type_id":"4","last_reported":1742231308,"current_range_meters":14800,"station_id":"","pricing_plan_id":"cebpf4jnsgd1na2vs0mg"},{"bike_id":"d1d462fe-e882-4c9c-bada-2322f0883580","system_id":"levelo_inurba_marseille","lat":43.28947,"lon":5.36399,"is_reserved":false,"is_disabled":false,"rental_uris":{"android":"levelo://app?vid=d1d462fe-e882-4c9c-bada-2322f0883580","ios":"levelo://app?vid=d1d462fe-e882-4c9c-bada-2322f0883580"},"vehicle_type_id":"4","last_reported":1742231308,"current_range_meters":14400,"station_id":"ce4bhc92rcd13ifvqetg","pricing_plan_id":"cebpf4jnsgd1na2vs0mg"},{"bike_id":"519efbbc-7577-4063-8eac-658ef30e98a3","system_id":"levelo_inurba_marseille","lat":43.24979,"lon":5.38934,"is_reserved":false,"is_disabled":false,"rental_uris":{"android":"levelo://app?vid=519efbbc-7577-4063-8eac-658ef30e98a3","ios":"levelo://app?vid=519efbbc-7577-4063-8eac-658ef30e98a3"},"vehicle_type_id":"4","last_reported":1742231308,"current_range_meters":14800,"station_id":"ce4bhgp2rcd13ifvqfd0","pricing_plan_id":"cebpf4jnsgd1na2vs0mg"},{"bike_id":"7b7bcce5-38be-4679-818a-6fd7087da75d","system_id":"levelo_inurba_marseille","lat":43.29707,"lon":5.3661,"is_reserved":false,"is_disabled":false,"rental_uris":{"android":"levelo://app?vid=7b7bcce5-38be-4679-818a-6fd7087da75d","ios":"levelo://app?vid=7b7bcce5-38be-4679-818a-6fd7087da75d"},"vehicle_type_id":"4","last_reported":1742231308,"current_range_meters":14800,"station_id":"ce4bgn12rcd13ifvqbt0","pricing_plan_id":"cebpf4jnsgd1na2vs0mg"},{"bike_id":"952ddd16-fae0-403c-ab91-ed613481aae3","system_id":"levelo_inurba_marseille","lat":43.25119,"lon":5.40321,"is_reserved":false,"is_disabled":false,"rental_uris":{"android":"levelo://app?vid=952ddd16-fae0-403c-ab91-ed613481aae3","ios":"levelo://app?vid=952ddd16-fae0-403c-ab91-ed613481aae3"},"vehicle_type_id":"4","last_reported":1742231308,"current_range_meters":14800,"station_id":"ce4bhlh2rcd13ifvqgig","pricing_plan_id":"cebpf4jnsgd1na2vs0mg"},{"bike_id":"191d9353-1fa2-4d4d-8b05-ae2460203693","system_id":"levelo_inurba_marseille","lat":43.29283,"lon":5.40118,"is_reserved":false,"is_disabled":false,"rental_uris":{"android":"levelo://app?vid=191d9353-1fa2-4d4d-8b05-ae2460203693","ios":"levelo://app?vid=191d9353-1fa2-4d4d-8b05-ae2460203693"},"vehicle_type_id":"4","last_reported":1742231308,"current_range_meters":14800,"station_id":"ce4bh312rcd13ifvqdk0","pricing_plan_id":"cebpf4jnsgd1na2vs0mg"},{"bike_id":"5f6dad71-84bb-43d4-a8e1-a4a7d7d2a5c9","system_id":"levelo_inurba_marseille","lat":43.26943,"lon":5.40254,"is_reserved":false,"is_disabled":false,"rental_uris":{"android":"levelo://app?vid=5f6dad71-84bb-43d4-a8e1-a4a7d7d2a5c9","ios":"levelo://app?vid=5f6dad71-84bb-43d4-a8e1-a4a7d7d2a5c9"},"vehicle_type_id":"4","last_reported":1742231308,"current_range_meters":15200,"station_id":"cjm6bp8fraef2m0cb0m0","pricing_plan_id":"cebpf4jnsgd1na2vs0mg"},{"bike_id":"b611c071-f0bb-41a2-aa25-420b921bc079","system_id":"levelo_inurba_marseille","lat":43.23077,"lon":5.35496,"is_reserved":false,"is_disabled":false,"rental_uris":{"android":"levelo://app?vid=b611c071-f0bb-41a2-aa25-420b921bc079","ios":"levelo://app?vid=b611c071-f0bb-41a2-aa25-420b921bc079"},"vehicle_type_id":"4","last_reported":1742231308,"current_range_meters":15200,"station_id":"cpo3342slgdg3j2ifvpg","pricing_plan_id":"cebpf4jnsgd1na2vs0mg"},{"bike_id":"52f71405-f6a3-4dcb-9351-93f3d88614de","system_id":"levelo_inurba_marseille","lat":43.28266,"lon":5.35076,"is_reserved":false,"is_disabled":true,"rental_uris":{"android":"levelo://app?vid=52f71405-f6a3-4dcb-9351-93f3d88614de","ios":"levelo://app?vid=52f71405-f6a3-4dcb-9351-93f3d88614de"},"vehicle_type_id":"4","last_reported":1742231308,"current_range_meters":15200,"station_id":"ce4bhbp2rcd13ifvqerg","pricing_plan_id":"cebpf4jnsgd1na2vs0mg"},{"bike_id":"8d0db83e-24c7-49f8-8a91-e031c9100fee","system_id":"levelo_inurba_marseille","lat":43.27812,"lon":5.40713,"is_reserved":false,"is_disabled":false,"rental_uris":{"android":"levelo://app?vid=8d0db83e-24c7-49f8-8a91-e031c9100fee","ios":"levelo://app?vid=8d0db83e-24c7-49f8-8a91-e031c9100fee"},"vehicle_type_id":"4","last_reported":1742231308,"current_range_meters":15200,"station_id":"ce4bhnh2rcd13ifvqgtg","pricing_plan_id":"cebpf4jnsgd1na2vs0mg"},