{"last_updated":1719263255,"ttl":30,"version":"2.2","data":{"bikes":[{"bike_id":"bd6336c7-93e6-437a-bdff-d0eb01b1e56d","system_id":"levelo_inurba_marseille","lat":43.31291,"lon":5.37144,"is_reserved":false,"is_disabled":false,"rental_uris":{"android":"levelo://app?vid=bd6336c7-93e6-437a-bdff-d0eb01b1e56d","ios":"levelo://app?vid=bd6336c7-93e6-437a-bdff-d0eb01b1e56d"},"vehicle_type_id":"4","last_reported":1719263255,"current_range_meters":14800,"station_id":"","pricing_plan_id":"cebpf4jnsgd1na2vs0mg"},{"bike_id":"fdc19b3a-c775-40d2-bd35-ad771d143c37","system_id":"levelo_inurba_marseille","lat":43.309076,"lon":5.368465,"is_reserved":false,"is_disabled":false,"rental_uris":{"android":"levelo://app?vid=fdc19b3a-c775-40d2-bd35-ad771d143c37","ios":"levelo://app?vid=fdc19b3a-c775-40d2-bd35-ad771d143c37"},"vehicle_type_id":"4","last_reported":1719263255,"current_range_meters":8000,"station_id":"ce4bgn92rcd13ifvqbvg","pricing_plan_id":"cebpf4jnsgd1na2vs0mg"},{"bike_id":"8c98d7df-cd48-4fdf-b9f7-d27807cbf245","system_id":"levelo_inurba_marseille","lat":43.30857,"lon":5.37033,"is_reserved":false,"is_disabled":false,"rental_uris":{"android":"levelo://app?vid=8c98d7df-cd48-4fdf-b9f7-d27807cbf245","ios":"levelo://app?vid=8c98d7df-cd48-4fdf-b9f7-d27807cbf245"},"vehicle_type_id":"4","last_reported":1719263255,"current_range_meters":9600,"station_id":"","pricing_plan_id":"cebpf4jnsgd1na2vs0mg"},{"bike_id":"4d56cf0e-97aa-451c-872d-c7b5879d0c3f","system_id":"levelo_inurba_marseille","lat":43.314811,"lon":5.373103,"is_reserved":false,"is_disabled":false,"rental_uris":{"android":"levelo://app?vid=4d56cf0e-97aa-451c-872d-c7b5879d0c3f","ios":"levelo://app?vid=4d56cf0e-97aa-451c-872d-c7b5879d0c3f"},"vehicle_type_id":"4","last_reported":1719263255,"current_range_meters":4800,"station_id":"ce4bgt12rcd13ifvqcd0","pricing_plan_id":"cebpf4jnsgd1na2vs0mg"},{"bike_id":"3e6229a9-daa1-4e8e-b7ec-60b28f97252f","system_id":"levelo_inurba_marseille","lat":43.31452,"lon":5.373706,"is_reserved":false,"is_disabled":false,"rental_uris":{"android":"levelo://app?vid=3e6229a9-daa1-4e8e-b7ec-60b28f97252f","ios":"levelo://app?vid=3e6229a9-daa1-4e8e-b7ec-60b28f97252f"},"vehicle_type_id":"4","last_reported":1719263255,"current_range_meters":1600,"station_id":"ce4bgt12rcd13ifvqcd0","pricing_plan_id":"cebpf4jnsgd1na2vs0mg"},{"bike_id":"77460ccb-960a-4153-8783-e0a172f31a95","system_id":"levelo_inurba_marseille","lat":43.314513,"lon":5.373723,"is_reserved":false,"is_disabled":false,"rental_uris":{"android":"levelo://app?vid=77460ccb-960a-4153-8783-e0a172f31a95","ios":"levelo://app?vid=77460ccb-960a-4153-8783-e0a172f31a95"},"vehicle_type_id":"4","last_reported":1719263255,"current_range_meters":5200,"station_id":"","pricing_plan_id":"cebpf4jnsgd1na2vs0mg"},{"bike_id":"d74d496a-a267-4f58-b9d3-4f468f416945","system_id":"levelo_inurba_marseille","lat":43.305408,"lon":5.366584,"is_reserved":false,"is_disabled":false,"rental_uris":{"android":"levelo://app?vid=d74d496a-a267-4f58-b9d3-4f468f416945","ios":"levelo://app?vid=d74d496a-a267-4f58-b9d3-4f468f416945"},"vehicle_type_id":"4","last_reported":1719263255,"current_range_meters":19600,"station_id":"","pricing_plan_id":"cebpf4jnsgd1na2vs0mg"},{"bike_id":"4f9b4749-8f37-43ae-9df1-0ec7cc3b89e6","system_id":"levelo_inurba_marseille","lat":43.305276,"lon":5.365829,"is_reserved":false,"is_disabled":false,"rental_uris":{"android":"levelo://app?vid=4f9b4749-8f37-43ae-9df1-0ec7cc3b89e6","ios":"levelo://app?vid=4f9b4749-8f37-43ae-9df1-0ec7cc3b89e6"},"vehicle_type_id":"4","last_reported":1719263255,"current_range_meters":29200,"station_id":"ce4bgs12rcd13ifvqcag","pricing_plan_id":"cebpf4jnsgd1na2vs0mg"},{"bike_id":"d067ea72-43de-4df5-b012-6c156fd5b1b4","system_id":"levelo_inurba_marseille","lat":43.305987,"lon":5.37224,"is_reserved":false,"is_disabled":false,"rental_uris":{"android":"levelo://app?vid=d067ea72-43de-4df5-b012-6c156fd5b1b4","ios":"levelo://app?vid=d067ea72-43de-4df5-b012-6c156fd5b1b4"},"vehicle_type_id":"4","last_reported":1719263255,"current_range_meters":24400,"station_id":"ce4bgqh2rcd13ifvqc4g","pricing_plan_id":"cebpf4jnsgd1na2vs0mg"},{"bike_id":"5ebc93c8-60e5-493e-95f2-359150c761ff","system_id":"levelo_inurba_marseille","lat":43.305989,"lon":5.37225,"is_reserved":false,"is_disabled":false,"rental_uris":{"android":"levelo://app?vid=5ebc93c8-60e5-493e-95f2-359150c761ff","ios":"levelo://app?vid=5ebc93c8-60e5-493e-95f2-359150c761ff"},"vehicle_type_id":"4","last_reported":1719263255,"current_range_meters":30400,"station_id":"ce4bgqh2rcd13ifvqc4g","pricing_plan_id":"cebpf4jnsgd1na2vs0mg"},{"bike_id":"1b41c09e-d82a-436e-8b7a-681482a83d33","system_id":"levelo_inurba_marseille","lat":43.305989,"lon":5.37225,"is_reserved":false,"is_disabled":false,"rental_uris":{"android":"levelo://app?vid=1b41c09e-d82a-436e-8b7a-681482a83d33","ios":"levelo://app?vid=1b41c09e-d82a-436e-8b7a-681482a83d33"},"vehicle_type_id":"4","last_reported":1719263255,"current_range_meters":14800,"station_id":"ce4bgqh2rcd13ifvqc4g","pricing_plan_id":"cebpf4jnsgd1na2vs0mg"},{"bike_id":"de40fb0e-c9fb-473f-a298-b8ce16a17ea6","system_id":"levelo_inurba_marseille","lat":43.311131,"lon":5.377651,"is_reserved":false,"is_disabled":false,"rental_uris":{"android":"levelo://app?vid=de40fb0e-c9fb-473f-a298-b8ce16a17ea6","ios":"levelo://app?vid=de40fb0e-c9fb-473f-a298-b8ce16a17ea6"},"vehicle_type_id":"4","last_reported":1719263255,"current_range_meters":10400,"station_id":"ce4bgt92rcd13ifvqcg0","pricing_plan_id":"cebpf4jnsgd1na2vs0mg"},{"bike_id":"841d6fa2-7e21-45f1-882d-64928e4c7651","system_id":"levelo_inurba_marseille","lat":43.311131,"lon":5.377651,"is_reserved":false,"is_disabled":false,"rental_uris":{"android":"levelo://app?vid=841d6fa2-7e21-45f1-882d-64928e4c7651","ios":"levelo://app?vid=841d6fa2-7e21-45f1-882d-64928e4c7651"},"vehicle_type_id":"4","last_reported":1719263255,"current_range_meters":7200,"station_id":"ce4bgt92rcd13ifvqcg0","pricing_plan_id":"cebpf4jnsgd1na2vs0mg"},{"bike_id":"665a0a33-bef3-4699-924b-d5fdb399e5e7","system_id":"levelo_inurba_marseille","lat":43.311131,"lon":5.377651,"is_reserved":false,"is_disabled":false,"rental_uris":{"android":"levelo://app?vid=665a0a33-bef3-4699-924b-d5fdb399e5e7","ios":"levelo://app?vid=665a0a33-bef3-4699-924b-d5fdb399e5e7"},"vehicle_type_id":"4","last_reported":1719263255,"current_range_meters":0,"station_id":"ce4bgt92rcd13ifvqcg0","pricing_plan_id":"cebpf4jnsgd1na2vs0mg"},{"bike_id":"02187124-663b-4495-969e-1c8b76d9e976","system_id":"levelo_inurba_marseille","lat":43.311125,"lon":5.377624,"is_reserved":false,"is_disabled":false,"rental_uris":{"android":"levelo://app?vid=02187124-663b-4495-969e-1c8b76d9e976","ios":"levelo://app?vid=02187124-663b-4495-969e-1c8b76d9e976"},"vehicle_type_id":"4","last_reported":1719263255,"current_range_meters":30400,"station_id":"ce4bgt92rcd13ifvqcg0","pricing_plan_id":"cebpf4jnsgd1na2vs0mg"},{"bike_id":"56d8277d-37d4-4ee7-8c9f-981a13a397da","system_id":"levelo_inurba_marseille","lat":43.305364,"lon":5.384119,"is_reserved":false,"is_disabled":false,"rental_uris":{"android":"levelo://app?vid=56d8277d-37d4-4ee7-8c9f-981a13a397da","ios":"levelo://app?vid=56d8277d-37d4-4ee7-8c9f-981a13a397da"},"vehicle_type_id":"4","last_reported":1719263255,"current_range_meters":28400,"station_id":"ce4bgg92rcd13ifvqb30","pricing_plan_id":"cebpf4jnsgd1na2vs0mg"},{"bike_id":"cc16c223-1999-426e-a2ff-8461f324873d","system_id":"levelo_inurba_marseille","lat":43.307945,"lon":5.376487,"is_reserved":false,"is_disabled":false,"rental_uris":{"android":"levelo://app?vid=cc16c223-1999-426e-a2ff-8461f324873d","ios":"levelo://app?vid=cc16c223-1999-426e-a2ff-8461f324873d"},"vehicle_type_id":"4","last_reported":1719263255,"current_range_meters":5200,"station_id":"ce4bgv92rcd13ifvqcq0","pricing_plan_id":"cebpf4jnsgd1na2vs0mg"},{"bike_id":"cb81d902-842c-4104-90cb-875ddb39ee7f","system_id":"levelo_inurba_marseille","lat":43.306424,"lon":5.374938,"is_reserved":false,"is_disabled":false,"rental_uris":{"android":"levelo://app?vid=cb81d902-842c-4104-90cb-875ddb39ee7f","ios":"levelo://app?vid=cb81d902-842c-4104-90cb-875ddb39ee7f"},"vehicle_type_id":"4","last_reported":1719263255,"current_range_meters":18800,"station_id":"","pricing_plan_id":"cebpf4jnsgd1na2vs0mg"},{"bike_id":"c6bfea62-b2bd-42ce-8b84-5cae8a80627c","system_id":"levelo_inurba_marseille","lat":43.317075,"lon":5.377367,"is_reserved":false,"is_disabled":false,"rental_uris":{"android":"levelo://app?vid=c6bfea62-b2bd-42ce-8b84-5cae8a80627c","ios":"levelo://app?vid=c6bfea62-b2bd-42ce-8b84-5cae8a80627c"},"vehicle_type_id":"4","last_reported":1719263255,"current_range_meters":26400,"station_id":"ce4bgth2rcd13ifvqch0","pricing_plan_id":"cebpf4jnsgd1na2vs0mg"},{"bike_id":"eba668be-b2ed-461f-96fd-e8d188ca0b14","system_id":"levelo_inurba_marseille","lat":43.317075,"lon":5.377367,"is_reserved":false,"is_disabled":false,"rental_uris":{"android":"levelo://app?vid=eba668be-b2ed-461f-96fd-e8d188ca0b14","ios":"levelo://app?vid=eba668be-b2ed-461f-96fd-e8d188ca0b14"},"vehicle_type_id":"4","last_reported":1719263255,"current_range_meters":26000,"station_id":"ce4bgth2rcd13ifvqch0","pricing_plan_id":"cebpf4jnsgd1na2vs0mg"},{"bike_id":"a43e143e-faad-4c35-9edc-f68f7257b867","system_id":"levelo_inurba_marseille","lat":43.31705,"lon":5.37757,"is_reserved":false,"is_disabled":false,"rental_uris":{"android":"levelo://app?vid=a43e143e-faad-4c35-9edc-f68f7257b867","ios":"levelo://app?vid=a43e143e-faad-4c35-9edc-f68f7257b867"},"vehicle_type_id":"4","last_reported":1719263255,"current_range_meters":19600,"station_id":"ce4bgth2rcd13ifvqch0","pricing_plan_id":"cebpf4jnsgd1na2vs0mg"},{"bike_id":"21c21597-dd48-4873-8559-37b75edca0ef","system_id":"levelo_inurba_marseille","lat":43.315289,"lon":5.380349,"is_reserved":false,"is_disabled":false,"rental_uris":{"android":"levelo://app?vid=21c21597-dd48-4873-8559-37b75edca0ef","ios":"levelo://app?vid=21c21597-dd48-4873-8559-37b75edca0ef"},"vehicle_type_id":"4","last_reported":1719263255,"current_range_meters":4400,"station_id":"ce4bhsp2rcd13ifvqi50","pricing_plan_id":"cebpf4jnsgd1na2vs0mg"},{"bike_id":"b59ce81b-7e8e-409a-934f-dc2131fe2dc2","system_id":"levelo_inurba_marseille","lat":43.315289,"lon":5.380349,"is_reserved":false,"is_disabled":false,"rental_uris":{"android":"levelo://app?vid=b59ce81b-7e8e-409a-934f-dc2131fe2dc2","ios":"levelo://app?vid=b59ce81b-7e8e-409a-934f-dc2131fe2dc2"},"vehicle_type_id":"4","last_reported":1719263255,"current_range_meters":24800,"station_id":"ce4bhsp2rcd13ifvqi50","pricing_plan_id":"cebpf4jnsgd1na2vs0mg"},{"bike_id":"a4674732-a552-4369-b43e-a01fe8972100","system_id":"levelo_inurba_marseille","lat":43.30201,"lon":5.36604,"is_reserved":false,"is_disabled":false,"rental_uris":{"android":"levelo://app?vid=a4674732-a552-4369-b43e-a01fe8972100","ios":"levelo://app?vid=a4674732-a552-4369-b43e-a01fe8972100"},"vehicle_type_id":"4","last_reported":1719263255,"current_range_meters":0,"station_id":"ce4bgrh2rcd13ifvqc8g","pricing_plan_id":"cebpf4jnsgd1na2vs0mg"},{"bike_id":"42b47ec4-774e-4cff-a9f8-c47a7a3d8524","system_id":"levelo_inurba_marseille","lat":43.301707,"lon":5.370431,"is_reserved":false,"is_disabled":false,"rental_uris":{"android":"levelo://app?vid=42b47ec4-774e-4cff-a9f8-c47a7a3d8524","ios":"levelo://app?vid=42b47ec4-774e-4cff-a9f8-c47a7a3d8524"},"vehicle_type_id":"4","last_reported":1719263255,"current_range_meters":20800,"station_id":"","pricing_plan_id":"cebpf4jnsgd1na2vs0mg"},{"bike_id":"8e67ec81-a587-44ae-9128-f75081fad12a","system_id":"levelo_inurba_marseille","lat":43.308012,"lon":5.381511,"is_reserved":false,"is_disabled":false,"rental_uris":{"android":"levelo://app?vid=8e67ec81-a587-44ae-9128-f75081fad12a","ios":"levelo://app?vid=8e67ec81-a587-44ae-9128-f75081fad12a"},"vehicle_type_id":"4","last_reported":1719263255,"current_range_meters":25200,"station_id":"ce4bgt12rcd13ifvqce0","pricing_plan_id":"cebpf4jnsgd1na2vs0mg"},{"bike_id":"5a27c9b3-f83a-4481-b57d-a01db13d88fb","system_id":"levelo_inurba_marseille","lat":43.308012,"lon":5.381511,"is_reserved":false,"is_disabled":false,"rental_uris":{"android":"levelo://app?vid=5a27c9b3-f83a-4481-b57d-a01db13d88fb","ios":"levelo://app?vid=5a27c9b3-f83a-4481-b57d-a01db13d88fb"},"vehicle_type_id":"4","last_reported":1719263255,"current_range_meters":20800,"station_id":"ce4bgt12rcd13ifvqce0","pricing_plan_id":"cebpf4jnsgd1na2vs0mg"},{"bike_id":"c0f4cd64-a4bd-4a18-bce7-3d6369aec1a0","system_id":"levelo_inurba_marseille","lat":43.308012,"lon":5.381511,"is_reserved":false,"is_disabled":false,"rental_uris":{"android":"levelo://app?vid=c0f4cd64-a4bd-4a18-bce7-3d6369aec1a0","ios":"levelo://app?vid=c0f4cd64-a4bd-4a18-bce7-3d6369aec1a0"},"vehicle_type_id":"4","last_reported":1719263255,"current_range_meters":15600,"station_id":"ce4bgt12rcd13ifvqce0","pricing_plan_id":"cebpf4jnsgd1na2vs0mg"},{"bike_id":"754b75d5-44f2-48fc-8b13-8a3cdcb27dde","system_id":"levelo_inurba_marseille","lat":43.308012,"lon":5.381511,"is_reserved":false,"is_disabled":false,"rental_uris":{"android":"levelo://app?vid=754b75d5-44f2-48fc-8b13-8a3cdcb27dde","ios":"levelo://app?vid=754b75d5-44f2-48fc-8b13-8a3cdcb27dde"},"vehicle_type_id":"4","last_reported":1719263255,"current_range_meters":11200,"station_id":"ce4bgt12rcd13ifvqce0","pricing_plan_id":"cebpf4jnsgd1na2vs0mg"},{"bike_id":"1fa7d650-fe44-49e4-9ffa-31c772387bdd","system_id":"levelo_inurba_marseille","lat":43.324771,"lon":5.36557,"is_reserved":false,"is_disabled":false,"rental_uris":{"android":"levelo://app?vid=1fa7d650-fe44-49e4-9ffa-31c772387bdd","ios":"levelo://app?vid=1fa7d650-fe44-49e4-9ffa-31c772387bdd"},"vehicle_type_id":"4","last_reported":1719263255,"current_range_meters":23600,"station_id":"ce4bhs12rcd13ifvqhvg","pricing_plan_id":"cebpf4jnsgd1na2vs0mg"},{"bike_id":"99940d12-8816-4939-9d2f-6c5fc5e8f53a","system_id":"levelo_inurba_marseille","lat":43.324771,"lon":5.36557,"is_reserved":false,"is_disabled":false,"rental_uris":{"android":"levelo://app?vid=99940d12-8816-4939-9d2f-6c5fc5e8f53a","ios":"levelo://app?vid=99940d12-8816-4939-9d2f-6c5fc5e8f53a"},"vehicle_type_id":"4","last_reported":1719263255,"current_range_meters":20800,"station_id":"ce4bhs12rcd13ifvqhvg","pricing_plan_id":"cebpf4jnsgd1na2vs0mg"},{"bike_id":"2ed89dee-048a-4cd4-af56-4532b33b1a04","system_id":"levelo_inurba_marseille","lat":43.324771,"lon":5.36557,"is_reserved":false,"is_disabled":false,"rental_uris":{"android":"levelo://app?vid=2ed89dee-048a-4cd4-af56-4532b33b1a04","ios":"levelo://app?vid=2ed89dee-048a-4cd4-af56-4532b33b1a04"},"vehicle_type_id":"4","last_reported":1719263255,"current_range_meters":16800,"station_id":"ce4bhs12rcd13ifvqhvg","pricing_plan_id":"cebpf4jnsgd1na2vs0mg"},{"bike_id":"15992822-2bb1-46fc-a43a-68b7bf806d99","system_id":"levelo_inurba_marseille","lat":43.324771,"lon":5.36557,"is_reserved":false,"is_disabled":false,"rental_uris":{"android":"levelo://app?vid=15992822-2bb1-46fc-a43a-68b7bf806d99","ios":"levelo://app?vid=15992822-2bb1-46fc-a43a-68b7bf806d99"},"vehicle_type_id":"4","last_reported":1719263255,"current_range_meters":27600,"station_id":"ce4bhs12rcd13ifvqhvg","pricing_plan_id":"cebpf4jnsgd1na2vs0mg"},{"bike_id":"a9461242-4a57-4140-99c5-57df5f14a372","system_id":"levelo_inurba_marseille","lat":43.324771,"lon":5.36557,"is_reserved":false,"is_disabled":false,"rental_uris":{"android":"levelo://app?vid=a9461242-4a57-4140-99c5-57df5f14a372","ios":"levelo://app?vid=a9461242-4a57-4140-99c5-57df5f14a372"},"vehicle_type_id":"4","last_reported":1719263255,"current_range_meters":30000,"station_id":"ce4bhs12rcd13ifvqhvg","pricing_plan_id":"cebpf4jnsgd1na2vs0mg"},{"bike_id":"eb794116-d831-4f1d-9de5-1bd8d6cbc5e0","system_id":"levelo_inurba_marseille","lat":43.324771,"lon":5.36557,"is_reserved":false,"is_disabled":false,"rental_uris":{"android":"levelo://app?vid=eb794116-d831-4f1d-9de5-1bd8d6cbc5e0","ios":"levelo://app?vid=eb794116-d831-4f1d-9de5-1bd8d6cbc5e0"},"vehicle_type_id":"4","last_reported":1719263255,"current_range_meters":2800,"station_id":"ce4bhs12rcd13ifvqhvg","pricing_plan_id":"cebpf4jnsgd1na2vs0mg"},{"bike_id":"cb2c6264-0d83-4fea-920e-db5bb6781063","system_id":"levelo_inurba_marseille","lat":43.324771,"lon":5.36557,"is_reserved":false,"is_disabled":false,"rental_uris":{"android":"levelo://app?vid=cb2c6264-0d83-4fea-920e-db5bb6781063","ios":"levelo://app?vid=cb2c6264-0d83-4fea-920e-db5bb6781063"},"vehicle_type_id":"4","last_reported":1719263255,"current_range_meters":28000,"station_id":"ce4bhs12rcd13ifvqhvg","pricing_plan_id":"cebpf4jnsgd1na2vs0mg"},{"bike_id":"f4b2a785-15e1-48bc-a6b5-497f84fc92df","system_id":"levelo_inurba_marseille","lat":43.31072,"lon":5.38355,"is_reserved":false,"is_disabled":false,"rental_uris":{"android":"levelo://app?vid=f4b2a785-15e1-48bc-a6b5-497f84fc92df","ios":"levelo://app?vid=f4b2a785-15e1-48bc-a6b5-497f84fc92df"},"vehicle_type_id":"4","last_reported":1719263255,"current_range_meters":0,"station_id":"ce4bgv92rcd13ifvqcr0","pricing_plan_id":"cebpf4jnsgd1na2vs0mg"},{"bike_id":"b9e87985-5b2c-4616-a050-cf7f3a3bd3c9","system_id":"levelo_inurba_marseille","lat":43.31077,"lon":5.38365,"is_reserved":false,"is_disabled":false,"rental_uris":{"android":"levelo://app?vid=b9e87985-5b2c-4616-a050-cf7f3a3bd3c9","ios":"levelo://app?vid=b9e87985-5b2c-4616-a050-cf7f3a3bd3c9"},"vehicle_type_id":"4","last_reported":1719263255,"current_range_meters":14400,"station_id":"ce4bgv92rcd13ifvqcr0","pricing_plan_id":"cebpf4jnsgd1na2vs0mg"},{"bike_id":"f108152d-6877-448b-b138-c509ae521661","system_id":"levelo_inurba_marseille","lat":43.310804,"lon":5.38359,"is_reserved":false,"is_disabled":false,"rental_uris":{"android":"levelo://app?vid=f108152d-6877-448b-b138-c509ae521661","ios":"levelo://app?vid=f108152d-6877-448b-b138-c509ae521661"},"vehicle_type_id":"4","last_reported":1719263255,"current_range_meters":26800,"station_id":"ce4bgv92rcd13ifvqcr0","pricing_plan_id":"cebpf4jnsgd1na2vs0mg"},{"bike_id":"b8742080-2d4d-454d-9012-30a4991b1820","system_id":"levelo_inurba_marseille","lat":43.301429,"lon":5.37413,"is_reserved":false,"is_disabled":false,"rental_uris":{"android":"levelo://app?vid=b8742080-2d4d-454d-9012-30a4991b1820","ios":"levelo://app?vid=b8742080-2d4d-454d-9012-30a4991b1820"},"vehicle_type_id":"4","last_reported":1719263255,"current_range_meters":12800,"station_id":"ce4bgs92rcd13ifvqcc0","pricing_plan_id":"cebpf4jnsgd1na2vs0mg"},{"bike_id":"6becb9ba-eacb-401c-9d72-36753b249657","system_id":"levelo_inurba_marseille","lat":43.30143,"lon":5.37413,"is_reserved":false,"is_disabled":false,"rental_uris":{"android":"levelo://app?vid=6becb9ba-eacb-401c-9d72-36753b249657","ios":"levelo://app?vid=6becb9ba-eacb-401c-9d72-36753b249657"},"vehicle_type_id":"4","last_reported":1719263255,"current_range_meters":24000,"station_id":"ce4bgs92rcd13ifvqcc0","pricing_plan_id":"cebpf4jnsgd1na2vs0mg"},{"bike_id":"e196d317-6c2a-486c-8956-b62f042a83f2","system_id":"levelo_inurba_marseille","lat":43.301429,"lon":5.37413,"is_reserved":false,"is_disabled":false,"rental_uris":{"android":"levelo://app?vid=e196d317-6c2a-486c-8956-b62f042a83f2","ios":"levelo://app?vid=e196d317-6c2a-486c-8956-b62f042a83f2"},"vehicle_type_id":"4","last_reported":1719263255,"current_range_meters":3200,"station_id":"ce4bgs92rcd13ifvqcc0","pricing_plan_id":"cebpf4jnsgd1na2vs0mg"},{"bike_id":"af6bd670-557a-4df3-906b-665716d42f99","system_id":"levelo_inurba_marseille","lat":43.319935,"lon":5.381699,"is_reserved":false,"is_disabled":false,"rental_uris":{"android":"levelo://app?vid=af6bd670-557a-4df3-906b-665716d42f99","ios":"levelo://app?vid=af6bd670-557a-4df3-906b-665716d42f99"},"vehicle_type_id":"4","last_reported":1719263255,"current_range_meters":9200,"station_id":"ce4bhr12rcd13ifvqhpg","pricing_plan_id":"cebpf4jnsgd1na2vs0mg"},{"bike_id":"6aac2713-3289-4968-884c-d5525af141cc","system_id":"levelo_inurba_marseille","lat":43.319935,"lon":5.381699,"is_reserved":false,"is_disabled":false,"rental_uris":{"android":"levelo://app?vid=6aac2713-3289-4968-884c-d5525af141cc","ios":"levelo://app?vid=6aac2713-3289-4968-884c-d5525af141cc"},"vehicle_type_id":"4","last_reported":1719263255,"current_range_meters":8000,"station_id":"ce4bhr12rcd13ifvqhpg","pricing_plan_id":"cebpf4jnsgd1na2vs0mg"},{"bike_id":"ba2d3fec-e8f5-4cb2-952a-5422afa027ff","system_id":"levelo_inurba_marseille","lat":43.313571,"lon":5.384829,"is_reserved":false,"is_disabled":false,"rental_uris":{"android":"levelo://app?vid=ba2d3fec-e8f5-4cb2-952a-5422afa027ff","ios":"levelo://app?vid=ba2d3fec-e8f5-4cb2-952a-5422afa027ff"},"vehicle_type_id":"4","last_reported":1719263255,"current_range_meters":21600,"station_id":"ce4bgt92rcd13ifvqcf0","pricing_plan_id":"cebpf4jnsgd1na2vs0mg"},{"bike_id":"89d5738d-95a8-4d0d-8a9c-a092bcbeca0f","system_id":"levelo_inurba_marseille","lat":43.313571,"lon":5.384829,"is_reserved":false,"is_disabled":false,"rental_uris":{"android":"levelo://app?vid=89d5738d-95a8-4d0d-8a9c-a092bcbeca0f","ios":"levelo://app?vid=89d5738d-95a8-4d0d-8a9c-a092bcbeca0f"},"vehicle_type_id":"4","last_reported":1719263255,"current_range_meters":4800,"station_id":"ce4bgt92rcd13ifvqcf0","pricing_plan_id":"cebpf4jnsgd1na2vs0mg"},{"bike_id":"27f0aca8-51e5-4f37-83f7-0bd2d9d05ede","system_id":"levelo_inurba_marseille","lat":43.313571,"lon":5.384829,"is_reserved":false,"is_disabled":false,"rental_uris":{"android":"levelo://app?vid=27f0aca8-51e5-4f37-83f7-0bd2d9d05ede","ios":"levelo://app?vid=27f0aca8-51e5-4f37-83f7-0bd2d9d05ede"},"vehicle_type_id":"4","last_reported":1719263255,"current_range_meters":22800,"station_id":"ce4bgt92rcd13ifvqcf0","pricing_plan_id":"cebpf4jnsgd1na2vs0mg"},{"bike_id":"dcf088ac-fb16-4cca-9175-4f1d754600e2","system_id":"levelo_inurba_marseille","lat":43.313571,"lon":5.384829,"is_reserved":false,"is_disabled":false,"rental_uris":{"android":"levelo://app?vid=dcf088ac-fb16-4cca-9175-4f1d754600e2","ios":"levelo://app?vid=dcf088ac-fb16-4cca-9175-4f1d754600e2"},"vehicle_type_id":"4","last_reported":1719263255,"current_range_meters":26800,"station_id":"ce4bgt92rcd13ifvqcf0","pricing_plan_id":"cebpf4jnsgd1na2vs0mg"},{"bike_id":"73ebfcc3-95b0-41fe-afb7-fd034679f21e","system_id":"levelo_inurba_marseille","lat":43.313685,"lon":5.38498,"is_reserved":false,"is_disabled":false,"rental_uris":{"android":"levelo://app?vid=73ebfcc3-95b0-41fe-afb7-fd034679f21e","ios":"levelo://app?vid=73ebfcc3-95b0-41fe-afb7-fd034679f21e"},"vehicle_type_id":"4","last_reported":1719263255,"current_range_meters":1200,"station_id":"ce4bgt92rcd13ifvqcf0","pricing_plan_id":"cebpf4jnsgd1na2vs0mg"},{"bike_id":"147fa55e-6771-4076-978d-53af655940a3","system_id":"levelo_inurba_marseille","lat":43.313373,"lon":5.385045,"is_reserved":false,"is_disabled":false,"rental_uris":{"android":"levelo://app?vid=147fa55e-6771-4076-978d-53af655940a3","ios":"levelo://app?vid=147fa55e-6771-4076-978d-53af655940a3"},"vehicle_type_id":"4","last_reported":1719263255,"current_range_meters":24000,"station_id":"ce4bgt92rcd13ifvqcf0","pricing_plan_id":"cebpf4jnsgd1na2vs0mg"},{"bike_id":"f67a53cd-e033-49b3-bf80-7b37b3361e59","system_id":"levelo_inurba_marseille","lat":43.313571,"lon":5.384829,"is_reserved":false,"is_disabled":false,"rental_uris":{"android":"levelo://app?vid=f67a53cd-e033-49b3-bf80-7b37b3361e59","ios":"levelo://app?vid=f67a53cd-e033-49b3-bf80-7b37b3361e59"},"vehicle_type_id":"4","last_reported":1719263255,"current_range_meters":7600,"station_id":"ce4bgt92rcd13ifvqcf0","pricing_plan_id":"cebpf4jnsgd1na2vs0mg"},{"bike_id":"b3cf8401-7119-4ce8-b351-65b28a2646a3","system_id":"levelo_inurba_marseille","lat":43.299685,"lon":5.374102,"is_reserved":false,"is_disabled":false,"rental_uris":{"android":"levelo://app?vid=b3cf8401-7119-4ce8-b351-65b28a2646a3","ios":"levelo://app?vid=b3cf8401-7119-4ce8-b351-65b28a2646a3"},"vehicle_type_id":"4","last_reported":1719263255,"current_range_meters":6000,"station_id":"","pricing_plan_id":"cebpf4jnsgd1na2vs0mg"},{"bike_id":"2a6c399d-e2ba-4b6f-9051-48b9c721dc55","system_id":"levelo_inurba_marseille","lat":43.305364,"lon":5.384119,"is_reserved":false,"is_disabled":false,"rental_uris":{"android":"levelo://app?vid=2a6c399d-e2ba-4b6f-9051-48b9c721dc55","ios":"levelo://app?vid=2a6c399d-e2ba-4b6f-9051-48b9c721dc55"},"vehicle_type_id":"4","last_reported":1719263255,"current_range_meters":6000,"station_id":"ce4bgg92rcd13ifvqb30","pricing_plan_id":"cebpf4jnsgd1na2vs0mg"},{"bike_id":"fa107990-09bd-4b16-9ad0-f4b2f6b134c8","system_id":"levelo_inurba_marseille","lat":43.305364,"lon":5.384119,"is_reserved":false,"is_disabled":false,"rental_uris":{"android":"levelo://app?vid=fa107990-09bd-4b16-9ad0-f4b2f6b134c8","ios":"levelo://app?vid=fa107990-09bd-4b16-9ad0-f4b2f6b134c8"},"vehicle_type_id":"4","last_reported":1719263255,"current_range_meters":28800,"station_id":"ce4bgg92rcd13ifvqb30","pricing_plan_id":"cebpf4jnsgd1na2vs0mg"},{"bike_id":"ad2c6820-97b0-4227-9f32-a80260447a10","system_id":"levelo_inurba_marseille","lat":43.305364,"lon":5.384119,"is_reserved":false,"is_disabled":false,"rental_uris":{"android":"levelo://app?vid=ad2c6820-97b0-4227-9f32-a80260447a10","ios":"levelo://app?vid=ad2c6820-97b0-4227-9f32-a80260447a10"},"vehicle_type_id":"4","last_reported":1719263255,"current_range_meters":6400,"station_id":"ce4bgg92rcd13ifvqb30","pricing_plan_id":"cebpf4jnsgd1na2vs0mg"},{"bike_id":"c67f5089-2900-434f-bce9-41c68cd608ce","system_id":"levelo_inurba_marseille","lat":43.311722,"lon":5.387247,"is_reserved":false,"is_disabled":false,"rental_uris":{"android":"levelo://app?vid=c67f5089-2900-434f-bce9-41c68cd608ce","ios":"levelo://app?vid=c67f5089-2900-434f-bce9-41c68cd608ce"},"vehicle_type_id":"4","last_reported":1719263255,"current_range_meters":25200,"station_id":"ce4bgv12rcd13ifvqcp0","pricing_plan_id":"cebpf4jnsgd1na2vs0mg"},{"bike_id":"00c5cfa3-a96b-4bc1-ac33-dd1066ee5237","system_id":"levelo_inurba_marseille","lat":43.311722,"lon":5.387247,"is_reserved":false,"is_disabled":false,"rental_uris":{"android":"levelo://app?vid=00c5cfa3-a96b-4bc1-ac33-dd1066ee5237","ios":"levelo://app?vid=00c5cfa3-a96b-4bc1-ac33-dd1066ee5237"},"vehicle_type_id":"4","last_reported":1719263255,"current_range_meters":28800,"station_id":"ce4bgv12rcd13ifvqcp0","pricing_plan_id":"cebpf4jnsgd1na2vs0mg"},{"bike_id":"99b5a0d2-13f9-4d92-8206-b44f12549d4d","system_id":"levelo_inurba_marseille","lat":43.311722,"lon":5.387247,"is_reserved":false,"is_disabled":false,"rental_uris":{"android":"levelo://app?vid=99b5a0d2-13f9-4d92-8206-b44f12549d4d","ios":"levelo://app?vid=99b5a0d2-13f9-4d92-8206-b44f12549d4d"},"vehicle_type_id":"4","last_reported":1719263255,"current_range_meters":16000,"station_id":"ce4bgv12rcd13ifvqcp0","pricing_plan_id":"cebpf4jnsgd1na2vs0mg"},{"bike_id":"5ba5a3cc-ba86-4669-bfa6-36b7f913cdf9","system_id":"levelo_inurba_marseille","lat":43.299243,"lon":5.374807,"is_reserved":false,"is_disabled":false,"rental_uris":{"android":"levelo://app?vid=5ba5a3cc-ba86-4669-bfa6-36b7f913cdf9","ios":"levelo://app?vid=5ba5a3cc-ba86-4669-bfa6-36b7f913cdf9"},"vehicle_type_id":"4","last_reported":1719263255,"current_range_meters":30800,"station_id":"ce4bgjh2rcd13ifvqbg0","pricing_plan_id":"cebpf4jnsgd1na2vs0mg"},{"bike_id":"c931766e-7314-4787-a212-81f0215eb9ce","system_id":"levelo_inurba_marseille","lat":43.311722,"lon":5.387247,"is_reserved":false,"is_disabled":false,"rental_uris":{"android":"levelo://app?vid=c931766e-7314-4787-a212-81f0215eb9ce","ios":"levelo://app?vid=c931766e-7314-4787-a212-81f0215eb9ce"},"vehicle_type_id":"4","last_reported":1719263255,"current_range_meters":9200,"station_id":"ce4bgv12rcd13ifvqcp0","pricing_plan_id":"cebpf4jnsgd1na2vs0mg"},{"bike_id":"f2e4b3e8-fb6d-4578-b097-d71be46cf025","system_id":"levelo_inurba_marseille","lat":43.297794,"lon":5.370888,"is_reserved":false,"is_disabled":false,"rental_uris":{"android":"levelo://app?vid=f2e4b3e8-fb6d-4578-b097-d71be46cf025","ios":"levelo://app?vid=f2e4b3e8-fb6d-4578-b097-d71be46cf025"},"vehicle_type_id":"4","last_reported":1719263255,"current_range_meters":14000,"station_id":"ce4bgop2rcd13ifvqc1g","pricing_plan_id":"cebpf4jnsgd1na2vs0mg"},{"bike_id":"34159617-e596-4dbf-9981-109c4ed1fa75","system_id":"levelo_inurba_marseille","lat":43.322872,"lon":5.382756,"is_reserved":false,"is_disabled":false,"rental_uris":{"android":"levelo://app?vid=34159617-e596-4dbf-9981-109c4ed1fa75","ios":"levelo://app?vid=34159617-e596-4dbf-9981-109c4ed1fa75"},"vehicle_type_id":"4","last_reported":1719263255,"current_range_meters":30000,"station_id":"ce4bhr12rcd13ifvqhqg","pricing_plan_id":"cebpf4jnsgd1na2vs0mg"},{"bike_id":"f36e05aa-f4a4-4701-8d2e-7f9351735860","system_id":"levelo_inurba_marseille","lat":43.297794,"lon":5.370888,"is_reserved":false,"is_disabled":false,"rental_uris":{"android":"levelo://app?vid=f36e05aa-f4a4-4701-8d2e-7f9351735860","ios":"levelo://app?vid=f36e05aa-f4a4-4701-8d2e-7f9351735860"},"vehicle_type_id":"4","last_reported":1719263255,"current_range_meters":8400,"station_id":"ce4bgop2rcd13ifvqc1g","pricing_plan_id":"cebpf4jnsgd1na2vs0mg"},{"bike_id":"de15eb35-9a72-4513-b9b1-9d70e26e4f8e","system_id":"levelo_inurba_marseille","lat":43.322872,"lon":5.382756,"is_reserved":false,"is_disabled":false,"rental_uris":{"android":"levelo://app?vid=de15eb35-9a72-4513-b9b1-9d70e26e4f8e","ios":"levelo://app?vid=de15eb35-9a72-4513-b9b1-9d70e26e4f8e"},"vehicle_type_id":"4","last_reported":1719263255,"current_range_meters":30800,"station_id":"ce4bhr12rcd13ifvqhqg","pricing_plan_id":"cebpf4jnsgd1na2vs0mg"},{"bike_id":"543ba2d1-1118-4614-8670-2f5bb1dec9cc","system_id":"levelo_inurba_marseille","lat":43.297774,"lon":5.370875,"is_reserved":false,"is_disabled":false,"rental_uris":{"android":"levelo://app?vid=543ba2d1-1118-4614-8670-2f5bb1dec9cc","ios":"levelo://app?vid=543ba2d1-1118-4614-8670-2f5bb1dec9cc"},"vehicle_type_id":"4","last_reported":1719263255,"current_range_meters":28400,"station_id":"ce4bgop2rcd13ifvqc1g","pricing_plan_id":"cebpf4jnsgd1na2vs0mg"},{"bike_id":"8a3dee68-befb-495c-8c53-779d24084da1","system_id":"levelo_inurba_marseille","lat":43.297042,"lon":5.36544,"is_reserved":false,"is_disabled":false,"rental_uris":{"android":"levelo://app?vid=8a3dee68-befb-495c-8c53-779d24084da1","ios":"levelo://app?vid=8a3dee68-befb-495c-8c53-779d24084da1"},"vehicle_type_id":"4","last_reported":1719263255,"current_range_meters":30800,"station_id":"","pricing_plan_id":"cebpf4jnsgd1na2vs0mg"},{"bike_id":"da2c4b94-59b7-4a83-a8fa-b0ced226039d","system_id":"levelo_inurba_marseille","lat":43.299028,"lon":5.381509,"is_reserved":false,"is_disabled":false,"rental_uris":{"android":"levelo://app?vid=da2c4b94-59b7-4a83-a8fa-b0ced226039d","ios":"levelo://app?vid=da2c4b94-59b7-4a83-a8fa-b0ced226039d"},"vehicle_type_id":"4","last_reported":1719263255,"current_range_meters":21200,"station_id":"ce4bgj12rcd13ifvqbc0","pricing_plan_id":"cebpf4jnsgd1na2vs0mg"},{"bike_id":"e2ce584e-087c-4f21-8f34-96008d4755b0","system_id":"levelo_inurba_marseille","lat":43.299028,"lon":5.381509,"is_reserved":false,"is_disabled":false,"rental_uris":{"android":"levelo://app?vid=e2ce584e-087c-4f21-8f34-96008d4755b0","ios":"levelo://app?vid=e2ce584e-087c-4f21-8f34-96008d4755b0"},"vehicle_type_id":"4","last_reported":1719263255,"current_range_meters":23600,"station_id":"ce4bgj12rcd13ifvqbc0","pricing_plan_id":"cebpf4jnsgd1na2vs0mg"},{"bike_id":"753f1da4-104b-4488-991b-a0d10f9bebf1","system_id":"levelo_inurba_marseille","lat":43.317557,"lon":5.390173,"is_reserved":false,"is_disabled":false,"rental_uris":{"android":"levelo://app?vid=753f1da4-104b-4488-991b-a0d10f9bebf1","ios":"levelo://app?vid=753f1da4-104b-4488-991b-a0d10f9bebf1"},"vehicle_type_id":"4","last_reported":1719263255,"current_range_meters":20400,"station_id":"ce4bhqp2rcd13ifvqhng","pricing_plan_id":"cebpf4jnsgd1na2vs0mg"},{"bike_id":"c36c14b8-4e8d-44c9-846b-d35b5c0355e1","system_id":"levelo_inurba_marseille","lat":43.3176,"lon":5.39013,"is_reserved":false,"is_disabled":false,"rental_uris":{"android":"levelo://app?vid=c36c14b8-4e8d-44c9-846b-d35b5c0355e1","ios":"levelo://app?vid=c36c14b8-4e8d-44c9-846b-d35b5c0355e1"},"vehicle_type_id":"4","last_reported":1719263255,"current_range_meters":31200,"station_id":"ce4bhqp2rcd13ifvqhng","pricing_plan_id":"cebpf4jnsgd1na2vs0mg"},{"bike_id":"d0ad72a6-bc81-42de-9c1d-134c9a3a9620","system_id":"levelo_inurba_marseille","lat":43.317557,"lon":5.390173,"is_reserved":false,"is_disabled":false,"rental_uris":{"android":"levelo://app?vid=d0ad72a6-bc81-42de-9c1d-134c9a3a9620","ios":"levelo://app?vid=d0ad72a6-bc81-42de-9c1d-134c9a3a9620"},"vehicle_type_id":"4","last_reported":1719263255,"current_range_meters":31200,"station_id":"ce4bhqp2rcd13ifvqhng","pricing_plan_id":"cebpf4jnsgd1na2vs0mg"},{"bike_id":"2c57ec1f-ce24-4ef8-ab49-5cb807b19dac","system_id":"levelo_inurba_marseille","lat":43.31759,"lon":5.39015,"is_reserved":false,"is_disabled":false,"rental_uris":{"android":"levelo://app?vid=2c57ec1f-ce24-4ef8-ab49-5cb807b19dac","ios":"levelo://app?vid=2c57ec1f-ce24-4ef8-ab49-5cb807b19dac"},"vehicle_type_id":"4","last_reported":1719263255,"current_range_meters":2400,"station_id":"ce4bhqp2rcd13ifvqhng","pricing_plan_id":"cebpf4jnsgd1na2vs0mg"},{"bike_id":"b6664e2f-1e51-4de7-ba47-d80bdf1a20e9","system_id":"levelo_inurba_marseille","lat":43.304274,"lon":5.388873,"is_reserved":false,"is_disabled":false,"rental_uris":{"android":"levelo://app?vid=b6664e2f-1e51-4de7-ba47-d80bdf1a20e9","ios":"levelo://app?vid=b6664e2f-1e51-4de7-ba47-d80bdf1a20e9"},"vehicle_type_id":"4","last_reported":1719263255,"current_range_meters":20800,"station_id":"ce4bgk12rcd13ifvqbi0","pricing_plan_id":"cebpf4jnsgd1na2vs0mg"},{"bike_id":"5b45b359-dad0-46bb-a964-ee10dcd296e2","system_id":"levelo_inurba_marseille","lat":43.304278,"lon":5.388868,"is_reserved":false,"is_disabled":false,"rental_uris":{"android":"levelo://app?vid=5b45b359-dad0-46bb-a964-ee10dcd296e2","ios":"levelo://app?vid=5b45b359-dad0-46bb-a964-ee10dcd296e2"},"vehicle_type_id":"4","last_reported":1719263255,"current_range_meters":12400,"station_id":"ce4bgk12rcd13ifvqbi0","pricing_plan_id":"cebpf4jnsgd1na2vs0mg"},{"bike_id":"ee9e6df1-6a61-4d78-96ac-8965932e1a9a","system_id":"levelo_inurba_marseille","lat":43.304274,"lon":5.388873,"is_reserved":false,"is_disabled":false,"rental_uris":{"android":"levelo://app?vid=ee9e6df1-6a61-4d78-96ac-8965932e1a9a","ios":"levelo://app?vid=ee9e6df1-6a61-4d78-96ac-8965932e1a9a"},"vehicle_type_id":"4","last_reported":1719263255,"current_range_meters":30400,"station_id":"ce4bgk12rcd13ifvqbi0","pricing_plan_id":"cebpf4jnsgd1na2vs0mg"},{"bike_id":"27b86e7c-ef45-4ef0-aa70-aa284f83d7b8","system_id":"levelo_inurba_marseille","lat":43.304278,"lon":5.388868,"is_reserved":false,"is_disabled":false,"rental_uris":{"android":"levelo://app?vid=27b86e7c-ef45-4ef0-aa70-aa284f83d7b8","ios":"levelo://app?vid=27b86e7c-ef45-4ef0-aa70-aa284f83d7b8"},"vehicle_type_id":"4","last_reported":1719263255,"current_range_meters":26800,"station_id":"ce4bgk12rcd13ifvqbi0","pricing_plan_id":"cebpf4jnsgd1na2vs0mg"},{"bike_id":"168a0c60-19c4-4834-ae25-9aad3c8b6629","system_id":"levelo_inurba_marseille","lat":43.29827,"lon":5.38217,"is_reserved":false,"is_disabled":false,"rental_uris":{"android":"levelo://app?vid=168a0c60-19c4-4834-ae25-9aad3c8b6629","ios":"levelo://app?vid=168a0c60-19c4-4834-ae25-9aad3c8b6629"},"vehicle_type_id":"4","last_reported":1719263255,"current_range_meters":0,"station_id":"","pricing_plan_id":"cebpf4jnsgd1na2vs0mg"},{"bike_id":"b247ae3d-0fe2-4ae5-bd9a-93bf39a0b2c9","system_id":"levelo_inurba_marseille","lat":43.29609,"lon":5.37726,"is_reserved":false,"is_disabled":false,"rental_uris":{"android":"levelo://app?vid=b247ae3d-0fe2-4ae5-bd9a-93bf39a0b2c9","ios":"levelo://app?vid=b247ae3d-0fe2-4ae5-bd9a-93bf39a0b2c9"},"vehicle_type_id":"4","last_reported":1719263255,"current_range_meters":0,"station_id":"ce4bgi92rcd13ifvqb90","pricing_plan_id":"cebpf4jnsgd1na2vs0mg"},{"bike_id":"8f401a5a-f8f5-43c9-b429-2f828684421b","system_id":"levelo_inurba_marseille","lat":43.337168,"lon":5.391825,"is_reserved":false,"is_disabled":false,"rental_uris":{"android":"levelo://app?vid=8f401a5a-f8f5-43c9-b429-2f828684421b","ios":"levelo://app?vid=8f401a5a-f8f5-43c9-b429-2f828684421b"},"vehicle_type_id":"4","last_reported":1719263255,"current_range_meters":3600,"station_id":"ce4bhr92rcd13ifvqhsg","pricing_plan_id":"cebpf4jnsgd1na2vs0mg"},{"bike_id":"082c12b3-b9df-456d-b409-7fb33f720a86","system_id":"levelo_inurba_marseille","lat":43.32367,"lon":5.388836,"is_reserved":false,"is_disabled":false,"rental_uris":{"android":"levelo://app?vid=082c12b3-b9df-456d-b409-7fb33f720a86","ios":"levelo://app?vid=082c12b3-b9df-456d-b409-7fb33f720a86"},"vehicle_type_id":"4","last_reported":1719263255,"current_range_meters":12400,"station_id":"ce4bhqp2rcd13ifvqhog","pricing_plan_id":"cebpf4jnsgd1na2vs0mg"},{"bike_id":"46adf2f2-6975-4240-9b81-8da8a03d6192","system_id":"levelo_inurba_marseille","lat":43.32367,"lon":5.388836,"is_reserved":false,"is_disabled":false,"rental_uris":{"android":"levelo://app?vid=46adf2f2-6975-4240-9b81-8da8a03d6192","ios":"levelo://app?vid=46adf2f2-6975-4240-9b81-8da8a03d6192"},"vehicle_type_id":"4","last_reported":1719263255,"current_range_meters":4000,"station_id":"ce4bhqp2rcd13ifvqhog","pricing_plan_id":"cebpf4jnsgd1na2vs0mg"},{"bike_id":"6389a8c4-1d2f-434a-8385-00a200ddbab1","system_id":"levelo_inurba_marseille","lat":43.32367,"lon":5.38883,"is_reserved":false,"is_disabled":false,"rental_uris":{"android":"levelo://app?vid=6389a8c4-1d2f-434a-8385-00a200ddbab1","ios":"levelo://app?vid=6389a8c4-1d2f-434a-8385-00a200ddbab1"},"vehicle_type_id":"4","last_reported":1719263255,"current_range_meters":0,"station_id":"ce4bhqp2rcd13ifvqhog","pricing_plan_id":"cebpf4jnsgd1na2vs0mg"},{"bike_id":"c80ae94d-609d-4d70-841f-f6cd975d2cf7","system_id":"levelo_inurba_marseille","lat":43.32365,"lon":5.38886,"is_reserved":false,"is_disabled":false,"rental_uris":{"android":"levelo://app?vid=c80ae94d-609d-4d70-841f-f6cd975d2cf7","ios":"levelo://app?vid=c80ae94d-609d-4d70-841f-f6cd975d2cf7"},"vehicle_type_id":"4","last_reported":1719263255,"current_range_meters":0,"station_id":"ce4bhqp2rcd13ifvqhog","pricing_plan_id":"cebpf4jnsgd1na2vs0mg"},{"bike_id":"af8eccde-72c8-4353-8d76-abb5ef81ef1f","system_id":"levelo_inurba_marseille","lat":43.3016,"lon":5.389275,"is_reserved":false,"is_disabled":false,"rental_uris":{"android":"levelo://app?vid=af8eccde-72c8-4353-8d76-abb5ef81ef1f","ios":"levelo://app?vid=af8eccde-72c8-4353-8d76-abb5ef81ef1f"},"vehicle_type_id":"4","last_reported":1719263255,"current_range_meters":13200,"station_id":"","pricing_plan_id":"cebpf4jnsgd1na2vs0mg"},{"bike_id":"107b2f1e-a645-4ffe-8b79-eb28b2c400f5","system_id":"levelo_inurba_marseille","lat":43.29308,"lon":5.3718,"is_reserved":false,"is_disabled":false,"rental_uris":{"android":"levelo://app?vid=107b2f1e-a645-4ffe-8b79-eb28b2c400f5","ios":"levelo://app?vid=107b2f1e-a645-4ffe-8b79-eb28b2c400f5"},"vehicle_type_id":"4","last_reported":1719263255,"current_range_meters":400,"station_id":"","pricing_plan_id":"cebpf4jnsgd1na2vs0mg"},{"bike_id":"5d71f9b8-ac86-4fb1-a45a-b25a440da150","system_id":"levelo_inurba_marseille","lat":43.293259,"lon":5.371586,"is_reserved":false,"is_disabled":false,"rental_uris":{"android":"levelo://app?vid=5d71f9b8-ac86-4fb1-a45a-b25a440da150","ios":"levelo://app?vid=5d71f9b8-ac86-4fb1-a45a-b25a440da150"},"vehicle_type_id":"4","last_reported":1719263255,"current_range_meters":22000,"station_id":"ce4bgh92rcd13ifvqb40","pricing_plan_id":"cebpf4jnsgd1na2vs0mg"},{"bike_id":"0e2b2238-7483-4e02-af1f-71be5a9abad8","system_id":"levelo_inurba_marseille","lat":43.292749,"lon":5.368398,"is_reserved":false,"is_disabled":false,"rental_uris":{"android":"levelo://app?vid=0e2b2238-7483-4e02-af1f-71be5a9abad8","ios":"levelo://app?vid=0e2b2238-7483-4e02-af1f-71be5a9abad8"},"vehicle_type_id":"4","last_reported":1719263255,"current_range_meters":11600,"station_id":"ce4bhbp2rcd13ifvqesg","pricing_plan_id":"cebpf4jnsgd1na2vs0mg"},{"bike_id":"cd4142b0-d675-4cf8-8fca-358484835f32","system_id":"levelo_inurba_marseille","lat":43.29302,"lon":5.37179,"is_reserved":false,"is_disabled":false,"rental_uris":{"android":"levelo://app?vid=cd4142b0-d675-4cf8-8fca-358484835f32","ios":"levelo://app?vid=cd4142b0-d675-4cf8-8fca-358484835f32"},"vehicle_type_id":"4","last_reported":1719263255,"current_range_meters":31200,"station_id":"ce4bgh92rcd13ifvqb40","pricing_plan_id":"cebpf4jnsgd1na2vs0mg"},{"bike_id":"99c44b11-7f79-4ebf-af9c-21193db55241","system_id":"levelo_inurba_marseille","lat":43.293249,"lon":5.371578,"is_reserved":false,"is_disabled":false,"rental_uris":{"android":"levelo://app?vid=99c44b11-7f79-4ebf-af9c-21193db55241","ios":"levelo://app?vid=99c44b11-7f79-4ebf-af9c-21193db55241"},"vehicle_type_id":"4","last_reported":1719263255,"current_range_meters":30000,"station_id":"ce4bgh92rcd13ifvqb40","pricing_plan_id":"cebpf4jnsgd1na2vs0mg"},{"bike_id":"1bd62ac4-cf86-42a3-a9e2-d5beb1188f9f","system_id":"levelo_inurba_marseille","lat":43.293249,"lon":5.371578,"is_reserved":false,"is_disabled":false,"rental_uris":{"android":"levelo://app?vid=1bd62ac4-cf86-42a3-a9e2-d5beb1188f9f","ios":"levelo://app?vid=1bd62ac4-cf86-42a3-a9e2-d5beb1188f9f"},"vehicle_type_id":"4","last_reported":1719263255,"current_range_meters":16400,"station_id":"ce4bgh92rcd13ifvqb40","pricing_plan_id":"cebpf4jnsgd1na2vs0mg"},{"bike_id":"c035fd73-c3f7-4fae-b631-b568409a193b","system_id":"levelo_inurba_marseille","lat":43.30085,"lon":5.390856,"is_reserved":false,"is_disabled":false,"rental_uris":{"android":"levelo://app?vid=c035fd73-c3f7-4fae-b631-b568409a193b","ios":"levelo://app?vid=c035fd73-c3f7-4fae-b631-b568409a193b"},"vehicle_type_id":"4","last_reported":1719263255,"current_range_meters":8400,"station_id":"ce4bh192rcd13ifvqdb0","pricing_plan_id":"cebpf4jnsgd1na2vs0mg"},{"bike_id":"86eea3e7-9e5e-4c9c-93c6-52504f8bd042","system_id":"levelo_inurba_marseille","lat":43.30085,"lon":5.390856,"is_reserved":false,"is_disabled":false,"rental_uris":{"android":"levelo://app?vid=86eea3e7-9e5e-4c9c-93c6-52504f8bd042","ios":"levelo://app?vid=86eea3e7-9e5e-4c9c-93c6-52504f8bd042"},"vehicle_type_id":"4","last_reported":1719263255,"current_range_meters":30400,"station_id":"ce4bh192rcd13ifvqdb0","pricing_plan_id":"cebpf4jnsgd1na2vs0mg"},{"bike_id":"c75ebd16-8814-401d-9877-ac5460e9f43a","system_id":"levelo_inurba_marseille","lat":43.30085,"lon":5.390856,"is_reserved":false,"is_disabled":false,"rental_uris":{"android":"levelo://app?vid=c75ebd16-8814-401d-9877-ac5460e9f43a","ios":"levelo://app?vid=c75ebd16-8814-401d-9877-ac5460e9f43a"},"vehicle_type_id":"4","last_reported":1719263255,"current_range_meters":25600,"station_id":"ce4bh192rcd13ifvqdb0","pricing_plan_id":"cebpf4jnsgd1na2vs0mg"},{"bike_id":"72645a45-10dc-4974-968d-ba9f3e27e20b","system_id":"levelo_inurba_marseille","lat":43.30085,"lon":5.390856,"is_reserved":false,"is_disabled":false,"rental_uris":{"android":"levelo://app?vid=72645a45-10dc-4974-968d-ba9f3e27e20b","ios":"levelo://app?vid=72645a45-10dc-4974-968d-ba9f3e27e20b"},"vehicle_type_id":"4","last_reported":1719263255,"current_range_meters":10000,"station_id":"ce4bh192rcd13ifvqdb0","pricing_plan_id":"cebpf4jnsgd1na2vs0mg"},{"bike_id":"c96bb2fc-409f-456a-a748-0168c1645aed","system_id":"levelo_inurba_marseille","lat":43.29219,"lon":5.36041,"is_reserved":false,"is_disabled":false,"rental_uris":{"android":"levelo://app?vid=c96bb2fc-409f-456a-a748-0168c1645aed","ios":"levelo://app?vid=c96bb2fc-409f-456a-a748-0168c1645aed"},"vehicle_type_id":"4","last_reported":1719263255,"current_range_meters":24800,"station_id":"ce4bhbh2rcd13ifvqeqg","pricing_plan_id":"cebpf4jnsgd1na2vs0mg"},{"bike_id":"a8d0bd7c-c137-4a4c-8490-da6dad688e32","system_id":"levelo_inurba_marseille","lat":43.298764,"lon":5.388973,"is_reserved":false,"is_disabled":false,"rental_uris":{"android":"levelo://app?vid=a8d0bd7c-c137-4a4c-8490-da6dad688e32","ios":"levelo://app?vid=a8d0bd7c-c137-4a4c-8490-da6dad688e32"},"vehicle_type_id":"4","last_reported":1719263255,"current_range_meters":21200,"station_id":"ce4bh392rcd13ifvqdl0","pricing_plan_id":"cebpf4jnsgd1na2vs0mg"},{"bike_id":"d89eca95-75bd-4cc5-babe-2975cf0d9f75","system_id":"levelo_inurba_marseille","lat":43.291675,"lon":5.371583,"is_reserved":false,"is_disabled":false,"rental_uris":{"android":"levelo://app?vid=d89eca95-75bd-4cc5-babe-2975cf0d9f75","ios":"levelo://app?vid=d89eca95-75bd-4cc5-babe-2975cf0d9f75"},"vehicle_type_id":"4","last_reported":1719263255,"current_range_meters":5600,"station_id":"ce4bha92rcd13ifvqeh0","pricing_plan_id":"cebpf4jnsgd1na2vs0mg"},{"bike_id":"83260a1e-5984-4125-99b4-6f695e062f9d","system_id":"levelo_inurba_marseille","lat":43.298764,"lon":5.388973,"is_reserved":false,"is_disabled":false,"rental_uris":{"android":"levelo://app?vid=83260a1e-5984-4125-99b4-6f695e062f9d","ios":"levelo://app?vid=83260a1e-5984-4125-99b4-6f695e062f9d"},"vehicle_type_id":"4","last_reported":1719263255,"current_range_meters":7600,"station_id":"ce4bh392rcd13ifvqdl0","pricing_plan_id":"cebpf4jnsgd1na2vs0mg"},{"bike_id":"d45148b7-6737-4837-894d-bd89759c3a5b","system_id":"levelo_inurba_marseille","lat":43.291675,"lon":5.371583,"is_reserved":false,"is_disabled":false,"rental_uris":{"android":"levelo://app?vid=d45148b7-6737-4837-894d-bd89759c3a5b","ios":"levelo://app?vid=d45148b7-6737-4837-894d-bd89759c3a5b"},"vehicle_type_id":"4","last_reported":1719263255,"current_range_meters":7200,"station_id":"ce4bha92rcd13ifvqeh0","pricing_plan_id":"cebpf4jnsgd1na2vs0mg"},{"bike_id":"e3dbed8a-7e1e-4b39-8ac3-d7b8604f6cd7","system_id":"levelo_inurba_marseille","lat":43.298764,"lon":5.388973,"is_reserved":false,"is_disabled":false,"rental_uris":{"android":"levelo://app?vid=e3dbed8a-7e1e-4b39-8ac3-d7b8604f6cd7","ios":"levelo://app?vid=e3dbed8a-7e1e-4b39-8ac3-d7b8604f6cd7"},"vehicle_type_id":"4","last_reported":1719263255,"current_range_meters":7200,"station_id":"ce4bh392rcd13ifvqdl0","pricing_plan_id":"cebpf4jnsgd1na2vs0mg"},{"bike_id":"4ba0caab-ea66-4262-87e8-fafaa26a3010","system_id":"levelo_inurba_marseille","lat":43.298764,"lon":5.388973,"is_reserved":false,"is_disabled":false,"rental_uris":{"android":"levelo://app?vid=4ba0caab-ea66-4262-87e8-fafaa26a3010","ios":"levelo://app?vid=4ba0caab-ea66-4262-87e8-fafaa26a3010"},"vehicle_type_id":"4","last_reported":1719263255,"current_range_meters":28000,"station_id":"ce4bh392rcd13ifvqdl0","pricing_plan_id":"cebpf4jnsgd1na2vs0mg"},{"bike_id":"9432f900-1e2a-472d-b9c4-6183f9cffbad","system_id":"levelo_inurba_marseille","lat":43.309038,"lon":5.396546,"is_reserved":false,"is_disabled":false,"rental_uris":{"android":"levelo://app?vid=9432f900-1e2a-472d-b9c4-6183f9cffbad","ios":"levelo://app?vid=9432f900-1e2a-472d-b9c4-6183f9cffbad"},"vehicle_type_id":"4","last_reported":1719263255,"current_range_meters":16000,"station_id":"ce4bh012rcd13ifvqcv0","pricing_plan_id":"cebpf4jnsgd1na2vs0mg"},{"bike_id":"486cc397-a779-415b-a382-975f9eb36517","system_id":"levelo_inurba_marseille","lat":43.291994,"lon":5.357886,"is_reserved":false,"is_disabled":false,"rental_uris":{"android":"levelo://app?vid=486cc397-a779-415b-a382-975f9eb36517","ios":"levelo://app?vid=486cc397-a779-415b-a382-975f9eb36517"},"vehicle_type_id":"4","last_reported":1719263255,"current_range_meters":12800,"station_id":"ce4bhb12rcd13ifvqel0","pricing_plan_id":"cebpf4jnsgd1na2vs0mg"},{"bike_id":"26cb4221-b5f3-4d99-8e89-bb3f020d6ab1","system_id":"levelo_inurba_marseille","lat":43.313291,"lon":5.396838,"is_reserved":false,"is_disabled":false,"rental_uris":{"android":"levelo://app?vid=26cb4221-b5f3-4d99-8e89-bb3f020d6ab1","ios":"levelo://app?vid=26cb4221-b5f3-4d99-8e89-bb3f020d6ab1"},"vehicle_type_id":"4","last_reported":1719263255,"current_range_meters":17600,"station_id":"ce4bgvp2rcd13ifvqcu0","pricing_plan_id":"cebpf4jnsgd1na2vs0mg"},{"bike_id":"6f806eb9-7349-4a05-bef8-c3a43fc04286","system_id":"levelo_inurba_marseille","lat":43.313291,"lon":5.396838,"is_reserved":false,"is_disabled":false,"rental_uris":{"android":"levelo://app?vid=6f806eb9-7349-4a05-bef8-c3a43fc04286","ios":"levelo://app?vid=6f806eb9-7349-4a05-bef8-c3a43fc04286"},"vehicle_type_id":"4","last_reported":1719263255,"current_range_meters":18000,"station_id":"ce4bgvp2rcd13ifvqcu0","pricing_plan_id":"cebpf4jnsgd1na2vs0mg"},{"bike_id":"fc602dee-3885-47c9-805f-f9f992106083","system_id":"levelo_inurba_marseille","lat":43.313291,"lon":5.396838,"is_reserved":false,"is_disabled":false,"rental_uris":{"android":"levelo://app?vid=fc602dee-3885-47c9-805f-f9f992106083","ios":"levelo://app?vid=fc602dee-3885-47c9-805f-f9f992106083"},"vehicle_type_id":"4","last_reported":1719263255,"current_range_meters":23600,"station_id":"ce4bgvp2rcd13ifvqcu0","pricing_plan_id":"cebpf4jnsgd1na2vs0mg"},{"bike_id":"e9b9fbab-73a2-457c-b7b8-cc5f5013ff09","system_id":"levelo_inurba_marseille","lat":43.313291,"lon":5.396838,"is_reserved":false,"is_disabled":false,"rental_uris":{"android":"levelo://app?vid=e9b9fbab-73a2-457c-b7b8-cc5f5013ff09","ios":"levelo://app?vid=e9b9fbab-73a2-457c-b7b8-cc5f5013ff09"},"vehicle_type_id":"4","last_reported":1719263255,"current_range_meters":21600,"station_id":"ce4bgvp2rcd13ifvqcu0","pricing_plan_id":"cebpf4jnsgd1na2vs0mg"},{"bike_id":"f1e1c45b-b853-4101-ac2d-7cbcd2850dc0","system_id":"levelo_inurba_marseille","lat":43.313291,"lon":5.396838,"is_reserved":false,"is_disabled":false,"rental_uris":{"android":"levelo://app?vid=f1e1c45b-b853-4101-ac2d-7cbcd2850dc0","ios":"levelo://app?vid=f1e1c45b-b853-4101-ac2d-7cbcd2850dc0"},"vehicle_type_id":"4","last_reported":1719263255,"current_range_meters":24000,"station_id":"ce4bgvp2rcd13ifvqcu0","pricing_plan_id":"cebpf4jnsgd1na2vs0mg"},{"bike_id":"164fe788-8995-4515-8c0f-b10f04456763","system_id":"levelo_inurba_marseille","lat":43.313291,"lon":5.396838,"is_reserved":false,"is_disabled":false,"rental_uris":{"android":"levelo://app?vid=164fe788-8995-4515-8c0f-b10f04456763","ios":"levelo://app?vid=164fe788-8995-4515-8c0f-b10f04456763"},"vehicle_type_id":"4","last_reported":1719263255,"current_range_meters":24800,"station_id":"ce4bgvp2rcd13ifvqcu0","pricing_plan_id":"cebpf4jnsgd1na2vs0mg"},{"bike_id":"a5f6fda7-86b7-4a54-98e1-755f24e7c7fd","system_id":"levelo_inurba_marseille","lat":43.313291,"lon":5.396838,"is_reserved":false,"is_disabled":false,"rental_uris":{"android":"levelo://app?vid=a5f6fda7-86b7-4a54-98e1-755f24e7c7fd","ios":"levelo://app?vid=a5f6fda7-86b7-4a54-98e1-755f24e7c7fd"},"vehicle_type_id":"4","last_reported":1719263255,"current_range_meters":29200,"station_id":"ce4bgvp2rcd13ifvqcu0","pricing_plan_id":"cebpf4jnsgd1na2vs0mg"},{"bike_id":"e4b6af0a-a3f8-4d53-bab4-7d0d7f9fd51b","system_id":"levelo_inurba_marseille","lat":43.313291,"lon":5.396838,"is_reserved":false,"is_disabled":false,"rental_uris":{"android":"levelo://app?vid=e4b6af0a-a3f8-4d53-bab4-7d0d7f9fd51b","ios":"levelo://app?vid=e4b6af0a-a3f8-4d53-bab4-7d0d7f9fd51b"},"vehicle_type_id":"4","last_reported":1719263255,"current_range_meters":4800,"station_id":"ce4bgvp2rcd13ifvqcu0","pricing_plan_id":"cebpf4jnsgd1na2vs0mg"},{"bike_id":"e8544fa5-f78b-441c-bd31-e484b90c4723","system_id":"levelo_inurba_marseille","lat":43.309038,"lon":5.396546,"is_reserved":false,"is_disabled":false,"rental_uris":{"android":"levelo://app?vid=e8544fa5-f78b-441c-bd31-e484b90c4723","ios":"levelo://app?vid=e8544fa5-f78b-441c-bd31-e484b90c4723"},"vehicle_type_id":"4","last_reported":1719263255,"current_range_meters":30400,"station_id":"ce4bh012rcd13ifvqcv0","pricing_plan_id":"cebpf4jnsgd1na2vs0mg"},{"bike_id":"4950863f-b8f6-46b8-bed1-641b179e16ca","system_id":"levelo_inurba_marseille","lat":43.309047,"lon":5.396551,"is_reserved":false,"is_disabled":false,"rental_uris":{"android":"levelo://app?vid=4950863f-b8f6-46b8-bed1-641b179e16ca","ios":"levelo://app?vid=4950863f-b8f6-46b8-bed1-641b179e16ca"},"vehicle_type_id":"4","last_reported":1719263255,"current_range_meters":21600,"station_id":"ce4bh012rcd13ifvqcv0","pricing_plan_id":"cebpf4jnsgd1na2vs0mg"},{"bike_id":"89962f2d-046e-4346-830e-9afc892da223","system_id":"levelo_inurba_marseille","lat":43.313291,"lon":5.396838,"is_reserved":false,"is_disabled":false,"rental_uris":{"android":"levelo://app?vid=89962f2d-046e-4346-830e-9afc892da223","ios":"levelo://app?vid=89962f2d-046e-4346-830e-9afc892da223"},"vehicle_type_id":"4","last_reported":1719263255,"current_range_meters":30000,"station_id":"ce4bgvp2rcd13ifvqcu0","pricing_plan_id":"cebpf4jnsgd1na2vs0mg"},{"bike_id":"373d5722-5434-47f0-9bdc-a85852380ff4","system_id":"levelo_inurba_marseille","lat":43.309038,"lon":5.396546,"is_reserved":false,"is_disabled":false,"rental_uris":{"android":"levelo://app?vid=373d5722-5434-47f0-9bdc-a85852380ff4","ios":"levelo://app?vid=373d5722-5434-47f0-9bdc-a85852380ff4"},"vehicle_type_id":"4","last_reported":1719263255,"current_range_meters":5200,"station_id":"ce4bh012rcd13ifvqcv0","pricing_plan_id":"cebpf4jnsgd1na2vs0mg"},{"bike_id":"9d8bce9c-c00e-43ef-9e6e-0e5e807f7409","system_id":"levelo_inurba_marseille","lat":43.309038,"lon":5.396546,"is_reserved":false,"is_disabled":false,"rental_uris":{"android":"levelo://app?vid=9d8bce9c-c00e-43ef-9e6e-0e5e807f7409","ios":"levelo://app?vid=9d8bce9c-c00e-43ef-9e6e-0e5e807f7409"},"vehicle_type_id":"4","last_reported":1719263255,"current_range_meters":23200,"station_id":"ce4bh012rcd13ifvqcv0","pricing_plan_id":"cebpf4jnsgd1na2vs0mg"},{"bike_id":"53c929be-03f8-426e-a7fd-c4ab2d638b0d","system_id":"levelo_inurba_marseille","lat":43.309047,"lon":5.396551,"is_reserved":false,"is_disabled":false,"rental_uris":{"android":"levelo://app?vid=53c929be-03f8-426e-a7fd-c4ab2d638b0d","ios":"levelo://app?vid=53c929be-03f8-426e-a7fd-c4ab2d638b0d"},"vehicle_type_id":"4","last_reported":1719263255,"current_range_meters":24400,"station_id":"ce4bh012rcd13ifvqcv0","pricing_plan_id":"cebpf4jnsgd1na2vs0mg"},{"bike_id":"0b30cb31-ecee-4a32-b1bb-146b3901ecb9","system_id":"levelo_inurba_marseille","lat":43.309038,"lon":5.396546,"is_reserved":false,"is_disabled":false,"rental_uris":{"android":"levelo://app?vid=0b30cb31-ecee-4a32-b1bb-146b3901ecb9","ios":"levelo://app?vid=0b30cb31-ecee-4a32-b1bb-146b3901ecb9"},"vehicle_type_id":"4","last_reported":1719263255,"current_range_meters":23200,"station_id":"ce4bh012rcd13ifvqcv0","pricing_plan_id":"cebpf4jnsgd1na2vs0mg"},{"bike_id":"ffadfba8-4a87-4b73-8f71-413533ae6407","system_id":"levelo_inurba_marseille","lat":43.29529,"lon":5.385581,"is_reserved":false,"is_disabled":false,"rental_uris":{"android":"levelo://app?vid=ffadfba8-4a87-4b73-8f71-413533ae6407","ios":"levelo://app?vid=ffadfba8-4a87-4b73-8f71-413533ae6407"},"vehicle_type_id":"4","last_reported":1719263255,"current_range_meters":15200,"station_id":"ce4bgih2rcd13ifvqba0","pricing_plan_id":"cebpf4jnsgd1na2vs0mg"},{"bike_id":"c8b34565-7333-45e4-8747-c708483aaf5e","system_id":"levelo_inurba_marseille","lat":43.29529,"lon":5.385581,"is_reserved":false,"is_disabled":false,"rental_uris":{"android":"levelo://app?vid=c8b34565-7333-45e4-8747-c708483aaf5e","ios":"levelo://app?vid=c8b34565-7333-45e4-8747-c708483aaf5e"},"vehicle_type_id":"4","last_reported":1719263255,"current_range_meters":1600,"station_id":"ce4bgih2rcd13ifvqba0","pricing_plan_id":"cebpf4jnsgd1na2vs0mg"},{"bike_id":"fec0515d-d888-4e03-b25f-a8778adf7b3f","system_id":"levelo_inurba_marseille","lat":43.29529,"lon":5.385581,"is_reserved":false,"is_disabled":false,"rental_uris":{"android":"levelo://app?vid=fec0515d-d888-4e03-b25f-a8778adf7b3f","ios":"levelo://app?vid=fec0515d-d888-4e03-b25f-a8778adf7b3f"},"vehicle_type_id":"4","last_reported":1719263255,"current_range_meters":24000,"station_id":"ce4bgih2rcd13ifvqba0","pricing_plan_id":"cebpf4jnsgd1na2vs0mg"},{"bike_id":"cb28e5fc-4551-4f2e-ba7e-44b3b848923d","system_id":"levelo_inurba_marseille","lat":43.31544,"lon":5.39716,"is_reserved":false,"is_disabled":false,"rental_uris":{"android":"levelo://app?vid=cb28e5fc-4551-4f2e-ba7e-44b3b848923d","ios":"levelo://app?vid=cb28e5fc-4551-4f2e-ba7e-44b3b848923d"},"vehicle_type_id":"4","last_reported":1719263255,"current_range_meters":2000,"station_id":"","pricing_plan_id":"cebpf4jnsgd1na2vs0mg"},{"bike_id":"b40336a5-027d-41f5-8d2b-2a0050cdc28c","system_id":"levelo_inurba_marseille","lat":43.29055,"lon":5.37148,"is_reserved":false,"is_disabled":false,"rental_uris":{"android":"levelo://app?vid=b40336a5-027d-41f5-8d2b-2a0050cdc28c","ios":"levelo://app?vid=b40336a5-027d-41f5-8d2b-2a0050cdc28c"},"vehicle_type_id":"4","last_reported":1719263255,"current_range_meters":0,"station_id":"ce4bh5p2rcd13ifvqe4g","pricing_plan_id":"cebpf4jnsgd1na2vs0mg"},{"bike_id":"6e18305d-d0b6-40b6-acef-c1701f34f16b","system_id":"levelo_inurba_marseille","lat":43.302008,"lon":5.394694,"is_reserved":false,"is_disabled":false,"rental_uris":{"android":"levelo://app?vid=6e18305d-d0b6-40b6-acef-c1701f34f16b","ios":"levelo://app?vid=6e18305d-d0b6-40b6-acef-c1701f34f16b"},"vehicle_type_id":"4","last_reported":1719263255,"current_range_meters":31200,"station_id":"ce4bh0p2rcd13ifvqd70","pricing_plan_id":"cebpf4jnsgd1na2vs0mg"},{"bike_id":"e8f384e8-2583-4301-825c-66c99fcbfaff","system_id":"levelo_inurba_marseille","lat":43.302008,"lon":5.394694,"is_reserved":false,"is_disabled":false,"rental_uris":{"android":"levelo://app?vid=e8f384e8-2583-4301-825c-66c99fcbfaff","ios":"levelo://app?vid=e8f384e8-2583-4301-825c-66c99fcbfaff"},"vehicle_type_id":"4","last_reported":1719263255,"current_range_meters":23600,"station_id":"ce4bh0p2rcd13ifvqd70","pricing_plan_id":"cebpf4jnsgd1na2vs0mg"},{"bike_id":"778adbb7-036c-4f83-a440-42c1616f01cb","system_id":"levelo_inurba_marseille","lat":43.302008,"lon":5.394694,"is_reserved":false,"is_disabled":false,"rental_uris":{"android":"levelo://app?vid=778adbb7-036c-4f83-a440-42c1616f01cb","ios":"levelo://app?vid=778adbb7-036c-4f83-a440-42c1616f01cb"},"vehicle_type_id":"4","last_reported":1719263255,"current_range_meters":12400,"station_id":"ce4bh0p2rcd13ifvqd70","pricing_plan_id":"cebpf4jnsgd1na2vs0mg"},{"bike_id":"8b2d4d52-a969-485d-a0c9-556c42a1d0a0","system_id":"levelo_inurba_marseille","lat":43.290631,"lon":5.359244,"is_reserved":false,"is_disabled":false,"rental_uris":{"android":"levelo://app?vid=8b2d4d52-a969-485d-a0c9-556c42a1d0a0","ios":"levelo://app?vid=8b2d4d52-a969-485d-a0c9-556c42a1d0a0"},"vehicle_type_id":"4","last_reported":1719263255,"current_range_meters":15600,"station_id":"ce4bha92rcd13ifvqeg0","pricing_plan_id":"cebpf4jnsgd1na2vs0mg"},{"bike_id":"357fdb14-3adb-43be-b559-f63bf46671e2","system_id":"levelo_inurba_marseille","lat":43.290319,"lon":5.375732,"is_reserved":false,"is_disabled":false,"rental_uris":{"android":"levelo://app?vid=357fdb14-3adb-43be-b559-f63bf46671e2","ios":"levelo://app?vid=357fdb14-3adb-43be-b559-f63bf46671e2"},"vehicle_type_id":"4","last_reported":1719263255,"current_range_meters":27200,"station_id":"ce4bh692rcd13ifvqe90","pricing_plan_id":"cebpf4jnsgd1na2vs0mg"},{"bike_id":"7cbdfb3c-f901-4270-a320-a7bfdf7fe97e","system_id":"levelo_inurba_marseille","lat":43.289184,"lon":5.366408,"is_reserved":false,"is_disabled":false,"rental_uris":{"android":"levelo://app?vid=7cbdfb3c-f901-4270-a320-a7bfdf7fe97e","ios":"levelo://app?vid=7cbdfb3c-f901-4270-a320-a7bfdf7fe97e"},"vehicle_type_id":"4","last_reported":1719263255,"current_range_meters":0,"station_id":"ce4bhap2rcd13ifvqek0","pricing_plan_id":"cebpf4jnsgd1na2vs0mg"},{"bike_id":"6e0fcbc6-8cb6-4369-ad94-0f29f377bbdb","system_id":"levelo_inurba_marseille","lat":43.289468,"lon":5.363719,"is_reserved":false,"is_disabled":false,"rental_uris":{"android":"levelo://app?vid=6e0fcbc6-8cb6-4369-ad94-0f29f377bbdb","ios":"levelo://app?vid=6e0fcbc6-8cb6-4369-ad94-0f29f377bbdb"},"vehicle_type_id":"4","last_reported":1719263255,"current_range_meters":8000,"station_id":"ce4bhc92rcd13ifvqetg","pricing_plan_id":"cebpf4jnsgd1na2vs0mg"},{"bike_id":"7f3bdb86-7960-4eb8-8627-12735948a5db","system_id":"levelo_inurba_marseille","lat":43.304274,"lon":5.397513,"is_reserved":false,"is_disabled":false,"rental_uris":{"android":"levelo://app?vid=7f3bdb86-7960-4eb8-8627-12735948a5db","ios":"levelo://app?vid=7f3bdb86-7960-4eb8-8627-12735948a5db"},"vehicle_type_id":"4","last_reported":1719263255,"current_range_meters":12800,"station_id":"ce4bh092rcd13ifvqd20","pricing_plan_id":"cebpf4jnsgd1na2vs0mg"},{"bike_id":"7ef326e0-31b5-427f-b444-1645adc563e5","system_id":"levelo_inurba_marseille","lat":43.304296,"lon":5.397513,"is_reserved":false,"is_disabled":false,"rental_uris":{"android":"levelo://app?vid=7ef326e0-31b5-427f-b444-1645adc563e5","ios":"levelo://app?vid=7ef326e0-31b5-427f-b444-1645adc563e5"},"vehicle_type_id":"4","last_reported":1719263255,"current_range_meters":13600,"station_id":"ce4bh092rcd13ifvqd20","pricing_plan_id":"cebpf4jnsgd1na2vs0mg"},{"bike_id":"eb7b70bd-4efb-460c-b6a5-060b79726af4","system_id":"levelo_inurba_marseille","lat":43.292642,"lon":5.384254,"is_reserved":false,"is_disabled":false,"rental_uris":{"android":"levelo://app?vid=eb7b70bd-4efb-460c-b6a5-060b79726af4","ios":"levelo://app?vid=eb7b70bd-4efb-460c-b6a5-060b79726af4"},"vehicle_type_id":"4","last_reported":1719263255,"current_range_meters":0,"station_id":"ce4bh692rcd13ifvqea0","pricing_plan_id":"cebpf4jnsgd1na2vs0mg"},{"bike_id":"4391b39f-0edf-4b1c-9c05-f483e165340f","system_id":"levelo_inurba_marseille","lat":43.290104,"lon":5.356111,"is_reserved":false,"is_disabled":false,"rental_uris":{"android":"levelo://app?vid=4391b39f-0edf-4b1c-9c05-f483e165340f","ios":"levelo://app?vid=4391b39f-0edf-4b1c-9c05-f483e165340f"},"vehicle_type_id":"4","last_reported":1719263255,"current_range_meters":9200,"station_id":"ce4bhb92rcd13ifvqen0","pricing_plan_id":"cebpf4jnsgd1na2vs0mg"},{"bike_id":"87351786-ead8-4a24-9aa7-8f477d049ba2","system_id":"levelo_inurba_marseille","lat":43.290995,"lon":5.381361,"is_reserved":false,"is_disabled":false,"rental_uris":{"android":"levelo://app?vid=87351786-ead8-4a24-9aa7-8f477d049ba2","ios":"levelo://app?vid=87351786-ead8-4a24-9aa7-8f477d049ba2"},"vehicle_type_id":"4","last_reported":1719263255,"current_range_meters":24400,"station_id":"ce4bh512rcd13ifvqe2g","pricing_plan_id":"cebpf4jnsgd1na2vs0mg"},{"bike_id":"75cb31fd-c80e-494e-8f90-448af3b60a27","system_id":"levelo_inurba_marseille","lat":43.29806,"lon":5.39331,"is_reserved":false,"is_disabled":false,"rental_uris":{"android":"levelo://app?vid=75cb31fd-c80e-494e-8f90-448af3b60a27","ios":"levelo://app?vid=75cb31fd-c80e-494e-8f90-448af3b60a27"},"vehicle_type_id":"4","last_reported":1719263255,"current_range_meters":20000,"station_id":"chh1huq6cuj3fo74tm60","pricing_plan_id":"cebpf4jnsgd1na2vs0mg"},{"bike_id":"03656b84-622b-42ae-9651-29abf64570d1","system_id":"levelo_inurba_marseille","lat":43.290995,"lon":5.381361,"is_reserved":false,"is_disabled":false,"rental_uris":{"android":"levelo://app?vid=03656b84-622b-42ae-9651-29abf64570d1","ios":"levelo://app?vid=03656b84-622b-42ae-9651-29abf64570d1"},"vehicle_type_id":"4","last_reported":1719263255,"current_range_meters":30400,"station_id":"ce4bh512rcd13ifvqe2g","pricing_plan_id":"cebpf4jnsgd1na2vs0mg"},{"bike_id":"25cca56b-b7ed-43f3-a354-186cacd541ba","system_id":"levelo_inurba_marseille","lat":43.29799,"lon":5.39333,"is_reserved":false,"is_disabled":false,"rental_uris":{"android":"levelo://app?vid=25cca56b-b7ed-43f3-a354-186cacd541ba","ios":"levelo://app?vid=25cca56b-b7ed-43f3-a354-186cacd541ba"},"vehicle_type_id":"4","last_reported":1719263255,"current_range_meters":31200,"station_id":"chh1huq6cuj3fo74tm60","pricing_plan_id":"cebpf4jnsgd1na2vs0mg"},{"bike_id":"6030e6bf-d14e-47bc-9ac6-87e40804f126","system_id":"levelo_inurba_marseille","lat":43.297815,"lon":5.393548,"is_reserved":false,"is_disabled":false,"rental_uris":{"android":"levelo://app?vid=6030e6bf-d14e-47bc-9ac6-87e40804f126","ios":"levelo://app?vid=6030e6bf-d14e-47bc-9ac6-87e40804f126"},"vehicle_type_id":"4","last_reported":1719263255,"current_range_meters":31200,"station_id":"chh1huq6cuj3fo74tm60","pricing_plan_id":"cebpf4jnsgd1na2vs0mg"},{"bike_id":"498bbb46-9655-420b-9371-4c06bd94e3f1","system_id":"levelo_inurba_marseille","lat":43.29793,"lon":5.39342,"is_reserved":false,"is_disabled":false,"rental_uris":{"android":"levelo://app?vid=498bbb46-9655-420b-9371-4c06bd94e3f1","ios":"levelo://app?vid=498bbb46-9655-420b-9371-4c06bd94e3f1"},"vehicle_type_id":"4","last_reported":1719263255,"current_range_meters":25600,"station_id":"chh1huq6cuj3fo74tm60","pricing_plan_id":"cebpf4jnsgd1na2vs0mg"},{"bike_id":"40b4a400-9649-48c1-99a2-c503bb8ab8ed","system_id":"levelo_inurba_marseille","lat":43.29794,"lon":5.39344,"is_reserved":false,"is_disabled":false,"rental_uris":{"android":"levelo://app?vid=40b4a400-9649-48c1-99a2-c503bb8ab8ed","ios":"levelo://app?vid=40b4a400-9649-48c1-99a2-c503bb8ab8ed"},"vehicle_type_id":"4","last_reported":1719263255,"current_range_meters":22800,"station_id":"chh1huq6cuj3fo74tm60","pricing_plan_id":"cebpf4jnsgd1na2vs0mg"},{"bike_id":"d061a77f-9020-479d-9c0f-460bb03e0a45","system_id":"levelo_inurba_marseille","lat":43.297955,"lon":5.393486,"is_reserved":false,"is_disabled":false,"rental_uris":{"android":"levelo://app?vid=d061a77f-9020-479d-9c0f-460bb03e0a45","ios":"levelo://app?vid=d061a77f-9020-479d-9c0f-460bb03e0a45"},"vehicle_type_id":"4","last_reported":1719263255,"current_range_meters":31200,"station_id":"chh1huq6cuj3fo74tm60","pricing_plan_id":"cebpf4jnsgd1na2vs0mg"},{"bike_id":"8bda701e-30ac-4f8d-ba15-a3d02136d116","system_id":"levelo_inurba_marseille","lat":43.295169,"lon":5.390426,"is_reserved":false,"is_disabled":false,"rental_uris":{"android":"levelo://app?vid=8bda701e-30ac-4f8d-ba15-a3d02136d116","ios":"levelo://app?vid=8bda701e-30ac-4f8d-ba15-a3d02136d116"},"vehicle_type_id":"4","last_reported":1719263255,"current_range_meters":27200,"station_id":"ce4bh3p2rcd13ifvqdp0","pricing_plan_id":"cebpf4jnsgd1na2vs0mg"},{"bike_id":"95aaf7e0-353a-450b-9989-16544e53ded3","system_id":"levelo_inurba_marseille","lat":43.295169,"lon":5.390426,"is_reserved":false,"is_disabled":false,"rental_uris":{"android":"levelo://app?vid=95aaf7e0-353a-450b-9989-16544e53ded3","ios":"levelo://app?vid=95aaf7e0-353a-450b-9989-16544e53ded3"},"vehicle_type_id":"4","last_reported":1719263255,"current_range_meters":14000,"station_id":"ce4bh3p2rcd13ifvqdp0","pricing_plan_id":"cebpf4jnsgd1na2vs0mg"},{"bike_id":"1fa641cb-0b04-46bd-9724-a06f9748c4a3","system_id":"levelo_inurba_marseille","lat":43.29791,"lon":5.39349,"is_reserved":false,"is_disabled":false,"rental_uris":{"android":"levelo://app?vid=1fa641cb-0b04-46bd-9724-a06f9748c4a3","ios":"levelo://app?vid=1fa641cb-0b04-46bd-9724-a06f9748c4a3"},"vehicle_type_id":"4","last_reported":1719263255,"current_range_meters":22400,"station_id":"chh1huq6cuj3fo74tm60","pricing_plan_id":"cebpf4jnsgd1na2vs0mg"},{"bike_id":"47d473e5-542c-45a0-ae9e-6af4221f36a2","system_id":"levelo_inurba_marseille","lat":43.29781,"lon":5.3934,"is_reserved":false,"is_disabled":false,"rental_uris":{"android":"levelo://app?vid=47d473e5-542c-45a0-ae9e-6af4221f36a2","ios":"levelo://app?vid=47d473e5-542c-45a0-ae9e-6af4221f36a2"},"vehicle_type_id":"4","last_reported":1719263255,"current_range_meters":27200,"station_id":"chh1huq6cuj3fo74tm60","pricing_plan_id":"cebpf4jnsgd1na2vs0mg"},{"bike_id":"a7f17dfa-1274-4572-bccf-eb5fe11348b8","system_id":"levelo_inurba_marseille","lat":43.297815,"lon":5.393548,"is_reserved":false,"is_disabled":false,"rental_uris":{"android":"levelo://app?vid=a7f17dfa-1274-4572-bccf-eb5fe11348b8","ios":"levelo://app?vid=a7f17dfa-1274-4572-bccf-eb5fe11348b8"},"vehicle_type_id":"4","last_reported":1719263255,"current_range_meters":11600,"station_id":"chh1huq6cuj3fo74tm60","pricing_plan_id":"cebpf4jnsgd1na2vs0mg"},{"bike_id":"8556c279-2915-4866-870f-8fba1561a379","system_id":"levelo_inurba_marseille","lat":43.33023,"lon":5.39035,"is_reserved":false,"is_disabled":false,"rental_uris":{"android":"levelo://app?vid=8556c279-2915-4866-870f-8fba1561a379","ios":"levelo://app?vid=8556c279-2915-4866-870f-8fba1561a379"},"vehicle_type_id":"4","last_reported":1719263255,"current_range_meters":29600,"station_id":"ce4bhr92rcd13ifvqhrg","pricing_plan_id":"cebpf4jnsgd1na2vs0mg"},{"bike_id":"7e1dbec0-cc65-49cc-abba-4b5082710375","system_id":"levelo_inurba_marseille","lat":43.33027,"lon":5.3903,"is_reserved":false,"is_disabled":false,"rental_uris":{"android":"levelo://app?vid=7e1dbec0-cc65-49cc-abba-4b5082710375","ios":"levelo://app?vid=7e1dbec0-cc65-49cc-abba-4b5082710375"},"vehicle_type_id":"4","last_reported":1719263255,"current_range_meters":400,"station_id":"ce4bhr92rcd13ifvqhrg","pricing_plan_id":"cebpf4jnsgd1na2vs0mg"},{"bike_id":"4cae59a6-b080-4bb1-bec5-4750b8117228","system_id":"levelo_inurba_marseille","lat":43.289741,"lon":5.378306,"is_reserved":false,"is_disabled":false,"rental_uris":{"android":"levelo://app?vid=4cae59a6-b080-4bb1-bec5-4750b8117228","ios":"levelo://app?vid=4cae59a6-b080-4bb1-bec5-4750b8117228"},"vehicle_type_id":"4","last_reported":1719263255,"current_range_meters":12400,"station_id":"ce4bh9p2rcd13ifvqed0","pricing_plan_id":"cebpf4jnsgd1na2vs0mg"},{"bike_id":"dd6fb3fa-adc3-4e55-bd27-0bfc75898ce9","system_id":"levelo_inurba_marseille","lat":43.330442,"lon":5.389148,"is_reserved":false,"is_disabled":false,"rental_uris":{"android":"levelo://app?vid=dd6fb3fa-adc3-4e55-bd27-0bfc75898ce9","ios":"levelo://app?vid=dd6fb3fa-adc3-4e55-bd27-0bfc75898ce9"},"vehicle_type_id":"4","last_reported":1719263255,"current_range_meters":21200,"station_id":"ce4bhr92rcd13ifvqhrg","pricing_plan_id":"cebpf4jnsgd1na2vs0mg"},{"bike_id":"1d483b4a-8741-4c47-889f-d4db7569dda2","system_id":"levelo_inurba_marseille","lat":43.330442,"lon":5.389148,"is_reserved":false,"is_disabled":false,"rental_uris":{"android":"levelo://app?vid=1d483b4a-8741-4c47-889f-d4db7569dda2","ios":"levelo://app?vid=1d483b4a-8741-4c47-889f-d4db7569dda2"},"vehicle_type_id":"4","last_reported":1719263255,"current_range_meters":11200,"station_id":"ce4bhr92rcd13ifvqhrg","pricing_plan_id":"cebpf4jnsgd1na2vs0mg"},{"bike_id":"638d8961-ca1b-4c9e-9d6b-0d0b3bb670b9","system_id":"levelo_inurba_marseille","lat":43.330442,"lon":5.389148,"is_reserved":false,"is_disabled":false,"rental_uris":{"android":"levelo://app?vid=638d8961-ca1b-4c9e-9d6b-0d0b3bb670b9","ios":"levelo://app?vid=638d8961-ca1b-4c9e-9d6b-0d0b3bb670b9"},"vehicle_type_id":"4","last_reported":1719263255,"current_range_meters":2400,"station_id":"ce4bhr92rcd13ifvqhrg","pricing_plan_id":"cebpf4jnsgd1na2vs0mg"},{"bike_id":"580b15c1-a63d-4e85-8236-7536dff070e3","system_id":"levelo_inurba_marseille","lat":43.330442,"lon":5.389148,"is_reserved":false,"is_disabled":false,"rental_uris":{"android":"levelo://app?vid=580b15c1-a63d-4e85-8236-7536dff070e3","ios":"levelo://app?vid=580b15c1-a63d-4e85-8236-7536dff070e3"},"vehicle_type_id":"4","last_reported":1719263255,"current_range_meters":0,"station_id":"ce4bhr92rcd13ifvqhrg","pricing_plan_id":"cebpf4jnsgd1na2vs0mg"},{"bike_id":"864b1e62-1a19-4fdc-9a1f-01cda642e0d2","system_id":"levelo_inurba_marseille","lat":43.297455,"lon":5.393385,"is_reserved":false,"is_disabled":false,"rental_uris":{"android":"levelo://app?vid=864b1e62-1a19-4fdc-9a1f-01cda642e0d2","ios":"levelo://app?vid=864b1e62-1a19-4fdc-9a1f-01cda642e0d2"},"vehicle_type_id":"4","last_reported":1719263255,"current_range_meters":8800,"station_id":"chh1huq6cuj3fo74tm60","pricing_plan_id":"cebpf4jnsgd1na2vs0mg"},{"bike_id":"d0853407-c834-4848-bd0b-41fb7ceabde5","system_id":"levelo_inurba_marseille","lat":43.312609,"lon":5.401662,"is_reserved":false,"is_disabled":false,"rental_uris":{"android":"levelo://app?vid=d0853407-c834-4848-bd0b-41fb7ceabde5","ios":"levelo://app?vid=d0853407-c834-4848-bd0b-41fb7ceabde5"},"vehicle_type_id":"4","last_reported":1719263255,"current_range_meters":23600,"station_id":"ce4bh092rcd13ifvqd30","pricing_plan_id":"cebpf4jnsgd1na2vs0mg"},{"bike_id":"3827749a-54d6-4a5d-bf36-624dfe6790cd","system_id":"levelo_inurba_marseille","lat":43.312609,"lon":5.401662,"is_reserved":false,"is_disabled":false,"rental_uris":{"android":"levelo://app?vid=3827749a-54d6-4a5d-bf36-624dfe6790cd","ios":"levelo://app?vid=3827749a-54d6-4a5d-bf36-624dfe6790cd"},"vehicle_type_id":"4","last_reported":1719263255,"current_range_meters":31200,"station_id":"ce4bh092rcd13ifvqd30","pricing_plan_id":"cebpf4jnsgd1na2vs0mg"},{"bike_id":"c3ddbe4a-157d-4893-acf1-f1f626a65d21","system_id":"levelo_inurba_marseille","lat":43.337381,"lon":5.374612,"is_reserved":false,"is_disabled":false,"rental_uris":{"android":"levelo://app?vid=c3ddbe4a-157d-4893-acf1-f1f626a65d21","ios":"levelo://app?vid=c3ddbe4a-157d-4893-acf1-f1f626a65d21"},"vehicle_type_id":"0","last_reported":1719263255,"current_range_meters":19200,"station_id":"","pricing_plan_id":"cebpf4jnsgd1na2vs0mg"},{"bike_id":"bd9a6c26-2db3-4e30-92c7-c85ae97147aa","system_id":"levelo_inurba_marseille","lat":43.33739,"lon":5.374659,"is_reserved":false,"is_disabled":false,"rental_uris":{"android":"levelo://app?vid=bd9a6c26-2db3-4e30-92c7-c85ae97147aa","ios":"levelo://app?vid=bd9a6c26-2db3-4e30-92c7-c85ae97147aa"},"vehicle_type_id":"0","last_reported":1719263255,"current_range_meters":28800,"station_id":"","pricing_plan_id":"cebpf4jnsgd1na2vs0mg"},{"bike_id":"003a12da-0135-494f-95a5-1b3c3cdafa7f","system_id":"levelo_inurba_marseille","lat":43.309309,"lon":5.401364,"is_reserved":false,"is_disabled":false,"rental_uris":{"android":"levelo://app?vid=003a12da-0135-494f-95a5-1b3c3cdafa7f","ios":"levelo://app?vid=003a12da-0135-494f-95a5-1b3c3cdafa7f"},"vehicle_type_id":"4","last_reported":1719263255,"current_range_meters":4000,"station_id":"ce4bgvp2rcd13ifvqct0","pricing_plan_id":"cebpf4jnsgd1na2vs0mg"},{"bike_id":"bb65fb70-df82-47d8-b27f-438620895501","system_id":"levelo_inurba_marseille","lat":43.337403,"lon":5.374646,"is_reserved":false,"is_disabled":false,"rental_uris":{"android":"levelo://app?vid=bb65fb70-df82-47d8-b27f-438620895501","ios":"levelo://app?vid=bb65fb70-df82-47d8-b27f-438620895501"},"vehicle_type_id":"0","last_reported":1719263255,"current_range_meters":21600,"station_id":"","pricing_plan_id":"cebpf4jnsgd1na2vs0mg"},{"bike_id":"8043cc8a-f702-4e45-9523-d56dfd7ee432","system_id":"levelo_inurba_marseille","lat":43.337406,"lon":5.374643,"is_reserved":false,"is_disabled":false,"rental_uris":{"android":"levelo://app?vid=8043cc8a-f702-4e45-9523-d56dfd7ee432","ios":"levelo://app?vid=8043cc8a-f702-4e45-9523-d56dfd7ee432"},"vehicle_type_id":"0","last_reported":1719263255,"current_range_meters":26400,"station_id":"","pricing_plan_id":"cebpf4jnsgd1na2vs0mg"},{"bike_id":"cbff8e2e-87ad-4d9e-a09d-9b1fba1c0aeb","system_id":"levelo_inurba_marseille","lat":43.337407,"lon":5.374656,"is_reserved":false,"is_disabled":false,"rental_uris":{"android":"levelo://app?vid=cbff8e2e-87ad-4d9e-a09d-9b1fba1c0aeb","ios":"levelo://app?vid=cbff8e2e-87ad-4d9e-a09d-9b1fba1c0aeb"},"vehicle_type_id":"0","last_reported":1719263255,"current_range_meters":26800,"station_id":"","pricing_plan_id":"cebpf4jnsgd1na2vs0mg"},{"bike_id":"11da98ef-d0c3-43c2-a7e4-890f2c23ccbc","system_id":"levelo_inurba_marseille","lat":43.33741,"lon":5.37465,"is_reserved":false,"is_disabled":false,"rental_uris":{"android":"levelo://app?vid=11da98ef-d0c3-43c2-a7e4-890f2c23ccbc","ios":"levelo://app?vid=11da98ef-d0c3-43c2-a7e4-890f2c23ccbc"},"vehicle_type_id":"0","last_reported":1719263255,"current_range_meters":20400,"station_id":"","pricing_plan_id":"cebpf4jnsgd1na2vs0mg"},{"bike_id":"d013cc33-e736-4bbc-a491-0aee458b64b8","system_id":"levelo_inurba_marseille","lat":43.309371,"lon":5.401449,"is_reserved":false,"is_disabled":false,"rental_uris":{"android":"levelo://app?vid=d013cc33-e736-4bbc-a491-0aee458b64b8","ios":"levelo://app?vid=d013cc33-e736-4bbc-a491-0aee458b64b8"},"vehicle_type_id":"4","last_reported":1719263255,"current_range_meters":10000,"station_id":"ce4bgvp2rcd13ifvqct0","pricing_plan_id":"cebpf4jnsgd1na2vs0mg"},{"bike_id":"985eda3a-8205-4c72-8b0d-a44593dd15b5","system_id":"levelo_inurba_marseille","lat":43.337424,"lon":5.374639,"is_reserved":false,"is_disabled":false,"rental_uris":{"android":"levelo://app?vid=985eda3a-8205-4c72-8b0d-a44593dd15b5","ios":"levelo://app?vid=985eda3a-8205-4c72-8b0d-a44593dd15b5"},"vehicle_type_id":"0","last_reported":1719263255,"current_range_meters":20400,"station_id":"","pricing_plan_id":"cebpf4jnsgd1na2vs0mg"},{"bike_id":"1e023f14-e81f-4fc8-a29f-459f18287174","system_id":"levelo_inurba_marseille","lat":43.309371,"lon":5.401449,"is_reserved":false,"is_disabled":false,"rental_uris":{"android":"levelo://app?vid=1e023f14-e81f-4fc8-a29f-459f18287174","ios":"levelo://app?vid=1e023f14-e81f-4fc8-a29f-459f18287174"},"vehicle_type_id":"4","last_reported":1719263255,"current_range_meters":23600,"station_id":"ce4bgvp2rcd13ifvqct0","pricing_plan_id":"cebpf4jnsgd1na2vs0mg"},{"bike_id":"679ea94a-79a1-4c42-a3a0-95c31f7eb59f","system_id":"levelo_inurba_marseille","lat":43.312609,"lon":5.401662,"is_reserved":false,"is_disabled":false,"rental_uris":{"android":"levelo://app?vid=679ea94a-79a1-4c42-a3a0-95c31f7eb59f","ios":"levelo://app?vid=679ea94a-79a1-4c42-a3a0-95c31f7eb59f"},"vehicle_type_id":"4","last_reported":1719263255,"current_range_meters":18000,"station_id":"ce4bh092rcd13ifvqd30","pricing_plan_id":"cebpf4jnsgd1na2vs0mg"},{"bike_id":"e26ddf64-125c-4e38-a726-f14829d19eac","system_id":"levelo_inurba_marseille","lat":43.312609,"lon":5.401662,"is_reserved":false,"is_disabled":false,"rental_uris":{"android":"levelo://app?vid=e26ddf64-125c-4e38-a726-f14829d19eac","ios":"levelo://app?vid=e26ddf64-125c-4e38-a726-f14829d19eac"},"vehicle_type_id":"4","last_reported":1719263255,"current_range_meters":4400,"station_id":"ce4bh092rcd13ifvqd30","pricing_plan_id":"cebpf4jnsgd1na2vs0mg"},{"bike_id":"c0ee177b-b12d-4c3f-bbe1-61572a0170cc","system_id":"levelo_inurba_marseille","lat":43.30935,"lon":5.40141,"is_reserved":false,"is_disabled":false,"rental_uris":{"android":"levelo://app?vid=c0ee177b-b12d-4c3f-bbe1-61572a0170cc","ios":"levelo://app?vid=c0ee177b-b12d-4c3f-bbe1-61572a0170cc"},"vehicle_type_id":"4","last_reported":1719263255,"current_range_meters":800,"station_id":"ce4bgvp2rcd13ifvqct0","pricing_plan_id":"cebpf4jnsgd1na2vs0mg"},{"bike_id":"2a0fb516-a307-4861-b129-104556c40f00","system_id":"levelo_inurba_marseille","lat":43.337434,"lon":5.374629,"is_reserved":false,"is_disabled":false,"rental_uris":{"android":"levelo://app?vid=2a0fb516-a307-4861-b129-104556c40f00","ios":"levelo://app?vid=2a0fb516-a307-4861-b129-104556c40f00"},"vehicle_type_id":"0","last_reported":1719263255,"current_range_meters":18000,"station_id":"","pricing_plan_id":"cebpf4jnsgd1na2vs0mg"},{"bike_id":"c25a3696-e1cc-43ba-8656-23d4a118ee2e","system_id":"levelo_inurba_marseille","lat":43.337432,"lon":5.374645,"is_reserved":false,"is_disabled":false,"rental_uris":{"android":"levelo://app?vid=c25a3696-e1cc-43ba-8656-23d4a118ee2e","ios":"levelo://app?vid=c25a3696-e1cc-43ba-8656-23d4a118ee2e"},"vehicle_type_id":"0","last_reported":1719263255,"current_range_meters":27200,"station_id":"","pricing_plan_id":"cebpf4jnsgd1na2vs0mg"},{"bike_id":"3817e33c-3819-47b9-ba8c-bd212e079c59","system_id":"levelo_inurba_marseille","lat":43.309371,"lon":5.401449,"is_reserved":false,"is_disabled":false,"rental_uris":{"android":"levelo://app?vid=3817e33c-3819-47b9-ba8c-bd212e079c59","ios":"levelo://app?vid=3817e33c-3819-47b9-ba8c-bd212e079c59"},"vehicle_type_id":"4","last_reported":1719263255,"current_range_meters":22000,"station_id":"ce4bgvp2rcd13ifvqct0","pricing_plan_id":"cebpf4jnsgd1na2vs0mg"},{"bike_id":"251a3357-c396-435b-87c3-89ef42c64ae5","system_id":"levelo_inurba_marseille","lat":43.30936,"lon":5.40142,"is_reserved":false,"is_disabled":false,"rental_uris":{"android":"levelo://app?vid=251a3357-c396-435b-87c3-89ef42c64ae5","ios":"levelo://app?vid=251a3357-c396-435b-87c3-89ef42c64ae5"},"vehicle_type_id":"4","last_reported":1719263255,"current_range_meters":15200,"station_id":"ce4bgvp2rcd13ifvqct0","pricing_plan_id":"cebpf4jnsgd1na2vs0mg"},{"bike_id":"bf709b1a-1e81-4c69-a36a-dfef45d67fee","system_id":"levelo_inurba_marseille","lat":43.33744,"lon":5.374669,"is_reserved":false,"is_disabled":false,"rental_uris":{"android":"levelo://app?vid=bf709b1a-1e81-4c69-a36a-dfef45d67fee","ios":"levelo://app?vid=bf709b1a-1e81-4c69-a36a-dfef45d67fee"},"vehicle_type_id":"0","last_reported":1719263255,"current_range_meters":26800,"station_id":"","pricing_plan_id":"cebpf4jnsgd1na2vs0mg"},{"bike_id":"9b81675f-44cd-4cbe-9733-2d36a516d8f7","system_id":"levelo_inurba_marseille","lat":43.33744,"lon":5.37467,"is_reserved":false,"is_disabled":false,"rental_uris":{"android":"levelo://app?vid=9b81675f-44cd-4cbe-9733-2d36a516d8f7","ios":"levelo://app?vid=9b81675f-44cd-4cbe-9733-2d36a516d8f7"},"vehicle_type_id":"0","last_reported":1719263255,"current_range_meters":27200,"station_id":"","pricing_plan_id":"cebpf4jnsgd1na2vs0mg"},{"bike_id":"aa527c2c-31a5-479b-bfbe-daae0d9bb514","system_id":"levelo_inurba_marseille","lat":43.33744,"lon":5.374688,"is_reserved":false,"is_disabled":false,"rental_uris":{"android":"levelo://app?vid=aa527c2c-31a5-479b-bfbe-daae0d9bb514","ios":"levelo://app?vid=aa527c2c-31a5-479b-bfbe-daae0d9bb514"},"vehicle_type_id":"0","last_reported":1719263255,"current_range_meters":17200,"station_id":"","pricing_plan_id":"cebpf4jnsgd1na2vs0mg"},{"bike_id":"960de86f-1147-464e-9903-7517541ccc1d","system_id":"levelo_inurba_marseille","lat":43.30937,"lon":5.40144,"is_reserved":false,"is_disabled":false,"rental_uris":{"android":"levelo://app?vid=960de86f-1147-464e-9903-7517541ccc1d","ios":"levelo://app?vid=960de86f-1147-464e-9903-7517541ccc1d"},"vehicle_type_id":"4","last_reported":1719263255,"current_range_meters":20800,"station_id":"ce4bgvp2rcd13ifvqct0","pricing_plan_id":"cebpf4jnsgd1na2vs0mg"},{"bike_id":"2893b2bb-c859-4b86-b45a-064abb04e59d","system_id":"levelo_inurba_marseille","lat":43.309371,"lon":5.401449,"is_reserved":false,"is_disabled":false,"rental_uris":{"android":"levelo://app?vid=2893b2bb-c859-4b86-b45a-064abb04e59d","ios":"levelo://app?vid=2893b2bb-c859-4b86-b45a-064abb04e59d"},"vehicle_type_id":"4","last_reported":1719263255,"current_range_meters":2400,"station_id":"ce4bgvp2rcd13ifvqct0","pricing_plan_id":"cebpf4jnsgd1na2vs0mg"},{"bike_id":"f867320b-b3ee-4d44-8ef3-37d72db21942","system_id":"levelo_inurba_marseille","lat":43.33754,"lon":5.37456,"is_reserved":false,"is_disabled":false,"rental_uris":{"android":"levelo://app?vid=f867320b-b3ee-4d44-8ef3-37d72db21942","ios":"levelo://app?vid=f867320b-b3ee-4d44-8ef3-37d72db21942"},"vehicle_type_id":"4","last_reported":1719263255,"current_range_meters":29200,"station_id":"","pricing_plan_id":"cebpf4jnsgd1na2vs0mg"},{"bike_id":"7238730e-967c-41d9-bc07-8eea0a2b9290","system_id":"levelo_inurba_marseille","lat":43.306412,"lon":5.401035,"is_reserved":false,"is_disabled":false,"rental_uris":{"android":"levelo://app?vid=7238730e-967c-41d9-bc07-8eea0a2b9290","ios":"levelo://app?vid=7238730e-967c-41d9-bc07-8eea0a2b9290"},"vehicle_type_id":"4","last_reported":1719263255,"current_range_meters":18400,"station_id":"ce4bh112rcd13ifvqda0","pricing_plan_id":"cebpf4jnsgd1na2vs0mg"},{"bike_id":"2319d425-6f64-4f66-b5f5-68688d14311c","system_id":"levelo_inurba_marseille","lat":43.306543,"lon":5.40086,"is_reserved":false,"is_disabled":false,"rental_uris":{"android":"levelo://app?vid=2319d425-6f64-4f66-b5f5-68688d14311c","ios":"levelo://app?vid=2319d425-6f64-4f66-b5f5-68688d14311c"},"vehicle_type_id":"4","last_reported":1719263255,"current_range_meters":0,"station_id":"ce4bh112rcd13ifvqda0","pricing_plan_id":"cebpf4jnsgd1na2vs0mg"},{"bike_id":"b16ad94d-77b9-4f2b-b79c-9d9a0b02a254","system_id":"levelo_inurba_marseille","lat":43.30642,"lon":5.401031,"is_reserved":false,"is_disabled":false,"rental_uris":{"android":"levelo://app?vid=b16ad94d-77b9-4f2b-b79c-9d9a0b02a254","ios":"levelo://app?vid=b16ad94d-77b9-4f2b-b79c-9d9a0b02a254"},"vehicle_type_id":"4","last_reported":1719263255,"current_range_meters":16800,"station_id":"ce4bh112rcd13ifvqda0","pricing_plan_id":"cebpf4jnsgd1na2vs0mg"},{"bike_id":"564a0dae-c402-4bcb-a1d3-940150e8f4cf","system_id":"levelo_inurba_marseille","lat":43.306412,"lon":5.401035,"is_reserved":false,"is_disabled":false,"rental_uris":{"android":"levelo://app?vid=564a0dae-c402-4bcb-a1d3-940150e8f4cf","ios":"levelo://app?vid=564a0dae-c402-4bcb-a1d3-940150e8f4cf"},"vehicle_type_id":"4","last_reported":1719263255,"current_range_meters":21200,"station_id":"ce4bh112rcd13ifvqda0","pricing_plan_id":"cebpf4jnsgd1na2vs0mg"},{"bike_id":"77a78dc8-f1b4-46a1-bfcf-db08a8ed08a4","system_id":"levelo_inurba_marseille","lat":43.30642,"lon":5.401031,"is_reserved":false,"is_disabled":false,"rental_uris":{"android":"levelo://app?vid=77a78dc8-f1b4-46a1-bfcf-db08a8ed08a4","ios":"levelo://app?vid=77a78dc8-f1b4-46a1-bfcf-db08a8ed08a4"},"vehicle_type_id":"4","last_reported":1719263255,"current_range_meters":19200,"station_id":"ce4bh112rcd13ifvqda0","pricing_plan_id":"cebpf4jnsgd1na2vs0mg"},{"bike_id":"8718d402-48ed-450a-ae44-0507e341141d","system_id":"levelo_inurba_marseille","lat":43.301117,"lon":5.398795,"is_reserved":false,"is_disabled":false,"rental_uris":{"android":"levelo://app?vid=8718d402-48ed-450a-ae44-0507e341141d","ios":"levelo://app?vid=8718d402-48ed-450a-ae44-0507e341141d"},"vehicle_type_id":"4","last_reported":1719263255,"current_range_meters":13200,"station_id":"ce4bh0h2rcd13ifvqd40","pricing_plan_id":"cebpf4jnsgd1na2vs0mg"},{"bike_id":"0c98ad98-176e-47da-9922-1117c4d38936","system_id":"levelo_inurba_marseille","lat":43.301117,"lon":5.398795,"is_reserved":false,"is_disabled":false,"rental_uris":{"android":"levelo://app?vid=0c98ad98-176e-47da-9922-1117c4d38936","ios":"levelo://app?vid=0c98ad98-176e-47da-9922-1117c4d38936"},"vehicle_type_id":"4","last_reported":1719263255,"current_range_meters":31200,"station_id":"ce4bh0h2rcd13ifvqd40","pricing_plan_id":"cebpf4jnsgd1na2vs0mg"},{"bike_id":"7d7e8c24-7068-4d33-ae9e-62dd94788a55","system_id":"levelo_inurba_marseille","lat":43.30133,"lon":5.39868,"is_reserved":false,"is_disabled":false,"rental_uris":{"android":"levelo://app?vid=7d7e8c24-7068-4d33-ae9e-62dd94788a55","ios":"levelo://app?vid=7d7e8c24-7068-4d33-ae9e-62dd94788a55"},"vehicle_type_id":"4","last_reported":1719263255,"current_range_meters":8800,"station_id":"ce4bh0h2rcd13ifvqd40","pricing_plan_id":"cebpf4jnsgd1na2vs0mg"},{"bike_id":"5c5c4f90-2732-4f25-8867-f13bcb76747e","system_id":"levelo_inurba_marseille","lat":43.30132,"lon":5.39869,"is_reserved":false,"is_disabled":false,"rental_uris":{"android":"levelo://app?vid=5c5c4f90-2732-4f25-8867-f13bcb76747e","ios":"levelo://app?vid=5c5c4f90-2732-4f25-8867-f13bcb76747e"},"vehicle_type_id":"4","last_reported":1719263255,"current_range_meters":16400,"station_id":"ce4bh0h2rcd13ifvqd40","pricing_plan_id":"cebpf4jnsgd1na2vs0mg"},{"bike_id":"51fd692c-e730-46e3-9cc9-b61cafc4c925","system_id":"levelo_inurba_marseille","lat":43.30128,"lon":5.39869,"is_reserved":false,"is_disabled":false,"rental_uris":{"android":"levelo://app?vid=51fd692c-e730-46e3-9cc9-b61cafc4c925","ios":"levelo://app?vid=51fd692c-e730-46e3-9cc9-b61cafc4c925"},"vehicle_type_id":"4","last_reported":1719263255,"current_range_meters":31200,"station_id":"ce4bh0h2rcd13ifvqd40","pricing_plan_id":"cebpf4jnsgd1na2vs0mg"},{"bike_id":"8170705a-37bb-49e8-9c4d-1fc4c81c7d5f","system_id":"levelo_inurba_marseille","lat":43.30642,"lon":5.401031,"is_reserved":false,"is_disabled":false,"rental_uris":{"android":"levelo://app?vid=8170705a-37bb-49e8-9c4d-1fc4c81c7d5f","ios":"levelo://app?vid=8170705a-37bb-49e8-9c4d-1fc4c81c7d5f"},"vehicle_type_id":"4","last_reported":1719263255,"current_range_meters":27200,"station_id":"ce4bh112rcd13ifvqda0","pricing_plan_id":"cebpf4jnsgd1na2vs0mg"},{"bike_id":"967e4f20-4399-4445-9809-2188963d1f66","system_id":"levelo_inurba_marseille","lat":43.30129,"lon":5.39871,"is_reserved":false,"is_disabled":false,"rental_uris":{"android":"levelo://app?vid=967e4f20-4399-4445-9809-2188963d1f66","ios":"levelo://app?vid=967e4f20-4399-4445-9809-2188963d1f66"},"vehicle_type_id":"4","last_reported":1719263255,"current_range_meters":20400,"station_id":"ce4bh0h2rcd13ifvqd40","pricing_plan_id":"cebpf4jnsgd1na2vs0mg"},{"bike_id":"5770ede5-2db1-4b6d-a850-6cbc2bccf6c3","system_id":"levelo_inurba_marseille","lat":43.28727,"lon":5.36078,"is_reserved":false,"is_disabled":false,"rental_uris":{"android":"levelo://app?vid=5770ede5-2db1-4b6d-a850-6cbc2bccf6c3","ios":"levelo://app?vid=5770ede5-2db1-4b6d-a850-6cbc2bccf6c3"},"vehicle_type_id":"4","last_reported":1719263255,"current_range_meters":18000,"station_id":"cki0cbj6b192h4jlfktg","pricing_plan_id":"cebpf4jnsgd1na2vs0mg"},{"bike_id":"e11341f6-5008-4470-bb7f-b27b8c7d66d7","system_id":"levelo_inurba_marseille","lat":43.298681,"lon":5.397225,"is_reserved":false,"is_disabled":false,"rental_uris":{"android":"levelo://app?vid=e11341f6-5008-4470-bb7f-b27b8c7d66d7","ios":"levelo://app?vid=e11341f6-5008-4470-bb7f-b27b8c7d66d7"},"vehicle_type_id":"4","last_reported":1719263255,"current_range_meters":16400,"station_id":"ce4bh0h2rcd13ifvqd50","pricing_plan_id":"cebpf4jnsgd1na2vs0mg"},{"bike_id":"026b7ced-aaf7-4db5-91fe-548ce5a99b43","system_id":"levelo_inurba_marseille","lat":43.286961,"lon":5.373785,"is_reserved":false,"is_disabled":false,"rental_uris":{"android":"levelo://app?vid=026b7ced-aaf7-4db5-91fe-548ce5a99b43","ios":"levelo://app?vid=026b7ced-aaf7-4db5-91fe-548ce5a99b43"},"vehicle_type_id":"4","last_reported":1719263255,"current_range_meters":26800,"station_id":"ce4bh3p2rcd13ifvqdq0","pricing_plan_id":"cebpf4jnsgd1na2vs0mg"},{"bike_id":"82fc618f-1dcb-44dc-9670-c688949077ac","system_id":"levelo_inurba_marseille","lat":43.298681,"lon":5.397225,"is_reserved":false,"is_disabled":false,"rental_uris":{"android":"levelo://app?vid=82fc618f-1dcb-44dc-9670-c688949077ac","ios":"levelo://app?vid=82fc618f-1dcb-44dc-9670-c688949077ac"},"vehicle_type_id":"4","last_reported":1719263255,"current_range_meters":11200,"station_id":"ce4bh0h2rcd13ifvqd50","pricing_plan_id":"cebpf4jnsgd1na2vs0mg"},{"bike_id":"0c1fb755-06ec-415e-bb1a-369abcd66702","system_id":"levelo_inurba_marseille","lat":43.286593,"lon":5.363346,"is_reserved":false,"is_disabled":false,"rental_uris":{"android":"levelo://app?vid=0c1fb755-06ec-415e-bb1a-369abcd66702","ios":"levelo://app?vid=0c1fb755-06ec-415e-bb1a-369abcd66702"},"vehicle_type_id":"4","last_reported":1719263255,"current_range_meters":27200,"station_id":"ce4bhah2rcd13ifvqej0","pricing_plan_id":"cebpf4jnsgd1na2vs0mg"},{"bike_id":"b0f61996-b1dd-4680-90fb-69574fab4517","system_id":"levelo_inurba_marseille","lat":43.298681,"lon":5.397225,"is_reserved":false,"is_disabled":false,"rental_uris":{"android":"levelo://app?vid=b0f61996-b1dd-4680-90fb-69574fab4517","ios":"levelo://app?vid=b0f61996-b1dd-4680-90fb-69574fab4517"},"vehicle_type_id":"4","last_reported":1719263255,"current_range_meters":30400,"station_id":"ce4bh0h2rcd13ifvqd50","pricing_plan_id":"cebpf4jnsgd1na2vs0mg"},{"bike_id":"23a51499-e3ee-4b94-b00f-320a59d838c6","system_id":"levelo_inurba_marseille","lat":43.286961,"lon":5.373785,"is_reserved":false,"is_disabled":false,"rental_uris":{"android":"levelo://app?vid=23a51499-e3ee-4b94-b00f-320a59d838c6","ios":"levelo://app?vid=23a51499-e3ee-4b94-b00f-320a59d838c6"},"vehicle_type_id":"4","last_reported":1719263255,"current_range_meters":22800,"station_id":"ce4bh3p2rcd13ifvqdq0","pricing_plan_id":"cebpf4jnsgd1na2vs0mg"},{"bike_id":"4e51fbc9-8e49-47f2-aba8-320ae6ed44eb","system_id":"levelo_inurba_marseille","lat":43.286591,"lon":5.363346,"is_reserved":false,"is_disabled":false,"rental_uris":{"android":"levelo://app?vid=4e51fbc9-8e49-47f2-aba8-320ae6ed44eb","ios":"levelo://app?vid=4e51fbc9-8e49-47f2-aba8-320ae6ed44eb"},"vehicle_type_id":"4","last_reported":1719263255,"current_range_meters":28000,"station_id":"ce4bhah2rcd13ifvqej0","pricing_plan_id":"cebpf4jnsgd1na2vs0mg"},{"bike_id":"3a1d3796-8867-479a-b80b-d033d44196a5","system_id":"levelo_inurba_marseille","lat":43.286591,"lon":5.363346,"is_reserved":false,"is_disabled":false,"rental_uris":{"android":"levelo://app?vid=3a1d3796-8867-479a-b80b-d033d44196a5","ios":"levelo://app?vid=3a1d3796-8867-479a-b80b-d033d44196a5"},"vehicle_type_id":"4","last_reported":1719263255,"current_range_meters":30000,"station_id":"ce4bhah2rcd13ifvqej0","pricing_plan_id":"cebpf4jnsgd1na2vs0mg"},{"bike_id":"03362df2-6168-4922-8b0f-93db85d05341","system_id":"levelo_inurba_marseille","lat":43.30235,"lon":5.40027,"is_reserved":false,"is_disabled":false,"rental_uris":{"android":"levelo://app?vid=03362df2-6168-4922-8b0f-93db85d05341","ios":"levelo://app?vid=03362df2-6168-4922-8b0f-93db85d05341"},"vehicle_type_id":"4","last_reported":1719263255,"current_range_meters":24000,"station_id":"ce4bgvh2rcd13ifvqcs0","pricing_plan_id":"cebpf4jnsgd1na2vs0mg"},{"bike_id":"53571742-7541-4a76-9a31-096517eac896","system_id":"levelo_inurba_marseille","lat":43.302759,"lon":5.400793,"is_reserved":false,"is_disabled":false,"rental_uris":{"android":"levelo://app?vid=53571742-7541-4a76-9a31-096517eac896","ios":"levelo://app?vid=53571742-7541-4a76-9a31-096517eac896"},"vehicle_type_id":"4","last_reported":1719263255,"current_range_meters":21200,"station_id":"ce4bgvh2rcd13ifvqcs0","pricing_plan_id":"cebpf4jnsgd1na2vs0mg"},{"bike_id":"6f7be7f5-a35e-4346-9bf4-319319eae814","system_id":"levelo_inurba_marseille","lat":43.295194,"lon":5.39397,"is_reserved":false,"is_disabled":false,"rental_uris":{"android":"levelo://app?vid=6f7be7f5-a35e-4346-9bf4-319319eae814","ios":"levelo://app?vid=6f7be7f5-a35e-4346-9bf4-319319eae814"},"vehicle_type_id":"4","last_reported":1719263255,"current_range_meters":31200,"station_id":"ce4bh292rcd13ifvqdf0","pricing_plan_id":"cebpf4jnsgd1na2vs0mg"},{"bike_id":"d6604b9e-8de3-43c3-bd48-1c4f53bd1426","system_id":"levelo_inurba_marseille","lat":43.302397,"lon":5.4005,"is_reserved":false,"is_disabled":false,"rental_uris":{"android":"levelo://app?vid=d6604b9e-8de3-43c3-bd48-1c4f53bd1426","ios":"levelo://app?vid=d6604b9e-8de3-43c3-bd48-1c4f53bd1426"},"vehicle_type_id":"4","last_reported":1719263255,"current_range_meters":30800,"station_id":"ce4bgvh2rcd13ifvqcs0","pricing_plan_id":"cebpf4jnsgd1na2vs0mg"},{"bike_id":"fa7f57a9-dfd8-4708-9c50-7bf1c8357cf7","system_id":"levelo_inurba_marseille","lat":43.290345,"lon":5.38646,"is_reserved":false,"is_disabled":false,"rental_uris":{"android":"levelo://app?vid=fa7f57a9-dfd8-4708-9c50-7bf1c8357cf7","ios":"levelo://app?vid=fa7f57a9-dfd8-4708-9c50-7bf1c8357cf7"},"vehicle_type_id":"4","last_reported":1719263255,"current_range_meters":31200,"station_id":"ce4bh4p2rcd13ifvqe0g","pricing_plan_id":"cebpf4jnsgd1na2vs0mg"},{"bike_id":"575340d5-9765-4410-b778-1bc2833d2f01","system_id":"levelo_inurba_marseille","lat":43.302413,"lon":5.40055,"is_reserved":false,"is_disabled":false,"rental_uris":{"android":"levelo://app?vid=575340d5-9765-4410-b778-1bc2833d2f01","ios":"levelo://app?vid=575340d5-9765-4410-b778-1bc2833d2f01"},"vehicle_type_id":"4","last_reported":1719263255,"current_range_meters":4800,"station_id":"","pricing_plan_id":"cebpf4jnsgd1na2vs0mg"},{"bike_id":"3152d7c8-6926-40e4-bb31-43e9e9afc10b","system_id":"levelo_inurba_marseille","lat":43.290299,"lon":5.386442,"is_reserved":false,"is_disabled":false,"rental_uris":{"android":"levelo://app?vid=3152d7c8-6926-40e4-bb31-43e9e9afc10b","ios":"levelo://app?vid=3152d7c8-6926-40e4-bb31-43e9e9afc10b"},"vehicle_type_id":"4","last_reported":1719263255,"current_range_meters":31200,"station_id":"ce4bh4p2rcd13ifvqe0g","pricing_plan_id":"cebpf4jnsgd1na2vs0mg"},{"bike_id":"397085d3-ab40-4612-a806-c072eae01b92","system_id":"levelo_inurba_marseille","lat":43.290345,"lon":5.38646,"is_reserved":false,"is_disabled":false,"rental_uris":{"android":"levelo://app?vid=397085d3-ab40-4612-a806-c072eae01b92","ios":"levelo://app?vid=397085d3-ab40-4612-a806-c072eae01b92"},"vehicle_type_id":"4","last_reported":1719263255,"current_range_meters":8000,"station_id":"ce4bh4p2rcd13ifvqe0g","pricing_plan_id":"cebpf4jnsgd1na2vs0mg"},{"bike_id":"be24c66f-b938-4759-8adc-c844e3c5d7f8","system_id":"levelo_inurba_marseille","lat":43.30236,"lon":5.40057,"is_reserved":false,"is_disabled":false,"rental_uris":{"android":"levelo://app?vid=be24c66f-b938-4759-8adc-c844e3c5d7f8","ios":"levelo://app?vid=be24c66f-b938-4759-8adc-c844e3c5d7f8"},"vehicle_type_id":"4","last_reported":1719263255,"current_range_meters":15200,"station_id":"ce4bgvh2rcd13ifvqcs0","pricing_plan_id":"cebpf4jnsgd1na2vs0mg"},{"bike_id":"3450fa7e-73bf-4bf2-ab75-334e611e46f7","system_id":"levelo_inurba_marseille","lat":43.30248,"lon":5.40064,"is_reserved":false,"is_disabled":false,"rental_uris":{"android":"levelo://app?vid=3450fa7e-73bf-4bf2-ab75-334e611e46f7","ios":"levelo://app?vid=3450fa7e-73bf-4bf2-ab75-334e611e46f7"},"vehicle_type_id":"4","last_reported":1719263255,"current_range_meters":28800,"station_id":"ce4bgvh2rcd13ifvqcs0","pricing_plan_id":"cebpf4jnsgd1na2vs0mg"},{"bike_id":"ae3f2bb0-254a-4f4f-af88-489a81e4154c","system_id":"levelo_inurba_marseille","lat":43.30252,"lon":5.40067,"is_reserved":false,"is_disabled":false,"rental_uris":{"android":"levelo://app?vid=ae3f2bb0-254a-4f4f-af88-489a81e4154c","ios":"levelo://app?vid=ae3f2bb0-254a-4f4f-af88-489a81e4154c"},"vehicle_type_id":"4","last_reported":1719263255,"current_range_meters":6000,"station_id":"ce4bgvh2rcd13ifvqcs0","pricing_plan_id":"cebpf4jnsgd1na2vs0mg"},{"bike_id":"d8a1f541-ab4e-4e5a-a508-f41a6107de37","system_id":"levelo_inurba_marseille","lat":43.30243,"lon":5.40062,"is_reserved":false,"is_disabled":false,"rental_uris":{"android":"levelo://app?vid=d8a1f541-ab4e-4e5a-a508-f41a6107de37","ios":"levelo://app?vid=d8a1f541-ab4e-4e5a-a508-f41a6107de37"},"vehicle_type_id":"4","last_reported":1719263255,"current_range_meters":31200,"station_id":"ce4bgvh2rcd13ifvqcs0","pricing_plan_id":"cebpf4jnsgd1na2vs0mg"},{"bike_id":"f4cfbd58-0616-4e7d-94ea-9d1c5a482f1c","system_id":"levelo_inurba_marseille","lat":43.302517,"lon":5.400706,"is_reserved":false,"is_disabled":false,"rental_uris":{"android":"levelo://app?vid=f4cfbd58-0616-4e7d-94ea-9d1c5a482f1c","ios":"levelo://app?vid=f4cfbd58-0616-4e7d-94ea-9d1c5a482f1c"},"vehicle_type_id":"4","last_reported":1719263255,"current_range_meters":20400,"station_id":"ce4bgvh2rcd13ifvqcs0","pricing_plan_id":"cebpf4jnsgd1na2vs0mg"},{"bike_id":"dc7459bd-9b11-4e49-b4bd-f349572ccefb","system_id":"levelo_inurba_marseille","lat":43.286591,"lon":5.363346,"is_reserved":false,"is_disabled":false,"rental_uris":{"android":"levelo://app?vid=dc7459bd-9b11-4e49-b4bd-f349572ccefb","ios":"levelo://app?vid=dc7459bd-9b11-4e49-b4bd-f349572ccefb"},"vehicle_type_id":"4","last_reported":1719263255,"current_range_meters":10000,"station_id":"ce4bhah2rcd13ifvqej0","pricing_plan_id":"cebpf4jnsgd1na2vs0mg"},{"bike_id":"c43c653a-f27c-4cb1-9273-536df28b1412","system_id":"levelo_inurba_marseille","lat":43.286039,"lon":5.370681,"is_reserved":false,"is_disabled":false,"rental_uris":{"android":"levelo://app?vid=c43c653a-f27c-4cb1-9273-536df28b1412","ios":"levelo://app?vid=c43c653a-f27c-4cb1-9273-536df28b1412"},"vehicle_type_id":"4","last_reported":1719263255,"current_range_meters":21200,"station_id":"ce4bht12rcd13ifvqi60","pricing_plan_id":"cebpf4jnsgd1na2vs0mg"},{"bike_id":"903c5ff3-a652-4a53-b438-5170ab525d2b","system_id":"levelo_inurba_marseille","lat":43.287184,"lon":5.37937,"is_reserved":false,"is_disabled":false,"rental_uris":{"android":"levelo://app?vid=903c5ff3-a652-4a53-b438-5170ab525d2b","ios":"levelo://app?vid=903c5ff3-a652-4a53-b438-5170ab525d2b"},"vehicle_type_id":"4","last_reported":1719263255,"current_range_meters":21200,"station_id":"ce4bh9p2rcd13ifvqec0","pricing_plan_id":"cebpf4jnsgd1na2vs0mg"},{"bike_id":"f677470e-219b-4de0-acd0-6fff2a9ea935","system_id":"levelo_inurba_marseille","lat":43.30675,"lon":5.40373,"is_reserved":false,"is_disabled":false,"rental_uris":{"android":"levelo://app?vid=f677470e-219b-4de0-acd0-6fff2a9ea935","ios":"levelo://app?vid=f677470e-219b-4de0-acd0-6fff2a9ea935"},"vehicle_type_id":"4","last_reported":1719263255,"current_range_meters":10400,"station_id":"","pricing_plan_id":"cebpf4jnsgd1na2vs0mg"},{"bike_id":"3a6f0360-8021-4932-9fb7-2821cfbe0e70","system_id":"levelo_inurba_marseille","lat":43.316828,"lon":5.404723,"is_reserved":false,"is_disabled":false,"rental_uris":{"android":"levelo://app?vid=3a6f0360-8021-4932-9fb7-2821cfbe0e70","ios":"levelo://app?vid=3a6f0360-8021-4932-9fb7-2821cfbe0e70"},"vehicle_type_id":"4","last_reported":1719263255,"current_range_meters":0,"station_id":"ce4bh012rcd13ifvqd00","pricing_plan_id":"cebpf4jnsgd1na2vs0mg"},