{"last_updated":1746061074,"ttl":60,"version":"2.2","data":{"bikes":[{"bike_id":"af4f0c69-e62d-4155-b1d1-a67b45271ae1","system_id":"levelo_inurba_marseille","lat":43.2472,"lon":5.41165,"is_reserved":false,"is_disabled":true,"rental_uris":{"android":"levelo://app?vid=af4f0c69-e62d-4155-b1d1-a67b45271ae1","ios":"levelo://app?vid=af4f0c69-e62d-4155-b1d1-a67b45271ae1"},"vehicle_type_id":"4","last_reported":1746061074,"current_range_meters":0,"station_id":"","pricing_plan_id":"cebpf4jnsgd1na2vs0mg"},{"bike_id":"848d4387-4b2a-4fcf-aa05-4e28464f9c04","system_id":"levelo_inurba_marseille","lat":43.2972,"lon":5.36164,"is_reserved":false,"is_disabled":true,"rental_uris":{"android":"levelo://app?vid=848d4387-4b2a-4fcf-aa05-4e28464f9c04","ios":"levelo://app?vid=848d4387-4b2a-4fcf-aa05-4e28464f9c04"},"vehicle_type_id":"4","last_reported":1746061074,"current_range_meters":0,"station_id":"","pricing_plan_id":"cebpf4jnsgd1na2vs0mg"},{"bike_id":"a49b6b91-d86f-4422-ba6d-64d194cafd8a","system_id":"levelo_inurba_marseille","lat":43.347508,"lon":5.351365,"is_reserved":false,"is_disabled":true,"rental_uris":{"android":"levelo://app?vid=a49b6b91-d86f-4422-ba6d-64d194cafd8a","ios":"levelo://app?vid=a49b6b91-d86f-4422-ba6d-64d194cafd8a"},"vehicle_type_id":"4","last_reported":1746061074,"current_range_meters":0,"station_id":"","pricing_plan_id":"cebpf4jnsgd1na2vs0mg"},{"bike_id":"af2baa02-626d-4353-9386-7627a67b7b27","system_id":"levelo_inurba_marseille","lat":43.28791,"lon":5.44942,"is_reserved":false,"is_disabled":true,"rental_uris":{"android":"levelo://app?vid=af2baa02-626d-4353-9386-7627a67b7b27","ios":"levelo://app?vid=af2baa02-626d-4353-9386-7627a67b7b27"},"vehicle_type_id":"4","last_reported":1746061074,"current_range_meters":0,"station_id":"","pricing_plan_id":"cebpf4jnsgd1na2vs0mg"},{"bike_id":"26deac1f-c435-40bc-9469-9ae0b266bb77","system_id":"levelo_inurba_marseille","lat":43.30202,"lon":5.38441,"is_reserved":false,"is_disabled":true,"rental_uris":{"android":"levelo://app?vid=26deac1f-c435-40bc-9469-9ae0b266bb77","ios":"levelo://app?vid=26deac1f-c435-40bc-9469-9ae0b266bb77"},"vehicle_type_id":"4","last_reported":1746061074,"current_range_meters":0,"station_id":"","pricing_plan_id":"cebpf4jnsgd1na2vs0mg"},{"bike_id":"eeaafc0e-be1e-4d09-855b-ebb08e55d59f","system_id":"levelo_inurba_marseille","lat":43.30606,"lon":5.36611,"is_reserved":false,"is_disabled":true,"rental_uris":{"android":"levelo://app?vid=eeaafc0e-be1e-4d09-855b-ebb08e55d59f","ios":"levelo://app?vid=eeaafc0e-be1e-4d09-855b-ebb08e55d59f"},"vehicle_type_id":"4","last_reported":1746061074,"current_range_meters":0,"station_id":"","pricing_plan_id":"cebpf4jnsgd1na2vs0mg"},{"bike_id":"a4c8a335-745b-4d95-97e0-7bac3cb18549","system_id":"levelo_inurba_marseille","lat":43.28123,"lon":5.39852,"is_reserved":false,"is_disabled":true,"rental_uris":{"android":"levelo://app?vid=a4c8a335-745b-4d95-97e0-7bac3cb18549","ios":"levelo://app?vid=a4c8a335-745b-4d95-97e0-7bac3cb18549"},"vehicle_type_id":"4","last_reported":1746061074,"current_range_meters":0,"station_id":"","pricing_plan_id":"cebpf4jnsgd1na2vs0mg"},{"bike_id":"73768040-e2b3-43a3-ba86-4d950a5cbe6f","system_id":"levelo_inurba_marseille","lat":43.30653,"lon":5.36602,"is_reserved":false,"is_disabled":true,"rental_uris":{"android":"levelo://app?vid=73768040-e2b3-43a3-ba86-4d950a5cbe6f","ios":"levelo://app?vid=73768040-e2b3-43a3-ba86-4d950a5cbe6f"},"vehicle_type_id":"4","last_reported":1746061074,"current_range_meters":0,"station_id":"","pricing_plan_id":"cebpf4jnsgd1na2vs0mg"},{"bike_id":"f0e4342d-9bc7-4a76-a0fc-6b18e93b6f1e","system_id":"levelo_inurba_marseille","lat":43.3064,"lon":5.40081,"is_reserved":false,"is_disabled":true,"rental_uris":{"android":"levelo://app?vid=f0e4342d-9bc7-4a76-a0fc-6b18e93b6f1e","ios":"levelo://app?vid=f0e4342d-9bc7-4a76-a0fc-6b18e93b6f1e"},"vehicle_type_id":"4","last_reported":1746061074,"current_range_meters":0,"station_id":"ce4bh112rcd13ifvqda0","pricing_plan_id":"cebpf4jnsgd1na2vs0mg"},{"bike_id":"93238445-398f-4670-afaa-5077f3bb8cdf","system_id":"levelo_inurba_marseille","lat":43.28571,"lon":5.39489,"is_reserved":false,"is_disabled":true,"rental_uris":{"android":"levelo://app?vid=93238445-398f-4670-afaa-5077f3bb8cdf","ios":"levelo://app?vid=93238445-398f-4670-afaa-5077f3bb8cdf"},"vehicle_type_id":"4","last_reported":1746061074,"current_range_meters":0,"station_id":"ce4bh292rcd13ifvqdg0","pricing_plan_id":"cebpf4jnsgd1na2vs0mg"},{"bike_id":"9b9c7996-d03c-479e-827a-df9c26a1bcfc","system_id":"levelo_inurba_marseille","lat":43.28418,"lon":5.37511,"is_reserved":false,"is_disabled":true,"rental_uris":{"android":"levelo://app?vid=9b9c7996-d03c-479e-827a-df9c26a1bcfc","ios":"levelo://app?vid=9b9c7996-d03c-479e-827a-df9c26a1bcfc"},"vehicle_type_id":"4","last_reported":1746061074,"current_range_meters":0,"station_id":"ce4bh412rcd13ifvqds0","pricing_plan_id":"cebpf4jnsgd1na2vs0mg"},{"bike_id":"4b6d8c4b-2838-47af-a577-10188e1c3dd8","system_id":"levelo_inurba_marseille","lat":43.25461,"lon":5.37663,"is_reserved":false,"is_disabled":true,"rental_uris":{"android":"levelo://app?vid=4b6d8c4b-2838-47af-a577-10188e1c3dd8","ios":"levelo://app?vid=4b6d8c4b-2838-47af-a577-10188e1c3dd8"},"vehicle_type_id":"4","last_reported":1746061074,"current_range_meters":0,"station_id":"ce4bhh12rcd13ifvqff0","pricing_plan_id":"cebpf4jnsgd1na2vs0mg"},{"bike_id":"18f85f3e-d187-4724-bcac-7774bf71a783","system_id":"levelo_inurba_marseille","lat":43.225,"lon":5.34781,"is_reserved":false,"is_disabled":true,"rental_uris":{"android":"levelo://app?vid=18f85f3e-d187-4724-bcac-7774bf71a783","ios":"levelo://app?vid=18f85f3e-d187-4724-bcac-7774bf71a783"},"vehicle_type_id":"4","last_reported":1746061074,"current_range_meters":0,"station_id":"st_cvj5dfep6f1abm77gieg","pricing_plan_id":"cebpf4jnsgd1na2vs0mg"},{"bike_id":"e881e0aa-33eb-42d1-bdfb-56edf0dd945f","system_id":"levelo_inurba_marseille","lat":43.217467,"lon":5.346066,"is_reserved":false,"is_disabled":true,"rental_uris":{"android":"levelo://app?vid=e881e0aa-33eb-42d1-bdfb-56edf0dd945f","ios":"levelo://app?vid=e881e0aa-33eb-42d1-bdfb-56edf0dd945f"},"vehicle_type_id":"4","last_reported":1746061074,"current_range_meters":0,"station_id":"st_cvj6r9ubvosntc0bgbag","pricing_plan_id":"cebpf4jnsgd1na2vs0mg"},{"bike_id":"042ab00b-d873-40b1-a008-32c312479667","system_id":"levelo_inurba_marseille","lat":43.21168,"lon":5.35087,"is_reserved":false,"is_disabled":true,"rental_uris":{"android":"levelo://app?vid=042ab00b-d873-40b1-a008-32c312479667","ios":"levelo://app?vid=042ab00b-d873-40b1-a008-32c312479667"},"vehicle_type_id":"4","last_reported":1746061074,"current_range_meters":0,"station_id":"st_cvj6sg6p6f1abm77japg","pricing_plan_id":"cebpf4jnsgd1na2vs0mg"},{"bike_id":"895398b5-30c2-416b-bc65-e529c3578cde","system_id":"levelo_inurba_marseille","lat":43.30926,"lon":5.40151,"is_reserved":false,"is_disabled":true,"rental_uris":{"android":"levelo://app?vid=895398b5-30c2-416b-bc65-e529c3578cde","ios":"levelo://app?vid=895398b5-30c2-416b-bc65-e529c3578cde"},"vehicle_type_id":"4","last_reported":1746061074,"current_range_meters":800,"station_id":"ce4bgvp2rcd13ifvqct0","pricing_plan_id":"cebpf4jnsgd1na2vs0mg"},{"bike_id":"e5b4b90d-e268-4de2-98f4-f6d0513f8801","system_id":"levelo_inurba_marseille","lat":43.26544,"lon":5.42216,"is_reserved":false,"is_disabled":true,"rental_uris":{"android":"levelo://app?vid=e5b4b90d-e268-4de2-98f4-f6d0513f8801","ios":"levelo://app?vid=e5b4b90d-e268-4de2-98f4-f6d0513f8801"},"vehicle_type_id":"4","last_reported":1746061074,"current_range_meters":1200,"station_id":"","pricing_plan_id":"cebpf4jnsgd1na2vs0mg"},{"bike_id":"baf73242-bd13-4727-9056-51fa2cf5c1aa","system_id":"levelo_inurba_marseille","lat":43.30798,"lon":5.38149,"is_reserved":false,"is_disabled":true,"rental_uris":{"android":"levelo://app?vid=baf73242-bd13-4727-9056-51fa2cf5c1aa","ios":"levelo://app?vid=baf73242-bd13-4727-9056-51fa2cf5c1aa"},"vehicle_type_id":"4","last_reported":1746061074,"current_range_meters":1200,"station_id":"ce4bgt12rcd13ifvqce0","pricing_plan_id":"cebpf4jnsgd1na2vs0mg"},{"bike_id":"19e30779-cfb0-4031-80ea-e90430e3458c","system_id":"levelo_inurba_marseille","lat":43.30417,"lon":5.3976,"is_reserved":false,"is_disabled":true,"rental_uris":{"android":"levelo://app?vid=19e30779-cfb0-4031-80ea-e90430e3458c","ios":"levelo://app?vid=19e30779-cfb0-4031-80ea-e90430e3458c"},"vehicle_type_id":"4","last_reported":1746061074,"current_range_meters":1200,"station_id":"ce4bh092rcd13ifvqd20","pricing_plan_id":"cebpf4jnsgd1na2vs0mg"},{"bike_id":"795a315e-cf6f-46e1-a020-959b0ae9ecc0","system_id":"levelo_inurba_marseille","lat":43.24993,"lon":5.38946,"is_reserved":false,"is_disabled":true,"rental_uris":{"android":"levelo://app?vid=795a315e-cf6f-46e1-a020-959b0ae9ecc0","ios":"levelo://app?vid=795a315e-cf6f-46e1-a020-959b0ae9ecc0"},"vehicle_type_id":"4","last_reported":1746061074,"current_range_meters":1200,"station_id":"ce4bhgp2rcd13ifvqfd0","pricing_plan_id":"cebpf4jnsgd1na2vs0mg"},{"bike_id":"3484d5f1-7932-4de2-b414-5d0ae50e391f","system_id":"levelo_inurba_marseille","lat":43.24669,"lon":5.38167,"is_reserved":false,"is_disabled":true,"rental_uris":{"android":"levelo://app?vid=3484d5f1-7932-4de2-b414-5d0ae50e391f","ios":"levelo://app?vid=3484d5f1-7932-4de2-b414-5d0ae50e391f"},"vehicle_type_id":"4","last_reported":1746061074,"current_range_meters":1200,"station_id":"ce4bhih2rcd13ifvqfr0","pricing_plan_id":"cebpf4jnsgd1na2vs0mg"},{"bike_id":"5dd58c22-4ba9-4119-be1f-9547fc300a77","system_id":"levelo_inurba_marseille","lat":43.30777,"lon":5.37657,"is_reserved":false,"is_disabled":true,"rental_uris":{"android":"levelo://app?vid=5dd58c22-4ba9-4119-be1f-9547fc300a77","ios":"levelo://app?vid=5dd58c22-4ba9-4119-be1f-9547fc300a77"},"vehicle_type_id":"4","last_reported":1746061074,"current_range_meters":1600,"station_id":"ce4bgv92rcd13ifvqcq0","pricing_plan_id":"cebpf4jnsgd1na2vs0mg"},{"bike_id":"b1795e38-3363-4fdf-b6fd-6b996346dc01","system_id":"levelo_inurba_marseille","lat":43.309,"lon":5.37203,"is_reserved":false,"is_disabled":true,"rental_uris":{"android":"levelo://app?vid=b1795e38-3363-4fdf-b6fd-6b996346dc01","ios":"levelo://app?vid=b1795e38-3363-4fdf-b6fd-6b996346dc01"},"vehicle_type_id":"4","last_reported":1746061074,"current_range_meters":2000,"station_id":"ce4bguh2rcd13ifvqckg","pricing_plan_id":"cebpf4jnsgd1na2vs0mg"},{"bike_id":"cac747bc-033a-4e23-ba86-aaf35c89254b","system_id":"levelo_inurba_marseille","lat":43.28487,"lon":5.38431,"is_reserved":false,"is_disabled":true,"rental_uris":{"android":"levelo://app?vid=cac747bc-033a-4e23-ba86-aaf35c89254b","ios":"levelo://app?vid=cac747bc-033a-4e23-ba86-aaf35c89254b"},"vehicle_type_id":"4","last_reported":1746061074,"current_range_meters":2000,"station_id":"ce4bh512rcd13ifvqe3g","pricing_plan_id":"cebpf4jnsgd1na2vs0mg"},{"bike_id":"fb7e1760-3595-439f-9e7a-9df0a6793dcd","system_id":"levelo_inurba_marseille","lat":43.29792,"lon":5.38116,"is_reserved":false,"is_disabled":false,"rental_uris":{"android":"levelo://app?vid=fb7e1760-3595-439f-9e7a-9df0a6793dcd","ios":"levelo://app?vid=fb7e1760-3595-439f-9e7a-9df0a6793dcd"},"vehicle_type_id":"4","last_reported":1746061074,"current_range_meters":2800,"station_id":"ce4bgip2rcd13ifvqbb0","pricing_plan_id":"cebpf4jnsgd1na2vs0mg"},{"bike_id":"06bb3fbc-1701-4a06-9cc8-e6b4858e3eeb","system_id":"levelo_inurba_marseille","lat":43.29515,"lon":5.36543,"is_reserved":false,"is_disabled":false,"rental_uris":{"android":"levelo://app?vid=06bb3fbc-1701-4a06-9cc8-e6b4858e3eeb","ios":"levelo://app?vid=06bb3fbc-1701-4a06-9cc8-e6b4858e3eeb"},"vehicle_type_id":"4","last_reported":1746061074,"current_range_meters":3200,"station_id":"","pricing_plan_id":"cebpf4jnsgd1na2vs0mg"},{"bike_id":"5862d793-8af5-4231-8310-25d2f6e51ddf","system_id":"levelo_inurba_marseille","lat":43.308,"lon":5.38158,"is_reserved":false,"is_disabled":false,"rental_uris":{"android":"levelo://app?vid=5862d793-8af5-4231-8310-25d2f6e51ddf","ios":"levelo://app?vid=5862d793-8af5-4231-8310-25d2f6e51ddf"},"vehicle_type_id":"4","last_reported":1746061074,"current_range_meters":3200,"station_id":"ce4bgt12rcd13ifvqce0","pricing_plan_id":"cebpf4jnsgd1na2vs0mg"},{"bike_id":"dd750a5b-938c-43eb-a8dc-ec6bdc5aeb0e","system_id":"levelo_inurba_marseille","lat":43.29626,"lon":5.40599,"is_reserved":false,"is_disabled":false,"rental_uris":{"android":"levelo://app?vid=dd750a5b-938c-43eb-a8dc-ec6bdc5aeb0e","ios":"levelo://app?vid=dd750a5b-938c-43eb-a8dc-ec6bdc5aeb0e"},"vehicle_type_id":"4","last_reported":1746061074,"current_range_meters":3200,"station_id":"ce4bh0h2rcd13ifvqd60","pricing_plan_id":"cebpf4jnsgd1na2vs0mg"},{"bike_id":"abbaab27-89eb-406d-9f60-0fafede2ff71","system_id":"levelo_inurba_marseille","lat":43.30642,"lon":5.40075,"is_reserved":false,"is_disabled":false,"rental_uris":{"android":"levelo://app?vid=abbaab27-89eb-406d-9f60-0fafede2ff71","ios":"levelo://app?vid=abbaab27-89eb-406d-9f60-0fafede2ff71"},"vehicle_type_id":"4","last_reported":1746061074,"current_range_meters":3200,"station_id":"ce4bh112rcd13ifvqda0","pricing_plan_id":"cebpf4jnsgd1na2vs0mg"},{"bike_id":"ed01b2d3-e777-4cde-b001-4acf8ff4f995","system_id":"levelo_inurba_marseille","lat":43.33609,"lon":5.41034,"is_reserved":false,"is_disabled":false,"rental_uris":{"android":"levelo://app?vid=ed01b2d3-e777-4cde-b001-4acf8ff4f995","ios":"levelo://app?vid=ed01b2d3-e777-4cde-b001-4acf8ff4f995"},"vehicle_type_id":"4","last_reported":1746061074,"current_range_meters":3200,"station_id":"ce4bhqh2rcd13ifvqhmg","pricing_plan_id":"cebpf4jnsgd1na2vs0mg"},{"bike_id":"5824506f-80f6-4578-b8d9-963493773cb7","system_id":"levelo_inurba_marseille","lat":43.25726,"lon":5.41112,"is_reserved":false,"is_disabled":false,"rental_uris":{"android":"levelo://app?vid=5824506f-80f6-4578-b8d9-963493773cb7","ios":"levelo://app?vid=5824506f-80f6-4578-b8d9-963493773cb7"},"vehicle_type_id":"4","last_reported":1746061074,"current_range_meters":3600,"station_id":"ce4bhkp2rcd13ifvqgd0","pricing_plan_id":"cebpf4jnsgd1na2vs0mg"},{"bike_id":"7277521c-6e81-4afa-8525-ce183bafa14d","system_id":"levelo_inurba_marseille","lat":43.29247,"lon":5.40918,"is_reserved":false,"is_disabled":false,"rental_uris":{"android":"levelo://app?vid=7277521c-6e81-4afa-8525-ce183bafa14d","ios":"levelo://app?vid=7277521c-6e81-4afa-8525-ce183bafa14d"},"vehicle_type_id":"4","last_reported":1746061074,"current_range_meters":4000,"station_id":"ce4bh192rcd13ifvqdc0","pricing_plan_id":"cebpf4jnsgd1na2vs0mg"},{"bike_id":"e3676e90-152e-48a7-80da-6baae6b20546","system_id":"levelo_inurba_marseille","lat":43.30237,"lon":5.37793,"is_reserved":false,"is_disabled":false,"rental_uris":{"android":"levelo://app?vid=e3676e90-152e-48a7-80da-6baae6b20546","ios":"levelo://app?vid=e3676e90-152e-48a7-80da-6baae6b20546"},"vehicle_type_id":"4","last_reported":1746061074,"current_range_meters":4400,"station_id":"","pricing_plan_id":"cebpf4jnsgd1na2vs0mg"},{"bike_id":"894c4ebf-41d8-4277-9a9e-598557c22417","system_id":"levelo_inurba_marseille","lat":43.27426,"lon":5.394095,"is_reserved":false,"is_disabled":false,"rental_uris":{"android":"levelo://app?vid=894c4ebf-41d8-4277-9a9e-598557c22417","ios":"levelo://app?vid=894c4ebf-41d8-4277-9a9e-598557c22417"},"vehicle_type_id":"4","last_reported":1746061074,"current_range_meters":4400,"station_id":"ce4bhdp2rcd13ifvqf20","pricing_plan_id":"cebpf4jnsgd1na2vs0mg"},{"bike_id":"dd240c14-2a8d-4be0-88db-ac1915c41c4f","system_id":"levelo_inurba_marseille","lat":43.27914,"lon":5.3957,"is_reserved":false,"is_disabled":false,"rental_uris":{"android":"levelo://app?vid=dd240c14-2a8d-4be0-88db-ac1915c41c4f","ios":"levelo://app?vid=dd240c14-2a8d-4be0-88db-ac1915c41c4f"},"vehicle_type_id":"4","last_reported":1746061074,"current_range_meters":4400,"station_id":"ce4bhf92rcd13ifvqf40","pricing_plan_id":"cebpf4jnsgd1na2vs0mg"},{"bike_id":"7818a440-bc3e-4a22-8952-d19c5bddaa38","system_id":"levelo_inurba_marseille","lat":43.30272,"lon":5.40072,"is_reserved":false,"is_disabled":false,"rental_uris":{"android":"levelo://app?vid=7818a440-bc3e-4a22-8952-d19c5bddaa38","ios":"levelo://app?vid=7818a440-bc3e-4a22-8952-d19c5bddaa38"},"vehicle_type_id":"4","last_reported":1746061074,"current_range_meters":4800,"station_id":"ce4bgvh2rcd13ifvqcs0","pricing_plan_id":"cebpf4jnsgd1na2vs0mg"},{"bike_id":"c326b9f7-c1e6-44d5-a0fe-0e3f0a410abd","system_id":"levelo_inurba_marseille","lat":43.27559,"lon":5.38416,"is_reserved":false,"is_disabled":false,"rental_uris":{"android":"levelo://app?vid=c326b9f7-c1e6-44d5-a0fe-0e3f0a410abd","ios":"levelo://app?vid=c326b9f7-c1e6-44d5-a0fe-0e3f0a410abd"},"vehicle_type_id":"4","last_reported":1746061074,"current_range_meters":4800,"station_id":"ce4bhh92rcd13ifvqfi0","pricing_plan_id":"cebpf4jnsgd1na2vs0mg"},{"bike_id":"16224d15-cfd5-4ad6-8985-36c67148782b","system_id":"levelo_inurba_marseille","lat":43.27831,"lon":5.39199,"is_reserved":false,"is_disabled":false,"rental_uris":{"android":"levelo://app?vid=16224d15-cfd5-4ad6-8985-36c67148782b","ios":"levelo://app?vid=16224d15-cfd5-4ad6-8985-36c67148782b"},"vehicle_type_id":"4","last_reported":1746061074,"current_range_meters":4800,"station_id":"ce4bhjp2rcd13ifvqga0","pricing_plan_id":"cebpf4jnsgd1na2vs0mg"},{"bike_id":"e06e3ad6-0e5a-49f2-98bb-d0b7ffaaf745","system_id":"levelo_inurba_marseille","lat":43.23381,"lon":5.3611,"is_reserved":false,"is_disabled":false,"rental_uris":{"android":"levelo://app?vid=e06e3ad6-0e5a-49f2-98bb-d0b7ffaaf745","ios":"levelo://app?vid=e06e3ad6-0e5a-49f2-98bb-d0b7ffaaf745"},"vehicle_type_id":"4","last_reported":1746061074,"current_range_meters":6000,"station_id":"","pricing_plan_id":"cebpf4jnsgd1na2vs0mg"},{"bike_id":"2d0fea3e-041c-4d20-aeb7-63739e3d5c27","system_id":"levelo_inurba_marseille","lat":43.3062,"lon":5.36635,"is_reserved":false,"is_disabled":false,"rental_uris":{"android":"levelo://app?vid=2d0fea3e-041c-4d20-aeb7-63739e3d5c27","ios":"levelo://app?vid=2d0fea3e-041c-4d20-aeb7-63739e3d5c27"},"vehicle_type_id":"4","last_reported":1746061074,"current_range_meters":6400,"station_id":"","pricing_plan_id":"cebpf4jnsgd1na2vs0mg"},{"bike_id":"387bc5ea-7c2b-41e1-a1e6-3b4cc71c9638","system_id":"levelo_inurba_marseille","lat":43.241681,"lon":5.397119,"is_reserved":false,"is_disabled":false,"rental_uris":{"android":"levelo://app?vid=387bc5ea-7c2b-41e1-a1e6-3b4cc71c9638","ios":"levelo://app?vid=387bc5ea-7c2b-41e1-a1e6-3b4cc71c9638"},"vehicle_type_id":"4","last_reported":1746061074,"current_range_meters":6400,"station_id":"ce4bhn12rcd13ifvqgpg","pricing_plan_id":"cebpf4jnsgd1na2vs0mg"},{"bike_id":"a15c0eb7-aafe-4062-a243-640408d7b8d9","system_id":"levelo_inurba_marseille","lat":43.30416,"lon":5.41281,"is_reserved":false,"is_disabled":false,"rental_uris":{"android":"levelo://app?vid=a15c0eb7-aafe-4062-a243-640408d7b8d9","ios":"levelo://app?vid=a15c0eb7-aafe-4062-a243-640408d7b8d9"},"vehicle_type_id":"4","last_reported":1746061074,"current_range_meters":6400,"station_id":"ce4bhop2rcd13ifvqh8g","pricing_plan_id":"cebpf4jnsgd1na2vs0mg"},{"bike_id":"0ad3bba1-4bc4-479c-8461-1db3bb0761ed","system_id":"levelo_inurba_marseille","lat":43.31339,"lon":5.39702,"is_reserved":false,"is_disabled":false,"rental_uris":{"android":"levelo://app?vid=0ad3bba1-4bc4-479c-8461-1db3bb0761ed","ios":"levelo://app?vid=0ad3bba1-4bc4-479c-8461-1db3bb0761ed"},"vehicle_type_id":"4","last_reported":1746061074,"current_range_meters":6800,"station_id":"ce4bgvp2rcd13ifvqcu0","pricing_plan_id":"cebpf4jnsgd1na2vs0mg"},{"bike_id":"bc1d975a-af42-46ea-a9c7-0b3364dd6004","system_id":"levelo_inurba_marseille","lat":43.28416,"lon":5.37511,"is_reserved":false,"is_disabled":false,"rental_uris":{"android":"levelo://app?vid=bc1d975a-af42-46ea-a9c7-0b3364dd6004","ios":"levelo://app?vid=bc1d975a-af42-46ea-a9c7-0b3364dd6004"},"vehicle_type_id":"4","last_reported":1746061074,"current_range_meters":6800,"station_id":"ce4bh412rcd13ifvqds0","pricing_plan_id":"cebpf4jnsgd1na2vs0mg"},{"bike_id":"c89af82b-d8de-4524-ac1f-cc5e38330d5b","system_id":"levelo_inurba_marseille","lat":43.324793,"lon":5.36577,"is_reserved":false,"is_disabled":false,"rental_uris":{"android":"levelo://app?vid=c89af82b-d8de-4524-ac1f-cc5e38330d5b","ios":"levelo://app?vid=c89af82b-d8de-4524-ac1f-cc5e38330d5b"},"vehicle_type_id":"4","last_reported":1746061074,"current_range_meters":6800,"station_id":"ce4bhs12rcd13ifvqhvg","pricing_plan_id":"cebpf4jnsgd1na2vs0mg"},{"bike_id":"29004581-500e-4cc8-8d9f-f7ba87082b36","system_id":"levelo_inurba_marseille","lat":43.30808,"lon":5.381482,"is_reserved":false,"is_disabled":false,"rental_uris":{"android":"levelo://app?vid=29004581-500e-4cc8-8d9f-f7ba87082b36","ios":"levelo://app?vid=29004581-500e-4cc8-8d9f-f7ba87082b36"},"vehicle_type_id":"4","last_reported":1746061074,"current_range_meters":7200,"station_id":"ce4bgt12rcd13ifvqce0","pricing_plan_id":"cebpf4jnsgd1na2vs0mg"},{"bike_id":"8fe0cc0b-a043-4280-a5e4-0783063c5830","system_id":"levelo_inurba_marseille","lat":43.317584,"lon":5.390122,"is_reserved":false,"is_disabled":false,"rental_uris":{"android":"levelo://app?vid=8fe0cc0b-a043-4280-a5e4-0783063c5830","ios":"levelo://app?vid=8fe0cc0b-a043-4280-a5e4-0783063c5830"},"vehicle_type_id":"4","last_reported":1746061074,"current_range_meters":7200,"station_id":"ce4bhqp2rcd13ifvqhng","pricing_plan_id":"cebpf4jnsgd1na2vs0mg"},{"bike_id":"489415b8-9254-45c1-b00c-e7554d56755c","system_id":"levelo_inurba_marseille","lat":43.245306,"lon":5.412083,"is_reserved":false,"is_disabled":false,"rental_uris":{"android":"levelo://app?vid=489415b8-9254-45c1-b00c-e7554d56755c","ios":"levelo://app?vid=489415b8-9254-45c1-b00c-e7554d56755c"},"vehicle_type_id":"4","last_reported":1746061074,"current_range_meters":8000,"station_id":"","pricing_plan_id":"cebpf4jnsgd1na2vs0mg"},{"bike_id":"07edfd45-c3fa-4b57-b865-cf1bf9963264","system_id":"levelo_inurba_marseille","lat":43.2339,"lon":5.36436,"is_reserved":false,"is_disabled":false,"rental_uris":{"android":"levelo://app?vid=07edfd45-c3fa-4b57-b865-cf1bf9963264","ios":"levelo://app?vid=07edfd45-c3fa-4b57-b865-cf1bf9963264"},"vehicle_type_id":"4","last_reported":1746061074,"current_range_meters":8000,"station_id":"","pricing_plan_id":"cebpf4jnsgd1na2vs0mg"},{"bike_id":"c4df782d-c1f5-4d8f-9d6a-dce65b2d2735","system_id":"levelo_inurba_marseille","lat":43.30788,"lon":5.38145,"is_reserved":false,"is_disabled":false,"rental_uris":{"android":"levelo://app?vid=c4df782d-c1f5-4d8f-9d6a-dce65b2d2735","ios":"levelo://app?vid=c4df782d-c1f5-4d8f-9d6a-dce65b2d2735"},"vehicle_type_id":"4","last_reported":1746061074,"current_range_meters":8000,"station_id":"ce4bgt12rcd13ifvqce0","pricing_plan_id":"cebpf4jnsgd1na2vs0mg"},{"bike_id":"3b22bb4e-9110-45e4-a369-fb929b53ca61","system_id":"levelo_inurba_marseille","lat":43.30244,"lon":5.40086,"is_reserved":false,"is_disabled":false,"rental_uris":{"android":"levelo://app?vid=3b22bb4e-9110-45e4-a369-fb929b53ca61","ios":"levelo://app?vid=3b22bb4e-9110-45e4-a369-fb929b53ca61"},"vehicle_type_id":"4","last_reported":1746061074,"current_range_meters":8000,"station_id":"ce4bgvh2rcd13ifvqcs0","pricing_plan_id":"cebpf4jnsgd1na2vs0mg"},{"bike_id":"05bc1beb-7322-4b6e-ac33-cb496e469d14","system_id":"levelo_inurba_marseille","lat":43.29875,"lon":5.39726,"is_reserved":false,"is_disabled":false,"rental_uris":{"android":"levelo://app?vid=05bc1beb-7322-4b6e-ac33-cb496e469d14","ios":"levelo://app?vid=05bc1beb-7322-4b6e-ac33-cb496e469d14"},"vehicle_type_id":"4","last_reported":1746061074,"current_range_meters":8000,"station_id":"ce4bh0h2rcd13ifvqd50","pricing_plan_id":"cebpf4jnsgd1na2vs0mg"},{"bike_id":"c0d51e25-cc6b-457e-9554-a69beaa8f332","system_id":"levelo_inurba_marseille","lat":43.306372,"lon":5.40068,"is_reserved":false,"is_disabled":false,"rental_uris":{"android":"levelo://app?vid=c0d51e25-cc6b-457e-9554-a69beaa8f332","ios":"levelo://app?vid=c0d51e25-cc6b-457e-9554-a69beaa8f332"},"vehicle_type_id":"4","last_reported":1746061074,"current_range_meters":8000,"station_id":"ce4bh112rcd13ifvqda0","pricing_plan_id":"cebpf4jnsgd1na2vs0mg"},{"bike_id":"13490d9e-4d1a-4f73-a18e-ee4a178e2631","system_id":"levelo_inurba_marseille","lat":43.25131,"lon":5.40324,"is_reserved":false,"is_disabled":false,"rental_uris":{"android":"levelo://app?vid=13490d9e-4d1a-4f73-a18e-ee4a178e2631","ios":"levelo://app?vid=13490d9e-4d1a-4f73-a18e-ee4a178e2631"},"vehicle_type_id":"4","last_reported":1746061074,"current_range_meters":8000,"station_id":"ce4bhlh2rcd13ifvqgig","pricing_plan_id":"cebpf4jnsgd1na2vs0mg"},{"bike_id":"e724090f-9f5a-4859-894c-1a62cb509fd4","system_id":"levelo_inurba_marseille","lat":43.24541,"lon":5.39516,"is_reserved":false,"is_disabled":false,"rental_uris":{"android":"levelo://app?vid=e724090f-9f5a-4859-894c-1a62cb509fd4","ios":"levelo://app?vid=e724090f-9f5a-4859-894c-1a62cb509fd4"},"vehicle_type_id":"4","last_reported":1746061074,"current_range_meters":8000,"station_id":"ce4bhlp2rcd13ifvqgjg","pricing_plan_id":"cebpf4jnsgd1na2vs0mg"},{"bike_id":"6ff054e4-06f4-46b0-8bf2-2a3c487b168d","system_id":"levelo_inurba_marseille","lat":43.30419,"lon":5.41281,"is_reserved":false,"is_disabled":false,"rental_uris":{"android":"levelo://app?vid=6ff054e4-06f4-46b0-8bf2-2a3c487b168d","ios":"levelo://app?vid=6ff054e4-06f4-46b0-8bf2-2a3c487b168d"},"vehicle_type_id":"4","last_reported":1746061074,"current_range_meters":8000,"station_id":"ce4bhop2rcd13ifvqh8g","pricing_plan_id":"cebpf4jnsgd1na2vs0mg"},{"bike_id":"06d4aaca-eadb-4fef-91cf-7d39ca5b048c","system_id":"levelo_inurba_marseille","lat":43.32355,"lon":5.40585,"is_reserved":false,"is_disabled":false,"rental_uris":{"android":"levelo://app?vid=06d4aaca-eadb-4fef-91cf-7d39ca5b048c","ios":"levelo://app?vid=06d4aaca-eadb-4fef-91cf-7d39ca5b048c"},"vehicle_type_id":"4","last_reported":1746061074,"current_range_meters":8000,"station_id":"ce4bhq92rcd13ifvqhjg","pricing_plan_id":"cebpf4jnsgd1na2vs0mg"},{"bike_id":"be72c957-5086-45b5-b164-09f800df4fff","system_id":"levelo_inurba_marseille","lat":43.268,"lon":5.40276,"is_reserved":false,"is_disabled":false,"rental_uris":{"android":"levelo://app?vid=be72c957-5086-45b5-b164-09f800df4fff","ios":"levelo://app?vid=be72c957-5086-45b5-b164-09f800df4fff"},"vehicle_type_id":"4","last_reported":1746061074,"current_range_meters":8000,"station_id":"ce501612rcd8frsf0b60","pricing_plan_id":"cebpf4jnsgd1na2vs0mg"},{"bike_id":"3e9ae1f0-8b0c-4a33-ac96-05c663da83ce","system_id":"levelo_inurba_marseille","lat":43.30782,"lon":5.37657,"is_reserved":false,"is_disabled":false,"rental_uris":{"android":"levelo://app?vid=3e9ae1f0-8b0c-4a33-ac96-05c663da83ce","ios":"levelo://app?vid=3e9ae1f0-8b0c-4a33-ac96-05c663da83ce"},"vehicle_type_id":"4","last_reported":1746061074,"current_range_meters":8400,"station_id":"ce4bgv92rcd13ifvqcq0","pricing_plan_id":"cebpf4jnsgd1na2vs0mg"},{"bike_id":"605a12db-4145-42a5-877a-b4a375a7cf38","system_id":"levelo_inurba_marseille","lat":43.316898,"lon":5.404583,"is_reserved":false,"is_disabled":false,"rental_uris":{"android":"levelo://app?vid=605a12db-4145-42a5-877a-b4a375a7cf38","ios":"levelo://app?vid=605a12db-4145-42a5-877a-b4a375a7cf38"},"vehicle_type_id":"4","last_reported":1746061074,"current_range_meters":8400,"station_id":"ce4bh012rcd13ifvqd00","pricing_plan_id":"cebpf4jnsgd1na2vs0mg"},{"bike_id":"063531ee-0689-4ee5-b145-67762684fddc","system_id":"levelo_inurba_marseille","lat":43.28674,"lon":5.36338,"is_reserved":false,"is_disabled":false,"rental_uris":{"android":"levelo://app?vid=063531ee-0689-4ee5-b145-67762684fddc","ios":"levelo://app?vid=063531ee-0689-4ee5-b145-67762684fddc"},"vehicle_type_id":"4","last_reported":1746061074,"current_range_meters":8400,"station_id":"ce4bhah2rcd13ifvqej0","pricing_plan_id":"cebpf4jnsgd1na2vs0mg"},{"bike_id":"f3a39e4e-59bd-411f-a1e7-bc26f0385177","system_id":"levelo_inurba_marseille","lat":43.27492,"lon":5.42455,"is_reserved":false,"is_disabled":false,"rental_uris":{"android":"levelo://app?vid=f3a39e4e-59bd-411f-a1e7-bc26f0385177","ios":"levelo://app?vid=f3a39e4e-59bd-411f-a1e7-bc26f0385177"},"vehicle_type_id":"4","last_reported":1746061074,"current_range_meters":8400,"station_id":"ce4bhn92rcd13ifvqgrg","pricing_plan_id":"cebpf4jnsgd1na2vs0mg"},{"bike_id":"16b3be1b-f522-406d-bd69-62ab255e5198","system_id":"levelo_inurba_marseille","lat":43.32114,"lon":5.36771,"is_reserved":false,"is_disabled":false,"rental_uris":{"android":"levelo://app?vid=16b3be1b-f522-406d-bd69-62ab255e5198","ios":"levelo://app?vid=16b3be1b-f522-406d-bd69-62ab255e5198"},"vehicle_type_id":"4","last_reported":1746061074,"current_range_meters":8400,"station_id":"ce4bhrh2rcd13ifvqhug","pricing_plan_id":"cebpf4jnsgd1na2vs0mg"},{"bike_id":"9302c8f6-2254-4b52-bb8b-c5acfff44a93","system_id":"levelo_inurba_marseille","lat":43.29948,"lon":5.37018,"is_reserved":false,"is_disabled":false,"rental_uris":{"android":"levelo://app?vid=9302c8f6-2254-4b52-bb8b-c5acfff44a93","ios":"levelo://app?vid=9302c8f6-2254-4b52-bb8b-c5acfff44a93"},"vehicle_type_id":"4","last_reported":1746061074,"current_range_meters":8800,"station_id":"","pricing_plan_id":"cebpf4jnsgd1na2vs0mg"},{"bike_id":"25693cd8-0285-4bfc-8e44-2bc60ff853ce","system_id":"levelo_inurba_marseille","lat":43.24675,"lon":5.40119,"is_reserved":false,"is_disabled":false,"rental_uris":{"android":"levelo://app?vid=25693cd8-0285-4bfc-8e44-2bc60ff853ce","ios":"levelo://app?vid=25693cd8-0285-4bfc-8e44-2bc60ff853ce"},"vehicle_type_id":"4","last_reported":1746061074,"current_range_meters":8800,"station_id":"","pricing_plan_id":"cebpf4jnsgd1na2vs0mg"},{"bike_id":"c2359eb2-9d58-4285-8df1-ee95701995ba","system_id":"levelo_inurba_marseille","lat":43.314827,"lon":5.373073,"is_reserved":false,"is_disabled":false,"rental_uris":{"android":"levelo://app?vid=c2359eb2-9d58-4285-8df1-ee95701995ba","ios":"levelo://app?vid=c2359eb2-9d58-4285-8df1-ee95701995ba"},"vehicle_type_id":"4","last_reported":1746061074,"current_range_meters":8800,"station_id":"ce4bgt12rcd13ifvqcd0","pricing_plan_id":"cebpf4jnsgd1na2vs0mg"},{"bike_id":"7bca0793-1176-4b81-940e-92a4b7af9ae5","system_id":"levelo_inurba_marseille","lat":43.280814,"lon":5.396619,"is_reserved":false,"is_disabled":false,"rental_uris":{"android":"levelo://app?vid=7bca0793-1176-4b81-940e-92a4b7af9ae5","ios":"levelo://app?vid=7bca0793-1176-4b81-940e-92a4b7af9ae5"},"vehicle_type_id":"4","last_reported":1746061074,"current_range_meters":8800,"station_id":"ce4bho12rcd13ifvqh2g","pricing_plan_id":"cebpf4jnsgd1na2vs0mg"},{"bike_id":"cb799d30-a786-4212-8461-e5560b5b16ef","system_id":"levelo_inurba_marseille","lat":43.32085,"lon":5.44086,"is_reserved":false,"is_disabled":false,"rental_uris":{"android":"levelo://app?vid=cb799d30-a786-4212-8461-e5560b5b16ef","ios":"levelo://app?vid=cb799d30-a786-4212-8461-e5560b5b16ef"},"vehicle_type_id":"4","last_reported":1746061074,"current_range_meters":9200,"station_id":"","pricing_plan_id":"cebpf4jnsgd1na2vs0mg"},{"bike_id":"94c67595-7de3-4443-ab76-ab1b2a1e805b","system_id":"levelo_inurba_marseille","lat":43.28431,"lon":5.37518,"is_reserved":false,"is_disabled":false,"rental_uris":{"android":"levelo://app?vid=94c67595-7de3-4443-ab76-ab1b2a1e805b","ios":"levelo://app?vid=94c67595-7de3-4443-ab76-ab1b2a1e805b"},"vehicle_type_id":"4","last_reported":1746061074,"current_range_meters":9200,"station_id":"ce4bh412rcd13ifvqds0","pricing_plan_id":"cebpf4jnsgd1na2vs0mg"},{"bike_id":"81e05ebe-9199-4b84-be27-50b827829ce3","system_id":"levelo_inurba_marseille","lat":43.28417,"lon":5.37521,"is_reserved":false,"is_disabled":false,"rental_uris":{"android":"levelo://app?vid=81e05ebe-9199-4b84-be27-50b827829ce3","ios":"levelo://app?vid=81e05ebe-9199-4b84-be27-50b827829ce3"},"vehicle_type_id":"4","last_reported":1746061074,"current_range_meters":9200,"station_id":"ce4bh412rcd13ifvqds0","pricing_plan_id":"cebpf4jnsgd1na2vs0mg"},{"bike_id":"a0d5936b-505c-4e10-8aa8-a7cce935f6c3","system_id":"levelo_inurba_marseille","lat":43.25583,"lon":5.38231,"is_reserved":false,"is_disabled":false,"rental_uris":{"android":"levelo://app?vid=a0d5936b-505c-4e10-8aa8-a7cce935f6c3","ios":"levelo://app?vid=a0d5936b-505c-4e10-8aa8-a7cce935f6c3"},"vehicle_type_id":"4","last_reported":1746061074,"current_range_meters":9200,"station_id":"ce4bhih2rcd13ifvqfs0","pricing_plan_id":"cebpf4jnsgd1na2vs0mg"},{"bike_id":"afb3d955-a6d0-4e5a-acd8-3c4556dfba0a","system_id":"levelo_inurba_marseille","lat":43.28921,"lon":5.36865,"is_reserved":false,"is_disabled":false,"rental_uris":{"android":"levelo://app?vid=afb3d955-a6d0-4e5a-acd8-3c4556dfba0a","ios":"levelo://app?vid=afb3d955-a6d0-4e5a-acd8-3c4556dfba0a"},"vehicle_type_id":"4","last_reported":1746061074,"current_range_meters":9600,"station_id":"","pricing_plan_id":"cebpf4jnsgd1na2vs0mg"},{"bike_id":"b81bdc80-7137-4a07-8c63-52664b4472d6","system_id":"levelo_inurba_marseille","lat":43.279633,"lon":5.386816,"is_reserved":false,"is_disabled":false,"rental_uris":{"android":"levelo://app?vid=b81bdc80-7137-4a07-8c63-52664b4472d6","ios":"levelo://app?vid=b81bdc80-7137-4a07-8c63-52664b4472d6"},"vehicle_type_id":"4","last_reported":1746061074,"current_range_meters":9600,"station_id":"","pricing_plan_id":"cebpf4jnsgd1na2vs0mg"},{"bike_id":"8261973d-7fd9-4c15-8fb8-294a251b0456","system_id":"levelo_inurba_marseille","lat":43.29216,"lon":5.38598,"is_reserved":false,"is_disabled":false,"rental_uris":{"android":"levelo://app?vid=8261973d-7fd9-4c15-8fb8-294a251b0456","ios":"levelo://app?vid=8261973d-7fd9-4c15-8fb8-294a251b0456"},"vehicle_type_id":"4","last_reported":1746061074,"current_range_meters":9600,"station_id":"","pricing_plan_id":"cebpf4jnsgd1na2vs0mg"},{"bike_id":"303d897b-9142-4bca-9812-1950e13a7b17","system_id":"levelo_inurba_marseille","lat":43.30888,"lon":5.3964,"is_reserved":false,"is_disabled":false,"rental_uris":{"android":"levelo://app?vid=303d897b-9142-4bca-9812-1950e13a7b17","ios":"levelo://app?vid=303d897b-9142-4bca-9812-1950e13a7b17"},"vehicle_type_id":"4","last_reported":1746061074,"current_range_meters":9600,"station_id":"ce4bh012rcd13ifvqcv0","pricing_plan_id":"cebpf4jnsgd1na2vs0mg"},{"bike_id":"4ff0db05-be29-471d-80d9-4fc345b5a0ff","system_id":"levelo_inurba_marseille","lat":43.30631,"lon":5.40093,"is_reserved":false,"is_disabled":false,"rental_uris":{"android":"levelo://app?vid=4ff0db05-be29-471d-80d9-4fc345b5a0ff","ios":"levelo://app?vid=4ff0db05-be29-471d-80d9-4fc345b5a0ff"},"vehicle_type_id":"4","last_reported":1746061074,"current_range_meters":9600,"station_id":"ce4bh112rcd13ifvqda0","pricing_plan_id":"cebpf4jnsgd1na2vs0mg"},{"bike_id":"b425e77b-7cee-420d-9947-f4d46aad0831","system_id":"levelo_inurba_marseille","lat":43.29451,"lon":5.39747,"is_reserved":false,"is_disabled":false,"rental_uris":{"android":"levelo://app?vid=b425e77b-7cee-420d-9947-f4d46aad0831","ios":"levelo://app?vid=b425e77b-7cee-420d-9947-f4d46aad0831"},"vehicle_type_id":"4","last_reported":1746061074,"current_range_meters":9600,"station_id":"ce4bh3h2rcd13ifvqdo0","pricing_plan_id":"cebpf4jnsgd1na2vs0mg"},{"bike_id":"dfc94822-a1b6-48c6-802a-ca3521f0f26c","system_id":"levelo_inurba_marseille","lat":43.26564,"lon":5.39009,"is_reserved":false,"is_disabled":false,"rental_uris":{"android":"levelo://app?vid=dfc94822-a1b6-48c6-802a-ca3521f0f26c","ios":"levelo://app?vid=dfc94822-a1b6-48c6-802a-ca3521f0f26c"},"vehicle_type_id":"4","last_reported":1746061074,"current_range_meters":9600,"station_id":"ce4bhe12rcd13ifvqf30","pricing_plan_id":"cebpf4jnsgd1na2vs0mg"},{"bike_id":"e5e92a64-e709-4b1a-a9b1-cbffe85789ca","system_id":"levelo_inurba_marseille","lat":43.255429,"lon":5.381394,"is_reserved":false,"is_disabled":false,"rental_uris":{"android":"levelo://app?vid=e5e92a64-e709-4b1a-a9b1-cbffe85789ca","ios":"levelo://app?vid=e5e92a64-e709-4b1a-a9b1-cbffe85789ca"},"vehicle_type_id":"4","last_reported":1746061074,"current_range_meters":10000,"station_id":"","pricing_plan_id":"cebpf4jnsgd1na2vs0mg"},{"bike_id":"9f7dcf3b-5de8-4203-b8f3-1867275b9acd","system_id":"levelo_inurba_marseille","lat":43.316918,"lon":5.404608,"is_reserved":false,"is_disabled":false,"rental_uris":{"android":"levelo://app?vid=9f7dcf3b-5de8-4203-b8f3-1867275b9acd","ios":"levelo://app?vid=9f7dcf3b-5de8-4203-b8f3-1867275b9acd"},"vehicle_type_id":"4","last_reported":1746061074,"current_range_meters":10000,"station_id":"ce4bh012rcd13ifvqd00","pricing_plan_id":"cebpf4jnsgd1na2vs0mg"},{"bike_id":"f77b66dc-df98-4767-bb4a-b3fb2fb7880b","system_id":"levelo_inurba_marseille","lat":43.29867,"lon":5.39734,"is_reserved":false,"is_disabled":false,"rental_uris":{"android":"levelo://app?vid=f77b66dc-df98-4767-bb4a-b3fb2fb7880b","ios":"levelo://app?vid=f77b66dc-df98-4767-bb4a-b3fb2fb7880b"},"vehicle_type_id":"4","last_reported":1746061074,"current_range_meters":10000,"station_id":"ce4bh0h2rcd13ifvqd50","pricing_plan_id":"cebpf4jnsgd1na2vs0mg"},{"bike_id":"7924b638-6bb2-4d04-8752-d92a7a4ba43a","system_id":"levelo_inurba_marseille","lat":43.24174,"lon":5.39742,"is_reserved":false,"is_disabled":false,"rental_uris":{"android":"levelo://app?vid=7924b638-6bb2-4d04-8752-d92a7a4ba43a","ios":"levelo://app?vid=7924b638-6bb2-4d04-8752-d92a7a4ba43a"},"vehicle_type_id":"4","last_reported":1746061074,"current_range_meters":10000,"station_id":"ce4bhn12rcd13ifvqgpg","pricing_plan_id":"cebpf4jnsgd1na2vs0mg"},{"bike_id":"f9f7e2fe-4a94-4233-8531-fb973b01f0d3","system_id":"levelo_inurba_marseille","lat":43.27789,"lon":5.40731,"is_reserved":false,"is_disabled":false,"rental_uris":{"android":"levelo://app?vid=f9f7e2fe-4a94-4233-8531-fb973b01f0d3","ios":"levelo://app?vid=f9f7e2fe-4a94-4233-8531-fb973b01f0d3"},"vehicle_type_id":"4","last_reported":1746061074,"current_range_meters":10000,"station_id":"ce4bhnh2rcd13ifvqgtg","pricing_plan_id":"cebpf4jnsgd1na2vs0mg"},{"bike_id":"fca9dc8b-9c20-4eab-83ff-17d0ce9a6922","system_id":"levelo_inurba_marseille","lat":43.260249,"lon":5.41743,"is_reserved":false,"is_disabled":false,"rental_uris":{"android":"levelo://app?vid=fca9dc8b-9c20-4eab-83ff-17d0ce9a6922","ios":"levelo://app?vid=fca9dc8b-9c20-4eab-83ff-17d0ce9a6922"},"vehicle_type_id":"4","last_reported":1746061074,"current_range_meters":10800,"station_id":"","pricing_plan_id":"cebpf4jnsgd1na2vs0mg"},{"bike_id":"3d16fab9-3e9f-42e6-8c77-6750333018dd","system_id":"levelo_inurba_marseille","lat":43.31116,"lon":5.37769,"is_reserved":false,"is_disabled":false,"rental_uris":{"android":"levelo://app?vid=3d16fab9-3e9f-42e6-8c77-6750333018dd","ios":"levelo://app?vid=3d16fab9-3e9f-42e6-8c77-6750333018dd"},"vehicle_type_id":"4","last_reported":1746061074,"current_range_meters":10800,"station_id":"ce4bgt92rcd13ifvqcg0","pricing_plan_id":"cebpf4jnsgd1na2vs0mg"},{"bike_id":"097d13a1-9558-4a72-b7ec-8017bd0f0a59","system_id":"levelo_inurba_marseille","lat":43.30628,"lon":5.4007,"is_reserved":false,"is_disabled":false,"rental_uris":{"android":"levelo://app?vid=097d13a1-9558-4a72-b7ec-8017bd0f0a59","ios":"levelo://app?vid=097d13a1-9558-4a72-b7ec-8017bd0f0a59"},"vehicle_type_id":"4","last_reported":1746061074,"current_range_meters":10800,"station_id":"ce4bh112rcd13ifvqda0","pricing_plan_id":"cebpf4jnsgd1na2vs0mg"},{"bike_id":"d1eb6fc9-0136-48bb-9896-acae06f0c25e","system_id":"levelo_inurba_marseille","lat":43.28563,"lon":5.39503,"is_reserved":false,"is_disabled":false,"rental_uris":{"android":"levelo://app?vid=d1eb6fc9-0136-48bb-9896-acae06f0c25e","ios":"levelo://app?vid=d1eb6fc9-0136-48bb-9896-acae06f0c25e"},"vehicle_type_id":"4","last_reported":1746061074,"current_range_meters":10800,"station_id":"ce4bh292rcd13ifvqdg0","pricing_plan_id":"cebpf4jnsgd1na2vs0mg"},{"bike_id":"9514f132-b436-4584-8fc6-3e83b88fbb96","system_id":"levelo_inurba_marseille","lat":43.274337,"lon":5.394114,"is_reserved":false,"is_disabled":false,"rental_uris":{"android":"levelo://app?vid=9514f132-b436-4584-8fc6-3e83b88fbb96","ios":"levelo://app?vid=9514f132-b436-4584-8fc6-3e83b88fbb96"},"vehicle_type_id":"4","last_reported":1746061074,"current_range_meters":10800,"station_id":"ce4bhdp2rcd13ifvqf20","pricing_plan_id":"cebpf4jnsgd1na2vs0mg"},{"bike_id":"f31bf073-e687-4787-90ee-691c464f7f3e","system_id":"levelo_inurba_marseille","lat":43.25687,"lon":5.41125,"is_reserved":false,"is_disabled":false,"rental_uris":{"android":"levelo://app?vid=f31bf073-e687-4787-90ee-691c464f7f3e","ios":"levelo://app?vid=f31bf073-e687-4787-90ee-691c464f7f3e"},"vehicle_type_id":"4","last_reported":1746061074,"current_range_meters":10800,"station_id":"ce4bhkp2rcd13ifvqgd0","pricing_plan_id":"cebpf4jnsgd1na2vs0mg"},{"bike_id":"fa0013e1-384c-4a43-9dc8-c63fff3d2b7e","system_id":"levelo_inurba_marseille","lat":43.23171,"lon":5.39976,"is_reserved":false,"is_disabled":false,"rental_uris":{"android":"levelo://app?vid=fa0013e1-384c-4a43-9dc8-c63fff3d2b7e","ios":"levelo://app?vid=fa0013e1-384c-4a43-9dc8-c63fff3d2b7e"},"vehicle_type_id":"4","last_reported":1746061074,"current_range_meters":10800,"station_id":"ce4bhn12rcd13ifvqgqg","pricing_plan_id":"cebpf4jnsgd1na2vs0mg"},{"bike_id":"3ce5a6a0-7c75-4b93-962c-2dd6ababc3c9","system_id":"levelo_inurba_marseille","lat":43.22503,"lon":5.34784,"is_reserved":false,"is_disabled":false,"rental_uris":{"android":"levelo://app?vid=3ce5a6a0-7c75-4b93-962c-2dd6ababc3c9","ios":"levelo://app?vid=3ce5a6a0-7c75-4b93-962c-2dd6ababc3c9"},"vehicle_type_id":"4","last_reported":1746061074,"current_range_meters":10800,"station_id":"st_cvj5dfep6f1abm77gieg","pricing_plan_id":"cebpf4jnsgd1na2vs0mg"},{"bike_id":"c1cbc237-cfab-474a-aa26-81a87506105a","system_id":"levelo_inurba_marseille","lat":43.21755,"lon":5.3459,"is_reserved":false,"is_disabled":false,"rental_uris":{"android":"levelo://app?vid=c1cbc237-cfab-474a-aa26-81a87506105a","ios":"levelo://app?vid=c1cbc237-cfab-474a-aa26-81a87506105a"},"vehicle_type_id":"4","last_reported":1746061074,"current_range_meters":10800,"station_id":"st_cvj6r9ubvosntc0bgbag","pricing_plan_id":"cebpf4jnsgd1na2vs0mg"},{"bike_id":"379b8933-bc6e-4164-9d36-daaf2941e50f","system_id":"levelo_inurba_marseille","lat":43.30766,"lon":5.3747,"is_reserved":false,"is_disabled":false,"rental_uris":{"android":"levelo://app?vid=379b8933-bc6e-4164-9d36-daaf2941e50f","ios":"levelo://app?vid=379b8933-bc6e-4164-9d36-daaf2941e50f"},"vehicle_type_id":"4","last_reported":1746061074,"current_range_meters":11200,"station_id":"","pricing_plan_id":"cebpf4jnsgd1na2vs0mg"},{"bike_id":"605f87fe-8a7b-4678-bf49-f6ba1d2f7071","system_id":"levelo_inurba_marseille","lat":43.30139,"lon":5.39864,"is_reserved":false,"is_disabled":false,"rental_uris":{"android":"levelo://app?vid=605f87fe-8a7b-4678-bf49-f6ba1d2f7071","ios":"levelo://app?vid=605f87fe-8a7b-4678-bf49-f6ba1d2f7071"},"vehicle_type_id":"4","last_reported":1746061074,"current_range_meters":11200,"station_id":"ce4bh0h2rcd13ifvqd40","pricing_plan_id":"cebpf4jnsgd1na2vs0mg"},{"bike_id":"6a8a1fbc-036f-4d52-83f6-304f0d1e5e7e","system_id":"levelo_inurba_marseille","lat":43.28691,"lon":5.37393,"is_reserved":false,"is_disabled":false,"rental_uris":{"android":"levelo://app?vid=6a8a1fbc-036f-4d52-83f6-304f0d1e5e7e","ios":"levelo://app?vid=6a8a1fbc-036f-4d52-83f6-304f0d1e5e7e"},"vehicle_type_id":"4","last_reported":1746061074,"current_range_meters":11200,"station_id":"ce4bh3p2rcd13ifvqdq0","pricing_plan_id":"cebpf4jnsgd1na2vs0mg"},{"bike_id":"5a2a0acc-2638-483b-bd73-f0bad1b88542","system_id":"levelo_inurba_marseille","lat":43.279594,"lon":5.386972,"is_reserved":false,"is_disabled":false,"rental_uris":{"android":"levelo://app?vid=5a2a0acc-2638-483b-bd73-f0bad1b88542","ios":"levelo://app?vid=5a2a0acc-2638-483b-bd73-f0bad1b88542"},"vehicle_type_id":"4","last_reported":1746061074,"current_range_meters":11200,"station_id":"ce4bhg12rcd13ifvqf80","pricing_plan_id":"cebpf4jnsgd1na2vs0mg"},{"bike_id":"8a08109b-abba-4662-b984-893ba2719fa3","system_id":"levelo_inurba_marseille","lat":43.24656,"lon":5.38129,"is_reserved":false,"is_disabled":false,"rental_uris":{"android":"levelo://app?vid=8a08109b-abba-4662-b984-893ba2719fa3","ios":"levelo://app?vid=8a08109b-abba-4662-b984-893ba2719fa3"},"vehicle_type_id":"4","last_reported":1746061074,"current_range_meters":11200,"station_id":"ce4bhih2rcd13ifvqfr0","pricing_plan_id":"cebpf4jnsgd1na2vs0mg"},{"bike_id":"c5552acd-50fa-4b0d-95c7-8f6dc5626569","system_id":"levelo_inurba_marseille","lat":43.28074,"lon":5.39646,"is_reserved":false,"is_disabled":false,"rental_uris":{"android":"levelo://app?vid=c5552acd-50fa-4b0d-95c7-8f6dc5626569","ios":"levelo://app?vid=c5552acd-50fa-4b0d-95c7-8f6dc5626569"},"vehicle_type_id":"4","last_reported":1746061074,"current_range_meters":11200,"station_id":"ce4bho12rcd13ifvqh2g","pricing_plan_id":"cebpf4jnsgd1na2vs0mg"},{"bike_id":"8ab8f219-1642-4a0d-af2a-eaa8ea6c816f","system_id":"levelo_inurba_marseille","lat":43.31762,"lon":5.3902,"is_reserved":false,"is_disabled":false,"rental_uris":{"android":"levelo://app?vid=8ab8f219-1642-4a0d-af2a-eaa8ea6c816f","ios":"levelo://app?vid=8ab8f219-1642-4a0d-af2a-eaa8ea6c816f"},"vehicle_type_id":"4","last_reported":1746061074,"current_range_meters":11200,"station_id":"ce4bhqp2rcd13ifvqhng","pricing_plan_id":"cebpf4jnsgd1na2vs0mg"},{"bike_id":"d08fe425-042c-4938-b862-c3dc2ac034aa","system_id":"levelo_inurba_marseille","lat":43.32358,"lon":5.38871,"is_reserved":false,"is_disabled":false,"rental_uris":{"android":"levelo://app?vid=d08fe425-042c-4938-b862-c3dc2ac034aa","ios":"levelo://app?vid=d08fe425-042c-4938-b862-c3dc2ac034aa"},"vehicle_type_id":"4","last_reported":1746061074,"current_range_meters":11200,"station_id":"ce4bhqp2rcd13ifvqhog","pricing_plan_id":"cebpf4jnsgd1na2vs0mg"},{"bike_id":"a076933d-3a98-414c-b7e5-30c1a775a06f","system_id":"levelo_inurba_marseille","lat":43.31384,"lon":5.39086,"is_reserved":false,"is_disabled":false,"rental_uris":{"android":"levelo://app?vid=a076933d-3a98-414c-b7e5-30c1a775a06f","ios":"levelo://app?vid=a076933d-3a98-414c-b7e5-30c1a775a06f"},"vehicle_type_id":"4","last_reported":1746061074,"current_range_meters":11600,"station_id":"","pricing_plan_id":"cebpf4jnsgd1na2vs0mg"},{"bike_id":"35f4889f-a367-4dfd-8161-3fb20f6ee56d","system_id":"levelo_inurba_marseille","lat":43.29378,"lon":5.37823,"is_reserved":false,"is_disabled":false,"rental_uris":{"android":"levelo://app?vid=35f4889f-a367-4dfd-8161-3fb20f6ee56d","ios":"levelo://app?vid=35f4889f-a367-4dfd-8161-3fb20f6ee56d"},"vehicle_type_id":"4","last_reported":1746061074,"current_range_meters":11600,"station_id":"ce4bgjh2rcd13ifvqbf0","pricing_plan_id":"cebpf4jnsgd1na2vs0mg"},{"bike_id":"df93e2e5-6077-4d47-ac12-eb3362d865a5","system_id":"levelo_inurba_marseille","lat":43.2841,"lon":5.37508,"is_reserved":false,"is_disabled":false,"rental_uris":{"android":"levelo://app?vid=df93e2e5-6077-4d47-ac12-eb3362d865a5","ios":"levelo://app?vid=df93e2e5-6077-4d47-ac12-eb3362d865a5"},"vehicle_type_id":"4","last_reported":1746061074,"current_range_meters":11600,"station_id":"ce4bh412rcd13ifvqds0","pricing_plan_id":"cebpf4jnsgd1na2vs0mg"},{"bike_id":"b8feccfa-4923-4995-84ae-609fa42fd20c","system_id":"levelo_inurba_marseille","lat":43.28007,"lon":5.39996,"is_reserved":false,"is_disabled":false,"rental_uris":{"android":"levelo://app?vid=b8feccfa-4923-4995-84ae-609fa42fd20c","ios":"levelo://app?vid=b8feccfa-4923-4995-84ae-609fa42fd20c"},"vehicle_type_id":"4","last_reported":1746061074,"current_range_meters":11600,"station_id":"ce4bho92rcd13ifvqh4g","pricing_plan_id":"cebpf4jnsgd1na2vs0mg"},{"bike_id":"53c6d9e5-e345-4a39-8acf-a703fe1ac2eb","system_id":"levelo_inurba_marseille","lat":43.30806,"lon":5.43532,"is_reserved":false,"is_disabled":false,"rental_uris":{"android":"levelo://app?vid=53c6d9e5-e345-4a39-8acf-a703fe1ac2eb","ios":"levelo://app?vid=53c6d9e5-e345-4a39-8acf-a703fe1ac2eb"},"vehicle_type_id":"4","last_reported":1746061074,"current_range_meters":12000,"station_id":"ce4bhph2rcd13ifvqheg","pricing_plan_id":"cebpf4jnsgd1na2vs0mg"},{"bike_id":"d81abb63-9e29-43ff-affe-f5dd120de981","system_id":"levelo_inurba_marseille","lat":43.32367,"lon":5.38884,"is_reserved":false,"is_disabled":false,"rental_uris":{"android":"levelo://app?vid=d81abb63-9e29-43ff-affe-f5dd120de981","ios":"levelo://app?vid=d81abb63-9e29-43ff-affe-f5dd120de981"},"vehicle_type_id":"4","last_reported":1746061074,"current_range_meters":12000,"station_id":"ce4bhqp2rcd13ifvqhog","pricing_plan_id":"cebpf4jnsgd1na2vs0mg"},{"bike_id":"42979274-76ae-42a2-b009-8dde9f74aa65","system_id":"levelo_inurba_marseille","lat":43.33007,"lon":5.39027,"is_reserved":false,"is_disabled":false,"rental_uris":{"android":"levelo://app?vid=42979274-76ae-42a2-b009-8dde9f74aa65","ios":"levelo://app?vid=42979274-76ae-42a2-b009-8dde9f74aa65"},"vehicle_type_id":"4","last_reported":1746061074,"current_range_meters":12000,"station_id":"ce4bhr92rcd13ifvqhrg","pricing_plan_id":"cebpf4jnsgd1na2vs0mg"},{"bike_id":"80651a87-6c3b-4ad8-a524-9ca686ad66c6","system_id":"levelo_inurba_marseille","lat":43.33008,"lon":5.39028,"is_reserved":false,"is_disabled":false,"rental_uris":{"android":"levelo://app?vid=80651a87-6c3b-4ad8-a524-9ca686ad66c6","ios":"levelo://app?vid=80651a87-6c3b-4ad8-a524-9ca686ad66c6"},"vehicle_type_id":"4","last_reported":1746061074,"current_range_meters":12000,"station_id":"ce4bhr92rcd13ifvqhrg","pricing_plan_id":"cebpf4jnsgd1na2vs0mg"},{"bike_id":"70a31ff3-92e5-466a-b06f-961241a877e1","system_id":"levelo_inurba_marseille","lat":43.30537,"lon":5.38427,"is_reserved":false,"is_disabled":false,"rental_uris":{"android":"levelo://app?vid=70a31ff3-92e5-466a-b06f-961241a877e1","ios":"levelo://app?vid=70a31ff3-92e5-466a-b06f-961241a877e1"},"vehicle_type_id":"4","last_reported":1746061074,"current_range_meters":12400,"station_id":"ce4bgg92rcd13ifvqb30","pricing_plan_id":"cebpf4jnsgd1na2vs0mg"},{"bike_id":"0c70beac-2c9a-4d87-9ce5-9c62957c3c27","system_id":"levelo_inurba_marseille","lat":43.31378,"lon":5.38503,"is_reserved":false,"is_disabled":false,"rental_uris":{"android":"levelo://app?vid=0c70beac-2c9a-4d87-9ce5-9c62957c3c27","ios":"levelo://app?vid=0c70beac-2c9a-4d87-9ce5-9c62957c3c27"},"vehicle_type_id":"4","last_reported":1746061074,"current_range_meters":12400,"station_id":"ce4bgt92rcd13ifvqcf0","pricing_plan_id":"cebpf4jnsgd1na2vs0mg"},{"bike_id":"171cdde1-553e-41d8-ad20-22097af17faf","system_id":"levelo_inurba_marseille","lat":43.26562,"lon":5.39013,"is_reserved":false,"is_disabled":false,"rental_uris":{"android":"levelo://app?vid=171cdde1-553e-41d8-ad20-22097af17faf","ios":"levelo://app?vid=171cdde1-553e-41d8-ad20-22097af17faf"},"vehicle_type_id":"4","last_reported":1746061074,"current_range_meters":12400,"station_id":"ce4bhe12rcd13ifvqf30","pricing_plan_id":"cebpf4jnsgd1na2vs0mg"},{"bike_id":"a85083b8-807a-4d68-8cc6-d7f655dfcbf2","system_id":"levelo_inurba_marseille","lat":43.3118,"lon":5.38711,"is_reserved":false,"is_disabled":false,"rental_uris":{"android":"levelo://app?vid=a85083b8-807a-4d68-8cc6-d7f655dfcbf2","ios":"levelo://app?vid=a85083b8-807a-4d68-8cc6-d7f655dfcbf2"},"vehicle_type_id":"4","last_reported":1746061074,"current_range_meters":12800,"station_id":"","pricing_plan_id":"cebpf4jnsgd1na2vs0mg"},{"bike_id":"32a15618-6a0f-4e5e-b840-d882b4d5fd48","system_id":"levelo_inurba_marseille","lat":43.30263,"lon":5.40095,"is_reserved":false,"is_disabled":false,"rental_uris":{"android":"levelo://app?vid=32a15618-6a0f-4e5e-b840-d882b4d5fd48","ios":"levelo://app?vid=32a15618-6a0f-4e5e-b840-d882b4d5fd48"},"vehicle_type_id":"4","last_reported":1746061074,"current_range_meters":12800,"station_id":"ce4bgvh2rcd13ifvqcs0","pricing_plan_id":"cebpf4jnsgd1na2vs0mg"},{"bike_id":"2651b4a1-13e1-4235-9053-4ff760306dc9","system_id":"levelo_inurba_marseille","lat":43.30333,"lon":5.40441,"is_reserved":false,"is_disabled":false,"rental_uris":{"android":"levelo://app?vid=2651b4a1-13e1-4235-9053-4ff760306dc9","ios":"levelo://app?vid=2651b4a1-13e1-4235-9053-4ff760306dc9"},"vehicle_type_id":"4","last_reported":1746061074,"current_range_meters":12800,"station_id":"ce4bh012rcd13ifvqd10","pricing_plan_id":"cebpf4jnsgd1na2vs0mg"},{"bike_id":"f3288ce6-c25f-42a6-8fd2-a51487b479f2","system_id":"levelo_inurba_marseille","lat":43.29445,"lon":5.39753,"is_reserved":false,"is_disabled":false,"rental_uris":{"android":"levelo://app?vid=f3288ce6-c25f-42a6-8fd2-a51487b479f2","ios":"levelo://app?vid=f3288ce6-c25f-42a6-8fd2-a51487b479f2"},"vehicle_type_id":"4","last_reported":1746061074,"current_range_meters":12800,"station_id":"ce4bh3h2rcd13ifvqdo0","pricing_plan_id":"cebpf4jnsgd1na2vs0mg"},{"bike_id":"174a382d-669a-43dc-b32c-df5770725187","system_id":"levelo_inurba_marseille","lat":43.28019,"lon":5.36939,"is_reserved":false,"is_disabled":false,"rental_uris":{"android":"levelo://app?vid=174a382d-669a-43dc-b32c-df5770725187","ios":"levelo://app?vid=174a382d-669a-43dc-b32c-df5770725187"},"vehicle_type_id":"4","last_reported":1746061074,"current_range_meters":12800,"station_id":"ce4bha12rcd13ifvqef0","pricing_plan_id":"cebpf4jnsgd1na2vs0mg"},{"bike_id":"74e43ab7-c22e-4e7e-9af4-ef7676b145b6","system_id":"levelo_inurba_marseille","lat":43.25709,"lon":5.411,"is_reserved":false,"is_disabled":false,"rental_uris":{"android":"levelo://app?vid=74e43ab7-c22e-4e7e-9af4-ef7676b145b6","ios":"levelo://app?vid=74e43ab7-c22e-4e7e-9af4-ef7676b145b6"},"vehicle_type_id":"4","last_reported":1746061074,"current_range_meters":12800,"station_id":"ce4bhkp2rcd13ifvqgd0","pricing_plan_id":"cebpf4jnsgd1na2vs0mg"},{"bike_id":"4f86a978-1faa-41c3-8974-e1b31a2703b5","system_id":"levelo_inurba_marseille","lat":43.25117,"lon":5.40339,"is_reserved":false,"is_disabled":false,"rental_uris":{"android":"levelo://app?vid=4f86a978-1faa-41c3-8974-e1b31a2703b5","ios":"levelo://app?vid=4f86a978-1faa-41c3-8974-e1b31a2703b5"},"vehicle_type_id":"4","last_reported":1746061074,"current_range_meters":12800,"station_id":"ce4bhlh2rcd13ifvqgig","pricing_plan_id":"cebpf4jnsgd1na2vs0mg"},{"bike_id":"829aa197-56ad-46e2-bb46-45b2af6b44c7","system_id":"levelo_inurba_marseille","lat":43.30781,"lon":5.3765,"is_reserved":false,"is_disabled":false,"rental_uris":{"android":"levelo://app?vid=829aa197-56ad-46e2-bb46-45b2af6b44c7","ios":"levelo://app?vid=829aa197-56ad-46e2-bb46-45b2af6b44c7"},"vehicle_type_id":"4","last_reported":1746061074,"current_range_meters":13600,"station_id":"ce4bgv92rcd13ifvqcq0","pricing_plan_id":"cebpf4jnsgd1na2vs0mg"},{"bike_id":"237bc5ea-b3e1-47af-8038-c05f8a9fd6ef","system_id":"levelo_inurba_marseille","lat":43.28478,"lon":5.38411,"is_reserved":false,"is_disabled":false,"rental_uris":{"android":"levelo://app?vid=237bc5ea-b3e1-47af-8038-c05f8a9fd6ef","ios":"levelo://app?vid=237bc5ea-b3e1-47af-8038-c05f8a9fd6ef"},"vehicle_type_id":"4","last_reported":1746061074,"current_range_meters":13600,"station_id":"ce4bh512rcd13ifvqe3g","pricing_plan_id":"cebpf4jnsgd1na2vs0mg"},{"bike_id":"a3a4bbf0-81ec-4b26-829f-8a3f818463a1","system_id":"levelo_inurba_marseille","lat":43.27836,"lon":5.39221,"is_reserved":false,"is_disabled":false,"rental_uris":{"android":"levelo://app?vid=a3a4bbf0-81ec-4b26-829f-8a3f818463a1","ios":"levelo://app?vid=a3a4bbf0-81ec-4b26-829f-8a3f818463a1"},"vehicle_type_id":"4","last_reported":1746061074,"current_range_meters":13600,"station_id":"ce4bhjp2rcd13ifvqga0","pricing_plan_id":"cebpf4jnsgd1na2vs0mg"},{"bike_id":"d13198bf-44ec-4da7-acff-e922f2680bbe","system_id":"levelo_inurba_marseille","lat":43.33595,"lon":5.41021,"is_reserved":false,"is_disabled":false,"rental_uris":{"android":"levelo://app?vid=d13198bf-44ec-4da7-acff-e922f2680bbe","ios":"levelo://app?vid=d13198bf-44ec-4da7-acff-e922f2680bbe"},"vehicle_type_id":"4","last_reported":1746061074,"current_range_meters":13600,"station_id":"ce4bhqh2rcd13ifvqhmg","pricing_plan_id":"cebpf4jnsgd1na2vs0mg"},{"bike_id":"a732b3d6-472a-46b2-b5fc-7d86a14ed2fc","system_id":"levelo_inurba_marseille","lat":43.33019,"lon":5.39028,"is_reserved":false,"is_disabled":false,"rental_uris":{"android":"levelo://app?vid=a732b3d6-472a-46b2-b5fc-7d86a14ed2fc","ios":"levelo://app?vid=a732b3d6-472a-46b2-b5fc-7d86a14ed2fc"},"vehicle_type_id":"4","last_reported":1746061074,"current_range_meters":13600,"station_id":"ce4bhr92rcd13ifvqhrg","pricing_plan_id":"cebpf4jnsgd1na2vs0mg"},{"bike_id":"baebec09-17e6-4eed-b8ef-05abfa1451d5","system_id":"levelo_inurba_marseille","lat":43.30884,"lon":5.39629,"is_reserved":false,"is_disabled":false,"rental_uris":{"android":"levelo://app?vid=baebec09-17e6-4eed-b8ef-05abfa1451d5","ios":"levelo://app?vid=baebec09-17e6-4eed-b8ef-05abfa1451d5"},"vehicle_type_id":"4","last_reported":1746061074,"current_range_meters":14000,"station_id":"ce4bh012rcd13ifvqcv0","pricing_plan_id":"cebpf4jnsgd1na2vs0mg"},{"bike_id":"80e3a611-39c4-45d0-8c6a-f9ea48f2cd9d","system_id":"levelo_inurba_marseille","lat":43.29569,"lon":5.3998,"is_reserved":false,"is_disabled":false,"rental_uris":{"android":"levelo://app?vid=80e3a611-39c4-45d0-8c6a-f9ea48f2cd9d","ios":"levelo://app?vid=80e3a611-39c4-45d0-8c6a-f9ea48f2cd9d"},"vehicle_type_id":"4","last_reported":1746061074,"current_range_meters":14000,"station_id":"ce4bh312rcd13ifvqdj0","pricing_plan_id":"cebpf4jnsgd1na2vs0mg"},{"bike_id":"34b484ab-c0f1-4e55-b51a-e2bafdafb63e","system_id":"levelo_inurba_marseille","lat":43.230512,"lon":5.35499,"is_reserved":false,"is_disabled":false,"rental_uris":{"android":"levelo://app?vid=34b484ab-c0f1-4e55-b51a-e2bafdafb63e","ios":"levelo://app?vid=34b484ab-c0f1-4e55-b51a-e2bafdafb63e"},"vehicle_type_id":"4","last_reported":1746061074,"current_range_meters":14000,"station_id":"cpo3342slgdg3j2ifvpg","pricing_plan_id":"cebpf4jnsgd1na2vs0mg"},{"bike_id":"7940bc1b-eaa7-4f49-a435-46dc9391f6a1","system_id":"levelo_inurba_marseille","lat":43.212016,"lon":5.35066,"is_reserved":false,"is_disabled":false,"rental_uris":{"android":"levelo://app?vid=7940bc1b-eaa7-4f49-a435-46dc9391f6a1","ios":"levelo://app?vid=7940bc1b-eaa7-4f49-a435-46dc9391f6a1"},"vehicle_type_id":"4","last_reported":1746061074,"current_range_meters":14000,"station_id":"st_cvj6sg6p6f1abm77japg","pricing_plan_id":"cebpf4jnsgd1na2vs0mg"},{"bike_id":"4215e336-130f-4e4e-ac75-ab1f2791ea4d","system_id":"levelo_inurba_marseille","lat":43.316802,"lon":5.404678,"is_reserved":false,"is_disabled":false,"rental_uris":{"android":"levelo://app?vid=4215e336-130f-4e4e-ac75-ab1f2791ea4d","ios":"levelo://app?vid=4215e336-130f-4e4e-ac75-ab1f2791ea4d"},"vehicle_type_id":"4","last_reported":1746061074,"current_range_meters":14400,"station_id":"ce4bh012rcd13ifvqd00","pricing_plan_id":"cebpf4jnsgd1na2vs0mg"},{"bike_id":"d8f69332-d7da-463e-98da-8052c52b547e","system_id":"levelo_inurba_marseille","lat":43.27821,"lon":5.40694,"is_reserved":false,"is_disabled":false,"rental_uris":{"android":"levelo://app?vid=d8f69332-d7da-463e-98da-8052c52b547e","ios":"levelo://app?vid=d8f69332-d7da-463e-98da-8052c52b547e"},"vehicle_type_id":"4","last_reported":1746061074,"current_range_meters":14400,"station_id":"ce4bhnh2rcd13ifvqgtg","pricing_plan_id":"cebpf4jnsgd1na2vs0mg"},{"bike_id":"fd7875a1-1cd0-47f8-880b-6ef58a6b7e2e","system_id":"levelo_inurba_marseille","lat":43.22942,"lon":5.35369,"is_reserved":false,"is_disabled":false,"rental_uris":{"android":"levelo://app?vid=fd7875a1-1cd0-47f8-880b-6ef58a6b7e2e","ios":"levelo://app?vid=fd7875a1-1cd0-47f8-880b-6ef58a6b7e2e"},"vehicle_type_id":"4","last_reported":1746061074,"current_range_meters":14800,"station_id":"cpo3532slgdg3j2ikp40","pricing_plan_id":"cebpf4jnsgd1na2vs0mg"},{"bike_id":"4200b97e-5329-4a05-aa45-0ca388943e32","system_id":"levelo_inurba_marseille","lat":43.28568,"lon":5.39495,"is_reserved":false,"is_disabled":false,"rental_uris":{"android":"levelo://app?vid=4200b97e-5329-4a05-aa45-0ca388943e32","ios":"levelo://app?vid=4200b97e-5329-4a05-aa45-0ca388943e32"},"vehicle_type_id":"4","last_reported":1746061074,"current_range_meters":15200,"station_id":"ce4bh292rcd13ifvqdg0","pricing_plan_id":"cebpf4jnsgd1na2vs0mg"},{"bike_id":"9349d600-e511-4a0e-b3a3-3194a21ed526","system_id":"levelo_inurba_marseille","lat":43.32462,"lon":5.36554,"is_reserved":false,"is_disabled":false,"rental_uris":{"android":"levelo://app?vid=9349d600-e511-4a0e-b3a3-3194a21ed526","ios":"levelo://app?vid=9349d600-e511-4a0e-b3a3-3194a21ed526"},"vehicle_type_id":"4","last_reported":1746061074,"current_range_meters":15200,"station_id":"ce4bhs12rcd13ifvqhvg","pricing_plan_id":"cebpf4jnsgd1na2vs0mg"},{"bike_id":"3d13519f-8c59-4500-915b-0e3325a7d2e1","system_id":"levelo_inurba_marseille","lat":43.29904,"lon":5.38303,"is_reserved":false,"is_disabled":false,"rental_uris":{"android":"levelo://app?vid=3d13519f-8c59-4500-915b-0e3325a7d2e1","ios":"levelo://app?vid=3d13519f-8c59-4500-915b-0e3325a7d2e1"},"vehicle_type_id":"4","last_reported":1746061074,"current_range_meters":16000,"station_id":"","pricing_plan_id":"cebpf4jnsgd1na2vs0mg"},{"bike_id":"14e901af-0e1a-46e5-89c8-85cacaa053a9","system_id":"levelo_inurba_marseille","lat":43.27061,"lon":5.40257,"is_reserved":false,"is_disabled":false,"rental_uris":{"android":"levelo://app?vid=14e901af-0e1a-46e5-89c8-85cacaa053a9","ios":"levelo://app?vid=14e901af-0e1a-46e5-89c8-85cacaa053a9"},"vehicle_type_id":"4","last_reported":1746061074,"current_range_meters":16000,"station_id":"ce4bhk92rcd13ifvqgc0","pricing_plan_id":"cebpf4jnsgd1na2vs0mg"},{"bike_id":"b59f9ea1-ffd2-46de-a377-e32331e5f122","system_id":"levelo_inurba_marseille","lat":43.31547,"lon":5.38023,"is_reserved":false,"is_disabled":false,"rental_uris":{"android":"levelo://app?vid=b59f9ea1-ffd2-46de-a377-e32331e5f122","ios":"levelo://app?vid=b59f9ea1-ffd2-46de-a377-e32331e5f122"},"vehicle_type_id":"4","last_reported":1746061074,"current_range_meters":16000,"station_id":"ce4bhsp2rcd13ifvqi50","pricing_plan_id":"cebpf4jnsgd1na2vs0mg"},{"bike_id":"85ff89fe-7e95-47d5-a855-11d54297ca29","system_id":"levelo_inurba_marseille","lat":43.30308,"lon":5.36894,"is_reserved":false,"is_disabled":false,"rental_uris":{"android":"levelo://app?vid=85ff89fe-7e95-47d5-a855-11d54297ca29","ios":"levelo://app?vid=85ff89fe-7e95-47d5-a855-11d54297ca29"},"vehicle_type_id":"4","last_reported":1746061074,"current_range_meters":16400,"station_id":"ce4bgqh2rcd13ifvqc5g","pricing_plan_id":"cebpf4jnsgd1na2vs0mg"},{"bike_id":"67f401c7-2b4b-4a1a-a6f0-da56056a14a5","system_id":"levelo_inurba_marseille","lat":43.29275,"lon":5.4012,"is_reserved":false,"is_disabled":false,"rental_uris":{"android":"levelo://app?vid=67f401c7-2b4b-4a1a-a6f0-da56056a14a5","ios":"levelo://app?vid=67f401c7-2b4b-4a1a-a6f0-da56056a14a5"},"vehicle_type_id":"4","last_reported":1746061074,"current_range_meters":16400,"station_id":"ce4bh312rcd13ifvqdk0","pricing_plan_id":"cebpf4jnsgd1na2vs0mg"},{"bike_id":"9d58426c-5ee3-4f27-aeb9-ef5e06fddd1f","system_id":"levelo_inurba_marseille","lat":43.28458,"lon":5.35892,"is_reserved":false,"is_disabled":false,"rental_uris":{"android":"levelo://app?vid=9d58426c-5ee3-4f27-aeb9-ef5e06fddd1f","ios":"levelo://app?vid=9d58426c-5ee3-4f27-aeb9-ef5e06fddd1f"},"vehicle_type_id":"4","last_reported":1746061074,"current_range_meters":16400,"station_id":"ce4bhah2rcd13ifvqei0","pricing_plan_id":"cebpf4jnsgd1na2vs0mg"},{"bike_id":"41e2b990-9852-4fd1-9694-510af2caf534","system_id":"levelo_inurba_marseille","lat":43.24658,"lon":5.38166,"is_reserved":false,"is_disabled":false,"rental_uris":{"android":"levelo://app?vid=41e2b990-9852-4fd1-9694-510af2caf534","ios":"levelo://app?vid=41e2b990-9852-4fd1-9694-510af2caf534"},"vehicle_type_id":"4","last_reported":1746061074,"current_range_meters":16400,"station_id":"ce4bhih2rcd13ifvqfr0","pricing_plan_id":"cebpf4jnsgd1na2vs0mg"},{"bike_id":"6daaf168-bfa9-48eb-82e8-fce6c84467fb","system_id":"levelo_inurba_marseille","lat":43.25863,"lon":5.39894,"is_reserved":false,"is_disabled":false,"rental_uris":{"android":"levelo://app?vid=6daaf168-bfa9-48eb-82e8-fce6c84467fb","ios":"levelo://app?vid=6daaf168-bfa9-48eb-82e8-fce6c84467fb"},"vehicle_type_id":"4","last_reported":1746061074,"current_range_meters":16400,"station_id":"ce4bhl92rcd13ifvqghg","pricing_plan_id":"cebpf4jnsgd1na2vs0mg"},{"bike_id":"b58385b2-d1b2-4ecc-af75-eb7cf4772905","system_id":"levelo_inurba_marseille","lat":43.23033,"lon":5.35503,"is_reserved":false,"is_disabled":false,"rental_uris":{"android":"levelo://app?vid=b58385b2-d1b2-4ecc-af75-eb7cf4772905","ios":"levelo://app?vid=b58385b2-d1b2-4ecc-af75-eb7cf4772905"},"vehicle_type_id":"4","last_reported":1746061074,"current_range_meters":16400,"station_id":"cpo3342slgdg3j2ifvpg","pricing_plan_id":"cebpf4jnsgd1na2vs0mg"},{"bike_id":"58e61467-50db-4ef1-a23a-155c99fb9f5b","system_id":"levelo_inurba_marseille","lat":43.31506,"lon":5.37297,"is_reserved":false,"is_disabled":false,"rental_uris":{"android":"levelo://app?vid=58e61467-50db-4ef1-a23a-155c99fb9f5b","ios":"levelo://app?vid=58e61467-50db-4ef1-a23a-155c99fb9f5b"},"vehicle_type_id":"4","last_reported":1746061074,"current_range_meters":16800,"station_id":"ce4bgt12rcd13ifvqcd0","pricing_plan_id":"cebpf4jnsgd1na2vs0mg"},{"bike_id":"1ef4171e-e15d-4304-91ff-924c70dde6b0","system_id":"levelo_inurba_marseille","lat":43.29923,"lon":5.3974,"is_reserved":false,"is_disabled":false,"rental_uris":{"android":"levelo://app?vid=1ef4171e-e15d-4304-91ff-924c70dde6b0","ios":"levelo://app?vid=1ef4171e-e15d-4304-91ff-924c70dde6b0"},"vehicle_type_id":"4","last_reported":1746061074,"current_range_meters":16800,"station_id":"ce4bh0h2rcd13ifvqd50","pricing_plan_id":"cebpf4jnsgd1na2vs0mg"},{"bike_id":"c8581763-0ce2-4bab-ab9e-b4108eaa2ed7","system_id":"levelo_inurba_marseille","lat":43.32361,"lon":5.38884,"is_reserved":false,"is_disabled":false,"rental_uris":{"android":"levelo://app?vid=c8581763-0ce2-4bab-ab9e-b4108eaa2ed7","ios":"levelo://app?vid=c8581763-0ce2-4bab-ab9e-b4108eaa2ed7"},"vehicle_type_id":"4","last_reported":1746061074,"current_range_meters":17200,"station_id":"ce4bhqp2rcd13ifvqhog","pricing_plan_id":"cebpf4jnsgd1na2vs0mg"},{"bike_id":"0b9ac188-19a7-4ad4-8279-34f1318ce56d","system_id":"levelo_inurba_marseille","lat":43.31285,"lon":5.37752,"is_reserved":false,"is_disabled":false,"rental_uris":{"android":"levelo://app?vid=0b9ac188-19a7-4ad4-8279-34f1318ce56d","ios":"levelo://app?vid=0b9ac188-19a7-4ad4-8279-34f1318ce56d"},"vehicle_type_id":"4","last_reported":1746061074,"current_range_meters":17600,"station_id":"","pricing_plan_id":"cebpf4jnsgd1na2vs0mg"},{"bike_id":"329c3696-3b65-4403-9120-8a0256aadd4a","system_id":"levelo_inurba_marseille","lat":43.30891,"lon":5.39651,"is_reserved":false,"is_disabled":false,"rental_uris":{"android":"levelo://app?vid=329c3696-3b65-4403-9120-8a0256aadd4a","ios":"levelo://app?vid=329c3696-3b65-4403-9120-8a0256aadd4a"},"vehicle_type_id":"4","last_reported":1746061074,"current_range_meters":17600,"station_id":"ce4bh012rcd13ifvqcv0","pricing_plan_id":"cebpf4jnsgd1na2vs0mg"},{"bike_id":"beb1d927-2520-405b-a87d-c20cf401f42b","system_id":"levelo_inurba_marseille","lat":43.28404,"lon":5.37518,"is_reserved":false,"is_disabled":false,"rental_uris":{"android":"levelo://app?vid=beb1d927-2520-405b-a87d-c20cf401f42b","ios":"levelo://app?vid=beb1d927-2520-405b-a87d-c20cf401f42b"},"vehicle_type_id":"4","last_reported":1746061074,"current_range_meters":17600,"station_id":"ce4bh412rcd13ifvqds0","pricing_plan_id":"cebpf4jnsgd1na2vs0mg"},{"bike_id":"b1b4d74f-092b-476b-abae-f60870c92748","system_id":"levelo_inurba_marseille","lat":43.25091,"lon":5.39527,"is_reserved":false,"is_disabled":false,"rental_uris":{"android":"levelo://app?vid=b1b4d74f-092b-476b-abae-f60870c92748","ios":"levelo://app?vid=b1b4d74f-092b-476b-abae-f60870c92748"},"vehicle_type_id":"4","last_reported":1746061074,"current_range_meters":17600,"station_id":"ce4bhm12rcd13ifvqgkg","pricing_plan_id":"cebpf4jnsgd1na2vs0mg"},{"bike_id":"9c78cad3-1291-42d6-811d-5bf41bfc6c8a","system_id":"levelo_inurba_marseille","lat":43.24174,"lon":5.39737,"is_reserved":false,"is_disabled":false,"rental_uris":{"android":"levelo://app?vid=9c78cad3-1291-42d6-811d-5bf41bfc6c8a","ios":"levelo://app?vid=9c78cad3-1291-42d6-811d-5bf41bfc6c8a"},"vehicle_type_id":"4","last_reported":1746061074,"current_range_meters":17600,"station_id":"ce4bhn12rcd13ifvqgpg","pricing_plan_id":"cebpf4jnsgd1na2vs0mg"},{"bike_id":"7b4ac271-3d33-4c11-8bfd-2a1bbfc82d7b","system_id":"levelo_inurba_marseille","lat":43.33601,"lon":5.40993,"is_reserved":false,"is_disabled":false,"rental_uris":{"android":"levelo://app?vid=7b4ac271-3d33-4c11-8bfd-2a1bbfc82d7b","ios":"levelo://app?vid=7b4ac271-3d33-4c11-8bfd-2a1bbfc82d7b"},"vehicle_type_id":"4","last_reported":1746061074,"current_range_meters":17600,"station_id":"ce4bhqh2rcd13ifvqhmg","pricing_plan_id":"cebpf4jnsgd1na2vs0mg"},{"bike_id":"2e1ce04f-74c7-4d68-a96b-b9dc1d6897ee","system_id":"levelo_inurba_marseille","lat":43.322907,"lon":5.382701,"is_reserved":false,"is_disabled":false,"rental_uris":{"android":"levelo://app?vid=2e1ce04f-74c7-4d68-a96b-b9dc1d6897ee","ios":"levelo://app?vid=2e1ce04f-74c7-4d68-a96b-b9dc1d6897ee"},"vehicle_type_id":"4","last_reported":1746061074,"current_range_meters":17600,"station_id":"ce4bhr12rcd13ifvqhqg","pricing_plan_id":"cebpf4jnsgd1na2vs0mg"},{"bike_id":"c29e36ac-2727-4e24-a089-8ad710d53619","system_id":"levelo_inurba_marseille","lat":43.30943,"lon":5.40152,"is_reserved":false,"is_disabled":false,"rental_uris":{"android":"levelo://app?vid=c29e36ac-2727-4e24-a089-8ad710d53619","ios":"levelo://app?vid=c29e36ac-2727-4e24-a089-8ad710d53619"},"vehicle_type_id":"4","last_reported":1746061074,"current_range_meters":18000,"station_id":"ce4bgvp2rcd13ifvqct0","pricing_plan_id":"cebpf4jnsgd1na2vs0mg"},{"bike_id":"df480c1b-bcc1-450a-bb5f-942d30b09ccb","system_id":"levelo_inurba_marseille","lat":43.31328,"lon":5.39708,"is_reserved":false,"is_disabled":false,"rental_uris":{"android":"levelo://app?vid=df480c1b-bcc1-450a-bb5f-942d30b09ccb","ios":"levelo://app?vid=df480c1b-bcc1-450a-bb5f-942d30b09ccb"},"vehicle_type_id":"4","last_reported":1746061074,"current_range_meters":18000,"station_id":"ce4bgvp2rcd13ifvqcu0","pricing_plan_id":"cebpf4jnsgd1na2vs0mg"},{"bike_id":"cb0afbfe-8904-4f1f-b117-5ae009c80ca2","system_id":"levelo_inurba_marseille","lat":43.28937,"lon":5.36627,"is_reserved":false,"is_disabled":false,"rental_uris":{"android":"levelo://app?vid=cb0afbfe-8904-4f1f-b117-5ae009c80ca2","ios":"levelo://app?vid=cb0afbfe-8904-4f1f-b117-5ae009c80ca2"},"vehicle_type_id":"4","last_reported":1746061074,"current_range_meters":18000,"station_id":"ce4bhap2rcd13ifvqek0","pricing_plan_id":"cebpf4jnsgd1na2vs0mg"},{"bike_id":"99d136e0-36cb-4c24-a429-a3b459c32192","system_id":"levelo_inurba_marseille","lat":43.23152,"lon":5.43706,"is_reserved":false,"is_disabled":false,"rental_uris":{"android":"levelo://app?vid=99d136e0-36cb-4c24-a429-a3b459c32192","ios":"levelo://app?vid=99d136e0-36cb-4c24-a429-a3b459c32192"},"vehicle_type_id":"4","last_reported":1746061074,"current_range_meters":18000,"station_id":"ce4bhmp2rcd13ifvqgog","pricing_plan_id":"cebpf4jnsgd1na2vs0mg"},{"bike_id":"0c7f2d70-b849-486d-bca2-848a564f0867","system_id":"levelo_inurba_marseille","lat":43.279974,"lon":5.400145,"is_reserved":false,"is_disabled":false,"rental_uris":{"android":"levelo://app?vid=0c7f2d70-b849-486d-bca2-848a564f0867","ios":"levelo://app?vid=0c7f2d70-b849-486d-bca2-848a564f0867"},"vehicle_type_id":"4","last_reported":1746061074,"current_range_meters":18000,"station_id":"ce4bho92rcd13ifvqh4g","pricing_plan_id":"cebpf4jnsgd1na2vs0mg"},{"bike_id":"8d17b367-8061-4c82-8409-5df859a79302","system_id":"levelo_inurba_marseille","lat":43.319967,"lon":5.381562,"is_reserved":false,"is_disabled":false,"rental_uris":{"android":"levelo://app?vid=8d17b367-8061-4c82-8409-5df859a79302","ios":"levelo://app?vid=8d17b367-8061-4c82-8409-5df859a79302"},"vehicle_type_id":"4","last_reported":1746061074,"current_range_meters":18000,"station_id":"ce4bhr12rcd13ifvqhpg","pricing_plan_id":"cebpf4jnsgd1na2vs0mg"},{"bike_id":"8a108257-ba62-40f1-b151-5864796d192a","system_id":"levelo_inurba_marseille","lat":43.217535,"lon":5.346019,"is_reserved":false,"is_disabled":false,"rental_uris":{"android":"levelo://app?vid=8a108257-ba62-40f1-b151-5864796d192a","ios":"levelo://app?vid=8a108257-ba62-40f1-b151-5864796d192a"},"vehicle_type_id":"4","last_reported":1746061074,"current_range_meters":18000,"station_id":"st_cvj6r9ubvosntc0bgbag","pricing_plan_id":"cebpf4jnsgd1na2vs0mg"},{"bike_id":"5fc9a54d-ad5d-469b-807b-10c5d20729b5","system_id":"levelo_inurba_marseille","lat":43.30791,"lon":5.38181,"is_reserved":false,"is_disabled":false,"rental_uris":{"android":"levelo://app?vid=5fc9a54d-ad5d-469b-807b-10c5d20729b5","ios":"levelo://app?vid=5fc9a54d-ad5d-469b-807b-10c5d20729b5"},"vehicle_type_id":"4","last_reported":1746061074,"current_range_meters":18800,"station_id":"ce4bgt12rcd13ifvqce0","pricing_plan_id":"cebpf4jnsgd1na2vs0mg"},{"bike_id":"fa21a78e-abff-4118-ad81-13650028bad4","system_id":"levelo_inurba_marseille","lat":43.2585,"lon":5.39925,"is_reserved":false,"is_disabled":false,"rental_uris":{"android":"levelo://app?vid=fa21a78e-abff-4118-ad81-13650028bad4","ios":"levelo://app?vid=fa21a78e-abff-4118-ad81-13650028bad4"},"vehicle_type_id":"4","last_reported":1746061074,"current_range_meters":18800,"station_id":"ce4bhl92rcd13ifvqghg","pricing_plan_id":"cebpf4jnsgd1na2vs0mg"},{"bike_id":"2563fea3-52d0-44d5-9e81-426c0ee1385b","system_id":"levelo_inurba_marseille","lat":43.29788,"lon":5.39391,"is_reserved":false,"is_disabled":false,"rental_uris":{"android":"levelo://app?vid=2563fea3-52d0-44d5-9e81-426c0ee1385b","ios":"levelo://app?vid=2563fea3-52d0-44d5-9e81-426c0ee1385b"},"vehicle_type_id":"4","last_reported":1746061074,"current_range_meters":18800,"station_id":"chh1huq6cuj3fo74tm60","pricing_plan_id":"cebpf4jnsgd1na2vs0mg"},{"bike_id":"d3c34157-eca9-4984-835f-f3891afd9bbe","system_id":"levelo_inurba_marseille","lat":43.3044,"lon":5.38884,"is_reserved":false,"is_disabled":false,"rental_uris":{"android":"levelo://app?vid=d3c34157-eca9-4984-835f-f3891afd9bbe","ios":"levelo://app?vid=d3c34157-eca9-4984-835f-f3891afd9bbe"},"vehicle_type_id":"4","last_reported":1746061074,"current_range_meters":19200,"station_id":"ce4bgk12rcd13ifvqbi0","pricing_plan_id":"cebpf4jnsgd1na2vs0mg"},{"bike_id":"b81e3095-a345-4498-8b26-0f652af785f2","system_id":"levelo_inurba_marseille","lat":43.27431,"lon":5.394145,"is_reserved":false,"is_disabled":false,"rental_uris":{"android":"levelo://app?vid=b81e3095-a345-4498-8b26-0f652af785f2","ios":"levelo://app?vid=b81e3095-a345-4498-8b26-0f652af785f2"},"vehicle_type_id":"4","last_reported":1746061074,"current_range_meters":19200,"station_id":"ce4bhdp2rcd13ifvqf20","pricing_plan_id":"cebpf4jnsgd1na2vs0mg"},{"bike_id":"c7b75ff6-c0be-4f80-94ba-f7afc11fa6b7","system_id":"levelo_inurba_marseille","lat":43.2174,"lon":5.34619,"is_reserved":false,"is_disabled":false,"rental_uris":{"android":"levelo://app?vid=c7b75ff6-c0be-4f80-94ba-f7afc11fa6b7","ios":"levelo://app?vid=c7b75ff6-c0be-4f80-94ba-f7afc11fa6b7"},"vehicle_type_id":"4","last_reported":1746061074,"current_range_meters":19200,"station_id":"st_cvj6r9ubvosntc0bgbag","pricing_plan_id":"cebpf4jnsgd1na2vs0mg"},{"bike_id":"3386a9f8-477b-4ccc-8e99-feb51686ef62","system_id":"levelo_inurba_marseille","lat":43.30795,"lon":5.38153,"is_reserved":false,"is_disabled":false,"rental_uris":{"android":"levelo://app?vid=3386a9f8-477b-4ccc-8e99-feb51686ef62","ios":"levelo://app?vid=3386a9f8-477b-4ccc-8e99-feb51686ef62"},"vehicle_type_id":"4","last_reported":1746061074,"current_range_meters":19600,"station_id":"ce4bgt12rcd13ifvqce0","pricing_plan_id":"cebpf4jnsgd1na2vs0mg"},{"bike_id":"98a18ca5-fd9b-4a66-84b1-79541e40decd","system_id":"levelo_inurba_marseille","lat":43.26508,"lon":5.39539,"is_reserved":false,"is_disabled":false,"rental_uris":{"android":"levelo://app?vid=98a18ca5-fd9b-4a66-84b1-79541e40decd","ios":"levelo://app?vid=98a18ca5-fd9b-4a66-84b1-79541e40decd"},"vehicle_type_id":"4","last_reported":1746061074,"current_range_meters":19600,"station_id":"ce4bhi12rcd13ifvqfq0","pricing_plan_id":"cebpf4jnsgd1na2vs0mg"},{"bike_id":"a95dba47-54c0-43ea-a02c-c422bc9aa61b","system_id":"levelo_inurba_marseille","lat":43.25074,"lon":5.39525,"is_reserved":false,"is_disabled":false,"rental_uris":{"android":"levelo://app?vid=a95dba47-54c0-43ea-a02c-c422bc9aa61b","ios":"levelo://app?vid=a95dba47-54c0-43ea-a02c-c422bc9aa61b"},"vehicle_type_id":"4","last_reported":1746061074,"current_range_meters":19600,"station_id":"ce4bhm12rcd13ifvqgkg","pricing_plan_id":"cebpf4jnsgd1na2vs0mg"},{"bike_id":"7c6dc1bf-0fa8-4cea-bdd8-7824d54eb30f","system_id":"levelo_inurba_marseille","lat":43.29886,"lon":5.43644,"is_reserved":false,"is_disabled":false,"rental_uris":{"android":"levelo://app?vid=7c6dc1bf-0fa8-4cea-bdd8-7824d54eb30f","ios":"levelo://app?vid=7c6dc1bf-0fa8-4cea-bdd8-7824d54eb30f"},"vehicle_type_id":"4","last_reported":1746061074,"current_range_meters":19600,"station_id":"ce4bhpp2rcd13ifvqhfg","pricing_plan_id":"cebpf4jnsgd1na2vs0mg"},{"bike_id":"780d29b5-86c9-42d3-b845-9943f302d8a7","system_id":"levelo_inurba_marseille","lat":43.33607,"lon":5.41034,"is_reserved":false,"is_disabled":false,"rental_uris":{"android":"levelo://app?vid=780d29b5-86c9-42d3-b845-9943f302d8a7","ios":"levelo://app?vid=780d29b5-86c9-42d3-b845-9943f302d8a7"},"vehicle_type_id":"4","last_reported":1746061074,"current_range_meters":19600,"station_id":"ce4bhqh2rcd13ifvqhmg","pricing_plan_id":"cebpf4jnsgd1na2vs0mg"},{"bike_id":"18167509-5ca2-4caf-8bcd-debaba44deeb","system_id":"levelo_inurba_marseille","lat":43.324965,"lon":5.36565,"is_reserved":false,"is_disabled":false,"rental_uris":{"android":"levelo://app?vid=18167509-5ca2-4caf-8bcd-debaba44deeb","ios":"levelo://app?vid=18167509-5ca2-4caf-8bcd-debaba44deeb"},"vehicle_type_id":"4","last_reported":1746061074,"current_range_meters":19600,"station_id":"ce4bhs12rcd13ifvqhvg","pricing_plan_id":"cebpf4jnsgd1na2vs0mg"},{"bike_id":"5a2ea205-e07f-44c7-a090-aba81eadb867","system_id":"levelo_inurba_marseille","lat":43.284109,"lon":5.375058,"is_reserved":false,"is_disabled":false,"rental_uris":{"android":"levelo://app?vid=5a2ea205-e07f-44c7-a090-aba81eadb867","ios":"levelo://app?vid=5a2ea205-e07f-44c7-a090-aba81eadb867"},"vehicle_type_id":"4","last_reported":1746061074,"current_range_meters":20000,"station_id":"ce4bh412rcd13ifvqds0","pricing_plan_id":"cebpf4jnsgd1na2vs0mg"},{"bike_id":"6c6eb90d-43e0-4bbe-bcec-ddf2c5593c3a","system_id":"levelo_inurba_marseille","lat":43.2479,"lon":5.37459,"is_reserved":false,"is_disabled":false,"rental_uris":{"android":"levelo://app?vid=6c6eb90d-43e0-4bbe-bcec-ddf2c5593c3a","ios":"levelo://app?vid=6c6eb90d-43e0-4bbe-bcec-ddf2c5593c3a"},"vehicle_type_id":"4","last_reported":1746061074,"current_range_meters":20000,"station_id":"ce4bhgh2rcd13ifvqfb0","pricing_plan_id":"cebpf4jnsgd1na2vs0mg"},{"bike_id":"4fec10d1-ef71-4b58-8320-d49a3806ed8a","system_id":"levelo_inurba_marseille","lat":43.319967,"lon":5.381408,"is_reserved":false,"is_disabled":false,"rental_uris":{"android":"levelo://app?vid=4fec10d1-ef71-4b58-8320-d49a3806ed8a","ios":"levelo://app?vid=4fec10d1-ef71-4b58-8320-d49a3806ed8a"},"vehicle_type_id":"4","last_reported":1746061074,"current_range_meters":20000,"station_id":"ce4bhr12rcd13ifvqhpg","pricing_plan_id":"cebpf4jnsgd1na2vs0mg"},{"bike_id":"c695bac2-0581-4a6a-b9c9-eb8e0d8673ed","system_id":"levelo_inurba_marseille","lat":43.33737,"lon":5.3922,"is_reserved":false,"is_disabled":false,"rental_uris":{"android":"levelo://app?vid=c695bac2-0581-4a6a-b9c9-eb8e0d8673ed","ios":"levelo://app?vid=c695bac2-0581-4a6a-b9c9-eb8e0d8673ed"},"vehicle_type_id":"4","last_reported":1746061074,"current_range_meters":20000,"station_id":"ce4bhr92rcd13ifvqhsg","pricing_plan_id":"cebpf4jnsgd1na2vs0mg"},{"bike_id":"603c33a5-e4f8-4ba0-9208-9350998061b0","system_id":"levelo_inurba_marseille","lat":43.32507,"lon":5.36545,"is_reserved":false,"is_disabled":false,"rental_uris":{"android":"levelo://app?vid=603c33a5-e4f8-4ba0-9208-9350998061b0","ios":"levelo://app?vid=603c33a5-e4f8-4ba0-9208-9350998061b0"},"vehicle_type_id":"4","last_reported":1746061074,"current_range_meters":20000,"station_id":"ce4bhs12rcd13ifvqhvg","pricing_plan_id":"cebpf4jnsgd1na2vs0mg"},{"bike_id":"3aeb961f-88b6-47fd-986a-c7b2a855fefd","system_id":"levelo_inurba_marseille","lat":43.2306,"lon":5.35495,"is_reserved":false,"is_disabled":false,"rental_uris":{"android":"levelo://app?vid=3aeb961f-88b6-47fd-986a-c7b2a855fefd","ios":"levelo://app?vid=3aeb961f-88b6-47fd-986a-c7b2a855fefd"},"vehicle_type_id":"4","last_reported":1746061074,"current_range_meters":20000,"station_id":"cpo3342slgdg3j2ifvpg","pricing_plan_id":"cebpf4jnsgd1na2vs0mg"},{"bike_id":"677a381b-b527-42a3-b987-992902b9ea2d","system_id":"levelo_inurba_marseille","lat":43.23056,"lon":5.35489,"is_reserved":false,"is_disabled":false,"rental_uris":{"android":"levelo://app?vid=677a381b-b527-42a3-b987-992902b9ea2d","ios":"levelo://app?vid=677a381b-b527-42a3-b987-992902b9ea2d"},"vehicle_type_id":"4","last_reported":1746061074,"current_range_meters":20000,"station_id":"cpo3342slgdg3j2ifvpg","pricing_plan_id":"cebpf4jnsgd1na2vs0mg"},{"bike_id":"03599276-5e0a-44f6-918f-21df64f6e246","system_id":"levelo_inurba_marseille","lat":43.30228,"lon":5.40096,"is_reserved":false,"is_disabled":false,"rental_uris":{"android":"levelo://app?vid=03599276-5e0a-44f6-918f-21df64f6e246","ios":"levelo://app?vid=03599276-5e0a-44f6-918f-21df64f6e246"},"vehicle_type_id":"4","last_reported":1746061074,"current_range_meters":20400,"station_id":"ce4bgvh2rcd13ifvqcs0","pricing_plan_id":"cebpf4jnsgd1na2vs0mg"},{"bike_id":"6bdc1a79-8e1b-4360-aec9-e6f9cc32b412","system_id":"levelo_inurba_marseille","lat":43.25714,"lon":5.41044,"is_reserved":false,"is_disabled":false,"rental_uris":{"android":"levelo://app?vid=6bdc1a79-8e1b-4360-aec9-e6f9cc32b412","ios":"levelo://app?vid=6bdc1a79-8e1b-4360-aec9-e6f9cc32b412"},"vehicle_type_id":"4","last_reported":1746061074,"current_range_meters":20400,"station_id":"ce4bhkp2rcd13ifvqgd0","pricing_plan_id":"cebpf4jnsgd1na2vs0mg"},{"bike_id":"dbcdc79b-b3d2-4afc-9d54-e9c42c7937e6","system_id":"levelo_inurba_marseille","lat":43.27944,"lon":5.41046,"is_reserved":false,"is_disabled":false,"rental_uris":{"android":"levelo://app?vid=dbcdc79b-b3d2-4afc-9d54-e9c42c7937e6","ios":"levelo://app?vid=dbcdc79b-b3d2-4afc-9d54-e9c42c7937e6"},"vehicle_type_id":"4","last_reported":1746061074,"current_range_meters":20400,"station_id":"ce4bhnp2rcd13ifvqh0g","pricing_plan_id":"cebpf4jnsgd1na2vs0mg"},{"bike_id":"b6370aa6-1cc0-4a8b-9774-235e8c2f66a8","system_id":"levelo_inurba_marseille","lat":43.317114,"lon":5.436948,"is_reserved":false,"is_disabled":false,"rental_uris":{"android":"levelo://app?vid=b6370aa6-1cc0-4a8b-9774-235e8c2f66a8","ios":"levelo://app?vid=b6370aa6-1cc0-4a8b-9774-235e8c2f66a8"},"vehicle_type_id":"4","last_reported":1746061074,"current_range_meters":20400,"station_id":"ce4bhp92rcd13ifvqhcg","pricing_plan_id":"cebpf4jnsgd1na2vs0mg"},{"bike_id":"ecc289e6-a56d-4713-a9db-b1eebd05dac1","system_id":"levelo_inurba_marseille","lat":43.3081,"lon":5.38162,"is_reserved":false,"is_disabled":false,"rental_uris":{"android":"levelo://app?vid=ecc289e6-a56d-4713-a9db-b1eebd05dac1","ios":"levelo://app?vid=ecc289e6-a56d-4713-a9db-b1eebd05dac1"},"vehicle_type_id":"4","last_reported":1746061074,"current_range_meters":20800,"station_id":"ce4bgt12rcd13ifvqce0","pricing_plan_id":"cebpf4jnsgd1na2vs0mg"},{"bike_id":"ed8154fe-4a28-44bd-b7ae-7c55d7aa378d","system_id":"levelo_inurba_marseille","lat":43.30324,"lon":5.40437,"is_reserved":false,"is_disabled":false,"rental_uris":{"android":"levelo://app?vid=ed8154fe-4a28-44bd-b7ae-7c55d7aa378d","ios":"levelo://app?vid=ed8154fe-4a28-44bd-b7ae-7c55d7aa378d"},"vehicle_type_id":"4","last_reported":1746061074,"current_range_meters":20800,"station_id":"ce4bh012rcd13ifvqd10","pricing_plan_id":"cebpf4jnsgd1na2vs0mg"},{"bike_id":"c718ac56-1557-4bce-9365-9d539e2700bb","system_id":"levelo_inurba_marseille","lat":43.28414,"lon":5.37507,"is_reserved":false,"is_disabled":false,"rental_uris":{"android":"levelo://app?vid=c718ac56-1557-4bce-9365-9d539e2700bb","ios":"levelo://app?vid=c718ac56-1557-4bce-9365-9d539e2700bb"},"vehicle_type_id":"4","last_reported":1746061074,"current_range_meters":20800,"station_id":"ce4bh412rcd13ifvqds0","pricing_plan_id":"cebpf4jnsgd1na2vs0mg"},{"bike_id":"5bad94cc-7f01-4910-af58-47d9a595bbc1","system_id":"levelo_inurba_marseille","lat":43.2784,"lon":5.39221,"is_reserved":false,"is_disabled":false,"rental_uris":{"android":"levelo://app?vid=5bad94cc-7f01-4910-af58-47d9a595bbc1","ios":"levelo://app?vid=5bad94cc-7f01-4910-af58-47d9a595bbc1"},"vehicle_type_id":"4","last_reported":1746061074,"current_range_meters":20800,"station_id":"ce4bhjp2rcd13ifvqga0","pricing_plan_id":"cebpf4jnsgd1na2vs0mg"},{"bike_id":"09a3b433-1f5e-40ad-804f-6ea86249597d","system_id":"levelo_inurba_marseille","lat":43.23151,"lon":5.43713,"is_reserved":false,"is_disabled":false,"rental_uris":{"android":"levelo://app?vid=09a3b433-1f5e-40ad-804f-6ea86249597d","ios":"levelo://app?vid=09a3b433-1f5e-40ad-804f-6ea86249597d"},"vehicle_type_id":"4","last_reported":1746061074,"current_range_meters":20800,"station_id":"ce4bhmp2rcd13ifvqgog","pricing_plan_id":"cebpf4jnsgd1na2vs0mg"},{"bike_id":"f876a209-bbb5-40e1-b60f-d8e290b188b9","system_id":"levelo_inurba_marseille","lat":43.28692,"lon":5.39986,"is_reserved":false,"is_disabled":false,"rental_uris":{"android":"levelo://app?vid=f876a209-bbb5-40e1-b60f-d8e290b188b9","ios":"levelo://app?vid=f876a209-bbb5-40e1-b60f-d8e290b188b9"},"vehicle_type_id":"4","last_reported":1746061074,"current_range_meters":20800,"station_id":"ce4bho92rcd13ifvqh3g","pricing_plan_id":"cebpf4jnsgd1na2vs0mg"},{"bike_id":"a0b767f6-6270-4d49-b0d6-4b7a5a1d4a31","system_id":"levelo_inurba_marseille","lat":43.32067,"lon":5.41522,"is_reserved":false,"is_disabled":false,"rental_uris":{"android":"levelo://app?vid=a0b767f6-6270-4d49-b0d6-4b7a5a1d4a31","ios":"levelo://app?vid=a0b767f6-6270-4d49-b0d6-4b7a5a1d4a31"},"vehicle_type_id":"4","last_reported":1746061074,"current_range_meters":20800,"station_id":"ce4bhq92rcd13ifvqhkg","pricing_plan_id":"cebpf4jnsgd1na2vs0mg"},{"bike_id":"2b633bb9-83a5-4d1e-8e12-e220dd22e2c0","system_id":"levelo_inurba_marseille","lat":43.32489,"lon":5.36556,"is_reserved":false,"is_disabled":false,"rental_uris":{"android":"levelo://app?vid=2b633bb9-83a5-4d1e-8e12-e220dd22e2c0","ios":"levelo://app?vid=2b633bb9-83a5-4d1e-8e12-e220dd22e2c0"},"vehicle_type_id":"4","last_reported":1746061074,"current_range_meters":20800,"station_id":"ce4bhs12rcd13ifvqhvg","pricing_plan_id":"cebpf4jnsgd1na2vs0mg"},{"bike_id":"7dce1096-efd4-482f-8df0-7f3bd0068aa3","system_id":"levelo_inurba_marseille","lat":43.26204,"lon":5.37929,"is_reserved":false,"is_disabled":false,"rental_uris":{"android":"levelo://app?vid=7dce1096-efd4-482f-8df0-7f3bd0068aa3","ios":"levelo://app?vid=7dce1096-efd4-482f-8df0-7f3bd0068aa3"},"vehicle_type_id":"4","last_reported":1746061074,"current_range_meters":21600,"station_id":"ce4bhjp2rcd13ifvqg90","pricing_plan_id":"cebpf4jnsgd1na2vs0mg"},{"bike_id":"58f91dac-5370-4fb5-96d5-a180bb430d53","system_id":"levelo_inurba_marseille","lat":43.29964,"lon":5.37972,"is_reserved":false,"is_disabled":false,"rental_uris":{"android":"levelo://app?vid=58f91dac-5370-4fb5-96d5-a180bb430d53","ios":"levelo://app?vid=58f91dac-5370-4fb5-96d5-a180bb430d53"},"vehicle_type_id":"4","last_reported":1746061074,"current_range_meters":22000,"station_id":"","pricing_plan_id":"cebpf4jnsgd1na2vs0mg"},{"bike_id":"1f303245-4981-4fbe-b75a-6373e04d2d5a","system_id":"levelo_inurba_marseille","lat":43.251126,"lon":5.403266,"is_reserved":false,"is_disabled":false,"rental_uris":{"android":"levelo://app?vid=1f303245-4981-4fbe-b75a-6373e04d2d5a","ios":"levelo://app?vid=1f303245-4981-4fbe-b75a-6373e04d2d5a"},"vehicle_type_id":"4","last_reported":1746061074,"current_range_meters":22000,"station_id":"ce4bhlh2rcd13ifvqgig","pricing_plan_id":"cebpf4jnsgd1na2vs0mg"},{"bike_id":"61a7a426-425b-4b4e-b7c8-27c7f5f9ce21","system_id":"levelo_inurba_marseille","lat":43.25099,"lon":5.40334,"is_reserved":false,"is_disabled":false,"rental_uris":{"android":"levelo://app?vid=61a7a426-425b-4b4e-b7c8-27c7f5f9ce21","ios":"levelo://app?vid=61a7a426-425b-4b4e-b7c8-27c7f5f9ce21"},"vehicle_type_id":"4","last_reported":1746061074,"current_range_meters":22000,"station_id":"ce4bhlh2rcd13ifvqgig","pricing_plan_id":"cebpf4jnsgd1na2vs0mg"},{"bike_id":"cd9bc675-4986-42fa-889e-1cea4de6cc6d","system_id":"levelo_inurba_marseille","lat":43.25107,"lon":5.40324,"is_reserved":false,"is_disabled":false,"rental_uris":{"android":"levelo://app?vid=cd9bc675-4986-42fa-889e-1cea4de6cc6d","ios":"levelo://app?vid=cd9bc675-4986-42fa-889e-1cea4de6cc6d"},"vehicle_type_id":"4","last_reported":1746061074,"current_range_meters":22000,"station_id":"ce4bhlh2rcd13ifvqgig","pricing_plan_id":"cebpf4jnsgd1na2vs0mg"},{"bike_id":"6a1c9076-aa06-4a25-bf7a-ada2c16a3752","system_id":"levelo_inurba_marseille","lat":43.27807,"lon":5.40727,"is_reserved":false,"is_disabled":false,"rental_uris":{"android":"levelo://app?vid=6a1c9076-aa06-4a25-bf7a-ada2c16a3752","ios":"levelo://app?vid=6a1c9076-aa06-4a25-bf7a-ada2c16a3752"},"vehicle_type_id":"4","last_reported":1746061074,"current_range_meters":22000,"station_id":"ce4bhnh2rcd13ifvqgtg","pricing_plan_id":"cebpf4jnsgd1na2vs0mg"},{"bike_id":"5f71e58b-de06-45fb-a2f8-f023a7501213","system_id":"levelo_inurba_marseille","lat":43.31759,"lon":5.39,"is_reserved":false,"is_disabled":false,"rental_uris":{"android":"levelo://app?vid=5f71e58b-de06-45fb-a2f8-f023a7501213","ios":"levelo://app?vid=5f71e58b-de06-45fb-a2f8-f023a7501213"},"vehicle_type_id":"4","last_reported":1746061074,"current_range_meters":22000,"station_id":"ce4bhqp2rcd13ifvqhng","pricing_plan_id":"cebpf4jnsgd1na2vs0mg"},{"bike_id":"e3372a84-905e-41b7-8d08-6c20dbc398ae","system_id":"levelo_inurba_marseille","lat":43.32487,"lon":5.36562,"is_reserved":false,"is_disabled":false,"rental_uris":{"android":"levelo://app?vid=e3372a84-905e-41b7-8d08-6c20dbc398ae","ios":"levelo://app?vid=e3372a84-905e-41b7-8d08-6c20dbc398ae"},"vehicle_type_id":"4","last_reported":1746061074,"current_range_meters":22000,"station_id":"ce4bhs12rcd13ifvqhvg","pricing_plan_id":"cebpf4jnsgd1na2vs0mg"},{"bike_id":"03652289-10b3-473e-a7c8-9213f8ab621a","system_id":"levelo_inurba_marseille","lat":43.32955,"lon":5.43771,"is_reserved":false,"is_disabled":false,"rental_uris":{"android":"levelo://app?vid=03652289-10b3-473e-a7c8-9213f8ab621a","ios":"levelo://app?vid=03652289-10b3-473e-a7c8-9213f8ab621a"},"vehicle_type_id":"4","last_reported":1746061074,"current_range_meters":22400,"station_id":"","pricing_plan_id":"cebpf4jnsgd1na2vs0mg"},{"bike_id":"5b3a0059-076b-4bc2-be28-bcd226edba05","system_id":"levelo_inurba_marseille","lat":43.29864,"lon":5.39737,"is_reserved":false,"is_disabled":false,"rental_uris":{"android":"levelo://app?vid=5b3a0059-076b-4bc2-be28-bcd226edba05","ios":"levelo://app?vid=5b3a0059-076b-4bc2-be28-bcd226edba05"},"vehicle_type_id":"4","last_reported":1746061074,"current_range_meters":22400,"station_id":"ce4bh0h2rcd13ifvqd50","pricing_plan_id":"cebpf4jnsgd1na2vs0mg"},{"bike_id":"fd4496d3-f665-4291-bea0-eab9c6c59058","system_id":"levelo_inurba_marseille","lat":43.30624,"lon":5.40075,"is_reserved":false,"is_disabled":false,"rental_uris":{"android":"levelo://app?vid=fd4496d3-f665-4291-bea0-eab9c6c59058","ios":"levelo://app?vid=fd4496d3-f665-4291-bea0-eab9c6c59058"},"vehicle_type_id":"4","last_reported":1746061074,"current_range_meters":22400,"station_id":"ce4bh112rcd13ifvqda0","pricing_plan_id":"cebpf4jnsgd1na2vs0mg"},{"bike_id":"354982e5-4a84-4326-82da-06275fa4daf1","system_id":"levelo_inurba_marseille","lat":43.30641,"lon":5.4008,"is_reserved":false,"is_disabled":false,"rental_uris":{"android":"levelo://app?vid=354982e5-4a84-4326-82da-06275fa4daf1","ios":"levelo://app?vid=354982e5-4a84-4326-82da-06275fa4daf1"},"vehicle_type_id":"4","last_reported":1746061074,"current_range_meters":22400,"station_id":"ce4bh112rcd13ifvqda0","pricing_plan_id":"cebpf4jnsgd1na2vs0mg"},{"bike_id":"a0750b35-c3fd-4e73-baf3-d09a038c1fd0","system_id":"levelo_inurba_marseille","lat":43.2468,"lon":5.38144,"is_reserved":false,"is_disabled":false,"rental_uris":{"android":"levelo://app?vid=a0750b35-c3fd-4e73-baf3-d09a038c1fd0","ios":"levelo://app?vid=a0750b35-c3fd-4e73-baf3-d09a038c1fd0"},"vehicle_type_id":"4","last_reported":1746061074,"current_range_meters":22400,"station_id":"ce4bhih2rcd13ifvqfr0","pricing_plan_id":"cebpf4jnsgd1na2vs0mg"},{"bike_id":"c46ea478-39dd-4c32-b490-86de1b4a7507","system_id":"levelo_inurba_marseille","lat":43.28082,"lon":5.39643,"is_reserved":false,"is_disabled":false,"rental_uris":{"android":"levelo://app?vid=c46ea478-39dd-4c32-b490-86de1b4a7507","ios":"levelo://app?vid=c46ea478-39dd-4c32-b490-86de1b4a7507"},"vehicle_type_id":"4","last_reported":1746061074,"current_range_meters":22400,"station_id":"ce4bho12rcd13ifvqh2g","pricing_plan_id":"cebpf4jnsgd1na2vs0mg"},{"bike_id":"3387917c-3e63-4c3b-a6f2-fffb3e617ac2","system_id":"levelo_inurba_marseille","lat":43.30647,"lon":5.40071,"is_reserved":false,"is_disabled":false,"rental_uris":{"android":"levelo://app?vid=3387917c-3e63-4c3b-a6f2-fffb3e617ac2","ios":"levelo://app?vid=3387917c-3e63-4c3b-a6f2-fffb3e617ac2"},"vehicle_type_id":"4","last_reported":1746061074,"current_range_meters":22800,"station_id":"ce4bh112rcd13ifvqda0","pricing_plan_id":"cebpf4jnsgd1na2vs0mg"},{"bike_id":"fe6ff1c0-55f7-495b-9c9a-d925c5f2cccf","system_id":"levelo_inurba_marseille","lat":43.28573,"lon":5.39496,"is_reserved":false,"is_disabled":false,"rental_uris":{"android":"levelo://app?vid=fe6ff1c0-55f7-495b-9c9a-d925c5f2cccf","ios":"levelo://app?vid=fe6ff1c0-55f7-495b-9c9a-d925c5f2cccf"},"vehicle_type_id":"4","last_reported":1746061074,"current_range_meters":22800,"station_id":"ce4bh292rcd13ifvqdg0","pricing_plan_id":"cebpf4jnsgd1na2vs0mg"},{"bike_id":"79abb10c-1130-41dd-949e-ee988c336e88","system_id":"levelo_inurba_marseille","lat":43.24649,"lon":5.38157,"is_reserved":false,"is_disabled":false,"rental_uris":{"android":"levelo://app?vid=79abb10c-1130-41dd-949e-ee988c336e88","ios":"levelo://app?vid=79abb10c-1130-41dd-949e-ee988c336e88"},"vehicle_type_id":"4","last_reported":1746061074,"current_range_meters":22800,"station_id":"ce4bhih2rcd13ifvqfr0","pricing_plan_id":"cebpf4jnsgd1na2vs0mg"},{"bike_id":"fcc5c809-fa93-4fd8-8ce0-dff639b743d0","system_id":"levelo_inurba_marseille","lat":43.32107,"lon":5.36759,"is_reserved":false,"is_disabled":false,"rental_uris":{"android":"levelo://app?vid=fcc5c809-fa93-4fd8-8ce0-dff639b743d0","ios":"levelo://app?vid=fcc5c809-fa93-4fd8-8ce0-dff639b743d0"},"vehicle_type_id":"4","last_reported":1746061074,"current_range_meters":22800,"station_id":"ce4bhrh2rcd13ifvqhug","pricing_plan_id":"cebpf4jnsgd1na2vs0mg"},{"bike_id":"1a745a9d-e745-4884-ac9e-92779a2ebdd2","system_id":"levelo_inurba_marseille","lat":43.304348,"lon":5.388825,"is_reserved":false,"is_disabled":false,"rental_uris":{"android":"levelo://app?vid=1a745a9d-e745-4884-ac9e-92779a2ebdd2","ios":"levelo://app?vid=1a745a9d-e745-4884-ac9e-92779a2ebdd2"},"vehicle_type_id":"4","last_reported":1746061074,"current_range_meters":23200,"station_id":"ce4bgk12rcd13ifvqbi0","pricing_plan_id":"cebpf4jnsgd1na2vs0mg"},{"bike_id":"4fa1945c-8af4-4e44-ba5f-1259f0ee2a7a","system_id":"levelo_inurba_marseille","lat":43.30554,"lon":5.36548,"is_reserved":false,"is_disabled":false,"rental_uris":{"android":"levelo://app?vid=4fa1945c-8af4-4e44-ba5f-1259f0ee2a7a","ios":"levelo://app?vid=4fa1945c-8af4-4e44-ba5f-1259f0ee2a7a"},"vehicle_type_id":"4","last_reported":1746061074,"current_range_meters":23200,"station_id":"ce4bgs12rcd13ifvqcag","pricing_plan_id":"cebpf4jnsgd1na2vs0mg"},{"bike_id":"06efd6e7-baa0-41d2-a620-39797a78c8a4","system_id":"levelo_inurba_marseille","lat":43.306399,"lon":5.400748,"is_reserved":false,"is_disabled":false,"rental_uris":{"android":"levelo://app?vid=06efd6e7-baa0-41d2-a620-39797a78c8a4","ios":"levelo://app?vid=06efd6e7-baa0-41d2-a620-39797a78c8a4"},"vehicle_type_id":"4","last_reported":1746061074,"current_range_meters":23200,"station_id":"ce4bh112rcd13ifvqda0","pricing_plan_id":"cebpf4jnsgd1na2vs0mg"},{"bike_id":"6b2343d5-503e-4815-ac94-f2f60d278ee9","system_id":"levelo_inurba_marseille","lat":43.30083,"lon":5.39034,"is_reserved":false,"is_disabled":false,"rental_uris":{"android":"levelo://app?vid=6b2343d5-503e-4815-ac94-f2f60d278ee9","ios":"levelo://app?vid=6b2343d5-503e-4815-ac94-f2f60d278ee9"},"vehicle_type_id":"4","last_reported":1746061074,"current_range_meters":23200,"station_id":"ce4bh192rcd13ifvqdb0","pricing_plan_id":"cebpf4jnsgd1na2vs0mg"},{"bike_id":"ef464700-ebd1-4391-bf53-7f1109d398fe","system_id":"levelo_inurba_marseille","lat":43.28397,"lon":5.37463,"is_reserved":false,"is_disabled":false,"rental_uris":{"android":"levelo://app?vid=ef464700-ebd1-4391-bf53-7f1109d398fe","ios":"levelo://app?vid=ef464700-ebd1-4391-bf53-7f1109d398fe"},"vehicle_type_id":"4","last_reported":1746061074,"current_range_meters":23200,"station_id":"ce4bh412rcd13ifvqds0","pricing_plan_id":"cebpf4jnsgd1na2vs0mg"},{"bike_id":"5f433ba2-a232-4da8-8380-32ed365b7b00","system_id":"levelo_inurba_marseille","lat":43.25101,"lon":5.40319,"is_reserved":false,"is_disabled":false,"rental_uris":{"android":"levelo://app?vid=5f433ba2-a232-4da8-8380-32ed365b7b00","ios":"levelo://app?vid=5f433ba2-a232-4da8-8380-32ed365b7b00"},"vehicle_type_id":"4","last_reported":1746061074,"current_range_meters":23200,"station_id":"ce4bhlh2rcd13ifvqgig","pricing_plan_id":"cebpf4jnsgd1na2vs0mg"},{"bike_id":"d4865f02-79b4-4f0c-b98c-ff16cf24d10f","system_id":"levelo_inurba_marseille","lat":43.278155,"lon":5.407081,"is_reserved":false,"is_disabled":false,"rental_uris":{"android":"levelo://app?vid=d4865f02-79b4-4f0c-b98c-ff16cf24d10f","ios":"levelo://app?vid=d4865f02-79b4-4f0c-b98c-ff16cf24d10f"},"vehicle_type_id":"4","last_reported":1746061074,"current_range_meters":23200,"station_id":"ce4bhnh2rcd13ifvqgtg","pricing_plan_id":"cebpf4jnsgd1na2vs0mg"},{"bike_id":"a77a411c-83fe-458e-ba23-fa2f45f5eb40","system_id":"levelo_inurba_marseille","lat":43.30208,"lon":5.4373,"is_reserved":false,"is_disabled":false,"rental_uris":{"android":"levelo://app?vid=a77a411c-83fe-458e-ba23-fa2f45f5eb40","ios":"levelo://app?vid=a77a411c-83fe-458e-ba23-fa2f45f5eb40"},"vehicle_type_id":"4","last_reported":1746061074,"current_range_meters":24000,"station_id":"","pricing_plan_id":"cebpf4jnsgd1na2vs0mg"},{"bike_id":"52fa6bd2-d002-4d05-b742-c942eaac1cf8","system_id":"levelo_inurba_marseille","lat":43.30629,"lon":5.4009,"is_reserved":false,"is_disabled":false,"rental_uris":{"android":"levelo://app?vid=52fa6bd2-d002-4d05-b742-c942eaac1cf8","ios":"levelo://app?vid=52fa6bd2-d002-4d05-b742-c942eaac1cf8"},"vehicle_type_id":"4","last_reported":1746061074,"current_range_meters":24000,"station_id":"ce4bh112rcd13ifvqda0","pricing_plan_id":"cebpf4jnsgd1na2vs0mg"},{"bike_id":"43df82c3-864b-4db5-9100-f13d2a283498","system_id":"levelo_inurba_marseille","lat":43.29271,"lon":5.40113,"is_reserved":false,"is_disabled":false,"rental_uris":{"android":"levelo://app?vid=43df82c3-864b-4db5-9100-f13d2a283498","ios":"levelo://app?vid=43df82c3-864b-4db5-9100-f13d2a283498"},"vehicle_type_id":"4","last_reported":1746061074,"current_range_meters":24000,"station_id":"ce4bh312rcd13ifvqdk0","pricing_plan_id":"cebpf4jnsgd1na2vs0mg"},{"bike_id":"e2c8ac7c-b7b3-40f0-9ae0-59b40ad54180","system_id":"levelo_inurba_marseille","lat":43.284179,"lon":5.375149,"is_reserved":false,"is_disabled":false,"rental_uris":{"android":"levelo://app?vid=e2c8ac7c-b7b3-40f0-9ae0-59b40ad54180","ios":"levelo://app?vid=e2c8ac7c-b7b3-40f0-9ae0-59b40ad54180"},"vehicle_type_id":"4","last_reported":1746061074,"current_range_meters":24000,"station_id":"ce4bh412rcd13ifvqds0","pricing_plan_id":"cebpf4jnsgd1na2vs0mg"},{"bike_id":"b54499c4-23c6-4daf-b341-1f375f963ef4","system_id":"levelo_inurba_marseille","lat":43.287311,"lon":5.360739,"is_reserved":false,"is_disabled":false,"rental_uris":{"android":"levelo://app?vid=b54499c4-23c6-4daf-b341-1f375f963ef4","ios":"levelo://app?vid=b54499c4-23c6-4daf-b341-1f375f963ef4"},"vehicle_type_id":"4","last_reported":1746061074,"current_range_meters":24000,"station_id":"cki0cbj6b192h4jlfktg","pricing_plan_id":"cebpf4jnsgd1na2vs0mg"},{"bike_id":"72844d16-7443-4423-9c77-f1efa36a155d","system_id":"levelo_inurba_marseille","lat":43.30129,"lon":5.39872,"is_reserved":false,"is_disabled":false,"rental_uris":{"android":"levelo://app?vid=72844d16-7443-4423-9c77-f1efa36a155d","ios":"levelo://app?vid=72844d16-7443-4423-9c77-f1efa36a155d"},"vehicle_type_id":"4","last_reported":1746061074,"current_range_meters":24400,"station_id":"ce4bh0h2rcd13ifvqd40","pricing_plan_id":"cebpf4jnsgd1na2vs0mg"},