{"last_updated":1745644167,"ttl":60,"version":"2.2","data":{"bikes":[{"bike_id":"d9dfdbb7-3b56-4404-977a-51c336ac30b5","system_id":"levelo_inurba_marseille","lat":43.21182,"lon":5.350898,"is_reserved":false,"is_disabled":false,"rental_uris":{"android":"levelo://app?vid=d9dfdbb7-3b56-4404-977a-51c336ac30b5","ios":"levelo://app?vid=d9dfdbb7-3b56-4404-977a-51c336ac30b5"},"vehicle_type_id":"4","last_reported":1745644168,"current_range_meters":3200,"station_id":"st_cvj6sg6p6f1abm77japg","pricing_plan_id":"cebpf4jnsgd1na2vs0mg"},{"bike_id":"9cbca805-6d2f-49a5-b845-b197d9ca7170","system_id":"levelo_inurba_marseille","lat":43.25084,"lon":5.39495,"is_reserved":false,"is_disabled":false,"rental_uris":{"android":"levelo://app?vid=9cbca805-6d2f-49a5-b845-b197d9ca7170","ios":"levelo://app?vid=9cbca805-6d2f-49a5-b845-b197d9ca7170"},"vehicle_type_id":"4","last_reported":1745644168,"current_range_meters":3200,"station_id":"ce4bhm12rcd13ifvqgkg","pricing_plan_id":"cebpf4jnsgd1na2vs0mg"},{"bike_id":"8aff0d73-1664-47c7-8bf8-658126236a83","system_id":"levelo_inurba_marseille","lat":43.31278,"lon":5.4017,"is_reserved":false,"is_disabled":false,"rental_uris":{"android":"levelo://app?vid=8aff0d73-1664-47c7-8bf8-658126236a83","ios":"levelo://app?vid=8aff0d73-1664-47c7-8bf8-658126236a83"},"vehicle_type_id":"4","last_reported":1745644168,"current_range_meters":3200,"station_id":"ce4bh092rcd13ifvqd30","pricing_plan_id":"cebpf4jnsgd1na2vs0mg"},{"bike_id":"306a58c0-053c-4a47-8c40-1c362463c26f","system_id":"levelo_inurba_marseille","lat":43.31009,"lon":5.37114,"is_reserved":false,"is_disabled":false,"rental_uris":{"android":"levelo://app?vid=306a58c0-053c-4a47-8c40-1c362463c26f","ios":"levelo://app?vid=306a58c0-053c-4a47-8c40-1c362463c26f"},"vehicle_type_id":"4","last_reported":1745644168,"current_range_meters":3200,"station_id":"","pricing_plan_id":"cebpf4jnsgd1na2vs0mg"},{"bike_id":"e725be89-03eb-4efa-abd9-401ea99c5e6d","system_id":"levelo_inurba_marseille","lat":43.30891,"lon":5.37865,"is_reserved":false,"is_disabled":false,"rental_uris":{"android":"levelo://app?vid=e725be89-03eb-4efa-abd9-401ea99c5e6d","ios":"levelo://app?vid=e725be89-03eb-4efa-abd9-401ea99c5e6d"},"vehicle_type_id":"4","last_reported":1745644168,"current_range_meters":3200,"station_id":"","pricing_plan_id":"cebpf4jnsgd1na2vs0mg"},{"bike_id":"f425d9cb-80e9-4b0a-9761-f26fba5018c2","system_id":"levelo_inurba_marseille","lat":43.28714,"lon":5.39989,"is_reserved":false,"is_disabled":true,"rental_uris":{"android":"levelo://app?vid=f425d9cb-80e9-4b0a-9761-f26fba5018c2","ios":"levelo://app?vid=f425d9cb-80e9-4b0a-9761-f26fba5018c2"},"vehicle_type_id":"4","last_reported":1745644168,"current_range_meters":3200,"station_id":"ce4bho92rcd13ifvqh3g","pricing_plan_id":"cebpf4jnsgd1na2vs0mg"},{"bike_id":"52cb41a7-5096-4f42-a09a-abce4785d5e2","system_id":"levelo_inurba_marseille","lat":43.270605,"lon":5.42283,"is_reserved":false,"is_disabled":true,"rental_uris":{"android":"levelo://app?vid=52cb41a7-5096-4f42-a09a-abce4785d5e2","ios":"levelo://app?vid=52cb41a7-5096-4f42-a09a-abce4785d5e2"},"vehicle_type_id":"4","last_reported":1745644168,"current_range_meters":3600,"station_id":"ce4bhk92rcd13ifvqgb0","pricing_plan_id":"cebpf4jnsgd1na2vs0mg"},{"bike_id":"4c01d444-b716-4ab0-b018-ed04d14884f0","system_id":"levelo_inurba_marseille","lat":43.28475,"lon":5.3918,"is_reserved":false,"is_disabled":false,"rental_uris":{"android":"levelo://app?vid=4c01d444-b716-4ab0-b018-ed04d14884f0","ios":"levelo://app?vid=4c01d444-b716-4ab0-b018-ed04d14884f0"},"vehicle_type_id":"4","last_reported":1745644168,"current_range_meters":3600,"station_id":"ce4bhoh2rcd13ifvqh5g","pricing_plan_id":"cebpf4jnsgd1na2vs0mg"},{"bike_id":"46374c49-3adc-4c5a-8966-e00f056c0d57","system_id":"levelo_inurba_marseille","lat":43.27846,"lon":5.35442,"is_reserved":false,"is_disabled":false,"rental_uris":{"android":"levelo://app?vid=46374c49-3adc-4c5a-8966-e00f056c0d57","ios":"levelo://app?vid=46374c49-3adc-4c5a-8966-e00f056c0d57"},"vehicle_type_id":"4","last_reported":1745644168,"current_range_meters":4000,"station_id":"","pricing_plan_id":"cebpf4jnsgd1na2vs0mg"},{"bike_id":"261ed139-77cc-4e31-8526-09806692c5d3","system_id":"levelo_inurba_marseille","lat":43.314851,"lon":5.372994,"is_reserved":false,"is_disabled":false,"rental_uris":{"android":"levelo://app?vid=261ed139-77cc-4e31-8526-09806692c5d3","ios":"levelo://app?vid=261ed139-77cc-4e31-8526-09806692c5d3"},"vehicle_type_id":"4","last_reported":1745644168,"current_range_meters":4000,"station_id":"ce4bgt12rcd13ifvqcd0","pricing_plan_id":"cebpf4jnsgd1na2vs0mg"},{"bike_id":"ecdd0875-7d56-4cd2-a14a-671f78e26c97","system_id":"levelo_inurba_marseille","lat":43.23058,"lon":5.35496,"is_reserved":false,"is_disabled":false,"rental_uris":{"android":"levelo://app?vid=ecdd0875-7d56-4cd2-a14a-671f78e26c97","ios":"levelo://app?vid=ecdd0875-7d56-4cd2-a14a-671f78e26c97"},"vehicle_type_id":"4","last_reported":1745644168,"current_range_meters":4800,"station_id":"cpo3342slgdg3j2ifvpg","pricing_plan_id":"cebpf4jnsgd1na2vs0mg"},{"bike_id":"4048cd80-fd11-4a5d-b8a3-dd5f1ee7bfed","system_id":"levelo_inurba_marseille","lat":43.29255,"lon":5.37614,"is_reserved":false,"is_disabled":false,"rental_uris":{"android":"levelo://app?vid=4048cd80-fd11-4a5d-b8a3-dd5f1ee7bfed","ios":"levelo://app?vid=4048cd80-fd11-4a5d-b8a3-dd5f1ee7bfed"},"vehicle_type_id":"4","last_reported":1745644168,"current_range_meters":4800,"station_id":"ce4bgi12rcd13ifvqb80","pricing_plan_id":"cebpf4jnsgd1na2vs0mg"},{"bike_id":"5f240488-f079-48bb-b3e5-991e17088017","system_id":"levelo_inurba_marseille","lat":43.32279,"lon":5.38269,"is_reserved":false,"is_disabled":false,"rental_uris":{"android":"levelo://app?vid=5f240488-f079-48bb-b3e5-991e17088017","ios":"levelo://app?vid=5f240488-f079-48bb-b3e5-991e17088017"},"vehicle_type_id":"4","last_reported":1745644168,"current_range_meters":4800,"station_id":"ce4bhr12rcd13ifvqhqg","pricing_plan_id":"cebpf4jnsgd1na2vs0mg"},{"bike_id":"3767ba54-0ee2-464a-8805-d28bad95405b","system_id":"levelo_inurba_marseille","lat":43.259421,"lon":5.375455,"is_reserved":false,"is_disabled":false,"rental_uris":{"android":"levelo://app?vid=3767ba54-0ee2-464a-8805-d28bad95405b","ios":"levelo://app?vid=3767ba54-0ee2-464a-8805-d28bad95405b"},"vehicle_type_id":"4","last_reported":1745644168,"current_range_meters":4800,"station_id":"","pricing_plan_id":"cebpf4jnsgd1na2vs0mg"},{"bike_id":"4bf0cade-afa0-4731-b40e-ef3f8f4a4fe5","system_id":"levelo_inurba_marseille","lat":43.30108,"lon":5.391,"is_reserved":false,"is_disabled":true,"rental_uris":{"android":"levelo://app?vid=4bf0cade-afa0-4731-b40e-ef3f8f4a4fe5","ios":"levelo://app?vid=4bf0cade-afa0-4731-b40e-ef3f8f4a4fe5"},"vehicle_type_id":"4","last_reported":1745644168,"current_range_meters":5600,"station_id":"ce4bh192rcd13ifvqdb0","pricing_plan_id":"cebpf4jnsgd1na2vs0mg"},{"bike_id":"e615b763-b9b6-4cb5-a1c0-003a03d00de1","system_id":"levelo_inurba_marseille","lat":43.29691,"lon":5.40815,"is_reserved":false,"is_disabled":false,"rental_uris":{"android":"levelo://app?vid=e615b763-b9b6-4cb5-a1c0-003a03d00de1","ios":"levelo://app?vid=e615b763-b9b6-4cb5-a1c0-003a03d00de1"},"vehicle_type_id":"4","last_reported":1745644168,"current_range_meters":5600,"station_id":"","pricing_plan_id":"cebpf4jnsgd1na2vs0mg"},{"bike_id":"6fd16804-64a9-4229-b572-74cb7886cde6","system_id":"levelo_inurba_marseille","lat":43.301308,"lon":5.398805,"is_reserved":false,"is_disabled":false,"rental_uris":{"android":"levelo://app?vid=6fd16804-64a9-4229-b572-74cb7886cde6","ios":"levelo://app?vid=6fd16804-64a9-4229-b572-74cb7886cde6"},"vehicle_type_id":"4","last_reported":1745644168,"current_range_meters":6000,"station_id":"ce4bh0h2rcd13ifvqd40","pricing_plan_id":"cebpf4jnsgd1na2vs0mg"},{"bike_id":"21be78b8-099e-43dd-902f-492f38ea3391","system_id":"levelo_inurba_marseille","lat":43.30463,"lon":5.3791,"is_reserved":false,"is_disabled":false,"rental_uris":{"android":"levelo://app?vid=21be78b8-099e-43dd-902f-492f38ea3391","ios":"levelo://app?vid=21be78b8-099e-43dd-902f-492f38ea3391"},"vehicle_type_id":"4","last_reported":1745644168,"current_range_meters":6000,"station_id":"ce4bgup2rcd13ifvqcn0","pricing_plan_id":"cebpf4jnsgd1na2vs0mg"},{"bike_id":"1079c254-2598-4178-bcad-9f660c87e9b1","system_id":"levelo_inurba_marseille","lat":43.31263,"lon":5.40174,"is_reserved":false,"is_disabled":false,"rental_uris":{"android":"levelo://app?vid=1079c254-2598-4178-bcad-9f660c87e9b1","ios":"levelo://app?vid=1079c254-2598-4178-bcad-9f660c87e9b1"},"vehicle_type_id":"4","last_reported":1745644168,"current_range_meters":6000,"station_id":"ce4bh092rcd13ifvqd30","pricing_plan_id":"cebpf4jnsgd1na2vs0mg"},{"bike_id":"ab49b0ae-90ee-4214-bbd8-e0867a6763e8","system_id":"levelo_inurba_marseille","lat":43.31255,"lon":5.37167,"is_reserved":false,"is_disabled":true,"rental_uris":{"android":"levelo://app?vid=ab49b0ae-90ee-4214-bbd8-e0867a6763e8","ios":"levelo://app?vid=ab49b0ae-90ee-4214-bbd8-e0867a6763e8"},"vehicle_type_id":"4","last_reported":1745644168,"current_range_meters":6000,"station_id":"","pricing_plan_id":"cebpf4jnsgd1na2vs0mg"},{"bike_id":"f1a9f5db-d774-4f36-a0be-69b289d14fd1","system_id":"levelo_inurba_marseille","lat":43.21198,"lon":5.35099,"is_reserved":false,"is_disabled":false,"rental_uris":{"android":"levelo://app?vid=f1a9f5db-d774-4f36-a0be-69b289d14fd1","ios":"levelo://app?vid=f1a9f5db-d774-4f36-a0be-69b289d14fd1"},"vehicle_type_id":"4","last_reported":1745644168,"current_range_meters":6000,"station_id":"st_cvj6sg6p6f1abm77japg","pricing_plan_id":"cebpf4jnsgd1na2vs0mg"},{"bike_id":"a4f241e0-aaac-4872-a16e-4e04a72ff58c","system_id":"levelo_inurba_marseille","lat":43.239655,"lon":5.366325,"is_reserved":false,"is_disabled":false,"rental_uris":{"android":"levelo://app?vid=a4f241e0-aaac-4872-a16e-4e04a72ff58c","ios":"levelo://app?vid=a4f241e0-aaac-4872-a16e-4e04a72ff58c"},"vehicle_type_id":"4","last_reported":1745644168,"current_range_meters":6000,"station_id":"ce4bhi12rcd13ifvqfp0","pricing_plan_id":"cebpf4jnsgd1na2vs0mg"},{"bike_id":"be33e066-23f3-4143-8e1c-3a816f88226b","system_id":"levelo_inurba_marseille","lat":43.30293,"lon":5.39962,"is_reserved":false,"is_disabled":false,"rental_uris":{"android":"levelo://app?vid=be33e066-23f3-4143-8e1c-3a816f88226b","ios":"levelo://app?vid=be33e066-23f3-4143-8e1c-3a816f88226b"},"vehicle_type_id":"4","last_reported":1745644168,"current_range_meters":6000,"station_id":"","pricing_plan_id":"cebpf4jnsgd1na2vs0mg"},{"bike_id":"3021320f-2b33-47b5-898c-0f81b476ebae","system_id":"levelo_inurba_marseille","lat":43.303192,"lon":5.404407,"is_reserved":false,"is_disabled":false,"rental_uris":{"android":"levelo://app?vid=3021320f-2b33-47b5-898c-0f81b476ebae","ios":"levelo://app?vid=3021320f-2b33-47b5-898c-0f81b476ebae"},"vehicle_type_id":"4","last_reported":1745644168,"current_range_meters":6000,"station_id":"ce4bh012rcd13ifvqd10","pricing_plan_id":"cebpf4jnsgd1na2vs0mg"},{"bike_id":"c1867ca0-c51f-42b3-9d89-09768167f5b7","system_id":"levelo_inurba_marseille","lat":43.25128,"lon":5.40338,"is_reserved":false,"is_disabled":false,"rental_uris":{"android":"levelo://app?vid=c1867ca0-c51f-42b3-9d89-09768167f5b7","ios":"levelo://app?vid=c1867ca0-c51f-42b3-9d89-09768167f5b7"},"vehicle_type_id":"4","last_reported":1745644168,"current_range_meters":6400,"station_id":"ce4bhlh2rcd13ifvqgig","pricing_plan_id":"cebpf4jnsgd1na2vs0mg"},{"bike_id":"474aaf0c-f9fa-4636-8e33-aa7d8955a270","system_id":"levelo_inurba_marseille","lat":43.251072,"lon":5.403246,"is_reserved":false,"is_disabled":false,"rental_uris":{"android":"levelo://app?vid=474aaf0c-f9fa-4636-8e33-aa7d8955a270","ios":"levelo://app?vid=474aaf0c-f9fa-4636-8e33-aa7d8955a270"},"vehicle_type_id":"4","last_reported":1745644168,"current_range_meters":6400,"station_id":"ce4bhlh2rcd13ifvqgig","pricing_plan_id":"cebpf4jnsgd1na2vs0mg"},{"bike_id":"c1ccd199-3bfe-4293-a4cb-6829c97c125f","system_id":"levelo_inurba_marseille","lat":43.32415,"lon":5.39097,"is_reserved":false,"is_disabled":true,"rental_uris":{"android":"levelo://app?vid=c1ccd199-3bfe-4293-a4cb-6829c97c125f","ios":"levelo://app?vid=c1ccd199-3bfe-4293-a4cb-6829c97c125f"},"vehicle_type_id":"4","last_reported":1745644168,"current_range_meters":6400,"station_id":"","pricing_plan_id":"cebpf4jnsgd1na2vs0mg"},{"bike_id":"d39e40ae-54e2-4e15-a675-2f5caa803c89","system_id":"levelo_inurba_marseille","lat":43.282619,"lon":5.350689,"is_reserved":false,"is_disabled":false,"rental_uris":{"android":"levelo://app?vid=d39e40ae-54e2-4e15-a675-2f5caa803c89","ios":"levelo://app?vid=d39e40ae-54e2-4e15-a675-2f5caa803c89"},"vehicle_type_id":"4","last_reported":1745644168,"current_range_meters":6400,"station_id":"ce4bhbp2rcd13ifvqerg","pricing_plan_id":"cebpf4jnsgd1na2vs0mg"},{"bike_id":"e9ab448f-ff65-4aac-a5a6-febcb20f7369","system_id":"levelo_inurba_marseille","lat":43.27066,"lon":5.42271,"is_reserved":false,"is_disabled":false,"rental_uris":{"android":"levelo://app?vid=e9ab448f-ff65-4aac-a5a6-febcb20f7369","ios":"levelo://app?vid=e9ab448f-ff65-4aac-a5a6-febcb20f7369"},"vehicle_type_id":"4","last_reported":1745644168,"current_range_meters":6400,"station_id":"ce4bhk92rcd13ifvqgb0","pricing_plan_id":"cebpf4jnsgd1na2vs0mg"},{"bike_id":"9896ad9c-4ced-4d17-8f43-56cf674ad5d2","system_id":"levelo_inurba_marseille","lat":43.27959,"lon":5.387354,"is_reserved":false,"is_disabled":false,"rental_uris":{"android":"levelo://app?vid=9896ad9c-4ced-4d17-8f43-56cf674ad5d2","ios":"levelo://app?vid=9896ad9c-4ced-4d17-8f43-56cf674ad5d2"},"vehicle_type_id":"4","last_reported":1745644168,"current_range_meters":6800,"station_id":"ce4bhg12rcd13ifvqf80","pricing_plan_id":"cebpf4jnsgd1na2vs0mg"},{"bike_id":"185ea38f-9f5e-4f80-9a28-ea11ae3260c6","system_id":"levelo_inurba_marseille","lat":43.306359,"lon":5.400718,"is_reserved":false,"is_disabled":false,"rental_uris":{"android":"levelo://app?vid=185ea38f-9f5e-4f80-9a28-ea11ae3260c6","ios":"levelo://app?vid=185ea38f-9f5e-4f80-9a28-ea11ae3260c6"},"vehicle_type_id":"4","last_reported":1745644168,"current_range_meters":6800,"station_id":"ce4bh112rcd13ifvqda0","pricing_plan_id":"cebpf4jnsgd1na2vs0mg"},{"bike_id":"e34f328c-a9b2-4484-b302-58552f89a3c4","system_id":"levelo_inurba_marseille","lat":43.31492,"lon":5.37284,"is_reserved":false,"is_disabled":false,"rental_uris":{"android":"levelo://app?vid=e34f328c-a9b2-4484-b302-58552f89a3c4","ios":"levelo://app?vid=e34f328c-a9b2-4484-b302-58552f89a3c4"},"vehicle_type_id":"4","last_reported":1745644168,"current_range_meters":6800,"station_id":"ce4bgt12rcd13ifvqcd0","pricing_plan_id":"cebpf4jnsgd1na2vs0mg"},{"bike_id":"2ca87a11-564f-4d02-9bbe-38f647a02125","system_id":"levelo_inurba_marseille","lat":43.31333,"lon":5.39709,"is_reserved":false,"is_disabled":true,"rental_uris":{"android":"levelo://app?vid=2ca87a11-564f-4d02-9bbe-38f647a02125","ios":"levelo://app?vid=2ca87a11-564f-4d02-9bbe-38f647a02125"},"vehicle_type_id":"4","last_reported":1745644168,"current_range_meters":6800,"station_id":"ce4bgvp2rcd13ifvqcu0","pricing_plan_id":"cebpf4jnsgd1na2vs0mg"},{"bike_id":"5171d484-221f-4678-b7fd-b5c4e0dca27b","system_id":"levelo_inurba_marseille","lat":43.27049,"lon":5.40269,"is_reserved":false,"is_disabled":false,"rental_uris":{"android":"levelo://app?vid=5171d484-221f-4678-b7fd-b5c4e0dca27b","ios":"levelo://app?vid=5171d484-221f-4678-b7fd-b5c4e0dca27b"},"vehicle_type_id":"4","last_reported":1745644168,"current_range_meters":6800,"station_id":"ce4bhk92rcd13ifvqgc0","pricing_plan_id":"cebpf4jnsgd1na2vs0mg"},{"bike_id":"a3b200f4-5746-46ec-a71b-7de246dcb8a2","system_id":"levelo_inurba_marseille","lat":43.31176,"lon":5.38675,"is_reserved":false,"is_disabled":false,"rental_uris":{"android":"levelo://app?vid=a3b200f4-5746-46ec-a71b-7de246dcb8a2","ios":"levelo://app?vid=a3b200f4-5746-46ec-a71b-7de246dcb8a2"},"vehicle_type_id":"4","last_reported":1745644168,"current_range_meters":6800,"station_id":"ce4bgv12rcd13ifvqcp0","pricing_plan_id":"cebpf4jnsgd1na2vs0mg"},{"bike_id":"1746265e-27ad-4913-8a06-b6dc5372d844","system_id":"levelo_inurba_marseille","lat":43.25998,"lon":5.37504,"is_reserved":false,"is_disabled":false,"rental_uris":{"android":"levelo://app?vid=1746265e-27ad-4913-8a06-b6dc5372d844","ios":"levelo://app?vid=1746265e-27ad-4913-8a06-b6dc5372d844"},"vehicle_type_id":"4","last_reported":1745644168,"current_range_meters":7200,"station_id":"ce4bhgh2rcd13ifvqfa0","pricing_plan_id":"cebpf4jnsgd1na2vs0mg"},{"bike_id":"3801de3f-1722-4ac3-951d-b4b27bd0395c","system_id":"levelo_inurba_marseille","lat":43.34044,"lon":5.37496,"is_reserved":false,"is_disabled":false,"rental_uris":{"android":"levelo://app?vid=3801de3f-1722-4ac3-951d-b4b27bd0395c","ios":"levelo://app?vid=3801de3f-1722-4ac3-951d-b4b27bd0395c"},"vehicle_type_id":"4","last_reported":1745644168,"current_range_meters":7200,"station_id":"","pricing_plan_id":"cebpf4jnsgd1na2vs0mg"},{"bike_id":"228b6590-42c7-46eb-ab0f-678013f0a9d1","system_id":"levelo_inurba_marseille","lat":43.24796,"lon":5.37482,"is_reserved":false,"is_disabled":true,"rental_uris":{"android":"levelo://app?vid=228b6590-42c7-46eb-ab0f-678013f0a9d1","ios":"levelo://app?vid=228b6590-42c7-46eb-ab0f-678013f0a9d1"},"vehicle_type_id":"4","last_reported":1745644168,"current_range_meters":7200,"station_id":"ce4bhgh2rcd13ifvqfb0","pricing_plan_id":"cebpf4jnsgd1na2vs0mg"},{"bike_id":"f53ca2be-5e14-4232-a442-dc2e98de0bb7","system_id":"levelo_inurba_marseille","lat":43.27352,"lon":5.39119,"is_reserved":false,"is_disabled":true,"rental_uris":{"android":"levelo://app?vid=f53ca2be-5e14-4232-a442-dc2e98de0bb7","ios":"levelo://app?vid=f53ca2be-5e14-4232-a442-dc2e98de0bb7"},"vehicle_type_id":"4","last_reported":1745644168,"current_range_meters":7200,"station_id":"","pricing_plan_id":"cebpf4jnsgd1na2vs0mg"},{"bike_id":"a00b4d75-fa25-46e7-a621-8739f4f8bd79","system_id":"levelo_inurba_marseille","lat":43.284164,"lon":5.37579,"is_reserved":false,"is_disabled":false,"rental_uris":{"android":"levelo://app?vid=a00b4d75-fa25-46e7-a621-8739f4f8bd79","ios":"levelo://app?vid=a00b4d75-fa25-46e7-a621-8739f4f8bd79"},"vehicle_type_id":"4","last_reported":1745644168,"current_range_meters":7200,"station_id":"","pricing_plan_id":"cebpf4jnsgd1na2vs0mg"},{"bike_id":"a5826db2-d709-4fbc-b54d-38f43824cce2","system_id":"levelo_inurba_marseille","lat":43.28013,"lon":5.35633,"is_reserved":false,"is_disabled":false,"rental_uris":{"android":"levelo://app?vid=a5826db2-d709-4fbc-b54d-38f43824cce2","ios":"levelo://app?vid=a5826db2-d709-4fbc-b54d-38f43824cce2"},"vehicle_type_id":"4","last_reported":1745644168,"current_range_meters":8000,"station_id":"","pricing_plan_id":"cebpf4jnsgd1na2vs0mg"},{"bike_id":"5331df3e-477f-4c99-8e8b-ec43d72ee232","system_id":"levelo_inurba_marseille","lat":43.2416,"lon":5.39728,"is_reserved":false,"is_disabled":false,"rental_uris":{"android":"levelo://app?vid=5331df3e-477f-4c99-8e8b-ec43d72ee232","ios":"levelo://app?vid=5331df3e-477f-4c99-8e8b-ec43d72ee232"},"vehicle_type_id":"4","last_reported":1745644168,"current_range_meters":8000,"station_id":"ce4bhn12rcd13ifvqgpg","pricing_plan_id":"cebpf4jnsgd1na2vs0mg"},{"bike_id":"2c2e5bcc-b9ff-41a6-be9a-7733528f3bfa","system_id":"levelo_inurba_marseille","lat":43.27506,"lon":5.42464,"is_reserved":false,"is_disabled":false,"rental_uris":{"android":"levelo://app?vid=2c2e5bcc-b9ff-41a6-be9a-7733528f3bfa","ios":"levelo://app?vid=2c2e5bcc-b9ff-41a6-be9a-7733528f3bfa"},"vehicle_type_id":"4","last_reported":1745644168,"current_range_meters":8000,"station_id":"ce4bhn92rcd13ifvqgrg","pricing_plan_id":"cebpf4jnsgd1na2vs0mg"},{"bike_id":"cc49d7df-7ac8-4737-8445-c197f979bd4d","system_id":"levelo_inurba_marseille","lat":43.288524,"lon":5.35845,"is_reserved":false,"is_disabled":true,"rental_uris":{"android":"levelo://app?vid=cc49d7df-7ac8-4737-8445-c197f979bd4d","ios":"levelo://app?vid=cc49d7df-7ac8-4737-8445-c197f979bd4d"},"vehicle_type_id":"4","last_reported":1745644168,"current_range_meters":8000,"station_id":"ce4bhb12rcd13ifvqem0","pricing_plan_id":"cebpf4jnsgd1na2vs0mg"},{"bike_id":"3b154790-3924-40d2-8858-c506203b6522","system_id":"levelo_inurba_marseille","lat":43.311211,"lon":5.377713,"is_reserved":false,"is_disabled":false,"rental_uris":{"android":"levelo://app?vid=3b154790-3924-40d2-8858-c506203b6522","ios":"levelo://app?vid=3b154790-3924-40d2-8858-c506203b6522"},"vehicle_type_id":"4","last_reported":1745644168,"current_range_meters":8000,"station_id":"ce4bgt92rcd13ifvqcg0","pricing_plan_id":"cebpf4jnsgd1na2vs0mg"},{"bike_id":"80ca7186-6be3-49d7-98b9-518be2f29b22","system_id":"levelo_inurba_marseille","lat":43.33578,"lon":5.40996,"is_reserved":false,"is_disabled":false,"rental_uris":{"android":"levelo://app?vid=80ca7186-6be3-49d7-98b9-518be2f29b22","ios":"levelo://app?vid=80ca7186-6be3-49d7-98b9-518be2f29b22"},"vehicle_type_id":"4","last_reported":1745644168,"current_range_meters":8000,"station_id":"","pricing_plan_id":"cebpf4jnsgd1na2vs0mg"},{"bike_id":"7410bca4-dc06-4c61-a6c1-1417f60c6640","system_id":"levelo_inurba_marseille","lat":43.3147,"lon":5.37304,"is_reserved":false,"is_disabled":false,"rental_uris":{"android":"levelo://app?vid=7410bca4-dc06-4c61-a6c1-1417f60c6640","ios":"levelo://app?vid=7410bca4-dc06-4c61-a6c1-1417f60c6640"},"vehicle_type_id":"4","last_reported":1745644168,"current_range_meters":8400,"station_id":"ce4bgt12rcd13ifvqcd0","pricing_plan_id":"cebpf4jnsgd1na2vs0mg"},{"bike_id":"8d80dd9a-3fd3-4aa7-9f09-73e99be26d1b","system_id":"levelo_inurba_marseille","lat":43.30784,"lon":5.37655,"is_reserved":false,"is_disabled":false,"rental_uris":{"android":"levelo://app?vid=8d80dd9a-3fd3-4aa7-9f09-73e99be26d1b","ios":"levelo://app?vid=8d80dd9a-3fd3-4aa7-9f09-73e99be26d1b"},"vehicle_type_id":"4","last_reported":1745644168,"current_range_meters":8400,"station_id":"ce4bgv92rcd13ifvqcq0","pricing_plan_id":"cebpf4jnsgd1na2vs0mg"},{"bike_id":"3c6918da-f5b4-47ed-af1b-5f4122b9d878","system_id":"levelo_inurba_marseille","lat":43.2607,"lon":5.39369,"is_reserved":false,"is_disabled":false,"rental_uris":{"android":"levelo://app?vid=3c6918da-f5b4-47ed-af1b-5f4122b9d878","ios":"levelo://app?vid=3c6918da-f5b4-47ed-af1b-5f4122b9d878"},"vehicle_type_id":"4","last_reported":1745644168,"current_range_meters":8400,"station_id":"ce4bhh92rcd13ifvqfj0","pricing_plan_id":"cebpf4jnsgd1na2vs0mg"},{"bike_id":"ca7b7d84-2631-4232-bbf1-fa44212248d9","system_id":"levelo_inurba_marseille","lat":43.30949,"lon":5.40189,"is_reserved":false,"is_disabled":false,"rental_uris":{"android":"levelo://app?vid=ca7b7d84-2631-4232-bbf1-fa44212248d9","ios":"levelo://app?vid=ca7b7d84-2631-4232-bbf1-fa44212248d9"},"vehicle_type_id":"4","last_reported":1745644168,"current_range_meters":8400,"station_id":"ce4bgvp2rcd13ifvqct0","pricing_plan_id":"cebpf4jnsgd1na2vs0mg"},{"bike_id":"5c8dde23-03af-4ec7-8c64-b6a7b95cfa5a","system_id":"levelo_inurba_marseille","lat":43.337256,"lon":5.391868,"is_reserved":false,"is_disabled":false,"rental_uris":{"android":"levelo://app?vid=5c8dde23-03af-4ec7-8c64-b6a7b95cfa5a","ios":"levelo://app?vid=5c8dde23-03af-4ec7-8c64-b6a7b95cfa5a"},"vehicle_type_id":"4","last_reported":1745644168,"current_range_meters":8400,"station_id":"ce4bhr92rcd13ifvqhsg","pricing_plan_id":"cebpf4jnsgd1na2vs0mg"},{"bike_id":"18ae1d78-8d9e-4697-bc48-a39d36035c1d","system_id":"levelo_inurba_marseille","lat":43.23967,"lon":5.36634,"is_reserved":false,"is_disabled":false,"rental_uris":{"android":"levelo://app?vid=18ae1d78-8d9e-4697-bc48-a39d36035c1d","ios":"levelo://app?vid=18ae1d78-8d9e-4697-bc48-a39d36035c1d"},"vehicle_type_id":"4","last_reported":1745644168,"current_range_meters":8400,"station_id":"ce4bhi12rcd13ifvqfp0","pricing_plan_id":"cebpf4jnsgd1na2vs0mg"},{"bike_id":"569796d3-2b39-4144-b7df-5b4cab5ca99b","system_id":"levelo_inurba_marseille","lat":43.31335,"lon":5.39702,"is_reserved":false,"is_disabled":false,"rental_uris":{"android":"levelo://app?vid=569796d3-2b39-4144-b7df-5b4cab5ca99b","ios":"levelo://app?vid=569796d3-2b39-4144-b7df-5b4cab5ca99b"},"vehicle_type_id":"4","last_reported":1745644168,"current_range_meters":8400,"station_id":"ce4bgvp2rcd13ifvqcu0","pricing_plan_id":"cebpf4jnsgd1na2vs0mg"},{"bike_id":"e55b7fd1-db0d-4417-a85a-eee1595f4095","system_id":"levelo_inurba_marseille","lat":43.27945,"lon":5.41049,"is_reserved":false,"is_disabled":false,"rental_uris":{"android":"levelo://app?vid=e55b7fd1-db0d-4417-a85a-eee1595f4095","ios":"levelo://app?vid=e55b7fd1-db0d-4417-a85a-eee1595f4095"},"vehicle_type_id":"4","last_reported":1745644168,"current_range_meters":8400,"station_id":"ce4bhnp2rcd13ifvqh0g","pricing_plan_id":"cebpf4jnsgd1na2vs0mg"},{"bike_id":"422b5989-c8b6-43aa-b2b9-3bfeb2e1ddc0","system_id":"levelo_inurba_marseille","lat":43.247267,"lon":5.411748,"is_reserved":false,"is_disabled":false,"rental_uris":{"android":"levelo://app?vid=422b5989-c8b6-43aa-b2b9-3bfeb2e1ddc0","ios":"levelo://app?vid=422b5989-c8b6-43aa-b2b9-3bfeb2e1ddc0"},"vehicle_type_id":"4","last_reported":1745644168,"current_range_meters":8800,"station_id":"","pricing_plan_id":"cebpf4jnsgd1na2vs0mg"},{"bike_id":"af9f4d61-e477-4a90-b51d-7c801b7d74e8","system_id":"levelo_inurba_marseille","lat":43.28557,"lon":5.39491,"is_reserved":false,"is_disabled":false,"rental_uris":{"android":"levelo://app?vid=af9f4d61-e477-4a90-b51d-7c801b7d74e8","ios":"levelo://app?vid=af9f4d61-e477-4a90-b51d-7c801b7d74e8"},"vehicle_type_id":"4","last_reported":1745644168,"current_range_meters":8800,"station_id":"ce4bh292rcd13ifvqdg0","pricing_plan_id":"cebpf4jnsgd1na2vs0mg"},{"bike_id":"78c7f484-570c-4dec-877d-06e748e2a726","system_id":"levelo_inurba_marseille","lat":43.29749,"lon":5.38117,"is_reserved":false,"is_disabled":true,"rental_uris":{"android":"levelo://app?vid=78c7f484-570c-4dec-877d-06e748e2a726","ios":"levelo://app?vid=78c7f484-570c-4dec-877d-06e748e2a726"},"vehicle_type_id":"4","last_reported":1745644168,"current_range_meters":8800,"station_id":"ce4bgip2rcd13ifvqbb0","pricing_plan_id":"cebpf4jnsgd1na2vs0mg"},{"bike_id":"fa72b649-3018-4187-96fe-d31c0b11e0f8","system_id":"levelo_inurba_marseille","lat":43.297054,"lon":5.370914,"is_reserved":false,"is_disabled":false,"rental_uris":{"android":"levelo://app?vid=fa72b649-3018-4187-96fe-d31c0b11e0f8","ios":"levelo://app?vid=fa72b649-3018-4187-96fe-d31c0b11e0f8"},"vehicle_type_id":"4","last_reported":1745644168,"current_range_meters":8800,"station_id":"","pricing_plan_id":"cebpf4jnsgd1na2vs0mg"},{"bike_id":"f50ff1c4-68f4-418b-a166-e1ba5b322376","system_id":"levelo_inurba_marseille","lat":43.30939,"lon":5.40138,"is_reserved":false,"is_disabled":true,"rental_uris":{"android":"levelo://app?vid=f50ff1c4-68f4-418b-a166-e1ba5b322376","ios":"levelo://app?vid=f50ff1c4-68f4-418b-a166-e1ba5b322376"},"vehicle_type_id":"4","last_reported":1745644168,"current_range_meters":8800,"station_id":"ce4bgvp2rcd13ifvqct0","pricing_plan_id":"cebpf4jnsgd1na2vs0mg"},{"bike_id":"edbc9bff-8242-42ee-887f-3b5d28f3a582","system_id":"levelo_inurba_marseille","lat":43.29365,"lon":5.37863,"is_reserved":false,"is_disabled":true,"rental_uris":{"android":"levelo://app?vid=edbc9bff-8242-42ee-887f-3b5d28f3a582","ios":"levelo://app?vid=edbc9bff-8242-42ee-887f-3b5d28f3a582"},"vehicle_type_id":"4","last_reported":1745644168,"current_range_meters":8800,"station_id":"ce4bgjh2rcd13ifvqbf0","pricing_plan_id":"cebpf4jnsgd1na2vs0mg"},{"bike_id":"f997f3a2-6ef7-4d7a-931e-8083cf2fa70c","system_id":"levelo_inurba_marseille","lat":43.26805,"lon":5.40273,"is_reserved":false,"is_disabled":false,"rental_uris":{"android":"levelo://app?vid=f997f3a2-6ef7-4d7a-931e-8083cf2fa70c","ios":"levelo://app?vid=f997f3a2-6ef7-4d7a-931e-8083cf2fa70c"},"vehicle_type_id":"4","last_reported":1745644168,"current_range_meters":8800,"station_id":"ce501612rcd8frsf0b60","pricing_plan_id":"cebpf4jnsgd1na2vs0mg"},{"bike_id":"85d4dcad-e601-4542-8c61-4b58cdf033c2","system_id":"levelo_inurba_marseille","lat":43.25489,"lon":5.37663,"is_reserved":false,"is_disabled":true,"rental_uris":{"android":"levelo://app?vid=85d4dcad-e601-4542-8c61-4b58cdf033c2","ios":"levelo://app?vid=85d4dcad-e601-4542-8c61-4b58cdf033c2"},"vehicle_type_id":"4","last_reported":1745644168,"current_range_meters":8800,"station_id":"ce4bhh12rcd13ifvqff0","pricing_plan_id":"cebpf4jnsgd1na2vs0mg"},{"bike_id":"dc01f0b5-b1ff-492a-9187-c2aa24895f43","system_id":"levelo_inurba_marseille","lat":43.23192,"lon":5.39989,"is_reserved":false,"is_disabled":false,"rental_uris":{"android":"levelo://app?vid=dc01f0b5-b1ff-492a-9187-c2aa24895f43","ios":"levelo://app?vid=dc01f0b5-b1ff-492a-9187-c2aa24895f43"},"vehicle_type_id":"4","last_reported":1745644168,"current_range_meters":8800,"station_id":"ce4bhn12rcd13ifvqgqg","pricing_plan_id":"cebpf4jnsgd1na2vs0mg"},{"bike_id":"eb9d51f2-7234-4cf3-bbcd-0391235b739b","system_id":"levelo_inurba_marseille","lat":43.308832,"lon":5.396432,"is_reserved":false,"is_disabled":false,"rental_uris":{"android":"levelo://app?vid=eb9d51f2-7234-4cf3-bbcd-0391235b739b","ios":"levelo://app?vid=eb9d51f2-7234-4cf3-bbcd-0391235b739b"},"vehicle_type_id":"4","last_reported":1745644168,"current_range_meters":9200,"station_id":"ce4bh012rcd13ifvqcv0","pricing_plan_id":"cebpf4jnsgd1na2vs0mg"},{"bike_id":"16d6482a-eff2-41b1-a83c-bc881756a6e2","system_id":"levelo_inurba_marseille","lat":43.30805,"lon":5.38151,"is_reserved":false,"is_disabled":false,"rental_uris":{"android":"levelo://app?vid=16d6482a-eff2-41b1-a83c-bc881756a6e2","ios":"levelo://app?vid=16d6482a-eff2-41b1-a83c-bc881756a6e2"},"vehicle_type_id":"4","last_reported":1745644168,"current_range_meters":9200,"station_id":"ce4bgt12rcd13ifvqce0","pricing_plan_id":"cebpf4jnsgd1na2vs0mg"},{"bike_id":"9f5578ed-5577-43eb-b8df-e2b6a45d6d89","system_id":"levelo_inurba_marseille","lat":43.28623,"lon":5.37069,"is_reserved":false,"is_disabled":false,"rental_uris":{"android":"levelo://app?vid=9f5578ed-5577-43eb-b8df-e2b6a45d6d89","ios":"levelo://app?vid=9f5578ed-5577-43eb-b8df-e2b6a45d6d89"},"vehicle_type_id":"4","last_reported":1745644168,"current_range_meters":9200,"station_id":"ce4bht12rcd13ifvqi60","pricing_plan_id":"cebpf4jnsgd1na2vs0mg"},{"bike_id":"3060a98f-4723-4c0c-a5f3-8d302c950512","system_id":"levelo_inurba_marseille","lat":43.28569,"lon":5.3949,"is_reserved":false,"is_disabled":false,"rental_uris":{"android":"levelo://app?vid=3060a98f-4723-4c0c-a5f3-8d302c950512","ios":"levelo://app?vid=3060a98f-4723-4c0c-a5f3-8d302c950512"},"vehicle_type_id":"4","last_reported":1745644168,"current_range_meters":9200,"station_id":"ce4bh292rcd13ifvqdg0","pricing_plan_id":"cebpf4jnsgd1na2vs0mg"},{"bike_id":"c3377b8f-007f-40f4-941a-437fea66d7c3","system_id":"levelo_inurba_marseille","lat":43.27196,"lon":5.40993,"is_reserved":false,"is_disabled":false,"rental_uris":{"android":"levelo://app?vid=c3377b8f-007f-40f4-941a-437fea66d7c3","ios":"levelo://app?vid=c3377b8f-007f-40f4-941a-437fea66d7c3"},"vehicle_type_id":"4","last_reported":1745644168,"current_range_meters":9200,"station_id":"ce4bhl12rcd13ifvqgf0","pricing_plan_id":"cebpf4jnsgd1na2vs0mg"},{"bike_id":"464aed8f-8296-403f-8e6b-6dc6dd127ab7","system_id":"levelo_inurba_marseille","lat":43.27066,"lon":5.40269,"is_reserved":false,"is_disabled":false,"rental_uris":{"android":"levelo://app?vid=464aed8f-8296-403f-8e6b-6dc6dd127ab7","ios":"levelo://app?vid=464aed8f-8296-403f-8e6b-6dc6dd127ab7"},"vehicle_type_id":"4","last_reported":1745644168,"current_range_meters":9200,"station_id":"ce4bhk92rcd13ifvqgc0","pricing_plan_id":"cebpf4jnsgd1na2vs0mg"},{"bike_id":"b0ee9a1d-7b8a-4efb-bf61-ca32e693e2f5","system_id":"levelo_inurba_marseille","lat":43.27492,"lon":5.42446,"is_reserved":false,"is_disabled":false,"rental_uris":{"android":"levelo://app?vid=b0ee9a1d-7b8a-4efb-bf61-ca32e693e2f5","ios":"levelo://app?vid=b0ee9a1d-7b8a-4efb-bf61-ca32e693e2f5"},"vehicle_type_id":"4","last_reported":1745644168,"current_range_meters":9200,"station_id":"ce4bhn92rcd13ifvqgrg","pricing_plan_id":"cebpf4jnsgd1na2vs0mg"},{"bike_id":"eba80cac-49a3-43c0-b27f-65d7a86f1a53","system_id":"levelo_inurba_marseille","lat":43.31122,"lon":5.37769,"is_reserved":false,"is_disabled":false,"rental_uris":{"android":"levelo://app?vid=eba80cac-49a3-43c0-b27f-65d7a86f1a53","ios":"levelo://app?vid=eba80cac-49a3-43c0-b27f-65d7a86f1a53"},"vehicle_type_id":"4","last_reported":1745644168,"current_range_meters":9600,"station_id":"ce4bgt92rcd13ifvqcg0","pricing_plan_id":"cebpf4jnsgd1na2vs0mg"},{"bike_id":"51376682-930e-45ed-90e0-b53d931ddc33","system_id":"levelo_inurba_marseille","lat":43.27498,"lon":5.42457,"is_reserved":false,"is_disabled":false,"rental_uris":{"android":"levelo://app?vid=51376682-930e-45ed-90e0-b53d931ddc33","ios":"levelo://app?vid=51376682-930e-45ed-90e0-b53d931ddc33"},"vehicle_type_id":"4","last_reported":1745644168,"current_range_meters":9600,"station_id":"ce4bhn92rcd13ifvqgrg","pricing_plan_id":"cebpf4jnsgd1na2vs0mg"},{"bike_id":"32a6065e-013e-4aa2-807a-8927ace60dfe","system_id":"levelo_inurba_marseille","lat":43.29571,"lon":5.37518,"is_reserved":false,"is_disabled":false,"rental_uris":{"android":"levelo://app?vid=32a6065e-013e-4aa2-807a-8927ace60dfe","ios":"levelo://app?vid=32a6065e-013e-4aa2-807a-8927ace60dfe"},"vehicle_type_id":"4","last_reported":1745644168,"current_range_meters":9600,"station_id":"ce4bgh92rcd13ifvqb50","pricing_plan_id":"cebpf4jnsgd1na2vs0mg"},{"bike_id":"860ecedf-9e5e-49e6-a334-de39c73317e7","system_id":"levelo_inurba_marseille","lat":43.27929,"lon":5.39605,"is_reserved":false,"is_disabled":false,"rental_uris":{"android":"levelo://app?vid=860ecedf-9e5e-49e6-a334-de39c73317e7","ios":"levelo://app?vid=860ecedf-9e5e-49e6-a334-de39c73317e7"},"vehicle_type_id":"4","last_reported":1745644168,"current_range_meters":9600,"station_id":"ce4bhf92rcd13ifvqf40","pricing_plan_id":"cebpf4jnsgd1na2vs0mg"},{"bike_id":"3c976c1b-644c-4432-ad5a-b823ebcbcc9c","system_id":"levelo_inurba_marseille","lat":43.30145,"lon":5.37418,"is_reserved":false,"is_disabled":true,"rental_uris":{"android":"levelo://app?vid=3c976c1b-644c-4432-ad5a-b823ebcbcc9c","ios":"levelo://app?vid=3c976c1b-644c-4432-ad5a-b823ebcbcc9c"},"vehicle_type_id":"4","last_reported":1745644168,"current_range_meters":9600,"station_id":"ce4bgs92rcd13ifvqcc0","pricing_plan_id":"cebpf4jnsgd1na2vs0mg"},{"bike_id":"8ee8ddcf-b329-40ae-aad8-a703f60c6f36","system_id":"levelo_inurba_marseille","lat":43.27388,"lon":5.36274,"is_reserved":false,"is_disabled":false,"rental_uris":{"android":"levelo://app?vid=8ee8ddcf-b329-40ae-aad8-a703f60c6f36","ios":"levelo://app?vid=8ee8ddcf-b329-40ae-aad8-a703f60c6f36"},"vehicle_type_id":"4","last_reported":1745644168,"current_range_meters":9600,"station_id":"ce4bhbh2rcd13ifvqeo0","pricing_plan_id":"cebpf4jnsgd1na2vs0mg"},{"bike_id":"f0360f45-6be9-4488-84ea-84d3cda26aaf","system_id":"levelo_inurba_marseille","lat":43.33009,"lon":5.43855,"is_reserved":false,"is_disabled":false,"rental_uris":{"android":"levelo://app?vid=f0360f45-6be9-4488-84ea-84d3cda26aaf","ios":"levelo://app?vid=f0360f45-6be9-4488-84ea-84d3cda26aaf"},"vehicle_type_id":"4","last_reported":1745644168,"current_range_meters":9600,"station_id":"","pricing_plan_id":"cebpf4jnsgd1na2vs0mg"},{"bike_id":"ea9a1225-0675-4e25-bc5c-6a3f85357c8d","system_id":"levelo_inurba_marseille","lat":43.28955,"lon":5.36417,"is_reserved":false,"is_disabled":true,"rental_uris":{"android":"levelo://app?vid=ea9a1225-0675-4e25-bc5c-6a3f85357c8d","ios":"levelo://app?vid=ea9a1225-0675-4e25-bc5c-6a3f85357c8d"},"vehicle_type_id":"4","last_reported":1745644168,"current_range_meters":10000,"station_id":"ce4bhc92rcd13ifvqetg","pricing_plan_id":"cebpf4jnsgd1na2vs0mg"},{"bike_id":"b9254d1a-d1a8-4b8f-8250-e3e4ac1d66ca","system_id":"levelo_inurba_marseille","lat":43.29569,"lon":5.39988,"is_reserved":false,"is_disabled":false,"rental_uris":{"android":"levelo://app?vid=b9254d1a-d1a8-4b8f-8250-e3e4ac1d66ca","ios":"levelo://app?vid=b9254d1a-d1a8-4b8f-8250-e3e4ac1d66ca"},"vehicle_type_id":"4","last_reported":1745644168,"current_range_meters":10000,"station_id":"ce4bh312rcd13ifvqdj0","pricing_plan_id":"cebpf4jnsgd1na2vs0mg"},{"bike_id":"7d8d69b2-0147-4031-958f-236ac2917414","system_id":"levelo_inurba_marseille","lat":43.2928,"lon":5.36851,"is_reserved":false,"is_disabled":true,"rental_uris":{"android":"levelo://app?vid=7d8d69b2-0147-4031-958f-236ac2917414","ios":"levelo://app?vid=7d8d69b2-0147-4031-958f-236ac2917414"},"vehicle_type_id":"4","last_reported":1745644168,"current_range_meters":10000,"station_id":"ce4bhbp2rcd13ifvqesg","pricing_plan_id":"cebpf4jnsgd1na2vs0mg"},{"bike_id":"e2dcabcf-64d8-4394-bb9a-ff877bee611a","system_id":"levelo_inurba_marseille","lat":43.32038,"lon":5.41526,"is_reserved":false,"is_disabled":false,"rental_uris":{"android":"levelo://app?vid=e2dcabcf-64d8-4394-bb9a-ff877bee611a","ios":"levelo://app?vid=e2dcabcf-64d8-4394-bb9a-ff877bee611a"},"vehicle_type_id":"4","last_reported":1745644168,"current_range_meters":10000,"station_id":"ce4bhq92rcd13ifvqhkg","pricing_plan_id":"cebpf4jnsgd1na2vs0mg"},{"bike_id":"890d8b58-5f95-47c5-8125-c5ad39b55532","system_id":"levelo_inurba_marseille","lat":43.3127,"lon":5.40178,"is_reserved":false,"is_disabled":false,"rental_uris":{"android":"levelo://app?vid=890d8b58-5f95-47c5-8125-c5ad39b55532","ios":"levelo://app?vid=890d8b58-5f95-47c5-8125-c5ad39b55532"},"vehicle_type_id":"4","last_reported":1745644168,"current_range_meters":10000,"station_id":"ce4bh092rcd13ifvqd30","pricing_plan_id":"cebpf4jnsgd1na2vs0mg"},{"bike_id":"1f4be83d-23f2-4aa7-b158-9b5e1240a216","system_id":"levelo_inurba_marseille","lat":43.25834,"lon":5.39445,"is_reserved":false,"is_disabled":false,"rental_uris":{"android":"levelo://app?vid=1f4be83d-23f2-4aa7-b158-9b5e1240a216","ios":"levelo://app?vid=1f4be83d-23f2-4aa7-b158-9b5e1240a216"},"vehicle_type_id":"4","last_reported":1745644168,"current_range_meters":10000,"station_id":"ce4bhip2rcd13ifvqft0","pricing_plan_id":"cebpf4jnsgd1na2vs0mg"},{"bike_id":"4c11ff0f-a579-4f78-9960-a443174b0bdd","system_id":"levelo_inurba_marseille","lat":43.211899,"lon":5.350743,"is_reserved":false,"is_disabled":false,"rental_uris":{"android":"levelo://app?vid=4c11ff0f-a579-4f78-9960-a443174b0bdd","ios":"levelo://app?vid=4c11ff0f-a579-4f78-9960-a443174b0bdd"},"vehicle_type_id":"4","last_reported":1745644168,"current_range_meters":10000,"station_id":"st_cvj6sg6p6f1abm77japg","pricing_plan_id":"cebpf4jnsgd1na2vs0mg"},{"bike_id":"c39614a5-07de-4530-aba8-6df7a38d52ce","system_id":"levelo_inurba_marseille","lat":43.31275,"lon":5.4017,"is_reserved":false,"is_disabled":false,"rental_uris":{"android":"levelo://app?vid=c39614a5-07de-4530-aba8-6df7a38d52ce","ios":"levelo://app?vid=c39614a5-07de-4530-aba8-6df7a38d52ce"},"vehicle_type_id":"4","last_reported":1745644168,"current_range_meters":10000,"station_id":"ce4bh092rcd13ifvqd30","pricing_plan_id":"cebpf4jnsgd1na2vs0mg"},{"bike_id":"0bfff189-ec6a-4439-b345-e9dd168ab867","system_id":"levelo_inurba_marseille","lat":43.337223,"lon":5.391959,"is_reserved":false,"is_disabled":false,"rental_uris":{"android":"levelo://app?vid=0bfff189-ec6a-4439-b345-e9dd168ab867","ios":"levelo://app?vid=0bfff189-ec6a-4439-b345-e9dd168ab867"},"vehicle_type_id":"4","last_reported":1745644168,"current_range_meters":10000,"station_id":"ce4bhr92rcd13ifvqhsg","pricing_plan_id":"cebpf4jnsgd1na2vs0mg"},{"bike_id":"37f49765-3f36-4a47-aa70-b3e71040e079","system_id":"levelo_inurba_marseille","lat":43.29277,"lon":5.401489,"is_reserved":false,"is_disabled":false,"rental_uris":{"android":"levelo://app?vid=37f49765-3f36-4a47-aa70-b3e71040e079","ios":"levelo://app?vid=37f49765-3f36-4a47-aa70-b3e71040e079"},"vehicle_type_id":"4","last_reported":1745644168,"current_range_meters":10000,"station_id":"ce4bh312rcd13ifvqdk0","pricing_plan_id":"cebpf4jnsgd1na2vs0mg"},{"bike_id":"b109370e-8ffd-45d2-8c01-987592cd14b8","system_id":"levelo_inurba_marseille","lat":43.29566,"lon":5.3997,"is_reserved":false,"is_disabled":false,"rental_uris":{"android":"levelo://app?vid=b109370e-8ffd-45d2-8c01-987592cd14b8","ios":"levelo://app?vid=b109370e-8ffd-45d2-8c01-987592cd14b8"},"vehicle_type_id":"4","last_reported":1745644168,"current_range_meters":10800,"station_id":"ce4bh312rcd13ifvqdj0","pricing_plan_id":"cebpf4jnsgd1na2vs0mg"},{"bike_id":"f77a929f-13ce-4ad3-b37b-030e100178ba","system_id":"levelo_inurba_marseille","lat":43.25932,"lon":5.40915,"is_reserved":false,"is_disabled":false,"rental_uris":{"android":"levelo://app?vid=f77a929f-13ce-4ad3-b37b-030e100178ba","ios":"levelo://app?vid=f77a929f-13ce-4ad3-b37b-030e100178ba"},"vehicle_type_id":"4","last_reported":1745644168,"current_range_meters":10800,"station_id":"ce4bhm92rcd13ifvqglg","pricing_plan_id":"cebpf4jnsgd1na2vs0mg"},{"bike_id":"1ef2b4d7-eaa0-461a-8e88-8af01397cd81","system_id":"levelo_inurba_marseille","lat":43.27934,"lon":5.39605,"is_reserved":false,"is_disabled":false,"rental_uris":{"android":"levelo://app?vid=1ef2b4d7-eaa0-461a-8e88-8af01397cd81","ios":"levelo://app?vid=1ef2b4d7-eaa0-461a-8e88-8af01397cd81"},"vehicle_type_id":"4","last_reported":1745644168,"current_range_meters":10800,"station_id":"ce4bhf92rcd13ifvqf40","pricing_plan_id":"cebpf4jnsgd1na2vs0mg"},{"bike_id":"6263f44e-be3d-43c2-8af5-78216310caee","system_id":"levelo_inurba_marseille","lat":43.28909,"lon":5.38386,"is_reserved":false,"is_disabled":true,"rental_uris":{"android":"levelo://app?vid=6263f44e-be3d-43c2-8af5-78216310caee","ios":"levelo://app?vid=6263f44e-be3d-43c2-8af5-78216310caee"},"vehicle_type_id":"4","last_reported":1745644168,"current_range_meters":10800,"station_id":"ce4bh612rcd13ifvqe6g","pricing_plan_id":"cebpf4jnsgd1na2vs0mg"},{"bike_id":"969ba5a2-659d-459e-9a5a-1347065d5102","system_id":"levelo_inurba_marseille","lat":43.25131,"lon":5.40327,"is_reserved":false,"is_disabled":false,"rental_uris":{"android":"levelo://app?vid=969ba5a2-659d-459e-9a5a-1347065d5102","ios":"levelo://app?vid=969ba5a2-659d-459e-9a5a-1347065d5102"},"vehicle_type_id":"4","last_reported":1745644168,"current_range_meters":10800,"station_id":"ce4bhlh2rcd13ifvqgig","pricing_plan_id":"cebpf4jnsgd1na2vs0mg"},{"bike_id":"c65adb3e-50be-42af-92da-68dd7e4eacc9","system_id":"levelo_inurba_marseille","lat":43.30138,"lon":5.38109,"is_reserved":false,"is_disabled":true,"rental_uris":{"android":"levelo://app?vid=c65adb3e-50be-42af-92da-68dd7e4eacc9","ios":"levelo://app?vid=c65adb3e-50be-42af-92da-68dd7e4eacc9"},"vehicle_type_id":"4","last_reported":1745644168,"current_range_meters":10800,"station_id":"ce4bgjp2rcd13ifvqbh0","pricing_plan_id":"cebpf4jnsgd1na2vs0mg"},{"bike_id":"cf00bd08-72bf-4a8f-8ab2-247c2a4e4ffd","system_id":"levelo_inurba_marseille","lat":43.31325,"lon":5.39707,"is_reserved":false,"is_disabled":false,"rental_uris":{"android":"levelo://app?vid=cf00bd08-72bf-4a8f-8ab2-247c2a4e4ffd","ios":"levelo://app?vid=cf00bd08-72bf-4a8f-8ab2-247c2a4e4ffd"},"vehicle_type_id":"4","last_reported":1745644168,"current_range_meters":10800,"station_id":"ce4bgvp2rcd13ifvqcu0","pricing_plan_id":"cebpf4jnsgd1na2vs0mg"},{"bike_id":"fe80108d-e190-41be-86b8-a19c8cf74730","system_id":"levelo_inurba_marseille","lat":43.28714,"lon":5.37393,"is_reserved":false,"is_disabled":false,"rental_uris":{"android":"levelo://app?vid=fe80108d-e190-41be-86b8-a19c8cf74730","ios":"levelo://app?vid=fe80108d-e190-41be-86b8-a19c8cf74730"},"vehicle_type_id":"4","last_reported":1745644168,"current_range_meters":11200,"station_id":"ce4bh3p2rcd13ifvqdq0","pricing_plan_id":"cebpf4jnsgd1na2vs0mg"},{"bike_id":"4406da3b-d473-4d63-87bf-fa2b430a3908","system_id":"levelo_inurba_marseille","lat":43.28564,"lon":5.39514,"is_reserved":false,"is_disabled":false,"rental_uris":{"android":"levelo://app?vid=4406da3b-d473-4d63-87bf-fa2b430a3908","ios":"levelo://app?vid=4406da3b-d473-4d63-87bf-fa2b430a3908"},"vehicle_type_id":"4","last_reported":1745644168,"current_range_meters":11200,"station_id":"ce4bh292rcd13ifvqdg0","pricing_plan_id":"cebpf4jnsgd1na2vs0mg"},{"bike_id":"dc83063b-0acf-498d-bec5-7bae3f5ed87a","system_id":"levelo_inurba_marseille","lat":43.292745,"lon":5.401367,"is_reserved":false,"is_disabled":false,"rental_uris":{"android":"levelo://app?vid=dc83063b-0acf-498d-bec5-7bae3f5ed87a","ios":"levelo://app?vid=dc83063b-0acf-498d-bec5-7bae3f5ed87a"},"vehicle_type_id":"4","last_reported":1745644168,"current_range_meters":11200,"station_id":"ce4bh312rcd13ifvqdk0","pricing_plan_id":"cebpf4jnsgd1na2vs0mg"},{"bike_id":"b92d1d11-4e25-4e72-a14c-3101ccbf7b8a","system_id":"levelo_inurba_marseille","lat":43.27624,"lon":5.36117,"is_reserved":false,"is_disabled":false,"rental_uris":{"android":"levelo://app?vid=b92d1d11-4e25-4e72-a14c-3101ccbf7b8a","ios":"levelo://app?vid=b92d1d11-4e25-4e72-a14c-3101ccbf7b8a"},"vehicle_type_id":"4","last_reported":1745644168,"current_range_meters":11200,"station_id":"ce4bgj92rcd13ifvqbe0","pricing_plan_id":"cebpf4jnsgd1na2vs0mg"},{"bike_id":"d29d99d2-8c34-447d-9ac5-9ffd1b17febf","system_id":"levelo_inurba_marseille","lat":43.2318,"lon":5.40008,"is_reserved":false,"is_disabled":false,"rental_uris":{"android":"levelo://app?vid=d29d99d2-8c34-447d-9ac5-9ffd1b17febf","ios":"levelo://app?vid=d29d99d2-8c34-447d-9ac5-9ffd1b17febf"},"vehicle_type_id":"4","last_reported":1745644168,"current_range_meters":11200,"station_id":"ce4bhn12rcd13ifvqgqg","pricing_plan_id":"cebpf4jnsgd1na2vs0mg"},{"bike_id":"3849ce44-ca4c-4d47-ba03-5e75f2ea456e","system_id":"levelo_inurba_marseille","lat":43.30429,"lon":5.38884,"is_reserved":false,"is_disabled":false,"rental_uris":{"android":"levelo://app?vid=3849ce44-ca4c-4d47-ba03-5e75f2ea456e","ios":"levelo://app?vid=3849ce44-ca4c-4d47-ba03-5e75f2ea456e"},"vehicle_type_id":"4","last_reported":1745644168,"current_range_meters":11200,"station_id":"ce4bgk12rcd13ifvqbi0","pricing_plan_id":"cebpf4jnsgd1na2vs0mg"},{"bike_id":"676c19d2-12dd-4101-9d18-9f1ee320a5aa","system_id":"levelo_inurba_marseille","lat":43.30932,"lon":5.40149,"is_reserved":false,"is_disabled":false,"rental_uris":{"android":"levelo://app?vid=676c19d2-12dd-4101-9d18-9f1ee320a5aa","ios":"levelo://app?vid=676c19d2-12dd-4101-9d18-9f1ee320a5aa"},"vehicle_type_id":"4","last_reported":1745644168,"current_range_meters":11200,"station_id":"ce4bgvp2rcd13ifvqct0","pricing_plan_id":"cebpf4jnsgd1na2vs0mg"},{"bike_id":"4f233458-44a8-409a-bcd8-a5c69ab0298f","system_id":"levelo_inurba_marseille","lat":43.23177,"lon":5.39991,"is_reserved":false,"is_disabled":false,"rental_uris":{"android":"levelo://app?vid=4f233458-44a8-409a-bcd8-a5c69ab0298f","ios":"levelo://app?vid=4f233458-44a8-409a-bcd8-a5c69ab0298f"},"vehicle_type_id":"4","last_reported":1745644168,"current_range_meters":12400,"station_id":"ce4bhn12rcd13ifvqgqg","pricing_plan_id":"cebpf4jnsgd1na2vs0mg"},{"bike_id":"04dabfd5-0bdb-409c-ba0c-fe9ea23093bc","system_id":"levelo_inurba_marseille","lat":43.29042,"lon":5.39998,"is_reserved":false,"is_disabled":false,"rental_uris":{"android":"levelo://app?vid=04dabfd5-0bdb-409c-ba0c-fe9ea23093bc","ios":"levelo://app?vid=04dabfd5-0bdb-409c-ba0c-fe9ea23093bc"},"vehicle_type_id":"4","last_reported":1745644168,"current_range_meters":11600,"station_id":"ce4bh392rcd13ifvqdm0","pricing_plan_id":"cebpf4jnsgd1na2vs0mg"},{"bike_id":"7243d45a-8238-4e33-9407-d957777f2967","system_id":"levelo_inurba_marseille","lat":43.28623,"lon":5.35103,"is_reserved":false,"is_disabled":false,"rental_uris":{"android":"levelo://app?vid=7243d45a-8238-4e33-9407-d957777f2967","ios":"levelo://app?vid=7243d45a-8238-4e33-9407-d957777f2967"},"vehicle_type_id":"4","last_reported":1745644168,"current_range_meters":11600,"station_id":"ce4bhch2rcd13ifvqeug","pricing_plan_id":"cebpf4jnsgd1na2vs0mg"},{"bike_id":"5e6176bf-b4b9-46d7-9d1c-175806dc1d7d","system_id":"levelo_inurba_marseille","lat":43.30302,"lon":5.36887,"is_reserved":false,"is_disabled":false,"rental_uris":{"android":"levelo://app?vid=5e6176bf-b4b9-46d7-9d1c-175806dc1d7d","ios":"levelo://app?vid=5e6176bf-b4b9-46d7-9d1c-175806dc1d7d"},"vehicle_type_id":"4","last_reported":1745644168,"current_range_meters":11600,"station_id":"ce4bgqh2rcd13ifvqc5g","pricing_plan_id":"cebpf4jnsgd1na2vs0mg"},{"bike_id":"8aac42a6-6d2f-445f-a8b1-2082ab510160","system_id":"levelo_inurba_marseille","lat":43.2791,"lon":5.38013,"is_reserved":false,"is_disabled":false,"rental_uris":{"android":"levelo://app?vid=8aac42a6-6d2f-445f-a8b1-2082ab510160","ios":"levelo://app?vid=8aac42a6-6d2f-445f-a8b1-2082ab510160"},"vehicle_type_id":"4","last_reported":1745644168,"current_range_meters":11600,"station_id":"ce4bhf92rcd13ifvqf50","pricing_plan_id":"cebpf4jnsgd1na2vs0mg"},{"bike_id":"f173bdc3-6bbf-4e9a-b18f-6134c30f147a","system_id":"levelo_inurba_marseille","lat":43.304134,"lon":5.412846,"is_reserved":false,"is_disabled":false,"rental_uris":{"android":"levelo://app?vid=f173bdc3-6bbf-4e9a-b18f-6134c30f147a","ios":"levelo://app?vid=f173bdc3-6bbf-4e9a-b18f-6134c30f147a"},"vehicle_type_id":"4","last_reported":1745644168,"current_range_meters":12000,"station_id":"ce4bhop2rcd13ifvqh8g","pricing_plan_id":"cebpf4jnsgd1na2vs0mg"},{"bike_id":"3f9c3cd7-5c19-493a-8404-1db86da8fcc7","system_id":"levelo_inurba_marseille","lat":43.33619,"lon":5.41,"is_reserved":false,"is_disabled":false,"rental_uris":{"android":"levelo://app?vid=3f9c3cd7-5c19-493a-8404-1db86da8fcc7","ios":"levelo://app?vid=3f9c3cd7-5c19-493a-8404-1db86da8fcc7"},"vehicle_type_id":"4","last_reported":1745644168,"current_range_meters":12000,"station_id":"ce4bhqh2rcd13ifvqhmg","pricing_plan_id":"cebpf4jnsgd1na2vs0mg"},{"bike_id":"568053e1-9183-4cee-acca-959027493876","system_id":"levelo_inurba_marseille","lat":43.30896,"lon":5.36823,"is_reserved":false,"is_disabled":true,"rental_uris":{"android":"levelo://app?vid=568053e1-9183-4cee-acca-959027493876","ios":"levelo://app?vid=568053e1-9183-4cee-acca-959027493876"},"vehicle_type_id":"4","last_reported":1745644168,"current_range_meters":12000,"station_id":"ce4bgn92rcd13ifvqbvg","pricing_plan_id":"cebpf4jnsgd1na2vs0mg"},{"bike_id":"49a5be0b-2b23-4d57-a2bd-3a5d802fab0b","system_id":"levelo_inurba_marseille","lat":43.28993,"lon":5.35619,"is_reserved":false,"is_disabled":true,"rental_uris":{"android":"levelo://app?vid=49a5be0b-2b23-4d57-a2bd-3a5d802fab0b","ios":"levelo://app?vid=49a5be0b-2b23-4d57-a2bd-3a5d802fab0b"},"vehicle_type_id":"4","last_reported":1745644168,"current_range_meters":12000,"station_id":"ce4bhb92rcd13ifvqen0","pricing_plan_id":"cebpf4jnsgd1na2vs0mg"},{"bike_id":"16857710-0d57-4de0-b267-f33ac66c1f00","system_id":"levelo_inurba_marseille","lat":43.289412,"lon":5.396295,"is_reserved":false,"is_disabled":false,"rental_uris":{"android":"levelo://app?vid=16857710-0d57-4de0-b267-f33ac66c1f00","ios":"levelo://app?vid=16857710-0d57-4de0-b267-f33ac66c1f00"},"vehicle_type_id":"4","last_reported":1745644168,"current_range_meters":12000,"station_id":"ce4bh3h2rcd13ifvqdn0","pricing_plan_id":"cebpf4jnsgd1na2vs0mg"},{"bike_id":"00059ac2-0b0b-4ff8-a17e-4bf2dbea714a","system_id":"levelo_inurba_marseille","lat":43.26241,"lon":5.40447,"is_reserved":false,"is_disabled":false,"rental_uris":{"android":"levelo://app?vid=00059ac2-0b0b-4ff8-a17e-4bf2dbea714a","ios":"levelo://app?vid=00059ac2-0b0b-4ff8-a17e-4bf2dbea714a"},"vehicle_type_id":"4","last_reported":1745644168,"current_range_meters":12400,"station_id":"ce4bhmh2rcd13ifvqgmg","pricing_plan_id":"cebpf4jnsgd1na2vs0mg"},{"bike_id":"af6af1ea-83a0-4448-a6b9-d143557f7290","system_id":"levelo_inurba_marseille","lat":43.27064,"lon":5.40212,"is_reserved":false,"is_disabled":false,"rental_uris":{"android":"levelo://app?vid=af6af1ea-83a0-4448-a6b9-d143557f7290","ios":"levelo://app?vid=af6af1ea-83a0-4448-a6b9-d143557f7290"},"vehicle_type_id":"4","last_reported":1745644168,"current_range_meters":12400,"station_id":"ce4bhk92rcd13ifvqgc0","pricing_plan_id":"cebpf4jnsgd1na2vs0mg"},{"bike_id":"b337b47e-e0c0-40c3-878a-37e58bb44305","system_id":"levelo_inurba_marseille","lat":43.31175,"lon":5.40813,"is_reserved":false,"is_disabled":false,"rental_uris":{"android":"levelo://app?vid=b337b47e-e0c0-40c3-878a-37e58bb44305","ios":"levelo://app?vid=b337b47e-e0c0-40c3-878a-37e58bb44305"},"vehicle_type_id":"4","last_reported":1745644168,"current_range_meters":12400,"station_id":"","pricing_plan_id":"cebpf4jnsgd1na2vs0mg"},{"bike_id":"21437a5a-65f0-4308-a086-6a61c1a2bd7e","system_id":"levelo_inurba_marseille","lat":43.308941,"lon":5.371867,"is_reserved":false,"is_disabled":false,"rental_uris":{"android":"levelo://app?vid=21437a5a-65f0-4308-a086-6a61c1a2bd7e","ios":"levelo://app?vid=21437a5a-65f0-4308-a086-6a61c1a2bd7e"},"vehicle_type_id":"4","last_reported":1745644168,"current_range_meters":12400,"station_id":"ce4bguh2rcd13ifvqckg","pricing_plan_id":"cebpf4jnsgd1na2vs0mg"},{"bike_id":"b4fbbd83-1dbc-4edd-b531-ebdb78c6626d","system_id":"levelo_inurba_marseille","lat":43.3266,"lon":5.40989,"is_reserved":false,"is_disabled":false,"rental_uris":{"android":"levelo://app?vid=b4fbbd83-1dbc-4edd-b531-ebdb78c6626d","ios":"levelo://app?vid=b4fbbd83-1dbc-4edd-b531-ebdb78c6626d"},"vehicle_type_id":"4","last_reported":1745644168,"current_range_meters":12400,"station_id":"ce4bhpp2rcd13ifvqhgg","pricing_plan_id":"cebpf4jnsgd1na2vs0mg"},{"bike_id":"b6c6d9f7-b123-42c6-8ea7-68299b7c9958","system_id":"levelo_inurba_marseille","lat":43.324,"lon":5.39156,"is_reserved":false,"is_disabled":true,"rental_uris":{"android":"levelo://app?vid=b6c6d9f7-b123-42c6-8ea7-68299b7c9958","ios":"levelo://app?vid=b6c6d9f7-b123-42c6-8ea7-68299b7c9958"},"vehicle_type_id":"4","last_reported":1745644168,"current_range_meters":12400,"station_id":"","pricing_plan_id":"cebpf4jnsgd1na2vs0mg"},{"bike_id":"7d0ba233-86ba-44c3-9826-d15ee909987f","system_id":"levelo_inurba_marseille","lat":43.251143,"lon":5.403191,"is_reserved":false,"is_disabled":false,"rental_uris":{"android":"levelo://app?vid=7d0ba233-86ba-44c3-9826-d15ee909987f","ios":"levelo://app?vid=7d0ba233-86ba-44c3-9826-d15ee909987f"},"vehicle_type_id":"4","last_reported":1745644168,"current_range_meters":12400,"station_id":"ce4bhlh2rcd13ifvqgig","pricing_plan_id":"cebpf4jnsgd1na2vs0mg"},{"bike_id":"880b8e43-29db-40db-be6a-773bd218bade","system_id":"levelo_inurba_marseille","lat":43.306498,"lon":5.400718,"is_reserved":false,"is_disabled":false,"rental_uris":{"android":"levelo://app?vid=880b8e43-29db-40db-be6a-773bd218bade","ios":"levelo://app?vid=880b8e43-29db-40db-be6a-773bd218bade"},"vehicle_type_id":"4","last_reported":1745644168,"current_range_meters":12800,"station_id":"ce4bh112rcd13ifvqda0","pricing_plan_id":"cebpf4jnsgd1na2vs0mg"},{"bike_id":"262de007-d0f9-4b5c-9db4-1c829c9329a9","system_id":"levelo_inurba_marseille","lat":43.2794,"lon":5.410411,"is_reserved":false,"is_disabled":false,"rental_uris":{"android":"levelo://app?vid=262de007-d0f9-4b5c-9db4-1c829c9329a9","ios":"levelo://app?vid=262de007-d0f9-4b5c-9db4-1c829c9329a9"},"vehicle_type_id":"4","last_reported":1745644168,"current_range_meters":12800,"station_id":"ce4bhnp2rcd13ifvqh0g","pricing_plan_id":"cebpf4jnsgd1na2vs0mg"},{"bike_id":"9938022e-8478-489a-a878-ea3fb6a686ae","system_id":"levelo_inurba_marseille","lat":43.32369,"lon":5.38914,"is_reserved":false,"is_disabled":false,"rental_uris":{"android":"levelo://app?vid=9938022e-8478-489a-a878-ea3fb6a686ae","ios":"levelo://app?vid=9938022e-8478-489a-a878-ea3fb6a686ae"},"vehicle_type_id":"4","last_reported":1745644168,"current_range_meters":12800,"station_id":"ce4bhqp2rcd13ifvqhog","pricing_plan_id":"cebpf4jnsgd1na2vs0mg"},{"bike_id":"987d7900-bb2a-45cb-bed7-6d69f6fd4fa3","system_id":"levelo_inurba_marseille","lat":43.28517,"lon":5.38475,"is_reserved":false,"is_disabled":false,"rental_uris":{"android":"levelo://app?vid=987d7900-bb2a-45cb-bed7-6d69f6fd4fa3","ios":"levelo://app?vid=987d7900-bb2a-45cb-bed7-6d69f6fd4fa3"},"vehicle_type_id":"4","last_reported":1745644168,"current_range_meters":12800,"station_id":"","pricing_plan_id":"cebpf4jnsgd1na2vs0mg"},{"bike_id":"e2a41a14-b118-4dd4-aa7f-abc51fc58dd2","system_id":"levelo_inurba_marseille","lat":43.32348,"lon":5.38899,"is_reserved":false,"is_disabled":false,"rental_uris":{"android":"levelo://app?vid=e2a41a14-b118-4dd4-aa7f-abc51fc58dd2","ios":"levelo://app?vid=e2a41a14-b118-4dd4-aa7f-abc51fc58dd2"},"vehicle_type_id":"4","last_reported":1745644168,"current_range_meters":13600,"station_id":"ce4bhqp2rcd13ifvqhog","pricing_plan_id":"cebpf4jnsgd1na2vs0mg"},{"bike_id":"fdbe3e4c-6069-4e16-9ae7-cb790fcbdb9e","system_id":"levelo_inurba_marseille","lat":43.24646,"lon":5.38181,"is_reserved":false,"is_disabled":false,"rental_uris":{"android":"levelo://app?vid=fdbe3e4c-6069-4e16-9ae7-cb790fcbdb9e","ios":"levelo://app?vid=fdbe3e4c-6069-4e16-9ae7-cb790fcbdb9e"},"vehicle_type_id":"4","last_reported":1745644168,"current_range_meters":14000,"station_id":"ce4bhih2rcd13ifvqfr0","pricing_plan_id":"cebpf4jnsgd1na2vs0mg"},{"bike_id":"ab157b9a-f413-4283-9896-461bb1b27942","system_id":"levelo_inurba_marseille","lat":43.33007,"lon":5.39041,"is_reserved":false,"is_disabled":false,"rental_uris":{"android":"levelo://app?vid=ab157b9a-f413-4283-9896-461bb1b27942","ios":"levelo://app?vid=ab157b9a-f413-4283-9896-461bb1b27942"},"vehicle_type_id":"4","last_reported":1745644168,"current_range_meters":14000,"station_id":"ce4bhr92rcd13ifvqhrg","pricing_plan_id":"cebpf4jnsgd1na2vs0mg"},{"bike_id":"5ba7132e-2b5b-463a-a4d7-a59a70c356e1","system_id":"levelo_inurba_marseille","lat":43.33082,"lon":5.40831,"is_reserved":false,"is_disabled":false,"rental_uris":{"android":"levelo://app?vid=5ba7132e-2b5b-463a-a4d7-a59a70c356e1","ios":"levelo://app?vid=5ba7132e-2b5b-463a-a4d7-a59a70c356e1"},"vehicle_type_id":"4","last_reported":1745644168,"current_range_meters":14000,"station_id":"","pricing_plan_id":"cebpf4jnsgd1na2vs0mg"},{"bike_id":"97fbe862-3dc4-4ded-9569-7540ceeeffb5","system_id":"levelo_inurba_marseille","lat":43.33605,"lon":5.41015,"is_reserved":false,"is_disabled":false,"rental_uris":{"android":"levelo://app?vid=97fbe862-3dc4-4ded-9569-7540ceeeffb5","ios":"levelo://app?vid=97fbe862-3dc4-4ded-9569-7540ceeeffb5"},"vehicle_type_id":"4","last_reported":1745644168,"current_range_meters":14000,"station_id":"ce4bhqh2rcd13ifvqhmg","pricing_plan_id":"cebpf4jnsgd1na2vs0mg"},{"bike_id":"d08334af-0288-4980-ba3f-5e13619388fa","system_id":"levelo_inurba_marseille","lat":43.304069,"lon":5.412945,"is_reserved":false,"is_disabled":false,"rental_uris":{"android":"levelo://app?vid=d08334af-0288-4980-ba3f-5e13619388fa","ios":"levelo://app?vid=d08334af-0288-4980-ba3f-5e13619388fa"},"vehicle_type_id":"4","last_reported":1745644168,"current_range_meters":14000,"station_id":"ce4bhop2rcd13ifvqh8g","pricing_plan_id":"cebpf4jnsgd1na2vs0mg"},{"bike_id":"86082c5a-74ec-45ee-9bbd-681fdfc8da73","system_id":"levelo_inurba_marseille","lat":43.23967,"lon":5.3664,"is_reserved":false,"is_disabled":false,"rental_uris":{"android":"levelo://app?vid=86082c5a-74ec-45ee-9bbd-681fdfc8da73","ios":"levelo://app?vid=86082c5a-74ec-45ee-9bbd-681fdfc8da73"},"vehicle_type_id":"4","last_reported":1745644168,"current_range_meters":14400,"station_id":"ce4bhi12rcd13ifvqfp0","pricing_plan_id":"cebpf4jnsgd1na2vs0mg"},{"bike_id":"8f5c8879-8704-464b-b08a-aa8851e6ad23","system_id":"levelo_inurba_marseille","lat":43.32371,"lon":5.38899,"is_reserved":false,"is_disabled":false,"rental_uris":{"android":"levelo://app?vid=8f5c8879-8704-464b-b08a-aa8851e6ad23","ios":"levelo://app?vid=8f5c8879-8704-464b-b08a-aa8851e6ad23"},"vehicle_type_id":"4","last_reported":1745644168,"current_range_meters":14400,"station_id":"ce4bhqp2rcd13ifvqhog","pricing_plan_id":"cebpf4jnsgd1na2vs0mg"},{"bike_id":"5beaa40a-f95a-4af3-94f6-72b61e748f45","system_id":"levelo_inurba_marseille","lat":43.2841,"lon":5.3751,"is_reserved":false,"is_disabled":false,"rental_uris":{"android":"levelo://app?vid=5beaa40a-f95a-4af3-94f6-72b61e748f45","ios":"levelo://app?vid=5beaa40a-f95a-4af3-94f6-72b61e748f45"},"vehicle_type_id":"4","last_reported":1745644168,"current_range_meters":14400,"station_id":"ce4bh412rcd13ifvqds0","pricing_plan_id":"cebpf4jnsgd1na2vs0mg"},{"bike_id":"fe2049cb-9356-4b81-af41-aad0fb7a05d9","system_id":"levelo_inurba_marseille","lat":43.24096,"lon":5.37724,"is_reserved":false,"is_disabled":false,"rental_uris":{"android":"levelo://app?vid=fe2049cb-9356-4b81-af41-aad0fb7a05d9","ios":"levelo://app?vid=fe2049cb-9356-4b81-af41-aad0fb7a05d9"},"vehicle_type_id":"4","last_reported":1745644168,"current_range_meters":14400,"station_id":"ce4bhnp2rcd13ifvqgvg","pricing_plan_id":"cebpf4jnsgd1na2vs0mg"},{"bike_id":"540e73f3-f5fe-4af6-8cf8-7c93cbc816e3","system_id":"levelo_inurba_marseille","lat":43.30078,"lon":5.39084,"is_reserved":false,"is_disabled":true,"rental_uris":{"android":"levelo://app?vid=540e73f3-f5fe-4af6-8cf8-7c93cbc816e3","ios":"levelo://app?vid=540e73f3-f5fe-4af6-8cf8-7c93cbc816e3"},"vehicle_type_id":"4","last_reported":1745644168,"current_range_meters":14800,"station_id":"ce4bh192rcd13ifvqdb0","pricing_plan_id":"cebpf4jnsgd1na2vs0mg"},{"bike_id":"31de0553-c9b8-4cd4-844d-7d7b36fa3ecd","system_id":"levelo_inurba_marseille","lat":43.28194,"lon":5.42646,"is_reserved":false,"is_disabled":false,"rental_uris":{"android":"levelo://app?vid=31de0553-c9b8-4cd4-844d-7d7b36fa3ecd","ios":"levelo://app?vid=31de0553-c9b8-4cd4-844d-7d7b36fa3ecd"},"vehicle_type_id":"4","last_reported":1745644168,"current_range_meters":14800,"station_id":"ce4bhnh2rcd13ifvqgug","pricing_plan_id":"cebpf4jnsgd1na2vs0mg"},{"bike_id":"fae415bd-210f-42ca-b903-13f2833e2c02","system_id":"levelo_inurba_marseille","lat":43.30818,"lon":5.37632,"is_reserved":false,"is_disabled":false,"rental_uris":{"android":"levelo://app?vid=fae415bd-210f-42ca-b903-13f2833e2c02","ios":"levelo://app?vid=fae415bd-210f-42ca-b903-13f2833e2c02"},"vehicle_type_id":"4","last_reported":1745644168,"current_range_meters":14800,"station_id":"ce4bgv92rcd13ifvqcq0","pricing_plan_id":"cebpf4jnsgd1na2vs0mg"},{"bike_id":"dbebca8a-053a-407c-9e87-ed214e66581b","system_id":"levelo_inurba_marseille","lat":43.323638,"lon":5.388849,"is_reserved":false,"is_disabled":false,"rental_uris":{"android":"levelo://app?vid=dbebca8a-053a-407c-9e87-ed214e66581b","ios":"levelo://app?vid=dbebca8a-053a-407c-9e87-ed214e66581b"},"vehicle_type_id":"4","last_reported":1745644168,"current_range_meters":14800,"station_id":"ce4bhqp2rcd13ifvqhog","pricing_plan_id":"cebpf4jnsgd1na2vs0mg"},{"bike_id":"51a4b1f4-4cfb-4b9e-b7e6-50254ee4c796","system_id":"levelo_inurba_marseille","lat":43.28613,"lon":5.37059,"is_reserved":false,"is_disabled":true,"rental_uris":{"android":"levelo://app?vid=51a4b1f4-4cfb-4b9e-b7e6-50254ee4c796","ios":"levelo://app?vid=51a4b1f4-4cfb-4b9e-b7e6-50254ee4c796"},"vehicle_type_id":"4","last_reported":1745644168,"current_range_meters":14800,"station_id":"ce4bht12rcd13ifvqi60","pricing_plan_id":"cebpf4jnsgd1na2vs0mg"},{"bike_id":"96733886-38eb-4a8b-9470-0c4bf645e97a","system_id":"levelo_inurba_marseille","lat":43.27944,"lon":5.41052,"is_reserved":false,"is_disabled":false,"rental_uris":{"android":"levelo://app?vid=96733886-38eb-4a8b-9470-0c4bf645e97a","ios":"levelo://app?vid=96733886-38eb-4a8b-9470-0c4bf645e97a"},"vehicle_type_id":"4","last_reported":1745644168,"current_range_meters":15200,"station_id":"ce4bhnp2rcd13ifvqh0g","pricing_plan_id":"cebpf4jnsgd1na2vs0mg"},{"bike_id":"0ec508c1-e9ac-4b5b-b8d1-19675c98bb05","system_id":"levelo_inurba_marseille","lat":43.3302,"lon":5.39068,"is_reserved":false,"is_disabled":false,"rental_uris":{"android":"levelo://app?vid=0ec508c1-e9ac-4b5b-b8d1-19675c98bb05","ios":"levelo://app?vid=0ec508c1-e9ac-4b5b-b8d1-19675c98bb05"},"vehicle_type_id":"4","last_reported":1745644168,"current_range_meters":15200,"station_id":"ce4bhr92rcd13ifvqhrg","pricing_plan_id":"cebpf4jnsgd1na2vs0mg"},{"bike_id":"218113f3-ca7f-4a5b-b644-485946444282","system_id":"levelo_inurba_marseille","lat":43.31491,"lon":5.37313,"is_reserved":false,"is_disabled":false,"rental_uris":{"android":"levelo://app?vid=218113f3-ca7f-4a5b-b644-485946444282","ios":"levelo://app?vid=218113f3-ca7f-4a5b-b644-485946444282"},"vehicle_type_id":"4","last_reported":1745644168,"current_range_meters":15200,"station_id":"ce4bgt12rcd13ifvqcd0","pricing_plan_id":"cebpf4jnsgd1na2vs0mg"},{"bike_id":"3390b5bf-aae0-42c0-8b96-3b4cdfeab343","system_id":"levelo_inurba_marseille","lat":43.23184,"lon":5.39986,"is_reserved":false,"is_disabled":false,"rental_uris":{"android":"levelo://app?vid=3390b5bf-aae0-42c0-8b96-3b4cdfeab343","ios":"levelo://app?vid=3390b5bf-aae0-42c0-8b96-3b4cdfeab343"},"vehicle_type_id":"4","last_reported":1745644168,"current_range_meters":15200,"station_id":"ce4bhn12rcd13ifvqgqg","pricing_plan_id":"cebpf4jnsgd1na2vs0mg"},{"bike_id":"84fbb3b0-32a6-4d2e-ae64-a58ff68e7b32","system_id":"levelo_inurba_marseille","lat":43.229282,"lon":5.353796,"is_reserved":false,"is_disabled":false,"rental_uris":{"android":"levelo://app?vid=84fbb3b0-32a6-4d2e-ae64-a58ff68e7b32","ios":"levelo://app?vid=84fbb3b0-32a6-4d2e-ae64-a58ff68e7b32"},"vehicle_type_id":"4","last_reported":1745644168,"current_range_meters":15200,"station_id":"cpo3532slgdg3j2ikp40","pricing_plan_id":"cebpf4jnsgd1na2vs0mg"},{"bike_id":"a5fa1024-04db-4ebb-8b64-305dff021d96","system_id":"levelo_inurba_marseille","lat":43.25088,"lon":5.39511,"is_reserved":false,"is_disabled":false,"rental_uris":{"android":"levelo://app?vid=a5fa1024-04db-4ebb-8b64-305dff021d96","ios":"levelo://app?vid=a5fa1024-04db-4ebb-8b64-305dff021d96"},"vehicle_type_id":"4","last_reported":1745644168,"current_range_meters":15200,"station_id":"ce4bhm12rcd13ifvqgkg","pricing_plan_id":"cebpf4jnsgd1na2vs0mg"},{"bike_id":"3c3a5666-1757-47f8-ac90-722696e2aeb8","system_id":"levelo_inurba_marseille","lat":43.28631,"lon":5.35094,"is_reserved":false,"is_disabled":false,"rental_uris":{"android":"levelo://app?vid=3c3a5666-1757-47f8-ac90-722696e2aeb8","ios":"levelo://app?vid=3c3a5666-1757-47f8-ac90-722696e2aeb8"},"vehicle_type_id":"4","last_reported":1745644168,"current_range_meters":15200,"station_id":"ce4bhch2rcd13ifvqeug","pricing_plan_id":"cebpf4jnsgd1na2vs0mg"},{"bike_id":"e3cdf67a-5fc2-4703-9c39-57d29454c8ba","system_id":"levelo_inurba_marseille","lat":43.340425,"lon":5.386994,"is_reserved":false,"is_disabled":false,"rental_uris":{"android":"levelo://app?vid=e3cdf67a-5fc2-4703-9c39-57d29454c8ba","ios":"levelo://app?vid=e3cdf67a-5fc2-4703-9c39-57d29454c8ba"},"vehicle_type_id":"4","last_reported":1745644168,"current_range_meters":16000,"station_id":"","pricing_plan_id":"cebpf4jnsgd1na2vs0mg"},{"bike_id":"e64a8179-20ec-40a0-b26f-d42c5370f5e5","system_id":"levelo_inurba_marseille","lat":43.305952,"lon":5.393565,"is_reserved":false,"is_disabled":false,"rental_uris":{"android":"levelo://app?vid=e64a8179-20ec-40a0-b26f-d42c5370f5e5","ios":"levelo://app?vid=e64a8179-20ec-40a0-b26f-d42c5370f5e5"},"vehicle_type_id":"4","last_reported":1745644168,"current_range_meters":16000,"station_id":"ce4bh0p2rcd13ifvqd80","pricing_plan_id":"cebpf4jnsgd1na2vs0mg"},{"bike_id":"d28bf9af-5868-40cf-bc78-dd7cb5c022b5","system_id":"levelo_inurba_marseille","lat":43.29959,"lon":5.38502,"is_reserved":false,"is_disabled":true,"rental_uris":{"android":"levelo://app?vid=d28bf9af-5868-40cf-bc78-dd7cb5c022b5","ios":"levelo://app?vid=d28bf9af-5868-40cf-bc78-dd7cb5c022b5"},"vehicle_type_id":"4","last_reported":1745644168,"current_range_meters":16000,"station_id":"ce4bgj92rcd13ifvqbd0","pricing_plan_id":"cebpf4jnsgd1na2vs0mg"},{"bike_id":"c06fdd9a-4182-46e7-ab89-462edfb86425","system_id":"levelo_inurba_marseille","lat":43.317049,"lon":5.404575,"is_reserved":false,"is_disabled":false,"rental_uris":{"android":"levelo://app?vid=c06fdd9a-4182-46e7-ab89-462edfb86425","ios":"levelo://app?vid=c06fdd9a-4182-46e7-ab89-462edfb86425"},"vehicle_type_id":"4","last_reported":1745644168,"current_range_meters":16000,"station_id":"ce4bh012rcd13ifvqd00","pricing_plan_id":"cebpf4jnsgd1na2vs0mg"},{"bike_id":"ca376395-5bab-49ac-a88b-03ed7986b1fc","system_id":"levelo_inurba_marseille","lat":43.25921,"lon":5.40915,"is_reserved":false,"is_disabled":false,"rental_uris":{"android":"levelo://app?vid=ca376395-5bab-49ac-a88b-03ed7986b1fc","ios":"levelo://app?vid=ca376395-5bab-49ac-a88b-03ed7986b1fc"},"vehicle_type_id":"4","last_reported":1745644168,"current_range_meters":16000,"station_id":"ce4bhm92rcd13ifvqglg","pricing_plan_id":"cebpf4jnsgd1na2vs0mg"},{"bike_id":"4046a82f-66e8-4b55-bd0a-356edea772d8","system_id":"levelo_inurba_marseille","lat":43.30769,"lon":5.37398,"is_reserved":false,"is_disabled":false,"rental_uris":{"android":"levelo://app?vid=4046a82f-66e8-4b55-bd0a-356edea772d8","ios":"levelo://app?vid=4046a82f-66e8-4b55-bd0a-356edea772d8"},"vehicle_type_id":"4","last_reported":1745644168,"current_range_meters":16400,"station_id":"","pricing_plan_id":"cebpf4jnsgd1na2vs0mg"},{"bike_id":"76d051a0-70d0-4b83-a696-0389d8a23079","system_id":"levelo_inurba_marseille","lat":43.25595,"lon":5.41134,"is_reserved":false,"is_disabled":false,"rental_uris":{"android":"levelo://app?vid=76d051a0-70d0-4b83-a696-0389d8a23079","ios":"levelo://app?vid=76d051a0-70d0-4b83-a696-0389d8a23079"},"vehicle_type_id":"4","last_reported":1745644168,"current_range_meters":16400,"station_id":"ce4bhkp2rcd13ifvqgd0","pricing_plan_id":"cebpf4jnsgd1na2vs0mg"},{"bike_id":"aac80c5a-a5cf-4bfd-8104-2ee2df6da29e","system_id":"levelo_inurba_marseille","lat":43.33585,"lon":5.43636,"is_reserved":false,"is_disabled":false,"rental_uris":{"android":"levelo://app?vid=aac80c5a-a5cf-4bfd-8104-2ee2df6da29e","ios":"levelo://app?vid=aac80c5a-a5cf-4bfd-8104-2ee2df6da29e"},"vehicle_type_id":"4","last_reported":1745644168,"current_range_meters":16400,"station_id":"","pricing_plan_id":"cebpf4jnsgd1na2vs0mg"},{"bike_id":"8681189a-c5a2-4458-b6c1-95a6506a132e","system_id":"levelo_inurba_marseille","lat":43.27941,"lon":5.41084,"is_reserved":false,"is_disabled":false,"rental_uris":{"android":"levelo://app?vid=8681189a-c5a2-4458-b6c1-95a6506a132e","ios":"levelo://app?vid=8681189a-c5a2-4458-b6c1-95a6506a132e"},"vehicle_type_id":"4","last_reported":1745644168,"current_range_meters":16400,"station_id":"ce4bhnp2rcd13ifvqh0g","pricing_plan_id":"cebpf4jnsgd1na2vs0mg"},{"bike_id":"3e1ad8a3-a958-4d00-9a56-262625ea8d0f","system_id":"levelo_inurba_marseille","lat":43.28032,"lon":5.36954,"is_reserved":false,"is_disabled":false,"rental_uris":{"android":"levelo://app?vid=3e1ad8a3-a958-4d00-9a56-262625ea8d0f","ios":"levelo://app?vid=3e1ad8a3-a958-4d00-9a56-262625ea8d0f"},"vehicle_type_id":"4","last_reported":1745644168,"current_range_meters":16400,"station_id":"ce4bha12rcd13ifvqef0","pricing_plan_id":"cebpf4jnsgd1na2vs0mg"},{"bike_id":"def74e89-babc-4048-adcb-7b2d20699087","system_id":"levelo_inurba_marseille","lat":43.29902,"lon":5.43643,"is_reserved":false,"is_disabled":false,"rental_uris":{"android":"levelo://app?vid=def74e89-babc-4048-adcb-7b2d20699087","ios":"levelo://app?vid=def74e89-babc-4048-adcb-7b2d20699087"},"vehicle_type_id":"4","last_reported":1745644168,"current_range_meters":16400,"station_id":"ce4bhpp2rcd13ifvqhfg","pricing_plan_id":"cebpf4jnsgd1na2vs0mg"},{"bike_id":"13d452e5-1cae-4c4a-9e20-732e3eed22e9","system_id":"levelo_inurba_marseille","lat":43.23584,"lon":5.40353,"is_reserved":false,"is_disabled":false,"rental_uris":{"android":"levelo://app?vid=13d452e5-1cae-4c4a-9e20-732e3eed22e9","ios":"levelo://app?vid=13d452e5-1cae-4c4a-9e20-732e3eed22e9"},"vehicle_type_id":"4","last_reported":1745644168,"current_range_meters":16400,"station_id":"","pricing_plan_id":"cebpf4jnsgd1na2vs0mg"},{"bike_id":"dddc405f-b2d2-447f-8255-f175193c2de5","system_id":"levelo_inurba_marseille","lat":43.32087,"lon":5.36819,"is_reserved":false,"is_disabled":false,"rental_uris":{"android":"levelo://app?vid=dddc405f-b2d2-447f-8255-f175193c2de5","ios":"levelo://app?vid=dddc405f-b2d2-447f-8255-f175193c2de5"},"vehicle_type_id":"4","last_reported":1745644168,"current_range_meters":16400,"station_id":"ce4bhrh2rcd13ifvqhug","pricing_plan_id":"cebpf4jnsgd1na2vs0mg"},{"bike_id":"5fdc0623-6c76-4064-a69a-27e877e94ecd","system_id":"levelo_inurba_marseille","lat":43.30756,"lon":5.37651,"is_reserved":false,"is_disabled":true,"rental_uris":{"android":"levelo://app?vid=5fdc0623-6c76-4064-a69a-27e877e94ecd","ios":"levelo://app?vid=5fdc0623-6c76-4064-a69a-27e877e94ecd"},"vehicle_type_id":"4","last_reported":1745644168,"current_range_meters":16400,"station_id":"","pricing_plan_id":"cebpf4jnsgd1na2vs0mg"},{"bike_id":"698c2b74-5d2f-4738-b4e7-342df269cf55","system_id":"levelo_inurba_marseille","lat":43.30159,"lon":5.38081,"is_reserved":false,"is_disabled":false,"rental_uris":{"android":"levelo://app?vid=698c2b74-5d2f-4738-b4e7-342df269cf55","ios":"levelo://app?vid=698c2b74-5d2f-4738-b4e7-342df269cf55"},"vehicle_type_id":"4","last_reported":1745644168,"current_range_meters":16400,"station_id":"ce4bgjp2rcd13ifvqbh0","pricing_plan_id":"cebpf4jnsgd1na2vs0mg"},{"bike_id":"7dd260a0-acb7-4e68-ac47-8bfb485254c2","system_id":"levelo_inurba_marseille","lat":43.30664,"lon":5.40098,"is_reserved":false,"is_disabled":false,"rental_uris":{"android":"levelo://app?vid=7dd260a0-acb7-4e68-ac47-8bfb485254c2","ios":"levelo://app?vid=7dd260a0-acb7-4e68-ac47-8bfb485254c2"},"vehicle_type_id":"4","last_reported":1745644168,"current_range_meters":16400,"station_id":"ce4bh112rcd13ifvqda0","pricing_plan_id":"cebpf4jnsgd1na2vs0mg"},{"bike_id":"e1ee8ace-9fc3-4392-8a03-2286d227c6a9","system_id":"levelo_inurba_marseille","lat":43.30664,"lon":5.40086,"is_reserved":false,"is_disabled":false,"rental_uris":{"android":"levelo://app?vid=e1ee8ace-9fc3-4392-8a03-2286d227c6a9","ios":"levelo://app?vid=e1ee8ace-9fc3-4392-8a03-2286d227c6a9"},"vehicle_type_id":"4","last_reported":1745644168,"current_range_meters":16800,"station_id":"ce4bh112rcd13ifvqda0","pricing_plan_id":"cebpf4jnsgd1na2vs0mg"},{"bike_id":"4e8fd261-5c49-4ef1-b3c3-50a0fadb11cf","system_id":"levelo_inurba_marseille","lat":43.25105,"lon":5.40329,"is_reserved":false,"is_disabled":false,"rental_uris":{"android":"levelo://app?vid=4e8fd261-5c49-4ef1-b3c3-50a0fadb11cf","ios":"levelo://app?vid=4e8fd261-5c49-4ef1-b3c3-50a0fadb11cf"},"vehicle_type_id":"4","last_reported":1745644168,"current_range_meters":16800,"station_id":"ce4bhlh2rcd13ifvqgig","pricing_plan_id":"cebpf4jnsgd1na2vs0mg"},{"bike_id":"005bb18b-bbe4-4955-9608-908f15fe9124","system_id":"levelo_inurba_marseille","lat":43.30945,"lon":5.40144,"is_reserved":false,"is_disabled":false,"rental_uris":{"android":"levelo://app?vid=005bb18b-bbe4-4955-9608-908f15fe9124","ios":"levelo://app?vid=005bb18b-bbe4-4955-9608-908f15fe9124"},"vehicle_type_id":"4","last_reported":1745644168,"current_range_meters":16800,"station_id":"ce4bgvp2rcd13ifvqct0","pricing_plan_id":"cebpf4jnsgd1na2vs0mg"},{"bike_id":"a18b32af-837e-4f1b-a9b1-f47fdb463774","system_id":"levelo_inurba_marseille","lat":43.33614,"lon":5.41011,"is_reserved":false,"is_disabled":false,"rental_uris":{"android":"levelo://app?vid=a18b32af-837e-4f1b-a9b1-f47fdb463774","ios":"levelo://app?vid=a18b32af-837e-4f1b-a9b1-f47fdb463774"},"vehicle_type_id":"4","last_reported":1745644168,"current_range_meters":16800,"station_id":"ce4bhqh2rcd13ifvqhmg","pricing_plan_id":"cebpf4jnsgd1na2vs0mg"},{"bike_id":"817017a8-06d7-4168-a9c7-63b6ced6925a","system_id":"levelo_inurba_marseille","lat":43.314834,"lon":5.373047,"is_reserved":false,"is_disabled":false,"rental_uris":{"android":"levelo://app?vid=817017a8-06d7-4168-a9c7-63b6ced6925a","ios":"levelo://app?vid=817017a8-06d7-4168-a9c7-63b6ced6925a"},"vehicle_type_id":"4","last_reported":1745644168,"current_range_meters":16800,"station_id":"ce4bgt12rcd13ifvqcd0","pricing_plan_id":"cebpf4jnsgd1na2vs0mg"},{"bike_id":"cafd22c7-7677-4d40-a503-8cc2a23a898b","system_id":"levelo_inurba_marseille","lat":43.246785,"lon":5.381555,"is_reserved":false,"is_disabled":false,"rental_uris":{"android":"levelo://app?vid=cafd22c7-7677-4d40-a503-8cc2a23a898b","ios":"levelo://app?vid=cafd22c7-7677-4d40-a503-8cc2a23a898b"},"vehicle_type_id":"4","last_reported":1745644168,"current_range_meters":16800,"station_id":"ce4bhih2rcd13ifvqfr0","pricing_plan_id":"cebpf4jnsgd1na2vs0mg"},{"bike_id":"bc2652db-32ee-450e-8cc0-005a02c1f054","system_id":"levelo_inurba_marseille","lat":43.21188,"lon":5.35075,"is_reserved":false,"is_disabled":false,"rental_uris":{"android":"levelo://app?vid=bc2652db-32ee-450e-8cc0-005a02c1f054","ios":"levelo://app?vid=bc2652db-32ee-450e-8cc0-005a02c1f054"},"vehicle_type_id":"4","last_reported":1745644168,"current_range_meters":16800,"station_id":"st_cvj6sg6p6f1abm77japg","pricing_plan_id":"cebpf4jnsgd1na2vs0mg"},{"bike_id":"b3281256-316b-4bed-b05e-e33a4451db6e","system_id":"levelo_inurba_marseille","lat":43.30887,"lon":5.39648,"is_reserved":false,"is_disabled":false,"rental_uris":{"android":"levelo://app?vid=b3281256-316b-4bed-b05e-e33a4451db6e","ios":"levelo://app?vid=b3281256-316b-4bed-b05e-e33a4451db6e"},"vehicle_type_id":"4","last_reported":1745644168,"current_range_meters":16800,"station_id":"ce4bh012rcd13ifvqcv0","pricing_plan_id":"cebpf4jnsgd1na2vs0mg"},{"bike_id":"4741e6af-20c0-42f4-b950-4d85a1b8cba0","system_id":"levelo_inurba_marseille","lat":43.308344,"lon":5.379094,"is_reserved":false,"is_disabled":false,"rental_uris":{"android":"levelo://app?vid=4741e6af-20c0-42f4-b950-4d85a1b8cba0","ios":"levelo://app?vid=4741e6af-20c0-42f4-b950-4d85a1b8cba0"},"vehicle_type_id":"4","last_reported":1745644168,"current_range_meters":16800,"station_id":"","pricing_plan_id":"cebpf4jnsgd1na2vs0mg"},{"bike_id":"2e239c1f-dbc8-4c8f-bad4-86f9adfa8381","system_id":"levelo_inurba_marseille","lat":43.303216,"lon":5.404349,"is_reserved":false,"is_disabled":false,"rental_uris":{"android":"levelo://app?vid=2e239c1f-dbc8-4c8f-bad4-86f9adfa8381","ios":"levelo://app?vid=2e239c1f-dbc8-4c8f-bad4-86f9adfa8381"},"vehicle_type_id":"4","last_reported":1745644168,"current_range_meters":17200,"station_id":"ce4bh012rcd13ifvqd10","pricing_plan_id":"cebpf4jnsgd1na2vs0mg"},{"bike_id":"5cb5fa24-52ea-420d-ba8f-f3e9de6bfd03","system_id":"levelo_inurba_marseille","lat":43.266938,"lon":5.382682,"is_reserved":false,"is_disabled":false,"rental_uris":{"android":"levelo://app?vid=5cb5fa24-52ea-420d-ba8f-f3e9de6bfd03","ios":"levelo://app?vid=5cb5fa24-52ea-420d-ba8f-f3e9de6bfd03"},"vehicle_type_id":"4","last_reported":1745644168,"current_range_meters":17200,"station_id":"ce4bhg92rcd13ifvqf90","pricing_plan_id":"cebpf4jnsgd1na2vs0mg"},{"bike_id":"b1c9db00-e3b6-4644-a6ed-281db3cb6a30","system_id":"levelo_inurba_marseille","lat":43.30202,"lon":5.43781,"is_reserved":false,"is_disabled":false,"rental_uris":{"android":"levelo://app?vid=b1c9db00-e3b6-4644-a6ed-281db3cb6a30","ios":"levelo://app?vid=b1c9db00-e3b6-4644-a6ed-281db3cb6a30"},"vehicle_type_id":"4","last_reported":1745644168,"current_range_meters":17200,"station_id":"","pricing_plan_id":"cebpf4jnsgd1na2vs0mg"},{"bike_id":"29f9e921-698d-4054-bde4-c87fb4a9fbbf","system_id":"levelo_inurba_marseille","lat":43.308793,"lon":5.39638,"is_reserved":false,"is_disabled":false,"rental_uris":{"android":"levelo://app?vid=29f9e921-698d-4054-bde4-c87fb4a9fbbf","ios":"levelo://app?vid=29f9e921-698d-4054-bde4-c87fb4a9fbbf"},"vehicle_type_id":"4","last_reported":1745644168,"current_range_meters":17200,"station_id":"ce4bh012rcd13ifvqcv0","pricing_plan_id":"cebpf4jnsgd1na2vs0mg"},{"bike_id":"f62e3672-37b8-4a22-8afb-a722864e0229","system_id":"levelo_inurba_marseille","lat":43.27923,"lon":5.39584,"is_reserved":false,"is_disabled":false,"rental_uris":{"android":"levelo://app?vid=f62e3672-37b8-4a22-8afb-a722864e0229","ios":"levelo://app?vid=f62e3672-37b8-4a22-8afb-a722864e0229"},"vehicle_type_id":"4","last_reported":1745644168,"current_range_meters":17600,"station_id":"ce4bh312rcd13ifvqdj0","pricing_plan_id":"cebpf4jnsgd1na2vs0mg"},{"bike_id":"55e463c2-e9b2-4adf-8e24-41c0314c1879","system_id":"levelo_inurba_marseille","lat":43.24009,"lon":5.378,"is_reserved":false,"is_disabled":false,"rental_uris":{"android":"levelo://app?vid=55e463c2-e9b2-4adf-8e24-41c0314c1879","ios":"levelo://app?vid=55e463c2-e9b2-4adf-8e24-41c0314c1879"},"vehicle_type_id":"4","last_reported":1745644168,"current_range_meters":17600,"station_id":"ce4bhnp2rcd13ifvqgvg","pricing_plan_id":"cebpf4jnsgd1na2vs0mg"},{"bike_id":"dfe683ee-136f-46de-abae-4404fcd6c46e","system_id":"levelo_inurba_marseille","lat":43.292628,"lon":5.384275,"is_reserved":false,"is_disabled":false,"rental_uris":{"android":"levelo://app?vid=dfe683ee-136f-46de-abae-4404fcd6c46e","ios":"levelo://app?vid=dfe683ee-136f-46de-abae-4404fcd6c46e"},"vehicle_type_id":"4","last_reported":1745644168,"current_range_meters":17600,"station_id":"ce4bgih2rcd13ifvqba0","pricing_plan_id":"cebpf4jnsgd1na2vs0mg"},{"bike_id":"d28f3dec-e5aa-4108-804a-055deac2719f","system_id":"levelo_inurba_marseille","lat":43.30304,"lon":5.40453,"is_reserved":false,"is_disabled":false,"rental_uris":{"android":"levelo://app?vid=d28f3dec-e5aa-4108-804a-055deac2719f","ios":"levelo://app?vid=d28f3dec-e5aa-4108-804a-055deac2719f"},"vehicle_type_id":"4","last_reported":1745644168,"current_range_meters":17600,"station_id":"ce4bh012rcd13ifvqd10","pricing_plan_id":"cebpf4jnsgd1na2vs0mg"},{"bike_id":"b63b8150-9e3c-4501-805d-b0a0f71251f1","system_id":"levelo_inurba_marseille","lat":43.33625,"lon":5.41001,"is_reserved":false,"is_disabled":false,"rental_uris":{"android":"levelo://app?vid=b63b8150-9e3c-4501-805d-b0a0f71251f1","ios":"levelo://app?vid=b63b8150-9e3c-4501-805d-b0a0f71251f1"},"vehicle_type_id":"4","last_reported":1745644168,"current_range_meters":17600,"station_id":"ce4bhqh2rcd13ifvqhmg","pricing_plan_id":"cebpf4jnsgd1na2vs0mg"},{"bike_id":"3d8c5914-383a-4509-8539-1561f0bf8036","system_id":"levelo_inurba_marseille","lat":43.2906,"lon":5.40032,"is_reserved":false,"is_disabled":true,"rental_uris":{"android":"levelo://app?vid=3d8c5914-383a-4509-8539-1561f0bf8036","ios":"levelo://app?vid=3d8c5914-383a-4509-8539-1561f0bf8036"},"vehicle_type_id":"4","last_reported":1745644168,"current_range_meters":17600,"station_id":"","pricing_plan_id":"cebpf4jnsgd1na2vs0mg"},{"bike_id":"f415d2f2-0682-467a-80ca-9aa7e2bfd0fa","system_id":"levelo_inurba_marseille","lat":43.29192,"lon":5.35786,"is_reserved":false,"is_disabled":true,"rental_uris":{"android":"levelo://app?vid=f415d2f2-0682-467a-80ca-9aa7e2bfd0fa","ios":"levelo://app?vid=f415d2f2-0682-467a-80ca-9aa7e2bfd0fa"},"vehicle_type_id":"4","last_reported":1745644168,"current_range_meters":17600,"station_id":"ce4bhb12rcd13ifvqel0","pricing_plan_id":"cebpf4jnsgd1na2vs0mg"},{"bike_id":"95f09d82-77cb-4638-80aa-d277595bd174","system_id":"levelo_inurba_marseille","lat":43.29256,"lon":5.40911,"is_reserved":false,"is_disabled":false,"rental_uris":{"android":"levelo://app?vid=95f09d82-77cb-4638-80aa-d277595bd174","ios":"levelo://app?vid=95f09d82-77cb-4638-80aa-d277595bd174"},"vehicle_type_id":"4","last_reported":1745644168,"current_range_meters":18000,"station_id":"ce4bh192rcd13ifvqdc0","pricing_plan_id":"cebpf4jnsgd1na2vs0mg"},{"bike_id":"436fb7fb-1d2f-495e-a297-1479f0aa23e8","system_id":"levelo_inurba_marseille","lat":43.33007,"lon":5.39037,"is_reserved":false,"is_disabled":false,"rental_uris":{"android":"levelo://app?vid=436fb7fb-1d2f-495e-a297-1479f0aa23e8","ios":"levelo://app?vid=436fb7fb-1d2f-495e-a297-1479f0aa23e8"},"vehicle_type_id":"4","last_reported":1745644168,"current_range_meters":18000,"station_id":"ce4bhr92rcd13ifvqhrg","pricing_plan_id":"cebpf4jnsgd1na2vs0mg"},{"bike_id":"3cc68647-b5c1-4b95-8e96-0cc2b3dc0c57","system_id":"levelo_inurba_marseille","lat":43.30386,"lon":5.4249,"is_reserved":false,"is_disabled":false,"rental_uris":{"android":"levelo://app?vid=3cc68647-b5c1-4b95-8e96-0cc2b3dc0c57","ios":"levelo://app?vid=3cc68647-b5c1-4b95-8e96-0cc2b3dc0c57"},"vehicle_type_id":"4","last_reported":1745644168,"current_range_meters":18000,"station_id":"ce4bhoh2rcd13ifvqh6g","pricing_plan_id":"cebpf4jnsgd1na2vs0mg"},{"bike_id":"3c8dc355-6f2d-43ac-a424-3315ca690958","system_id":"levelo_inurba_marseille","lat":43.31276,"lon":5.40169,"is_reserved":false,"is_disabled":false,"rental_uris":{"android":"levelo://app?vid=3c8dc355-6f2d-43ac-a424-3315ca690958","ios":"levelo://app?vid=3c8dc355-6f2d-43ac-a424-3315ca690958"},"vehicle_type_id":"4","last_reported":1745644168,"current_range_meters":18000,"station_id":"ce4bh092rcd13ifvqd30","pricing_plan_id":"cebpf4jnsgd1na2vs0mg"},{"bike_id":"1504a7b4-3c2b-41cd-85cd-57aa88641e7e","system_id":"levelo_inurba_marseille","lat":43.29659,"lon":5.36605,"is_reserved":false,"is_disabled":true,"rental_uris":{"android":"levelo://app?vid=1504a7b4-3c2b-41cd-85cd-57aa88641e7e","ios":"levelo://app?vid=1504a7b4-3c2b-41cd-85cd-57aa88641e7e"},"vehicle_type_id":"4","last_reported":1745644168,"current_range_meters":18000,"station_id":"ce4bgn12rcd13ifvqbt0","pricing_plan_id":"cebpf4jnsgd1na2vs0mg"},{"bike_id":"cf38f4d4-af02-4094-a3c8-697a59ea556d","system_id":"levelo_inurba_marseille","lat":43.23199,"lon":5.39993,"is_reserved":false,"is_disabled":false,"rental_uris":{"android":"levelo://app?vid=cf38f4d4-af02-4094-a3c8-697a59ea556d","ios":"levelo://app?vid=cf38f4d4-af02-4094-a3c8-697a59ea556d"},"vehicle_type_id":"4","last_reported":1745644168,"current_range_meters":18000,"station_id":"ce4bhn12rcd13ifvqgqg","pricing_plan_id":"cebpf4jnsgd1na2vs0mg"},{"bike_id":"9b34557f-da6e-4d65-b605-f460ac4b4f8d","system_id":"levelo_inurba_marseille","lat":43.27918,"lon":5.39582,"is_reserved":false,"is_disabled":false,"rental_uris":{"android":"levelo://app?vid=9b34557f-da6e-4d65-b605-f460ac4b4f8d","ios":"levelo://app?vid=9b34557f-da6e-4d65-b605-f460ac4b4f8d"},"vehicle_type_id":"4","last_reported":1745644168,"current_range_meters":18000,"station_id":"ce4bhf92rcd13ifvqf40","pricing_plan_id":"cebpf4jnsgd1na2vs0mg"},{"bike_id":"20ea6a76-0cae-4365-a9ed-ae76ff53ff94","system_id":"levelo_inurba_marseille","lat":43.297184,"lon":5.370274,"is_reserved":false,"is_disabled":false,"rental_uris":{"android":"levelo://app?vid=20ea6a76-0cae-4365-a9ed-ae76ff53ff94","ios":"levelo://app?vid=20ea6a76-0cae-4365-a9ed-ae76ff53ff94"},"vehicle_type_id":"4","last_reported":1745644168,"current_range_meters":18000,"station_id":"","pricing_plan_id":"cebpf4jnsgd1na2vs0mg"},{"bike_id":"faa8334f-d698-4b2b-8f65-d27f28dd59cc","system_id":"levelo_inurba_marseille","lat":43.337144,"lon":5.391917,"is_reserved":false,"is_disabled":false,"rental_uris":{"android":"levelo://app?vid=faa8334f-d698-4b2b-8f65-d27f28dd59cc","ios":"levelo://app?vid=faa8334f-d698-4b2b-8f65-d27f28dd59cc"},"vehicle_type_id":"4","last_reported":1745644168,"current_range_meters":18000,"station_id":"ce4bhr92rcd13ifvqhsg","pricing_plan_id":"cebpf4jnsgd1na2vs0mg"},{"bike_id":"b2178132-9584-493f-8ef8-d3dc384e9c80","system_id":"levelo_inurba_marseille","lat":43.31126,"lon":5.37766,"is_reserved":false,"is_disabled":false,"rental_uris":{"android":"levelo://app?vid=b2178132-9584-493f-8ef8-d3dc384e9c80","ios":"levelo://app?vid=b2178132-9584-493f-8ef8-d3dc384e9c80"},"vehicle_type_id":"4","last_reported":1745644168,"current_range_meters":18800,"station_id":"ce4bgt92rcd13ifvqcg0","pricing_plan_id":"cebpf4jnsgd1na2vs0mg"},{"bike_id":"b0706192-619e-4297-a21c-fa220e917ac5","system_id":"levelo_inurba_marseille","lat":43.30771,"lon":5.37652,"is_reserved":false,"is_disabled":false,"rental_uris":{"android":"levelo://app?vid=b0706192-619e-4297-a21c-fa220e917ac5","ios":"levelo://app?vid=b0706192-619e-4297-a21c-fa220e917ac5"},"vehicle_type_id":"4","last_reported":1745644168,"current_range_meters":18800,"station_id":"ce4bgv92rcd13ifvqcq0","pricing_plan_id":"cebpf4jnsgd1na2vs0mg"},{"bike_id":"29dedb36-9636-470f-a342-2cd304fb7aaf","system_id":"levelo_inurba_marseille","lat":43.30877,"lon":5.39695,"is_reserved":false,"is_disabled":false,"rental_uris":{"android":"levelo://app?vid=29dedb36-9636-470f-a342-2cd304fb7aaf","ios":"levelo://app?vid=29dedb36-9636-470f-a342-2cd304fb7aaf"},"vehicle_type_id":"4","last_reported":1745644168,"current_range_meters":18800,"station_id":"ce4bh012rcd13ifvqcv0","pricing_plan_id":"cebpf4jnsgd1na2vs0mg"},{"bike_id":"bbfe0edf-ce4b-44cf-a4ff-01fdd38fc0ab","system_id":"levelo_inurba_marseille","lat":43.27913,"lon":5.395843,"is_reserved":false,"is_disabled":false,"rental_uris":{"android":"levelo://app?vid=bbfe0edf-ce4b-44cf-a4ff-01fdd38fc0ab","ios":"levelo://app?vid=bbfe0edf-ce4b-44cf-a4ff-01fdd38fc0ab"},"vehicle_type_id":"4","last_reported":1745644168,"current_range_meters":18800,"station_id":"ce4bhf92rcd13ifvqf40","pricing_plan_id":"cebpf4jnsgd1na2vs0mg"},{"bike_id":"389fa13e-9fb8-4551-94cc-3437e858ed36","system_id":"levelo_inurba_marseille","lat":43.24166,"lon":5.36401,"is_reserved":false,"is_disabled":false,"rental_uris":{"android":"levelo://app?vid=389fa13e-9fb8-4551-94cc-3437e858ed36","ios":"levelo://app?vid=389fa13e-9fb8-4551-94cc-3437e858ed36"},"vehicle_type_id":"4","last_reported":1745644168,"current_range_meters":18800,"station_id":"cpo36qri1sfpv3e86is0","pricing_plan_id":"cebpf4jnsgd1na2vs0mg"},{"bike_id":"f8d14d70-41d8-4d2b-b3d4-9e51b705442c","system_id":"levelo_inurba_marseille","lat":43.24674,"lon":5.38161,"is_reserved":false,"is_disabled":false,"rental_uris":{"android":"levelo://app?vid=f8d14d70-41d8-4d2b-b3d4-9e51b705442c","ios":"levelo://app?vid=f8d14d70-41d8-4d2b-b3d4-9e51b705442c"},"vehicle_type_id":"4","last_reported":1745644168,"current_range_meters":18800,"station_id":"ce4bhih2rcd13ifvqfr0","pricing_plan_id":"cebpf4jnsgd1na2vs0mg"},{"bike_id":"c1adce4f-57b3-47a9-b72f-b985d62f1ea5","system_id":"levelo_inurba_marseille","lat":43.28699,"lon":5.37396,"is_reserved":false,"is_disabled":false,"rental_uris":{"android":"levelo://app?vid=c1adce4f-57b3-47a9-b72f-b985d62f1ea5","ios":"levelo://app?vid=c1adce4f-57b3-47a9-b72f-b985d62f1ea5"},"vehicle_type_id":"4","last_reported":1745644168,"current_range_meters":18800,"station_id":"ce4bh3p2rcd13ifvqdq0","pricing_plan_id":"cebpf4jnsgd1na2vs0mg"},{"bike_id":"e10849ab-f14c-42eb-bf35-8ad4ea47ec28","system_id":"levelo_inurba_marseille","lat":43.303117,"lon":5.404424,"is_reserved":false,"is_disabled":true,"rental_uris":{"android":"levelo://app?vid=e10849ab-f14c-42eb-bf35-8ad4ea47ec28","ios":"levelo://app?vid=e10849ab-f14c-42eb-bf35-8ad4ea47ec28"},"vehicle_type_id":"4","last_reported":1745644168,"current_range_meters":19200,"station_id":"ce4bh012rcd13ifvqd10","pricing_plan_id":"cebpf4jnsgd1na2vs0mg"},{"bike_id":"d42192cb-f15d-4f98-a687-65617362d316","system_id":"levelo_inurba_marseille","lat":43.309236,"lon":5.401624,"is_reserved":false,"is_disabled":false,"rental_uris":{"android":"levelo://app?vid=d42192cb-f15d-4f98-a687-65617362d316","ios":"levelo://app?vid=d42192cb-f15d-4f98-a687-65617362d316"},"vehicle_type_id":"4","last_reported":1745644168,"current_range_meters":19200,"station_id":"ce4bgvp2rcd13ifvqct0","pricing_plan_id":"cebpf4jnsgd1na2vs0mg"},{"bike_id":"1e0ac60b-e244-4f1a-948d-7791c5fa98da","system_id":"levelo_inurba_marseille","lat":43.21192,"lon":5.35097,"is_reserved":false,"is_disabled":false,"rental_uris":{"android":"levelo://app?vid=1e0ac60b-e244-4f1a-948d-7791c5fa98da","ios":"levelo://app?vid=1e0ac60b-e244-4f1a-948d-7791c5fa98da"},"vehicle_type_id":"4","last_reported":1745644168,"current_range_meters":19200,"station_id":"st_cvj6sg6p6f1abm77japg","pricing_plan_id":"cebpf4jnsgd1na2vs0mg"},{"bike_id":"1b7b5e62-58a8-47a6-bb98-b376f1982d14","system_id":"levelo_inurba_marseille","lat":43.31505,"lon":5.37298,"is_reserved":false,"is_disabled":false,"rental_uris":{"android":"levelo://app?vid=1b7b5e62-58a8-47a6-bb98-b376f1982d14","ios":"levelo://app?vid=1b7b5e62-58a8-47a6-bb98-b376f1982d14"},"vehicle_type_id":"4","last_reported":1745644168,"current_range_meters":19200,"station_id":"ce4bgt12rcd13ifvqcd0","pricing_plan_id":"cebpf4jnsgd1na2vs0mg"},{"bike_id":"bf716887-ead5-4212-9032-088d2785e1e0","system_id":"levelo_inurba_marseille","lat":43.28613,"lon":5.35113,"is_reserved":false,"is_disabled":false,"rental_uris":{"android":"levelo://app?vid=bf716887-ead5-4212-9032-088d2785e1e0","ios":"levelo://app?vid=bf716887-ead5-4212-9032-088d2785e1e0"},"vehicle_type_id":"4","last_reported":1745644168,"current_range_meters":19200,"station_id":"ce4bhch2rcd13ifvqeug","pricing_plan_id":"cebpf4jnsgd1na2vs0mg"},{"bike_id":"a417a637-a6f1-479e-abac-72f0b6707842","system_id":"levelo_inurba_marseille","lat":43.27918,"lon":5.39593,"is_reserved":false,"is_disabled":false,"rental_uris":{"android":"levelo://app?vid=a417a637-a6f1-479e-abac-72f0b6707842","ios":"levelo://app?vid=a417a637-a6f1-479e-abac-72f0b6707842"},"vehicle_type_id":"4","last_reported":1745644168,"current_range_meters":19200,"station_id":"ce4bhf92rcd13ifvqf40","pricing_plan_id":"cebpf4jnsgd1na2vs0mg"},{"bike_id":"274a2fbf-6a1d-4f06-9d19-6f1639e602bc","system_id":"levelo_inurba_marseille","lat":43.31069,"lon":5.38329,"is_reserved":false,"is_disabled":true,"rental_uris":{"android":"levelo://app?vid=274a2fbf-6a1d-4f06-9d19-6f1639e602bc","ios":"levelo://app?vid=274a2fbf-6a1d-4f06-9d19-6f1639e602bc"},"vehicle_type_id":"4","last_reported":1745644168,"current_range_meters":19200,"station_id":"ce4bgv92rcd13ifvqcr0","pricing_plan_id":"cebpf4jnsgd1na2vs0mg"},{"bike_id":"933e1eb2-0819-4cea-b5b0-00ea65c4538c","system_id":"levelo_inurba_marseille","lat":43.27916,"lon":5.3958,"is_reserved":false,"is_disabled":false,"rental_uris":{"android":"levelo://app?vid=933e1eb2-0819-4cea-b5b0-00ea65c4538c","ios":"levelo://app?vid=933e1eb2-0819-4cea-b5b0-00ea65c4538c"},"vehicle_type_id":"4","last_reported":1745644168,"current_range_meters":19200,"station_id":"ce4bhf92rcd13ifvqf40","pricing_plan_id":"cebpf4jnsgd1na2vs0mg"},{"bike_id":"f422f055-f7c6-4cd0-a8ef-b0211ad574d9","system_id":"levelo_inurba_marseille","lat":43.29027,"lon":5.38659,"is_reserved":false,"is_disabled":true,"rental_uris":{"android":"levelo://app?vid=f422f055-f7c6-4cd0-a8ef-b0211ad574d9","ios":"levelo://app?vid=f422f055-f7c6-4cd0-a8ef-b0211ad574d9"},"vehicle_type_id":"4","last_reported":1745644168,"current_range_meters":19200,"station_id":"ce4bh4p2rcd13ifvqe0g","pricing_plan_id":"cebpf4jnsgd1na2vs0mg"},{"bike_id":"a5503a6e-d507-4f52-b892-2dcf00324761","system_id":"levelo_inurba_marseille","lat":43.31335,"lon":5.39713,"is_reserved":false,"is_disabled":false,"rental_uris":{"android":"levelo://app?vid=a5503a6e-d507-4f52-b892-2dcf00324761","ios":"levelo://app?vid=a5503a6e-d507-4f52-b892-2dcf00324761"},"vehicle_type_id":"4","last_reported":1745644168,"current_range_meters":19600,"station_id":"ce4bgvp2rcd13ifvqcu0","pricing_plan_id":"cebpf4jnsgd1na2vs0mg"},{"bike_id":"41528498-d76f-4998-934c-429ad804d4cc","system_id":"levelo_inurba_marseille","lat":43.290182,"lon":5.381324,"is_reserved":false,"is_disabled":true,"rental_uris":{"android":"levelo://app?vid=41528498-d76f-4998-934c-429ad804d4cc","ios":"levelo://app?vid=41528498-d76f-4998-934c-429ad804d4cc"},"vehicle_type_id":"4","last_reported":1745644168,"current_range_meters":19600,"station_id":"ce4bh4p2rcd13ifvqe1g","pricing_plan_id":"cebpf4jnsgd1na2vs0mg"},{"bike_id":"b64aa273-5cc3-449e-ba92-14833edf0136","system_id":"levelo_inurba_marseille","lat":43.30887,"lon":5.39652,"is_reserved":false,"is_disabled":true,"rental_uris":{"android":"levelo://app?vid=b64aa273-5cc3-449e-ba92-14833edf0136","ios":"levelo://app?vid=b64aa273-5cc3-449e-ba92-14833edf0136"},"vehicle_type_id":"4","last_reported":1745644168,"current_range_meters":19600,"station_id":"ce4bh012rcd13ifvqcv0","pricing_plan_id":"cebpf4jnsgd1na2vs0mg"},{"bike_id":"1d4c6c74-80e4-48bf-8fe7-cebf6a9f738d","system_id":"levelo_inurba_marseille","lat":43.313225,"lon":5.396947,"is_reserved":false,"is_disabled":false,"rental_uris":{"android":"levelo://app?vid=1d4c6c74-80e4-48bf-8fe7-cebf6a9f738d","ios":"levelo://app?vid=1d4c6c74-80e4-48bf-8fe7-cebf6a9f738d"},"vehicle_type_id":"4","last_reported":1745644168,"current_range_meters":19600,"station_id":"ce4bgvp2rcd13ifvqcu0","pricing_plan_id":"cebpf4jnsgd1na2vs0mg"},{"bike_id":"6b6b84b3-e3fb-4e8a-832e-41ecf6ccd7ea","system_id":"levelo_inurba_marseille","lat":43.330191,"lon":5.390311,"is_reserved":false,"is_disabled":false,"rental_uris":{"android":"levelo://app?vid=6b6b84b3-e3fb-4e8a-832e-41ecf6ccd7ea","ios":"levelo://app?vid=6b6b84b3-e3fb-4e8a-832e-41ecf6ccd7ea"},"vehicle_type_id":"4","last_reported":1745644168,"current_range_meters":19600,"station_id":"ce4bhr92rcd13ifvqhrg","pricing_plan_id":"cebpf4jnsgd1na2vs0mg"},{"bike_id":"45bba92a-c5f4-4efd-92b8-f5fee4f76a0b","system_id":"levelo_inurba_marseille","lat":43.28429,"lon":5.37521,"is_reserved":false,"is_disabled":false,"rental_uris":{"android":"levelo://app?vid=45bba92a-c5f4-4efd-92b8-f5fee4f76a0b","ios":"levelo://app?vid=45bba92a-c5f4-4efd-92b8-f5fee4f76a0b"},"vehicle_type_id":"4","last_reported":1745644168,"current_range_meters":19600,"station_id":"ce4bh412rcd13ifvqds0","pricing_plan_id":"cebpf4jnsgd1na2vs0mg"},{"bike_id":"9fdb2c97-b8ee-4021-9db9-16498043e130","system_id":"levelo_inurba_marseille","lat":43.27845,"lon":5.39208,"is_reserved":false,"is_disabled":false,"rental_uris":{"android":"levelo://app?vid=9fdb2c97-b8ee-4021-9db9-16498043e130","ios":"levelo://app?vid=9fdb2c97-b8ee-4021-9db9-16498043e130"},"vehicle_type_id":"4","last_reported":1745644168,"current_range_meters":19600,"station_id":"ce4bhjp2rcd13ifvqga0","pricing_plan_id":"cebpf4jnsgd1na2vs0mg"},{"bike_id":"746bae85-4858-430c-a66c-3e9dae83241e","system_id":"levelo_inurba_marseille","lat":43.30922,"lon":5.40157,"is_reserved":false,"is_disabled":false,"rental_uris":{"android":"levelo://app?vid=746bae85-4858-430c-a66c-3e9dae83241e","ios":"levelo://app?vid=746bae85-4858-430c-a66c-3e9dae83241e"},"vehicle_type_id":"4","last_reported":1745644168,"current_range_meters":19600,"station_id":"ce4bgvp2rcd13ifvqct0","pricing_plan_id":"cebpf4jnsgd1na2vs0mg"},{"bike_id":"89bd255a-4c99-4347-a446-5521edc07582","system_id":"levelo_inurba_marseille","lat":43.278316,"lon":5.392129,"is_reserved":false,"is_disabled":false,"rental_uris":{"android":"levelo://app?vid=89bd255a-4c99-4347-a446-5521edc07582","ios":"levelo://app?vid=89bd255a-4c99-4347-a446-5521edc07582"},"vehicle_type_id":"4","last_reported":1745644168,"current_range_meters":20000,"station_id":"ce4bhjp2rcd13ifvqga0","pricing_plan_id":"cebpf4jnsgd1na2vs0mg"},{"bike_id":"d631cdce-3900-4de8-9570-921ea5c61b8c","system_id":"levelo_inurba_marseille","lat":43.30896,"lon":5.39697,"is_reserved":false,"is_disabled":false,"rental_uris":{"android":"levelo://app?vid=d631cdce-3900-4de8-9570-921ea5c61b8c","ios":"levelo://app?vid=d631cdce-3900-4de8-9570-921ea5c61b8c"},"vehicle_type_id":"4","last_reported":1745644168,"current_range_meters":20000,"station_id":"ce4bh012rcd13ifvqcv0","pricing_plan_id":"cebpf4jnsgd1na2vs0mg"},{"bike_id":"e07996fa-c800-47dd-a13c-df27727fba10","system_id":"levelo_inurba_marseille","lat":43.29251,"lon":5.40919,"is_reserved":false,"is_disabled":false,"rental_uris":{"android":"levelo://app?vid=e07996fa-c800-47dd-a13c-df27727fba10","ios":"levelo://app?vid=e07996fa-c800-47dd-a13c-df27727fba10"},"vehicle_type_id":"4","last_reported":1745644168,"current_range_meters":20000,"station_id":"ce4bh192rcd13ifvqdc0","pricing_plan_id":"cebpf4jnsgd1na2vs0mg"},{"bike_id":"a3381eee-e486-4bb3-9820-880c30db6661","system_id":"levelo_inurba_marseille","lat":43.3372,"lon":5.39187,"is_reserved":false,"is_disabled":false,"rental_uris":{"android":"levelo://app?vid=a3381eee-e486-4bb3-9820-880c30db6661","ios":"levelo://app?vid=a3381eee-e486-4bb3-9820-880c30db6661"},"vehicle_type_id":"4","last_reported":1745644168,"current_range_meters":20000,"station_id":"ce4bhr92rcd13ifvqhsg","pricing_plan_id":"cebpf4jnsgd1na2vs0mg"},{"bike_id":"241cf401-b794-4538-b067-4fbd4075f85d","system_id":"levelo_inurba_marseille","lat":43.29262,"lon":5.37628,"is_reserved":false,"is_disabled":false,"rental_uris":{"android":"levelo://app?vid=241cf401-b794-4538-b067-4fbd4075f85d","ios":"levelo://app?vid=241cf401-b794-4538-b067-4fbd4075f85d"},"vehicle_type_id":"4","last_reported":1745644168,"current_range_meters":20000,"station_id":"ce4bgi12rcd13ifvqb80","pricing_plan_id":"cebpf4jnsgd1na2vs0mg"},{"bike_id":"58529d90-0e99-4233-8c4d-b814a9ffba81","system_id":"levelo_inurba_marseille","lat":43.29804,"lon":5.40418,"is_reserved":false,"is_disabled":false,"rental_uris":{"android":"levelo://app?vid=58529d90-0e99-4233-8c4d-b814a9ffba81","ios":"levelo://app?vid=58529d90-0e99-4233-8c4d-b814a9ffba81"},"vehicle_type_id":"4","last_reported":1745644168,"current_range_meters":20000,"station_id":"ce4bh112rcd13ifvqd90","pricing_plan_id":"cebpf4jnsgd1na2vs0mg"},{"bike_id":"16ae467d-2794-4a6d-81c0-a72f39733127","system_id":"levelo_inurba_marseille","lat":43.30274,"lon":5.37708,"is_reserved":false,"is_disabled":false,"rental_uris":{"android":"levelo://app?vid=16ae467d-2794-4a6d-81c0-a72f39733127","ios":"levelo://app?vid=16ae467d-2794-4a6d-81c0-a72f39733127"},"vehicle_type_id":"4","last_reported":1745644168,"current_range_meters":19600,"station_id":"ce4bguh2rcd13ifvqcj0","pricing_plan_id":"cebpf4jnsgd1na2vs0mg"},