{"last_updated":1758377252,"ttl":60,"version":"2.2","data":{"bikes":[{"bike_id":"ac1840be-e17c-42e5-bce6-c829c5878f67","system_id":"levelo_inurba_marseille","lat":43.243839,"lon":5.37058,"is_reserved":false,"is_disabled":false,"rental_uris":{"android":"levelo://app?vid=ac1840be-e17c-42e5-bce6-c829c5878f67","ios":"levelo://app?vid=ac1840be-e17c-42e5-bce6-c829c5878f67"},"vehicle_type_id":"4","last_reported":1758377253,"current_range_meters":2800,"station_id":"ce4bhhh2rcd13ifvqfk0","pricing_plan_id":"cebpf4jnsgd1na2vs0mg"},{"bike_id":"cfd94e63-9c1b-4feb-a427-531ba8ae1dff","system_id":"levelo_inurba_marseille","lat":43.21756,"lon":5.34556,"is_reserved":false,"is_disabled":false,"rental_uris":{"android":"levelo://app?vid=cfd94e63-9c1b-4feb-a427-531ba8ae1dff","ios":"levelo://app?vid=cfd94e63-9c1b-4feb-a427-531ba8ae1dff"},"vehicle_type_id":"4","last_reported":1758377253,"current_range_meters":2800,"station_id":"st_cvj6r9ubvosntc0bgbag","pricing_plan_id":"cebpf4jnsgd1na2vs0mg"},{"bike_id":"fb748f23-6444-4047-9f23-15e24307132a","system_id":"levelo_inurba_marseille","lat":43.26205,"lon":5.37932,"is_reserved":false,"is_disabled":false,"rental_uris":{"android":"levelo://app?vid=fb748f23-6444-4047-9f23-15e24307132a","ios":"levelo://app?vid=fb748f23-6444-4047-9f23-15e24307132a"},"vehicle_type_id":"4","last_reported":1758377253,"current_range_meters":2800,"station_id":"ce4bhjp2rcd13ifvqg90","pricing_plan_id":"cebpf4jnsgd1na2vs0mg"},{"bike_id":"75ff07d0-f995-4e69-928b-a35baff35c7a","system_id":"levelo_inurba_marseille","lat":43.29001,"lon":5.35613,"is_reserved":false,"is_disabled":false,"rental_uris":{"android":"levelo://app?vid=75ff07d0-f995-4e69-928b-a35baff35c7a","ios":"levelo://app?vid=75ff07d0-f995-4e69-928b-a35baff35c7a"},"vehicle_type_id":"4","last_reported":1758377253,"current_range_meters":2800,"station_id":"ce4bhb92rcd13ifvqen0","pricing_plan_id":"cebpf4jnsgd1na2vs0mg"},{"bike_id":"924cb39b-05df-4159-9785-ecbdfb3780b5","system_id":"levelo_inurba_marseille","lat":43.24184,"lon":5.39741,"is_reserved":false,"is_disabled":false,"rental_uris":{"android":"levelo://app?vid=924cb39b-05df-4159-9785-ecbdfb3780b5","ios":"levelo://app?vid=924cb39b-05df-4159-9785-ecbdfb3780b5"},"vehicle_type_id":"4","last_reported":1758377253,"current_range_meters":2800,"station_id":"ce4bhn12rcd13ifvqgpg","pricing_plan_id":"cebpf4jnsgd1na2vs0mg"},{"bike_id":"54adbfec-cd54-4df9-a117-c107e1581f9d","system_id":"levelo_inurba_marseille","lat":43.30309,"lon":5.39209,"is_reserved":false,"is_disabled":false,"rental_uris":{"android":"levelo://app?vid=54adbfec-cd54-4df9-a117-c107e1581f9d","ios":"levelo://app?vid=54adbfec-cd54-4df9-a117-c107e1581f9d"},"vehicle_type_id":"4","last_reported":1758377253,"current_range_meters":2800,"station_id":"ce4bgkh2rcd13ifvqbk0","pricing_plan_id":"cebpf4jnsgd1na2vs0mg"},{"bike_id":"be512714-ebf0-4ae3-859e-b1004006351f","system_id":"levelo_inurba_marseille","lat":43.292681,"lon":5.409069,"is_reserved":false,"is_disabled":false,"rental_uris":{"android":"levelo://app?vid=be512714-ebf0-4ae3-859e-b1004006351f","ios":"levelo://app?vid=be512714-ebf0-4ae3-859e-b1004006351f"},"vehicle_type_id":"4","last_reported":1758377253,"current_range_meters":2800,"station_id":"ce4bh192rcd13ifvqdc0","pricing_plan_id":"cebpf4jnsgd1na2vs0mg"},{"bike_id":"5a41f60a-a62c-4c56-8661-f99b17b72b68","system_id":"levelo_inurba_marseille","lat":43.21737,"lon":5.34603,"is_reserved":false,"is_disabled":false,"rental_uris":{"android":"levelo://app?vid=5a41f60a-a62c-4c56-8661-f99b17b72b68","ios":"levelo://app?vid=5a41f60a-a62c-4c56-8661-f99b17b72b68"},"vehicle_type_id":"4","last_reported":1758377253,"current_range_meters":2800,"station_id":"st_cvj6r9ubvosntc0bgbag","pricing_plan_id":"cebpf4jnsgd1na2vs0mg"},{"bike_id":"50c1c1e3-58c2-4ff0-a78a-a7e499f3540c","system_id":"levelo_inurba_marseille","lat":43.28898,"lon":5.43241,"is_reserved":false,"is_disabled":false,"rental_uris":{"android":"levelo://app?vid=50c1c1e3-58c2-4ff0-a78a-a7e499f3540c","ios":"levelo://app?vid=50c1c1e3-58c2-4ff0-a78a-a7e499f3540c"},"vehicle_type_id":"4","last_reported":1758377253,"current_range_meters":3200,"station_id":"","pricing_plan_id":"cebpf4jnsgd1na2vs0mg"},{"bike_id":"3558bd13-6883-4471-9b9b-fb58791846e0","system_id":"levelo_inurba_marseille","lat":43.21744,"lon":5.34613,"is_reserved":false,"is_disabled":false,"rental_uris":{"android":"levelo://app?vid=3558bd13-6883-4471-9b9b-fb58791846e0","ios":"levelo://app?vid=3558bd13-6883-4471-9b9b-fb58791846e0"},"vehicle_type_id":"4","last_reported":1758377253,"current_range_meters":3200,"station_id":"st_cvj6r9ubvosntc0bgbag","pricing_plan_id":"cebpf4jnsgd1na2vs0mg"},{"bike_id":"31895dd4-fd0d-4335-b422-62522e2e5de8","system_id":"levelo_inurba_marseille","lat":43.28612,"lon":5.37061,"is_reserved":false,"is_disabled":false,"rental_uris":{"android":"levelo://app?vid=31895dd4-fd0d-4335-b422-62522e2e5de8","ios":"levelo://app?vid=31895dd4-fd0d-4335-b422-62522e2e5de8"},"vehicle_type_id":"4","last_reported":1758377253,"current_range_meters":3600,"station_id":"ce4bht12rcd13ifvqi60","pricing_plan_id":"cebpf4jnsgd1na2vs0mg"},{"bike_id":"5e1549e6-879c-42e0-8ce8-b9675e30105c","system_id":"levelo_inurba_marseille","lat":43.21187,"lon":5.35078,"is_reserved":false,"is_disabled":false,"rental_uris":{"android":"levelo://app?vid=5e1549e6-879c-42e0-8ce8-b9675e30105c","ios":"levelo://app?vid=5e1549e6-879c-42e0-8ce8-b9675e30105c"},"vehicle_type_id":"4","last_reported":1758377253,"current_range_meters":3600,"station_id":"st_cvj6sg6p6f1abm77japg","pricing_plan_id":"cebpf4jnsgd1na2vs0mg"},{"bike_id":"dd1d2b4a-16fc-4870-8590-1412c4c935b5","system_id":"levelo_inurba_marseille","lat":43.21748,"lon":5.34596,"is_reserved":false,"is_disabled":false,"rental_uris":{"android":"levelo://app?vid=dd1d2b4a-16fc-4870-8590-1412c4c935b5","ios":"levelo://app?vid=dd1d2b4a-16fc-4870-8590-1412c4c935b5"},"vehicle_type_id":"4","last_reported":1758377253,"current_range_meters":3600,"station_id":"st_cvj6r9ubvosntc0bgbag","pricing_plan_id":"cebpf4jnsgd1na2vs0mg"},{"bike_id":"2193f157-8f8c-4567-8b60-6e15301a8a3b","system_id":"levelo_inurba_marseille","lat":43.21747,"lon":5.34601,"is_reserved":false,"is_disabled":false,"rental_uris":{"android":"levelo://app?vid=2193f157-8f8c-4567-8b60-6e15301a8a3b","ios":"levelo://app?vid=2193f157-8f8c-4567-8b60-6e15301a8a3b"},"vehicle_type_id":"4","last_reported":1758377253,"current_range_meters":3600,"station_id":"st_cvj6r9ubvosntc0bgbag","pricing_plan_id":"cebpf4jnsgd1na2vs0mg"},{"bike_id":"4aaa181a-2758-443d-9201-74854302eeea","system_id":"levelo_inurba_marseille","lat":43.21739,"lon":5.34604,"is_reserved":false,"is_disabled":false,"rental_uris":{"android":"levelo://app?vid=4aaa181a-2758-443d-9201-74854302eeea","ios":"levelo://app?vid=4aaa181a-2758-443d-9201-74854302eeea"},"vehicle_type_id":"4","last_reported":1758377253,"current_range_meters":3600,"station_id":"","pricing_plan_id":"cebpf4jnsgd1na2vs0mg"},{"bike_id":"a4b8c0a8-fdb6-49f5-ac41-eb5b03e80512","system_id":"levelo_inurba_marseille","lat":43.29004,"lon":5.35618,"is_reserved":false,"is_disabled":false,"rental_uris":{"android":"levelo://app?vid=a4b8c0a8-fdb6-49f5-ac41-eb5b03e80512","ios":"levelo://app?vid=a4b8c0a8-fdb6-49f5-ac41-eb5b03e80512"},"vehicle_type_id":"4","last_reported":1758377253,"current_range_meters":3600,"station_id":"ce4bhb92rcd13ifvqen0","pricing_plan_id":"cebpf4jnsgd1na2vs0mg"},{"bike_id":"85c8e685-734d-4760-966b-86b771a65d9b","system_id":"levelo_inurba_marseille","lat":43.21186,"lon":5.35071,"is_reserved":false,"is_disabled":true,"rental_uris":{"android":"levelo://app?vid=85c8e685-734d-4760-966b-86b771a65d9b","ios":"levelo://app?vid=85c8e685-734d-4760-966b-86b771a65d9b"},"vehicle_type_id":"4","last_reported":1758377253,"current_range_meters":4000,"station_id":"st_cvj6sg6p6f1abm77japg","pricing_plan_id":"cebpf4jnsgd1na2vs0mg"},{"bike_id":"c3d5f2c8-9f33-4cf0-bbaa-ef799f7f7561","system_id":"levelo_inurba_marseille","lat":43.28348,"lon":5.38093,"is_reserved":false,"is_disabled":false,"rental_uris":{"android":"levelo://app?vid=c3d5f2c8-9f33-4cf0-bbaa-ef799f7f7561","ios":"levelo://app?vid=c3d5f2c8-9f33-4cf0-bbaa-ef799f7f7561"},"vehicle_type_id":"4","last_reported":1758377253,"current_range_meters":4000,"station_id":"ce4bh412rcd13ifvqdr0","pricing_plan_id":"cebpf4jnsgd1na2vs0mg"},{"bike_id":"2a50b0d3-2cd8-4c38-ba96-abca86092c55","system_id":"levelo_inurba_marseille","lat":43.27377,"lon":5.36248,"is_reserved":false,"is_disabled":false,"rental_uris":{"android":"levelo://app?vid=2a50b0d3-2cd8-4c38-ba96-abca86092c55","ios":"levelo://app?vid=2a50b0d3-2cd8-4c38-ba96-abca86092c55"},"vehicle_type_id":"4","last_reported":1758377253,"current_range_meters":4000,"station_id":"ce4bhbh2rcd13ifvqeo0","pricing_plan_id":"cebpf4jnsgd1na2vs0mg"},{"bike_id":"623ccae2-49d0-4b19-8c92-df5a61f71726","system_id":"levelo_inurba_marseille","lat":43.28673,"lon":5.38656,"is_reserved":false,"is_disabled":false,"rental_uris":{"android":"levelo://app?vid=623ccae2-49d0-4b19-8c92-df5a61f71726","ios":"levelo://app?vid=623ccae2-49d0-4b19-8c92-df5a61f71726"},"vehicle_type_id":"4","last_reported":1758377253,"current_range_meters":4000,"station_id":"ce4bh492rcd13ifvqdug","pricing_plan_id":"cebpf4jnsgd1na2vs0mg"},{"bike_id":"42323a1a-489c-43cb-90ae-c675b27444d5","system_id":"levelo_inurba_marseille","lat":43.21673,"lon":5.34362,"is_reserved":false,"is_disabled":false,"rental_uris":{"android":"levelo://app?vid=42323a1a-489c-43cb-90ae-c675b27444d5","ios":"levelo://app?vid=42323a1a-489c-43cb-90ae-c675b27444d5"},"vehicle_type_id":"4","last_reported":1758377253,"current_range_meters":4000,"station_id":"","pricing_plan_id":"cebpf4jnsgd1na2vs0mg"},{"bike_id":"c606abe2-6158-4598-86e4-3451f7a0261b","system_id":"levelo_inurba_marseille","lat":43.28413,"lon":5.34979,"is_reserved":false,"is_disabled":false,"rental_uris":{"android":"levelo://app?vid=c606abe2-6158-4598-86e4-3451f7a0261b","ios":"levelo://app?vid=c606abe2-6158-4598-86e4-3451f7a0261b"},"vehicle_type_id":"4","last_reported":1758377253,"current_range_meters":4000,"station_id":"ce4bhbh2rcd13ifvqepg","pricing_plan_id":"cebpf4jnsgd1na2vs0mg"},{"bike_id":"42b1e3bf-a3ed-4104-a8d9-43318d2fd694","system_id":"levelo_inurba_marseille","lat":43.294321,"lon":5.39748,"is_reserved":false,"is_disabled":false,"rental_uris":{"android":"levelo://app?vid=42b1e3bf-a3ed-4104-a8d9-43318d2fd694","ios":"levelo://app?vid=42b1e3bf-a3ed-4104-a8d9-43318d2fd694"},"vehicle_type_id":"4","last_reported":1758377253,"current_range_meters":4000,"station_id":"ce4bh3h2rcd13ifvqdo0","pricing_plan_id":"cebpf4jnsgd1na2vs0mg"},{"bike_id":"c548f171-150a-4779-93a6-693f7be10701","system_id":"levelo_inurba_marseille","lat":43.337444,"lon":5.374475,"is_reserved":false,"is_disabled":false,"rental_uris":{"android":"levelo://app?vid=c548f171-150a-4779-93a6-693f7be10701","ios":"levelo://app?vid=c548f171-150a-4779-93a6-693f7be10701"},"vehicle_type_id":"4","last_reported":1758377253,"current_range_meters":4400,"station_id":"","pricing_plan_id":"cebpf4jnsgd1na2vs0mg"},{"bike_id":"5b507f86-17b5-4016-ab99-8b0f3b7a5c5b","system_id":"levelo_inurba_marseille","lat":43.29219,"lon":5.36074,"is_reserved":false,"is_disabled":false,"rental_uris":{"android":"levelo://app?vid=5b507f86-17b5-4016-ab99-8b0f3b7a5c5b","ios":"levelo://app?vid=5b507f86-17b5-4016-ab99-8b0f3b7a5c5b"},"vehicle_type_id":"4","last_reported":1758377253,"current_range_meters":4400,"station_id":"ce4bhbh2rcd13ifvqeqg","pricing_plan_id":"cebpf4jnsgd1na2vs0mg"},{"bike_id":"8c72b1b7-eef8-45ce-a0b5-d231440f9ca1","system_id":"levelo_inurba_marseille","lat":43.28846,"lon":5.35838,"is_reserved":false,"is_disabled":true,"rental_uris":{"android":"levelo://app?vid=8c72b1b7-eef8-45ce-a0b5-d231440f9ca1","ios":"levelo://app?vid=8c72b1b7-eef8-45ce-a0b5-d231440f9ca1"},"vehicle_type_id":"4","last_reported":1758377253,"current_range_meters":4400,"station_id":"ce4bhb12rcd13ifvqem0","pricing_plan_id":"cebpf4jnsgd1na2vs0mg"},{"bike_id":"1364e8b8-11e8-4837-93ff-cae5cc9eff98","system_id":"levelo_inurba_marseille","lat":43.2762,"lon":5.36086,"is_reserved":false,"is_disabled":false,"rental_uris":{"android":"levelo://app?vid=1364e8b8-11e8-4837-93ff-cae5cc9eff98","ios":"levelo://app?vid=1364e8b8-11e8-4837-93ff-cae5cc9eff98"},"vehicle_type_id":"4","last_reported":1758377253,"current_range_meters":4400,"station_id":"ce4bgj92rcd13ifvqbe0","pricing_plan_id":"cebpf4jnsgd1na2vs0mg"},{"bike_id":"740ffb64-7062-414e-896d-5718f6c6c701","system_id":"levelo_inurba_marseille","lat":43.282669,"lon":5.350574,"is_reserved":false,"is_disabled":false,"rental_uris":{"android":"levelo://app?vid=740ffb64-7062-414e-896d-5718f6c6c701","ios":"levelo://app?vid=740ffb64-7062-414e-896d-5718f6c6c701"},"vehicle_type_id":"4","last_reported":1758377253,"current_range_meters":4400,"station_id":"ce4bhbp2rcd13ifvqerg","pricing_plan_id":"cebpf4jnsgd1na2vs0mg"},{"bike_id":"e942f984-8fe7-48d1-8f04-3806656b9996","system_id":"levelo_inurba_marseille","lat":43.33627,"lon":5.37929,"is_reserved":false,"is_disabled":false,"rental_uris":{"android":"levelo://app?vid=e942f984-8fe7-48d1-8f04-3806656b9996","ios":"levelo://app?vid=e942f984-8fe7-48d1-8f04-3806656b9996"},"vehicle_type_id":"4","last_reported":1758377253,"current_range_meters":4800,"station_id":"","pricing_plan_id":"cebpf4jnsgd1na2vs0mg"},{"bike_id":"e6f8489d-fe42-4015-a82c-b604c2c8b33e","system_id":"levelo_inurba_marseille","lat":43.29795,"lon":5.36682,"is_reserved":false,"is_disabled":false,"rental_uris":{"android":"levelo://app?vid=e6f8489d-fe42-4015-a82c-b604c2c8b33e","ios":"levelo://app?vid=e6f8489d-fe42-4015-a82c-b604c2c8b33e"},"vehicle_type_id":"4","last_reported":1758377253,"current_range_meters":4800,"station_id":"","pricing_plan_id":"cebpf4jnsgd1na2vs0mg"},{"bike_id":"dd356c38-c38c-49ce-85a6-fdecc0b14757","system_id":"levelo_inurba_marseille","lat":43.27621,"lon":5.36096,"is_reserved":false,"is_disabled":false,"rental_uris":{"android":"levelo://app?vid=dd356c38-c38c-49ce-85a6-fdecc0b14757","ios":"levelo://app?vid=dd356c38-c38c-49ce-85a6-fdecc0b14757"},"vehicle_type_id":"4","last_reported":1758377253,"current_range_meters":5600,"station_id":"ce4bgj92rcd13ifvqbe0","pricing_plan_id":"cebpf4jnsgd1na2vs0mg"},{"bike_id":"a6803547-e8f6-43f9-85ef-d3658a6399f4","system_id":"levelo_inurba_marseille","lat":43.23064,"lon":5.35488,"is_reserved":false,"is_disabled":false,"rental_uris":{"android":"levelo://app?vid=a6803547-e8f6-43f9-85ef-d3658a6399f4","ios":"levelo://app?vid=a6803547-e8f6-43f9-85ef-d3658a6399f4"},"vehicle_type_id":"4","last_reported":1758377253,"current_range_meters":5600,"station_id":"cpo3342slgdg3j2ifvpg","pricing_plan_id":"cebpf4jnsgd1na2vs0mg"},{"bike_id":"6dc49f8f-31b8-485c-b489-e3fd253e6676","system_id":"levelo_inurba_marseille","lat":43.326596,"lon":5.409858,"is_reserved":false,"is_disabled":true,"rental_uris":{"android":"levelo://app?vid=6dc49f8f-31b8-485c-b489-e3fd253e6676","ios":"levelo://app?vid=6dc49f8f-31b8-485c-b489-e3fd253e6676"},"vehicle_type_id":"4","last_reported":1758377253,"current_range_meters":5600,"station_id":"ce4bhpp2rcd13ifvqhgg","pricing_plan_id":"cebpf4jnsgd1na2vs0mg"},{"bike_id":"530db831-5c4c-431c-929f-1cb6fb0e1d5f","system_id":"levelo_inurba_marseille","lat":43.27812,"lon":5.40705,"is_reserved":false,"is_disabled":false,"rental_uris":{"android":"levelo://app?vid=530db831-5c4c-431c-929f-1cb6fb0e1d5f","ios":"levelo://app?vid=530db831-5c4c-431c-929f-1cb6fb0e1d5f"},"vehicle_type_id":"4","last_reported":1758377253,"current_range_meters":5600,"station_id":"ce4bhnh2rcd13ifvqgtg","pricing_plan_id":"cebpf4jnsgd1na2vs0mg"},{"bike_id":"1c63652d-48b9-4999-bc0c-4a91ec268a0d","system_id":"levelo_inurba_marseille","lat":43.28688,"lon":5.38643,"is_reserved":false,"is_disabled":false,"rental_uris":{"android":"levelo://app?vid=1c63652d-48b9-4999-bc0c-4a91ec268a0d","ios":"levelo://app?vid=1c63652d-48b9-4999-bc0c-4a91ec268a0d"},"vehicle_type_id":"4","last_reported":1758377253,"current_range_meters":5600,"station_id":"ce4bh492rcd13ifvqdug","pricing_plan_id":"cebpf4jnsgd1na2vs0mg"},{"bike_id":"073cfa57-829b-48c3-963d-a9dec5928e32","system_id":"levelo_inurba_marseille","lat":43.29008,"lon":5.35607,"is_reserved":false,"is_disabled":false,"rental_uris":{"android":"levelo://app?vid=073cfa57-829b-48c3-963d-a9dec5928e32","ios":"levelo://app?vid=073cfa57-829b-48c3-963d-a9dec5928e32"},"vehicle_type_id":"4","last_reported":1758377253,"current_range_meters":5600,"station_id":"ce4bhb92rcd13ifvqen0","pricing_plan_id":"cebpf4jnsgd1na2vs0mg"},{"bike_id":"9f0f401b-ff98-4040-b24f-13fefb233bef","system_id":"levelo_inurba_marseille","lat":43.21189,"lon":5.35066,"is_reserved":false,"is_disabled":false,"rental_uris":{"android":"levelo://app?vid=9f0f401b-ff98-4040-b24f-13fefb233bef","ios":"levelo://app?vid=9f0f401b-ff98-4040-b24f-13fefb233bef"},"vehicle_type_id":"4","last_reported":1758377253,"current_range_meters":5600,"station_id":"st_cvj6sg6p6f1abm77japg","pricing_plan_id":"cebpf4jnsgd1na2vs0mg"},{"bike_id":"742c943d-1089-462f-bd56-d5fcf41a6957","system_id":"levelo_inurba_marseille","lat":43.28254,"lon":5.35053,"is_reserved":false,"is_disabled":false,"rental_uris":{"android":"levelo://app?vid=742c943d-1089-462f-bd56-d5fcf41a6957","ios":"levelo://app?vid=742c943d-1089-462f-bd56-d5fcf41a6957"},"vehicle_type_id":"4","last_reported":1758377253,"current_range_meters":5600,"station_id":"ce4bhbp2rcd13ifvqerg","pricing_plan_id":"cebpf4jnsgd1na2vs0mg"},{"bike_id":"42613756-6397-4aa4-a341-ba4d76a07d0b","system_id":"levelo_inurba_marseille","lat":43.29035,"lon":5.3996,"is_reserved":false,"is_disabled":false,"rental_uris":{"android":"levelo://app?vid=42613756-6397-4aa4-a341-ba4d76a07d0b","ios":"levelo://app?vid=42613756-6397-4aa4-a341-ba4d76a07d0b"},"vehicle_type_id":"4","last_reported":1758377253,"current_range_meters":5600,"station_id":"ce4bh392rcd13ifvqdm0","pricing_plan_id":"cebpf4jnsgd1na2vs0mg"},{"bike_id":"004e8c7b-9e6f-408c-a17f-2c79450f6465","system_id":"levelo_inurba_marseille","lat":43.29076,"lon":5.371294,"is_reserved":false,"is_disabled":false,"rental_uris":{"android":"levelo://app?vid=004e8c7b-9e6f-408c-a17f-2c79450f6465","ios":"levelo://app?vid=004e8c7b-9e6f-408c-a17f-2c79450f6465"},"vehicle_type_id":"4","last_reported":1758377253,"current_range_meters":6000,"station_id":"","pricing_plan_id":"cebpf4jnsgd1na2vs0mg"},{"bike_id":"16c5799c-fab8-41b5-8bfb-e125b3b53642","system_id":"levelo_inurba_marseille","lat":43.21761,"lon":5.34591,"is_reserved":false,"is_disabled":false,"rental_uris":{"android":"levelo://app?vid=16c5799c-fab8-41b5-8bfb-e125b3b53642","ios":"levelo://app?vid=16c5799c-fab8-41b5-8bfb-e125b3b53642"},"vehicle_type_id":"4","last_reported":1758377253,"current_range_meters":6000,"station_id":"","pricing_plan_id":"cebpf4jnsgd1na2vs0mg"},{"bike_id":"cad97885-b582-49b2-8b83-0a6c3d079fc6","system_id":"levelo_inurba_marseille","lat":43.297018,"lon":5.365873,"is_reserved":false,"is_disabled":false,"rental_uris":{"android":"levelo://app?vid=cad97885-b582-49b2-8b83-0a6c3d079fc6","ios":"levelo://app?vid=cad97885-b582-49b2-8b83-0a6c3d079fc6"},"vehicle_type_id":"4","last_reported":1758377253,"current_range_meters":6000,"station_id":"ce4bgn12rcd13ifvqbt0","pricing_plan_id":"cebpf4jnsgd1na2vs0mg"},{"bike_id":"0e9a8f15-1d43-4770-9abc-a55468c250d6","system_id":"levelo_inurba_marseille","lat":43.25337,"lon":5.42159,"is_reserved":false,"is_disabled":false,"rental_uris":{"android":"levelo://app?vid=0e9a8f15-1d43-4770-9abc-a55468c250d6","ios":"levelo://app?vid=0e9a8f15-1d43-4770-9abc-a55468c250d6"},"vehicle_type_id":"4","last_reported":1758377253,"current_range_meters":6000,"station_id":"st_d2m65c5bi1j21697t3ng","pricing_plan_id":"cebpf4jnsgd1na2vs0mg"},{"bike_id":"27cc2023-610f-4a78-ba41-0db80692ecc6","system_id":"levelo_inurba_marseille","lat":43.22563,"lon":5.41633,"is_reserved":false,"is_disabled":false,"rental_uris":{"android":"levelo://app?vid=27cc2023-610f-4a78-ba41-0db80692ecc6","ios":"levelo://app?vid=27cc2023-610f-4a78-ba41-0db80692ecc6"},"vehicle_type_id":"4","last_reported":1758377253,"current_range_meters":6000,"station_id":"st_d2o4gvlbi1j2169b742g","pricing_plan_id":"cebpf4jnsgd1na2vs0mg"},{"bike_id":"b85fd6bb-fe83-400c-9598-d53fc621ec4d","system_id":"levelo_inurba_marseille","lat":43.28257,"lon":5.35062,"is_reserved":false,"is_disabled":false,"rental_uris":{"android":"levelo://app?vid=b85fd6bb-fe83-400c-9598-d53fc621ec4d","ios":"levelo://app?vid=b85fd6bb-fe83-400c-9598-d53fc621ec4d"},"vehicle_type_id":"4","last_reported":1758377253,"current_range_meters":6000,"station_id":"ce4bhbp2rcd13ifvqerg","pricing_plan_id":"cebpf4jnsgd1na2vs0mg"},{"bike_id":"59f51456-a5e7-466a-8b08-1d61d2bd0f37","system_id":"levelo_inurba_marseille","lat":43.27383,"lon":5.36262,"is_reserved":false,"is_disabled":false,"rental_uris":{"android":"levelo://app?vid=59f51456-a5e7-466a-8b08-1d61d2bd0f37","ios":"levelo://app?vid=59f51456-a5e7-466a-8b08-1d61d2bd0f37"},"vehicle_type_id":"4","last_reported":1758377253,"current_range_meters":6400,"station_id":"ce4bhbh2rcd13ifvqeo0","pricing_plan_id":"cebpf4jnsgd1na2vs0mg"},{"bike_id":"dd54508b-cebc-429e-947d-94cace74c022","system_id":"levelo_inurba_marseille","lat":43.2396,"lon":5.36625,"is_reserved":false,"is_disabled":true,"rental_uris":{"android":"levelo://app?vid=dd54508b-cebc-429e-947d-94cace74c022","ios":"levelo://app?vid=dd54508b-cebc-429e-947d-94cace74c022"},"vehicle_type_id":"4","last_reported":1758377253,"current_range_meters":6400,"station_id":"ce4bhi12rcd13ifvqfp0","pricing_plan_id":"cebpf4jnsgd1na2vs0mg"},{"bike_id":"5b46e134-80d0-4812-9418-f1c9533cfbed","system_id":"levelo_inurba_marseille","lat":43.311,"lon":5.377428,"is_reserved":false,"is_disabled":false,"rental_uris":{"android":"levelo://app?vid=5b46e134-80d0-4812-9418-f1c9533cfbed","ios":"levelo://app?vid=5b46e134-80d0-4812-9418-f1c9533cfbed"},"vehicle_type_id":"4","last_reported":1758377253,"current_range_meters":6400,"station_id":"ce4bgt92rcd13ifvqcg0","pricing_plan_id":"cebpf4jnsgd1na2vs0mg"},{"bike_id":"120cbd62-5d7e-4cd5-8072-23cc66b2e30c","system_id":"levelo_inurba_marseille","lat":43.22568,"lon":5.41607,"is_reserved":false,"is_disabled":false,"rental_uris":{"android":"levelo://app?vid=120cbd62-5d7e-4cd5-8072-23cc66b2e30c","ios":"levelo://app?vid=120cbd62-5d7e-4cd5-8072-23cc66b2e30c"},"vehicle_type_id":"4","last_reported":1758377253,"current_range_meters":6400,"station_id":"st_d2o4gvlbi1j2169b742g","pricing_plan_id":"cebpf4jnsgd1na2vs0mg"},{"bike_id":"e3a956cd-7560-4a0d-ae36-ad64962c7766","system_id":"levelo_inurba_marseille","lat":43.319977,"lon":5.381643,"is_reserved":false,"is_disabled":false,"rental_uris":{"android":"levelo://app?vid=e3a956cd-7560-4a0d-ae36-ad64962c7766","ios":"levelo://app?vid=e3a956cd-7560-4a0d-ae36-ad64962c7766"},"vehicle_type_id":"4","last_reported":1758377253,"current_range_meters":6400,"station_id":"ce4bhr12rcd13ifvqhpg","pricing_plan_id":"cebpf4jnsgd1na2vs0mg"},{"bike_id":"c4cc917e-55fc-48de-bad3-b2c0087526f9","system_id":"levelo_inurba_marseille","lat":43.2781,"lon":5.40712,"is_reserved":false,"is_disabled":false,"rental_uris":{"android":"levelo://app?vid=c4cc917e-55fc-48de-bad3-b2c0087526f9","ios":"levelo://app?vid=c4cc917e-55fc-48de-bad3-b2c0087526f9"},"vehicle_type_id":"4","last_reported":1758377253,"current_range_meters":6800,"station_id":"ce4bhnh2rcd13ifvqgtg","pricing_plan_id":"cebpf4jnsgd1na2vs0mg"},{"bike_id":"1f4aa972-fa20-4101-ad66-440c37c0a75a","system_id":"levelo_inurba_marseille","lat":43.3122,"lon":5.36883,"is_reserved":false,"is_disabled":false,"rental_uris":{"android":"levelo://app?vid=1f4aa972-fa20-4101-ad66-440c37c0a75a","ios":"levelo://app?vid=1f4aa972-fa20-4101-ad66-440c37c0a75a"},"vehicle_type_id":"4","last_reported":1758377253,"current_range_meters":6800,"station_id":"ce4bgl92rcd13ifvqbq0","pricing_plan_id":"cebpf4jnsgd1na2vs0mg"},{"bike_id":"c3139e2c-9acb-4303-8cea-b83d3a35b84b","system_id":"levelo_inurba_marseille","lat":43.30374,"lon":5.42467,"is_reserved":false,"is_disabled":false,"rental_uris":{"android":"levelo://app?vid=c3139e2c-9acb-4303-8cea-b83d3a35b84b","ios":"levelo://app?vid=c3139e2c-9acb-4303-8cea-b83d3a35b84b"},"vehicle_type_id":"4","last_reported":1758377253,"current_range_meters":6800,"station_id":"ce4bhoh2rcd13ifvqh6g","pricing_plan_id":"cebpf4jnsgd1na2vs0mg"},{"bike_id":"237e269a-2ef4-4438-9210-45991eae1486","system_id":"levelo_inurba_marseille","lat":43.30663,"lon":5.40085,"is_reserved":false,"is_disabled":false,"rental_uris":{"android":"levelo://app?vid=237e269a-2ef4-4438-9210-45991eae1486","ios":"levelo://app?vid=237e269a-2ef4-4438-9210-45991eae1486"},"vehicle_type_id":"4","last_reported":1758377253,"current_range_meters":6800,"station_id":"ce4bh112rcd13ifvqda0","pricing_plan_id":"cebpf4jnsgd1na2vs0mg"},{"bike_id":"968e9c50-0b82-4c12-96eb-64150f5d5d01","system_id":"levelo_inurba_marseille","lat":43.263784,"lon":5.385022,"is_reserved":false,"is_disabled":false,"rental_uris":{"android":"levelo://app?vid=968e9c50-0b82-4c12-96eb-64150f5d5d01","ios":"levelo://app?vid=968e9c50-0b82-4c12-96eb-64150f5d5d01"},"vehicle_type_id":"4","last_reported":1758377253,"current_range_meters":6800,"station_id":"ce4bhgh2rcd13ifvqfa0","pricing_plan_id":"cebpf4jnsgd1na2vs0mg"},{"bike_id":"9f79311d-24db-4bec-88cd-011f799bf2b4","system_id":"levelo_inurba_marseille","lat":43.27075,"lon":5.42271,"is_reserved":false,"is_disabled":false,"rental_uris":{"android":"levelo://app?vid=9f79311d-24db-4bec-88cd-011f799bf2b4","ios":"levelo://app?vid=9f79311d-24db-4bec-88cd-011f799bf2b4"},"vehicle_type_id":"4","last_reported":1758377253,"current_range_meters":6800,"station_id":"ce4bhk92rcd13ifvqgb0","pricing_plan_id":"cebpf4jnsgd1na2vs0mg"},{"bike_id":"2c506e7d-0253-4252-b21f-01c1dffc4bfa","system_id":"levelo_inurba_marseille","lat":43.22567,"lon":5.4162,"is_reserved":false,"is_disabled":false,"rental_uris":{"android":"levelo://app?vid=2c506e7d-0253-4252-b21f-01c1dffc4bfa","ios":"levelo://app?vid=2c506e7d-0253-4252-b21f-01c1dffc4bfa"},"vehicle_type_id":"4","last_reported":1758377253,"current_range_meters":6800,"station_id":"st_d2o4gvlbi1j2169b742g","pricing_plan_id":"cebpf4jnsgd1na2vs0mg"},{"bike_id":"17f668f0-842d-4d08-87c5-ef6efb8513ab","system_id":"levelo_inurba_marseille","lat":43.24632,"lon":5.43144,"is_reserved":false,"is_disabled":false,"rental_uris":{"android":"levelo://app?vid=17f668f0-842d-4d08-87c5-ef6efb8513ab","ios":"levelo://app?vid=17f668f0-842d-4d08-87c5-ef6efb8513ab"},"vehicle_type_id":"4","last_reported":1758377253,"current_range_meters":7200,"station_id":"st_d2m6c4gdas8pm72e190g","pricing_plan_id":"cebpf4jnsgd1na2vs0mg"},{"bike_id":"d3f6e9e8-9364-4a93-b986-ef736ab400c4","system_id":"levelo_inurba_marseille","lat":43.270762,"lon":5.422779,"is_reserved":false,"is_disabled":false,"rental_uris":{"android":"levelo://app?vid=d3f6e9e8-9364-4a93-b986-ef736ab400c4","ios":"levelo://app?vid=d3f6e9e8-9364-4a93-b986-ef736ab400c4"},"vehicle_type_id":"4","last_reported":1758377253,"current_range_meters":7200,"station_id":"ce4bhk92rcd13ifvqgb0","pricing_plan_id":"cebpf4jnsgd1na2vs0mg"},{"bike_id":"56c1c0e9-6144-45f3-a7c5-cb807691db5b","system_id":"levelo_inurba_marseille","lat":43.26566,"lon":5.39007,"is_reserved":false,"is_disabled":false,"rental_uris":{"android":"levelo://app?vid=56c1c0e9-6144-45f3-a7c5-cb807691db5b","ios":"levelo://app?vid=56c1c0e9-6144-45f3-a7c5-cb807691db5b"},"vehicle_type_id":"4","last_reported":1758377253,"current_range_meters":7200,"station_id":"ce4bhe12rcd13ifvqf30","pricing_plan_id":"cebpf4jnsgd1na2vs0mg"},{"bike_id":"233b4c31-90d6-4eeb-8f73-46f423dd0b1c","system_id":"levelo_inurba_marseille","lat":43.23188,"lon":5.39984,"is_reserved":false,"is_disabled":false,"rental_uris":{"android":"levelo://app?vid=233b4c31-90d6-4eeb-8f73-46f423dd0b1c","ios":"levelo://app?vid=233b4c31-90d6-4eeb-8f73-46f423dd0b1c"},"vehicle_type_id":"4","last_reported":1758377253,"current_range_meters":7200,"station_id":"ce4bhn12rcd13ifvqgqg","pricing_plan_id":"cebpf4jnsgd1na2vs0mg"},{"bike_id":"84c87e85-d1e1-4e29-a42b-82d5f509cdea","system_id":"levelo_inurba_marseille","lat":43.23056,"lon":5.35462,"is_reserved":false,"is_disabled":false,"rental_uris":{"android":"levelo://app?vid=84c87e85-d1e1-4e29-a42b-82d5f509cdea","ios":"levelo://app?vid=84c87e85-d1e1-4e29-a42b-82d5f509cdea"},"vehicle_type_id":"4","last_reported":1758377253,"current_range_meters":7200,"station_id":"cpo3342slgdg3j2ifvpg","pricing_plan_id":"cebpf4jnsgd1na2vs0mg"},{"bike_id":"2d547a1c-cb3c-4940-ba54-70688e6ca61c","system_id":"levelo_inurba_marseille","lat":43.23051,"lon":5.35503,"is_reserved":false,"is_disabled":false,"rental_uris":{"android":"levelo://app?vid=2d547a1c-cb3c-4940-ba54-70688e6ca61c","ios":"levelo://app?vid=2d547a1c-cb3c-4940-ba54-70688e6ca61c"},"vehicle_type_id":"4","last_reported":1758377253,"current_range_meters":7200,"station_id":"cpo3342slgdg3j2ifvpg","pricing_plan_id":"cebpf4jnsgd1na2vs0mg"},{"bike_id":"8519f36c-80b6-4685-aff9-1de294a488e4","system_id":"levelo_inurba_marseille","lat":43.28417,"lon":5.34974,"is_reserved":false,"is_disabled":false,"rental_uris":{"android":"levelo://app?vid=8519f36c-80b6-4685-aff9-1de294a488e4","ios":"levelo://app?vid=8519f36c-80b6-4685-aff9-1de294a488e4"},"vehicle_type_id":"4","last_reported":1758377253,"current_range_meters":7200,"station_id":"ce4bhbh2rcd13ifvqepg","pricing_plan_id":"cebpf4jnsgd1na2vs0mg"},{"bike_id":"3c9735e9-fd7e-4079-8199-725760347837","system_id":"levelo_inurba_marseille","lat":43.21191,"lon":5.35069,"is_reserved":false,"is_disabled":false,"rental_uris":{"android":"levelo://app?vid=3c9735e9-fd7e-4079-8199-725760347837","ios":"levelo://app?vid=3c9735e9-fd7e-4079-8199-725760347837"},"vehicle_type_id":"4","last_reported":1758377253,"current_range_meters":8000,"station_id":"st_cvj6sg6p6f1abm77japg","pricing_plan_id":"cebpf4jnsgd1na2vs0mg"},{"bike_id":"b5913caf-ea39-4245-a6b7-ca25ac438e3d","system_id":"levelo_inurba_marseille","lat":43.30908,"lon":5.36843,"is_reserved":false,"is_disabled":false,"rental_uris":{"android":"levelo://app?vid=b5913caf-ea39-4245-a6b7-ca25ac438e3d","ios":"levelo://app?vid=b5913caf-ea39-4245-a6b7-ca25ac438e3d"},"vehicle_type_id":"4","last_reported":1758377253,"current_range_meters":8000,"station_id":"ce4bgn92rcd13ifvqbvg","pricing_plan_id":"cebpf4jnsgd1na2vs0mg"},{"bike_id":"e1065c32-ac19-477b-812a-39f964d50769","system_id":"levelo_inurba_marseille","lat":43.23196,"lon":5.35534,"is_reserved":false,"is_disabled":false,"rental_uris":{"android":"levelo://app?vid=e1065c32-ac19-477b-812a-39f964d50769","ios":"levelo://app?vid=e1065c32-ac19-477b-812a-39f964d50769"},"vehicle_type_id":"4","last_reported":1758377253,"current_range_meters":8000,"station_id":"ce4bhu92rcd13ifvqi70","pricing_plan_id":"cebpf4jnsgd1na2vs0mg"},{"bike_id":"2e1d9916-c513-4331-a75e-17a5f553c977","system_id":"levelo_inurba_marseille","lat":43.21185,"lon":5.35065,"is_reserved":false,"is_disabled":false,"rental_uris":{"android":"levelo://app?vid=2e1d9916-c513-4331-a75e-17a5f553c977","ios":"levelo://app?vid=2e1d9916-c513-4331-a75e-17a5f553c977"},"vehicle_type_id":"4","last_reported":1758377253,"current_range_meters":8000,"station_id":"st_cvj6sg6p6f1abm77japg","pricing_plan_id":"cebpf4jnsgd1na2vs0mg"},{"bike_id":"9eea80cb-ecf4-4cda-89f7-70678957b93a","system_id":"levelo_inurba_marseille","lat":43.31119,"lon":5.37761,"is_reserved":false,"is_disabled":false,"rental_uris":{"android":"levelo://app?vid=9eea80cb-ecf4-4cda-89f7-70678957b93a","ios":"levelo://app?vid=9eea80cb-ecf4-4cda-89f7-70678957b93a"},"vehicle_type_id":"4","last_reported":1758377253,"current_range_meters":8000,"station_id":"ce4bgt92rcd13ifvqcg0","pricing_plan_id":"cebpf4jnsgd1na2vs0mg"},{"bike_id":"e80dd85e-1870-44cd-a420-29618f36ead4","system_id":"levelo_inurba_marseille","lat":43.23099,"lon":5.35519,"is_reserved":false,"is_disabled":false,"rental_uris":{"android":"levelo://app?vid=e80dd85e-1870-44cd-a420-29618f36ead4","ios":"levelo://app?vid=e80dd85e-1870-44cd-a420-29618f36ead4"},"vehicle_type_id":"4","last_reported":1758377253,"current_range_meters":8000,"station_id":"cpo3342slgdg3j2ifvpg","pricing_plan_id":"cebpf4jnsgd1na2vs0mg"},{"bike_id":"1c647894-2185-428f-a6b7-d3e8d7dde366","system_id":"levelo_inurba_marseille","lat":43.21202,"lon":5.35064,"is_reserved":false,"is_disabled":false,"rental_uris":{"android":"levelo://app?vid=1c647894-2185-428f-a6b7-d3e8d7dde366","ios":"levelo://app?vid=1c647894-2185-428f-a6b7-d3e8d7dde366"},"vehicle_type_id":"4","last_reported":1758377253,"current_range_meters":8000,"station_id":"st_cvj6sg6p6f1abm77japg","pricing_plan_id":"cebpf4jnsgd1na2vs0mg"},{"bike_id":"0fbc0ce6-a3ce-477d-a1ae-e79beb243e17","system_id":"levelo_inurba_marseille","lat":43.21758,"lon":5.34581,"is_reserved":false,"is_disabled":false,"rental_uris":{"android":"levelo://app?vid=0fbc0ce6-a3ce-477d-a1ae-e79beb243e17","ios":"levelo://app?vid=0fbc0ce6-a3ce-477d-a1ae-e79beb243e17"},"vehicle_type_id":"4","last_reported":1758377253,"current_range_meters":8400,"station_id":"st_cvj6r9ubvosntc0bgbag","pricing_plan_id":"cebpf4jnsgd1na2vs0mg"},{"bike_id":"fb78ea42-e26f-45b3-a617-d3474b811b72","system_id":"levelo_inurba_marseille","lat":43.2988,"lon":5.37916,"is_reserved":false,"is_disabled":false,"rental_uris":{"android":"levelo://app?vid=fb78ea42-e26f-45b3-a617-d3474b811b72","ios":"levelo://app?vid=fb78ea42-e26f-45b3-a617-d3474b811b72"},"vehicle_type_id":"4","last_reported":1758377253,"current_range_meters":8400,"station_id":"","pricing_plan_id":"cebpf4jnsgd1na2vs0mg"},{"bike_id":"3d6a7684-91dc-42bf-b85e-a8ef4364706b","system_id":"levelo_inurba_marseille","lat":43.265541,"lon":5.372829,"is_reserved":false,"is_disabled":false,"rental_uris":{"android":"levelo://app?vid=3d6a7684-91dc-42bf-b85e-a8ef4364706b","ios":"levelo://app?vid=3d6a7684-91dc-42bf-b85e-a8ef4364706b"},"vehicle_type_id":"4","last_reported":1758377253,"current_range_meters":8400,"station_id":"ce4bhg12rcd13ifvqf70","pricing_plan_id":"cebpf4jnsgd1na2vs0mg"},{"bike_id":"5bb42022-0e19-48bc-a5b4-218bb1d7482e","system_id":"levelo_inurba_marseille","lat":43.31268,"lon":5.37743,"is_reserved":false,"is_disabled":false,"rental_uris":{"android":"levelo://app?vid=5bb42022-0e19-48bc-a5b4-218bb1d7482e","ios":"levelo://app?vid=5bb42022-0e19-48bc-a5b4-218bb1d7482e"},"vehicle_type_id":"4","last_reported":1758377253,"current_range_meters":8400,"station_id":"","pricing_plan_id":"cebpf4jnsgd1na2vs0mg"},{"bike_id":"bf6e6d27-c09e-4725-9fbc-20073fd5a515","system_id":"levelo_inurba_marseille","lat":43.289376,"lon":5.396214,"is_reserved":false,"is_disabled":false,"rental_uris":{"android":"levelo://app?vid=bf6e6d27-c09e-4725-9fbc-20073fd5a515","ios":"levelo://app?vid=bf6e6d27-c09e-4725-9fbc-20073fd5a515"},"vehicle_type_id":"4","last_reported":1758377253,"current_range_meters":8400,"station_id":"","pricing_plan_id":"cebpf4jnsgd1na2vs0mg"},{"bike_id":"0960e3dd-c358-4474-bd10-8223758e1f6b","system_id":"levelo_inurba_marseille","lat":43.296996,"lon":5.376855,"is_reserved":false,"is_disabled":false,"rental_uris":{"android":"levelo://app?vid=0960e3dd-c358-4474-bd10-8223758e1f6b","ios":"levelo://app?vid=0960e3dd-c358-4474-bd10-8223758e1f6b"},"vehicle_type_id":"4","last_reported":1758377253,"current_range_meters":8400,"station_id":"","pricing_plan_id":"cebpf4jnsgd1na2vs0mg"},{"bike_id":"30f7bbb3-285d-4ca9-a150-fb22bb36a32d","system_id":"levelo_inurba_marseille","lat":43.27373,"lon":5.36258,"is_reserved":false,"is_disabled":false,"rental_uris":{"android":"levelo://app?vid=30f7bbb3-285d-4ca9-a150-fb22bb36a32d","ios":"levelo://app?vid=30f7bbb3-285d-4ca9-a150-fb22bb36a32d"},"vehicle_type_id":"4","last_reported":1758377253,"current_range_meters":8400,"station_id":"ce4bhbh2rcd13ifvqeo0","pricing_plan_id":"cebpf4jnsgd1na2vs0mg"},{"bike_id":"3e682cf4-5ea7-4563-9004-71435c031ec4","system_id":"levelo_inurba_marseille","lat":43.21197,"lon":5.3507,"is_reserved":false,"is_disabled":false,"rental_uris":{"android":"levelo://app?vid=3e682cf4-5ea7-4563-9004-71435c031ec4","ios":"levelo://app?vid=3e682cf4-5ea7-4563-9004-71435c031ec4"},"vehicle_type_id":"4","last_reported":1758377253,"current_range_meters":8800,"station_id":"st_cvj6sg6p6f1abm77japg","pricing_plan_id":"cebpf4jnsgd1na2vs0mg"},{"bike_id":"4974e35e-3695-4e71-877f-aa9f9de46879","system_id":"levelo_inurba_marseille","lat":43.21753,"lon":5.34594,"is_reserved":false,"is_disabled":false,"rental_uris":{"android":"levelo://app?vid=4974e35e-3695-4e71-877f-aa9f9de46879","ios":"levelo://app?vid=4974e35e-3695-4e71-877f-aa9f9de46879"},"vehicle_type_id":"4","last_reported":1758377253,"current_range_meters":8800,"station_id":"st_cvj6r9ubvosntc0bgbag","pricing_plan_id":"cebpf4jnsgd1na2vs0mg"},{"bike_id":"89384ef2-a957-4eff-ae79-02149d611c9d","system_id":"levelo_inurba_marseille","lat":43.21743,"lon":5.34603,"is_reserved":false,"is_disabled":false,"rental_uris":{"android":"levelo://app?vid=89384ef2-a957-4eff-ae79-02149d611c9d","ios":"levelo://app?vid=89384ef2-a957-4eff-ae79-02149d611c9d"},"vehicle_type_id":"4","last_reported":1758377253,"current_range_meters":8800,"station_id":"st_cvj6r9ubvosntc0bgbag","pricing_plan_id":"cebpf4jnsgd1na2vs0mg"},{"bike_id":"3082f593-a5a6-48f9-afa8-383813f7af0b","system_id":"levelo_inurba_marseille","lat":43.21735,"lon":5.34596,"is_reserved":false,"is_disabled":true,"rental_uris":{"android":"levelo://app?vid=3082f593-a5a6-48f9-afa8-383813f7af0b","ios":"levelo://app?vid=3082f593-a5a6-48f9-afa8-383813f7af0b"},"vehicle_type_id":"4","last_reported":1758377253,"current_range_meters":8800,"station_id":"","pricing_plan_id":"cebpf4jnsgd1na2vs0mg"},{"bike_id":"c41e2d3d-8708-49ff-81fd-d3f8ea7aae45","system_id":"levelo_inurba_marseille","lat":43.21753,"lon":5.34594,"is_reserved":false,"is_disabled":false,"rental_uris":{"android":"levelo://app?vid=c41e2d3d-8708-49ff-81fd-d3f8ea7aae45","ios":"levelo://app?vid=c41e2d3d-8708-49ff-81fd-d3f8ea7aae45"},"vehicle_type_id":"4","last_reported":1758377253,"current_range_meters":8800,"station_id":"st_cvj6r9ubvosntc0bgbag","pricing_plan_id":"cebpf4jnsgd1na2vs0mg"},{"bike_id":"c627b34a-8e81-4438-af3b-4fd0aab1c160","system_id":"levelo_inurba_marseille","lat":43.29649,"lon":5.36007,"is_reserved":false,"is_disabled":false,"rental_uris":{"android":"levelo://app?vid=c627b34a-8e81-4438-af3b-4fd0aab1c160","ios":"levelo://app?vid=c627b34a-8e81-4438-af3b-4fd0aab1c160"},"vehicle_type_id":"4","last_reported":1758377253,"current_range_meters":8800,"station_id":"","pricing_plan_id":"cebpf4jnsgd1na2vs0mg"},{"bike_id":"7dd65b1b-fb7b-4087-9803-34d477de11ae","system_id":"levelo_inurba_marseille","lat":43.21202,"lon":5.35061,"is_reserved":false,"is_disabled":false,"rental_uris":{"android":"levelo://app?vid=7dd65b1b-fb7b-4087-9803-34d477de11ae","ios":"levelo://app?vid=7dd65b1b-fb7b-4087-9803-34d477de11ae"},"vehicle_type_id":"4","last_reported":1758377253,"current_range_meters":9200,"station_id":"st_cvj6sg6p6f1abm77japg","pricing_plan_id":"cebpf4jnsgd1na2vs0mg"},{"bike_id":"64bc5259-9fa1-432a-ae3b-31dbecca45cb","system_id":"levelo_inurba_marseille","lat":43.23053,"lon":5.35486,"is_reserved":false,"is_disabled":false,"rental_uris":{"android":"levelo://app?vid=64bc5259-9fa1-432a-ae3b-31dbecca45cb","ios":"levelo://app?vid=64bc5259-9fa1-432a-ae3b-31dbecca45cb"},"vehicle_type_id":"4","last_reported":1758377253,"current_range_meters":9200,"station_id":"cpo3342slgdg3j2ifvpg","pricing_plan_id":"cebpf4jnsgd1na2vs0mg"},{"bike_id":"bb4751a9-167e-4d03-85b6-67b3297e6376","system_id":"levelo_inurba_marseille","lat":43.27321,"lon":5.39071,"is_reserved":false,"is_disabled":false,"rental_uris":{"android":"levelo://app?vid=bb4751a9-167e-4d03-85b6-67b3297e6376","ios":"levelo://app?vid=bb4751a9-167e-4d03-85b6-67b3297e6376"},"vehicle_type_id":"4","last_reported":1758377253,"current_range_meters":9200,"station_id":"ce4bhgp2rcd13ifvqfe0","pricing_plan_id":"cebpf4jnsgd1na2vs0mg"},{"bike_id":"5a596445-0bdb-4fbd-9c4c-0c87116509ac","system_id":"levelo_inurba_marseille","lat":43.27612,"lon":5.36091,"is_reserved":false,"is_disabled":false,"rental_uris":{"android":"levelo://app?vid=5a596445-0bdb-4fbd-9c4c-0c87116509ac","ios":"levelo://app?vid=5a596445-0bdb-4fbd-9c4c-0c87116509ac"},"vehicle_type_id":"4","last_reported":1758377253,"current_range_meters":9200,"station_id":"ce4bgj92rcd13ifvqbe0","pricing_plan_id":"cebpf4jnsgd1na2vs0mg"},{"bike_id":"a30c1579-c7c1-4289-a603-df8763bcecdc","system_id":"levelo_inurba_marseille","lat":43.23152,"lon":5.43711,"is_reserved":false,"is_disabled":false,"rental_uris":{"android":"levelo://app?vid=a30c1579-c7c1-4289-a603-df8763bcecdc","ios":"levelo://app?vid=a30c1579-c7c1-4289-a603-df8763bcecdc"},"vehicle_type_id":"4","last_reported":1758377253,"current_range_meters":9200,"station_id":"ce4bhmp2rcd13ifvqgog","pricing_plan_id":"cebpf4jnsgd1na2vs0mg"},{"bike_id":"0cabafd1-9f4c-4bdc-980f-b3d6ec9b41ea","system_id":"levelo_inurba_marseille","lat":43.2866,"lon":5.36351,"is_reserved":false,"is_disabled":false,"rental_uris":{"android":"levelo://app?vid=0cabafd1-9f4c-4bdc-980f-b3d6ec9b41ea","ios":"levelo://app?vid=0cabafd1-9f4c-4bdc-980f-b3d6ec9b41ea"},"vehicle_type_id":"4","last_reported":1758377253,"current_range_meters":9200,"station_id":"ce4bhah2rcd13ifvqej0","pricing_plan_id":"cebpf4jnsgd1na2vs0mg"},{"bike_id":"eb7fa1b5-17e3-43e5-afee-4d26243c73e7","system_id":"levelo_inurba_marseille","lat":43.28253,"lon":5.35059,"is_reserved":false,"is_disabled":false,"rental_uris":{"android":"levelo://app?vid=eb7fa1b5-17e3-43e5-afee-4d26243c73e7","ios":"levelo://app?vid=eb7fa1b5-17e3-43e5-afee-4d26243c73e7"},"vehicle_type_id":"4","last_reported":1758377253,"current_range_meters":9200,"station_id":"ce4bhbp2rcd13ifvqerg","pricing_plan_id":"cebpf4jnsgd1na2vs0mg"},{"bike_id":"fcb3f6af-c7d4-4ccc-be82-7f951e8865a2","system_id":"levelo_inurba_marseille","lat":43.21187,"lon":5.35048,"is_reserved":false,"is_disabled":false,"rental_uris":{"android":"levelo://app?vid=fcb3f6af-c7d4-4ccc-be82-7f951e8865a2","ios":"levelo://app?vid=fcb3f6af-c7d4-4ccc-be82-7f951e8865a2"},"vehicle_type_id":"4","last_reported":1758377253,"current_range_meters":9600,"station_id":"st_cvj6sg6p6f1abm77japg","pricing_plan_id":"cebpf4jnsgd1na2vs0mg"},{"bike_id":"6e0c1820-661f-464d-93ff-376a98ce21b9","system_id":"levelo_inurba_marseille","lat":43.287226,"lon":5.360818,"is_reserved":false,"is_disabled":false,"rental_uris":{"android":"levelo://app?vid=6e0c1820-661f-464d-93ff-376a98ce21b9","ios":"levelo://app?vid=6e0c1820-661f-464d-93ff-376a98ce21b9"},"vehicle_type_id":"4","last_reported":1758377253,"current_range_meters":9600,"station_id":"cki0cbj6b192h4jlfktg","pricing_plan_id":"cebpf4jnsgd1na2vs0mg"},{"bike_id":"33d69153-3ab1-466b-9006-3187feb06b56","system_id":"levelo_inurba_marseille","lat":43.21195,"lon":5.35083,"is_reserved":false,"is_disabled":false,"rental_uris":{"android":"levelo://app?vid=33d69153-3ab1-466b-9006-3187feb06b56","ios":"levelo://app?vid=33d69153-3ab1-466b-9006-3187feb06b56"},"vehicle_type_id":"4","last_reported":1758377253,"current_range_meters":9600,"station_id":"st_cvj6sg6p6f1abm77japg","pricing_plan_id":"cebpf4jnsgd1na2vs0mg"},{"bike_id":"e162e41c-3ba4-4964-a3c5-9e62d73dfb0e","system_id":"levelo_inurba_marseille","lat":43.32106,"lon":5.3678,"is_reserved":false,"is_disabled":false,"rental_uris":{"android":"levelo://app?vid=e162e41c-3ba4-4964-a3c5-9e62d73dfb0e","ios":"levelo://app?vid=e162e41c-3ba4-4964-a3c5-9e62d73dfb0e"},"vehicle_type_id":"4","last_reported":1758377253,"current_range_meters":9600,"station_id":"ce4bhrh2rcd13ifvqhug","pricing_plan_id":"cebpf4jnsgd1na2vs0mg"},{"bike_id":"c06f205f-b149-48e1-af6e-4e386850564e","system_id":"levelo_inurba_marseille","lat":43.24392,"lon":5.37064,"is_reserved":false,"is_disabled":true,"rental_uris":{"android":"levelo://app?vid=c06f205f-b149-48e1-af6e-4e386850564e","ios":"levelo://app?vid=c06f205f-b149-48e1-af6e-4e386850564e"},"vehicle_type_id":"4","last_reported":1758377253,"current_range_meters":9600,"station_id":"ce4bhhh2rcd13ifvqfk0","pricing_plan_id":"cebpf4jnsgd1na2vs0mg"},{"bike_id":"47a5b051-3d25-4f9d-a9d4-3b4111816b42","system_id":"levelo_inurba_marseille","lat":43.22562,"lon":5.41633,"is_reserved":false,"is_disabled":false,"rental_uris":{"android":"levelo://app?vid=47a5b051-3d25-4f9d-a9d4-3b4111816b42","ios":"levelo://app?vid=47a5b051-3d25-4f9d-a9d4-3b4111816b42"},"vehicle_type_id":"4","last_reported":1758377253,"current_range_meters":9600,"station_id":"st_d2o4gvlbi1j2169b742g","pricing_plan_id":"cebpf4jnsgd1na2vs0mg"},{"bike_id":"0c824cab-4f67-4d04-85a6-8dd418a5090e","system_id":"levelo_inurba_marseille","lat":43.2762,"lon":5.36119,"is_reserved":false,"is_disabled":false,"rental_uris":{"android":"levelo://app?vid=0c824cab-4f67-4d04-85a6-8dd418a5090e","ios":"levelo://app?vid=0c824cab-4f67-4d04-85a6-8dd418a5090e"},"vehicle_type_id":"4","last_reported":1758377253,"current_range_meters":9600,"station_id":"ce4bgj92rcd13ifvqbe0","pricing_plan_id":"cebpf4jnsgd1na2vs0mg"},{"bike_id":"bb1efd80-9371-4940-b5ad-ce1b6c3f5261","system_id":"levelo_inurba_marseille","lat":43.295188,"lon":5.390328,"is_reserved":false,"is_disabled":false,"rental_uris":{"android":"levelo://app?vid=bb1efd80-9371-4940-b5ad-ce1b6c3f5261","ios":"levelo://app?vid=bb1efd80-9371-4940-b5ad-ce1b6c3f5261"},"vehicle_type_id":"4","last_reported":1758377253,"current_range_meters":9600,"station_id":"ce4bh3p2rcd13ifvqdp0","pricing_plan_id":"cebpf4jnsgd1na2vs0mg"},{"bike_id":"658e322b-3dec-4ea3-9937-507d4b7489a7","system_id":"levelo_inurba_marseille","lat":43.3014,"lon":5.37407,"is_reserved":false,"is_disabled":false,"rental_uris":{"android":"levelo://app?vid=658e322b-3dec-4ea3-9937-507d4b7489a7","ios":"levelo://app?vid=658e322b-3dec-4ea3-9937-507d4b7489a7"},"vehicle_type_id":"4","last_reported":1758377253,"current_range_meters":9600,"station_id":"ce4bgs92rcd13ifvqcc0","pricing_plan_id":"cebpf4jnsgd1na2vs0mg"},{"bike_id":"98e8af00-4b83-49fb-a286-0d2396c92bd0","system_id":"levelo_inurba_marseille","lat":43.30902,"lon":5.36845,"is_reserved":false,"is_disabled":true,"rental_uris":{"android":"levelo://app?vid=98e8af00-4b83-49fb-a286-0d2396c92bd0","ios":"levelo://app?vid=98e8af00-4b83-49fb-a286-0d2396c92bd0"},"vehicle_type_id":"4","last_reported":1758377253,"current_range_meters":10000,"station_id":"ce4bgn92rcd13ifvqbvg","pricing_plan_id":"cebpf4jnsgd1na2vs0mg"},{"bike_id":"b6b6c374-d60e-4481-ab2b-87345cce4f00","system_id":"levelo_inurba_marseille","lat":43.28416,"lon":5.34979,"is_reserved":false,"is_disabled":false,"rental_uris":{"android":"levelo://app?vid=b6b6c374-d60e-4481-ab2b-87345cce4f00","ios":"levelo://app?vid=b6b6c374-d60e-4481-ab2b-87345cce4f00"},"vehicle_type_id":"4","last_reported":1758377253,"current_range_meters":10000,"station_id":"ce4bhbh2rcd13ifvqepg","pricing_plan_id":"cebpf4jnsgd1na2vs0mg"},{"bike_id":"4d00bd6d-6650-485a-b706-c20850ce2f87","system_id":"levelo_inurba_marseille","lat":43.217434,"lon":5.346018,"is_reserved":false,"is_disabled":false,"rental_uris":{"android":"levelo://app?vid=4d00bd6d-6650-485a-b706-c20850ce2f87","ios":"levelo://app?vid=4d00bd6d-6650-485a-b706-c20850ce2f87"},"vehicle_type_id":"4","last_reported":1758377253,"current_range_meters":10000,"station_id":"st_cvj6r9ubvosntc0bgbag","pricing_plan_id":"cebpf4jnsgd1na2vs0mg"},{"bike_id":"617dca4b-4508-4d52-9e62-d583d919ac44","system_id":"levelo_inurba_marseille","lat":43.29748,"lon":5.37089,"is_reserved":false,"is_disabled":false,"rental_uris":{"android":"levelo://app?vid=617dca4b-4508-4d52-9e62-d583d919ac44","ios":"levelo://app?vid=617dca4b-4508-4d52-9e62-d583d919ac44"},"vehicle_type_id":"4","last_reported":1758377253,"current_range_meters":10000,"station_id":"ce4bgop2rcd13ifvqc1g","pricing_plan_id":"cebpf4jnsgd1na2vs0mg"},{"bike_id":"575f379b-682e-45a6-a90b-e2da032a9ae0","system_id":"levelo_inurba_marseille","lat":43.21188,"lon":5.35065,"is_reserved":false,"is_disabled":false,"rental_uris":{"android":"levelo://app?vid=575f379b-682e-45a6-a90b-e2da032a9ae0","ios":"levelo://app?vid=575f379b-682e-45a6-a90b-e2da032a9ae0"},"vehicle_type_id":"4","last_reported":1758377253,"current_range_meters":10000,"station_id":"st_cvj6sg6p6f1abm77japg","pricing_plan_id":"cebpf4jnsgd1na2vs0mg"},{"bike_id":"50653f04-43cf-4e1a-a367-5b87f74c9bec","system_id":"levelo_inurba_marseille","lat":43.28254,"lon":5.35061,"is_reserved":false,"is_disabled":false,"rental_uris":{"android":"levelo://app?vid=50653f04-43cf-4e1a-a367-5b87f74c9bec","ios":"levelo://app?vid=50653f04-43cf-4e1a-a367-5b87f74c9bec"},"vehicle_type_id":"4","last_reported":1758377253,"current_range_meters":10800,"station_id":"ce4bhbp2rcd13ifvqerg","pricing_plan_id":"cebpf4jnsgd1na2vs0mg"},{"bike_id":"d618ee16-b4cf-41da-8e25-667e1fab27a6","system_id":"levelo_inurba_marseille","lat":43.21741,"lon":5.34599,"is_reserved":false,"is_disabled":false,"rental_uris":{"android":"levelo://app?vid=d618ee16-b4cf-41da-8e25-667e1fab27a6","ios":"levelo://app?vid=d618ee16-b4cf-41da-8e25-667e1fab27a6"},"vehicle_type_id":"4","last_reported":1758377253,"current_range_meters":10800,"station_id":"st_cvj6r9ubvosntc0bgbag","pricing_plan_id":"cebpf4jnsgd1na2vs0mg"},{"bike_id":"b77580f2-2757-4ce2-89a7-bf551bfbec7a","system_id":"levelo_inurba_marseille","lat":43.292906,"lon":5.374648,"is_reserved":false,"is_disabled":false,"rental_uris":{"android":"levelo://app?vid=b77580f2-2757-4ce2-89a7-bf551bfbec7a","ios":"levelo://app?vid=b77580f2-2757-4ce2-89a7-bf551bfbec7a"},"vehicle_type_id":"4","last_reported":1758377253,"current_range_meters":10800,"station_id":"","pricing_plan_id":"cebpf4jnsgd1na2vs0mg"},{"bike_id":"5b84af94-a4d6-4b46-a63f-085ff5681f73","system_id":"levelo_inurba_marseille","lat":43.21192,"lon":5.35068,"is_reserved":false,"is_disabled":false,"rental_uris":{"android":"levelo://app?vid=5b84af94-a4d6-4b46-a63f-085ff5681f73","ios":"levelo://app?vid=5b84af94-a4d6-4b46-a63f-085ff5681f73"},"vehicle_type_id":"4","last_reported":1758377253,"current_range_meters":10800,"station_id":"st_cvj6sg6p6f1abm77japg","pricing_plan_id":"cebpf4jnsgd1na2vs0mg"},{"bike_id":"cce3b814-4bea-4922-8037-7d62ddbbc374","system_id":"levelo_inurba_marseille","lat":43.31708,"lon":5.40463,"is_reserved":false,"is_disabled":false,"rental_uris":{"android":"levelo://app?vid=cce3b814-4bea-4922-8037-7d62ddbbc374","ios":"levelo://app?vid=cce3b814-4bea-4922-8037-7d62ddbbc374"},"vehicle_type_id":"4","last_reported":1758377253,"current_range_meters":10800,"station_id":"ce4bh012rcd13ifvqd00","pricing_plan_id":"cebpf4jnsgd1na2vs0mg"},{"bike_id":"2dbb9a5f-994c-4cc3-be96-b9d4556d7225","system_id":"levelo_inurba_marseille","lat":43.28282,"lon":5.35047,"is_reserved":false,"is_disabled":false,"rental_uris":{"android":"levelo://app?vid=2dbb9a5f-994c-4cc3-be96-b9d4556d7225","ios":"levelo://app?vid=2dbb9a5f-994c-4cc3-be96-b9d4556d7225"},"vehicle_type_id":"4","last_reported":1758377253,"current_range_meters":10800,"station_id":"ce4bhbp2rcd13ifvqerg","pricing_plan_id":"cebpf4jnsgd1na2vs0mg"},{"bike_id":"b766d582-d4f0-4f9a-9867-0ae0b8177870","system_id":"levelo_inurba_marseille","lat":43.2121,"lon":5.35029,"is_reserved":false,"is_disabled":false,"rental_uris":{"android":"levelo://app?vid=b766d582-d4f0-4f9a-9867-0ae0b8177870","ios":"levelo://app?vid=b766d582-d4f0-4f9a-9867-0ae0b8177870"},"vehicle_type_id":"4","last_reported":1758377253,"current_range_meters":10800,"station_id":"","pricing_plan_id":"cebpf4jnsgd1na2vs0mg"},{"bike_id":"3eace1de-a8af-48d0-9571-01c27befa2c8","system_id":"levelo_inurba_marseille","lat":43.230574,"lon":5.354899,"is_reserved":false,"is_disabled":false,"rental_uris":{"android":"levelo://app?vid=3eace1de-a8af-48d0-9571-01c27befa2c8","ios":"levelo://app?vid=3eace1de-a8af-48d0-9571-01c27befa2c8"},"vehicle_type_id":"4","last_reported":1758377253,"current_range_meters":10800,"station_id":"cpo3342slgdg3j2ifvpg","pricing_plan_id":"cebpf4jnsgd1na2vs0mg"},{"bike_id":"605d0282-63b4-40e6-a3f5-0de13027a90e","system_id":"levelo_inurba_marseille","lat":43.28408,"lon":5.34972,"is_reserved":false,"is_disabled":false,"rental_uris":{"android":"levelo://app?vid=605d0282-63b4-40e6-a3f5-0de13027a90e","ios":"levelo://app?vid=605d0282-63b4-40e6-a3f5-0de13027a90e"},"vehicle_type_id":"4","last_reported":1758377253,"current_range_meters":10800,"station_id":"ce4bhbh2rcd13ifvqepg","pricing_plan_id":"cebpf4jnsgd1na2vs0mg"},{"bike_id":"af77eb6d-dc27-4b4c-82d4-32525e244ac4","system_id":"levelo_inurba_marseille","lat":43.21742,"lon":5.34588,"is_reserved":false,"is_disabled":false,"rental_uris":{"android":"levelo://app?vid=af77eb6d-dc27-4b4c-82d4-32525e244ac4","ios":"levelo://app?vid=af77eb6d-dc27-4b4c-82d4-32525e244ac4"},"vehicle_type_id":"4","last_reported":1758377253,"current_range_meters":10800,"station_id":"st_cvj6r9ubvosntc0bgbag","pricing_plan_id":"cebpf4jnsgd1na2vs0mg"},{"bike_id":"2011792e-687f-4bde-91c3-b2915bb22e30","system_id":"levelo_inurba_marseille","lat":43.273759,"lon":5.362676,"is_reserved":false,"is_disabled":false,"rental_uris":{"android":"levelo://app?vid=2011792e-687f-4bde-91c3-b2915bb22e30","ios":"levelo://app?vid=2011792e-687f-4bde-91c3-b2915bb22e30"},"vehicle_type_id":"4","last_reported":1758377253,"current_range_meters":11200,"station_id":"ce4bhbh2rcd13ifvqeo0","pricing_plan_id":"cebpf4jnsgd1na2vs0mg"},{"bike_id":"c83ecaf5-19f9-4c02-8ffe-d68af6cda270","system_id":"levelo_inurba_marseille","lat":43.30257,"lon":5.40069,"is_reserved":false,"is_disabled":false,"rental_uris":{"android":"levelo://app?vid=c83ecaf5-19f9-4c02-8ffe-d68af6cda270","ios":"levelo://app?vid=c83ecaf5-19f9-4c02-8ffe-d68af6cda270"},"vehicle_type_id":"4","last_reported":1758377253,"current_range_meters":11200,"station_id":"ce4bgvh2rcd13ifvqcs0","pricing_plan_id":"cebpf4jnsgd1na2vs0mg"},{"bike_id":"b5175bf2-b970-4193-a107-a70c3097ce26","system_id":"levelo_inurba_marseille","lat":43.25328,"lon":5.42146,"is_reserved":false,"is_disabled":false,"rental_uris":{"android":"levelo://app?vid=b5175bf2-b970-4193-a107-a70c3097ce26","ios":"levelo://app?vid=b5175bf2-b970-4193-a107-a70c3097ce26"},"vehicle_type_id":"4","last_reported":1758377253,"current_range_meters":11200,"station_id":"st_d2m65c5bi1j21697t3ng","pricing_plan_id":"cebpf4jnsgd1na2vs0mg"},{"bike_id":"b0cd38e0-80bb-4840-827d-b3dc4f86a939","system_id":"levelo_inurba_marseille","lat":43.21755,"lon":5.3459,"is_reserved":false,"is_disabled":false,"rental_uris":{"android":"levelo://app?vid=b0cd38e0-80bb-4840-827d-b3dc4f86a939","ios":"levelo://app?vid=b0cd38e0-80bb-4840-827d-b3dc4f86a939"},"vehicle_type_id":"4","last_reported":1758377253,"current_range_meters":11200,"station_id":"","pricing_plan_id":"cebpf4jnsgd1na2vs0mg"},{"bike_id":"2abae831-daf2-45da-a476-80d8ffc444c8","system_id":"levelo_inurba_marseille","lat":43.282676,"lon":5.350625,"is_reserved":false,"is_disabled":false,"rental_uris":{"android":"levelo://app?vid=2abae831-daf2-45da-a476-80d8ffc444c8","ios":"levelo://app?vid=2abae831-daf2-45da-a476-80d8ffc444c8"},"vehicle_type_id":"4","last_reported":1758377253,"current_range_meters":11600,"station_id":"ce4bhbp2rcd13ifvqerg","pricing_plan_id":"cebpf4jnsgd1na2vs0mg"},{"bike_id":"45b3b57e-09ce-4fca-a41f-cab070095f92","system_id":"levelo_inurba_marseille","lat":43.23197,"lon":5.3553,"is_reserved":false,"is_disabled":false,"rental_uris":{"android":"levelo://app?vid=45b3b57e-09ce-4fca-a41f-cab070095f92","ios":"levelo://app?vid=45b3b57e-09ce-4fca-a41f-cab070095f92"},"vehicle_type_id":"4","last_reported":1758377253,"current_range_meters":11600,"station_id":"ce4bhu92rcd13ifvqi70","pricing_plan_id":"cebpf4jnsgd1na2vs0mg"},{"bike_id":"b19ca4a9-1a5e-4610-95c3-bdddd1560cf7","system_id":"levelo_inurba_marseille","lat":43.28464,"lon":5.35881,"is_reserved":false,"is_disabled":false,"rental_uris":{"android":"levelo://app?vid=b19ca4a9-1a5e-4610-95c3-bdddd1560cf7","ios":"levelo://app?vid=b19ca4a9-1a5e-4610-95c3-bdddd1560cf7"},"vehicle_type_id":"4","last_reported":1758377253,"current_range_meters":11600,"station_id":"ce4bhah2rcd13ifvqei0","pricing_plan_id":"cebpf4jnsgd1na2vs0mg"},{"bike_id":"c4706891-6ce1-4440-91ff-a3ecf2ff007e","system_id":"levelo_inurba_marseille","lat":43.26374,"lon":5.40075,"is_reserved":false,"is_disabled":false,"rental_uris":{"android":"levelo://app?vid=c4706891-6ce1-4440-91ff-a3ecf2ff007e","ios":"levelo://app?vid=c4706891-6ce1-4440-91ff-a3ecf2ff007e"},"vehicle_type_id":"4","last_reported":1758377253,"current_range_meters":12000,"station_id":"","pricing_plan_id":"cebpf4jnsgd1na2vs0mg"},{"bike_id":"8e86fe12-b2d6-4764-9720-31f5ab462b7b","system_id":"levelo_inurba_marseille","lat":43.22564,"lon":5.41613,"is_reserved":false,"is_disabled":false,"rental_uris":{"android":"levelo://app?vid=8e86fe12-b2d6-4764-9720-31f5ab462b7b","ios":"levelo://app?vid=8e86fe12-b2d6-4764-9720-31f5ab462b7b"},"vehicle_type_id":"4","last_reported":1758377253,"current_range_meters":12000,"station_id":"st_d2o4gvlbi1j2169b742g","pricing_plan_id":"cebpf4jnsgd1na2vs0mg"},{"bike_id":"8dfdacab-67ae-41a9-936d-c5f00241c3a3","system_id":"levelo_inurba_marseille","lat":43.28262,"lon":5.35067,"is_reserved":false,"is_disabled":false,"rental_uris":{"android":"levelo://app?vid=8dfdacab-67ae-41a9-936d-c5f00241c3a3","ios":"levelo://app?vid=8dfdacab-67ae-41a9-936d-c5f00241c3a3"},"vehicle_type_id":"4","last_reported":1758377253,"current_range_meters":12000,"station_id":"ce4bhbp2rcd13ifvqerg","pricing_plan_id":"cebpf4jnsgd1na2vs0mg"},{"bike_id":"21100b46-a46f-4dba-8aca-533ef91f921b","system_id":"levelo_inurba_marseille","lat":43.21195,"lon":5.35067,"is_reserved":false,"is_disabled":false,"rental_uris":{"android":"levelo://app?vid=21100b46-a46f-4dba-8aca-533ef91f921b","ios":"levelo://app?vid=21100b46-a46f-4dba-8aca-533ef91f921b"},"vehicle_type_id":"4","last_reported":1758377253,"current_range_meters":12000,"station_id":"st_cvj6sg6p6f1abm77japg","pricing_plan_id":"cebpf4jnsgd1na2vs0mg"},{"bike_id":"3edbeab3-3ab6-4b91-9e84-920f8c5e3ecc","system_id":"levelo_inurba_marseille","lat":43.25818,"lon":5.39433,"is_reserved":false,"is_disabled":false,"rental_uris":{"android":"levelo://app?vid=3edbeab3-3ab6-4b91-9e84-920f8c5e3ecc","ios":"levelo://app?vid=3edbeab3-3ab6-4b91-9e84-920f8c5e3ecc"},"vehicle_type_id":"4","last_reported":1758377253,"current_range_meters":11600,"station_id":"ce4bhip2rcd13ifvqft0","pricing_plan_id":"cebpf4jnsgd1na2vs0mg"},{"bike_id":"4310e4d6-5f63-494f-897d-c870ae66754f","system_id":"levelo_inurba_marseille","lat":43.26203,"lon":5.37458,"is_reserved":false,"is_disabled":false,"rental_uris":{"android":"levelo://app?vid=4310e4d6-5f63-494f-897d-c870ae66754f","ios":"levelo://app?vid=4310e4d6-5f63-494f-897d-c870ae66754f"},"vehicle_type_id":"4","last_reported":1758377253,"current_range_meters":12000,"station_id":"ce4bhgp2rcd13ifvqfc0","pricing_plan_id":"cebpf4jnsgd1na2vs0mg"},{"bike_id":"05ca0aa0-5596-4971-a0c3-94e65df6bd50","system_id":"levelo_inurba_marseille","lat":43.2255,"lon":5.41612,"is_reserved":false,"is_disabled":false,"rental_uris":{"android":"levelo://app?vid=05ca0aa0-5596-4971-a0c3-94e65df6bd50","ios":"levelo://app?vid=05ca0aa0-5596-4971-a0c3-94e65df6bd50"},"vehicle_type_id":"4","last_reported":1758377253,"current_range_meters":12000,"station_id":"st_d2o4gvlbi1j2169b742g","pricing_plan_id":"cebpf4jnsgd1na2vs0mg"},{"bike_id":"bf15a5e8-5f9d-465c-8783-852eb7e6ec72","system_id":"levelo_inurba_marseille","lat":43.26551,"lon":5.37283,"is_reserved":false,"is_disabled":false,"rental_uris":{"android":"levelo://app?vid=bf15a5e8-5f9d-465c-8783-852eb7e6ec72","ios":"levelo://app?vid=bf15a5e8-5f9d-465c-8783-852eb7e6ec72"},"vehicle_type_id":"4","last_reported":1758377253,"current_range_meters":12000,"station_id":"ce4bhg12rcd13ifvqf70","pricing_plan_id":"cebpf4jnsgd1na2vs0mg"},{"bike_id":"a6a0fe9b-5828-4e69-bd39-1f5f34d3d757","system_id":"levelo_inurba_marseille","lat":43.27371,"lon":5.36258,"is_reserved":false,"is_disabled":false,"rental_uris":{"android":"levelo://app?vid=a6a0fe9b-5828-4e69-bd39-1f5f34d3d757","ios":"levelo://app?vid=a6a0fe9b-5828-4e69-bd39-1f5f34d3d757"},"vehicle_type_id":"4","last_reported":1758377253,"current_range_meters":12000,"station_id":"ce4bhbh2rcd13ifvqeo0","pricing_plan_id":"cebpf4jnsgd1na2vs0mg"},{"bike_id":"11f536f5-f858-4572-b106-c5cc3146e3cd","system_id":"levelo_inurba_marseille","lat":43.25329,"lon":5.42129,"is_reserved":false,"is_disabled":false,"rental_uris":{"android":"levelo://app?vid=11f536f5-f858-4572-b106-c5cc3146e3cd","ios":"levelo://app?vid=11f536f5-f858-4572-b106-c5cc3146e3cd"},"vehicle_type_id":"4","last_reported":1758377253,"current_range_meters":12400,"station_id":"st_d2m65c5bi1j21697t3ng","pricing_plan_id":"cebpf4jnsgd1na2vs0mg"},{"bike_id":"3fc70425-07a0-4969-a4e2-30ace61b756b","system_id":"levelo_inurba_marseille","lat":43.21746,"lon":5.34595,"is_reserved":false,"is_disabled":false,"rental_uris":{"android":"levelo://app?vid=3fc70425-07a0-4969-a4e2-30ace61b756b","ios":"levelo://app?vid=3fc70425-07a0-4969-a4e2-30ace61b756b"},"vehicle_type_id":"4","last_reported":1758377253,"current_range_meters":12400,"station_id":"st_cvj6r9ubvosntc0bgbag","pricing_plan_id":"cebpf4jnsgd1na2vs0mg"},{"bike_id":"100fc699-7bc2-45de-9e70-967069e79569","system_id":"levelo_inurba_marseille","lat":43.27941,"lon":5.41049,"is_reserved":false,"is_disabled":false,"rental_uris":{"android":"levelo://app?vid=100fc699-7bc2-45de-9e70-967069e79569","ios":"levelo://app?vid=100fc699-7bc2-45de-9e70-967069e79569"},"vehicle_type_id":"4","last_reported":1758377253,"current_range_meters":12800,"station_id":"ce4bhnp2rcd13ifvqh0g","pricing_plan_id":"cebpf4jnsgd1na2vs0mg"},{"bike_id":"4eb77542-f0ac-4988-a70b-9a50907ab0c0","system_id":"levelo_inurba_marseille","lat":43.29231,"lon":5.36062,"is_reserved":false,"is_disabled":false,"rental_uris":{"android":"levelo://app?vid=4eb77542-f0ac-4988-a70b-9a50907ab0c0","ios":"levelo://app?vid=4eb77542-f0ac-4988-a70b-9a50907ab0c0"},"vehicle_type_id":"4","last_reported":1758377253,"current_range_meters":12800,"station_id":"ce4bhbh2rcd13ifvqeqg","pricing_plan_id":"cebpf4jnsgd1na2vs0mg"},{"bike_id":"8e815b20-f7ca-46cb-9a89-950114be3fe2","system_id":"levelo_inurba_marseille","lat":43.23153,"lon":5.4371,"is_reserved":false,"is_disabled":false,"rental_uris":{"android":"levelo://app?vid=8e815b20-f7ca-46cb-9a89-950114be3fe2","ios":"levelo://app?vid=8e815b20-f7ca-46cb-9a89-950114be3fe2"},"vehicle_type_id":"4","last_reported":1758377253,"current_range_meters":12800,"station_id":"ce4bhmp2rcd13ifvqgog","pricing_plan_id":"cebpf4jnsgd1na2vs0mg"},{"bike_id":"9dda362f-31ca-490a-a5c0-06c09f1dbe36","system_id":"levelo_inurba_marseille","lat":43.239636,"lon":5.366294,"is_reserved":false,"is_disabled":false,"rental_uris":{"android":"levelo://app?vid=9dda362f-31ca-490a-a5c0-06c09f1dbe36","ios":"levelo://app?vid=9dda362f-31ca-490a-a5c0-06c09f1dbe36"},"vehicle_type_id":"4","last_reported":1758377253,"current_range_meters":12800,"station_id":"ce4bhi12rcd13ifvqfp0","pricing_plan_id":"cebpf4jnsgd1na2vs0mg"},{"bike_id":"52b5f431-e387-4016-a9e0-232087690347","system_id":"levelo_inurba_marseille","lat":43.21201,"lon":5.3506,"is_reserved":false,"is_disabled":false,"rental_uris":{"android":"levelo://app?vid=52b5f431-e387-4016-a9e0-232087690347","ios":"levelo://app?vid=52b5f431-e387-4016-a9e0-232087690347"},"vehicle_type_id":"4","last_reported":1758377253,"current_range_meters":12800,"station_id":"st_cvj6sg6p6f1abm77japg","pricing_plan_id":"cebpf4jnsgd1na2vs0mg"},{"bike_id":"e4ea91dd-443e-494b-a0c5-a3eed0a8f214","system_id":"levelo_inurba_marseille","lat":43.25495,"lon":5.37648,"is_reserved":false,"is_disabled":false,"rental_uris":{"android":"levelo://app?vid=e4ea91dd-443e-494b-a0c5-a3eed0a8f214","ios":"levelo://app?vid=e4ea91dd-443e-494b-a0c5-a3eed0a8f214"},"vehicle_type_id":"4","last_reported":1758377253,"current_range_meters":12800,"station_id":"ce4bhh12rcd13ifvqff0","pricing_plan_id":"cebpf4jnsgd1na2vs0mg"},{"bike_id":"b3e4ad82-6024-4f4f-9a8b-026e1ff2f026","system_id":"levelo_inurba_marseille","lat":43.21741,"lon":5.34569,"is_reserved":false,"is_disabled":false,"rental_uris":{"android":"levelo://app?vid=b3e4ad82-6024-4f4f-9a8b-026e1ff2f026","ios":"levelo://app?vid=b3e4ad82-6024-4f4f-9a8b-026e1ff2f026"},"vehicle_type_id":"4","last_reported":1758377253,"current_range_meters":12800,"station_id":"st_cvj6r9ubvosntc0bgbag","pricing_plan_id":"cebpf4jnsgd1na2vs0mg"},{"bike_id":"7fb58d99-54fa-4834-9399-d93d773fcc6f","system_id":"levelo_inurba_marseille","lat":43.21192,"lon":5.35067,"is_reserved":false,"is_disabled":false,"rental_uris":{"android":"levelo://app?vid=7fb58d99-54fa-4834-9399-d93d773fcc6f","ios":"levelo://app?vid=7fb58d99-54fa-4834-9399-d93d773fcc6f"},"vehicle_type_id":"4","last_reported":1758377253,"current_range_meters":12800,"station_id":"st_cvj6sg6p6f1abm77japg","pricing_plan_id":"cebpf4jnsgd1na2vs0mg"},{"bike_id":"cca2c54a-2af0-41a3-9bee-3753b2105d32","system_id":"levelo_inurba_marseille","lat":43.21756,"lon":5.34592,"is_reserved":false,"is_disabled":false,"rental_uris":{"android":"levelo://app?vid=cca2c54a-2af0-41a3-9bee-3753b2105d32","ios":"levelo://app?vid=cca2c54a-2af0-41a3-9bee-3753b2105d32"},"vehicle_type_id":"4","last_reported":1758377253,"current_range_meters":13600,"station_id":"st_cvj6r9ubvosntc0bgbag","pricing_plan_id":"cebpf4jnsgd1na2vs0mg"},{"bike_id":"08156082-ce7f-420c-9f22-bee81ccbaab1","system_id":"levelo_inurba_marseille","lat":43.24167,"lon":5.36385,"is_reserved":false,"is_disabled":false,"rental_uris":{"android":"levelo://app?vid=08156082-ce7f-420c-9f22-bee81ccbaab1","ios":"levelo://app?vid=08156082-ce7f-420c-9f22-bee81ccbaab1"},"vehicle_type_id":"4","last_reported":1758377253,"current_range_meters":13600,"station_id":"cpo36qri1sfpv3e86is0","pricing_plan_id":"cebpf4jnsgd1na2vs0mg"},{"bike_id":"0f7caa9f-1d1a-40d7-9b4a-2f8720e63681","system_id":"levelo_inurba_marseille","lat":43.30862,"lon":5.37519,"is_reserved":false,"is_disabled":false,"rental_uris":{"android":"levelo://app?vid=0f7caa9f-1d1a-40d7-9b4a-2f8720e63681","ios":"levelo://app?vid=0f7caa9f-1d1a-40d7-9b4a-2f8720e63681"},"vehicle_type_id":"4","last_reported":1758377253,"current_range_meters":14000,"station_id":"","pricing_plan_id":"cebpf4jnsgd1na2vs0mg"},{"bike_id":"995f22d9-1973-462a-ad18-2747a0b78087","system_id":"levelo_inurba_marseille","lat":43.2826,"lon":5.35047,"is_reserved":false,"is_disabled":false,"rental_uris":{"android":"levelo://app?vid=995f22d9-1973-462a-ad18-2747a0b78087","ios":"levelo://app?vid=995f22d9-1973-462a-ad18-2747a0b78087"},"vehicle_type_id":"4","last_reported":1758377253,"current_range_meters":14000,"station_id":"ce4bhbp2rcd13ifvqerg","pricing_plan_id":"cebpf4jnsgd1na2vs0mg"},{"bike_id":"035be1b5-37eb-4ce0-af39-f012d6e605bd","system_id":"levelo_inurba_marseille","lat":43.241693,"lon":5.363884,"is_reserved":false,"is_disabled":false,"rental_uris":{"android":"levelo://app?vid=035be1b5-37eb-4ce0-af39-f012d6e605bd","ios":"levelo://app?vid=035be1b5-37eb-4ce0-af39-f012d6e605bd"},"vehicle_type_id":"4","last_reported":1758377253,"current_range_meters":14000,"station_id":"cpo36qri1sfpv3e86is0","pricing_plan_id":"cebpf4jnsgd1na2vs0mg"},{"bike_id":"530f98db-abfa-466e-b418-7210c9ac70ca","system_id":"levelo_inurba_marseille","lat":43.28617,"lon":5.37053,"is_reserved":false,"is_disabled":false,"rental_uris":{"android":"levelo://app?vid=530f98db-abfa-466e-b418-7210c9ac70ca","ios":"levelo://app?vid=530f98db-abfa-466e-b418-7210c9ac70ca"},"vehicle_type_id":"4","last_reported":1758377253,"current_range_meters":13600,"station_id":"ce4bht12rcd13ifvqi60","pricing_plan_id":"cebpf4jnsgd1na2vs0mg"},{"bike_id":"5a5a77d0-f0c8-4a67-9b89-309637b22751","system_id":"levelo_inurba_marseille","lat":43.21752,"lon":5.34603,"is_reserved":false,"is_disabled":false,"rental_uris":{"android":"levelo://app?vid=5a5a77d0-f0c8-4a67-9b89-309637b22751","ios":"levelo://app?vid=5a5a77d0-f0c8-4a67-9b89-309637b22751"},"vehicle_type_id":"4","last_reported":1758377253,"current_range_meters":14000,"station_id":"st_cvj6r9ubvosntc0bgbag","pricing_plan_id":"cebpf4jnsgd1na2vs0mg"},{"bike_id":"a292e160-24ec-43d0-a39e-9be431c252df","system_id":"levelo_inurba_marseille","lat":43.30908,"lon":5.36852,"is_reserved":false,"is_disabled":false,"rental_uris":{"android":"levelo://app?vid=a292e160-24ec-43d0-a39e-9be431c252df","ios":"levelo://app?vid=a292e160-24ec-43d0-a39e-9be431c252df"},"vehicle_type_id":"4","last_reported":1758377253,"current_range_meters":13600,"station_id":"ce4bgn92rcd13ifvqbvg","pricing_plan_id":"cebpf4jnsgd1na2vs0mg"},{"bike_id":"19ae4818-999a-4414-9d43-5fbf97c082bd","system_id":"levelo_inurba_marseille","lat":43.32476,"lon":5.36558,"is_reserved":false,"is_disabled":false,"rental_uris":{"android":"levelo://app?vid=19ae4818-999a-4414-9d43-5fbf97c082bd","ios":"levelo://app?vid=19ae4818-999a-4414-9d43-5fbf97c082bd"},"vehicle_type_id":"4","last_reported":1758377253,"current_range_meters":14000,"station_id":"ce4bhs12rcd13ifvqhvg","pricing_plan_id":"cebpf4jnsgd1na2vs0mg"},{"bike_id":"c1843d42-9f15-4235-8c7f-0c60147cb155","system_id":"levelo_inurba_marseille","lat":43.21197,"lon":5.35059,"is_reserved":false,"is_disabled":false,"rental_uris":{"android":"levelo://app?vid=c1843d42-9f15-4235-8c7f-0c60147cb155","ios":"levelo://app?vid=c1843d42-9f15-4235-8c7f-0c60147cb155"},"vehicle_type_id":"4","last_reported":1758377253,"current_range_meters":14000,"station_id":"st_cvj6sg6p6f1abm77japg","pricing_plan_id":"cebpf4jnsgd1na2vs0mg"},{"bike_id":"438ead59-de14-4fa0-a61d-03a70a4122ae","system_id":"levelo_inurba_marseille","lat":43.97274,"lon":4.89139,"is_reserved":false,"is_disabled":true,"rental_uris":{"android":"levelo://app?vid=438ead59-de14-4fa0-a61d-03a70a4122ae","ios":"levelo://app?vid=438ead59-de14-4fa0-a61d-03a70a4122ae"},"vehicle_type_id":"4","last_reported":1758377253,"current_range_meters":14000,"station_id":"","pricing_plan_id":"cebpf4jnsgd1na2vs0mg"},{"bike_id":"2a00cb84-e9e6-4781-804d-0494d7480777","system_id":"levelo_inurba_marseille","lat":43.22563,"lon":5.41623,"is_reserved":false,"is_disabled":false,"rental_uris":{"android":"levelo://app?vid=2a00cb84-e9e6-4781-804d-0494d7480777","ios":"levelo://app?vid=2a00cb84-e9e6-4781-804d-0494d7480777"},"vehicle_type_id":"4","last_reported":1758377253,"current_range_meters":14400,"station_id":"st_d2o4gvlbi1j2169b742g","pricing_plan_id":"cebpf4jnsgd1na2vs0mg"},{"bike_id":"2fc7b8e5-278a-4331-8acf-ef1d9cda3486","system_id":"levelo_inurba_marseille","lat":43.26196,"lon":5.37447,"is_reserved":false,"is_disabled":false,"rental_uris":{"android":"levelo://app?vid=2fc7b8e5-278a-4331-8acf-ef1d9cda3486","ios":"levelo://app?vid=2fc7b8e5-278a-4331-8acf-ef1d9cda3486"},"vehicle_type_id":"4","last_reported":1758377253,"current_range_meters":14400,"station_id":"ce4bhgp2rcd13ifvqfc0","pricing_plan_id":"cebpf4jnsgd1na2vs0mg"},{"bike_id":"f8fe7cb5-f58c-41c0-83e6-248fdfa62242","system_id":"levelo_inurba_marseille","lat":43.21746,"lon":5.34593,"is_reserved":false,"is_disabled":false,"rental_uris":{"android":"levelo://app?vid=f8fe7cb5-f58c-41c0-83e6-248fdfa62242","ios":"levelo://app?vid=f8fe7cb5-f58c-41c0-83e6-248fdfa62242"},"vehicle_type_id":"4","last_reported":1758377253,"current_range_meters":14400,"station_id":"st_cvj6r9ubvosntc0bgbag","pricing_plan_id":"cebpf4jnsgd1na2vs0mg"},{"bike_id":"f752aa8c-ed7e-4239-b71e-771a2a3cec1e","system_id":"levelo_inurba_marseille","lat":43.21198,"lon":5.35078,"is_reserved":false,"is_disabled":false,"rental_uris":{"android":"levelo://app?vid=f752aa8c-ed7e-4239-b71e-771a2a3cec1e","ios":"levelo://app?vid=f752aa8c-ed7e-4239-b71e-771a2a3cec1e"},"vehicle_type_id":"4","last_reported":1758377253,"current_range_meters":14400,"station_id":"st_cvj6sg6p6f1abm77japg","pricing_plan_id":"cebpf4jnsgd1na2vs0mg"},{"bike_id":"55d1bc08-fd54-4a82-afc7-2adcaa7b1c4e","system_id":"levelo_inurba_marseille","lat":43.30037,"lon":5.37673,"is_reserved":false,"is_disabled":false,"rental_uris":{"android":"levelo://app?vid=55d1bc08-fd54-4a82-afc7-2adcaa7b1c4e","ios":"levelo://app?vid=55d1bc08-fd54-4a82-afc7-2adcaa7b1c4e"},"vehicle_type_id":"4","last_reported":1758377253,"current_range_meters":14400,"station_id":"","pricing_plan_id":"cebpf4jnsgd1na2vs0mg"},{"bike_id":"63e3b349-508f-4e3d-9eb2-900bb33e790c","system_id":"levelo_inurba_marseille","lat":43.28669,"lon":5.38668,"is_reserved":false,"is_disabled":false,"rental_uris":{"android":"levelo://app?vid=63e3b349-508f-4e3d-9eb2-900bb33e790c","ios":"levelo://app?vid=63e3b349-508f-4e3d-9eb2-900bb33e790c"},"vehicle_type_id":"4","last_reported":1758377253,"current_range_meters":14400,"station_id":"ce4bh492rcd13ifvqdug","pricing_plan_id":"cebpf4jnsgd1na2vs0mg"},{"bike_id":"04335a88-00bf-49dc-aa9f-fd28b2779cd6","system_id":"levelo_inurba_marseille","lat":43.23965,"lon":5.36632,"is_reserved":false,"is_disabled":false,"rental_uris":{"android":"levelo://app?vid=04335a88-00bf-49dc-aa9f-fd28b2779cd6","ios":"levelo://app?vid=04335a88-00bf-49dc-aa9f-fd28b2779cd6"},"vehicle_type_id":"4","last_reported":1758377253,"current_range_meters":14400,"station_id":"ce4bhi12rcd13ifvqfp0","pricing_plan_id":"cebpf4jnsgd1na2vs0mg"},{"bike_id":"2d82061a-a240-43d1-93a6-ab71cf777b3c","system_id":"levelo_inurba_marseille","lat":43.21177,"lon":5.35068,"is_reserved":false,"is_disabled":false,"rental_uris":{"android":"levelo://app?vid=2d82061a-a240-43d1-93a6-ab71cf777b3c","ios":"levelo://app?vid=2d82061a-a240-43d1-93a6-ab71cf777b3c"},"vehicle_type_id":"4","last_reported":1758377253,"current_range_meters":14400,"station_id":"st_cvj6sg6p6f1abm77japg","pricing_plan_id":"cebpf4jnsgd1na2vs0mg"},{"bike_id":"a07a513e-e5a9-4481-8592-d991379bc662","system_id":"levelo_inurba_marseille","lat":43.337536,"lon":5.374536,"is_reserved":false,"is_disabled":false,"rental_uris":{"android":"levelo://app?vid=a07a513e-e5a9-4481-8592-d991379bc662","ios":"levelo://app?vid=a07a513e-e5a9-4481-8592-d991379bc662"},"vehicle_type_id":"4","last_reported":1758377253,"current_range_meters":14400,"station_id":"","pricing_plan_id":"cebpf4jnsgd1na2vs0mg"},{"bike_id":"7c0c2828-80bb-4487-a31c-f8cbe6afb77f","system_id":"levelo_inurba_marseille","lat":43.22562,"lon":5.41604,"is_reserved":false,"is_disabled":false,"rental_uris":{"android":"levelo://app?vid=7c0c2828-80bb-4487-a31c-f8cbe6afb77f","ios":"levelo://app?vid=7c0c2828-80bb-4487-a31c-f8cbe6afb77f"},"vehicle_type_id":"4","last_reported":1758377253,"current_range_meters":14800,"station_id":"st_d2o4gvlbi1j2169b742g","pricing_plan_id":"cebpf4jnsgd1na2vs0mg"},{"bike_id":"2e293824-b51e-4d23-8047-40ce2de89912","system_id":"levelo_inurba_marseille","lat":43.32107,"lon":5.36753,"is_reserved":false,"is_disabled":false,"rental_uris":{"android":"levelo://app?vid=2e293824-b51e-4d23-8047-40ce2de89912","ios":"levelo://app?vid=2e293824-b51e-4d23-8047-40ce2de89912"},"vehicle_type_id":"4","last_reported":1758377253,"current_range_meters":14800,"station_id":"ce4bhrh2rcd13ifvqhug","pricing_plan_id":"cebpf4jnsgd1na2vs0mg"},{"bike_id":"391cde01-e9f7-4ae7-9589-66d6122a2e1e","system_id":"levelo_inurba_marseille","lat":43.21738,"lon":5.34597,"is_reserved":false,"is_disabled":false,"rental_uris":{"android":"levelo://app?vid=391cde01-e9f7-4ae7-9589-66d6122a2e1e","ios":"levelo://app?vid=391cde01-e9f7-4ae7-9589-66d6122a2e1e"},"vehicle_type_id":"4","last_reported":1758377253,"current_range_meters":14800,"station_id":"st_cvj6r9ubvosntc0bgbag","pricing_plan_id":"cebpf4jnsgd1na2vs0mg"},{"bike_id":"bcd5b053-9f39-467b-8755-f66fe2cabbaa","system_id":"levelo_inurba_marseille","lat":43.265526,"lon":5.373365,"is_reserved":false,"is_disabled":false,"rental_uris":{"android":"levelo://app?vid=bcd5b053-9f39-467b-8755-f66fe2cabbaa","ios":"levelo://app?vid=bcd5b053-9f39-467b-8755-f66fe2cabbaa"},"vehicle_type_id":"4","last_reported":1758377253,"current_range_meters":14800,"station_id":"ce4bhg12rcd13ifvqf70","pricing_plan_id":"cebpf4jnsgd1na2vs0mg"},{"bike_id":"97893650-9a0c-47e4-baee-ec60bbc1b06d","system_id":"levelo_inurba_marseille","lat":43.25733,"lon":5.41106,"is_reserved":false,"is_disabled":true,"rental_uris":{"android":"levelo://app?vid=97893650-9a0c-47e4-baee-ec60bbc1b06d","ios":"levelo://app?vid=97893650-9a0c-47e4-baee-ec60bbc1b06d"},"vehicle_type_id":"4","last_reported":1758377253,"current_range_meters":14800,"station_id":"ce4bhkp2rcd13ifvqgd0","pricing_plan_id":"cebpf4jnsgd1na2vs0mg"},{"bike_id":"19690668-1178-4799-8f23-d2282ebfd057","system_id":"levelo_inurba_marseille","lat":43.229456,"lon":5.353688,"is_reserved":false,"is_disabled":false,"rental_uris":{"android":"levelo://app?vid=19690668-1178-4799-8f23-d2282ebfd057","ios":"levelo://app?vid=19690668-1178-4799-8f23-d2282ebfd057"},"vehicle_type_id":"4","last_reported":1758377253,"current_range_meters":14800,"station_id":"cpo3532slgdg3j2ikp40","pricing_plan_id":"cebpf4jnsgd1na2vs0mg"},{"bike_id":"d0665e4f-00da-46e5-b2cc-396a4c65bcca","system_id":"levelo_inurba_marseille","lat":43.23198,"lon":5.35552,"is_reserved":false,"is_disabled":false,"rental_uris":{"android":"levelo://app?vid=d0665e4f-00da-46e5-b2cc-396a4c65bcca","ios":"levelo://app?vid=d0665e4f-00da-46e5-b2cc-396a4c65bcca"},"vehicle_type_id":"4","last_reported":1758377253,"current_range_meters":14800,"station_id":"ce4bhu92rcd13ifvqi70","pricing_plan_id":"cebpf4jnsgd1na2vs0mg"},{"bike_id":"3ddd109f-6940-4f22-9160-786f75d3c0db","system_id":"levelo_inurba_marseille","lat":43.24177,"lon":5.36375,"is_reserved":false,"is_disabled":false,"rental_uris":{"android":"levelo://app?vid=3ddd109f-6940-4f22-9160-786f75d3c0db","ios":"levelo://app?vid=3ddd109f-6940-4f22-9160-786f75d3c0db"},"vehicle_type_id":"4","last_reported":1758377253,"current_range_meters":14800,"station_id":"cpo36qri1sfpv3e86is0","pricing_plan_id":"cebpf4jnsgd1na2vs0mg"},{"bike_id":"2015c1f2-c286-408a-b930-50d865ce0bb9","system_id":"levelo_inurba_marseille","lat":43.2119,"lon":5.35051,"is_reserved":false,"is_disabled":false,"rental_uris":{"android":"levelo://app?vid=2015c1f2-c286-408a-b930-50d865ce0bb9","ios":"levelo://app?vid=2015c1f2-c286-408a-b930-50d865ce0bb9"},"vehicle_type_id":"4","last_reported":1758377253,"current_range_meters":14800,"station_id":"st_cvj6sg6p6f1abm77japg","pricing_plan_id":"cebpf4jnsgd1na2vs0mg"},{"bike_id":"d507e843-78d1-4fd7-a084-6bd9b612ebe8","system_id":"levelo_inurba_marseille","lat":43.28423,"lon":5.41034,"is_reserved":false,"is_disabled":true,"rental_uris":{"android":"levelo://app?vid=d507e843-78d1-4fd7-a084-6bd9b612ebe8","ios":"levelo://app?vid=d507e843-78d1-4fd7-a084-6bd9b612ebe8"},"vehicle_type_id":"4","last_reported":1758377253,"current_range_meters":14800,"station_id":"","pricing_plan_id":"cebpf4jnsgd1na2vs0mg"},{"bike_id":"79ebda41-a5b7-494c-a5d6-b240d3225304","system_id":"levelo_inurba_marseille","lat":43.29228,"lon":5.36048,"is_reserved":false,"is_disabled":false,"rental_uris":{"android":"levelo://app?vid=79ebda41-a5b7-494c-a5d6-b240d3225304","ios":"levelo://app?vid=79ebda41-a5b7-494c-a5d6-b240d3225304"},"vehicle_type_id":"4","last_reported":1758377253,"current_range_meters":15200,"station_id":"ce4bhbh2rcd13ifvqeqg","pricing_plan_id":"cebpf4jnsgd1na2vs0mg"},{"bike_id":"d35db2ec-4193-40ac-a2db-26f88f58a57e","system_id":"levelo_inurba_marseille","lat":43.28159,"lon":5.42646,"is_reserved":false,"is_disabled":false,"rental_uris":{"android":"levelo://app?vid=d35db2ec-4193-40ac-a2db-26f88f58a57e","ios":"levelo://app?vid=d35db2ec-4193-40ac-a2db-26f88f58a57e"},"vehicle_type_id":"4","last_reported":1758377253,"current_range_meters":15200,"station_id":"ce4bhnh2rcd13ifvqgug","pricing_plan_id":"cebpf4jnsgd1na2vs0mg"},{"bike_id":"4d49712f-8d86-4b00-b24e-4c9a6b4514b3","system_id":"levelo_inurba_marseille","lat":43.24795,"lon":5.37453,"is_reserved":false,"is_disabled":false,"rental_uris":{"android":"levelo://app?vid=4d49712f-8d86-4b00-b24e-4c9a6b4514b3","ios":"levelo://app?vid=4d49712f-8d86-4b00-b24e-4c9a6b4514b3"},"vehicle_type_id":"4","last_reported":1758377253,"current_range_meters":15200,"station_id":"ce4bhgh2rcd13ifvqfb0","pricing_plan_id":"cebpf4jnsgd1na2vs0mg"},{"bike_id":"e11b6719-5043-4a80-86c5-45b8c2c35724","system_id":"levelo_inurba_marseille","lat":43.28153,"lon":5.42651,"is_reserved":false,"is_disabled":false,"rental_uris":{"android":"levelo://app?vid=e11b6719-5043-4a80-86c5-45b8c2c35724","ios":"levelo://app?vid=e11b6719-5043-4a80-86c5-45b8c2c35724"},"vehicle_type_id":"4","last_reported":1758377253,"current_range_meters":15200,"station_id":"ce4bhnh2rcd13ifvqgug","pricing_plan_id":"cebpf4jnsgd1na2vs0mg"},{"bike_id":"8f90c6e9-c2a0-414b-a280-ed01b517d1e8","system_id":"levelo_inurba_marseille","lat":43.21181,"lon":5.35073,"is_reserved":false,"is_disabled":false,"rental_uris":{"android":"levelo://app?vid=8f90c6e9-c2a0-414b-a280-ed01b517d1e8","ios":"levelo://app?vid=8f90c6e9-c2a0-414b-a280-ed01b517d1e8"},"vehicle_type_id":"4","last_reported":1758377253,"current_range_meters":15200,"station_id":"st_cvj6sg6p6f1abm77japg","pricing_plan_id":"cebpf4jnsgd1na2vs0mg"},{"bike_id":"fd060d80-4980-4fac-9bb2-b20d192dee90","system_id":"levelo_inurba_marseille","lat":43.290009,"lon":5.356204,"is_reserved":false,"is_disabled":false,"rental_uris":{"android":"levelo://app?vid=fd060d80-4980-4fac-9bb2-b20d192dee90","ios":"levelo://app?vid=fd060d80-4980-4fac-9bb2-b20d192dee90"},"vehicle_type_id":"4","last_reported":1758377253,"current_range_meters":15200,"station_id":"ce4bhb92rcd13ifvqen0","pricing_plan_id":"cebpf4jnsgd1na2vs0mg"},{"bike_id":"60a5e849-0cc3-4075-b987-ee2dd7c93ce3","system_id":"levelo_inurba_marseille","lat":43.21183,"lon":5.35082,"is_reserved":false,"is_disabled":false,"rental_uris":{"android":"levelo://app?vid=60a5e849-0cc3-4075-b987-ee2dd7c93ce3","ios":"levelo://app?vid=60a5e849-0cc3-4075-b987-ee2dd7c93ce3"},"vehicle_type_id":"4","last_reported":1758377253,"current_range_meters":16000,"station_id":"st_cvj6sg6p6f1abm77japg","pricing_plan_id":"cebpf4jnsgd1na2vs0mg"},{"bike_id":"835d38aa-5cdf-42e1-9fcc-78735204a226","system_id":"levelo_inurba_marseille","lat":43.241601,"lon":5.364031,"is_reserved":false,"is_disabled":false,"rental_uris":{"android":"levelo://app?vid=835d38aa-5cdf-42e1-9fcc-78735204a226","ios":"levelo://app?vid=835d38aa-5cdf-42e1-9fcc-78735204a226"},"vehicle_type_id":"4","last_reported":1758377253,"current_range_meters":16000,"station_id":"cpo36qri1sfpv3e86is0","pricing_plan_id":"cebpf4jnsgd1na2vs0mg"},{"bike_id":"c4041151-0c3b-480e-a80e-243bd23c8030","system_id":"levelo_inurba_marseille","lat":43.31685,"lon":5.40476,"is_reserved":false,"is_disabled":false,"rental_uris":{"android":"levelo://app?vid=c4041151-0c3b-480e-a80e-243bd23c8030","ios":"levelo://app?vid=c4041151-0c3b-480e-a80e-243bd23c8030"},"vehicle_type_id":"4","last_reported":1758377253,"current_range_meters":16000,"station_id":"ce4bh012rcd13ifvqd00","pricing_plan_id":"cebpf4jnsgd1na2vs0mg"},{"bike_id":"ee6d0940-1dc3-470c-8280-f336617079e2","system_id":"levelo_inurba_marseille","lat":43.23067,"lon":5.35486,"is_reserved":false,"is_disabled":false,"rental_uris":{"android":"levelo://app?vid=ee6d0940-1dc3-470c-8280-f336617079e2","ios":"levelo://app?vid=ee6d0940-1dc3-470c-8280-f336617079e2"},"vehicle_type_id":"4","last_reported":1758377253,"current_range_meters":16000,"station_id":"cpo3342slgdg3j2ifvpg","pricing_plan_id":"cebpf4jnsgd1na2vs0mg"},{"bike_id":"99ef6637-84d7-44f9-bde4-948e86f6cf85","system_id":"levelo_inurba_marseille","lat":43.28417,"lon":5.34979,"is_reserved":false,"is_disabled":false,"rental_uris":{"android":"levelo://app?vid=99ef6637-84d7-44f9-bde4-948e86f6cf85","ios":"levelo://app?vid=99ef6637-84d7-44f9-bde4-948e86f6cf85"},"vehicle_type_id":"4","last_reported":1758377253,"current_range_meters":16000,"station_id":"ce4bhbh2rcd13ifvqepg","pricing_plan_id":"cebpf4jnsgd1na2vs0mg"},{"bike_id":"97514a44-1f4d-4ae1-a270-04ca7b75c621","system_id":"levelo_inurba_marseille","lat":43.28861,"lon":5.42506,"is_reserved":false,"is_disabled":false,"rental_uris":{"android":"levelo://app?vid=97514a44-1f4d-4ae1-a270-04ca7b75c621","ios":"levelo://app?vid=97514a44-1f4d-4ae1-a270-04ca7b75c621"},"vehicle_type_id":"4","last_reported":1758377253,"current_range_meters":16000,"station_id":"","pricing_plan_id":"cebpf4jnsgd1na2vs0mg"},{"bike_id":"8cf7a037-3ee8-4b93-9d7c-de79bfa24f77","system_id":"levelo_inurba_marseille","lat":43.28423,"lon":5.34974,"is_reserved":false,"is_disabled":false,"rental_uris":{"android":"levelo://app?vid=8cf7a037-3ee8-4b93-9d7c-de79bfa24f77","ios":"levelo://app?vid=8cf7a037-3ee8-4b93-9d7c-de79bfa24f77"},"vehicle_type_id":"4","last_reported":1758377253,"current_range_meters":16000,"station_id":"ce4bhbh2rcd13ifvqepg","pricing_plan_id":"cebpf4jnsgd1na2vs0mg"},{"bike_id":"68adab37-f5ad-4072-b58a-fe6c68285ca6","system_id":"levelo_inurba_marseille","lat":43.30616,"lon":5.37662,"is_reserved":false,"is_disabled":false,"rental_uris":{"android":"levelo://app?vid=68adab37-f5ad-4072-b58a-fe6c68285ca6","ios":"levelo://app?vid=68adab37-f5ad-4072-b58a-fe6c68285ca6"},"vehicle_type_id":"4","last_reported":1758377253,"current_range_meters":16000,"station_id":"","pricing_plan_id":"cebpf4jnsgd1na2vs0mg"},{"bike_id":"de78f6a7-766b-47ae-8c7a-32b3e3790d31","system_id":"levelo_inurba_marseille","lat":43.23061,"lon":5.35498,"is_reserved":false,"is_disabled":false,"rental_uris":{"android":"levelo://app?vid=de78f6a7-766b-47ae-8c7a-32b3e3790d31","ios":"levelo://app?vid=de78f6a7-766b-47ae-8c7a-32b3e3790d31"},"vehicle_type_id":"4","last_reported":1758377253,"current_range_meters":16000,"station_id":"cpo3342slgdg3j2ifvpg","pricing_plan_id":"cebpf4jnsgd1na2vs0mg"},{"bike_id":"a0e6dacd-bddf-4fe7-8823-e9187a1da573","system_id":"levelo_inurba_marseille","lat":43.26211,"lon":5.3744,"is_reserved":false,"is_disabled":false,"rental_uris":{"android":"levelo://app?vid=a0e6dacd-bddf-4fe7-8823-e9187a1da573","ios":"levelo://app?vid=a0e6dacd-bddf-4fe7-8823-e9187a1da573"},"vehicle_type_id":"4","last_reported":1758377253,"current_range_meters":16000,"station_id":"ce4bhgp2rcd13ifvqfc0","pricing_plan_id":"cebpf4jnsgd1na2vs0mg"},{"bike_id":"a3797e3d-07a3-441c-8434-4c614eae3326","system_id":"levelo_inurba_marseille","lat":43.25534,"lon":5.37602,"is_reserved":false,"is_disabled":false,"rental_uris":{"android":"levelo://app?vid=a3797e3d-07a3-441c-8434-4c614eae3326","ios":"levelo://app?vid=a3797e3d-07a3-441c-8434-4c614eae3326"},"vehicle_type_id":"4","last_reported":1758377253,"current_range_meters":16000,"station_id":"","pricing_plan_id":"cebpf4jnsgd1na2vs0mg"},{"bike_id":"3dd4d095-f5c2-4157-97fb-ba29b64c8c9d","system_id":"levelo_inurba_marseille","lat":43.27366,"lon":5.36246,"is_reserved":false,"is_disabled":false,"rental_uris":{"android":"levelo://app?vid=3dd4d095-f5c2-4157-97fb-ba29b64c8c9d","ios":"levelo://app?vid=3dd4d095-f5c2-4157-97fb-ba29b64c8c9d"},"vehicle_type_id":"4","last_reported":1758377253,"current_range_meters":16000,"station_id":"ce4bhbh2rcd13ifvqeo0","pricing_plan_id":"cebpf4jnsgd1na2vs0mg"},{"bike_id":"534ff5b4-9e83-493b-9063-104ef0af4212","system_id":"levelo_inurba_marseille","lat":43.27999,"lon":5.41653,"is_reserved":false,"is_disabled":true,"rental_uris":{"android":"levelo://app?vid=534ff5b4-9e83-493b-9063-104ef0af4212","ios":"levelo://app?vid=534ff5b4-9e83-493b-9063-104ef0af4212"},"vehicle_type_id":"4","last_reported":1758377253,"current_range_meters":16000,"station_id":"ce4bho12rcd13ifvqh1g","pricing_plan_id":"cebpf4jnsgd1na2vs0mg"},{"bike_id":"ec81b73f-381f-455d-a68d-05ed695e8b93","system_id":"levelo_inurba_marseille","lat":43.21743,"lon":5.34595,"is_reserved":false,"is_disabled":false,"rental_uris":{"android":"levelo://app?vid=ec81b73f-381f-455d-a68d-05ed695e8b93","ios":"levelo://app?vid=ec81b73f-381f-455d-a68d-05ed695e8b93"},"vehicle_type_id":"4","last_reported":1758377253,"current_range_meters":16000,"station_id":"st_cvj6r9ubvosntc0bgbag","pricing_plan_id":"cebpf4jnsgd1na2vs0mg"},{"bike_id":"6908add5-0d7a-4fa4-8c1e-ba48c875c088","system_id":"levelo_inurba_marseille","lat":43.28617,"lon":5.351,"is_reserved":false,"is_disabled":false,"rental_uris":{"android":"levelo://app?vid=6908add5-0d7a-4fa4-8c1e-ba48c875c088","ios":"levelo://app?vid=6908add5-0d7a-4fa4-8c1e-ba48c875c088"},"vehicle_type_id":"4","last_reported":1758377253,"current_range_meters":16400,"station_id":"ce4bhch2rcd13ifvqeug","pricing_plan_id":"cebpf4jnsgd1na2vs0mg"},{"bike_id":"4c88ee36-8fda-4324-984b-03133962ce0e","system_id":"levelo_inurba_marseille","lat":43.28622,"lon":5.35106,"is_reserved":false,"is_disabled":false,"rental_uris":{"android":"levelo://app?vid=4c88ee36-8fda-4324-984b-03133962ce0e","ios":"levelo://app?vid=4c88ee36-8fda-4324-984b-03133962ce0e"},"vehicle_type_id":"4","last_reported":1758377253,"current_range_meters":16400,"station_id":"ce4bhch2rcd13ifvqeug","pricing_plan_id":"cebpf4jnsgd1na2vs0mg"},{"bike_id":"32b9e56e-8a59-4bea-89b5-1a85a2262e6d","system_id":"levelo_inurba_marseille","lat":43.28273,"lon":5.35064,"is_reserved":false,"is_disabled":false,"rental_uris":{"android":"levelo://app?vid=32b9e56e-8a59-4bea-89b5-1a85a2262e6d","ios":"levelo://app?vid=32b9e56e-8a59-4bea-89b5-1a85a2262e6d"},"vehicle_type_id":"4","last_reported":1758377253,"current_range_meters":16400,"station_id":"ce4bhbp2rcd13ifvqerg","pricing_plan_id":"cebpf4jnsgd1na2vs0mg"},{"bike_id":"5319fae8-be79-4d87-b5d0-b333eba32d6a","system_id":"levelo_inurba_marseille","lat":43.21189,"lon":5.35052,"is_reserved":false,"is_disabled":false,"rental_uris":{"android":"levelo://app?vid=5319fae8-be79-4d87-b5d0-b333eba32d6a","ios":"levelo://app?vid=5319fae8-be79-4d87-b5d0-b333eba32d6a"},"vehicle_type_id":"4","last_reported":1758377253,"current_range_meters":16400,"station_id":"st_cvj6sg6p6f1abm77japg","pricing_plan_id":"cebpf4jnsgd1na2vs0mg"},{"bike_id":"8171bb39-1823-4beb-9d0f-da3a0a84e3df","system_id":"levelo_inurba_marseille","lat":43.23063,"lon":5.35495,"is_reserved":false,"is_disabled":false,"rental_uris":{"android":"levelo://app?vid=8171bb39-1823-4beb-9d0f-da3a0a84e3df","ios":"levelo://app?vid=8171bb39-1823-4beb-9d0f-da3a0a84e3df"},"vehicle_type_id":"4","last_reported":1758377253,"current_range_meters":16400,"station_id":"cpo3342slgdg3j2ifvpg","pricing_plan_id":"cebpf4jnsgd1na2vs0mg"},{"bike_id":"43d57fd4-047e-4ac8-97e5-ec9b96239472","system_id":"levelo_inurba_marseille","lat":43.33463,"lon":5.39807,"is_reserved":false,"is_disabled":false,"rental_uris":{"android":"levelo://app?vid=43d57fd4-047e-4ac8-97e5-ec9b96239472","ios":"levelo://app?vid=43d57fd4-047e-4ac8-97e5-ec9b96239472"},"vehicle_type_id":"4","last_reported":1758377253,"current_range_meters":16400,"station_id":"","pricing_plan_id":"cebpf4jnsgd1na2vs0mg"},{"bike_id":"197baf56-1d1e-4cc3-aa72-d9ddc9ae52a1","system_id":"levelo_inurba_marseille","lat":43.298745,"lon":5.392231,"is_reserved":false,"is_disabled":false,"rental_uris":{"android":"levelo://app?vid=197baf56-1d1e-4cc3-aa72-d9ddc9ae52a1","ios":"levelo://app?vid=197baf56-1d1e-4cc3-aa72-d9ddc9ae52a1"},"vehicle_type_id":"4","last_reported":1758377253,"current_range_meters":16400,"station_id":"ce4bh392rcd13ifvqdl0","pricing_plan_id":"cebpf4jnsgd1na2vs0mg"},{"bike_id":"35da6695-3201-4ea6-8792-a27d60e37cb4","system_id":"levelo_inurba_marseille","lat":43.26197,"lon":5.37052,"is_reserved":false,"is_disabled":false,"rental_uris":{"android":"levelo://app?vid=35da6695-3201-4ea6-8792-a27d60e37cb4","ios":"levelo://app?vid=35da6695-3201-4ea6-8792-a27d60e37cb4"},"vehicle_type_id":"4","last_reported":1758377253,"current_range_meters":16400,"station_id":"","pricing_plan_id":"cebpf4jnsgd1na2vs0mg"},{"bike_id":"5e3f673f-2d1c-49fa-a814-65c6bae9dd71","system_id":"levelo_inurba_marseille","lat":43.28611,"lon":5.37043,"is_reserved":false,"is_disabled":false,"rental_uris":{"android":"levelo://app?vid=5e3f673f-2d1c-49fa-a814-65c6bae9dd71","ios":"levelo://app?vid=5e3f673f-2d1c-49fa-a814-65c6bae9dd71"},"vehicle_type_id":"4","last_reported":1758377253,"current_range_meters":16000,"station_id":"ce4bht12rcd13ifvqi60","pricing_plan_id":"cebpf4jnsgd1na2vs0mg"},{"bike_id":"6228c24d-5b7b-48eb-8cf5-6e66ea33ab8a","system_id":"levelo_inurba_marseille","lat":43.25002,"lon":5.38922,"is_reserved":false,"is_disabled":false,"rental_uris":{"android":"levelo://app?vid=6228c24d-5b7b-48eb-8cf5-6e66ea33ab8a","ios":"levelo://app?vid=6228c24d-5b7b-48eb-8cf5-6e66ea33ab8a"},"vehicle_type_id":"4","last_reported":1758377253,"current_range_meters":16800,"station_id":"ce4bhgp2rcd13ifvqfd0","pricing_plan_id":"cebpf4jnsgd1na2vs0mg"},{"bike_id":"efc713a1-3d97-4e42-9eb1-d1cc9ae8553f","system_id":"levelo_inurba_marseille","lat":43.2826,"lon":5.35066,"is_reserved":false,"is_disabled":false,"rental_uris":{"android":"levelo://app?vid=efc713a1-3d97-4e42-9eb1-d1cc9ae8553f","ios":"levelo://app?vid=efc713a1-3d97-4e42-9eb1-d1cc9ae8553f"},"vehicle_type_id":"4","last_reported":1758377253,"current_range_meters":16800,"station_id":"ce4bhbp2rcd13ifvqerg","pricing_plan_id":"cebpf4jnsgd1na2vs0mg"},{"bike_id":"d801b961-8b0f-429d-9d3e-817010448aec","system_id":"levelo_inurba_marseille","lat":43.337632,"lon":5.374376,"is_reserved":false,"is_disabled":false,"rental_uris":{"android":"levelo://app?vid=d801b961-8b0f-429d-9d3e-817010448aec","ios":"levelo://app?vid=d801b961-8b0f-429d-9d3e-817010448aec"},"vehicle_type_id":"4","last_reported":1758377253,"current_range_meters":16800,"station_id":"","pricing_plan_id":"cebpf4jnsgd1na2vs0mg"},{"bike_id":"118b6d7e-3328-44e2-ae13-d04071b8c00f","system_id":"levelo_inurba_marseille","lat":43.21192,"lon":5.35067,"is_reserved":false,"is_disabled":false,"rental_uris":{"android":"levelo://app?vid=118b6d7e-3328-44e2-ae13-d04071b8c00f","ios":"levelo://app?vid=118b6d7e-3328-44e2-ae13-d04071b8c00f"},"vehicle_type_id":"4","last_reported":1758377253,"current_range_meters":16800,"station_id":"st_cvj6sg6p6f1abm77japg","pricing_plan_id":"cebpf4jnsgd1na2vs0mg"},{"bike_id":"9637c146-59d7-436a-a4f3-e8022fe36949","system_id":"levelo_inurba_marseille","lat":43.21195,"lon":5.35065,"is_reserved":false,"is_disabled":false,"rental_uris":{"android":"levelo://app?vid=9637c146-59d7-436a-a4f3-e8022fe36949","ios":"levelo://app?vid=9637c146-59d7-436a-a4f3-e8022fe36949"},"vehicle_type_id":"4","last_reported":1758377253,"current_range_meters":16800,"station_id":"st_cvj6sg6p6f1abm77japg","pricing_plan_id":"cebpf4jnsgd1na2vs0mg"},{"bike_id":"61183c5b-24a7-40b0-a073-cfa757e6c464","system_id":"levelo_inurba_marseille","lat":43.23963,"lon":5.36626,"is_reserved":false,"is_disabled":false,"rental_uris":{"android":"levelo://app?vid=61183c5b-24a7-40b0-a073-cfa757e6c464","ios":"levelo://app?vid=61183c5b-24a7-40b0-a073-cfa757e6c464"},"vehicle_type_id":"4","last_reported":1758377253,"current_range_meters":16800,"station_id":"ce4bhi12rcd13ifvqfp0","pricing_plan_id":"cebpf4jnsgd1na2vs0mg"},{"bike_id":"8c98f7a3-22ae-457d-8ebf-2fdf0fc7f698","system_id":"levelo_inurba_marseille","lat":43.23059,"lon":5.3549,"is_reserved":false,"is_disabled":false,"rental_uris":{"android":"levelo://app?vid=8c98f7a3-22ae-457d-8ebf-2fdf0fc7f698","ios":"levelo://app?vid=8c98f7a3-22ae-457d-8ebf-2fdf0fc7f698"},"vehicle_type_id":"4","last_reported":1758377253,"current_range_meters":16800,"station_id":"cpo3342slgdg3j2ifvpg","pricing_plan_id":"cebpf4jnsgd1na2vs0mg"},{"bike_id":"6f00a981-ea1c-4e5d-813b-84daaa170976","system_id":"levelo_inurba_marseille","lat":43.28626,"lon":5.35103,"is_reserved":false,"is_disabled":false,"rental_uris":{"android":"levelo://app?vid=6f00a981-ea1c-4e5d-813b-84daaa170976","ios":"levelo://app?vid=6f00a981-ea1c-4e5d-813b-84daaa170976"},"vehicle_type_id":"4","last_reported":1758377253,"current_range_meters":16800,"station_id":"ce4bhch2rcd13ifvqeug","pricing_plan_id":"cebpf4jnsgd1na2vs0mg"},{"bike_id":"5e845cf4-60f1-4566-aad1-cf4d2d13c15d","system_id":"levelo_inurba_marseille","lat":43.21745,"lon":5.34602,"is_reserved":false,"is_disabled":false,"rental_uris":{"android":"levelo://app?vid=5e845cf4-60f1-4566-aad1-cf4d2d13c15d","ios":"levelo://app?vid=5e845cf4-60f1-4566-aad1-cf4d2d13c15d"},"vehicle_type_id":"4","last_reported":1758377253,"current_range_meters":17200,"station_id":"st_cvj6r9ubvosntc0bgbag","pricing_plan_id":"cebpf4jnsgd1na2vs0mg"},{"bike_id":"d309effb-ef13-4c29-b1b9-d1857e082fac","system_id":"levelo_inurba_marseille","lat":43.23072,"lon":5.35452,"is_reserved":false,"is_disabled":false,"rental_uris":{"android":"levelo://app?vid=d309effb-ef13-4c29-b1b9-d1857e082fac","ios":"levelo://app?vid=d309effb-ef13-4c29-b1b9-d1857e082fac"},"vehicle_type_id":"4","last_reported":1758377253,"current_range_meters":17200,"station_id":"cpo3342slgdg3j2ifvpg","pricing_plan_id":"cebpf4jnsgd1na2vs0mg"},{"bike_id":"52891033-621a-4634-afe5-8bb6d992286c","system_id":"levelo_inurba_marseille","lat":43.27608,"lon":5.36084,"is_reserved":false,"is_disabled":false,"rental_uris":{"android":"levelo://app?vid=52891033-621a-4634-afe5-8bb6d992286c","ios":"levelo://app?vid=52891033-621a-4634-afe5-8bb6d992286c"},"vehicle_type_id":"4","last_reported":1758377253,"current_range_meters":17200,"station_id":"ce4bgj92rcd13ifvqbe0","pricing_plan_id":"cebpf4jnsgd1na2vs0mg"},{"bike_id":"3167f28a-6c46-4379-b41f-5bde089ea22d","system_id":"levelo_inurba_marseille","lat":43.21751,"lon":5.34585,"is_reserved":false,"is_disabled":false,"rental_uris":{"android":"levelo://app?vid=3167f28a-6c46-4379-b41f-5bde089ea22d","ios":"levelo://app?vid=3167f28a-6c46-4379-b41f-5bde089ea22d"},"vehicle_type_id":"4","last_reported":1758377253,"current_range_meters":17200,"station_id":"st_cvj6r9ubvosntc0bgbag","pricing_plan_id":"cebpf4jnsgd1na2vs0mg"},{"bike_id":"ba1605ef-ec48-43b2-8028-026e2d342e63","system_id":"levelo_inurba_marseille","lat":43.21193,"lon":5.35062,"is_reserved":false,"is_disabled":false,"rental_uris":{"android":"levelo://app?vid=ba1605ef-ec48-43b2-8028-026e2d342e63","ios":"levelo://app?vid=ba1605ef-ec48-43b2-8028-026e2d342e63"},"vehicle_type_id":"4","last_reported":1758377253,"current_range_meters":17200,"station_id":"st_cvj6sg6p6f1abm77japg","pricing_plan_id":"cebpf4jnsgd1na2vs0mg"},{"bike_id":"76bbf107-7ec5-4826-b296-ab629ecd14ab","system_id":"levelo_inurba_marseille","lat":43.29827,"lon":5.42049,"is_reserved":false,"is_disabled":false,"rental_uris":{"android":"levelo://app?vid=76bbf107-7ec5-4826-b296-ab629ecd14ab","ios":"levelo://app?vid=76bbf107-7ec5-4826-b296-ab629ecd14ab"},"vehicle_type_id":"4","last_reported":1758377253,"current_range_meters":17200,"station_id":"","pricing_plan_id":"cebpf4jnsgd1na2vs0mg"},{"bike_id":"654c9ebe-4647-4d41-a2d0-a0f0a268f71f","system_id":"levelo_inurba_marseille","lat":43.24162,"lon":5.36389,"is_reserved":false,"is_disabled":false,"rental_uris":{"android":"levelo://app?vid=654c9ebe-4647-4d41-a2d0-a0f0a268f71f","ios":"levelo://app?vid=654c9ebe-4647-4d41-a2d0-a0f0a268f71f"},"vehicle_type_id":"4","last_reported":1758377253,"current_range_meters":17600,"station_id":"cpo36qri1sfpv3e86is0","pricing_plan_id":"cebpf4jnsgd1na2vs0mg"},{"bike_id":"2627d0e2-438c-49e3-a4c1-bcb75d8c3fea","system_id":"levelo_inurba_marseille","lat":43.26561,"lon":5.37298,"is_reserved":false,"is_disabled":false,"rental_uris":{"android":"levelo://app?vid=2627d0e2-438c-49e3-a4c1-bcb75d8c3fea","ios":"levelo://app?vid=2627d0e2-438c-49e3-a4c1-bcb75d8c3fea"},"vehicle_type_id":"4","last_reported":1758377253,"current_range_meters":17600,"station_id":"ce4bhg12rcd13ifvqf70","pricing_plan_id":"cebpf4jnsgd1na2vs0mg"},{"bike_id":"e86857f8-f405-4657-b145-ec58ed187087","system_id":"levelo_inurba_marseille","lat":43.31484,"lon":5.3881,"is_reserved":false,"is_disabled":false,"rental_uris":{"android":"levelo://app?vid=e86857f8-f405-4657-b145-ec58ed187087","ios":"levelo://app?vid=e86857f8-f405-4657-b145-ec58ed187087"},"vehicle_type_id":"4","last_reported":1758377253,"current_range_meters":17600,"station_id":"ce4bgt92rcd13ifvqcf0","pricing_plan_id":"cebpf4jnsgd1na2vs0mg"},{"bike_id":"c583a48c-2975-4add-84c7-5a9df938f44d","system_id":"levelo_inurba_marseille","lat":43.25937,"lon":5.40897,"is_reserved":false,"is_disabled":false,"rental_uris":{"android":"levelo://app?vid=c583a48c-2975-4add-84c7-5a9df938f44d","ios":"levelo://app?vid=c583a48c-2975-4add-84c7-5a9df938f44d"},"vehicle_type_id":"4","last_reported":1758377253,"current_range_meters":17600,"station_id":"ce4bhm92rcd13ifvqglg","pricing_plan_id":"cebpf4jnsgd1na2vs0mg"},{"bike_id":"363d99e5-837c-43c8-abcc-c80ef2e2786a","system_id":"levelo_inurba_marseille","lat":43.21198,"lon":5.35072,"is_reserved":false,"is_disabled":false,"rental_uris":{"android":"levelo://app?vid=363d99e5-837c-43c8-abcc-c80ef2e2786a","ios":"levelo://app?vid=363d99e5-837c-43c8-abcc-c80ef2e2786a"},"vehicle_type_id":"4","last_reported":1758377253,"current_range_meters":17600,"station_id":"st_cvj6sg6p6f1abm77japg","pricing_plan_id":"cebpf4jnsgd1na2vs0mg"},{"bike_id":"f34c9f4f-46c1-47a4-b87a-5393b39aa867","system_id":"levelo_inurba_marseille","lat":43.21749,"lon":5.34579,"is_reserved":false,"is_disabled":false,"rental_uris":{"android":"levelo://app?vid=f34c9f4f-46c1-47a4-b87a-5393b39aa867","ios":"levelo://app?vid=f34c9f4f-46c1-47a4-b87a-5393b39aa867"},