{"last_updated":1683749349,"ttl":30,"version":"2.2","data":{"bikes":[{"bike_id":"525702b3-cafd-4542-b38a-3599d04c630d","system_id":"levelo_inurba_marseille","lat":43.309076,"lon":5.368465,"is_reserved":false,"is_disabled":false,"rental_uris":{"android":"levelo://app?vid=525702b3-cafd-4542-b38a-3599d04c630d","ios":"levelo://app?vid=525702b3-cafd-4542-b38a-3599d04c630d"},"vehicle_type_id":"4","last_reported":1683749350,"current_range_meters":30400,"station_id":"ce4bgn92rcd13ifvqbvg","pricing_plan_id":"free"},{"bike_id":"3e01785a-7b7f-47d6-a4a7-91737b453c3b","system_id":"levelo_inurba_marseille","lat":43.314811,"lon":5.373103,"is_reserved":false,"is_disabled":false,"rental_uris":{"android":"levelo://app?vid=3e01785a-7b7f-47d6-a4a7-91737b453c3b","ios":"levelo://app?vid=3e01785a-7b7f-47d6-a4a7-91737b453c3b"},"vehicle_type_id":"4","last_reported":1683749350,"current_range_meters":11200,"station_id":"ce4bgt12rcd13ifvqcd0","pricing_plan_id":"free"},{"bike_id":"30bcb19c-6e7d-4eed-a071-dcf12480f1e8","system_id":"levelo_inurba_marseille","lat":43.314811,"lon":5.373103,"is_reserved":false,"is_disabled":false,"rental_uris":{"android":"levelo://app?vid=30bcb19c-6e7d-4eed-a071-dcf12480f1e8","ios":"levelo://app?vid=30bcb19c-6e7d-4eed-a071-dcf12480f1e8"},"vehicle_type_id":"4","last_reported":1683749350,"current_range_meters":21200,"station_id":"ce4bgt12rcd13ifvqcd0","pricing_plan_id":"free"},{"bike_id":"0fac61b3-ff59-4bf1-8837-0ca13d5f2625","system_id":"levelo_inurba_marseille","lat":43.314811,"lon":5.373103,"is_reserved":false,"is_disabled":false,"rental_uris":{"android":"levelo://app?vid=0fac61b3-ff59-4bf1-8837-0ca13d5f2625","ios":"levelo://app?vid=0fac61b3-ff59-4bf1-8837-0ca13d5f2625"},"vehicle_type_id":"4","last_reported":1683749350,"current_range_meters":5200,"station_id":"ce4bgt12rcd13ifvqcd0","pricing_plan_id":"free"},{"bike_id":"9802e7f2-ef72-45e6-92d8-78c3fab9dd6d","system_id":"levelo_inurba_marseille","lat":43.314811,"lon":5.373103,"is_reserved":false,"is_disabled":false,"rental_uris":{"android":"levelo://app?vid=9802e7f2-ef72-45e6-92d8-78c3fab9dd6d","ios":"levelo://app?vid=9802e7f2-ef72-45e6-92d8-78c3fab9dd6d"},"vehicle_type_id":"4","last_reported":1683749350,"current_range_meters":4800,"station_id":"ce4bgt12rcd13ifvqcd0","pricing_plan_id":"free"},{"bike_id":"9f63682b-db23-4ad4-8805-034639d7582a","system_id":"levelo_inurba_marseille","lat":43.314811,"lon":5.373103,"is_reserved":false,"is_disabled":false,"rental_uris":{"android":"levelo://app?vid=9f63682b-db23-4ad4-8805-034639d7582a","ios":"levelo://app?vid=9f63682b-db23-4ad4-8805-034639d7582a"},"vehicle_type_id":"4","last_reported":1683749350,"current_range_meters":22800,"station_id":"ce4bgt12rcd13ifvqcd0","pricing_plan_id":"free"},{"bike_id":"a6b35a00-3ccd-4f5d-bc38-39ef4aab9bcf","system_id":"levelo_inurba_marseille","lat":43.308614,"lon":5.372098,"is_reserved":false,"is_disabled":false,"rental_uris":{"android":"levelo://app?vid=a6b35a00-3ccd-4f5d-bc38-39ef4aab9bcf","ios":"levelo://app?vid=a6b35a00-3ccd-4f5d-bc38-39ef4aab9bcf"},"vehicle_type_id":"4","last_reported":1683749350,"current_range_meters":400,"station_id":"ce4bguh2rcd13ifvqckg","pricing_plan_id":"free"},{"bike_id":"3fe5e8c0-b0dd-43d5-804b-316a6f727b76","system_id":"levelo_inurba_marseille","lat":43.308614,"lon":5.372098,"is_reserved":false,"is_disabled":false,"rental_uris":{"android":"levelo://app?vid=3fe5e8c0-b0dd-43d5-804b-316a6f727b76","ios":"levelo://app?vid=3fe5e8c0-b0dd-43d5-804b-316a6f727b76"},"vehicle_type_id":"4","last_reported":1683749350,"current_range_meters":12400,"station_id":"ce4bguh2rcd13ifvqckg","pricing_plan_id":"free"},{"bike_id":"03b63664-2eee-47af-a5f8-cd0e02b487a0","system_id":"levelo_inurba_marseille","lat":43.308614,"lon":5.372098,"is_reserved":false,"is_disabled":false,"rental_uris":{"android":"levelo://app?vid=03b63664-2eee-47af-a5f8-cd0e02b487a0","ios":"levelo://app?vid=03b63664-2eee-47af-a5f8-cd0e02b487a0"},"vehicle_type_id":"4","last_reported":1683749350,"current_range_meters":2800,"station_id":"ce4bguh2rcd13ifvqckg","pricing_plan_id":"free"},{"bike_id":"e5055e62-b460-43ad-b3fc-0fd7bf145013","system_id":"levelo_inurba_marseille","lat":43.30883,"lon":5.37207,"is_reserved":false,"is_disabled":false,"rental_uris":{"android":"levelo://app?vid=e5055e62-b460-43ad-b3fc-0fd7bf145013","ios":"levelo://app?vid=e5055e62-b460-43ad-b3fc-0fd7bf145013"},"vehicle_type_id":"4","last_reported":1683749350,"current_range_meters":30000,"station_id":"ce4bguh2rcd13ifvqckg","pricing_plan_id":"free"},{"bike_id":"2cd97288-6a6e-4345-bfc1-4f7de14cdd82","system_id":"levelo_inurba_marseille","lat":43.31448,"lon":5.37564,"is_reserved":false,"is_disabled":false,"rental_uris":{"android":"levelo://app?vid=2cd97288-6a6e-4345-bfc1-4f7de14cdd82","ios":"levelo://app?vid=2cd97288-6a6e-4345-bfc1-4f7de14cdd82"},"vehicle_type_id":"4","last_reported":1683749350,"current_range_meters":5600,"station_id":"","pricing_plan_id":"free"},{"bike_id":"f40e5a32-8d42-4a37-82e6-36edb941fb66","system_id":"levelo_inurba_marseille","lat":43.30537,"lon":5.367345,"is_reserved":false,"is_disabled":false,"rental_uris":{"android":"levelo://app?vid=f40e5a32-8d42-4a37-82e6-36edb941fb66","ios":"levelo://app?vid=f40e5a32-8d42-4a37-82e6-36edb941fb66"},"vehicle_type_id":"4","last_reported":1683749350,"current_range_meters":12800,"station_id":"ce4bgrp2rcd13ifvqc9g","pricing_plan_id":"free"},{"bike_id":"4da8fa16-b83c-4478-bfc7-02ff59bc2238","system_id":"levelo_inurba_marseille","lat":43.30537,"lon":5.367345,"is_reserved":false,"is_disabled":false,"rental_uris":{"android":"levelo://app?vid=4da8fa16-b83c-4478-bfc7-02ff59bc2238","ios":"levelo://app?vid=4da8fa16-b83c-4478-bfc7-02ff59bc2238"},"vehicle_type_id":"4","last_reported":1683749350,"current_range_meters":24000,"station_id":"ce4bgrp2rcd13ifvqc9g","pricing_plan_id":"free"},{"bike_id":"fea96fc0-a43c-415b-87bf-75a2a653cbc5","system_id":"levelo_inurba_marseille","lat":43.305706,"lon":5.365654,"is_reserved":false,"is_disabled":false,"rental_uris":{"android":"levelo://app?vid=fea96fc0-a43c-415b-87bf-75a2a653cbc5","ios":"levelo://app?vid=fea96fc0-a43c-415b-87bf-75a2a653cbc5"},"vehicle_type_id":"4","last_reported":1683749350,"current_range_meters":0,"station_id":"ce4bgs12rcd13ifvqcag","pricing_plan_id":"free"},{"bike_id":"75b52887-b0af-4d8e-b8b3-8ca0b58dbcf8","system_id":"levelo_inurba_marseille","lat":43.30537,"lon":5.367345,"is_reserved":false,"is_disabled":false,"rental_uris":{"android":"levelo://app?vid=75b52887-b0af-4d8e-b8b3-8ca0b58dbcf8","ios":"levelo://app?vid=75b52887-b0af-4d8e-b8b3-8ca0b58dbcf8"},"vehicle_type_id":"4","last_reported":1683749350,"current_range_meters":12400,"station_id":"ce4bgrp2rcd13ifvqc9g","pricing_plan_id":"free"},{"bike_id":"2f9af1da-7e57-440a-92ee-5f445f1c2558","system_id":"levelo_inurba_marseille","lat":43.30537,"lon":5.367345,"is_reserved":false,"is_disabled":false,"rental_uris":{"android":"levelo://app?vid=2f9af1da-7e57-440a-92ee-5f445f1c2558","ios":"levelo://app?vid=2f9af1da-7e57-440a-92ee-5f445f1c2558"},"vehicle_type_id":"4","last_reported":1683749350,"current_range_meters":12000,"station_id":"ce4bgrp2rcd13ifvqc9g","pricing_plan_id":"free"},{"bike_id":"ebc958c3-fd68-4865-b43a-461dd0cead57","system_id":"levelo_inurba_marseille","lat":43.305706,"lon":5.365654,"is_reserved":false,"is_disabled":false,"rental_uris":{"android":"levelo://app?vid=ebc958c3-fd68-4865-b43a-461dd0cead57","ios":"levelo://app?vid=ebc958c3-fd68-4865-b43a-461dd0cead57"},"vehicle_type_id":"4","last_reported":1683749350,"current_range_meters":5200,"station_id":"ce4bgs12rcd13ifvqcag","pricing_plan_id":"free"},{"bike_id":"29d4b555-5e4f-4c33-9027-55d7db79916d","system_id":"levelo_inurba_marseille","lat":43.30605,"lon":5.37218,"is_reserved":false,"is_disabled":false,"rental_uris":{"android":"levelo://app?vid=29d4b555-5e4f-4c33-9027-55d7db79916d","ios":"levelo://app?vid=29d4b555-5e4f-4c33-9027-55d7db79916d"},"vehicle_type_id":"4","last_reported":1683749350,"current_range_meters":24400,"station_id":"ce4bgqh2rcd13ifvqc4g","pricing_plan_id":"free"},{"bike_id":"34ecee27-9b4f-496d-90de-37f919616a50","system_id":"levelo_inurba_marseille","lat":43.305989,"lon":5.37225,"is_reserved":false,"is_disabled":false,"rental_uris":{"android":"levelo://app?vid=34ecee27-9b4f-496d-90de-37f919616a50","ios":"levelo://app?vid=34ecee27-9b4f-496d-90de-37f919616a50"},"vehicle_type_id":"4","last_reported":1683749350,"current_range_meters":19200,"station_id":"ce4bgqh2rcd13ifvqc4g","pricing_plan_id":"free"},{"bike_id":"722876ea-0f0b-4df1-9117-0ae47aba3ac5","system_id":"levelo_inurba_marseille","lat":43.305989,"lon":5.37225,"is_reserved":false,"is_disabled":false,"rental_uris":{"android":"levelo://app?vid=722876ea-0f0b-4df1-9117-0ae47aba3ac5","ios":"levelo://app?vid=722876ea-0f0b-4df1-9117-0ae47aba3ac5"},"vehicle_type_id":"4","last_reported":1683749350,"current_range_meters":11600,"station_id":"ce4bgqh2rcd13ifvqc4g","pricing_plan_id":"free"},{"bike_id":"c06576a3-027f-4434-9c52-eb668f84badc","system_id":"levelo_inurba_marseille","lat":43.311131,"lon":5.377651,"is_reserved":false,"is_disabled":false,"rental_uris":{"android":"levelo://app?vid=c06576a3-027f-4434-9c52-eb668f84badc","ios":"levelo://app?vid=c06576a3-027f-4434-9c52-eb668f84badc"},"vehicle_type_id":"4","last_reported":1683749350,"current_range_meters":30400,"station_id":"ce4bgt92rcd13ifvqcg0","pricing_plan_id":"free"},{"bike_id":"9c5e9154-f0c9-48b9-906f-b029f8f34e68","system_id":"levelo_inurba_marseille","lat":43.311131,"lon":5.377651,"is_reserved":false,"is_disabled":false,"rental_uris":{"android":"levelo://app?vid=9c5e9154-f0c9-48b9-906f-b029f8f34e68","ios":"levelo://app?vid=9c5e9154-f0c9-48b9-906f-b029f8f34e68"},"vehicle_type_id":"4","last_reported":1683749350,"current_range_meters":13200,"station_id":"ce4bgt92rcd13ifvqcg0","pricing_plan_id":"free"},{"bike_id":"15588041-d92f-44cf-b9d3-d1412a863de9","system_id":"levelo_inurba_marseille","lat":43.311131,"lon":5.377651,"is_reserved":false,"is_disabled":false,"rental_uris":{"android":"levelo://app?vid=15588041-d92f-44cf-b9d3-d1412a863de9","ios":"levelo://app?vid=15588041-d92f-44cf-b9d3-d1412a863de9"},"vehicle_type_id":"4","last_reported":1683749350,"current_range_meters":30400,"station_id":"ce4bgt92rcd13ifvqcg0","pricing_plan_id":"free"},{"bike_id":"83f9f3fc-89cb-4107-9ec1-33bfb440159e","system_id":"levelo_inurba_marseille","lat":43.31122,"lon":5.37769,"is_reserved":false,"is_disabled":false,"rental_uris":{"android":"levelo://app?vid=83f9f3fc-89cb-4107-9ec1-33bfb440159e","ios":"levelo://app?vid=83f9f3fc-89cb-4107-9ec1-33bfb440159e"},"vehicle_type_id":"4","last_reported":1683749350,"current_range_meters":24400,"station_id":"ce4bgt92rcd13ifvqcg0","pricing_plan_id":"free"},{"bike_id":"d449c27e-cf2c-4295-a33c-3d95d21101f4","system_id":"levelo_inurba_marseille","lat":43.311131,"lon":5.377651,"is_reserved":false,"is_disabled":false,"rental_uris":{"android":"levelo://app?vid=d449c27e-cf2c-4295-a33c-3d95d21101f4","ios":"levelo://app?vid=d449c27e-cf2c-4295-a33c-3d95d21101f4"},"vehicle_type_id":"4","last_reported":1683749350,"current_range_meters":22000,"station_id":"ce4bgt92rcd13ifvqcg0","pricing_plan_id":"free"},{"bike_id":"b7f713ee-9a1f-4731-8d37-a5e9f69638de","system_id":"levelo_inurba_marseille","lat":43.3111,"lon":5.37768,"is_reserved":false,"is_disabled":false,"rental_uris":{"android":"levelo://app?vid=b7f713ee-9a1f-4731-8d37-a5e9f69638de","ios":"levelo://app?vid=b7f713ee-9a1f-4731-8d37-a5e9f69638de"},"vehicle_type_id":"4","last_reported":1683749350,"current_range_meters":17200,"station_id":"ce4bgt92rcd13ifvqcg0","pricing_plan_id":"free"},{"bike_id":"f4eee3cb-54fb-4388-86f7-ccfd7fe97735","system_id":"levelo_inurba_marseille","lat":43.31113,"lon":5.37769,"is_reserved":false,"is_disabled":false,"rental_uris":{"android":"levelo://app?vid=f4eee3cb-54fb-4388-86f7-ccfd7fe97735","ios":"levelo://app?vid=f4eee3cb-54fb-4388-86f7-ccfd7fe97735"},"vehicle_type_id":"4","last_reported":1683749350,"current_range_meters":0,"station_id":"ce4bgt92rcd13ifvqcg0","pricing_plan_id":"free"},{"bike_id":"3c91eeee-dd84-4b21-95c7-74102a53c243","system_id":"levelo_inurba_marseille","lat":43.31092,"lon":5.37782,"is_reserved":false,"is_disabled":false,"rental_uris":{"android":"levelo://app?vid=3c91eeee-dd84-4b21-95c7-74102a53c243","ios":"levelo://app?vid=3c91eeee-dd84-4b21-95c7-74102a53c243"},"vehicle_type_id":"4","last_reported":1683749350,"current_range_meters":3600,"station_id":"ce4bgt92rcd13ifvqcg0","pricing_plan_id":"free"},{"bike_id":"65a87c09-1772-47ed-8473-91a28f6a4e46","system_id":"levelo_inurba_marseille","lat":43.317075,"lon":5.377367,"is_reserved":false,"is_disabled":false,"rental_uris":{"android":"levelo://app?vid=65a87c09-1772-47ed-8473-91a28f6a4e46","ios":"levelo://app?vid=65a87c09-1772-47ed-8473-91a28f6a4e46"},"vehicle_type_id":"4","last_reported":1683749350,"current_range_meters":9200,"station_id":"ce4bgth2rcd13ifvqch0","pricing_plan_id":"free"},{"bike_id":"476663c1-2b3b-4a67-9fb2-f8cff09a2a03","system_id":"levelo_inurba_marseille","lat":43.315289,"lon":5.380349,"is_reserved":false,"is_disabled":false,"rental_uris":{"android":"levelo://app?vid=476663c1-2b3b-4a67-9fb2-f8cff09a2a03","ios":"levelo://app?vid=476663c1-2b3b-4a67-9fb2-f8cff09a2a03"},"vehicle_type_id":"4","last_reported":1683749350,"current_range_meters":29200,"station_id":"ce4bhsp2rcd13ifvqi50","pricing_plan_id":"free"},{"bike_id":"6e5f92b6-91a6-4312-bd58-eecd95161db1","system_id":"levelo_inurba_marseille","lat":43.315293,"lon":5.380349,"is_reserved":false,"is_disabled":false,"rental_uris":{"android":"levelo://app?vid=6e5f92b6-91a6-4312-bd58-eecd95161db1","ios":"levelo://app?vid=6e5f92b6-91a6-4312-bd58-eecd95161db1"},"vehicle_type_id":"4","last_reported":1683749350,"current_range_meters":19600,"station_id":"ce4bhsp2rcd13ifvqi50","pricing_plan_id":"free"},{"bike_id":"7211188e-5768-4852-9a89-6ef0cb362254","system_id":"levelo_inurba_marseille","lat":43.315293,"lon":5.380349,"is_reserved":false,"is_disabled":false,"rental_uris":{"android":"levelo://app?vid=7211188e-5768-4852-9a89-6ef0cb362254","ios":"levelo://app?vid=7211188e-5768-4852-9a89-6ef0cb362254"},"vehicle_type_id":"4","last_reported":1683749350,"current_range_meters":23200,"station_id":"ce4bhsp2rcd13ifvqi50","pricing_plan_id":"free"},{"bike_id":"74dc49db-f918-43ed-a8d8-199327d2e08a","system_id":"levelo_inurba_marseille","lat":43.30253,"lon":5.36489,"is_reserved":false,"is_disabled":false,"rental_uris":{"android":"levelo://app?vid=74dc49db-f918-43ed-a8d8-199327d2e08a","ios":"levelo://app?vid=74dc49db-f918-43ed-a8d8-199327d2e08a"},"vehicle_type_id":"4","last_reported":1683749350,"current_range_meters":10400,"station_id":"","pricing_plan_id":"free"},{"bike_id":"c0c1f249-fa1f-4c93-9a3d-2fb87d01d74c","system_id":"levelo_inurba_marseille","lat":43.301939,"lon":5.366286,"is_reserved":false,"is_disabled":false,"rental_uris":{"android":"levelo://app?vid=c0c1f249-fa1f-4c93-9a3d-2fb87d01d74c","ios":"levelo://app?vid=c0c1f249-fa1f-4c93-9a3d-2fb87d01d74c"},"vehicle_type_id":"4","last_reported":1683749350,"current_range_meters":26000,"station_id":"ce4bgrh2rcd13ifvqc8g","pricing_plan_id":"free"},{"bike_id":"4427fcfe-90e2-417c-ad46-d00936b1be6d","system_id":"levelo_inurba_marseille","lat":43.301939,"lon":5.366286,"is_reserved":false,"is_disabled":false,"rental_uris":{"android":"levelo://app?vid=4427fcfe-90e2-417c-ad46-d00936b1be6d","ios":"levelo://app?vid=4427fcfe-90e2-417c-ad46-d00936b1be6d"},"vehicle_type_id":"4","last_reported":1683749350,"current_range_meters":20400,"station_id":"ce4bgrh2rcd13ifvqc8g","pricing_plan_id":"free"},{"bike_id":"025d463a-6fd5-4ee8-a632-ab8ae8022565","system_id":"levelo_inurba_marseille","lat":43.30819,"lon":5.3814,"is_reserved":false,"is_disabled":false,"rental_uris":{"android":"levelo://app?vid=025d463a-6fd5-4ee8-a632-ab8ae8022565","ios":"levelo://app?vid=025d463a-6fd5-4ee8-a632-ab8ae8022565"},"vehicle_type_id":"4","last_reported":1683749350,"current_range_meters":30800,"station_id":"ce4bgt12rcd13ifvqce0","pricing_plan_id":"free"},{"bike_id":"1c53cb39-73fb-4ddd-a1d7-8b07a79f0996","system_id":"levelo_inurba_marseille","lat":43.308012,"lon":5.381511,"is_reserved":false,"is_disabled":false,"rental_uris":{"android":"levelo://app?vid=1c53cb39-73fb-4ddd-a1d7-8b07a79f0996","ios":"levelo://app?vid=1c53cb39-73fb-4ddd-a1d7-8b07a79f0996"},"vehicle_type_id":"4","last_reported":1683749350,"current_range_meters":21200,"station_id":"ce4bgt12rcd13ifvqce0","pricing_plan_id":"free"},{"bike_id":"56076882-cf72-4511-a8c7-21dacf352931","system_id":"levelo_inurba_marseille","lat":43.30894,"lon":5.38229,"is_reserved":false,"is_disabled":false,"rental_uris":{"android":"levelo://app?vid=56076882-cf72-4511-a8c7-21dacf352931","ios":"levelo://app?vid=56076882-cf72-4511-a8c7-21dacf352931"},"vehicle_type_id":"4","last_reported":1683749350,"current_range_meters":1600,"station_id":"","pricing_plan_id":"free"},{"bike_id":"ca72a39f-04d1-4302-ab20-189564c0ec4c","system_id":"levelo_inurba_marseille","lat":43.304606,"lon":5.379026,"is_reserved":false,"is_disabled":false,"rental_uris":{"android":"levelo://app?vid=ca72a39f-04d1-4302-ab20-189564c0ec4c","ios":"levelo://app?vid=ca72a39f-04d1-4302-ab20-189564c0ec4c"},"vehicle_type_id":"4","last_reported":1683749350,"current_range_meters":5600,"station_id":"ce4bgup2rcd13ifvqcn0","pricing_plan_id":"free"},{"bike_id":"ba3c7347-a6f4-4ed8-9d5e-4f0472960521","system_id":"levelo_inurba_marseille","lat":43.304606,"lon":5.379026,"is_reserved":false,"is_disabled":false,"rental_uris":{"android":"levelo://app?vid=ba3c7347-a6f4-4ed8-9d5e-4f0472960521","ios":"levelo://app?vid=ba3c7347-a6f4-4ed8-9d5e-4f0472960521"},"vehicle_type_id":"4","last_reported":1683749350,"current_range_meters":11600,"station_id":"ce4bgup2rcd13ifvqcn0","pricing_plan_id":"free"},{"bike_id":"478d1533-2261-4552-96a7-84e78d1969fc","system_id":"levelo_inurba_marseille","lat":43.30143,"lon":5.37413,"is_reserved":false,"is_disabled":false,"rental_uris":{"android":"levelo://app?vid=478d1533-2261-4552-96a7-84e78d1969fc","ios":"levelo://app?vid=478d1533-2261-4552-96a7-84e78d1969fc"},"vehicle_type_id":"4","last_reported":1683749350,"current_range_meters":0,"station_id":"ce4bgs92rcd13ifvqcc0","pricing_plan_id":"free"},{"bike_id":"270d4ba6-a40e-4597-bdd7-92fade34ec18","system_id":"levelo_inurba_marseille","lat":43.32117,"lon":5.38066,"is_reserved":false,"is_disabled":false,"rental_uris":{"android":"levelo://app?vid=270d4ba6-a40e-4597-bdd7-92fade34ec18","ios":"levelo://app?vid=270d4ba6-a40e-4597-bdd7-92fade34ec18"},"vehicle_type_id":"4","last_reported":1683749350,"current_range_meters":14800,"station_id":"","pricing_plan_id":"free"},{"bike_id":"93c34317-25d1-426e-90dc-402e6c3a1913","system_id":"levelo_inurba_marseille","lat":43.313571,"lon":5.384829,"is_reserved":false,"is_disabled":false,"rental_uris":{"android":"levelo://app?vid=93c34317-25d1-426e-90dc-402e6c3a1913","ios":"levelo://app?vid=93c34317-25d1-426e-90dc-402e6c3a1913"},"vehicle_type_id":"4","last_reported":1683749350,"current_range_meters":24400,"station_id":"ce4bgt92rcd13ifvqcf0","pricing_plan_id":"free"},{"bike_id":"3fd03b09-886f-4d8d-8d8c-26ebdcf68448","system_id":"levelo_inurba_marseille","lat":43.313571,"lon":5.384829,"is_reserved":false,"is_disabled":false,"rental_uris":{"android":"levelo://app?vid=3fd03b09-886f-4d8d-8d8c-26ebdcf68448","ios":"levelo://app?vid=3fd03b09-886f-4d8d-8d8c-26ebdcf68448"},"vehicle_type_id":"4","last_reported":1683749350,"current_range_meters":20800,"station_id":"ce4bgt92rcd13ifvqcf0","pricing_plan_id":"free"},{"bike_id":"503871a1-c628-4e5b-9e13-a971c6477ec8","system_id":"levelo_inurba_marseille","lat":43.29982,"lon":5.37034,"is_reserved":false,"is_disabled":false,"rental_uris":{"android":"levelo://app?vid=503871a1-c628-4e5b-9e13-a971c6477ec8","ios":"levelo://app?vid=503871a1-c628-4e5b-9e13-a971c6477ec8"},"vehicle_type_id":"4","last_reported":1683749350,"current_range_meters":12400,"station_id":"","pricing_plan_id":"free"},{"bike_id":"0055ad1e-5126-42c8-aa6a-58a4e2be295a","system_id":"levelo_inurba_marseille","lat":43.313571,"lon":5.384829,"is_reserved":false,"is_disabled":false,"rental_uris":{"android":"levelo://app?vid=0055ad1e-5126-42c8-aa6a-58a4e2be295a","ios":"levelo://app?vid=0055ad1e-5126-42c8-aa6a-58a4e2be295a"},"vehicle_type_id":"4","last_reported":1683749350,"current_range_meters":30400,"station_id":"ce4bgt92rcd13ifvqcf0","pricing_plan_id":"free"},{"bike_id":"5e17253f-7ea8-4ee2-9e5d-fb0def9b64c8","system_id":"levelo_inurba_marseille","lat":43.313571,"lon":5.384829,"is_reserved":false,"is_disabled":false,"rental_uris":{"android":"levelo://app?vid=5e17253f-7ea8-4ee2-9e5d-fb0def9b64c8","ios":"levelo://app?vid=5e17253f-7ea8-4ee2-9e5d-fb0def9b64c8"},"vehicle_type_id":"4","last_reported":1683749350,"current_range_meters":29200,"station_id":"ce4bgt92rcd13ifvqcf0","pricing_plan_id":"free"},{"bike_id":"11355a26-ce04-4637-b186-e63c722271b4","system_id":"levelo_inurba_marseille","lat":43.31375,"lon":5.38518,"is_reserved":false,"is_disabled":false,"rental_uris":{"android":"levelo://app?vid=11355a26-ce04-4637-b186-e63c722271b4","ios":"levelo://app?vid=11355a26-ce04-4637-b186-e63c722271b4"},"vehicle_type_id":"4","last_reported":1683749350,"current_range_meters":18000,"station_id":"ce4bgt92rcd13ifvqcf0","pricing_plan_id":"free"},{"bike_id":"f52876d7-571e-490f-b71a-ed9e7b93e52f","system_id":"levelo_inurba_marseille","lat":43.299222,"lon":5.365554,"is_reserved":false,"is_disabled":false,"rental_uris":{"android":"levelo://app?vid=f52876d7-571e-490f-b71a-ed9e7b93e52f","ios":"levelo://app?vid=f52876d7-571e-490f-b71a-ed9e7b93e52f"},"vehicle_type_id":"4","last_reported":1683749350,"current_range_meters":6800,"station_id":"ce4bgm92rcd13ifvqbr0","pricing_plan_id":"free"},{"bike_id":"256fdd2c-00ba-422e-ab5d-5cc82a420315","system_id":"levelo_inurba_marseille","lat":43.298433,"lon":5.362774,"is_reserved":false,"is_disabled":false,"rental_uris":{"android":"levelo://app?vid=256fdd2c-00ba-422e-ab5d-5cc82a420315","ios":"levelo://app?vid=256fdd2c-00ba-422e-ab5d-5cc82a420315"},"vehicle_type_id":"4","last_reported":1683749350,"current_range_meters":1200,"station_id":"ce4bgpp2rcd13ifvqc3g","pricing_plan_id":"free"},{"bike_id":"7754f827-47fc-42cf-827f-e2cf31f96293","system_id":"levelo_inurba_marseille","lat":43.298433,"lon":5.362774,"is_reserved":false,"is_disabled":false,"rental_uris":{"android":"levelo://app?vid=7754f827-47fc-42cf-827f-e2cf31f96293","ios":"levelo://app?vid=7754f827-47fc-42cf-827f-e2cf31f96293"},"vehicle_type_id":"4","last_reported":1683749350,"current_range_meters":22400,"station_id":"ce4bgpp2rcd13ifvqc3g","pricing_plan_id":"free"},{"bike_id":"470c10ff-a92b-46d5-9bd4-39907d912183","system_id":"levelo_inurba_marseille","lat":43.298433,"lon":5.362774,"is_reserved":false,"is_disabled":false,"rental_uris":{"android":"levelo://app?vid=470c10ff-a92b-46d5-9bd4-39907d912183","ios":"levelo://app?vid=470c10ff-a92b-46d5-9bd4-39907d912183"},"vehicle_type_id":"4","last_reported":1683749350,"current_range_meters":22400,"station_id":"ce4bgpp2rcd13ifvqc3g","pricing_plan_id":"free"},{"bike_id":"f407d5f3-181f-4803-bf56-34f509b09267","system_id":"levelo_inurba_marseille","lat":43.311722,"lon":5.387247,"is_reserved":false,"is_disabled":false,"rental_uris":{"android":"levelo://app?vid=f407d5f3-181f-4803-bf56-34f509b09267","ios":"levelo://app?vid=f407d5f3-181f-4803-bf56-34f509b09267"},"vehicle_type_id":"4","last_reported":1683749350,"current_range_meters":31200,"station_id":"ce4bgv12rcd13ifvqcp0","pricing_plan_id":"free"},{"bike_id":"e56effee-cd76-45bf-ad81-bc81ed86dcd8","system_id":"levelo_inurba_marseille","lat":43.31176,"lon":5.38715,"is_reserved":false,"is_disabled":false,"rental_uris":{"android":"levelo://app?vid=e56effee-cd76-45bf-ad81-bc81ed86dcd8","ios":"levelo://app?vid=e56effee-cd76-45bf-ad81-bc81ed86dcd8"},"vehicle_type_id":"4","last_reported":1683749350,"current_range_meters":31200,"station_id":"ce4bgv12rcd13ifvqcp0","pricing_plan_id":"free"},{"bike_id":"926b3ab9-5e52-494a-98dd-4e10b77dc5db","system_id":"levelo_inurba_marseille","lat":43.299243,"lon":5.37481,"is_reserved":false,"is_disabled":false,"rental_uris":{"android":"levelo://app?vid=926b3ab9-5e52-494a-98dd-4e10b77dc5db","ios":"levelo://app?vid=926b3ab9-5e52-494a-98dd-4e10b77dc5db"},"vehicle_type_id":"4","last_reported":1683749350,"current_range_meters":24000,"station_id":"ce4bgjh2rcd13ifvqbg0","pricing_plan_id":"free"},{"bike_id":"2f96f4b7-d3f1-4b87-b98f-caf50ba6d13d","system_id":"levelo_inurba_marseille","lat":43.32776,"lon":5.36706,"is_reserved":false,"is_disabled":false,"rental_uris":{"android":"levelo://app?vid=2f96f4b7-d3f1-4b87-b98f-caf50ba6d13d","ios":"levelo://app?vid=2f96f4b7-d3f1-4b87-b98f-caf50ba6d13d"},"vehicle_type_id":"4","last_reported":1683749350,"current_range_meters":23200,"station_id":"","pricing_plan_id":"free"},{"bike_id":"be2258e2-d503-4d7d-b3de-79144082667e","system_id":"levelo_inurba_marseille","lat":43.297794,"lon":5.370888,"is_reserved":false,"is_disabled":false,"rental_uris":{"android":"levelo://app?vid=be2258e2-d503-4d7d-b3de-79144082667e","ios":"levelo://app?vid=be2258e2-d503-4d7d-b3de-79144082667e"},"vehicle_type_id":"4","last_reported":1683749350,"current_range_meters":4000,"station_id":"ce4bgop2rcd13ifvqc1g","pricing_plan_id":"free"},{"bike_id":"caa6a512-b708-4577-9542-1c54b414cf0e","system_id":"levelo_inurba_marseille","lat":43.297794,"lon":5.370888,"is_reserved":false,"is_disabled":false,"rental_uris":{"android":"levelo://app?vid=caa6a512-b708-4577-9542-1c54b414cf0e","ios":"levelo://app?vid=caa6a512-b708-4577-9542-1c54b414cf0e"},"vehicle_type_id":"4","last_reported":1683749350,"current_range_meters":2800,"station_id":"ce4bgop2rcd13ifvqc1g","pricing_plan_id":"free"},{"bike_id":"a8233ff6-b3b8-4cf5-963d-11038e4f683d","system_id":"levelo_inurba_marseille","lat":43.328371,"lon":5.366909,"is_reserved":false,"is_disabled":false,"rental_uris":{"android":"levelo://app?vid=a8233ff6-b3b8-4cf5-963d-11038e4f683d","ios":"levelo://app?vid=a8233ff6-b3b8-4cf5-963d-11038e4f683d"},"vehicle_type_id":"4","last_reported":1683749350,"current_range_meters":12400,"station_id":"ce4bhs92rcd13ifvqi0g","pricing_plan_id":"free"},{"bike_id":"47dd94f6-6655-4b87-96ce-12d2fc5b0f02","system_id":"levelo_inurba_marseille","lat":43.29756,"lon":5.37217,"is_reserved":false,"is_disabled":false,"rental_uris":{"android":"levelo://app?vid=47dd94f6-6655-4b87-96ce-12d2fc5b0f02","ios":"levelo://app?vid=47dd94f6-6655-4b87-96ce-12d2fc5b0f02"},"vehicle_type_id":"4","last_reported":1683749350,"current_range_meters":0,"station_id":"","pricing_plan_id":"free"},{"bike_id":"ce997a5d-550a-43bc-84aa-e42265745e01","system_id":"levelo_inurba_marseille","lat":43.296131,"lon":5.370791,"is_reserved":false,"is_disabled":false,"rental_uris":{"android":"levelo://app?vid=ce997a5d-550a-43bc-84aa-e42265745e01","ios":"levelo://app?vid=ce997a5d-550a-43bc-84aa-e42265745e01"},"vehicle_type_id":"4","last_reported":1683749350,"current_range_meters":25600,"station_id":"ce4bgnh2rcd13ifvqc0g","pricing_plan_id":"free"},{"bike_id":"467d64ae-88f0-432d-93e6-f969a5026691","system_id":"levelo_inurba_marseille","lat":43.29573,"lon":5.367355,"is_reserved":false,"is_disabled":false,"rental_uris":{"android":"levelo://app?vid=467d64ae-88f0-432d-93e6-f969a5026691","ios":"levelo://app?vid=467d64ae-88f0-432d-93e6-f969a5026691"},"vehicle_type_id":"4","last_reported":1683749350,"current_range_meters":24800,"station_id":"ce4bgph2rcd13ifvqc2g","pricing_plan_id":"free"},{"bike_id":"0dd90b36-404c-4eca-b5db-dfd282ccca89","system_id":"levelo_inurba_marseille","lat":43.296129,"lon":5.370777,"is_reserved":false,"is_disabled":false,"rental_uris":{"android":"levelo://app?vid=0dd90b36-404c-4eca-b5db-dfd282ccca89","ios":"levelo://app?vid=0dd90b36-404c-4eca-b5db-dfd282ccca89"},"vehicle_type_id":"4","last_reported":1683749350,"current_range_meters":26400,"station_id":"ce4bgnh2rcd13ifvqc0g","pricing_plan_id":"free"},{"bike_id":"8e8ad2c8-a761-4636-8582-9575fd660dde","system_id":"levelo_inurba_marseille","lat":43.29573,"lon":5.367355,"is_reserved":false,"is_disabled":false,"rental_uris":{"android":"levelo://app?vid=8e8ad2c8-a761-4636-8582-9575fd660dde","ios":"levelo://app?vid=8e8ad2c8-a761-4636-8582-9575fd660dde"},"vehicle_type_id":"4","last_reported":1683749350,"current_range_meters":14000,"station_id":"ce4bgph2rcd13ifvqc2g","pricing_plan_id":"free"},{"bike_id":"601e35ac-ad40-4728-a3af-47e00e18ffb3","system_id":"levelo_inurba_marseille","lat":43.29573,"lon":5.367355,"is_reserved":false,"is_disabled":false,"rental_uris":{"android":"levelo://app?vid=601e35ac-ad40-4728-a3af-47e00e18ffb3","ios":"levelo://app?vid=601e35ac-ad40-4728-a3af-47e00e18ffb3"},"vehicle_type_id":"4","last_reported":1683749350,"current_range_meters":4000,"station_id":"ce4bgph2rcd13ifvqc2g","pricing_plan_id":"free"},{"bike_id":"dd089a7f-1dc6-41b0-ad7d-893fda8d4b63","system_id":"levelo_inurba_marseille","lat":43.29573,"lon":5.367355,"is_reserved":false,"is_disabled":false,"rental_uris":{"android":"levelo://app?vid=dd089a7f-1dc6-41b0-ad7d-893fda8d4b63","ios":"levelo://app?vid=dd089a7f-1dc6-41b0-ad7d-893fda8d4b63"},"vehicle_type_id":"4","last_reported":1683749350,"current_range_meters":22800,"station_id":"ce4bgph2rcd13ifvqc2g","pricing_plan_id":"free"},{"bike_id":"12327c09-2378-46e0-bea8-7c0473234a77","system_id":"levelo_inurba_marseille","lat":43.317557,"lon":5.390173,"is_reserved":false,"is_disabled":false,"rental_uris":{"android":"levelo://app?vid=12327c09-2378-46e0-bea8-7c0473234a77","ios":"levelo://app?vid=12327c09-2378-46e0-bea8-7c0473234a77"},"vehicle_type_id":"4","last_reported":1683749350,"current_range_meters":8400,"station_id":"ce4bhqp2rcd13ifvqhng","pricing_plan_id":"free"},{"bike_id":"c56754b6-7683-46ee-9503-10507e69dfe5","system_id":"levelo_inurba_marseille","lat":43.31761,"lon":5.39024,"is_reserved":false,"is_disabled":false,"rental_uris":{"android":"levelo://app?vid=c56754b6-7683-46ee-9503-10507e69dfe5","ios":"levelo://app?vid=c56754b6-7683-46ee-9503-10507e69dfe5"},"vehicle_type_id":"4","last_reported":1683749350,"current_range_meters":25600,"station_id":"ce4bhqp2rcd13ifvqhng","pricing_plan_id":"free"},{"bike_id":"1a4a2063-d0af-453b-a2c4-7268305d7f35","system_id":"levelo_inurba_marseille","lat":43.298037,"lon":5.381066,"is_reserved":false,"is_disabled":false,"rental_uris":{"android":"levelo://app?vid=1a4a2063-d0af-453b-a2c4-7268305d7f35","ios":"levelo://app?vid=1a4a2063-d0af-453b-a2c4-7268305d7f35"},"vehicle_type_id":"4","last_reported":1683749350,"current_range_meters":20000,"station_id":"ce4bgip2rcd13ifvqbb0","pricing_plan_id":"free"},{"bike_id":"f43a32d1-95a5-432c-a97f-c8433d7d6803","system_id":"levelo_inurba_marseille","lat":43.298037,"lon":5.381066,"is_reserved":false,"is_disabled":false,"rental_uris":{"android":"levelo://app?vid=f43a32d1-95a5-432c-a97f-c8433d7d6803","ios":"levelo://app?vid=f43a32d1-95a5-432c-a97f-c8433d7d6803"},"vehicle_type_id":"4","last_reported":1683749350,"current_range_meters":5200,"station_id":"ce4bgip2rcd13ifvqbb0","pricing_plan_id":"free"},{"bike_id":"fc56d24d-235c-4b31-98ce-59fc19f959e7","system_id":"levelo_inurba_marseille","lat":43.30427,"lon":5.38888,"is_reserved":false,"is_disabled":false,"rental_uris":{"android":"levelo://app?vid=fc56d24d-235c-4b31-98ce-59fc19f959e7","ios":"levelo://app?vid=fc56d24d-235c-4b31-98ce-59fc19f959e7"},"vehicle_type_id":"4","last_reported":1683749350,"current_range_meters":23200,"station_id":"","pricing_plan_id":"free"},{"bike_id":"991102d6-32fe-4d9e-abdd-62d77903224e","system_id":"levelo_inurba_marseille","lat":43.295356,"lon":5.375011,"is_reserved":false,"is_disabled":false,"rental_uris":{"android":"levelo://app?vid=991102d6-32fe-4d9e-abdd-62d77903224e","ios":"levelo://app?vid=991102d6-32fe-4d9e-abdd-62d77903224e"},"vehicle_type_id":"4","last_reported":1683749350,"current_range_meters":22800,"station_id":"ce4bgkp2rcd13ifvqbmg","pricing_plan_id":"free"},{"bike_id":"95e77000-580c-4ee9-b6db-959c6e375e8b","system_id":"levelo_inurba_marseille","lat":43.29602,"lon":5.38102,"is_reserved":false,"is_disabled":false,"rental_uris":{"android":"levelo://app?vid=95e77000-580c-4ee9-b6db-959c6e375e8b","ios":"levelo://app?vid=95e77000-580c-4ee9-b6db-959c6e375e8b"},"vehicle_type_id":"4","last_reported":1683749350,"current_range_meters":3200,"station_id":"","pricing_plan_id":"free"},{"bike_id":"60bd6bef-c7e6-4fa4-954c-8a069477467a","system_id":"levelo_inurba_marseille","lat":43.31439,"lon":5.39403,"is_reserved":false,"is_disabled":false,"rental_uris":{"android":"levelo://app?vid=60bd6bef-c7e6-4fa4-954c-8a069477467a","ios":"levelo://app?vid=60bd6bef-c7e6-4fa4-954c-8a069477467a"},"vehicle_type_id":"4","last_reported":1683749350,"current_range_meters":0,"station_id":"","pricing_plan_id":"free"},{"bike_id":"7a97e4cb-a103-494c-b147-1da5f8ce0a3d","system_id":"levelo_inurba_marseille","lat":43.292749,"lon":5.368402,"is_reserved":false,"is_disabled":false,"rental_uris":{"android":"levelo://app?vid=7a97e4cb-a103-494c-b147-1da5f8ce0a3d","ios":"levelo://app?vid=7a97e4cb-a103-494c-b147-1da5f8ce0a3d"},"vehicle_type_id":"4","last_reported":1683749350,"current_range_meters":24400,"station_id":"ce4bhbp2rcd13ifvqesg","pricing_plan_id":"free"},{"bike_id":"8113fc51-f8e5-47ff-8e89-3757bec50eac","system_id":"levelo_inurba_marseille","lat":43.292749,"lon":5.368402,"is_reserved":false,"is_disabled":false,"rental_uris":{"android":"levelo://app?vid=8113fc51-f8e5-47ff-8e89-3757bec50eac","ios":"levelo://app?vid=8113fc51-f8e5-47ff-8e89-3757bec50eac"},"vehicle_type_id":"4","last_reported":1683749350,"current_range_meters":21200,"station_id":"ce4bhbp2rcd13ifvqesg","pricing_plan_id":"free"},{"bike_id":"3df01237-9cc2-4870-8a52-9a97b51a7f3e","system_id":"levelo_inurba_marseille","lat":43.292749,"lon":5.368402,"is_reserved":false,"is_disabled":false,"rental_uris":{"android":"levelo://app?vid=3df01237-9cc2-4870-8a52-9a97b51a7f3e","ios":"levelo://app?vid=3df01237-9cc2-4870-8a52-9a97b51a7f3e"},"vehicle_type_id":"4","last_reported":1683749350,"current_range_meters":5200,"station_id":"ce4bhbp2rcd13ifvqesg","pricing_plan_id":"free"},{"bike_id":"4f8c6322-10cc-40de-a089-41ca5cf19956","system_id":"levelo_inurba_marseille","lat":43.292749,"lon":5.368402,"is_reserved":false,"is_disabled":false,"rental_uris":{"android":"levelo://app?vid=4f8c6322-10cc-40de-a089-41ca5cf19956","ios":"levelo://app?vid=4f8c6322-10cc-40de-a089-41ca5cf19956"},"vehicle_type_id":"4","last_reported":1683749350,"current_range_meters":29200,"station_id":"ce4bhbp2rcd13ifvqesg","pricing_plan_id":"free"},{"bike_id":"280a0f8e-f87f-47f6-9c3f-ca87abcd5b38","system_id":"levelo_inurba_marseille","lat":43.305994,"lon":5.393687,"is_reserved":false,"is_disabled":false,"rental_uris":{"android":"levelo://app?vid=280a0f8e-f87f-47f6-9c3f-ca87abcd5b38","ios":"levelo://app?vid=280a0f8e-f87f-47f6-9c3f-ca87abcd5b38"},"vehicle_type_id":"4","last_reported":1683749350,"current_range_meters":13600,"station_id":"ce4bh0p2rcd13ifvqd80","pricing_plan_id":"free"},{"bike_id":"33783281-0141-4095-8295-5b48d81f57f1","system_id":"levelo_inurba_marseille","lat":43.302992,"lon":5.392136,"is_reserved":false,"is_disabled":false,"rental_uris":{"android":"levelo://app?vid=33783281-0141-4095-8295-5b48d81f57f1","ios":"levelo://app?vid=33783281-0141-4095-8295-5b48d81f57f1"},"vehicle_type_id":"4","last_reported":1683749350,"current_range_meters":8400,"station_id":"ce4bgkh2rcd13ifvqbk0","pricing_plan_id":"free"},{"bike_id":"369bd94e-833b-4641-9260-85c1a00dd7d7","system_id":"levelo_inurba_marseille","lat":43.29233,"lon":5.36073,"is_reserved":false,"is_disabled":false,"rental_uris":{"android":"levelo://app?vid=369bd94e-833b-4641-9260-85c1a00dd7d7","ios":"levelo://app?vid=369bd94e-833b-4641-9260-85c1a00dd7d7"},"vehicle_type_id":"4","last_reported":1683749350,"current_range_meters":24400,"station_id":"ce4bhbh2rcd13ifvqeqg","pricing_plan_id":"free"},{"bike_id":"15c298b5-2a17-4010-8107-e647cba712a0","system_id":"levelo_inurba_marseille","lat":43.2936,"lon":5.37835,"is_reserved":false,"is_disabled":false,"rental_uris":{"android":"levelo://app?vid=15c298b5-2a17-4010-8107-e647cba712a0","ios":"levelo://app?vid=15c298b5-2a17-4010-8107-e647cba712a0"},"vehicle_type_id":"4","last_reported":1683749350,"current_range_meters":25600,"station_id":"ce4bgjh2rcd13ifvqbf0","pricing_plan_id":"free"},{"bike_id":"8b146639-41df-4ec2-9c95-6ccf80cd687e","system_id":"levelo_inurba_marseille","lat":43.29229,"lon":5.36073,"is_reserved":false,"is_disabled":false,"rental_uris":{"android":"levelo://app?vid=8b146639-41df-4ec2-9c95-6ccf80cd687e","ios":"levelo://app?vid=8b146639-41df-4ec2-9c95-6ccf80cd687e"},"vehicle_type_id":"4","last_reported":1683749350,"current_range_meters":25600,"station_id":"ce4bhbh2rcd13ifvqeqg","pricing_plan_id":"free"},{"bike_id":"d6d4517a-2f4b-4df2-9622-bcbdbdb78896","system_id":"levelo_inurba_marseille","lat":43.29227,"lon":5.36072,"is_reserved":false,"is_disabled":false,"rental_uris":{"android":"levelo://app?vid=d6d4517a-2f4b-4df2-9622-bcbdbdb78896","ios":"levelo://app?vid=d6d4517a-2f4b-4df2-9622-bcbdbdb78896"},"vehicle_type_id":"4","last_reported":1683749350,"current_range_meters":26400,"station_id":"ce4bhbh2rcd13ifvqeqg","pricing_plan_id":"free"},{"bike_id":"221521d0-bd69-4751-bdcc-4a6bb8d34215","system_id":"levelo_inurba_marseille","lat":43.300852,"lon":5.390859,"is_reserved":false,"is_disabled":false,"rental_uris":{"android":"levelo://app?vid=221521d0-bd69-4751-bdcc-4a6bb8d34215","ios":"levelo://app?vid=221521d0-bd69-4751-bdcc-4a6bb8d34215"},"vehicle_type_id":"4","last_reported":1683749350,"current_range_meters":9600,"station_id":"ce4bh192rcd13ifvqdb0","pricing_plan_id":"free"},{"bike_id":"5e1cad25-d503-491d-904e-11cf1132c5c2","system_id":"levelo_inurba_marseille","lat":43.291671,"lon":5.371575,"is_reserved":false,"is_disabled":false,"rental_uris":{"android":"levelo://app?vid=5e1cad25-d503-491d-904e-11cf1132c5c2","ios":"levelo://app?vid=5e1cad25-d503-491d-904e-11cf1132c5c2"},"vehicle_type_id":"4","last_reported":1683749350,"current_range_meters":20000,"station_id":"ce4bha92rcd13ifvqeh0","pricing_plan_id":"free"},{"bike_id":"3847b1f6-1315-4916-8b87-28c59b9fae91","system_id":"levelo_inurba_marseille","lat":43.298764,"lon":5.388973,"is_reserved":false,"is_disabled":false,"rental_uris":{"android":"levelo://app?vid=3847b1f6-1315-4916-8b87-28c59b9fae91","ios":"levelo://app?vid=3847b1f6-1315-4916-8b87-28c59b9fae91"},"vehicle_type_id":"4","last_reported":1683749350,"current_range_meters":14800,"station_id":"ce4bh392rcd13ifvqdl0","pricing_plan_id":"free"},{"bike_id":"6b10b6fb-6303-47a4-8cff-c5443b074949","system_id":"levelo_inurba_marseille","lat":43.298764,"lon":5.388973,"is_reserved":false,"is_disabled":false,"rental_uris":{"android":"levelo://app?vid=6b10b6fb-6303-47a4-8cff-c5443b074949","ios":"levelo://app?vid=6b10b6fb-6303-47a4-8cff-c5443b074949"},"vehicle_type_id":"4","last_reported":1683749350,"current_range_meters":3600,"station_id":"ce4bh392rcd13ifvqdl0","pricing_plan_id":"free"},{"bike_id":"16129914-d680-4923-9f02-aeeb47e687fe","system_id":"levelo_inurba_marseille","lat":43.292663,"lon":5.376389,"is_reserved":false,"is_disabled":false,"rental_uris":{"android":"levelo://app?vid=16129914-d680-4923-9f02-aeeb47e687fe","ios":"levelo://app?vid=16129914-d680-4923-9f02-aeeb47e687fe"},"vehicle_type_id":"4","last_reported":1683749350,"current_range_meters":21600,"station_id":"ce4bgi12rcd13ifvqb80","pricing_plan_id":"free"},{"bike_id":"9c898adb-9535-4e2d-af80-2cb4288d72a4","system_id":"levelo_inurba_marseille","lat":43.298764,"lon":5.388973,"is_reserved":false,"is_disabled":false,"rental_uris":{"android":"levelo://app?vid=9c898adb-9535-4e2d-af80-2cb4288d72a4","ios":"levelo://app?vid=9c898adb-9535-4e2d-af80-2cb4288d72a4"},"vehicle_type_id":"4","last_reported":1683749350,"current_range_meters":10000,"station_id":"ce4bh392rcd13ifvqdl0","pricing_plan_id":"free"},{"bike_id":"982043c4-81bd-496e-8938-afc2331986eb","system_id":"levelo_inurba_marseille","lat":43.298764,"lon":5.388973,"is_reserved":false,"is_disabled":false,"rental_uris":{"android":"levelo://app?vid=982043c4-81bd-496e-8938-afc2331986eb","ios":"levelo://app?vid=982043c4-81bd-496e-8938-afc2331986eb"},"vehicle_type_id":"4","last_reported":1683749350,"current_range_meters":8800,"station_id":"ce4bh392rcd13ifvqdl0","pricing_plan_id":"free"},{"bike_id":"dadb35dd-4e83-44af-aba8-ffd4dcf753b5","system_id":"levelo_inurba_marseille","lat":43.298764,"lon":5.388973,"is_reserved":false,"is_disabled":false,"rental_uris":{"android":"levelo://app?vid=dadb35dd-4e83-44af-aba8-ffd4dcf753b5","ios":"levelo://app?vid=dadb35dd-4e83-44af-aba8-ffd4dcf753b5"},"vehicle_type_id":"4","last_reported":1683749350,"current_range_meters":2800,"station_id":"ce4bh392rcd13ifvqdl0","pricing_plan_id":"free"},{"bike_id":"e0ad5d0f-62d9-4884-b981-2e07502569dd","system_id":"levelo_inurba_marseille","lat":43.298764,"lon":5.388973,"is_reserved":false,"is_disabled":false,"rental_uris":{"android":"levelo://app?vid=e0ad5d0f-62d9-4884-b981-2e07502569dd","ios":"levelo://app?vid=e0ad5d0f-62d9-4884-b981-2e07502569dd"},"vehicle_type_id":"4","last_reported":1683749350,"current_range_meters":19200,"station_id":"ce4bh392rcd13ifvqdl0","pricing_plan_id":"free"},{"bike_id":"9fdcf503-bc59-4505-a372-0ea580e36087","system_id":"levelo_inurba_marseille","lat":43.291675,"lon":5.371583,"is_reserved":false,"is_disabled":false,"rental_uris":{"android":"levelo://app?vid=9fdcf503-bc59-4505-a372-0ea580e36087","ios":"levelo://app?vid=9fdcf503-bc59-4505-a372-0ea580e36087"},"vehicle_type_id":"4","last_reported":1683749350,"current_range_meters":16000,"station_id":"ce4bha92rcd13ifvqeh0","pricing_plan_id":"free"},{"bike_id":"84bd40c9-3bf9-4e6b-a767-5b97e5c3d3e7","system_id":"levelo_inurba_marseille","lat":43.291675,"lon":5.371583,"is_reserved":false,"is_disabled":false,"rental_uris":{"android":"levelo://app?vid=84bd40c9-3bf9-4e6b-a767-5b97e5c3d3e7","ios":"levelo://app?vid=84bd40c9-3bf9-4e6b-a767-5b97e5c3d3e7"},"vehicle_type_id":"4","last_reported":1683749350,"current_range_meters":4400,"station_id":"ce4bha92rcd13ifvqeh0","pricing_plan_id":"free"},{"bike_id":"dc05080e-a637-49e5-9440-ec39e073798b","system_id":"levelo_inurba_marseille","lat":43.31371,"lon":5.39655,"is_reserved":false,"is_disabled":false,"rental_uris":{"android":"levelo://app?vid=dc05080e-a637-49e5-9440-ec39e073798b","ios":"levelo://app?vid=dc05080e-a637-49e5-9440-ec39e073798b"},"vehicle_type_id":"4","last_reported":1683749350,"current_range_meters":13600,"station_id":"","pricing_plan_id":"free"},{"bike_id":"71526c29-7b06-461e-ab77-97494fa14b25","system_id":"levelo_inurba_marseille","lat":43.31322,"lon":5.39693,"is_reserved":false,"is_disabled":false,"rental_uris":{"android":"levelo://app?vid=71526c29-7b06-461e-ab77-97494fa14b25","ios":"levelo://app?vid=71526c29-7b06-461e-ab77-97494fa14b25"},"vehicle_type_id":"4","last_reported":1683749350,"current_range_meters":19600,"station_id":"ce4bgvp2rcd13ifvqcu0","pricing_plan_id":"free"},{"bike_id":"3244757d-2c12-4a6a-9152-ecf59cd934ff","system_id":"levelo_inurba_marseille","lat":43.309038,"lon":5.396546,"is_reserved":false,"is_disabled":false,"rental_uris":{"android":"levelo://app?vid=3244757d-2c12-4a6a-9152-ecf59cd934ff","ios":"levelo://app?vid=3244757d-2c12-4a6a-9152-ecf59cd934ff"},"vehicle_type_id":"4","last_reported":1683749350,"current_range_meters":6800,"station_id":"ce4bh012rcd13ifvqcv0","pricing_plan_id":"free"},{"bike_id":"d78cdf64-fe69-4a53-9ae6-2898aac95d4f","system_id":"levelo_inurba_marseille","lat":43.3132,"lon":5.39694,"is_reserved":false,"is_disabled":false,"rental_uris":{"android":"levelo://app?vid=d78cdf64-fe69-4a53-9ae6-2898aac95d4f","ios":"levelo://app?vid=d78cdf64-fe69-4a53-9ae6-2898aac95d4f"},"vehicle_type_id":"4","last_reported":1683749350,"current_range_meters":6400,"station_id":"ce4bgvp2rcd13ifvqcu0","pricing_plan_id":"free"},{"bike_id":"559f4aa5-91b6-49fd-946b-3427fc78b5fd","system_id":"levelo_inurba_marseille","lat":43.309038,"lon":5.396546,"is_reserved":false,"is_disabled":false,"rental_uris":{"android":"levelo://app?vid=559f4aa5-91b6-49fd-946b-3427fc78b5fd","ios":"levelo://app?vid=559f4aa5-91b6-49fd-946b-3427fc78b5fd"},"vehicle_type_id":"4","last_reported":1683749350,"current_range_meters":0,"station_id":"ce4bh012rcd13ifvqcv0","pricing_plan_id":"free"},{"bike_id":"0d8929c1-e815-414f-b809-f597251622bc","system_id":"levelo_inurba_marseille","lat":43.31329,"lon":5.39696,"is_reserved":false,"is_disabled":false,"rental_uris":{"android":"levelo://app?vid=0d8929c1-e815-414f-b809-f597251622bc","ios":"levelo://app?vid=0d8929c1-e815-414f-b809-f597251622bc"},"vehicle_type_id":"4","last_reported":1683749350,"current_range_meters":21600,"station_id":"ce4bgvp2rcd13ifvqcu0","pricing_plan_id":"free"},{"bike_id":"99f70806-aa41-4ce3-ae3a-7b4d25fc014d","system_id":"levelo_inurba_marseille","lat":43.3133,"lon":5.39696,"is_reserved":false,"is_disabled":false,"rental_uris":{"android":"levelo://app?vid=99f70806-aa41-4ce3-ae3a-7b4d25fc014d","ios":"levelo://app?vid=99f70806-aa41-4ce3-ae3a-7b4d25fc014d"},"vehicle_type_id":"4","last_reported":1683749350,"current_range_meters":10400,"station_id":"ce4bgvp2rcd13ifvqcu0","pricing_plan_id":"free"},{"bike_id":"0938a0ed-e4b8-4436-b238-33f1f1136bd9","system_id":"levelo_inurba_marseille","lat":43.313291,"lon":5.396838,"is_reserved":false,"is_disabled":false,"rental_uris":{"android":"levelo://app?vid=0938a0ed-e4b8-4436-b238-33f1f1136bd9","ios":"levelo://app?vid=0938a0ed-e4b8-4436-b238-33f1f1136bd9"},"vehicle_type_id":"4","last_reported":1683749350,"current_range_meters":2400,"station_id":"ce4bgvp2rcd13ifvqcu0","pricing_plan_id":"free"},{"bike_id":"4d3f145c-3670-42cb-9b21-6c5a184360ca","system_id":"levelo_inurba_marseille","lat":43.313291,"lon":5.396838,"is_reserved":false,"is_disabled":false,"rental_uris":{"android":"levelo://app?vid=4d3f145c-3670-42cb-9b21-6c5a184360ca","ios":"levelo://app?vid=4d3f145c-3670-42cb-9b21-6c5a184360ca"},"vehicle_type_id":"4","last_reported":1683749350,"current_range_meters":22800,"station_id":"ce4bgvp2rcd13ifvqcu0","pricing_plan_id":"free"},{"bike_id":"bac674cc-589a-4653-942d-dca2e751dac6","system_id":"levelo_inurba_marseille","lat":43.31331,"lon":5.39698,"is_reserved":false,"is_disabled":false,"rental_uris":{"android":"levelo://app?vid=bac674cc-589a-4653-942d-dca2e751dac6","ios":"levelo://app?vid=bac674cc-589a-4653-942d-dca2e751dac6"},"vehicle_type_id":"4","last_reported":1683749350,"current_range_meters":16400,"station_id":"ce4bgvp2rcd13ifvqcu0","pricing_plan_id":"free"},{"bike_id":"efbc43ad-2ee7-4b3c-94b6-89c0e3763184","system_id":"levelo_inurba_marseille","lat":43.309038,"lon":5.396546,"is_reserved":false,"is_disabled":false,"rental_uris":{"android":"levelo://app?vid=efbc43ad-2ee7-4b3c-94b6-89c0e3763184","ios":"levelo://app?vid=efbc43ad-2ee7-4b3c-94b6-89c0e3763184"},"vehicle_type_id":"4","last_reported":1683749350,"current_range_meters":28000,"station_id":"ce4bh012rcd13ifvqcv0","pricing_plan_id":"free"},{"bike_id":"0720801f-de3e-461e-9511-a6e3a7a6a7f4","system_id":"levelo_inurba_marseille","lat":43.30775,"lon":5.39622,"is_reserved":false,"is_disabled":false,"rental_uris":{"android":"levelo://app?vid=0720801f-de3e-461e-9511-a6e3a7a6a7f4","ios":"levelo://app?vid=0720801f-de3e-461e-9511-a6e3a7a6a7f4"},"vehicle_type_id":"4","last_reported":1683749350,"current_range_meters":0,"station_id":"","pricing_plan_id":"free"},{"bike_id":"ca42b180-530a-439c-a619-5acdf007b2b0","system_id":"levelo_inurba_marseille","lat":43.313291,"lon":5.396838,"is_reserved":false,"is_disabled":false,"rental_uris":{"android":"levelo://app?vid=ca42b180-530a-439c-a619-5acdf007b2b0","ios":"levelo://app?vid=ca42b180-530a-439c-a619-5acdf007b2b0"},"vehicle_type_id":"4","last_reported":1683749350,"current_range_meters":18000,"station_id":"ce4bgvp2rcd13ifvqcu0","pricing_plan_id":"free"},{"bike_id":"eb48f43c-eb00-4a5e-a67b-a4e9c087471d","system_id":"levelo_inurba_marseille","lat":43.313291,"lon":5.396838,"is_reserved":false,"is_disabled":false,"rental_uris":{"android":"levelo://app?vid=eb48f43c-eb00-4a5e-a67b-a4e9c087471d","ios":"levelo://app?vid=eb48f43c-eb00-4a5e-a67b-a4e9c087471d"},"vehicle_type_id":"4","last_reported":1683749350,"current_range_meters":29200,"station_id":"ce4bgvp2rcd13ifvqcu0","pricing_plan_id":"free"},{"bike_id":"fc351742-bc23-46a0-b6bf-f58b0a1e3d23","system_id":"levelo_inurba_marseille","lat":43.29529,"lon":5.385581,"is_reserved":false,"is_disabled":false,"rental_uris":{"android":"levelo://app?vid=fc351742-bc23-46a0-b6bf-f58b0a1e3d23","ios":"levelo://app?vid=fc351742-bc23-46a0-b6bf-f58b0a1e3d23"},"vehicle_type_id":"4","last_reported":1683749350,"current_range_meters":0,"station_id":"ce4bgih2rcd13ifvqba0","pricing_plan_id":"free"},{"bike_id":"0c99bc7d-8ad9-41bc-8c72-ad9e628c0c48","system_id":"levelo_inurba_marseille","lat":43.29616,"lon":5.38691,"is_reserved":false,"is_disabled":false,"rental_uris":{"android":"levelo://app?vid=0c99bc7d-8ad9-41bc-8c72-ad9e628c0c48","ios":"levelo://app?vid=0c99bc7d-8ad9-41bc-8c72-ad9e628c0c48"},"vehicle_type_id":"4","last_reported":1683749350,"current_range_meters":27600,"station_id":"","pricing_plan_id":"free"},{"bike_id":"3db7f335-e627-4571-91ca-5394ea93c6c3","system_id":"levelo_inurba_marseille","lat":43.302008,"lon":5.394694,"is_reserved":false,"is_disabled":false,"rental_uris":{"android":"levelo://app?vid=3db7f335-e627-4571-91ca-5394ea93c6c3","ios":"levelo://app?vid=3db7f335-e627-4571-91ca-5394ea93c6c3"},"vehicle_type_id":"4","last_reported":1683749350,"current_range_meters":11200,"station_id":"ce4bh0p2rcd13ifvqd70","pricing_plan_id":"free"},{"bike_id":"845f64d1-550c-4ce3-8c59-9f34b48712be","system_id":"levelo_inurba_marseille","lat":43.290624,"lon":5.359245,"is_reserved":false,"is_disabled":false,"rental_uris":{"android":"levelo://app?vid=845f64d1-550c-4ce3-8c59-9f34b48712be","ios":"levelo://app?vid=845f64d1-550c-4ce3-8c59-9f34b48712be"},"vehicle_type_id":"4","last_reported":1683749350,"current_range_meters":20400,"station_id":"ce4bha92rcd13ifvqeg0","pricing_plan_id":"free"},{"bike_id":"22111503-b559-4ca6-872d-f356959f4a29","system_id":"levelo_inurba_marseille","lat":43.290493,"lon":5.359166,"is_reserved":false,"is_disabled":false,"rental_uris":{"android":"levelo://app?vid=22111503-b559-4ca6-872d-f356959f4a29","ios":"levelo://app?vid=22111503-b559-4ca6-872d-f356959f4a29"},"vehicle_type_id":"4","last_reported":1683749350,"current_range_meters":0,"station_id":"","pricing_plan_id":"free"},{"bike_id":"d6ca673c-7e96-439e-bb89-8b03963c0ffb","system_id":"levelo_inurba_marseille","lat":43.29045,"lon":5.35917,"is_reserved":false,"is_disabled":false,"rental_uris":{"android":"levelo://app?vid=d6ca673c-7e96-439e-bb89-8b03963c0ffb","ios":"levelo://app?vid=d6ca673c-7e96-439e-bb89-8b03963c0ffb"},"vehicle_type_id":"4","last_reported":1683749350,"current_range_meters":17600,"station_id":"","pricing_plan_id":"free"},{"bike_id":"96e234da-cab6-43e8-b743-2fa7985a4a0a","system_id":"levelo_inurba_marseille","lat":43.2904,"lon":5.35923,"is_reserved":false,"is_disabled":false,"rental_uris":{"android":"levelo://app?vid=96e234da-cab6-43e8-b743-2fa7985a4a0a","ios":"levelo://app?vid=96e234da-cab6-43e8-b743-2fa7985a4a0a"},"vehicle_type_id":"4","last_reported":1683749350,"current_range_meters":0,"station_id":"ce4bha92rcd13ifvqeg0","pricing_plan_id":"free"},{"bike_id":"6fc0322c-7aff-4ac3-8d2d-daabf0751989","system_id":"levelo_inurba_marseille","lat":43.294153,"lon":5.386305,"is_reserved":false,"is_disabled":false,"rental_uris":{"android":"levelo://app?vid=6fc0322c-7aff-4ac3-8d2d-daabf0751989","ios":"levelo://app?vid=6fc0322c-7aff-4ac3-8d2d-daabf0751989"},"vehicle_type_id":"4","last_reported":1683749350,"current_range_meters":1200,"station_id":"ce4bh2h2rcd13ifvqdh0","pricing_plan_id":"free"},{"bike_id":"aed2e15d-c322-4e3f-8eb5-4afc1a06a111","system_id":"levelo_inurba_marseille","lat":43.29029,"lon":5.3592,"is_reserved":false,"is_disabled":false,"rental_uris":{"android":"levelo://app?vid=aed2e15d-c322-4e3f-8eb5-4afc1a06a111","ios":"levelo://app?vid=aed2e15d-c322-4e3f-8eb5-4afc1a06a111"},"vehicle_type_id":"4","last_reported":1683749350,"current_range_meters":25600,"station_id":"","pricing_plan_id":"free"},{"bike_id":"3bb28cda-76c8-448f-8e86-6af9b252f1e7","system_id":"levelo_inurba_marseille","lat":43.294153,"lon":5.386305,"is_reserved":false,"is_disabled":false,"rental_uris":{"android":"levelo://app?vid=3bb28cda-76c8-448f-8e86-6af9b252f1e7","ios":"levelo://app?vid=3bb28cda-76c8-448f-8e86-6af9b252f1e7"},"vehicle_type_id":"4","last_reported":1683749350,"current_range_meters":16800,"station_id":"ce4bh2h2rcd13ifvqdh0","pricing_plan_id":"free"},{"bike_id":"c8c67ef9-9fba-4c6f-bc27-4ec5569001e6","system_id":"levelo_inurba_marseille","lat":43.294153,"lon":5.386305,"is_reserved":false,"is_disabled":false,"rental_uris":{"android":"levelo://app?vid=c8c67ef9-9fba-4c6f-bc27-4ec5569001e6","ios":"levelo://app?vid=c8c67ef9-9fba-4c6f-bc27-4ec5569001e6"},"vehicle_type_id":"4","last_reported":1683749350,"current_range_meters":6400,"station_id":"ce4bh2h2rcd13ifvqdh0","pricing_plan_id":"free"},{"bike_id":"8a986751-fb3e-474d-ba84-13b546b93834","system_id":"levelo_inurba_marseille","lat":43.289184,"lon":5.366408,"is_reserved":false,"is_disabled":false,"rental_uris":{"android":"levelo://app?vid=8a986751-fb3e-474d-ba84-13b546b93834","ios":"levelo://app?vid=8a986751-fb3e-474d-ba84-13b546b93834"},"vehicle_type_id":"4","last_reported":1683749350,"current_range_meters":18000,"station_id":"ce4bhap2rcd13ifvqek0","pricing_plan_id":"free"},{"bike_id":"f6306347-42b0-4d13-829c-5b9d46a2a451","system_id":"levelo_inurba_marseille","lat":43.290319,"lon":5.375732,"is_reserved":false,"is_disabled":false,"rental_uris":{"android":"levelo://app?vid=f6306347-42b0-4d13-829c-5b9d46a2a451","ios":"levelo://app?vid=f6306347-42b0-4d13-829c-5b9d46a2a451"},"vehicle_type_id":"4","last_reported":1683749350,"current_range_meters":10000,"station_id":"ce4bh692rcd13ifvqe90","pricing_plan_id":"free"},{"bike_id":"65cda7bb-1ce2-4b20-8ca7-3b3a2efa4f32","system_id":"levelo_inurba_marseille","lat":43.290319,"lon":5.375732,"is_reserved":false,"is_disabled":false,"rental_uris":{"android":"levelo://app?vid=65cda7bb-1ce2-4b20-8ca7-3b3a2efa4f32","ios":"levelo://app?vid=65cda7bb-1ce2-4b20-8ca7-3b3a2efa4f32"},"vehicle_type_id":"4","last_reported":1683749350,"current_range_meters":400,"station_id":"ce4bh692rcd13ifvqe90","pricing_plan_id":"free"},{"bike_id":"28db23a0-6569-430e-aa46-d062182bbc5a","system_id":"levelo_inurba_marseille","lat":43.294162,"lon":5.386292,"is_reserved":false,"is_disabled":false,"rental_uris":{"android":"levelo://app?vid=28db23a0-6569-430e-aa46-d062182bbc5a","ios":"levelo://app?vid=28db23a0-6569-430e-aa46-d062182bbc5a"},"vehicle_type_id":"4","last_reported":1683749350,"current_range_meters":5200,"station_id":"ce4bh2h2rcd13ifvqdh0","pricing_plan_id":"free"},{"bike_id":"9f2b7f36-0f8e-48c1-a67f-a37d01afc322","system_id":"levelo_inurba_marseille","lat":43.289184,"lon":5.366408,"is_reserved":false,"is_disabled":false,"rental_uris":{"android":"levelo://app?vid=9f2b7f36-0f8e-48c1-a67f-a37d01afc322","ios":"levelo://app?vid=9f2b7f36-0f8e-48c1-a67f-a37d01afc322"},"vehicle_type_id":"4","last_reported":1683749350,"current_range_meters":20800,"station_id":"ce4bhap2rcd13ifvqek0","pricing_plan_id":"free"},{"bike_id":"45f5ce74-d961-43c8-ba2c-99741d6d204a","system_id":"levelo_inurba_marseille","lat":43.289184,"lon":5.366408,"is_reserved":false,"is_disabled":false,"rental_uris":{"android":"levelo://app?vid=45f5ce74-d961-43c8-ba2c-99741d6d204a","ios":"levelo://app?vid=45f5ce74-d961-43c8-ba2c-99741d6d204a"},"vehicle_type_id":"4","last_reported":1683749350,"current_range_meters":27200,"station_id":"ce4bhap2rcd13ifvqek0","pricing_plan_id":"free"},{"bike_id":"f0c35888-ba8b-46d7-90f3-5add6511d1ab","system_id":"levelo_inurba_marseille","lat":43.289184,"lon":5.366408,"is_reserved":false,"is_disabled":false,"rental_uris":{"android":"levelo://app?vid=f0c35888-ba8b-46d7-90f3-5add6511d1ab","ios":"levelo://app?vid=f0c35888-ba8b-46d7-90f3-5add6511d1ab"},"vehicle_type_id":"4","last_reported":1683749350,"current_range_meters":14400,"station_id":"ce4bhap2rcd13ifvqek0","pricing_plan_id":"free"},{"bike_id":"d288d154-0aab-4e85-b1c9-0774bf4147de","system_id":"levelo_inurba_marseille","lat":43.29025,"lon":5.37554,"is_reserved":false,"is_disabled":false,"rental_uris":{"android":"levelo://app?vid=d288d154-0aab-4e85-b1c9-0774bf4147de","ios":"levelo://app?vid=d288d154-0aab-4e85-b1c9-0774bf4147de"},"vehicle_type_id":"4","last_reported":1683749350,"current_range_meters":9600,"station_id":"ce4bh692rcd13ifvqe90","pricing_plan_id":"free"},{"bike_id":"1ea65c2d-c527-41ec-a269-ff92ee051a4d","system_id":"levelo_inurba_marseille","lat":43.289184,"lon":5.366408,"is_reserved":false,"is_disabled":false,"rental_uris":{"android":"levelo://app?vid=1ea65c2d-c527-41ec-a269-ff92ee051a4d","ios":"levelo://app?vid=1ea65c2d-c527-41ec-a269-ff92ee051a4d"},"vehicle_type_id":"4","last_reported":1683749350,"current_range_meters":28000,"station_id":"ce4bhap2rcd13ifvqek0","pricing_plan_id":"free"},{"bike_id":"b3d0e591-acda-4e74-93b8-b997b6c50477","system_id":"levelo_inurba_marseille","lat":43.289184,"lon":5.366408,"is_reserved":false,"is_disabled":false,"rental_uris":{"android":"levelo://app?vid=b3d0e591-acda-4e74-93b8-b997b6c50477","ios":"levelo://app?vid=b3d0e591-acda-4e74-93b8-b997b6c50477"},"vehicle_type_id":"4","last_reported":1683749350,"current_range_meters":9200,"station_id":"ce4bhap2rcd13ifvqek0","pricing_plan_id":"free"},{"bike_id":"e3f8d5c1-bfcd-4aa3-9cec-7f132ffbdec1","system_id":"levelo_inurba_marseille","lat":43.289184,"lon":5.366408,"is_reserved":false,"is_disabled":false,"rental_uris":{"android":"levelo://app?vid=e3f8d5c1-bfcd-4aa3-9cec-7f132ffbdec1","ios":"levelo://app?vid=e3f8d5c1-bfcd-4aa3-9cec-7f132ffbdec1"},"vehicle_type_id":"4","last_reported":1683749350,"current_range_meters":19600,"station_id":"ce4bhap2rcd13ifvqek0","pricing_plan_id":"free"},{"bike_id":"d0f6a595-990b-4021-90ca-e835a99a8804","system_id":"levelo_inurba_marseille","lat":43.28943,"lon":5.36384,"is_reserved":false,"is_disabled":false,"rental_uris":{"android":"levelo://app?vid=d0f6a595-990b-4021-90ca-e835a99a8804","ios":"levelo://app?vid=d0f6a595-990b-4021-90ca-e835a99a8804"},"vehicle_type_id":"4","last_reported":1683749350,"current_range_meters":22000,"station_id":"","pricing_plan_id":"free"},{"bike_id":"19dc91df-3045-4a73-b957-dbaa5d3152e4","system_id":"levelo_inurba_marseille","lat":43.28942,"lon":5.36382,"is_reserved":false,"is_disabled":false,"rental_uris":{"android":"levelo://app?vid=19dc91df-3045-4a73-b957-dbaa5d3152e4","ios":"levelo://app?vid=19dc91df-3045-4a73-b957-dbaa5d3152e4"},"vehicle_type_id":"4","last_reported":1683749350,"current_range_meters":14800,"station_id":"ce4bhc92rcd13ifvqetg","pricing_plan_id":"free"},{"bike_id":"8bfd8aca-f20f-4ece-bfc7-ab4bb4388446","system_id":"levelo_inurba_marseille","lat":43.289184,"lon":5.366408,"is_reserved":false,"is_disabled":false,"rental_uris":{"android":"levelo://app?vid=8bfd8aca-f20f-4ece-bfc7-ab4bb4388446","ios":"levelo://app?vid=8bfd8aca-f20f-4ece-bfc7-ab4bb4388446"},"vehicle_type_id":"4","last_reported":1683749350,"current_range_meters":31200,"station_id":"ce4bhap2rcd13ifvqek0","pricing_plan_id":"free"},{"bike_id":"522043bb-1d07-415e-8a29-c2fa52c2c49b","system_id":"levelo_inurba_marseille","lat":43.28939,"lon":5.36398,"is_reserved":false,"is_disabled":false,"rental_uris":{"android":"levelo://app?vid=522043bb-1d07-415e-8a29-c2fa52c2c49b","ios":"levelo://app?vid=522043bb-1d07-415e-8a29-c2fa52c2c49b"},"vehicle_type_id":"4","last_reported":1683749350,"current_range_meters":12800,"station_id":"","pricing_plan_id":"free"},{"bike_id":"0b4d3736-7930-416c-b7e6-c7caf7138852","system_id":"levelo_inurba_marseille","lat":43.289468,"lon":5.363719,"is_reserved":false,"is_disabled":false,"rental_uris":{"android":"levelo://app?vid=0b4d3736-7930-416c-b7e6-c7caf7138852","ios":"levelo://app?vid=0b4d3736-7930-416c-b7e6-c7caf7138852"},"vehicle_type_id":"4","last_reported":1683749350,"current_range_meters":7200,"station_id":"ce4bhc92rcd13ifvqetg","pricing_plan_id":"free"},{"bike_id":"71e589a5-6d11-4775-be63-5913e0636db4","system_id":"levelo_inurba_marseille","lat":43.289468,"lon":5.363719,"is_reserved":false,"is_disabled":false,"rental_uris":{"android":"levelo://app?vid=71e589a5-6d11-4775-be63-5913e0636db4","ios":"levelo://app?vid=71e589a5-6d11-4775-be63-5913e0636db4"},"vehicle_type_id":"4","last_reported":1683749350,"current_range_meters":12800,"station_id":"ce4bhc92rcd13ifvqetg","pricing_plan_id":"free"},{"bike_id":"3ba3e657-1486-42ce-8cfe-d2f03e3cbc91","system_id":"levelo_inurba_marseille","lat":43.289468,"lon":5.363719,"is_reserved":false,"is_disabled":false,"rental_uris":{"android":"levelo://app?vid=3ba3e657-1486-42ce-8cfe-d2f03e3cbc91","ios":"levelo://app?vid=3ba3e657-1486-42ce-8cfe-d2f03e3cbc91"},"vehicle_type_id":"4","last_reported":1683749350,"current_range_meters":4000,"station_id":"ce4bhc92rcd13ifvqetg","pricing_plan_id":"free"},{"bike_id":"158653af-914b-411f-a355-cedce9d85e12","system_id":"levelo_inurba_marseille","lat":43.289468,"lon":5.363719,"is_reserved":false,"is_disabled":false,"rental_uris":{"android":"levelo://app?vid=158653af-914b-411f-a355-cedce9d85e12","ios":"levelo://app?vid=158653af-914b-411f-a355-cedce9d85e12"},"vehicle_type_id":"4","last_reported":1683749350,"current_range_meters":28000,"station_id":"ce4bhc92rcd13ifvqetg","pricing_plan_id":"free"},{"bike_id":"790de16b-7c69-4b97-846f-8112526cde11","system_id":"levelo_inurba_marseille","lat":43.292644,"lon":5.384257,"is_reserved":false,"is_disabled":false,"rental_uris":{"android":"levelo://app?vid=790de16b-7c69-4b97-846f-8112526cde11","ios":"levelo://app?vid=790de16b-7c69-4b97-846f-8112526cde11"},"vehicle_type_id":"4","last_reported":1683749350,"current_range_meters":20400,"station_id":"ce4bh692rcd13ifvqea0","pricing_plan_id":"free"},{"bike_id":"8583395d-ff6d-4f41-8653-3d4d2188eb6f","system_id":"levelo_inurba_marseille","lat":43.292642,"lon":5.384254,"is_reserved":false,"is_disabled":false,"rental_uris":{"android":"levelo://app?vid=8583395d-ff6d-4f41-8653-3d4d2188eb6f","ios":"levelo://app?vid=8583395d-ff6d-4f41-8653-3d4d2188eb6f"},"vehicle_type_id":"4","last_reported":1683749350,"current_range_meters":6400,"station_id":"ce4bh692rcd13ifvqea0","pricing_plan_id":"free"},{"bike_id":"e13b55b8-5a30-42aa-9a19-7ab293e74bbd","system_id":"levelo_inurba_marseille","lat":43.292644,"lon":5.384257,"is_reserved":false,"is_disabled":false,"rental_uris":{"android":"levelo://app?vid=e13b55b8-5a30-42aa-9a19-7ab293e74bbd","ios":"levelo://app?vid=e13b55b8-5a30-42aa-9a19-7ab293e74bbd"},"vehicle_type_id":"4","last_reported":1683749350,"current_range_meters":22800,"station_id":"ce4bh692rcd13ifvqea0","pricing_plan_id":"free"},{"bike_id":"7c91015a-ca61-46b5-87bb-fdde86aea38e","system_id":"levelo_inurba_marseille","lat":43.292644,"lon":5.384257,"is_reserved":false,"is_disabled":false,"rental_uris":{"android":"levelo://app?vid=7c91015a-ca61-46b5-87bb-fdde86aea38e","ios":"levelo://app?vid=7c91015a-ca61-46b5-87bb-fdde86aea38e"},"vehicle_type_id":"4","last_reported":1683749350,"current_range_meters":8400,"station_id":"ce4bh692rcd13ifvqea0","pricing_plan_id":"free"},{"bike_id":"d6f5e582-0f8c-43e4-a1cc-c0caccac44a0","system_id":"levelo_inurba_marseille","lat":43.292644,"lon":5.384257,"is_reserved":false,"is_disabled":false,"rental_uris":{"android":"levelo://app?vid=d6f5e582-0f8c-43e4-a1cc-c0caccac44a0","ios":"levelo://app?vid=d6f5e582-0f8c-43e4-a1cc-c0caccac44a0"},"vehicle_type_id":"4","last_reported":1683749350,"current_range_meters":15200,"station_id":"ce4bh692rcd13ifvqea0","pricing_plan_id":"free"},{"bike_id":"205fb6a5-1e02-483c-bb9b-31192bf92813","system_id":"levelo_inurba_marseille","lat":43.292644,"lon":5.384257,"is_reserved":false,"is_disabled":false,"rental_uris":{"android":"levelo://app?vid=205fb6a5-1e02-483c-bb9b-31192bf92813","ios":"levelo://app?vid=205fb6a5-1e02-483c-bb9b-31192bf92813"},"vehicle_type_id":"4","last_reported":1683749350,"current_range_meters":6000,"station_id":"ce4bh692rcd13ifvqea0","pricing_plan_id":"free"},{"bike_id":"d526d487-61f8-49f6-8f52-65f7607ddbdc","system_id":"levelo_inurba_marseille","lat":43.290104,"lon":5.356111,"is_reserved":false,"is_disabled":false,"rental_uris":{"android":"levelo://app?vid=d526d487-61f8-49f6-8f52-65f7607ddbdc","ios":"levelo://app?vid=d526d487-61f8-49f6-8f52-65f7607ddbdc"},"vehicle_type_id":"4","last_reported":1683749350,"current_range_meters":30800,"station_id":"ce4bhb92rcd13ifvqen0","pricing_plan_id":"free"},{"bike_id":"f0e6b188-0396-4a8e-ab60-d2c87236b8e3","system_id":"levelo_inurba_marseille","lat":43.290104,"lon":5.356111,"is_reserved":false,"is_disabled":false,"rental_uris":{"android":"levelo://app?vid=f0e6b188-0396-4a8e-ab60-d2c87236b8e3","ios":"levelo://app?vid=f0e6b188-0396-4a8e-ab60-d2c87236b8e3"},"vehicle_type_id":"4","last_reported":1683749350,"current_range_meters":8400,"station_id":"ce4bhb92rcd13ifvqen0","pricing_plan_id":"free"},{"bike_id":"062eeed5-90ea-4681-bdf7-dd57a33301fc","system_id":"levelo_inurba_marseille","lat":43.290104,"lon":5.356111,"is_reserved":false,"is_disabled":false,"rental_uris":{"android":"levelo://app?vid=062eeed5-90ea-4681-bdf7-dd57a33301fc","ios":"levelo://app?vid=062eeed5-90ea-4681-bdf7-dd57a33301fc"},"vehicle_type_id":"4","last_reported":1683749350,"current_range_meters":31600,"station_id":"ce4bhb92rcd13ifvqen0","pricing_plan_id":"free"},{"bike_id":"53fca3f4-ec1a-4404-8b50-75211a973257","system_id":"levelo_inurba_marseille","lat":43.33044,"lon":5.38912,"is_reserved":false,"is_disabled":false,"rental_uris":{"android":"levelo://app?vid=53fca3f4-ec1a-4404-8b50-75211a973257","ios":"levelo://app?vid=53fca3f4-ec1a-4404-8b50-75211a973257"},"vehicle_type_id":"4","last_reported":1683749350,"current_range_meters":4800,"station_id":"ce4bhr92rcd13ifvqhrg","pricing_plan_id":"free"},{"bike_id":"b42d28bf-cbbe-4d76-a55a-57b1de62d617","system_id":"levelo_inurba_marseille","lat":43.290104,"lon":5.356111,"is_reserved":false,"is_disabled":false,"rental_uris":{"android":"levelo://app?vid=b42d28bf-cbbe-4d76-a55a-57b1de62d617","ios":"levelo://app?vid=b42d28bf-cbbe-4d76-a55a-57b1de62d617"},"vehicle_type_id":"4","last_reported":1683749350,"current_range_meters":7200,"station_id":"ce4bhb92rcd13ifvqen0","pricing_plan_id":"free"},{"bike_id":"a2106999-cbed-416f-b403-3fdce7852dbc","system_id":"levelo_inurba_marseille","lat":43.290076,"lon":5.356217,"is_reserved":false,"is_disabled":false,"rental_uris":{"android":"levelo://app?vid=a2106999-cbed-416f-b403-3fdce7852dbc","ios":"levelo://app?vid=a2106999-cbed-416f-b403-3fdce7852dbc"},"vehicle_type_id":"4","last_reported":1683749350,"current_range_meters":3600,"station_id":"ce4bhb92rcd13ifvqen0","pricing_plan_id":"free"},{"bike_id":"083536f9-bc11-4058-ab4e-f81353ac3bd8","system_id":"levelo_inurba_marseille","lat":43.33045,"lon":5.38913,"is_reserved":false,"is_disabled":false,"rental_uris":{"android":"levelo://app?vid=083536f9-bc11-4058-ab4e-f81353ac3bd8","ios":"levelo://app?vid=083536f9-bc11-4058-ab4e-f81353ac3bd8"},"vehicle_type_id":"4","last_reported":1683749350,"current_range_meters":19600,"station_id":"ce4bhr92rcd13ifvqhrg","pricing_plan_id":"free"},{"bike_id":"07ddea00-57b3-4a60-bb95-ec9bb2ad0331","system_id":"levelo_inurba_marseille","lat":43.2901,"lon":5.35609,"is_reserved":false,"is_disabled":false,"rental_uris":{"android":"levelo://app?vid=07ddea00-57b3-4a60-bb95-ec9bb2ad0331","ios":"levelo://app?vid=07ddea00-57b3-4a60-bb95-ec9bb2ad0331"},"vehicle_type_id":"4","last_reported":1683749350,"current_range_meters":20800,"station_id":"ce4bhb92rcd13ifvqen0","pricing_plan_id":"free"},{"bike_id":"40aab31b-9469-44c1-aa9a-f3c8886ade6d","system_id":"levelo_inurba_marseille","lat":43.33041,"lon":5.3892,"is_reserved":false,"is_disabled":false,"rental_uris":{"android":"levelo://app?vid=40aab31b-9469-44c1-aa9a-f3c8886ade6d","ios":"levelo://app?vid=40aab31b-9469-44c1-aa9a-f3c8886ade6d"},"vehicle_type_id":"4","last_reported":1683749350,"current_range_meters":0,"station_id":"ce4bhr92rcd13ifvqhrg","pricing_plan_id":"free"},{"bike_id":"203b2f11-a3b5-475b-8f41-939e1d33a596","system_id":"levelo_inurba_marseille","lat":43.33045,"lon":5.38915,"is_reserved":false,"is_disabled":false,"rental_uris":{"android":"levelo://app?vid=203b2f11-a3b5-475b-8f41-939e1d33a596","ios":"levelo://app?vid=203b2f11-a3b5-475b-8f41-939e1d33a596"},"vehicle_type_id":"4","last_reported":1683749350,"current_range_meters":12400,"station_id":"ce4bhr92rcd13ifvqhrg","pricing_plan_id":"free"},{"bike_id":"a08ca31a-fef4-4149-8477-c04de38691a9","system_id":"levelo_inurba_marseille","lat":43.33042,"lon":5.3892,"is_reserved":false,"is_disabled":false,"rental_uris":{"android":"levelo://app?vid=a08ca31a-fef4-4149-8477-c04de38691a9","ios":"levelo://app?vid=a08ca31a-fef4-4149-8477-c04de38691a9"},"vehicle_type_id":"4","last_reported":1683749350,"current_range_meters":28000,"station_id":"ce4bhr92rcd13ifvqhrg","pricing_plan_id":"free"},{"bike_id":"705b789e-afc4-48e4-bbdc-ff4aeb948868","system_id":"levelo_inurba_marseille","lat":43.33046,"lon":5.38914,"is_reserved":false,"is_disabled":false,"rental_uris":{"android":"levelo://app?vid=705b789e-afc4-48e4-bbdc-ff4aeb948868","ios":"levelo://app?vid=705b789e-afc4-48e4-bbdc-ff4aeb948868"},"vehicle_type_id":"4","last_reported":1683749350,"current_range_meters":13600,"station_id":"ce4bhr92rcd13ifvqhrg","pricing_plan_id":"free"},{"bike_id":"5bc666d9-f4f5-4a16-9547-93d756cf34fa","system_id":"levelo_inurba_marseille","lat":43.290104,"lon":5.356111,"is_reserved":false,"is_disabled":false,"rental_uris":{"android":"levelo://app?vid=5bc666d9-f4f5-4a16-9547-93d756cf34fa","ios":"levelo://app?vid=5bc666d9-f4f5-4a16-9547-93d756cf34fa"},"vehicle_type_id":"4","last_reported":1683749350,"current_range_meters":5200,"station_id":"ce4bhb92rcd13ifvqen0","pricing_plan_id":"free"},{"bike_id":"ff79c64c-cf4a-4259-9b1d-2132f9e72daa","system_id":"levelo_inurba_marseille","lat":43.33044,"lon":5.38918,"is_reserved":false,"is_disabled":false,"rental_uris":{"android":"levelo://app?vid=ff79c64c-cf4a-4259-9b1d-2132f9e72daa","ios":"levelo://app?vid=ff79c64c-cf4a-4259-9b1d-2132f9e72daa"},"vehicle_type_id":"4","last_reported":1683749350,"current_range_meters":16000,"station_id":"ce4bhr92rcd13ifvqhrg","pricing_plan_id":"free"},{"bike_id":"c6f5c26f-c340-490b-9565-279ae36b6fb7","system_id":"levelo_inurba_marseille","lat":43.290104,"lon":5.356111,"is_reserved":false,"is_disabled":false,"rental_uris":{"android":"levelo://app?vid=c6f5c26f-c340-490b-9565-279ae36b6fb7","ios":"levelo://app?vid=c6f5c26f-c340-490b-9565-279ae36b6fb7"},"vehicle_type_id":"4","last_reported":1683749350,"current_range_meters":10400,"station_id":"ce4bhb92rcd13ifvqen0","pricing_plan_id":"free"},{"bike_id":"c4c7589f-b308-41ee-bd7e-ea3a683e9ae5","system_id":"levelo_inurba_marseille","lat":43.33045,"lon":5.38918,"is_reserved":false,"is_disabled":false,"rental_uris":{"android":"levelo://app?vid=c4c7589f-b308-41ee-bd7e-ea3a683e9ae5","ios":"levelo://app?vid=c4c7589f-b308-41ee-bd7e-ea3a683e9ae5"},"vehicle_type_id":"4","last_reported":1683749350,"current_range_meters":23600,"station_id":"ce4bhr92rcd13ifvqhrg","pricing_plan_id":"free"},{"bike_id":"94f7f6e0-6812-4bb8-bfbd-23abae7854e7","system_id":"levelo_inurba_marseille","lat":43.29012,"lon":5.35592,"is_reserved":false,"is_disabled":false,"rental_uris":{"android":"levelo://app?vid=94f7f6e0-6812-4bb8-bfbd-23abae7854e7","ios":"levelo://app?vid=94f7f6e0-6812-4bb8-bfbd-23abae7854e7"},"vehicle_type_id":"4","last_reported":1683749350,"current_range_meters":16800,"station_id":"ce4bhb92rcd13ifvqen0","pricing_plan_id":"free"},{"bike_id":"291e92dd-c2ab-4c58-b1dd-0973f1c413d5","system_id":"levelo_inurba_marseille","lat":43.33044,"lon":5.38921,"is_reserved":false,"is_disabled":false,"rental_uris":{"android":"levelo://app?vid=291e92dd-c2ab-4c58-b1dd-0973f1c413d5","ios":"levelo://app?vid=291e92dd-c2ab-4c58-b1dd-0973f1c413d5"},"vehicle_type_id":"4","last_reported":1683749350,"current_range_meters":6400,"station_id":"ce4bhr92rcd13ifvqhrg","pricing_plan_id":"free"},{"bike_id":"0dd22335-b0d0-4c9f-bacb-4a1c1dbac5ab","system_id":"levelo_inurba_marseille","lat":43.290104,"lon":5.356111,"is_reserved":false,"is_disabled":false,"rental_uris":{"android":"levelo://app?vid=0dd22335-b0d0-4c9f-bacb-4a1c1dbac5ab","ios":"levelo://app?vid=0dd22335-b0d0-4c9f-bacb-4a1c1dbac5ab"},"vehicle_type_id":"4","last_reported":1683749350,"current_range_meters":19600,"station_id":"ce4bhb92rcd13ifvqen0","pricing_plan_id":"free"},{"bike_id":"2694c67b-3f3c-4630-9f9c-df01de1d6a0b","system_id":"levelo_inurba_marseille","lat":43.33046,"lon":5.3892,"is_reserved":false,"is_disabled":false,"rental_uris":{"android":"levelo://app?vid=2694c67b-3f3c-4630-9f9c-df01de1d6a0b","ios":"levelo://app?vid=2694c67b-3f3c-4630-9f9c-df01de1d6a0b"},"vehicle_type_id":"4","last_reported":1683749350,"current_range_meters":22000,"station_id":"ce4bhr92rcd13ifvqhrg","pricing_plan_id":"free"},{"bike_id":"808b0fb5-4dc5-46a9-b132-4d472082a4e8","system_id":"levelo_inurba_marseille","lat":43.33048,"lon":5.38917,"is_reserved":false,"is_disabled":false,"rental_uris":{"android":"levelo://app?vid=808b0fb5-4dc5-46a9-b132-4d472082a4e8","ios":"levelo://app?vid=808b0fb5-4dc5-46a9-b132-4d472082a4e8"},"vehicle_type_id":"4","last_reported":1683749350,"current_range_meters":14800,"station_id":"ce4bhr92rcd13ifvqhrg","pricing_plan_id":"free"},{"bike_id":"982f32ef-7bea-4d8e-849e-41a3a7f4fa51","system_id":"levelo_inurba_marseille","lat":43.290104,"lon":5.356111,"is_reserved":false,"is_disabled":false,"rental_uris":{"android":"levelo://app?vid=982f32ef-7bea-4d8e-849e-41a3a7f4fa51","ios":"levelo://app?vid=982f32ef-7bea-4d8e-849e-41a3a7f4fa51"},"vehicle_type_id":"4","last_reported":1683749350,"current_range_meters":9600,"station_id":"ce4bhb92rcd13ifvqen0","pricing_plan_id":"free"},{"bike_id":"211b7316-10de-4bc7-a044-db2211126bbf","system_id":"levelo_inurba_marseille","lat":43.33045,"lon":5.38922,"is_reserved":false,"is_disabled":false,"rental_uris":{"android":"levelo://app?vid=211b7316-10de-4bc7-a044-db2211126bbf","ios":"levelo://app?vid=211b7316-10de-4bc7-a044-db2211126bbf"},"vehicle_type_id":"4","last_reported":1683749350,"current_range_meters":21200,"station_id":"ce4bhr92rcd13ifvqhrg","pricing_plan_id":"free"},{"bike_id":"56623d59-a17e-49c2-9785-13fa322b6d52","system_id":"levelo_inurba_marseille","lat":43.33047,"lon":5.38919,"is_reserved":false,"is_disabled":false,"rental_uris":{"android":"levelo://app?vid=56623d59-a17e-49c2-9785-13fa322b6d52","ios":"levelo://app?vid=56623d59-a17e-49c2-9785-13fa322b6d52"},"vehicle_type_id":"4","last_reported":1683749350,"current_range_meters":16800,"station_id":"ce4bhr92rcd13ifvqhrg","pricing_plan_id":"free"},{"bike_id":"edb5b798-7253-4bd2-a327-d25d5e550ef1","system_id":"levelo_inurba_marseille","lat":43.33044,"lon":5.38924,"is_reserved":false,"is_disabled":false,"rental_uris":{"android":"levelo://app?vid=edb5b798-7253-4bd2-a327-d25d5e550ef1","ios":"levelo://app?vid=edb5b798-7253-4bd2-a327-d25d5e550ef1"},"vehicle_type_id":"4","last_reported":1683749350,"current_range_meters":28400,"station_id":"ce4bhr92rcd13ifvqhrg","pricing_plan_id":"free"},{"bike_id":"f55f9613-885a-4d9f-b9d0-876dd874452b","system_id":"levelo_inurba_marseille","lat":43.33048,"lon":5.38918,"is_reserved":false,"is_disabled":false,"rental_uris":{"android":"levelo://app?vid=f55f9613-885a-4d9f-b9d0-876dd874452b","ios":"levelo://app?vid=f55f9613-885a-4d9f-b9d0-876dd874452b"},"vehicle_type_id":"4","last_reported":1683749350,"current_range_meters":26400,"station_id":"ce4bhr92rcd13ifvqhrg","pricing_plan_id":"free"},{"bike_id":"7f1adfe6-dd3e-4e2e-8f92-1b2d49b6bafa","system_id":"levelo_inurba_marseille","lat":43.33045,"lon":5.38924,"is_reserved":false,"is_disabled":false,"rental_uris":{"android":"levelo://app?vid=7f1adfe6-dd3e-4e2e-8f92-1b2d49b6bafa","ios":"levelo://app?vid=7f1adfe6-dd3e-4e2e-8f92-1b2d49b6bafa"},"vehicle_type_id":"4","last_reported":1683749350,"current_range_meters":26800,"station_id":"ce4bhr92rcd13ifvqhrg","pricing_plan_id":"free"},{"bike_id":"1c784880-042b-45c5-8204-7fdb8b62a885","system_id":"levelo_inurba_marseille","lat":43.33046,"lon":5.38923,"is_reserved":false,"is_disabled":false,"rental_uris":{"android":"levelo://app?vid=1c784880-042b-45c5-8204-7fdb8b62a885","ios":"levelo://app?vid=1c784880-042b-45c5-8204-7fdb8b62a885"},"vehicle_type_id":"4","last_reported":1683749350,"current_range_meters":23600,"station_id":"ce4bhr92rcd13ifvqhrg","pricing_plan_id":"free"},{"bike_id":"4d5d4da3-9ad4-42e5-a993-c85515ce9ca0","system_id":"levelo_inurba_marseille","lat":43.33051,"lon":5.38917,"is_reserved":false,"is_disabled":false,"rental_uris":{"android":"levelo://app?vid=4d5d4da3-9ad4-42e5-a993-c85515ce9ca0","ios":"levelo://app?vid=4d5d4da3-9ad4-42e5-a993-c85515ce9ca0"},"vehicle_type_id":"4","last_reported":1683749350,"current_range_meters":25600,"station_id":"ce4bhr92rcd13ifvqhrg","pricing_plan_id":"free"},{"bike_id":"8ad703d9-997d-481e-945a-3f90bbb0b1a2","system_id":"levelo_inurba_marseille","lat":43.29,"lon":5.35609,"is_reserved":false,"is_disabled":false,"rental_uris":{"android":"levelo://app?vid=8ad703d9-997d-481e-945a-3f90bbb0b1a2","ios":"levelo://app?vid=8ad703d9-997d-481e-945a-3f90bbb0b1a2"},"vehicle_type_id":"4","last_reported":1683749350,"current_range_meters":22000,"station_id":"ce4bhb92rcd13ifvqen0","pricing_plan_id":"free"},{"bike_id":"3c0f969a-9073-4b34-94ff-fe0249ee8ec3","system_id":"levelo_inurba_marseille","lat":43.290995,"lon":5.381361,"is_reserved":false,"is_disabled":false,"rental_uris":{"android":"levelo://app?vid=3c0f969a-9073-4b34-94ff-fe0249ee8ec3","ios":"levelo://app?vid=3c0f969a-9073-4b34-94ff-fe0249ee8ec3"},"vehicle_type_id":"4","last_reported":1683749350,"current_range_meters":21200,"station_id":"ce4bh512rcd13ifvqe2g","pricing_plan_id":"free"},{"bike_id":"76efe44c-d490-4e7b-8c9e-ed41e8d18909","system_id":"levelo_inurba_marseille","lat":43.33054,"lon":5.38923,"is_reserved":false,"is_disabled":false,"rental_uris":{"android":"levelo://app?vid=76efe44c-d490-4e7b-8c9e-ed41e8d18909","ios":"levelo://app?vid=76efe44c-d490-4e7b-8c9e-ed41e8d18909"},"vehicle_type_id":"4","last_reported":1683749350,"current_range_meters":9600,"station_id":"ce4bhr92rcd13ifvqhrg","pricing_plan_id":"free"},{"bike_id":"75eca32e-2cdf-4ee9-a014-76c7cd12f618","system_id":"levelo_inurba_marseille","lat":43.290995,"lon":5.381361,"is_reserved":false,"is_disabled":false,"rental_uris":{"android":"levelo://app?vid=75eca32e-2cdf-4ee9-a014-76c7cd12f618","ios":"levelo://app?vid=75eca32e-2cdf-4ee9-a014-76c7cd12f618"},"vehicle_type_id":"4","last_reported":1683749350,"current_range_meters":27600,"station_id":"ce4bh512rcd13ifvqe2g","pricing_plan_id":"free"},{"bike_id":"6cbc3c02-9458-4483-8a56-1027732cec68","system_id":"levelo_inurba_marseille","lat":43.290995,"lon":5.381361,"is_reserved":false,"is_disabled":false,"rental_uris":{"android":"levelo://app?vid=6cbc3c02-9458-4483-8a56-1027732cec68","ios":"levelo://app?vid=6cbc3c02-9458-4483-8a56-1027732cec68"},"vehicle_type_id":"4","last_reported":1683749350,"current_range_meters":16000,"station_id":"ce4bh512rcd13ifvqe2g","pricing_plan_id":"free"},{"bike_id":"819bf446-3a11-4260-9701-0828f3311d19","system_id":"levelo_inurba_marseille","lat":43.289741,"lon":5.378306,"is_reserved":false,"is_disabled":false,"rental_uris":{"android":"levelo://app?vid=819bf446-3a11-4260-9701-0828f3311d19","ios":"levelo://app?vid=819bf446-3a11-4260-9701-0828f3311d19"},"vehicle_type_id":"4","last_reported":1683749350,"current_range_meters":21200,"station_id":"ce4bh9p2rcd13ifvqed0","pricing_plan_id":"free"},{"bike_id":"1cf1f62f-481a-466a-8d63-cbcbce97a89a","system_id":"levelo_inurba_marseille","lat":43.295169,"lon":5.390426,"is_reserved":false,"is_disabled":false,"rental_uris":{"android":"levelo://app?vid=1cf1f62f-481a-466a-8d63-cbcbce97a89a","ios":"levelo://app?vid=1cf1f62f-481a-466a-8d63-cbcbce97a89a"},"vehicle_type_id":"4","last_reported":1683749350,"current_range_meters":20000,"station_id":"ce4bh3p2rcd13ifvqdp0","pricing_plan_id":"free"},{"bike_id":"93a880d8-09df-464e-9bc3-42979518015e","system_id":"levelo_inurba_marseille","lat":43.2901,"lon":5.381269,"is_reserved":false,"is_disabled":false,"rental_uris":{"android":"levelo://app?vid=93a880d8-09df-464e-9bc3-42979518015e","ios":"levelo://app?vid=93a880d8-09df-464e-9bc3-42979518015e"},"vehicle_type_id":"4","last_reported":1683749350,"current_range_meters":0,"station_id":"ce4bh4p2rcd13ifvqe1g","pricing_plan_id":"free"},{"bike_id":"b0bcc87f-8089-4cea-9e19-62d187d0f936","system_id":"levelo_inurba_marseille","lat":43.290094,"lon":5.381264,"is_reserved":false,"is_disabled":false,"rental_uris":{"android":"levelo://app?vid=b0bcc87f-8089-4cea-9e19-62d187d0f936","ios":"levelo://app?vid=b0bcc87f-8089-4cea-9e19-62d187d0f936"},"vehicle_type_id":"4","last_reported":1683749350,"current_range_meters":18000,"station_id":"ce4bh4p2rcd13ifvqe1g","pricing_plan_id":"free"},{"bike_id":"b52f80b4-dd87-490a-b776-6981eb0be0be","system_id":"levelo_inurba_marseille","lat":43.28852,"lon":5.35847,"is_reserved":false,"is_disabled":false,"rental_uris":{"android":"levelo://app?vid=b52f80b4-dd87-490a-b776-6981eb0be0be","ios":"levelo://app?vid=b52f80b4-dd87-490a-b776-6981eb0be0be"},"vehicle_type_id":"4","last_reported":1683749350,"current_range_meters":13200,"station_id":"ce4bhb12rcd13ifvqem0","pricing_plan_id":"free"},{"bike_id":"b580e0e2-2f8d-4df7-94bc-e067ad6ab0cb","system_id":"levelo_inurba_marseille","lat":43.32678,"lon":5.39562,"is_reserved":false,"is_disabled":false,"rental_uris":{"android":"levelo://app?vid=b580e0e2-2f8d-4df7-94bc-e067ad6ab0cb","ios":"levelo://app?vid=b580e0e2-2f8d-4df7-94bc-e067ad6ab0cb"},"vehicle_type_id":"4","last_reported":1683749350,"current_range_meters":18800,"station_id":"","pricing_plan_id":"free"},{"bike_id":"eba09d36-c97e-4d90-84b4-0c1992aba7e8","system_id":"levelo_inurba_marseille","lat":43.30642,"lon":5.401031,"is_reserved":false,"is_disabled":false,"rental_uris":{"android":"levelo://app?vid=eba09d36-c97e-4d90-84b4-0c1992aba7e8","ios":"levelo://app?vid=eba09d36-c97e-4d90-84b4-0c1992aba7e8"},"vehicle_type_id":"4","last_reported":1683749350,"current_range_meters":15200,"station_id":"ce4bh112rcd13ifvqda0","pricing_plan_id":"free"},{"bike_id":"86b6ba00-445f-440e-98d2-415f529455b5","system_id":"levelo_inurba_marseille","lat":43.287184,"lon":5.37937,"is_reserved":false,"is_disabled":false,"rental_uris":{"android":"levelo://app?vid=86b6ba00-445f-440e-98d2-415f529455b5","ios":"levelo://app?vid=86b6ba00-445f-440e-98d2-415f529455b5"},"vehicle_type_id":"4","last_reported":1683749350,"current_range_meters":2000,"station_id":"ce4bh9p2rcd13ifvqec0","pricing_plan_id":"free"},{"bike_id":"262d3699-a088-432b-bd9d-d01aaccd431f","system_id":"levelo_inurba_marseille","lat":43.337489,"lon":5.374632,"is_reserved":false,"is_disabled":false,"rental_uris":{"android":"levelo://app?vid=262d3699-a088-432b-bd9d-d01aaccd431f","ios":"levelo://app?vid=262d3699-a088-432b-bd9d-d01aaccd431f"},"vehicle_type_id":"4","last_reported":1683749350,"current_range_meters":24400,"station_id":"","pricing_plan_id":"free"},{"bike_id":"f3c7bf7c-70d5-43b3-806a-d00f34df60c1","system_id":"levelo_inurba_marseille","lat":43.30642,"lon":5.401031,"is_reserved":false,"is_disabled":false,"rental_uris":{"android":"levelo://app?vid=f3c7bf7c-70d5-43b3-806a-d00f34df60c1","ios":"levelo://app?vid=f3c7bf7c-70d5-43b3-806a-d00f34df60c1"},"vehicle_type_id":"4","last_reported":1683749350,"current_range_meters":26800,"station_id":"ce4bh112rcd13ifvqda0","pricing_plan_id":"free"},{"bike_id":"23742408-b575-45ab-9117-d214ae796289","system_id":"levelo_inurba_marseille","lat":43.316523,"lon":5.404367,"is_reserved":false,"is_disabled":false,"rental_uris":{"android":"levelo://app?vid=23742408-b575-45ab-9117-d214ae796289","ios":"levelo://app?vid=23742408-b575-45ab-9117-d214ae796289"},"vehicle_type_id":"4","last_reported":1683749350,"current_range_meters":0,"station_id":"ce4bh012rcd13ifvqd00","pricing_plan_id":"free"},{"bike_id":"24f2fbcc-9409-4f98-82fb-b573035e46b6","system_id":"levelo_inurba_marseille","lat":43.30642,"lon":5.401031,"is_reserved":false,"is_disabled":false,"rental_uris":{"android":"levelo://app?vid=24f2fbcc-9409-4f98-82fb-b573035e46b6","ios":"levelo://app?vid=24f2fbcc-9409-4f98-82fb-b573035e46b6"},"vehicle_type_id":"4","last_reported":1683749350,"current_range_meters":800,"station_id":"ce4bh112rcd13ifvqda0","pricing_plan_id":"free"},{"bike_id":"8aeeb9d9-1925-41a8-8678-411e94ac6f12","system_id":"levelo_inurba_marseille","lat":43.30642,"lon":5.401031,"is_reserved":false,"is_disabled":false,"rental_uris":{"android":"levelo://app?vid=8aeeb9d9-1925-41a8-8678-411e94ac6f12","ios":"levelo://app?vid=8aeeb9d9-1925-41a8-8678-411e94ac6f12"},"vehicle_type_id":"4","last_reported":1683749350,"current_range_meters":0,"station_id":"ce4bh112rcd13ifvqda0","pricing_plan_id":"free"},{"bike_id":"74e4edad-791b-402d-b641-bdd8c2d7a929","system_id":"levelo_inurba_marseille","lat":43.33756,"lon":5.37445,"is_reserved":false,"is_disabled":false,"rental_uris":{"android":"levelo://app?vid=74e4edad-791b-402d-b641-bdd8c2d7a929","ios":"levelo://app?vid=74e4edad-791b-402d-b641-bdd8c2d7a929"},"vehicle_type_id":"4","last_reported":1683749350,"current_range_meters":21600,"station_id":"","pricing_plan_id":"free"},{"bike_id":"ddd6fec5-45a7-4538-b3d2-2ed9b37d8d84","system_id":"levelo_inurba_marseille","lat":43.30642,"lon":5.401031,"is_reserved":false,"is_disabled":false,"rental_uris":{"android":"levelo://app?vid=ddd6fec5-45a7-4538-b3d2-2ed9b37d8d84","ios":"levelo://app?vid=ddd6fec5-45a7-4538-b3d2-2ed9b37d8d84"},"vehicle_type_id":"4","last_reported":1683749350,"current_range_meters":9600,"station_id":"ce4bh112rcd13ifvqda0","pricing_plan_id":"free"},{"bike_id":"d9da4d5b-4c19-4a9a-88bd-f6cd4044c42c","system_id":"levelo_inurba_marseille","lat":43.30642,"lon":5.401031,"is_reserved":false,"is_disabled":false,"rental_uris":{"android":"levelo://app?vid=d9da4d5b-4c19-4a9a-88bd-f6cd4044c42c","ios":"levelo://app?vid=d9da4d5b-4c19-4a9a-88bd-f6cd4044c42c"},"vehicle_type_id":"4","last_reported":1683749350,"current_range_meters":29600,"station_id":"ce4bh112rcd13ifvqda0","pricing_plan_id":"free"},{"bike_id":"5c23f069-390b-4c41-9ea8-23c19ae8fca8","system_id":"levelo_inurba_marseille","lat":43.30642,"lon":5.401031,"is_reserved":false,"is_disabled":false,"rental_uris":{"android":"levelo://app?vid=5c23f069-390b-4c41-9ea8-23c19ae8fca8","ios":"levelo://app?vid=5c23f069-390b-4c41-9ea8-23c19ae8fca8"},"vehicle_type_id":"4","last_reported":1683749350,"current_range_meters":24800,"station_id":"ce4bh112rcd13ifvqda0","pricing_plan_id":"free"},{"bike_id":"fb044346-ff7f-4e8c-ad60-5f6dde067cdd","system_id":"levelo_inurba_marseille","lat":43.30642,"lon":5.401031,"is_reserved":false,"is_disabled":false,"rental_uris":{"android":"levelo://app?vid=fb044346-ff7f-4e8c-ad60-5f6dde067cdd","ios":"levelo://app?vid=fb044346-ff7f-4e8c-ad60-5f6dde067cdd"},"vehicle_type_id":"4","last_reported":1683749350,"current_range_meters":17600,"station_id":"ce4bh112rcd13ifvqda0","pricing_plan_id":"free"},{"bike_id":"954c23ed-0ea4-4050-bb19-534cb04fafd7","system_id":"levelo_inurba_marseille","lat":43.30642,"lon":5.401031,"is_reserved":false,"is_disabled":false,"rental_uris":{"android":"levelo://app?vid=954c23ed-0ea4-4050-bb19-534cb04fafd7","ios":"levelo://app?vid=954c23ed-0ea4-4050-bb19-534cb04fafd7"},"vehicle_type_id":"4","last_reported":1683749350,"current_range_meters":18800,"station_id":"ce4bh112rcd13ifvqda0","pricing_plan_id":"free"},{"bike_id":"828dadce-0816-48b6-8fdc-913c230b40b7","system_id":"levelo_inurba_marseille","lat":43.30642,"lon":5.401031,"is_reserved":false,"is_disabled":false,"rental_uris":{"android":"levelo://app?vid=828dadce-0816-48b6-8fdc-913c230b40b7","ios":"levelo://app?vid=828dadce-0816-48b6-8fdc-913c230b40b7"},"vehicle_type_id":"4","last_reported":1683749350,"current_range_meters":400,"station_id":"ce4bh112rcd13ifvqda0","pricing_plan_id":"free"},{"bike_id":"699ccb5b-9f8a-4519-b345-f3baa700c710","system_id":"levelo_inurba_marseille","lat":43.286591,"lon":5.363346,"is_reserved":false,"is_disabled":false,"rental_uris":{"android":"levelo://app?vid=699ccb5b-9f8a-4519-b345-f3baa700c710","ios":"levelo://app?vid=699ccb5b-9f8a-4519-b345-f3baa700c710"},"vehicle_type_id":"4","last_reported":1683749350,"current_range_meters":11200,"station_id":"ce4bhah2rcd13ifvqej0","pricing_plan_id":"free"},{"bike_id":"1a25acdc-4a44-43b1-87c3-cc098685d443","system_id":"levelo_inurba_marseille","lat":43.298681,"lon":5.397225,"is_reserved":false,"is_disabled":false,"rental_uris":{"android":"levelo://app?vid=1a25acdc-4a44-43b1-87c3-cc098685d443","ios":"levelo://app?vid=1a25acdc-4a44-43b1-87c3-cc098685d443"},"vehicle_type_id":"4","last_reported":1683749350,"current_range_meters":23200,"station_id":"ce4bh0h2rcd13ifvqd50","pricing_plan_id":"free"},{"bike_id":"9ca843bc-aea1-4584-98ae-3e29bdc2abce","system_id":"levelo_inurba_marseille","lat":43.286591,"lon":5.363346,"is_reserved":false,"is_disabled":false,"rental_uris":{"android":"levelo://app?vid=9ca843bc-aea1-4584-98ae-3e29bdc2abce","ios":"levelo://app?vid=9ca843bc-aea1-4584-98ae-3e29bdc2abce"},"vehicle_type_id":"4","last_reported":1683749350,"current_range_meters":22000,"station_id":"ce4bhah2rcd13ifvqej0","pricing_plan_id":"free"},{"bike_id":"c5fd5d20-5b1a-4782-ae6e-cd6c83244816","system_id":"levelo_inurba_marseille","lat":43.286591,"lon":5.363346,"is_reserved":false,"is_disabled":false,"rental_uris":{"android":"levelo://app?vid=c5fd5d20-5b1a-4782-ae6e-cd6c83244816","ios":"levelo://app?vid=c5fd5d20-5b1a-4782-ae6e-cd6c83244816"},"vehicle_type_id":"4","last_reported":1683749350,"current_range_meters":22000,"station_id":"ce4bhah2rcd13ifvqej0","pricing_plan_id":"free"},{"bike_id":"47af3bbe-6159-4bce-9ea4-ca3b8939b326","system_id":"levelo_inurba_marseille","lat":43.286591,"lon":5.363346,"is_reserved":false,"is_disabled":false,"rental_uris":{"android":"levelo://app?vid=47af3bbe-6159-4bce-9ea4-ca3b8939b326","ios":"levelo://app?vid=47af3bbe-6159-4bce-9ea4-ca3b8939b326"},"vehicle_type_id":"4","last_reported":1683749350,"current_range_meters":22400,"station_id":"ce4bhah2rcd13ifvqej0","pricing_plan_id":"free"},{"bike_id":"a64727a4-37bd-4584-a2d5-74d67cd0de71","system_id":"levelo_inurba_marseille","lat":43.286593,"lon":5.363346,"is_reserved":false,"is_disabled":false,"rental_uris":{"android":"levelo://app?vid=a64727a4-37bd-4584-a2d5-74d67cd0de71","ios":"levelo://app?vid=a64727a4-37bd-4584-a2d5-74d67cd0de71"},"vehicle_type_id":"4","last_reported":1683749350,"current_range_meters":20000,"station_id":"ce4bhah2rcd13ifvqej0","pricing_plan_id":"free"},{"bike_id":"7f2d7f27-c96b-4625-8783-704ab326fbbc","system_id":"levelo_inurba_marseille","lat":43.286591,"lon":5.363346,"is_reserved":false,"is_disabled":false,"rental_uris":{"android":"levelo://app?vid=7f2d7f27-c96b-4625-8783-704ab326fbbc","ios":"levelo://app?vid=7f2d7f27-c96b-4625-8783-704ab326fbbc"},"vehicle_type_id":"4","last_reported":1683749350,"current_range_meters":26800,"station_id":"ce4bhah2rcd13ifvqej0","pricing_plan_id":"free"},{"bike_id":"6fb14cf7-a110-4567-befa-9bd3d9f4594a","system_id":"levelo_inurba_marseille","lat":43.286591,"lon":5.363346,"is_reserved":false,"is_disabled":false,"rental_uris":{"android":"levelo://app?vid=6fb14cf7-a110-4567-befa-9bd3d9f4594a","ios":"levelo://app?vid=6fb14cf7-a110-4567-befa-9bd3d9f4594a"},"vehicle_type_id":"4","last_reported":1683749350,"current_range_meters":7200,"station_id":"ce4bhah2rcd13ifvqej0","pricing_plan_id":"free"},{"bike_id":"7b75eeed-5010-4fdb-b4a1-6203336a2598","system_id":"levelo_inurba_marseille","lat":43.295194,"lon":5.39397,"is_reserved":false,"is_disabled":false,"rental_uris":{"android":"levelo://app?vid=7b75eeed-5010-4fdb-b4a1-6203336a2598","ios":"levelo://app?vid=7b75eeed-5010-4fdb-b4a1-6203336a2598"},"vehicle_type_id":"4","last_reported":1683749350,"current_range_meters":25200,"station_id":"ce4bh292rcd13ifvqdf0","pricing_plan_id":"free"},{"bike_id":"4f05df98-c571-4aa8-87cd-459eefc7d395","system_id":"levelo_inurba_marseille","lat":43.286591,"lon":5.363346,"is_reserved":false,"is_disabled":false,"rental_uris":{"android":"levelo://app?vid=4f05df98-c571-4aa8-87cd-459eefc7d395","ios":"levelo://app?vid=4f05df98-c571-4aa8-87cd-459eefc7d395"},"vehicle_type_id":"4","last_reported":1683749350,"current_range_meters":27600,"station_id":"ce4bhah2rcd13ifvqej0","pricing_plan_id":"free"},{"bike_id":"c61be696-6615-42b8-a1c0-23b1e6b61493","system_id":"levelo_inurba_marseille","lat":43.286591,"lon":5.363346,"is_reserved":false,"is_disabled":false,"rental_uris":{"android":"levelo://app?vid=c61be696-6615-42b8-a1c0-23b1e6b61493","ios":"levelo://app?vid=c61be696-6615-42b8-a1c0-23b1e6b61493"},"vehicle_type_id":"4","last_reported":1683749350,"current_range_meters":1200,"station_id":"ce4bhah2rcd13ifvqej0","pricing_plan_id":"free"},{"bike_id":"08b18e78-b648-4c92-8fb6-467b57dc617a","system_id":"levelo_inurba_marseille","lat":43.286591,"lon":5.363346,"is_reserved":false,"is_disabled":false,"rental_uris":{"android":"levelo://app?vid=08b18e78-b648-4c92-8fb6-467b57dc617a","ios":"levelo://app?vid=08b18e78-b648-4c92-8fb6-467b57dc617a"},"vehicle_type_id":"4","last_reported":1683749350,"current_range_meters":3200,"station_id":"ce4bhah2rcd13ifvqej0","pricing_plan_id":"free"},{"bike_id":"aab4bcc1-e270-4bea-952a-7a49a3a20810","system_id":"levelo_inurba_marseille","lat":43.29036,"lon":5.38645,"is_reserved":false,"is_disabled":false,"rental_uris":{"android":"levelo://app?vid=aab4bcc1-e270-4bea-952a-7a49a3a20810","ios":"levelo://app?vid=aab4bcc1-e270-4bea-952a-7a49a3a20810"},"vehicle_type_id":"4","last_reported":1683749350,"current_range_meters":28400,"station_id":"ce4bh4p2rcd13ifvqe0g","pricing_plan_id":"free"},{"bike_id":"6eb1e854-ec97-493b-853a-924bdd00830b","system_id":"levelo_inurba_marseille","lat":43.30262,"lon":5.4006,"is_reserved":false,"is_disabled":false,"rental_uris":{"android":"levelo://app?vid=6eb1e854-ec97-493b-853a-924bdd00830b","ios":"levelo://app?vid=6eb1e854-ec97-493b-853a-924bdd00830b"},"vehicle_type_id":"4","last_reported":1683749350,"current_range_meters":22400,"station_id":"ce4bgvh2rcd13ifvqcs0","pricing_plan_id":"free"},{"bike_id":"10ee2d5a-985e-41b8-9c55-828135b2fefe","system_id":"levelo_inurba_marseille","lat":43.30255,"lon":5.40057,"is_reserved":false,"is_disabled":false,"rental_uris":{"android":"levelo://app?vid=10ee2d5a-985e-41b8-9c55-828135b2fefe","ios":"levelo://app?vid=10ee2d5a-985e-41b8-9c55-828135b2fefe"},"vehicle_type_id":"4","last_reported":1683749350,"current_range_meters":0,"station_id":"","pricing_plan_id":"free"},{"bike_id":"40f71603-217c-4dd9-8404-939dd4c731a8","system_id":"levelo_inurba_marseille","lat":43.30268,"lon":5.40065,"is_reserved":false,"is_disabled":false,"rental_uris":{"android":"levelo://app?vid=40f71603-217c-4dd9-8404-939dd4c731a8","ios":"levelo://app?vid=40f71603-217c-4dd9-8404-939dd4c731a8"},"vehicle_type_id":"4","last_reported":1683749350,"current_range_meters":13200,"station_id":"ce4bgvh2rcd13ifvqcs0","pricing_plan_id":"free"},{"bike_id":"9249b067-3be9-4f46-b2b5-a9758f29a955","system_id":"levelo_inurba_marseille","lat":43.30255,"lon":5.40063,"is_reserved":false,"is_disabled":false,"rental_uris":{"android":"levelo://app?vid=9249b067-3be9-4f46-b2b5-a9758f29a955","ios":"levelo://app?vid=9249b067-3be9-4f46-b2b5-a9758f29a955"},"vehicle_type_id":"4","last_reported":1683749350,"current_range_meters":0,"station_id":"ce4bgvh2rcd13ifvqcs0","pricing_plan_id":"free"},{"bike_id":"021337c0-a548-420f-bca7-6c0e4c23bcf0","system_id":"levelo_inurba_marseille","lat":43.29031,"lon":5.38647,"is_reserved":false,"is_disabled":false,"rental_uris":{"android":"levelo://app?vid=021337c0-a548-420f-bca7-6c0e4c23bcf0","ios":"levelo://app?vid=021337c0-a548-420f-bca7-6c0e4c23bcf0"},"vehicle_type_id":"4","last_reported":1683749350,"current_range_meters":2000,"station_id":"ce4bh4p2rcd13ifvqe0g","pricing_plan_id":"free"},{"bike_id":"7b15561e-bfa7-4bdc-920c-543118d5a7af","system_id":"levelo_inurba_marseille","lat":43.30254,"lon":5.40063,"is_reserved":false,"is_disabled":false,"rental_uris":{"android":"levelo://app?vid=7b15561e-bfa7-4bdc-920c-543118d5a7af","ios":"levelo://app?vid=7b15561e-bfa7-4bdc-920c-543118d5a7af"},"vehicle_type_id":"4","last_reported":1683749350,"current_range_meters":11200,"station_id":"","pricing_plan_id":"free"},{"bike_id":"b50f4f86-8ce2-43d3-b6ed-9c834518cd1a","system_id":"levelo_inurba_marseille","lat":43.30259,"lon":5.40067,"is_reserved":false,"is_disabled":false,"rental_uris":{"android":"levelo://app?vid=b50f4f86-8ce2-43d3-b6ed-9c834518cd1a","ios":"levelo://app?vid=b50f4f86-8ce2-43d3-b6ed-9c834518cd1a"},"vehicle_type_id":"4","last_reported":1683749350,"current_range_meters":18000,"station_id":"","pricing_plan_id":"free"},{"bike_id":"e59042c2-9e3a-4efb-8c43-cf095ecbb163","system_id":"levelo_inurba_marseille","lat":43.290336,"lon":5.386425,"is_reserved":false,"is_disabled":false,"rental_uris":{"android":"levelo://app?vid=e59042c2-9e3a-4efb-8c43-cf095ecbb163","ios":"levelo://app?vid=e59042c2-9e3a-4efb-8c43-cf095ecbb163"},"vehicle_type_id":"4","last_reported":1683749350,"current_range_meters":22800,"station_id":"ce4bh4p2rcd13ifvqe0g","pricing_plan_id":"free"},{"bike_id":"c4611897-e016-439d-8bfb-0726351e321c","system_id":"levelo_inurba_marseille","lat":43.3026,"lon":5.40069,"is_reserved":false,"is_disabled":false,"rental_uris":{"android":"levelo://app?vid=c4611897-e016-439d-8bfb-0726351e321c","ios":"levelo://app?vid=c4611897-e016-439d-8bfb-0726351e321c"},"vehicle_type_id":"4","last_reported":1683749350,"current_range_meters":6800,"station_id":"ce4bgvh2rcd13ifvqcs0","pricing_plan_id":"free"},{"bike_id":"cf324bde-d409-473b-a85e-4efa3d97425b","system_id":"levelo_inurba_marseille","lat":43.30254,"lon":5.40068,"is_reserved":false,"is_disabled":false,"rental_uris":{"android":"levelo://app?vid=cf324bde-d409-473b-a85e-4efa3d97425b","ios":"levelo://app?vid=cf324bde-d409-473b-a85e-4efa3d97425b"},"vehicle_type_id":"4","last_reported":1683749350,"current_range_meters":6800,"station_id":"ce4bgvh2rcd13ifvqcs0","pricing_plan_id":"free"},{"bike_id":"2028033b-f255-4c67-9603-e516c5a4e338","system_id":"levelo_inurba_marseille","lat":43.30254,"lon":5.40068,"is_reserved":false,"is_disabled":false,"rental_uris":{"android":"levelo://app?vid=2028033b-f255-4c67-9603-e516c5a4e338","ios":"levelo://app?vid=2028033b-f255-4c67-9603-e516c5a4e338"},"vehicle_type_id":"4","last_reported":1683749350,"current_range_meters":1200,"station_id":"ce4bgvh2rcd13ifvqcs0","pricing_plan_id":"free"},{"bike_id":"92f7befc-a467-431c-9d1a-047838f9c857","system_id":"levelo_inurba_marseille","lat":43.30255,"lon":5.4007,"is_reserved":false,"is_disabled":false,"rental_uris":{"android":"levelo://app?vid=92f7befc-a467-431c-9d1a-047838f9c857","ios":"levelo://app?vid=92f7befc-a467-431c-9d1a-047838f9c857"},"vehicle_type_id":"4","last_reported":1683749350,"current_range_meters":14400,"station_id":"","pricing_plan_id":"free"},{"bike_id":"1f9844bb-0fa4-43a8-9228-42f06b4afb77","system_id":"levelo_inurba_marseille","lat":43.290336,"lon":5.386425,"is_reserved":false,"is_disabled":false,"rental_uris":{"android":"levelo://app?vid=1f9844bb-0fa4-43a8-9228-42f06b4afb77","ios":"levelo://app?vid=1f9844bb-0fa4-43a8-9228-42f06b4afb77"},"vehicle_type_id":"4","last_reported":1683749350,"current_range_meters":28400,"station_id":"ce4bh4p2rcd13ifvqe0g","pricing_plan_id":"free"},{"bike_id":"5abf3bb3-db25-40e2-bf36-99d8fe9307b8","system_id":"levelo_inurba_marseille","lat":43.302622,"lon":5.400772,"is_reserved":false,"is_disabled":false,"rental_uris":{"android":"levelo://app?vid=5abf3bb3-db25-40e2-bf36-99d8fe9307b8","ios":"levelo://app?vid=5abf3bb3-db25-40e2-bf36-99d8fe9307b8"},"vehicle_type_id":"4","last_reported":1683749350,"current_range_meters":17200,"station_id":"","pricing_plan_id":"free"},{"bike_id":"80ca6100-3392-420f-b7cc-72164e3a8060","system_id":"levelo_inurba_marseille","lat":43.286039,"lon":5.370679,"is_reserved":false,"is_disabled":false,"rental_uris":{"android":"levelo://app?vid=80ca6100-3392-420f-b7cc-72164e3a8060","ios":"levelo://app?vid=80ca6100-3392-420f-b7cc-72164e3a8060"},"vehicle_type_id":"4","last_reported":1683749350,"current_range_meters":31200,"station_id":"ce4bht12rcd13ifvqi60","pricing_plan_id":"free"},