{"last_updated":1758820113,"ttl":60,"version":"2.2","data":{"bikes":[{"bike_id":"c9dca3d7-8686-4b98-9e50-b51ec69bcb2c","system_id":"levelo_inurba_marseille","lat":43.29199,"lon":5.35797,"is_reserved":false,"is_disabled":false,"rental_uris":{"android":"levelo://app?vid=c9dca3d7-8686-4b98-9e50-b51ec69bcb2c","ios":"levelo://app?vid=c9dca3d7-8686-4b98-9e50-b51ec69bcb2c"},"vehicle_type_id":"4","last_reported":1758820113,"current_range_meters":2800,"station_id":"ce4bhb12rcd13ifvqel0","pricing_plan_id":"cebpf4jnsgd1na2vs0mg"},{"bike_id":"f23d144e-7931-46f4-b247-8c0ca9482270","system_id":"levelo_inurba_marseille","lat":43.29533,"lon":5.38545,"is_reserved":false,"is_disabled":false,"rental_uris":{"android":"levelo://app?vid=f23d144e-7931-46f4-b247-8c0ca9482270","ios":"levelo://app?vid=f23d144e-7931-46f4-b247-8c0ca9482270"},"vehicle_type_id":"4","last_reported":1758820113,"current_range_meters":2800,"station_id":"ce4bgih2rcd13ifvqba0","pricing_plan_id":"cebpf4jnsgd1na2vs0mg"},{"bike_id":"4124800c-4ce8-425b-b18b-08e9d5db2852","system_id":"levelo_inurba_marseille","lat":43.28099,"lon":5.37847,"is_reserved":false,"is_disabled":false,"rental_uris":{"android":"levelo://app?vid=4124800c-4ce8-425b-b18b-08e9d5db2852","ios":"levelo://app?vid=4124800c-4ce8-425b-b18b-08e9d5db2852"},"vehicle_type_id":"4","last_reported":1758820113,"current_range_meters":2800,"station_id":"ce4bha12rcd13ifvqee0","pricing_plan_id":"cebpf4jnsgd1na2vs0mg"},{"bike_id":"dfa2e0eb-c01c-40f5-bdf0-94cf19dc56f0","system_id":"levelo_inurba_marseille","lat":43.25096,"lon":5.39539,"is_reserved":false,"is_disabled":true,"rental_uris":{"android":"levelo://app?vid=dfa2e0eb-c01c-40f5-bdf0-94cf19dc56f0","ios":"levelo://app?vid=dfa2e0eb-c01c-40f5-bdf0-94cf19dc56f0"},"vehicle_type_id":"4","last_reported":1758820113,"current_range_meters":2800,"station_id":"ce4bhm12rcd13ifvqgkg","pricing_plan_id":"cebpf4jnsgd1na2vs0mg"},{"bike_id":"e05cdd2b-1f98-4cb8-8185-4f7803275558","system_id":"levelo_inurba_marseille","lat":43.31372,"lon":5.38909,"is_reserved":false,"is_disabled":false,"rental_uris":{"android":"levelo://app?vid=e05cdd2b-1f98-4cb8-8185-4f7803275558","ios":"levelo://app?vid=e05cdd2b-1f98-4cb8-8185-4f7803275558"},"vehicle_type_id":"4","last_reported":1758820113,"current_range_meters":2800,"station_id":"","pricing_plan_id":"cebpf4jnsgd1na2vs0mg"},{"bike_id":"da34326c-dbdd-40f7-8297-add63679763c","system_id":"levelo_inurba_marseille","lat":43.29627,"lon":5.37161,"is_reserved":false,"is_disabled":false,"rental_uris":{"android":"levelo://app?vid=da34326c-dbdd-40f7-8297-add63679763c","ios":"levelo://app?vid=da34326c-dbdd-40f7-8297-add63679763c"},"vehicle_type_id":"4","last_reported":1758820113,"current_range_meters":3200,"station_id":"ce4bgnh2rcd13ifvqc0g","pricing_plan_id":"cebpf4jnsgd1na2vs0mg"},{"bike_id":"f485d969-f69c-4a27-8478-44d84f50ff75","system_id":"levelo_inurba_marseille","lat":43.309501,"lon":5.390277,"is_reserved":false,"is_disabled":false,"rental_uris":{"android":"levelo://app?vid=f485d969-f69c-4a27-8478-44d84f50ff75","ios":"levelo://app?vid=f485d969-f69c-4a27-8478-44d84f50ff75"},"vehicle_type_id":"4","last_reported":1758820113,"current_range_meters":3200,"station_id":"ce4bgup2rcd13ifvqco0","pricing_plan_id":"cebpf4jnsgd1na2vs0mg"},{"bike_id":"fdde80da-5114-4b32-b600-14b7cca3a108","system_id":"levelo_inurba_marseille","lat":43.28146,"lon":5.42642,"is_reserved":false,"is_disabled":false,"rental_uris":{"android":"levelo://app?vid=fdde80da-5114-4b32-b600-14b7cca3a108","ios":"levelo://app?vid=fdde80da-5114-4b32-b600-14b7cca3a108"},"vehicle_type_id":"4","last_reported":1758820113,"current_range_meters":5600,"station_id":"ce4bhnh2rcd13ifvqgug","pricing_plan_id":"cebpf4jnsgd1na2vs0mg"},{"bike_id":"a8e02b46-01bb-43d0-a22b-7d14884d5b23","system_id":"levelo_inurba_marseille","lat":43.24383,"lon":5.37057,"is_reserved":false,"is_disabled":false,"rental_uris":{"android":"levelo://app?vid=a8e02b46-01bb-43d0-a22b-7d14884d5b23","ios":"levelo://app?vid=a8e02b46-01bb-43d0-a22b-7d14884d5b23"},"vehicle_type_id":"4","last_reported":1758820113,"current_range_meters":3200,"station_id":"ce4bhhh2rcd13ifvqfk0","pricing_plan_id":"cebpf4jnsgd1na2vs0mg"},{"bike_id":"1efddf8d-578f-4e4c-8c3f-e3a8bd592ba4","system_id":"levelo_inurba_marseille","lat":43.29953,"lon":5.37317,"is_reserved":false,"is_disabled":false,"rental_uris":{"android":"levelo://app?vid=1efddf8d-578f-4e4c-8c3f-e3a8bd592ba4","ios":"levelo://app?vid=1efddf8d-578f-4e4c-8c3f-e3a8bd592ba4"},"vehicle_type_id":"4","last_reported":1758820113,"current_range_meters":3600,"station_id":"","pricing_plan_id":"cebpf4jnsgd1na2vs0mg"},{"bike_id":"3a7effb0-63b0-4c81-9087-e3a1e8c106f8","system_id":"levelo_inurba_marseille","lat":43.281526,"lon":5.42629,"is_reserved":false,"is_disabled":false,"rental_uris":{"android":"levelo://app?vid=3a7effb0-63b0-4c81-9087-e3a1e8c106f8","ios":"levelo://app?vid=3a7effb0-63b0-4c81-9087-e3a1e8c106f8"},"vehicle_type_id":"4","last_reported":1758820113,"current_range_meters":3600,"station_id":"ce4bhnh2rcd13ifvqgug","pricing_plan_id":"cebpf4jnsgd1na2vs0mg"},{"bike_id":"a10cd35d-70fc-4fac-bdc7-8b3e7ab99490","system_id":"levelo_inurba_marseille","lat":43.27951,"lon":5.41035,"is_reserved":false,"is_disabled":false,"rental_uris":{"android":"levelo://app?vid=a10cd35d-70fc-4fac-bdc7-8b3e7ab99490","ios":"levelo://app?vid=a10cd35d-70fc-4fac-bdc7-8b3e7ab99490"},"vehicle_type_id":"4","last_reported":1758820113,"current_range_meters":3600,"station_id":"ce4bhnp2rcd13ifvqh0g","pricing_plan_id":"cebpf4jnsgd1na2vs0mg"},{"bike_id":"0a1e657f-c510-4f36-8a07-e89a6fb688b8","system_id":"levelo_inurba_marseille","lat":43.28848,"lon":5.39312,"is_reserved":false,"is_disabled":false,"rental_uris":{"android":"levelo://app?vid=0a1e657f-c510-4f36-8a07-e89a6fb688b8","ios":"levelo://app?vid=0a1e657f-c510-4f36-8a07-e89a6fb688b8"},"vehicle_type_id":"4","last_reported":1758820113,"current_range_meters":3600,"station_id":"ce4bh2p2rcd13ifvqdi0","pricing_plan_id":"cebpf4jnsgd1na2vs0mg"},{"bike_id":"9180ca80-f677-4677-91ea-4c22d06d3726","system_id":"levelo_inurba_marseille","lat":43.26916,"lon":5.4028,"is_reserved":false,"is_disabled":false,"rental_uris":{"android":"levelo://app?vid=9180ca80-f677-4677-91ea-4c22d06d3726","ios":"levelo://app?vid=9180ca80-f677-4677-91ea-4c22d06d3726"},"vehicle_type_id":"4","last_reported":1758820113,"current_range_meters":3600,"station_id":"cjm6bp8fraef2m0cb0m0","pricing_plan_id":"cebpf4jnsgd1na2vs0mg"},{"bike_id":"87881b87-4b51-4a38-85f8-a53742f07b96","system_id":"levelo_inurba_marseille","lat":43.29731,"lon":5.37691,"is_reserved":false,"is_disabled":false,"rental_uris":{"android":"levelo://app?vid=87881b87-4b51-4a38-85f8-a53742f07b96","ios":"levelo://app?vid=87881b87-4b51-4a38-85f8-a53742f07b96"},"vehicle_type_id":"4","last_reported":1758820113,"current_range_meters":3600,"station_id":"ce4bgkh2rcd13ifvqbl0","pricing_plan_id":"cebpf4jnsgd1na2vs0mg"},{"bike_id":"72b761d3-e74f-4ca8-bac6-f2bf531a31e7","system_id":"levelo_inurba_marseille","lat":43.23149,"lon":5.43718,"is_reserved":false,"is_disabled":false,"rental_uris":{"android":"levelo://app?vid=72b761d3-e74f-4ca8-bac6-f2bf531a31e7","ios":"levelo://app?vid=72b761d3-e74f-4ca8-bac6-f2bf531a31e7"},"vehicle_type_id":"4","last_reported":1758820113,"current_range_meters":3600,"station_id":"ce4bhmp2rcd13ifvqgog","pricing_plan_id":"cebpf4jnsgd1na2vs0mg"},{"bike_id":"95609141-2029-4bea-90c1-17a1cb405abc","system_id":"levelo_inurba_marseille","lat":43.30947,"lon":5.39031,"is_reserved":false,"is_disabled":false,"rental_uris":{"android":"levelo://app?vid=95609141-2029-4bea-90c1-17a1cb405abc","ios":"levelo://app?vid=95609141-2029-4bea-90c1-17a1cb405abc"},"vehicle_type_id":"4","last_reported":1758820113,"current_range_meters":3600,"station_id":"ce4bgup2rcd13ifvqco0","pricing_plan_id":"cebpf4jnsgd1na2vs0mg"},{"bike_id":"145b9ec9-3467-47e4-a5bf-3f44bd386b6a","system_id":"levelo_inurba_marseille","lat":43.297,"lon":5.36625,"is_reserved":false,"is_disabled":false,"rental_uris":{"android":"levelo://app?vid=145b9ec9-3467-47e4-a5bf-3f44bd386b6a","ios":"levelo://app?vid=145b9ec9-3467-47e4-a5bf-3f44bd386b6a"},"vehicle_type_id":"4","last_reported":1758820113,"current_range_meters":3600,"station_id":"ce4bgn12rcd13ifvqbt0","pricing_plan_id":"cebpf4jnsgd1na2vs0mg"},{"bike_id":"28cd539d-0c86-450e-b6d7-d17722f824c8","system_id":"levelo_inurba_marseille","lat":43.30427,"lon":5.39754,"is_reserved":false,"is_disabled":false,"rental_uris":{"android":"levelo://app?vid=28cd539d-0c86-450e-b6d7-d17722f824c8","ios":"levelo://app?vid=28cd539d-0c86-450e-b6d7-d17722f824c8"},"vehicle_type_id":"4","last_reported":1758820113,"current_range_meters":3600,"station_id":"ce4bh092rcd13ifvqd20","pricing_plan_id":"cebpf4jnsgd1na2vs0mg"},{"bike_id":"97cbb729-54f7-4218-9b79-370dedeadfe0","system_id":"levelo_inurba_marseille","lat":43.31388,"lon":5.37408,"is_reserved":false,"is_disabled":false,"rental_uris":{"android":"levelo://app?vid=97cbb729-54f7-4218-9b79-370dedeadfe0","ios":"levelo://app?vid=97cbb729-54f7-4218-9b79-370dedeadfe0"},"vehicle_type_id":"4","last_reported":1758820113,"current_range_meters":4000,"station_id":"","pricing_plan_id":"cebpf4jnsgd1na2vs0mg"},{"bike_id":"b005adc2-85ce-407a-a03a-cf91c13dde89","system_id":"levelo_inurba_marseille","lat":43.258733,"lon":5.39851,"is_reserved":false,"is_disabled":false,"rental_uris":{"android":"levelo://app?vid=b005adc2-85ce-407a-a03a-cf91c13dde89","ios":"levelo://app?vid=b005adc2-85ce-407a-a03a-cf91c13dde89"},"vehicle_type_id":"4","last_reported":1758820113,"current_range_meters":4000,"station_id":"ce4bhl92rcd13ifvqghg","pricing_plan_id":"cebpf4jnsgd1na2vs0mg"},{"bike_id":"2812cb24-57be-4668-be82-55d79dfce4e2","system_id":"levelo_inurba_marseille","lat":43.26209,"lon":5.37443,"is_reserved":false,"is_disabled":false,"rental_uris":{"android":"levelo://app?vid=2812cb24-57be-4668-be82-55d79dfce4e2","ios":"levelo://app?vid=2812cb24-57be-4668-be82-55d79dfce4e2"},"vehicle_type_id":"4","last_reported":1758820113,"current_range_meters":4000,"station_id":"ce4bhgp2rcd13ifvqfc0","pricing_plan_id":"cebpf4jnsgd1na2vs0mg"},{"bike_id":"aa9a5174-5e6f-47b0-b42e-218718a59d6a","system_id":"levelo_inurba_marseille","lat":43.29783,"lon":5.39339,"is_reserved":false,"is_disabled":false,"rental_uris":{"android":"levelo://app?vid=aa9a5174-5e6f-47b0-b42e-218718a59d6a","ios":"levelo://app?vid=aa9a5174-5e6f-47b0-b42e-218718a59d6a"},"vehicle_type_id":"4","last_reported":1758820113,"current_range_meters":4000,"station_id":"chh1huq6cuj3fo74tm60","pricing_plan_id":"cebpf4jnsgd1na2vs0mg"},{"bike_id":"73e75ce2-4ad2-404e-b4ba-1b4e44fcaa32","system_id":"levelo_inurba_marseille","lat":43.302743,"lon":5.398139,"is_reserved":false,"is_disabled":false,"rental_uris":{"android":"levelo://app?vid=73e75ce2-4ad2-404e-b4ba-1b4e44fcaa32","ios":"levelo://app?vid=73e75ce2-4ad2-404e-b4ba-1b4e44fcaa32"},"vehicle_type_id":"4","last_reported":1758820113,"current_range_meters":4000,"station_id":"ce4bh012rcd13ifvqcv0","pricing_plan_id":"cebpf4jnsgd1na2vs0mg"},{"bike_id":"7c0482c3-9253-4d1b-b4f3-be55cdb7721d","system_id":"levelo_inurba_marseille","lat":43.33757,"lon":5.37466,"is_reserved":false,"is_disabled":false,"rental_uris":{"android":"levelo://app?vid=7c0482c3-9253-4d1b-b4f3-be55cdb7721d","ios":"levelo://app?vid=7c0482c3-9253-4d1b-b4f3-be55cdb7721d"},"vehicle_type_id":"4","last_reported":1758820113,"current_range_meters":4400,"station_id":"","pricing_plan_id":"cebpf4jnsgd1na2vs0mg"},{"bike_id":"b94b8a49-c2c9-48e4-99b6-e3d68631aaa1","system_id":"levelo_inurba_marseille","lat":43.2678,"lon":5.39417,"is_reserved":false,"is_disabled":false,"rental_uris":{"android":"levelo://app?vid=b94b8a49-c2c9-48e4-99b6-e3d68631aaa1","ios":"levelo://app?vid=b94b8a49-c2c9-48e4-99b6-e3d68631aaa1"},"vehicle_type_id":"4","last_reported":1758820113,"current_range_meters":4400,"station_id":"ce4bhh12rcd13ifvqfg0","pricing_plan_id":"cebpf4jnsgd1na2vs0mg"},{"bike_id":"0af39b1f-9f77-46a4-9bad-f668d94459e6","system_id":"levelo_inurba_marseille","lat":43.26552,"lon":5.37289,"is_reserved":false,"is_disabled":false,"rental_uris":{"android":"levelo://app?vid=0af39b1f-9f77-46a4-9bad-f668d94459e6","ios":"levelo://app?vid=0af39b1f-9f77-46a4-9bad-f668d94459e6"},"vehicle_type_id":"4","last_reported":1758820113,"current_range_meters":4400,"station_id":"ce4bhg12rcd13ifvqf70","pricing_plan_id":"cebpf4jnsgd1na2vs0mg"},{"bike_id":"c80e1f6e-41df-47e3-91cd-de5847cd5136","system_id":"levelo_inurba_marseille","lat":43.32232,"lon":5.39445,"is_reserved":false,"is_disabled":false,"rental_uris":{"android":"levelo://app?vid=c80e1f6e-41df-47e3-91cd-de5847cd5136","ios":"levelo://app?vid=c80e1f6e-41df-47e3-91cd-de5847cd5136"},"vehicle_type_id":"4","last_reported":1758820113,"current_range_meters":4400,"station_id":"","pricing_plan_id":"cebpf4jnsgd1na2vs0mg"},{"bike_id":"3d476d69-4af4-40a8-8ecd-153d3d338261","system_id":"levelo_inurba_marseille","lat":43.27195,"lon":5.42877,"is_reserved":false,"is_disabled":false,"rental_uris":{"android":"levelo://app?vid=3d476d69-4af4-40a8-8ecd-153d3d338261","ios":"levelo://app?vid=3d476d69-4af4-40a8-8ecd-153d3d338261"},"vehicle_type_id":"4","last_reported":1758820113,"current_range_meters":4800,"station_id":"","pricing_plan_id":"cebpf4jnsgd1na2vs0mg"},{"bike_id":"db05b0b9-b783-4d17-b8df-34c081588a9a","system_id":"levelo_inurba_marseille","lat":43.27937,"lon":5.41043,"is_reserved":false,"is_disabled":false,"rental_uris":{"android":"levelo://app?vid=db05b0b9-b783-4d17-b8df-34c081588a9a","ios":"levelo://app?vid=db05b0b9-b783-4d17-b8df-34c081588a9a"},"vehicle_type_id":"4","last_reported":1758820113,"current_range_meters":4800,"station_id":"ce4bhnp2rcd13ifvqh0g","pricing_plan_id":"cebpf4jnsgd1na2vs0mg"},{"bike_id":"4f420e8f-e4a3-41c8-995b-438e6d1efec8","system_id":"levelo_inurba_marseille","lat":43.27794,"lon":5.40725,"is_reserved":false,"is_disabled":false,"rental_uris":{"android":"levelo://app?vid=4f420e8f-e4a3-41c8-995b-438e6d1efec8","ios":"levelo://app?vid=4f420e8f-e4a3-41c8-995b-438e6d1efec8"},"vehicle_type_id":"4","last_reported":1758820113,"current_range_meters":4800,"station_id":"ce4bhnh2rcd13ifvqgtg","pricing_plan_id":"cebpf4jnsgd1na2vs0mg"},{"bike_id":"3e2ff376-ef17-4e2a-8433-f825ae7372b8","system_id":"levelo_inurba_marseille","lat":43.29864,"lon":5.39735,"is_reserved":false,"is_disabled":false,"rental_uris":{"android":"levelo://app?vid=3e2ff376-ef17-4e2a-8433-f825ae7372b8","ios":"levelo://app?vid=3e2ff376-ef17-4e2a-8433-f825ae7372b8"},"vehicle_type_id":"4","last_reported":1758820113,"current_range_meters":4800,"station_id":"ce4bh0h2rcd13ifvqd50","pricing_plan_id":"cebpf4jnsgd1na2vs0mg"},{"bike_id":"c70c560c-948f-4885-8b4e-ce20aabd84b6","system_id":"levelo_inurba_marseille","lat":43.30151,"lon":5.38778,"is_reserved":false,"is_disabled":false,"rental_uris":{"android":"levelo://app?vid=c70c560c-948f-4885-8b4e-ce20aabd84b6","ios":"levelo://app?vid=c70c560c-948f-4885-8b4e-ce20aabd84b6"},"vehicle_type_id":"4","last_reported":1758820113,"current_range_meters":4800,"station_id":"ce4bghh2rcd13ifvqb60","pricing_plan_id":"cebpf4jnsgd1na2vs0mg"},{"bike_id":"39f02825-20cc-4e34-b3de-f7bb79b901cf","system_id":"levelo_inurba_marseille","lat":43.27808,"lon":5.40714,"is_reserved":false,"is_disabled":false,"rental_uris":{"android":"levelo://app?vid=39f02825-20cc-4e34-b3de-f7bb79b901cf","ios":"levelo://app?vid=39f02825-20cc-4e34-b3de-f7bb79b901cf"},"vehicle_type_id":"4","last_reported":1758820113,"current_range_meters":4800,"station_id":"ce4bhnh2rcd13ifvqgtg","pricing_plan_id":"cebpf4jnsgd1na2vs0mg"},{"bike_id":"84d86991-6e19-4079-91be-85da4766f62b","system_id":"levelo_inurba_marseille","lat":43.281548,"lon":5.426458,"is_reserved":false,"is_disabled":false,"rental_uris":{"android":"levelo://app?vid=84d86991-6e19-4079-91be-85da4766f62b","ios":"levelo://app?vid=84d86991-6e19-4079-91be-85da4766f62b"},"vehicle_type_id":"4","last_reported":1758820113,"current_range_meters":4800,"station_id":"ce4bhk92rcd13ifvqgc0","pricing_plan_id":"cebpf4jnsgd1na2vs0mg"},{"bike_id":"3e5c73f5-1156-4143-ae8f-5b8322e5a9f1","system_id":"levelo_inurba_marseille","lat":43.29952,"lon":5.41322,"is_reserved":false,"is_disabled":false,"rental_uris":{"android":"levelo://app?vid=3e5c73f5-1156-4143-ae8f-5b8322e5a9f1","ios":"levelo://app?vid=3e5c73f5-1156-4143-ae8f-5b8322e5a9f1"},"vehicle_type_id":"4","last_reported":1758820113,"current_range_meters":4800,"station_id":"ce4bhp12rcd13ifvqh9g","pricing_plan_id":"cebpf4jnsgd1na2vs0mg"},{"bike_id":"939538dc-20bd-4d94-8a10-8e1e0a179bc7","system_id":"levelo_inurba_marseille","lat":43.30462,"lon":5.36686,"is_reserved":false,"is_disabled":false,"rental_uris":{"android":"levelo://app?vid=939538dc-20bd-4d94-8a10-8e1e0a179bc7","ios":"levelo://app?vid=939538dc-20bd-4d94-8a10-8e1e0a179bc7"},"vehicle_type_id":"4","last_reported":1758820113,"current_range_meters":5600,"station_id":"","pricing_plan_id":"cebpf4jnsgd1na2vs0mg"},{"bike_id":"d455f08b-456e-491b-b002-15f09f16c0fb","system_id":"levelo_inurba_marseille","lat":43.25837,"lon":5.39427,"is_reserved":false,"is_disabled":false,"rental_uris":{"android":"levelo://app?vid=d455f08b-456e-491b-b002-15f09f16c0fb","ios":"levelo://app?vid=d455f08b-456e-491b-b002-15f09f16c0fb"},"vehicle_type_id":"4","last_reported":1758820113,"current_range_meters":5600,"station_id":"ce4bhip2rcd13ifvqft0","pricing_plan_id":"cebpf4jnsgd1na2vs0mg"},{"bike_id":"141fff63-9bc4-4ff2-865f-becbac974e2a","system_id":"levelo_inurba_marseille","lat":43.28848,"lon":5.35841,"is_reserved":false,"is_disabled":false,"rental_uris":{"android":"levelo://app?vid=141fff63-9bc4-4ff2-865f-becbac974e2a","ios":"levelo://app?vid=141fff63-9bc4-4ff2-865f-becbac974e2a"},"vehicle_type_id":"4","last_reported":1758820113,"current_range_meters":5600,"station_id":"ce4bhb12rcd13ifvqem0","pricing_plan_id":"cebpf4jnsgd1na2vs0mg"},{"bike_id":"d04957f2-4e0c-4a98-9b15-fc8eecaf23a9","system_id":"levelo_inurba_marseille","lat":43.25868,"lon":5.39897,"is_reserved":false,"is_disabled":false,"rental_uris":{"android":"levelo://app?vid=d04957f2-4e0c-4a98-9b15-fc8eecaf23a9","ios":"levelo://app?vid=d04957f2-4e0c-4a98-9b15-fc8eecaf23a9"},"vehicle_type_id":"4","last_reported":1758820113,"current_range_meters":5600,"station_id":"ce4bhl92rcd13ifvqghg","pricing_plan_id":"cebpf4jnsgd1na2vs0mg"},{"bike_id":"229183cc-402a-4f51-b3b0-f78fd623686b","system_id":"levelo_inurba_marseille","lat":43.28697,"lon":5.37392,"is_reserved":false,"is_disabled":false,"rental_uris":{"android":"levelo://app?vid=229183cc-402a-4f51-b3b0-f78fd623686b","ios":"levelo://app?vid=229183cc-402a-4f51-b3b0-f78fd623686b"},"vehicle_type_id":"4","last_reported":1758820113,"current_range_meters":5600,"station_id":"ce4bh3p2rcd13ifvqdq0","pricing_plan_id":"cebpf4jnsgd1na2vs0mg"},{"bike_id":"bc70286a-04dd-4fd0-bd4c-6e5e457c8a2b","system_id":"levelo_inurba_marseille","lat":43.27994,"lon":5.41664,"is_reserved":false,"is_disabled":false,"rental_uris":{"android":"levelo://app?vid=bc70286a-04dd-4fd0-bd4c-6e5e457c8a2b","ios":"levelo://app?vid=bc70286a-04dd-4fd0-bd4c-6e5e457c8a2b"},"vehicle_type_id":"4","last_reported":1758820113,"current_range_meters":5600,"station_id":"ce4bho12rcd13ifvqh1g","pricing_plan_id":"cebpf4jnsgd1na2vs0mg"},{"bike_id":"9e97d78f-603e-4a90-884e-f15741bc6d22","system_id":"levelo_inurba_marseille","lat":43.27796,"lon":5.4072,"is_reserved":false,"is_disabled":false,"rental_uris":{"android":"levelo://app?vid=9e97d78f-603e-4a90-884e-f15741bc6d22","ios":"levelo://app?vid=9e97d78f-603e-4a90-884e-f15741bc6d22"},"vehicle_type_id":"4","last_reported":1758820113,"current_range_meters":5600,"station_id":"ce4bhnh2rcd13ifvqgtg","pricing_plan_id":"cebpf4jnsgd1na2vs0mg"},{"bike_id":"7659f5f8-9c72-4c24-b839-6ce7fd1bdfa9","system_id":"levelo_inurba_marseille","lat":43.291402,"lon":5.383129,"is_reserved":false,"is_disabled":false,"rental_uris":{"android":"levelo://app?vid=7659f5f8-9c72-4c24-b839-6ce7fd1bdfa9","ios":"levelo://app?vid=7659f5f8-9c72-4c24-b839-6ce7fd1bdfa9"},"vehicle_type_id":"4","last_reported":1758820113,"current_range_meters":5600,"station_id":"ce4bh692rcd13ifvqea0","pricing_plan_id":"cebpf4jnsgd1na2vs0mg"},{"bike_id":"532f00a8-7ba1-4070-bd19-8a5f66417a37","system_id":"levelo_inurba_marseille","lat":43.28151,"lon":5.4264,"is_reserved":false,"is_disabled":false,"rental_uris":{"android":"levelo://app?vid=532f00a8-7ba1-4070-bd19-8a5f66417a37","ios":"levelo://app?vid=532f00a8-7ba1-4070-bd19-8a5f66417a37"},"vehicle_type_id":"4","last_reported":1758820113,"current_range_meters":6000,"station_id":"ce4bhnh2rcd13ifvqgug","pricing_plan_id":"cebpf4jnsgd1na2vs0mg"},{"bike_id":"9c4a7bdb-c552-4dfd-8efb-40b9e0b0b147","system_id":"levelo_inurba_marseille","lat":43.30904,"lon":5.36721,"is_reserved":false,"is_disabled":false,"rental_uris":{"android":"levelo://app?vid=9c4a7bdb-c552-4dfd-8efb-40b9e0b0b147","ios":"levelo://app?vid=9c4a7bdb-c552-4dfd-8efb-40b9e0b0b147"},"vehicle_type_id":"4","last_reported":1758820113,"current_range_meters":6000,"station_id":"","pricing_plan_id":"cebpf4jnsgd1na2vs0mg"},{"bike_id":"49095361-6791-4e4a-abfd-a2062d8e7453","system_id":"levelo_inurba_marseille","lat":43.307987,"lon":5.435213,"is_reserved":false,"is_disabled":false,"rental_uris":{"android":"levelo://app?vid=49095361-6791-4e4a-abfd-a2062d8e7453","ios":"levelo://app?vid=49095361-6791-4e4a-abfd-a2062d8e7453"},"vehicle_type_id":"4","last_reported":1758820113,"current_range_meters":6000,"station_id":"ce4bhph2rcd13ifvqheg","pricing_plan_id":"cebpf4jnsgd1na2vs0mg"},{"bike_id":"cb3d83dd-8277-415b-bc5d-a118e1200728","system_id":"levelo_inurba_marseille","lat":43.30107,"lon":5.41022,"is_reserved":false,"is_disabled":false,"rental_uris":{"android":"levelo://app?vid=cb3d83dd-8277-415b-bc5d-a118e1200728","ios":"levelo://app?vid=cb3d83dd-8277-415b-bc5d-a118e1200728"},"vehicle_type_id":"4","last_reported":1758820113,"current_range_meters":6000,"station_id":"","pricing_plan_id":"cebpf4jnsgd1na2vs0mg"},{"bike_id":"61a2ef69-7527-4f4a-81de-179fb59e560a","system_id":"levelo_inurba_marseille","lat":43.300891,"lon":5.393479,"is_reserved":false,"is_disabled":false,"rental_uris":{"android":"levelo://app?vid=61a2ef69-7527-4f4a-81de-179fb59e560a","ios":"levelo://app?vid=61a2ef69-7527-4f4a-81de-179fb59e560a"},"vehicle_type_id":"4","last_reported":1758820113,"current_range_meters":6000,"station_id":"","pricing_plan_id":"cebpf4jnsgd1na2vs0mg"},{"bike_id":"136a707a-b224-4c44-8119-f846f7b7d0a7","system_id":"levelo_inurba_marseille","lat":43.29516,"lon":5.37375,"is_reserved":false,"is_disabled":false,"rental_uris":{"android":"levelo://app?vid=136a707a-b224-4c44-8119-f846f7b7d0a7","ios":"levelo://app?vid=136a707a-b224-4c44-8119-f846f7b7d0a7"},"vehicle_type_id":"4","last_reported":1758820113,"current_range_meters":6400,"station_id":"","pricing_plan_id":"cebpf4jnsgd1na2vs0mg"},{"bike_id":"21af800f-e817-4b49-bab3-9baeedc5b760","system_id":"levelo_inurba_marseille","lat":43.25724,"lon":5.41109,"is_reserved":false,"is_disabled":false,"rental_uris":{"android":"levelo://app?vid=21af800f-e817-4b49-bab3-9baeedc5b760","ios":"levelo://app?vid=21af800f-e817-4b49-bab3-9baeedc5b760"},"vehicle_type_id":"4","last_reported":1758820113,"current_range_meters":6400,"station_id":"ce4bhkp2rcd13ifvqgd0","pricing_plan_id":"cebpf4jnsgd1na2vs0mg"},{"bike_id":"48da193d-f3fc-4650-ac3a-9d3b039131c2","system_id":"levelo_inurba_marseille","lat":43.28071,"lon":5.39666,"is_reserved":false,"is_disabled":false,"rental_uris":{"android":"levelo://app?vid=48da193d-f3fc-4650-ac3a-9d3b039131c2","ios":"levelo://app?vid=48da193d-f3fc-4650-ac3a-9d3b039131c2"},"vehicle_type_id":"4","last_reported":1758820113,"current_range_meters":6800,"station_id":"ce4bho12rcd13ifvqh2g","pricing_plan_id":"cebpf4jnsgd1na2vs0mg"},{"bike_id":"e1f62a41-6b97-4ae9-b6ce-44efc144ec87","system_id":"levelo_inurba_marseille","lat":43.26788,"lon":5.39409,"is_reserved":false,"is_disabled":false,"rental_uris":{"android":"levelo://app?vid=e1f62a41-6b97-4ae9-b6ce-44efc144ec87","ios":"levelo://app?vid=e1f62a41-6b97-4ae9-b6ce-44efc144ec87"},"vehicle_type_id":"4","last_reported":1758820113,"current_range_meters":8000,"station_id":"ce4bhh12rcd13ifvqfg0","pricing_plan_id":"cebpf4jnsgd1na2vs0mg"},{"bike_id":"95033ecf-01a8-4047-9a88-c7da939d853b","system_id":"levelo_inurba_marseille","lat":43.30375,"lon":5.42498,"is_reserved":false,"is_disabled":false,"rental_uris":{"android":"levelo://app?vid=95033ecf-01a8-4047-9a88-c7da939d853b","ios":"levelo://app?vid=95033ecf-01a8-4047-9a88-c7da939d853b"},"vehicle_type_id":"4","last_reported":1758820113,"current_range_meters":6800,"station_id":"ce4bhoh2rcd13ifvqh6g","pricing_plan_id":"cebpf4jnsgd1na2vs0mg"},{"bike_id":"d85859fc-bc88-4f49-ac6c-c95ec29ee8f9","system_id":"levelo_inurba_marseille","lat":43.243963,"lon":5.40104,"is_reserved":false,"is_disabled":false,"rental_uris":{"android":"levelo://app?vid=d85859fc-bc88-4f49-ac6c-c95ec29ee8f9","ios":"levelo://app?vid=d85859fc-bc88-4f49-ac6c-c95ec29ee8f9"},"vehicle_type_id":"4","last_reported":1758820113,"current_range_meters":6800,"station_id":"","pricing_plan_id":"cebpf4jnsgd1na2vs0mg"},{"bike_id":"75d71978-785c-47d6-b32b-a4d605a30394","system_id":"levelo_inurba_marseille","lat":43.30606,"lon":5.39357,"is_reserved":false,"is_disabled":false,"rental_uris":{"android":"levelo://app?vid=75d71978-785c-47d6-b32b-a4d605a30394","ios":"levelo://app?vid=75d71978-785c-47d6-b32b-a4d605a30394"},"vehicle_type_id":"4","last_reported":1758820113,"current_range_meters":6800,"station_id":"ce4bh0p2rcd13ifvqd80","pricing_plan_id":"cebpf4jnsgd1na2vs0mg"},{"bike_id":"11ead09a-ca88-49e8-bed0-5c25e649c723","system_id":"levelo_inurba_marseille","lat":43.26986,"lon":5.39894,"is_reserved":false,"is_disabled":false,"rental_uris":{"android":"levelo://app?vid=11ead09a-ca88-49e8-bed0-5c25e649c723","ios":"levelo://app?vid=11ead09a-ca88-49e8-bed0-5c25e649c723"},"vehicle_type_id":"4","last_reported":1758820113,"current_range_meters":6800,"station_id":"","pricing_plan_id":"cebpf4jnsgd1na2vs0mg"},{"bike_id":"4dd3c820-2b6e-44ba-8d31-9877c15f7e64","system_id":"levelo_inurba_marseille","lat":43.32332,"lon":5.4063,"is_reserved":false,"is_disabled":false,"rental_uris":{"android":"levelo://app?vid=4dd3c820-2b6e-44ba-8d31-9877c15f7e64","ios":"levelo://app?vid=4dd3c820-2b6e-44ba-8d31-9877c15f7e64"},"vehicle_type_id":"4","last_reported":1758820113,"current_range_meters":6800,"station_id":"ce4bhq92rcd13ifvqhjg","pricing_plan_id":"cebpf4jnsgd1na2vs0mg"},{"bike_id":"c6d66bd4-e27d-466b-92f3-b2a9c94f6306","system_id":"levelo_inurba_marseille","lat":43.29306,"lon":5.37172,"is_reserved":false,"is_disabled":false,"rental_uris":{"android":"levelo://app?vid=c6d66bd4-e27d-466b-92f3-b2a9c94f6306","ios":"levelo://app?vid=c6d66bd4-e27d-466b-92f3-b2a9c94f6306"},"vehicle_type_id":"4","last_reported":1758820113,"current_range_meters":6400,"station_id":"ce4bgh92rcd13ifvqb40","pricing_plan_id":"cebpf4jnsgd1na2vs0mg"},{"bike_id":"68c54461-da31-4320-b814-8c305a12007d","system_id":"levelo_inurba_marseille","lat":43.29298,"lon":5.3716,"is_reserved":false,"is_disabled":false,"rental_uris":{"android":"levelo://app?vid=68c54461-da31-4320-b814-8c305a12007d","ios":"levelo://app?vid=68c54461-da31-4320-b814-8c305a12007d"},"vehicle_type_id":"4","last_reported":1758820113,"current_range_meters":7200,"station_id":"ce4bgh92rcd13ifvqb40","pricing_plan_id":"cebpf4jnsgd1na2vs0mg"},{"bike_id":"4e737411-53ce-4bdf-9802-c3bc30d9bc94","system_id":"levelo_inurba_marseille","lat":43.29552,"lon":5.40619,"is_reserved":false,"is_disabled":false,"rental_uris":{"android":"levelo://app?vid=4e737411-53ce-4bdf-9802-c3bc30d9bc94","ios":"levelo://app?vid=4e737411-53ce-4bdf-9802-c3bc30d9bc94"},"vehicle_type_id":"4","last_reported":1758820113,"current_range_meters":7200,"station_id":"","pricing_plan_id":"cebpf4jnsgd1na2vs0mg"},{"bike_id":"5d3df889-eebb-40dc-8732-8dd40cb2d6af","system_id":"levelo_inurba_marseille","lat":43.26789,"lon":5.40281,"is_reserved":false,"is_disabled":false,"rental_uris":{"android":"levelo://app?vid=5d3df889-eebb-40dc-8732-8dd40cb2d6af","ios":"levelo://app?vid=5d3df889-eebb-40dc-8732-8dd40cb2d6af"},"vehicle_type_id":"4","last_reported":1758820113,"current_range_meters":7200,"station_id":"ce501612rcd8frsf0b60","pricing_plan_id":"cebpf4jnsgd1na2vs0mg"},{"bike_id":"13fefb12-6505-4ed9-9c08-416952151bbd","system_id":"levelo_inurba_marseille","lat":43.286949,"lon":5.373602,"is_reserved":false,"is_disabled":false,"rental_uris":{"android":"levelo://app?vid=13fefb12-6505-4ed9-9c08-416952151bbd","ios":"levelo://app?vid=13fefb12-6505-4ed9-9c08-416952151bbd"},"vehicle_type_id":"4","last_reported":1758820113,"current_range_meters":7200,"station_id":"ce4bh3p2rcd13ifvqdq0","pricing_plan_id":"cebpf4jnsgd1na2vs0mg"},{"bike_id":"d743b1b0-4b0e-4bda-acd3-73256148d639","system_id":"levelo_inurba_marseille","lat":43.26791,"lon":5.39409,"is_reserved":false,"is_disabled":false,"rental_uris":{"android":"levelo://app?vid=d743b1b0-4b0e-4bda-acd3-73256148d639","ios":"levelo://app?vid=d743b1b0-4b0e-4bda-acd3-73256148d639"},"vehicle_type_id":"4","last_reported":1758820113,"current_range_meters":7200,"station_id":"ce4bhh12rcd13ifvqfg0","pricing_plan_id":"cebpf4jnsgd1na2vs0mg"},{"bike_id":"f637b153-009b-4f72-8bc2-e40eab2d5500","system_id":"levelo_inurba_marseille","lat":43.2993,"lon":5.36556,"is_reserved":false,"is_disabled":false,"rental_uris":{"android":"levelo://app?vid=f637b153-009b-4f72-8bc2-e40eab2d5500","ios":"levelo://app?vid=f637b153-009b-4f72-8bc2-e40eab2d5500"},"vehicle_type_id":"4","last_reported":1758820113,"current_range_meters":7200,"station_id":"ce4bgm92rcd13ifvqbr0","pricing_plan_id":"cebpf4jnsgd1na2vs0mg"},{"bike_id":"58bcb43d-c000-4e3e-b004-30450f57645b","system_id":"levelo_inurba_marseille","lat":43.29527,"lon":5.37448,"is_reserved":false,"is_disabled":false,"rental_uris":{"android":"levelo://app?vid=58bcb43d-c000-4e3e-b004-30450f57645b","ios":"levelo://app?vid=58bcb43d-c000-4e3e-b004-30450f57645b"},"vehicle_type_id":"4","last_reported":1758820113,"current_range_meters":7200,"station_id":"","pricing_plan_id":"cebpf4jnsgd1na2vs0mg"},{"bike_id":"8425bdcc-052b-4c44-af33-ed39b1d648d8","system_id":"levelo_inurba_marseille","lat":43.28708,"lon":5.40004,"is_reserved":false,"is_disabled":true,"rental_uris":{"android":"levelo://app?vid=8425bdcc-052b-4c44-af33-ed39b1d648d8","ios":"levelo://app?vid=8425bdcc-052b-4c44-af33-ed39b1d648d8"},"vehicle_type_id":"4","last_reported":1758820113,"current_range_meters":7200,"station_id":"ce4bho92rcd13ifvqh3g","pricing_plan_id":"cebpf4jnsgd1na2vs0mg"},{"bike_id":"b4231f5b-2208-4449-ba55-0a897c7a81e3","system_id":"levelo_inurba_marseille","lat":43.30419,"lon":5.39757,"is_reserved":false,"is_disabled":false,"rental_uris":{"android":"levelo://app?vid=b4231f5b-2208-4449-ba55-0a897c7a81e3","ios":"levelo://app?vid=b4231f5b-2208-4449-ba55-0a897c7a81e3"},"vehicle_type_id":"4","last_reported":1758820113,"current_range_meters":7200,"station_id":"ce4bh092rcd13ifvqd20","pricing_plan_id":"cebpf4jnsgd1na2vs0mg"},{"bike_id":"438ead59-de14-4fa0-a61d-03a70a4122ae","system_id":"levelo_inurba_marseille","lat":43.97269,"lon":4.89111,"is_reserved":false,"is_disabled":true,"rental_uris":{"android":"levelo://app?vid=438ead59-de14-4fa0-a61d-03a70a4122ae","ios":"levelo://app?vid=438ead59-de14-4fa0-a61d-03a70a4122ae"},"vehicle_type_id":"4","last_reported":1758820113,"current_range_meters":7200,"station_id":"","pricing_plan_id":"cebpf4jnsgd1na2vs0mg"},{"bike_id":"ddd8c0a7-a7ac-4c34-b48b-0710c492a44c","system_id":"levelo_inurba_marseille","lat":43.324,"lon":5.39093,"is_reserved":false,"is_disabled":false,"rental_uris":{"android":"levelo://app?vid=ddd8c0a7-a7ac-4c34-b48b-0710c492a44c","ios":"levelo://app?vid=ddd8c0a7-a7ac-4c34-b48b-0710c492a44c"},"vehicle_type_id":"4","last_reported":1758820113,"current_range_meters":7200,"station_id":"","pricing_plan_id":"cebpf4jnsgd1na2vs0mg"},{"bike_id":"a4905eb3-250e-4e9a-bff2-cbbc506b6338","system_id":"levelo_inurba_marseille","lat":43.26553,"lon":5.39503,"is_reserved":false,"is_disabled":false,"rental_uris":{"android":"levelo://app?vid=a4905eb3-250e-4e9a-bff2-cbbc506b6338","ios":"levelo://app?vid=a4905eb3-250e-4e9a-bff2-cbbc506b6338"},"vehicle_type_id":"4","last_reported":1758820113,"current_range_meters":8000,"station_id":"","pricing_plan_id":"cebpf4jnsgd1na2vs0mg"},{"bike_id":"4f3380ea-3dea-4325-a6ba-ca19a3b5dff3","system_id":"levelo_inurba_marseille","lat":43.28464,"lon":5.35885,"is_reserved":false,"is_disabled":false,"rental_uris":{"android":"levelo://app?vid=4f3380ea-3dea-4325-a6ba-ca19a3b5dff3","ios":"levelo://app?vid=4f3380ea-3dea-4325-a6ba-ca19a3b5dff3"},"vehicle_type_id":"4","last_reported":1758820113,"current_range_meters":7200,"station_id":"ce4bhah2rcd13ifvqei0","pricing_plan_id":"cebpf4jnsgd1na2vs0mg"},{"bike_id":"d354ec98-01d7-4b55-bec4-abd29718e136","system_id":"levelo_inurba_marseille","lat":43.27985,"lon":5.41663,"is_reserved":false,"is_disabled":false,"rental_uris":{"android":"levelo://app?vid=d354ec98-01d7-4b55-bec4-abd29718e136","ios":"levelo://app?vid=d354ec98-01d7-4b55-bec4-abd29718e136"},"vehicle_type_id":"4","last_reported":1758820113,"current_range_meters":8400,"station_id":"ce4bho12rcd13ifvqh1g","pricing_plan_id":"cebpf4jnsgd1na2vs0mg"},{"bike_id":"938f0eb6-00a2-4215-acca-eeae451da044","system_id":"levelo_inurba_marseille","lat":43.29032,"lon":5.37567,"is_reserved":false,"is_disabled":false,"rental_uris":{"android":"levelo://app?vid=938f0eb6-00a2-4215-acca-eeae451da044","ios":"levelo://app?vid=938f0eb6-00a2-4215-acca-eeae451da044"},"vehicle_type_id":"4","last_reported":1758820113,"current_range_meters":8000,"station_id":"ce4bh692rcd13ifvqe90","pricing_plan_id":"cebpf4jnsgd1na2vs0mg"},{"bike_id":"780b8776-6c4b-44e7-8ee0-b415fc1a7009","system_id":"levelo_inurba_marseille","lat":43.27177,"lon":5.41,"is_reserved":false,"is_disabled":false,"rental_uris":{"android":"levelo://app?vid=780b8776-6c4b-44e7-8ee0-b415fc1a7009","ios":"levelo://app?vid=780b8776-6c4b-44e7-8ee0-b415fc1a7009"},"vehicle_type_id":"4","last_reported":1758820113,"current_range_meters":8000,"station_id":"ce4bhl12rcd13ifvqgf0","pricing_plan_id":"cebpf4jnsgd1na2vs0mg"},{"bike_id":"35350a36-3f40-4731-af98-221b3e31d59b","system_id":"levelo_inurba_marseille","lat":43.26207,"lon":5.37447,"is_reserved":false,"is_disabled":false,"rental_uris":{"android":"levelo://app?vid=35350a36-3f40-4731-af98-221b3e31d59b","ios":"levelo://app?vid=35350a36-3f40-4731-af98-221b3e31d59b"},"vehicle_type_id":"4","last_reported":1758820113,"current_range_meters":8400,"station_id":"ce4bhgp2rcd13ifvqfc0","pricing_plan_id":"cebpf4jnsgd1na2vs0mg"},{"bike_id":"4035ffcf-62d8-4fb0-89da-8d7b6b41ef29","system_id":"levelo_inurba_marseille","lat":43.2943,"lon":5.39778,"is_reserved":false,"is_disabled":true,"rental_uris":{"android":"levelo://app?vid=4035ffcf-62d8-4fb0-89da-8d7b6b41ef29","ios":"levelo://app?vid=4035ffcf-62d8-4fb0-89da-8d7b6b41ef29"},"vehicle_type_id":"4","last_reported":1758820113,"current_range_meters":8400,"station_id":"ce4bh3h2rcd13ifvqdo0","pricing_plan_id":"cebpf4jnsgd1na2vs0mg"},{"bike_id":"08253d9b-3496-4e2c-b5fe-9c6013a2ae8b","system_id":"levelo_inurba_marseille","lat":43.24804,"lon":5.37456,"is_reserved":false,"is_disabled":false,"rental_uris":{"android":"levelo://app?vid=08253d9b-3496-4e2c-b5fe-9c6013a2ae8b","ios":"levelo://app?vid=08253d9b-3496-4e2c-b5fe-9c6013a2ae8b"},"vehicle_type_id":"4","last_reported":1758820113,"current_range_meters":8400,"station_id":"ce4bhgh2rcd13ifvqfb0","pricing_plan_id":"cebpf4jnsgd1na2vs0mg"},{"bike_id":"214c8090-3820-4d12-aeb5-8f2d7de389bd","system_id":"levelo_inurba_marseille","lat":43.28854,"lon":5.35846,"is_reserved":false,"is_disabled":false,"rental_uris":{"android":"levelo://app?vid=214c8090-3820-4d12-aeb5-8f2d7de389bd","ios":"levelo://app?vid=214c8090-3820-4d12-aeb5-8f2d7de389bd"},"vehicle_type_id":"4","last_reported":1758820113,"current_range_meters":8400,"station_id":"ce4bhb12rcd13ifvqem0","pricing_plan_id":"cebpf4jnsgd1na2vs0mg"},{"bike_id":"9752ea4f-632d-4b7b-bb6e-0269e07badd0","system_id":"levelo_inurba_marseille","lat":43.292469,"lon":5.408889,"is_reserved":false,"is_disabled":false,"rental_uris":{"android":"levelo://app?vid=9752ea4f-632d-4b7b-bb6e-0269e07badd0","ios":"levelo://app?vid=9752ea4f-632d-4b7b-bb6e-0269e07badd0"},"vehicle_type_id":"4","last_reported":1758820113,"current_range_meters":8000,"station_id":"ce4bh192rcd13ifvqdc0","pricing_plan_id":"cebpf4jnsgd1na2vs0mg"},{"bike_id":"14f36c02-6fca-472a-802b-53f1ddc6c502","system_id":"levelo_inurba_marseille","lat":43.25494,"lon":5.3765,"is_reserved":false,"is_disabled":false,"rental_uris":{"android":"levelo://app?vid=14f36c02-6fca-472a-802b-53f1ddc6c502","ios":"levelo://app?vid=14f36c02-6fca-472a-802b-53f1ddc6c502"},"vehicle_type_id":"4","last_reported":1758820113,"current_range_meters":8400,"station_id":"ce4bhh12rcd13ifvqff0","pricing_plan_id":"cebpf4jnsgd1na2vs0mg"},{"bike_id":"6e5bb5d0-647a-4cae-8a9a-b0fa258148e0","system_id":"levelo_inurba_marseille","lat":43.24225,"lon":5.367557,"is_reserved":false,"is_disabled":false,"rental_uris":{"android":"levelo://app?vid=6e5bb5d0-647a-4cae-8a9a-b0fa258148e0","ios":"levelo://app?vid=6e5bb5d0-647a-4cae-8a9a-b0fa258148e0"},"vehicle_type_id":"4","last_reported":1758820113,"current_range_meters":8800,"station_id":"ce4bhgh2rcd13ifvqfb0","pricing_plan_id":"cebpf4jnsgd1na2vs0mg"},{"bike_id":"824622d7-631f-4f88-b128-d0b04454ee63","system_id":"levelo_inurba_marseille","lat":43.239667,"lon":5.366336,"is_reserved":false,"is_disabled":false,"rental_uris":{"android":"levelo://app?vid=824622d7-631f-4f88-b128-d0b04454ee63","ios":"levelo://app?vid=824622d7-631f-4f88-b128-d0b04454ee63"},"vehicle_type_id":"4","last_reported":1758820113,"current_range_meters":8800,"station_id":"ce4bhi12rcd13ifvqfp0","pricing_plan_id":"cebpf4jnsgd1na2vs0mg"},{"bike_id":"94b2f036-4ca4-4693-89f2-72df2150ee98","system_id":"levelo_inurba_marseille","lat":43.258265,"lon":5.394374,"is_reserved":false,"is_disabled":true,"rental_uris":{"android":"levelo://app?vid=94b2f036-4ca4-4693-89f2-72df2150ee98","ios":"levelo://app?vid=94b2f036-4ca4-4693-89f2-72df2150ee98"},"vehicle_type_id":"4","last_reported":1758820113,"current_range_meters":8800,"station_id":"ce4bhip2rcd13ifvqft0","pricing_plan_id":"cebpf4jnsgd1na2vs0mg"},{"bike_id":"450844ba-2fc2-47be-9959-8fee61f07fb6","system_id":"levelo_inurba_marseille","lat":43.31741,"lon":5.39024,"is_reserved":false,"is_disabled":false,"rental_uris":{"android":"levelo://app?vid=450844ba-2fc2-47be-9959-8fee61f07fb6","ios":"levelo://app?vid=450844ba-2fc2-47be-9959-8fee61f07fb6"},"vehicle_type_id":"4","last_reported":1758820113,"current_range_meters":9200,"station_id":"ce4bhqp2rcd13ifvqhng","pricing_plan_id":"cebpf4jnsgd1na2vs0mg"},{"bike_id":"423a416a-f349-44d2-99b0-792b3f6704ee","system_id":"levelo_inurba_marseille","lat":43.26534,"lon":5.39044,"is_reserved":false,"is_disabled":false,"rental_uris":{"android":"levelo://app?vid=423a416a-f349-44d2-99b0-792b3f6704ee","ios":"levelo://app?vid=423a416a-f349-44d2-99b0-792b3f6704ee"},"vehicle_type_id":"4","last_reported":1758820113,"current_range_meters":9200,"station_id":"ce4bhe12rcd13ifvqf30","pricing_plan_id":"cebpf4jnsgd1na2vs0mg"},{"bike_id":"429a9ca7-cce3-4a97-9045-68545d64af37","system_id":"levelo_inurba_marseille","lat":43.2396,"lon":5.3663,"is_reserved":false,"is_disabled":false,"rental_uris":{"android":"levelo://app?vid=429a9ca7-cce3-4a97-9045-68545d64af37","ios":"levelo://app?vid=429a9ca7-cce3-4a97-9045-68545d64af37"},"vehicle_type_id":"4","last_reported":1758820113,"current_range_meters":9200,"station_id":"ce4bhi12rcd13ifvqfp0","pricing_plan_id":"cebpf4jnsgd1na2vs0mg"},{"bike_id":"c58521a4-7550-473c-a6b4-2c337f27155e","system_id":"levelo_inurba_marseille","lat":43.31565,"lon":5.37369,"is_reserved":false,"is_disabled":false,"rental_uris":{"android":"levelo://app?vid=c58521a4-7550-473c-a6b4-2c337f27155e","ios":"levelo://app?vid=c58521a4-7550-473c-a6b4-2c337f27155e"},"vehicle_type_id":"4","last_reported":1758820113,"current_range_meters":9200,"station_id":"","pricing_plan_id":"cebpf4jnsgd1na2vs0mg"},{"bike_id":"3a83ddcd-ce03-4ed4-a7fa-b273c2464f02","system_id":"levelo_inurba_marseille","lat":43.27942,"lon":5.36366,"is_reserved":false,"is_disabled":false,"rental_uris":{"android":"levelo://app?vid=3a83ddcd-ce03-4ed4-a7fa-b273c2464f02","ios":"levelo://app?vid=3a83ddcd-ce03-4ed4-a7fa-b273c2464f02"},"vehicle_type_id":"4","last_reported":1758820113,"current_range_meters":9200,"station_id":"","pricing_plan_id":"cebpf4jnsgd1na2vs0mg"},{"bike_id":"117acf13-6b03-4ee3-b4a5-edb1f47e11bc","system_id":"levelo_inurba_marseille","lat":43.26827,"lon":5.38727,"is_reserved":false,"is_disabled":false,"rental_uris":{"android":"levelo://app?vid=117acf13-6b03-4ee3-b4a5-edb1f47e11bc","ios":"levelo://app?vid=117acf13-6b03-4ee3-b4a5-edb1f47e11bc"},"vehicle_type_id":"4","last_reported":1758820113,"current_range_meters":9200,"station_id":"","pricing_plan_id":"cebpf4jnsgd1na2vs0mg"},{"bike_id":"5fce8ffc-fd95-4f4d-b23a-c0189e332f0a","system_id":"levelo_inurba_marseille","lat":43.25822,"lon":5.39446,"is_reserved":false,"is_disabled":false,"rental_uris":{"android":"levelo://app?vid=5fce8ffc-fd95-4f4d-b23a-c0189e332f0a","ios":"levelo://app?vid=5fce8ffc-fd95-4f4d-b23a-c0189e332f0a"},"vehicle_type_id":"4","last_reported":1758820113,"current_range_meters":9200,"station_id":"ce4bhip2rcd13ifvqft0","pricing_plan_id":"cebpf4jnsgd1na2vs0mg"},{"bike_id":"8a8c7fd7-fb0a-404c-9330-63e3eecf3e07","system_id":"levelo_inurba_marseille","lat":43.28715,"lon":5.37936,"is_reserved":false,"is_disabled":false,"rental_uris":{"android":"levelo://app?vid=8a8c7fd7-fb0a-404c-9330-63e3eecf3e07","ios":"levelo://app?vid=8a8c7fd7-fb0a-404c-9330-63e3eecf3e07"},"vehicle_type_id":"4","last_reported":1758820113,"current_range_meters":9200,"station_id":"ce4bh9p2rcd13ifvqec0","pricing_plan_id":"cebpf4jnsgd1na2vs0mg"},{"bike_id":"ccf6538a-af01-4bb2-83e2-c572ef81b9a4","system_id":"levelo_inurba_marseille","lat":43.22929,"lon":5.35373,"is_reserved":false,"is_disabled":false,"rental_uris":{"android":"levelo://app?vid=ccf6538a-af01-4bb2-83e2-c572ef81b9a4","ios":"levelo://app?vid=ccf6538a-af01-4bb2-83e2-c572ef81b9a4"},"vehicle_type_id":"4","last_reported":1758820113,"current_range_meters":9600,"station_id":"cpo3532slgdg3j2ikp40","pricing_plan_id":"cebpf4jnsgd1na2vs0mg"},{"bike_id":"d2be082e-bd73-4203-addb-18871b3a9587","system_id":"levelo_inurba_marseille","lat":43.29417,"lon":5.37491,"is_reserved":false,"is_disabled":false,"rental_uris":{"android":"levelo://app?vid=d2be082e-bd73-4203-addb-18871b3a9587","ios":"levelo://app?vid=d2be082e-bd73-4203-addb-18871b3a9587"},"vehicle_type_id":"4","last_reported":1758820113,"current_range_meters":9600,"station_id":"","pricing_plan_id":"cebpf4jnsgd1na2vs0mg"},{"bike_id":"1fe5dc00-0e25-4f33-9668-5781139af736","system_id":"levelo_inurba_marseille","lat":43.25338,"lon":5.42177,"is_reserved":false,"is_disabled":false,"rental_uris":{"android":"levelo://app?vid=1fe5dc00-0e25-4f33-9668-5781139af736","ios":"levelo://app?vid=1fe5dc00-0e25-4f33-9668-5781139af736"},"vehicle_type_id":"4","last_reported":1758820113,"current_range_meters":9600,"station_id":"st_d2m65c5bi1j21697t3ng","pricing_plan_id":"cebpf4jnsgd1na2vs0mg"},{"bike_id":"f64027a6-61e5-4030-86b1-afe77c418b1b","system_id":"levelo_inurba_marseille","lat":43.2694,"lon":5.40254,"is_reserved":false,"is_disabled":false,"rental_uris":{"android":"levelo://app?vid=f64027a6-61e5-4030-86b1-afe77c418b1b","ios":"levelo://app?vid=f64027a6-61e5-4030-86b1-afe77c418b1b"},"vehicle_type_id":"4","last_reported":1758820113,"current_range_meters":9200,"station_id":"cjm6bp8fraef2m0cb0m0","pricing_plan_id":"cebpf4jnsgd1na2vs0mg"},{"bike_id":"0e9ca394-4351-4bf8-a641-f4e5215baf20","system_id":"levelo_inurba_marseille","lat":43.28269,"lon":5.35076,"is_reserved":false,"is_disabled":false,"rental_uris":{"android":"levelo://app?vid=0e9ca394-4351-4bf8-a641-f4e5215baf20","ios":"levelo://app?vid=0e9ca394-4351-4bf8-a641-f4e5215baf20"},"vehicle_type_id":"4","last_reported":1758820113,"current_range_meters":10000,"station_id":"ce4bhbp2rcd13ifvqerg","pricing_plan_id":"cebpf4jnsgd1na2vs0mg"},{"bike_id":"b2c2d7a9-f43e-4dfa-b097-6da79d8a57ca","system_id":"levelo_inurba_marseille","lat":43.32337,"lon":5.40614,"is_reserved":false,"is_disabled":false,"rental_uris":{"android":"levelo://app?vid=b2c2d7a9-f43e-4dfa-b097-6da79d8a57ca","ios":"levelo://app?vid=b2c2d7a9-f43e-4dfa-b097-6da79d8a57ca"},"vehicle_type_id":"4","last_reported":1758820113,"current_range_meters":10000,"station_id":"ce4bhq92rcd13ifvqhjg","pricing_plan_id":"cebpf4jnsgd1na2vs0mg"},{"bike_id":"e70c4585-bbb3-4e69-9f28-c03f9a2a5f3b","system_id":"levelo_inurba_marseille","lat":43.30875,"lon":5.39653,"is_reserved":false,"is_disabled":false,"rental_uris":{"android":"levelo://app?vid=e70c4585-bbb3-4e69-9f28-c03f9a2a5f3b","ios":"levelo://app?vid=e70c4585-bbb3-4e69-9f28-c03f9a2a5f3b"},"vehicle_type_id":"4","last_reported":1758820113,"current_range_meters":10000,"station_id":"ce4bh012rcd13ifvqcv0","pricing_plan_id":"cebpf4jnsgd1na2vs0mg"},{"bike_id":"379911e0-a8b9-4b05-96ac-c75be54d3c45","system_id":"levelo_inurba_marseille","lat":43.28859,"lon":5.42521,"is_reserved":false,"is_disabled":false,"rental_uris":{"android":"levelo://app?vid=379911e0-a8b9-4b05-96ac-c75be54d3c45","ios":"levelo://app?vid=379911e0-a8b9-4b05-96ac-c75be54d3c45"},"vehicle_type_id":"4","last_reported":1758820113,"current_range_meters":10000,"station_id":"","pricing_plan_id":"cebpf4jnsgd1na2vs0mg"},{"bike_id":"0ef81889-2d7f-4e70-b480-0b08f55cbfba","system_id":"levelo_inurba_marseille","lat":43.30844,"lon":5.3685,"is_reserved":false,"is_disabled":false,"rental_uris":{"android":"levelo://app?vid=0ef81889-2d7f-4e70-b480-0b08f55cbfba","ios":"levelo://app?vid=0ef81889-2d7f-4e70-b480-0b08f55cbfba"},"vehicle_type_id":"4","last_reported":1758820113,"current_range_meters":10000,"station_id":"","pricing_plan_id":"cebpf4jnsgd1na2vs0mg"},{"bike_id":"c7142910-6955-448d-a77c-4c79bc12d8e8","system_id":"levelo_inurba_marseille","lat":43.30955,"lon":5.39057,"is_reserved":false,"is_disabled":false,"rental_uris":{"android":"levelo://app?vid=c7142910-6955-448d-a77c-4c79bc12d8e8","ios":"levelo://app?vid=c7142910-6955-448d-a77c-4c79bc12d8e8"},"vehicle_type_id":"4","last_reported":1758820113,"current_range_meters":10800,"station_id":"ce4bgup2rcd13ifvqco0","pricing_plan_id":"cebpf4jnsgd1na2vs0mg"},{"bike_id":"d8b121f0-b58b-4d6f-9eb4-6214397ed117","system_id":"levelo_inurba_marseille","lat":43.29587,"lon":5.38099,"is_reserved":false,"is_disabled":false,"rental_uris":{"android":"levelo://app?vid=d8b121f0-b58b-4d6f-9eb4-6214397ed117","ios":"levelo://app?vid=d8b121f0-b58b-4d6f-9eb4-6214397ed117"},"vehicle_type_id":"4","last_reported":1758820113,"current_range_meters":10800,"station_id":"ce4bgl12rcd13ifvqbo0","pricing_plan_id":"cebpf4jnsgd1na2vs0mg"},{"bike_id":"d4071356-3b27-4712-90fe-44d37fa422bc","system_id":"levelo_inurba_marseille","lat":43.24631,"lon":5.43143,"is_reserved":false,"is_disabled":false,"rental_uris":{"android":"levelo://app?vid=d4071356-3b27-4712-90fe-44d37fa422bc","ios":"levelo://app?vid=d4071356-3b27-4712-90fe-44d37fa422bc"},"vehicle_type_id":"4","last_reported":1758820113,"current_range_meters":10800,"station_id":"st_d2m6c4gdas8pm72e190g","pricing_plan_id":"cebpf4jnsgd1na2vs0mg"},{"bike_id":"d5632eaf-207f-4351-be9c-95c58bc9c538","system_id":"levelo_inurba_marseille","lat":43.29529,"lon":5.37532,"is_reserved":false,"is_disabled":true,"rental_uris":{"android":"levelo://app?vid=d5632eaf-207f-4351-be9c-95c58bc9c538","ios":"levelo://app?vid=d5632eaf-207f-4351-be9c-95c58bc9c538"},"vehicle_type_id":"4","last_reported":1758820113,"current_range_meters":10800,"station_id":"ce4bgkp2rcd13ifvqbmg","pricing_plan_id":"cebpf4jnsgd1na2vs0mg"},{"bike_id":"8eae954c-dab6-4303-94f5-569e1c483f62","system_id":"levelo_inurba_marseille","lat":43.2942,"lon":5.408,"is_reserved":false,"is_disabled":false,"rental_uris":{"android":"levelo://app?vid=8eae954c-dab6-4303-94f5-569e1c483f62","ios":"levelo://app?vid=8eae954c-dab6-4303-94f5-569e1c483f62"},"vehicle_type_id":"4","last_reported":1758820113,"current_range_meters":10800,"station_id":"","pricing_plan_id":"cebpf4jnsgd1na2vs0mg"},{"bike_id":"f32a2903-6973-4fb7-b882-ea0efe201d79","system_id":"levelo_inurba_marseille","lat":43.28262,"lon":5.35069,"is_reserved":false,"is_disabled":false,"rental_uris":{"android":"levelo://app?vid=f32a2903-6973-4fb7-b882-ea0efe201d79","ios":"levelo://app?vid=f32a2903-6973-4fb7-b882-ea0efe201d79"},"vehicle_type_id":"4","last_reported":1758820113,"current_range_meters":16400,"station_id":"ce4bhbp2rcd13ifvqerg","pricing_plan_id":"cebpf4jnsgd1na2vs0mg"},{"bike_id":"3701ec52-ed2d-4cc2-b7e6-4da28a96224e","system_id":"levelo_inurba_marseille","lat":43.27786,"lon":5.40745,"is_reserved":false,"is_disabled":false,"rental_uris":{"android":"levelo://app?vid=3701ec52-ed2d-4cc2-b7e6-4da28a96224e","ios":"levelo://app?vid=3701ec52-ed2d-4cc2-b7e6-4da28a96224e"},"vehicle_type_id":"4","last_reported":1758820113,"current_range_meters":10800,"station_id":"ce4bhnh2rcd13ifvqgtg","pricing_plan_id":"cebpf4jnsgd1na2vs0mg"},{"bike_id":"237c6c1c-3b20-4dcb-82ea-76107a136d3e","system_id":"levelo_inurba_marseille","lat":43.29256,"lon":5.36867,"is_reserved":false,"is_disabled":true,"rental_uris":{"android":"levelo://app?vid=237c6c1c-3b20-4dcb-82ea-76107a136d3e","ios":"levelo://app?vid=237c6c1c-3b20-4dcb-82ea-76107a136d3e"},"vehicle_type_id":"4","last_reported":1758820113,"current_range_meters":10800,"station_id":"ce4bhbp2rcd13ifvqesg","pricing_plan_id":"cebpf4jnsgd1na2vs0mg"},{"bike_id":"a8d1d15d-89c7-424a-b178-acc360251cbd","system_id":"levelo_inurba_marseille","lat":43.29556,"lon":5.37506,"is_reserved":false,"is_disabled":false,"rental_uris":{"android":"levelo://app?vid=a8d1d15d-89c7-424a-b178-acc360251cbd","ios":"levelo://app?vid=a8d1d15d-89c7-424a-b178-acc360251cbd"},"vehicle_type_id":"4","last_reported":1758820113,"current_range_meters":10800,"station_id":"ce4bgh92rcd13ifvqb50","pricing_plan_id":"cebpf4jnsgd1na2vs0mg"},{"bike_id":"8584eb3e-f7b4-4300-97fe-005a37d8d75b","system_id":"levelo_inurba_marseille","lat":43.36825,"lon":5.36323,"is_reserved":false,"is_disabled":false,"rental_uris":{"android":"levelo://app?vid=8584eb3e-f7b4-4300-97fe-005a37d8d75b","ios":"levelo://app?vid=8584eb3e-f7b4-4300-97fe-005a37d8d75b"},"vehicle_type_id":"4","last_reported":1758820113,"current_range_meters":10800,"station_id":"","pricing_plan_id":"cebpf4jnsgd1na2vs0mg"},{"bike_id":"e0743704-7818-4890-b84f-ccfe857d291e","system_id":"levelo_inurba_marseille","lat":43.278123,"lon":5.407027,"is_reserved":false,"is_disabled":false,"rental_uris":{"android":"levelo://app?vid=e0743704-7818-4890-b84f-ccfe857d291e","ios":"levelo://app?vid=e0743704-7818-4890-b84f-ccfe857d291e"},"vehicle_type_id":"4","last_reported":1758820113,"current_range_meters":11200,"station_id":"ce4bhnh2rcd13ifvqgtg","pricing_plan_id":"cebpf4jnsgd1na2vs0mg"},{"bike_id":"bb040171-0e65-4d07-8e36-3f6e85f98508","system_id":"levelo_inurba_marseille","lat":43.25319,"lon":5.42176,"is_reserved":false,"is_disabled":false,"rental_uris":{"android":"levelo://app?vid=bb040171-0e65-4d07-8e36-3f6e85f98508","ios":"levelo://app?vid=bb040171-0e65-4d07-8e36-3f6e85f98508"},"vehicle_type_id":"4","last_reported":1758820113,"current_range_meters":11200,"station_id":"st_d2m65c5bi1j21697t3ng","pricing_plan_id":"cebpf4jnsgd1na2vs0mg"},{"bike_id":"02212ec5-e517-4a4c-bf69-5117e317eb1a","system_id":"levelo_inurba_marseille","lat":43.32095,"lon":5.36795,"is_reserved":false,"is_disabled":false,"rental_uris":{"android":"levelo://app?vid=02212ec5-e517-4a4c-bf69-5117e317eb1a","ios":"levelo://app?vid=02212ec5-e517-4a4c-bf69-5117e317eb1a"},"vehicle_type_id":"4","last_reported":1758820113,"current_range_meters":12800,"station_id":"ce4bhrh2rcd13ifvqhug","pricing_plan_id":"cebpf4jnsgd1na2vs0mg"},{"bike_id":"c016be73-2e70-4cbd-997e-37aa111dcf4d","system_id":"levelo_inurba_marseille","lat":43.30142,"lon":5.38071,"is_reserved":false,"is_disabled":false,"rental_uris":{"android":"levelo://app?vid=c016be73-2e70-4cbd-997e-37aa111dcf4d","ios":"levelo://app?vid=c016be73-2e70-4cbd-997e-37aa111dcf4d"},"vehicle_type_id":"4","last_reported":1758820113,"current_range_meters":11200,"station_id":"ce4bgjp2rcd13ifvqbh0","pricing_plan_id":"cebpf4jnsgd1na2vs0mg"},{"bike_id":"1d83c96d-d874-4e8c-bc91-af13c750bf6c","system_id":"levelo_inurba_marseille","lat":43.265673,"lon":5.403262,"is_reserved":false,"is_disabled":false,"rental_uris":{"android":"levelo://app?vid=1d83c96d-d874-4e8c-bc91-af13c750bf6c","ios":"levelo://app?vid=1d83c96d-d874-4e8c-bc91-af13c750bf6c"},"vehicle_type_id":"4","last_reported":1758820113,"current_range_meters":11200,"station_id":"ce4bhmp2rcd13ifvqgng","pricing_plan_id":"cebpf4jnsgd1na2vs0mg"},{"bike_id":"0fa25639-03ac-45c7-b903-02a196ec8bed","system_id":"levelo_inurba_marseille","lat":43.24619,"lon":5.43164,"is_reserved":false,"is_disabled":false,"rental_uris":{"android":"levelo://app?vid=0fa25639-03ac-45c7-b903-02a196ec8bed","ios":"levelo://app?vid=0fa25639-03ac-45c7-b903-02a196ec8bed"},"vehicle_type_id":"4","last_reported":1758820113,"current_range_meters":11200,"station_id":"st_d2m6c4gdas8pm72e190g","pricing_plan_id":"cebpf4jnsgd1na2vs0mg"},{"bike_id":"bdec3261-de13-477f-818b-7af8ae1d1f6a","system_id":"levelo_inurba_marseille","lat":43.23956,"lon":5.37653,"is_reserved":false,"is_disabled":false,"rental_uris":{"android":"levelo://app?vid=bdec3261-de13-477f-818b-7af8ae1d1f6a","ios":"levelo://app?vid=bdec3261-de13-477f-818b-7af8ae1d1f6a"},"vehicle_type_id":"4","last_reported":1758820113,"current_range_meters":11200,"station_id":"","pricing_plan_id":"cebpf4jnsgd1na2vs0mg"},{"bike_id":"9fd15e46-d713-423e-ab94-b5de949787aa","system_id":"levelo_inurba_marseille","lat":43.26558,"lon":5.37298,"is_reserved":false,"is_disabled":false,"rental_uris":{"android":"levelo://app?vid=9fd15e46-d713-423e-ab94-b5de949787aa","ios":"levelo://app?vid=9fd15e46-d713-423e-ab94-b5de949787aa"},"vehicle_type_id":"4","last_reported":1758820113,"current_range_meters":11200,"station_id":"ce4bhg12rcd13ifvqf70","pricing_plan_id":"cebpf4jnsgd1na2vs0mg"},{"bike_id":"b30b6fbe-146e-4097-a942-67a3b0d28a20","system_id":"levelo_inurba_marseille","lat":43.28268,"lon":5.35065,"is_reserved":false,"is_disabled":false,"rental_uris":{"android":"levelo://app?vid=b30b6fbe-146e-4097-a942-67a3b0d28a20","ios":"levelo://app?vid=b30b6fbe-146e-4097-a942-67a3b0d28a20"},"vehicle_type_id":"4","last_reported":1758820113,"current_range_meters":11200,"station_id":"ce4bhbp2rcd13ifvqerg","pricing_plan_id":"cebpf4jnsgd1na2vs0mg"},{"bike_id":"003515e8-8117-44bb-979d-5f47e8d50fda","system_id":"levelo_inurba_marseille","lat":43.30633,"lon":5.37572,"is_reserved":false,"is_disabled":false,"rental_uris":{"android":"levelo://app?vid=003515e8-8117-44bb-979d-5f47e8d50fda","ios":"levelo://app?vid=003515e8-8117-44bb-979d-5f47e8d50fda"},"vehicle_type_id":"4","last_reported":1758820113,"current_range_meters":11600,"station_id":"","pricing_plan_id":"cebpf4jnsgd1na2vs0mg"},{"bike_id":"91a7af58-e5b6-4061-9925-7ba6efc20e01","system_id":"levelo_inurba_marseille","lat":43.28133,"lon":5.42649,"is_reserved":false,"is_disabled":false,"rental_uris":{"android":"levelo://app?vid=91a7af58-e5b6-4061-9925-7ba6efc20e01","ios":"levelo://app?vid=91a7af58-e5b6-4061-9925-7ba6efc20e01"},"vehicle_type_id":"4","last_reported":1758820113,"current_range_meters":11600,"station_id":"ce4bhnh2rcd13ifvqgug","pricing_plan_id":"cebpf4jnsgd1na2vs0mg"},{"bike_id":"46923300-e0d3-40c1-8c76-7dadc761100f","system_id":"levelo_inurba_marseille","lat":43.28932,"lon":5.35634,"is_reserved":false,"is_disabled":false,"rental_uris":{"android":"levelo://app?vid=46923300-e0d3-40c1-8c76-7dadc761100f","ios":"levelo://app?vid=46923300-e0d3-40c1-8c76-7dadc761100f"},"vehicle_type_id":"4","last_reported":1758820113,"current_range_meters":11600,"station_id":"ce4bhb92rcd13ifvqen0","pricing_plan_id":"cebpf4jnsgd1na2vs0mg"},{"bike_id":"212de2eb-8bbc-413c-b204-9fe1facd76e8","system_id":"levelo_inurba_marseille","lat":43.31316,"lon":5.37821,"is_reserved":false,"is_disabled":false,"rental_uris":{"android":"levelo://app?vid=212de2eb-8bbc-413c-b204-9fe1facd76e8","ios":"levelo://app?vid=212de2eb-8bbc-413c-b204-9fe1facd76e8"},"vehicle_type_id":"4","last_reported":1758820113,"current_range_meters":11600,"station_id":"","pricing_plan_id":"cebpf4jnsgd1na2vs0mg"},{"bike_id":"82681877-2398-4814-baf7-8de5d4bb8db8","system_id":"levelo_inurba_marseille","lat":43.28152,"lon":5.42646,"is_reserved":false,"is_disabled":false,"rental_uris":{"android":"levelo://app?vid=82681877-2398-4814-baf7-8de5d4bb8db8","ios":"levelo://app?vid=82681877-2398-4814-baf7-8de5d4bb8db8"},"vehicle_type_id":"4","last_reported":1758820113,"current_range_meters":12000,"station_id":"ce4bhnh2rcd13ifvqgug","pricing_plan_id":"cebpf4jnsgd1na2vs0mg"},{"bike_id":"3e795a56-fcd5-414a-824d-13838a97cb44","system_id":"levelo_inurba_marseille","lat":43.24168,"lon":5.36403,"is_reserved":false,"is_disabled":false,"rental_uris":{"android":"levelo://app?vid=3e795a56-fcd5-414a-824d-13838a97cb44","ios":"levelo://app?vid=3e795a56-fcd5-414a-824d-13838a97cb44"},"vehicle_type_id":"4","last_reported":1758820113,"current_range_meters":12000,"station_id":"cpo36qri1sfpv3e86is0","pricing_plan_id":"cebpf4jnsgd1na2vs0mg"},{"bike_id":"e5265214-0cb4-4473-b4e0-377069ff3c69","system_id":"levelo_inurba_marseille","lat":43.32537,"lon":5.41434,"is_reserved":false,"is_disabled":false,"rental_uris":{"android":"levelo://app?vid=e5265214-0cb4-4473-b4e0-377069ff3c69","ios":"levelo://app?vid=e5265214-0cb4-4473-b4e0-377069ff3c69"},"vehicle_type_id":"4","last_reported":1758820113,"current_range_meters":11600,"station_id":"ce4bhq12rcd13ifvqhhg","pricing_plan_id":"cebpf4jnsgd1na2vs0mg"},{"bike_id":"2bd2a176-8590-4e06-8b8c-a96b49b7b36a","system_id":"levelo_inurba_marseille","lat":43.242409,"lon":5.41085,"is_reserved":false,"is_disabled":false,"rental_uris":{"android":"levelo://app?vid=2bd2a176-8590-4e06-8b8c-a96b49b7b36a","ios":"levelo://app?vid=2bd2a176-8590-4e06-8b8c-a96b49b7b36a"},"vehicle_type_id":"4","last_reported":1758820113,"current_range_meters":12000,"station_id":"","pricing_plan_id":"cebpf4jnsgd1na2vs0mg"},{"bike_id":"5ec638a0-1d30-4474-9763-16cdfc108fb0","system_id":"levelo_inurba_marseille","lat":43.29195,"lon":5.35803,"is_reserved":false,"is_disabled":false,"rental_uris":{"android":"levelo://app?vid=5ec638a0-1d30-4474-9763-16cdfc108fb0","ios":"levelo://app?vid=5ec638a0-1d30-4474-9763-16cdfc108fb0"},"vehicle_type_id":"4","last_reported":1758820113,"current_range_meters":11600,"station_id":"ce4bhb12rcd13ifvqel0","pricing_plan_id":"cebpf4jnsgd1na2vs0mg"},{"bike_id":"2398e714-da7f-4f0e-a401-0b08570bddf3","system_id":"levelo_inurba_marseille","lat":43.3211,"lon":5.36778,"is_reserved":false,"is_disabled":false,"rental_uris":{"android":"levelo://app?vid=2398e714-da7f-4f0e-a401-0b08570bddf3","ios":"levelo://app?vid=2398e714-da7f-4f0e-a401-0b08570bddf3"},"vehicle_type_id":"4","last_reported":1758820113,"current_range_meters":12000,"station_id":"ce4bhrh2rcd13ifvqhug","pricing_plan_id":"cebpf4jnsgd1na2vs0mg"},{"bike_id":"f9af076b-c426-46f0-97f6-f6a5a530c8e2","system_id":"levelo_inurba_marseille","lat":43.33058,"lon":5.39447,"is_reserved":false,"is_disabled":false,"rental_uris":{"android":"levelo://app?vid=f9af076b-c426-46f0-97f6-f6a5a530c8e2","ios":"levelo://app?vid=f9af076b-c426-46f0-97f6-f6a5a530c8e2"},"vehicle_type_id":"4","last_reported":1758820113,"current_range_meters":12000,"station_id":"","pricing_plan_id":"cebpf4jnsgd1na2vs0mg"},{"bike_id":"9957286a-78bd-4512-a2e9-c89373c449b0","system_id":"levelo_inurba_marseille","lat":43.23183,"lon":5.39977,"is_reserved":false,"is_disabled":false,"rental_uris":{"android":"levelo://app?vid=9957286a-78bd-4512-a2e9-c89373c449b0","ios":"levelo://app?vid=9957286a-78bd-4512-a2e9-c89373c449b0"},"vehicle_type_id":"4","last_reported":1758820113,"current_range_meters":12000,"station_id":"ce4bhn12rcd13ifvqgqg","pricing_plan_id":"cebpf4jnsgd1na2vs0mg"},{"bike_id":"bfd3b0dd-6d98-49f5-9f78-384c1bb1b8d2","system_id":"levelo_inurba_marseille","lat":43.3033,"lon":5.40464,"is_reserved":false,"is_disabled":false,"rental_uris":{"android":"levelo://app?vid=bfd3b0dd-6d98-49f5-9f78-384c1bb1b8d2","ios":"levelo://app?vid=bfd3b0dd-6d98-49f5-9f78-384c1bb1b8d2"},"vehicle_type_id":"4","last_reported":1758820113,"current_range_meters":12400,"station_id":"ce4bh012rcd13ifvqd10","pricing_plan_id":"cebpf4jnsgd1na2vs0mg"},{"bike_id":"416990ab-f2c2-4b98-9bdb-f39c5db1101e","system_id":"levelo_inurba_marseille","lat":43.280547,"lon":5.387384,"is_reserved":false,"is_disabled":false,"rental_uris":{"android":"levelo://app?vid=416990ab-f2c2-4b98-9bdb-f39c5db1101e","ios":"levelo://app?vid=416990ab-f2c2-4b98-9bdb-f39c5db1101e"},"vehicle_type_id":"4","last_reported":1758820113,"current_range_meters":12400,"station_id":"ce4bh512rcd13ifvqe3g","pricing_plan_id":"cebpf4jnsgd1na2vs0mg"},{"bike_id":"3f684a8e-2905-43ff-98e1-3b9269e155b7","system_id":"levelo_inurba_marseille","lat":43.29617,"lon":5.37155,"is_reserved":false,"is_disabled":false,"rental_uris":{"android":"levelo://app?vid=3f684a8e-2905-43ff-98e1-3b9269e155b7","ios":"levelo://app?vid=3f684a8e-2905-43ff-98e1-3b9269e155b7"},"vehicle_type_id":"4","last_reported":1758820113,"current_range_meters":12000,"station_id":"ce4bgnh2rcd13ifvqc0g","pricing_plan_id":"cebpf4jnsgd1na2vs0mg"},{"bike_id":"f302ba5e-3fac-4bd9-9081-194d5ee2f951","system_id":"levelo_inurba_marseille","lat":43.29003,"lon":5.35611,"is_reserved":false,"is_disabled":false,"rental_uris":{"android":"levelo://app?vid=f302ba5e-3fac-4bd9-9081-194d5ee2f951","ios":"levelo://app?vid=f302ba5e-3fac-4bd9-9081-194d5ee2f951"},"vehicle_type_id":"4","last_reported":1758820113,"current_range_meters":12000,"station_id":"ce4bhb92rcd13ifvqen0","pricing_plan_id":"cebpf4jnsgd1na2vs0mg"},{"bike_id":"38b543a9-c144-40b4-9a94-57041d2649ac","system_id":"levelo_inurba_marseille","lat":43.27997,"lon":5.41663,"is_reserved":false,"is_disabled":false,"rental_uris":{"android":"levelo://app?vid=38b543a9-c144-40b4-9a94-57041d2649ac","ios":"levelo://app?vid=38b543a9-c144-40b4-9a94-57041d2649ac"},"vehicle_type_id":"4","last_reported":1758820113,"current_range_meters":12400,"station_id":"ce4bho12rcd13ifvqh1g","pricing_plan_id":"cebpf4jnsgd1na2vs0mg"},{"bike_id":"ca7597b9-74a8-46f1-828b-2ed96ed36bbf","system_id":"levelo_inurba_marseille","lat":43.2815,"lon":5.4265,"is_reserved":false,"is_disabled":false,"rental_uris":{"android":"levelo://app?vid=ca7597b9-74a8-46f1-828b-2ed96ed36bbf","ios":"levelo://app?vid=ca7597b9-74a8-46f1-828b-2ed96ed36bbf"},"vehicle_type_id":"4","last_reported":1758820113,"current_range_meters":12400,"station_id":"ce4bhnh2rcd13ifvqgug","pricing_plan_id":"cebpf4jnsgd1na2vs0mg"},{"bike_id":"fda5da04-cd5a-483f-adf1-fc8ab71eb87b","system_id":"levelo_inurba_marseille","lat":43.27389,"lon":5.36269,"is_reserved":false,"is_disabled":false,"rental_uris":{"android":"levelo://app?vid=fda5da04-cd5a-483f-adf1-fc8ab71eb87b","ios":"levelo://app?vid=fda5da04-cd5a-483f-adf1-fc8ab71eb87b"},"vehicle_type_id":"4","last_reported":1758820113,"current_range_meters":12800,"station_id":"ce4bhbh2rcd13ifvqeo0","pricing_plan_id":"cebpf4jnsgd1na2vs0mg"},{"bike_id":"e4d01aa9-5d3f-4233-9922-5f658be9ab60","system_id":"levelo_inurba_marseille","lat":43.27813,"lon":5.40728,"is_reserved":false,"is_disabled":false,"rental_uris":{"android":"levelo://app?vid=e4d01aa9-5d3f-4233-9922-5f658be9ab60","ios":"levelo://app?vid=e4d01aa9-5d3f-4233-9922-5f658be9ab60"},"vehicle_type_id":"4","last_reported":1758820113,"current_range_meters":12800,"station_id":"ce4bhnh2rcd13ifvqgtg","pricing_plan_id":"cebpf4jnsgd1na2vs0mg"},{"bike_id":"1c27f7d4-507d-43e2-b324-44f5e35dee72","system_id":"levelo_inurba_marseille","lat":43.32219,"lon":5.39408,"is_reserved":false,"is_disabled":false,"rental_uris":{"android":"levelo://app?vid=1c27f7d4-507d-43e2-b324-44f5e35dee72","ios":"levelo://app?vid=1c27f7d4-507d-43e2-b324-44f5e35dee72"},"vehicle_type_id":"4","last_reported":1758820113,"current_range_meters":12800,"station_id":"","pricing_plan_id":"cebpf4jnsgd1na2vs0mg"},{"bike_id":"2e22e098-1e6e-4376-9dcc-d2faf4d95e30","system_id":"levelo_inurba_marseille","lat":43.29537,"lon":5.37817,"is_reserved":false,"is_disabled":false,"rental_uris":{"android":"levelo://app?vid=2e22e098-1e6e-4376-9dcc-d2faf4d95e30","ios":"levelo://app?vid=2e22e098-1e6e-4376-9dcc-d2faf4d95e30"},"vehicle_type_id":"4","last_reported":1758820113,"current_range_meters":12800,"station_id":"","pricing_plan_id":"cebpf4jnsgd1na2vs0mg"},{"bike_id":"d31d856a-933d-49cf-948f-ce03657dfc74","system_id":"levelo_inurba_marseille","lat":43.28427,"lon":5.35009,"is_reserved":false,"is_disabled":false,"rental_uris":{"android":"levelo://app?vid=d31d856a-933d-49cf-948f-ce03657dfc74","ios":"levelo://app?vid=d31d856a-933d-49cf-948f-ce03657dfc74"},"vehicle_type_id":"4","last_reported":1758820113,"current_range_meters":12800,"station_id":"ce4bhbh2rcd13ifvqepg","pricing_plan_id":"cebpf4jnsgd1na2vs0mg"},{"bike_id":"8b27751b-e1a0-4474-a344-63acee010cf7","system_id":"levelo_inurba_marseille","lat":43.31995,"lon":5.38159,"is_reserved":false,"is_disabled":false,"rental_uris":{"android":"levelo://app?vid=8b27751b-e1a0-4474-a344-63acee010cf7","ios":"levelo://app?vid=8b27751b-e1a0-4474-a344-63acee010cf7"},"vehicle_type_id":"4","last_reported":1758820113,"current_range_meters":12800,"station_id":"ce4bhr12rcd13ifvqhpg","pricing_plan_id":"cebpf4jnsgd1na2vs0mg"},{"bike_id":"d52d13af-4e95-414f-b151-12efe40cbd67","system_id":"levelo_inurba_marseille","lat":43.29264,"lon":5.38438,"is_reserved":false,"is_disabled":false,"rental_uris":{"android":"levelo://app?vid=d52d13af-4e95-414f-b151-12efe40cbd67","ios":"levelo://app?vid=d52d13af-4e95-414f-b151-12efe40cbd67"},"vehicle_type_id":"4","last_reported":1758820113,"current_range_meters":12800,"station_id":"ce4bh692rcd13ifvqea0","pricing_plan_id":"cebpf4jnsgd1na2vs0mg"},{"bike_id":"96c55bcf-90b7-4618-9025-978539f925b5","system_id":"levelo_inurba_marseille","lat":43.32355,"lon":5.36763,"is_reserved":false,"is_disabled":false,"rental_uris":{"android":"levelo://app?vid=96c55bcf-90b7-4618-9025-978539f925b5","ios":"levelo://app?vid=96c55bcf-90b7-4618-9025-978539f925b5"},"vehicle_type_id":"4","last_reported":1758820113,"current_range_meters":12800,"station_id":"ce4bhsh2rcd13ifvqi2g","pricing_plan_id":"cebpf4jnsgd1na2vs0mg"},{"bike_id":"58d141dc-2aed-4c44-84c1-601a3f85ee46","system_id":"levelo_inurba_marseille","lat":43.337444,"lon":5.374475,"is_reserved":false,"is_disabled":false,"rental_uris":{"android":"levelo://app?vid=58d141dc-2aed-4c44-84c1-601a3f85ee46","ios":"levelo://app?vid=58d141dc-2aed-4c44-84c1-601a3f85ee46"},"vehicle_type_id":"4","last_reported":1758820113,"current_range_meters":12800,"station_id":"","pricing_plan_id":"cebpf4jnsgd1na2vs0mg"},{"bike_id":"402b573d-229b-4b0e-977a-075c271e85c6","system_id":"levelo_inurba_marseille","lat":43.28862,"lon":5.42532,"is_reserved":false,"is_disabled":false,"rental_uris":{"android":"levelo://app?vid=402b573d-229b-4b0e-977a-075c271e85c6","ios":"levelo://app?vid=402b573d-229b-4b0e-977a-075c271e85c6"},"vehicle_type_id":"4","last_reported":1758820113,"current_range_meters":13600,"station_id":"","pricing_plan_id":"cebpf4jnsgd1na2vs0mg"},{"bike_id":"f897d300-643c-4c7a-951b-f56d70ef23ca","system_id":"levelo_inurba_marseille","lat":43.30316,"lon":5.39094,"is_reserved":false,"is_disabled":false,"rental_uris":{"android":"levelo://app?vid=f897d300-643c-4c7a-951b-f56d70ef23ca","ios":"levelo://app?vid=f897d300-643c-4c7a-951b-f56d70ef23ca"},"vehicle_type_id":"4","last_reported":1758820113,"current_range_meters":13600,"station_id":"","pricing_plan_id":"cebpf4jnsgd1na2vs0mg"},{"bike_id":"0d5ffd0b-1666-41c0-98c2-7435631dc3a0","system_id":"levelo_inurba_marseille","lat":43.30947,"lon":5.39023,"is_reserved":false,"is_disabled":false,"rental_uris":{"android":"levelo://app?vid=0d5ffd0b-1666-41c0-98c2-7435631dc3a0","ios":"levelo://app?vid=0d5ffd0b-1666-41c0-98c2-7435631dc3a0"},"vehicle_type_id":"4","last_reported":1758820113,"current_range_meters":12800,"station_id":"ce4bgup2rcd13ifvqco0","pricing_plan_id":"cebpf4jnsgd1na2vs0mg"},{"bike_id":"c5ab64bf-78c4-42cd-8ad8-d5c54f85cca0","system_id":"levelo_inurba_marseille","lat":43.29232,"lon":5.38485,"is_reserved":false,"is_disabled":true,"rental_uris":{"android":"levelo://app?vid=c5ab64bf-78c4-42cd-8ad8-d5c54f85cca0","ios":"levelo://app?vid=c5ab64bf-78c4-42cd-8ad8-d5c54f85cca0"},"vehicle_type_id":"4","last_reported":1758820113,"current_range_meters":13600,"station_id":"","pricing_plan_id":"cebpf4jnsgd1na2vs0mg"},{"bike_id":"c1510c6e-432b-49af-bffd-1645113efa6a","system_id":"levelo_inurba_marseille","lat":43.28374,"lon":5.38628,"is_reserved":false,"is_disabled":false,"rental_uris":{"android":"levelo://app?vid=c1510c6e-432b-49af-bffd-1645113efa6a","ios":"levelo://app?vid=c1510c6e-432b-49af-bffd-1645113efa6a"},"vehicle_type_id":"4","last_reported":1758820113,"current_range_meters":11600,"station_id":"ce4bh492rcd13ifvqdvg","pricing_plan_id":"cebpf4jnsgd1na2vs0mg"},{"bike_id":"6eb6bfc8-b6f6-4b63-8c32-a93d390996d8","system_id":"levelo_inurba_marseille","lat":43.281,"lon":5.37849,"is_reserved":false,"is_disabled":false,"rental_uris":{"android":"levelo://app?vid=6eb6bfc8-b6f6-4b63-8c32-a93d390996d8","ios":"levelo://app?vid=6eb6bfc8-b6f6-4b63-8c32-a93d390996d8"},"vehicle_type_id":"4","last_reported":1758820113,"current_range_meters":13600,"station_id":"ce4bha12rcd13ifvqee0","pricing_plan_id":"cebpf4jnsgd1na2vs0mg"},{"bike_id":"3731e4b4-e57b-4ad8-affe-801decac42ca","system_id":"levelo_inurba_marseille","lat":43.24949,"lon":5.40521,"is_reserved":false,"is_disabled":false,"rental_uris":{"android":"levelo://app?vid=3731e4b4-e57b-4ad8-affe-801decac42ca","ios":"levelo://app?vid=3731e4b4-e57b-4ad8-affe-801decac42ca"},"vehicle_type_id":"4","last_reported":1758820113,"current_range_meters":13600,"station_id":"st_d2ngiaodas8pm72gd1h0","pricing_plan_id":"cebpf4jnsgd1na2vs0mg"},{"bike_id":"e5303607-da03-4ac7-b81e-b332ede84cf7","system_id":"levelo_inurba_marseille","lat":43.31284,"lon":5.37825,"is_reserved":false,"is_disabled":false,"rental_uris":{"android":"levelo://app?vid=e5303607-da03-4ac7-b81e-b332ede84cf7","ios":"levelo://app?vid=e5303607-da03-4ac7-b81e-b332ede84cf7"},"vehicle_type_id":"4","last_reported":1758820113,"current_range_meters":13600,"station_id":"","pricing_plan_id":"cebpf4jnsgd1na2vs0mg"},{"bike_id":"358b5bd0-bd1a-4b9c-b0d1-08dbb5ab85b3","system_id":"levelo_inurba_marseille","lat":43.27058,"lon":5.40284,"is_reserved":false,"is_disabled":false,"rental_uris":{"android":"levelo://app?vid=358b5bd0-bd1a-4b9c-b0d1-08dbb5ab85b3","ios":"levelo://app?vid=358b5bd0-bd1a-4b9c-b0d1-08dbb5ab85b3"},"vehicle_type_id":"4","last_reported":1758820113,"current_range_meters":14000,"station_id":"ce4bhk92rcd13ifvqgc0","pricing_plan_id":"cebpf4jnsgd1na2vs0mg"},{"bike_id":"ee9cdde6-9a7a-4669-a6f2-394f2509b696","system_id":"levelo_inurba_marseille","lat":43.29186,"lon":5.35805,"is_reserved":false,"is_disabled":false,"rental_uris":{"android":"levelo://app?vid=ee9cdde6-9a7a-4669-a6f2-394f2509b696","ios":"levelo://app?vid=ee9cdde6-9a7a-4669-a6f2-394f2509b696"},"vehicle_type_id":"4","last_reported":1758820113,"current_range_meters":8400,"station_id":"ce4bhb12rcd13ifvqel0","pricing_plan_id":"cebpf4jnsgd1na2vs0mg"},{"bike_id":"c7f6a08b-c655-4213-b2ba-7d02e7f382fe","system_id":"levelo_inurba_marseille","lat":43.27988,"lon":5.39483,"is_reserved":false,"is_disabled":false,"rental_uris":{"android":"levelo://app?vid=c7f6a08b-c655-4213-b2ba-7d02e7f382fe","ios":"levelo://app?vid=c7f6a08b-c655-4213-b2ba-7d02e7f382fe"},"vehicle_type_id":"4","last_reported":1758820113,"current_range_meters":14000,"station_id":"","pricing_plan_id":"cebpf4jnsgd1na2vs0mg"},{"bike_id":"516548f4-efe3-4545-a721-bb03f8f9d7d2","system_id":"levelo_inurba_marseille","lat":43.29442,"lon":5.39755,"is_reserved":false,"is_disabled":false,"rental_uris":{"android":"levelo://app?vid=516548f4-efe3-4545-a721-bb03f8f9d7d2","ios":"levelo://app?vid=516548f4-efe3-4545-a721-bb03f8f9d7d2"},"vehicle_type_id":"4","last_reported":1758820113,"current_range_meters":14800,"station_id":"ce4bh3h2rcd13ifvqdo0","pricing_plan_id":"cebpf4jnsgd1na2vs0mg"},{"bike_id":"51f055c0-cd9c-42ff-a75a-9f0f9b45a95a","system_id":"levelo_inurba_marseille","lat":43.298026,"lon":5.381139,"is_reserved":false,"is_disabled":false,"rental_uris":{"android":"levelo://app?vid=51f055c0-cd9c-42ff-a75a-9f0f9b45a95a","ios":"levelo://app?vid=51f055c0-cd9c-42ff-a75a-9f0f9b45a95a"},"vehicle_type_id":"4","last_reported":1758820113,"current_range_meters":14400,"station_id":"ce4bgip2rcd13ifvqbb0","pricing_plan_id":"cebpf4jnsgd1na2vs0mg"},{"bike_id":"1e3d6554-6c8d-4bda-9015-b0fe6bd06171","system_id":"levelo_inurba_marseille","lat":43.29628,"lon":5.37713,"is_reserved":false,"is_disabled":false,"rental_uris":{"android":"levelo://app?vid=1e3d6554-6c8d-4bda-9015-b0fe6bd06171","ios":"levelo://app?vid=1e3d6554-6c8d-4bda-9015-b0fe6bd06171"},"vehicle_type_id":"4","last_reported":1758820113,"current_range_meters":14400,"station_id":"ce4bgi92rcd13ifvqb90","pricing_plan_id":"cebpf4jnsgd1na2vs0mg"},{"bike_id":"753836e2-5a37-4520-bbfb-71019bfd6e12","system_id":"levelo_inurba_marseille","lat":43.28406,"lon":5.34993,"is_reserved":false,"is_disabled":false,"rental_uris":{"android":"levelo://app?vid=753836e2-5a37-4520-bbfb-71019bfd6e12","ios":"levelo://app?vid=753836e2-5a37-4520-bbfb-71019bfd6e12"},"vehicle_type_id":"4","last_reported":1758820113,"current_range_meters":14400,"station_id":"ce4bhbh2rcd13ifvqepg","pricing_plan_id":"cebpf4jnsgd1na2vs0mg"},{"bike_id":"041cd397-24ab-4e04-af23-07b961e161f4","system_id":"levelo_inurba_marseille","lat":43.337444,"lon":5.374475,"is_reserved":false,"is_disabled":false,"rental_uris":{"android":"levelo://app?vid=041cd397-24ab-4e04-af23-07b961e161f4","ios":"levelo://app?vid=041cd397-24ab-4e04-af23-07b961e161f4"},"vehicle_type_id":"4","last_reported":1758820113,"current_range_meters":14400,"station_id":"","pricing_plan_id":"cebpf4jnsgd1na2vs0mg"},{"bike_id":"d0ef7eb7-94fc-4901-ae28-15917327da6a","system_id":"levelo_inurba_marseille","lat":43.29534,"lon":5.38536,"is_reserved":false,"is_disabled":false,"rental_uris":{"android":"levelo://app?vid=d0ef7eb7-94fc-4901-ae28-15917327da6a","ios":"levelo://app?vid=d0ef7eb7-94fc-4901-ae28-15917327da6a"},"vehicle_type_id":"4","last_reported":1758820113,"current_range_meters":14800,"station_id":"ce4bgih2rcd13ifvqba0","pricing_plan_id":"cebpf4jnsgd1na2vs0mg"},{"bike_id":"f5ed8a80-fa50-41c7-af2c-1d0772550a93","system_id":"levelo_inurba_marseille","lat":43.25582,"lon":5.38225,"is_reserved":false,"is_disabled":false,"rental_uris":{"android":"levelo://app?vid=f5ed8a80-fa50-41c7-af2c-1d0772550a93","ios":"levelo://app?vid=f5ed8a80-fa50-41c7-af2c-1d0772550a93"},"vehicle_type_id":"4","last_reported":1758820113,"current_range_meters":14800,"station_id":"ce4bhih2rcd13ifvqfs0","pricing_plan_id":"cebpf4jnsgd1na2vs0mg"},{"bike_id":"d734f0f7-bb82-4cbc-9571-824c32d91d22","system_id":"levelo_inurba_marseille","lat":43.24167,"lon":5.36402,"is_reserved":false,"is_disabled":false,"rental_uris":{"android":"levelo://app?vid=d734f0f7-bb82-4cbc-9571-824c32d91d22","ios":"levelo://app?vid=d734f0f7-bb82-4cbc-9571-824c32d91d22"},"vehicle_type_id":"4","last_reported":1758820113,"current_range_meters":14800,"station_id":"cpo36qri1sfpv3e86is0","pricing_plan_id":"cebpf4jnsgd1na2vs0mg"},{"bike_id":"22bf3c2f-49e7-49d5-a3f3-d66c7e9b2df5","system_id":"levelo_inurba_marseille","lat":43.26544,"lon":5.39046,"is_reserved":false,"is_disabled":false,"rental_uris":{"android":"levelo://app?vid=22bf3c2f-49e7-49d5-a3f3-d66c7e9b2df5","ios":"levelo://app?vid=22bf3c2f-49e7-49d5-a3f3-d66c7e9b2df5"},"vehicle_type_id":"4","last_reported":1758820113,"current_range_meters":14800,"station_id":"ce4bhe12rcd13ifvqf30","pricing_plan_id":"cebpf4jnsgd1na2vs0mg"},{"bike_id":"6311fd5a-be25-49a2-8577-05c71aff55a7","system_id":"levelo_inurba_marseille","lat":43.28858,"lon":5.38458,"is_reserved":false,"is_disabled":false,"rental_uris":{"android":"levelo://app?vid=6311fd5a-be25-49a2-8577-05c71aff55a7","ios":"levelo://app?vid=6311fd5a-be25-49a2-8577-05c71aff55a7"},"vehicle_type_id":"4","last_reported":1758820113,"current_range_meters":14800,"station_id":"","pricing_plan_id":"cebpf4jnsgd1na2vs0mg"},{"bike_id":"2de9aed9-21fd-4a30-8bc2-1db9c1b575af","system_id":"levelo_inurba_marseille","lat":43.26933,"lon":5.40281,"is_reserved":false,"is_disabled":false,"rental_uris":{"android":"levelo://app?vid=2de9aed9-21fd-4a30-8bc2-1db9c1b575af","ios":"levelo://app?vid=2de9aed9-21fd-4a30-8bc2-1db9c1b575af"},"vehicle_type_id":"4","last_reported":1758820113,"current_range_meters":15200,"station_id":"cjm6bp8fraef2m0cb0m0","pricing_plan_id":"cebpf4jnsgd1na2vs0mg"},{"bike_id":"df649d25-1f44-4471-8cdd-9566da8ef9b9","system_id":"levelo_inurba_marseille","lat":43.32224,"lon":5.38549,"is_reserved":false,"is_disabled":false,"rental_uris":{"android":"levelo://app?vid=df649d25-1f44-4471-8cdd-9566da8ef9b9","ios":"levelo://app?vid=df649d25-1f44-4471-8cdd-9566da8ef9b9"},"vehicle_type_id":"4","last_reported":1758820113,"current_range_meters":15200,"station_id":"","pricing_plan_id":"cebpf4jnsgd1na2vs0mg"},{"bike_id":"c6b3e536-9745-4760-93b7-a9b7697329d8","system_id":"levelo_inurba_marseille","lat":43.28412,"lon":5.35006,"is_reserved":false,"is_disabled":false,"rental_uris":{"android":"levelo://app?vid=c6b3e536-9745-4760-93b7-a9b7697329d8","ios":"levelo://app?vid=c6b3e536-9745-4760-93b7-a9b7697329d8"},"vehicle_type_id":"4","last_reported":1758820113,"current_range_meters":15200,"station_id":"ce4bhbh2rcd13ifvqepg","pricing_plan_id":"cebpf4jnsgd1na2vs0mg"},{"bike_id":"f08718b9-e1c7-4dd4-8a31-eead7fcd1c85","system_id":"levelo_inurba_marseille","lat":43.32092,"lon":5.36785,"is_reserved":false,"is_disabled":false,"rental_uris":{"android":"levelo://app?vid=f08718b9-e1c7-4dd4-8a31-eead7fcd1c85","ios":"levelo://app?vid=f08718b9-e1c7-4dd4-8a31-eead7fcd1c85"},"vehicle_type_id":"4","last_reported":1758820113,"current_range_meters":15200,"station_id":"ce4bhrh2rcd13ifvqhug","pricing_plan_id":"cebpf4jnsgd1na2vs0mg"},{"bike_id":"8bc92415-148a-43ec-8afb-97371149d6d4","system_id":"levelo_inurba_marseille","lat":43.287631,"lon":5.361995,"is_reserved":false,"is_disabled":false,"rental_uris":{"android":"levelo://app?vid=8bc92415-148a-43ec-8afb-97371149d6d4","ios":"levelo://app?vid=8bc92415-148a-43ec-8afb-97371149d6d4"},"vehicle_type_id":"4","last_reported":1758820113,"current_range_meters":15200,"station_id":"cki0cbj6b192h4jlfktg","pricing_plan_id":"cebpf4jnsgd1na2vs0mg"},{"bike_id":"b6ff3672-4e7c-404c-ab2a-bd902cf95e14","system_id":"levelo_inurba_marseille","lat":43.26853,"lon":5.40667,"is_reserved":false,"is_disabled":false,"rental_uris":{"android":"levelo://app?vid=b6ff3672-4e7c-404c-ab2a-bd902cf95e14","ios":"levelo://app?vid=b6ff3672-4e7c-404c-ab2a-bd902cf95e14"},"vehicle_type_id":"4","last_reported":1758820113,"current_range_meters":15200,"station_id":"","pricing_plan_id":"cebpf4jnsgd1na2vs0mg"},{"bike_id":"05fea17d-cf2b-49b8-bc81-4c3640453581","system_id":"levelo_inurba_marseille","lat":43.290758,"lon":5.371544,"is_reserved":false,"is_disabled":false,"rental_uris":{"android":"levelo://app?vid=05fea17d-cf2b-49b8-bc81-4c3640453581","ios":"levelo://app?vid=05fea17d-cf2b-49b8-bc81-4c3640453581"},"vehicle_type_id":"4","last_reported":1758820113,"current_range_meters":16000,"station_id":"ce4bh5p2rcd13ifvqe4g","pricing_plan_id":"cebpf4jnsgd1na2vs0mg"},{"bike_id":"97a5ee76-2e0a-479d-a727-d5a9ad8fecb2","system_id":"levelo_inurba_marseille","lat":43.22941,"lon":5.35401,"is_reserved":false,"is_disabled":false,"rental_uris":{"android":"levelo://app?vid=97a5ee76-2e0a-479d-a727-d5a9ad8fecb2","ios":"levelo://app?vid=97a5ee76-2e0a-479d-a727-d5a9ad8fecb2"},"vehicle_type_id":"4","last_reported":1758820113,"current_range_meters":16000,"station_id":"cpo3532slgdg3j2ikp40","pricing_plan_id":"cebpf4jnsgd1na2vs0mg"},{"bike_id":"97bfabe2-678f-4469-8156-b2c689b4137d","system_id":"levelo_inurba_marseille","lat":43.320204,"lon":5.381203,"is_reserved":false,"is_disabled":false,"rental_uris":{"android":"levelo://app?vid=97bfabe2-678f-4469-8156-b2c689b4137d","ios":"levelo://app?vid=97bfabe2-678f-4469-8156-b2c689b4137d"},"vehicle_type_id":"4","last_reported":1758820113,"current_range_meters":16000,"station_id":"","pricing_plan_id":"cebpf4jnsgd1na2vs0mg"},{"bike_id":"784ce342-ff34-4982-b4f1-008de65ec6b8","system_id":"levelo_inurba_marseille","lat":43.26192,"lon":5.37949,"is_reserved":false,"is_disabled":false,"rental_uris":{"android":"levelo://app?vid=784ce342-ff34-4982-b4f1-008de65ec6b8","ios":"levelo://app?vid=784ce342-ff34-4982-b4f1-008de65ec6b8"},"vehicle_type_id":"4","last_reported":1758820113,"current_range_meters":16000,"station_id":"ce4bhjp2rcd13ifvqg90","pricing_plan_id":"cebpf4jnsgd1na2vs0mg"},{"bike_id":"f981ff0d-6de8-4440-9c2a-34ef86418c4c","system_id":"levelo_inurba_marseille","lat":43.25116,"lon":5.40319,"is_reserved":false,"is_disabled":false,"rental_uris":{"android":"levelo://app?vid=f981ff0d-6de8-4440-9c2a-34ef86418c4c","ios":"levelo://app?vid=f981ff0d-6de8-4440-9c2a-34ef86418c4c"},"vehicle_type_id":"4","last_reported":1758820113,"current_range_meters":16000,"station_id":"ce4bhlh2rcd13ifvqgig","pricing_plan_id":"cebpf4jnsgd1na2vs0mg"},{"bike_id":"9b60f32b-f965-4366-b2f7-6a0d1f9f47cb","system_id":"levelo_inurba_marseille","lat":43.26078,"lon":5.39388,"is_reserved":false,"is_disabled":false,"rental_uris":{"android":"levelo://app?vid=9b60f32b-f965-4366-b2f7-6a0d1f9f47cb","ios":"levelo://app?vid=9b60f32b-f965-4366-b2f7-6a0d1f9f47cb"},"vehicle_type_id":"4","last_reported":1758820113,"current_range_meters":16000,"station_id":"ce4bhh92rcd13ifvqfj0","pricing_plan_id":"cebpf4jnsgd1na2vs0mg"},{"bike_id":"c31c58ee-4e29-4ce3-bf0a-25ae5cf57cfc","system_id":"levelo_inurba_marseille","lat":43.24946,"lon":5.40506,"is_reserved":false,"is_disabled":false,"rental_uris":{"android":"levelo://app?vid=c31c58ee-4e29-4ce3-bf0a-25ae5cf57cfc","ios":"levelo://app?vid=c31c58ee-4e29-4ce3-bf0a-25ae5cf57cfc"},"vehicle_type_id":"4","last_reported":1758820113,"current_range_meters":16000,"station_id":"st_d2ngiaodas8pm72gd1h0","pricing_plan_id":"cebpf4jnsgd1na2vs0mg"},{"bike_id":"ca27f349-e07c-4af3-b6f9-abf0e17a4f0d","system_id":"levelo_inurba_marseille","lat":43.27894,"lon":5.38016,"is_reserved":false,"is_disabled":false,"rental_uris":{"android":"levelo://app?vid=ca27f349-e07c-4af3-b6f9-abf0e17a4f0d","ios":"levelo://app?vid=ca27f349-e07c-4af3-b6f9-abf0e17a4f0d"},"vehicle_type_id":"4","last_reported":1758820113,"current_range_meters":15200,"station_id":"ce4bhf92rcd13ifvqf50","pricing_plan_id":"cebpf4jnsgd1na2vs0mg"},{"bike_id":"5a2f5f64-dcdc-40ef-94f0-db048a6ad5c7","system_id":"levelo_inurba_marseille","lat":43.24546,"lon":5.39531,"is_reserved":false,"is_disabled":false,"rental_uris":{"android":"levelo://app?vid=5a2f5f64-dcdc-40ef-94f0-db048a6ad5c7","ios":"levelo://app?vid=5a2f5f64-dcdc-40ef-94f0-db048a6ad5c7"},"vehicle_type_id":"4","last_reported":1758820113,"current_range_meters":16000,"station_id":"ce4bhlp2rcd13ifvqgjg","pricing_plan_id":"cebpf4jnsgd1na2vs0mg"},{"bike_id":"37f4640b-8ba9-4435-8aab-e72ab1651eba","system_id":"levelo_inurba_marseille","lat":43.28028,"lon":5.36943,"is_reserved":false,"is_disabled":false,"rental_uris":{"android":"levelo://app?vid=37f4640b-8ba9-4435-8aab-e72ab1651eba","ios":"levelo://app?vid=37f4640b-8ba9-4435-8aab-e72ab1651eba"},"vehicle_type_id":"4","last_reported":1758820113,"current_range_meters":15200,"station_id":"ce4bha12rcd13ifvqef0","pricing_plan_id":"cebpf4jnsgd1na2vs0mg"},{"bike_id":"81b273f2-778e-4515-a1dd-9021cc2fd089","system_id":"levelo_inurba_marseille","lat":43.23964,"lon":5.3665,"is_reserved":false,"is_disabled":false,"rental_uris":{"android":"levelo://app?vid=81b273f2-778e-4515-a1dd-9021cc2fd089","ios":"levelo://app?vid=81b273f2-778e-4515-a1dd-9021cc2fd089"},"vehicle_type_id":"4","last_reported":1758820113,"current_range_meters":16000,"station_id":"ce4bhi12rcd13ifvqfp0","pricing_plan_id":"cebpf4jnsgd1na2vs0mg"},{"bike_id":"39e6b2d7-e7bc-4366-8a01-87bc46855564","system_id":"levelo_inurba_marseille","lat":43.32112,"lon":5.36804,"is_reserved":false,"is_disabled":false,"rental_uris":{"android":"levelo://app?vid=39e6b2d7-e7bc-4366-8a01-87bc46855564","ios":"levelo://app?vid=39e6b2d7-e7bc-4366-8a01-87bc46855564"},"vehicle_type_id":"4","last_reported":1758820113,"current_range_meters":16000,"station_id":"ce4bhrh2rcd13ifvqhug","pricing_plan_id":"cebpf4jnsgd1na2vs0mg"},{"bike_id":"a57b3feb-2354-42fe-87fd-e8fcee3a0260","system_id":"levelo_inurba_marseille","lat":43.26953,"lon":5.40241,"is_reserved":false,"is_disabled":false,"rental_uris":{"android":"levelo://app?vid=a57b3feb-2354-42fe-87fd-e8fcee3a0260","ios":"levelo://app?vid=a57b3feb-2354-42fe-87fd-e8fcee3a0260"},"vehicle_type_id":"4","last_reported":1758820113,"current_range_meters":16000,"station_id":"","pricing_plan_id":"cebpf4jnsgd1na2vs0mg"},{"bike_id":"97be8e1b-8e50-4131-b4ce-8a578ed1e157","system_id":"levelo_inurba_marseille","lat":43.29261,"lon":5.36851,"is_reserved":false,"is_disabled":false,"rental_uris":{"android":"levelo://app?vid=97be8e1b-8e50-4131-b4ce-8a578ed1e157","ios":"levelo://app?vid=97be8e1b-8e50-4131-b4ce-8a578ed1e157"},"vehicle_type_id":"4","last_reported":1758820113,"current_range_meters":16400,"station_id":"ce4bhbp2rcd13ifvqesg","pricing_plan_id":"cebpf4jnsgd1na2vs0mg"},{"bike_id":"7e848ad8-3b46-4990-8791-073379270774","system_id":"levelo_inurba_marseille","lat":43.27315,"lon":5.39125,"is_reserved":false,"is_disabled":true,"rental_uris":{"android":"levelo://app?vid=7e848ad8-3b46-4990-8791-073379270774","ios":"levelo://app?vid=7e848ad8-3b46-4990-8791-073379270774"},"vehicle_type_id":"4","last_reported":1758820113,"current_range_meters":16400,"station_id":"ce4bhgp2rcd13ifvqfe0","pricing_plan_id":"cebpf4jnsgd1na2vs0mg"},{"bike_id":"b4f47bc1-4d12-4541-a757-a859819c9d1c","system_id":"levelo_inurba_marseille","lat":43.276802,"lon":5.388803,"is_reserved":false,"is_disabled":true,"rental_uris":{"android":"levelo://app?vid=b4f47bc1-4d12-4541-a757-a859819c9d1c","ios":"levelo://app?vid=b4f47bc1-4d12-4541-a757-a859819c9d1c"},"vehicle_type_id":"4","last_reported":1758820113,"current_range_meters":16400,"station_id":"","pricing_plan_id":"cebpf4jnsgd1na2vs0mg"},{"bike_id":"a775d1ea-cd01-4e15-a8b1-4eee3f42ee25","system_id":"levelo_inurba_marseille","lat":43.26493,"lon":5.3954,"is_reserved":false,"is_disabled":false,"rental_uris":{"android":"levelo://app?vid=a775d1ea-cd01-4e15-a8b1-4eee3f42ee25","ios":"levelo://app?vid=a775d1ea-cd01-4e15-a8b1-4eee3f42ee25"},"vehicle_type_id":"4","last_reported":1758820113,"current_range_meters":16400,"station_id":"ce4bhi12rcd13ifvqfq0","pricing_plan_id":"cebpf4jnsgd1na2vs0mg"},{"bike_id":"232f7f05-11b0-4e83-87a0-d64195604901","system_id":"levelo_inurba_marseille","lat":43.27993,"lon":5.41665,"is_reserved":false,"is_disabled":false,"rental_uris":{"android":"levelo://app?vid=232f7f05-11b0-4e83-87a0-d64195604901","ios":"levelo://app?vid=232f7f05-11b0-4e83-87a0-d64195604901"},"vehicle_type_id":"4","last_reported":1758820113,"current_range_meters":16400,"station_id":"ce4bho12rcd13ifvqh1g","pricing_plan_id":"cebpf4jnsgd1na2vs0mg"},{"bike_id":"d66c084c-aad4-4f12-b688-6b921663071c","system_id":"levelo_inurba_marseille","lat":43.31324,"lon":5.39694,"is_reserved":false,"is_disabled":false,"rental_uris":{"android":"levelo://app?vid=d66c084c-aad4-4f12-b688-6b921663071c","ios":"levelo://app?vid=d66c084c-aad4-4f12-b688-6b921663071c"},"vehicle_type_id":"4","last_reported":1758820113,"current_range_meters":16400,"station_id":"ce4bgvp2rcd13ifvqcu0","pricing_plan_id":"cebpf4jnsgd1na2vs0mg"},{"bike_id":"9811e1f7-6003-4f66-9587-6fdbbe85e0ed","system_id":"levelo_inurba_marseille","lat":43.29544,"lon":5.42286,"is_reserved":false,"is_disabled":false,"rental_uris":{"android":"levelo://app?vid=9811e1f7-6003-4f66-9587-6fdbbe85e0ed","ios":"levelo://app?vid=9811e1f7-6003-4f66-9587-6fdbbe85e0ed"},"vehicle_type_id":"4","last_reported":1758820113,"current_range_meters":16400,"station_id":"ce4bhph2rcd13ifvqhdg","pricing_plan_id":"cebpf4jnsgd1na2vs0mg"},{"bike_id":"8f64971e-8749-4b99-8b6c-9caebd35757e","system_id":"levelo_inurba_marseille","lat":43.29877,"lon":5.38914,"is_reserved":false,"is_disabled":false,"rental_uris":{"android":"levelo://app?vid=8f64971e-8749-4b99-8b6c-9caebd35757e","ios":"levelo://app?vid=8f64971e-8749-4b99-8b6c-9caebd35757e"},"vehicle_type_id":"4","last_reported":1758820113,"current_range_meters":16400,"station_id":"ce4bh392rcd13ifvqdl0","pricing_plan_id":"cebpf4jnsgd1na2vs0mg"},{"bike_id":"f5a888db-229a-4246-81ee-0ff2a1bcfdfa","system_id":"levelo_inurba_marseille","lat":43.22939,"lon":5.35365,"is_reserved":false,"is_disabled":false,"rental_uris":{"android":"levelo://app?vid=f5a888db-229a-4246-81ee-0ff2a1bcfdfa","ios":"levelo://app?vid=f5a888db-229a-4246-81ee-0ff2a1bcfdfa"},"vehicle_type_id":"4","last_reported":1758820113,"current_range_meters":16800,"station_id":"cpo3532slgdg3j2ikp40","pricing_plan_id":"cebpf4jnsgd1na2vs0mg"},{"bike_id":"86e02260-b66f-4542-a098-19a0209f1ab5","system_id":"levelo_inurba_marseille","lat":43.30126,"lon":5.39878,"is_reserved":false,"is_disabled":false,"rental_uris":{"android":"levelo://app?vid=86e02260-b66f-4542-a098-19a0209f1ab5","ios":"levelo://app?vid=86e02260-b66f-4542-a098-19a0209f1ab5"},"vehicle_type_id":"4","last_reported":1758820113,"current_range_meters":17200,"station_id":"ce4bh0h2rcd13ifvqd40","pricing_plan_id":"cebpf4jnsgd1na2vs0mg"},{"bike_id":"6ea2a1ac-b6ea-4621-8768-1f7fb93e8253","system_id":"levelo_inurba_marseille","lat":43.25332,"lon":5.42176,"is_reserved":false,"is_disabled":false,"rental_uris":{"android":"levelo://app?vid=6ea2a1ac-b6ea-4621-8768-1f7fb93e8253","ios":"levelo://app?vid=6ea2a1ac-b6ea-4621-8768-1f7fb93e8253"},"vehicle_type_id":"4","last_reported":1758820113,"current_range_meters":16800,"station_id":"st_d2m65c5bi1j21697t3ng","pricing_plan_id":"cebpf4jnsgd1na2vs0mg"},{"bike_id":"bc5b7cd7-f3d6-4e06-9e6c-833045a52fe4","system_id":"levelo_inurba_marseille","lat":43.29191,"lon":5.35806,"is_reserved":false,"is_disabled":false,"rental_uris":{"android":"levelo://app?vid=bc5b7cd7-f3d6-4e06-9e6c-833045a52fe4","ios":"levelo://app?vid=bc5b7cd7-f3d6-4e06-9e6c-833045a52fe4"},"vehicle_type_id":"4","last_reported":1758820113,"current_range_meters":16800,"station_id":"ce4bhb12rcd13ifvqel0","pricing_plan_id":"cebpf4jnsgd1na2vs0mg"},{"bike_id":"afc1c714-f964-470b-a7cb-b8750ecdbbc9","system_id":"levelo_inurba_marseille","lat":43.29265,"lon":5.3843,"is_reserved":false,"is_disabled":false,"rental_uris":{"android":"levelo://app?vid=afc1c714-f964-470b-a7cb-b8750ecdbbc9","ios":"levelo://app?vid=afc1c714-f964-470b-a7cb-b8750ecdbbc9"},"vehicle_type_id":"4","last_reported":1758820113,"current_range_meters":16800,"station_id":"ce4bh692rcd13ifvqea0","pricing_plan_id":"cebpf4jnsgd1na2vs0mg"},{"bike_id":"327c041e-5c9e-4b0d-a97c-a2dbaab036ae","system_id":"levelo_inurba_marseille","lat":43.32792,"lon":5.41054,"is_reserved":false,"is_disabled":false,"rental_uris":{"android":"levelo://app?vid=327c041e-5c9e-4b0d-a97c-a2dbaab036ae","ios":"levelo://app?vid=327c041e-5c9e-4b0d-a97c-a2dbaab036ae"},"vehicle_type_id":"4","last_reported":1758820113,"current_range_meters":17200,"station_id":"","pricing_plan_id":"cebpf4jnsgd1na2vs0mg"},{"bike_id":"c7d588b9-c1d0-4b5c-a2d6-22e3733e9198","system_id":"levelo_inurba_marseille","lat":43.29006,"lon":5.35608,"is_reserved":false,"is_disabled":false,"rental_uris":{"android":"levelo://app?vid=c7d588b9-c1d0-4b5c-a2d6-22e3733e9198","ios":"levelo://app?vid=c7d588b9-c1d0-4b5c-a2d6-22e3733e9198"},"vehicle_type_id":"4","last_reported":1758820113,"current_range_meters":17200,"station_id":"ce4bhb92rcd13ifvqen0","pricing_plan_id":"cebpf4jnsgd1na2vs0mg"},{"bike_id":"6f97756d-103a-472e-9ee0-e1b6357d8727","system_id":"levelo_inurba_marseille","lat":43.30858,"lon":5.39678,"is_reserved":false,"is_disabled":false,"rental_uris":{"android":"levelo://app?vid=6f97756d-103a-472e-9ee0-e1b6357d8727","ios":"levelo://app?vid=6f97756d-103a-472e-9ee0-e1b6357d8727"},"vehicle_type_id":"4","last_reported":1758820113,"current_range_meters":17200,"station_id":"","pricing_plan_id":"cebpf4jnsgd1na2vs0mg"},{"bike_id":"11c4f4b3-0732-4595-8c96-9557f157d01b","system_id":"levelo_inurba_marseille","lat":43.280749,"lon":5.396617,"is_reserved":false,"is_disabled":false,"rental_uris":{"android":"levelo://app?vid=11c4f4b3-0732-4595-8c96-9557f157d01b","ios":"levelo://app?vid=11c4f4b3-0732-4595-8c96-9557f157d01b"},"vehicle_type_id":"4","last_reported":1758820113,"current_range_meters":17200,"station_id":"ce4bho12rcd13ifvqh2g","pricing_plan_id":"cebpf4jnsgd1na2vs0mg"},{"bike_id":"280349c2-7d75-4732-844a-272770d12d07","system_id":"levelo_inurba_marseille","lat":43.24951,"lon":5.40488,"is_reserved":false,"is_disabled":false,"rental_uris":{"android":"levelo://app?vid=280349c2-7d75-4732-844a-272770d12d07","ios":"levelo://app?vid=280349c2-7d75-4732-844a-272770d12d07"},"vehicle_type_id":"4","last_reported":1758820113,"current_range_meters":17200,"station_id":"st_d2ngiaodas8pm72gd1h0","pricing_plan_id":"cebpf4jnsgd1na2vs0mg"},{"bike_id":"12821e4b-b8ec-438a-82e1-caa2fcf645e7","system_id":"levelo_inurba_marseille","lat":43.31716,"lon":5.42397,"is_reserved":false,"is_disabled":false,"rental_uris":{"android":"levelo://app?vid=12821e4b-b8ec-438a-82e1-caa2fcf645e7","ios":"levelo://app?vid=12821e4b-b8ec-438a-82e1-caa2fcf645e7"},"vehicle_type_id":"4","last_reported":1758820113,"current_range_meters":17200,"station_id":"ce4bhp92rcd13ifvqhbg","pricing_plan_id":"cebpf4jnsgd1na2vs0mg"},{"bike_id":"df9b9bb9-909d-4219-b2fa-f9c1e03799af","system_id":"levelo_inurba_marseille","lat":43.26227,"lon":5.40452,"is_reserved":false,"is_disabled":false,"rental_uris":{"android":"levelo://app?vid=df9b9bb9-909d-4219-b2fa-f9c1e03799af","ios":"levelo://app?vid=df9b9bb9-909d-4219-b2fa-f9c1e03799af"},"vehicle_type_id":"4","last_reported":1758820113,"current_range_meters":17200,"station_id":"ce4bhmh2rcd13ifvqgmg","pricing_plan_id":"cebpf4jnsgd1na2vs0mg"},{"bike_id":"13be0879-670b-43f4-8fc1-8fbc1c4ccf9c","system_id":"levelo_inurba_marseille","lat":43.28415,"lon":5.34991,"is_reserved":false,"is_disabled":false,"rental_uris":{"android":"levelo://app?vid=13be0879-670b-43f4-8fc1-8fbc1c4ccf9c","ios":"levelo://app?vid=13be0879-670b-43f4-8fc1-8fbc1c4ccf9c"},"vehicle_type_id":"4","last_reported":1758820113,"current_range_meters":17200,"station_id":"ce4bhbh2rcd13ifvqepg","pricing_plan_id":"cebpf4jnsgd1na2vs0mg"},{"bike_id":"4b760713-a3e7-4275-8712-c1e2c5964f01","system_id":"levelo_inurba_marseille","lat":43.24664,"lon":5.38167,"is_reserved":false,"is_disabled":false,"rental_uris":{"android":"levelo://app?vid=4b760713-a3e7-4275-8712-c1e2c5964f01","ios":"levelo://app?vid=4b760713-a3e7-4275-8712-c1e2c5964f01"},"vehicle_type_id":"4","last_reported":1758820113,"current_range_meters":17600,"station_id":"ce4bhih2rcd13ifvqfr0","pricing_plan_id":"cebpf4jnsgd1na2vs0mg"},{"bike_id":"377142cb-267c-494b-99d9-6fe238c4e676","system_id":"levelo_inurba_marseille","lat":43.30973,"lon":5.40771,"is_reserved":false,"is_disabled":false,"rental_uris":{"android":"levelo://app?vid=377142cb-267c-494b-99d9-6fe238c4e676","ios":"levelo://app?vid=377142cb-267c-494b-99d9-6fe238c4e676"},"vehicle_type_id":"4","last_reported":1758820113,"current_range_meters":17200,"station_id":"","pricing_plan_id":"cebpf4jnsgd1na2vs0mg"},{"bike_id":"ceafa8c9-a265-4f0b-bd2a-f831d2067a40","system_id":"levelo_inurba_marseille","lat":43.27767,"lon":5.39881,"is_reserved":false,"is_disabled":false,"rental_uris":{"android":"levelo://app?vid=ceafa8c9-a265-4f0b-bd2a-f831d2067a40","ios":"levelo://app?vid=ceafa8c9-a265-4f0b-bd2a-f831d2067a40"},"vehicle_type_id":"4","last_reported":1758820113,"current_range_meters":17200,"station_id":"","pricing_plan_id":"cebpf4jnsgd1na2vs0mg"},{"bike_id":"7984d69b-e4e3-4aa7-9904-7b9d506c24f5","system_id":"levelo_inurba_marseille","lat":43.30358,"lon":5.4188,"is_reserved":false,"is_disabled":false,"rental_uris":{"android":"levelo://app?vid=7984d69b-e4e3-4aa7-9904-7b9d506c24f5","ios":"levelo://app?vid=7984d69b-e4e3-4aa7-9904-7b9d506c24f5"},"vehicle_type_id":"4","last_reported":1758820113,"current_range_meters":17200,"station_id":"ce4bhop2rcd13ifvqh7g","pricing_plan_id":"cebpf4jnsgd1na2vs0mg"},{"bike_id":"37fc5338-fbbe-4cac-85f5-874f18b61471","system_id":"levelo_inurba_marseille","lat":43.29698,"lon":5.36575,"is_reserved":false,"is_disabled":false,"rental_uris":{"android":"levelo://app?vid=37fc5338-fbbe-4cac-85f5-874f18b61471","ios":"levelo://app?vid=37fc5338-fbbe-4cac-85f5-874f18b61471"},"vehicle_type_id":"4","last_reported":1758820113,"current_range_meters":16400,"station_id":"ce4bgn12rcd13ifvqbt0","pricing_plan_id":"cebpf4jnsgd1na2vs0mg"},{"bike_id":"10a852a6-5904-4eaa-a72e-b544d38657ad","system_id":"levelo_inurba_marseille","lat":43.27797,"lon":5.40728,"is_reserved":false,"is_disabled":false,"rental_uris":{"android":"levelo://app?vid=10a852a6-5904-4eaa-a72e-b544d38657ad","ios":"levelo://app?vid=10a852a6-5904-4eaa-a72e-b544d38657ad"},"vehicle_type_id":"4","last_reported":1758820113,"current_range_meters":16800,"station_id":"ce4bhnh2rcd13ifvqgtg","pricing_plan_id":"cebpf4jnsgd1na2vs0mg"},{"bike_id":"862f055f-f649-4717-9d71-9dd984100bd8","system_id":"levelo_inurba_marseille","lat":43.23963,"lon":5.3664,"is_reserved":false,"is_disabled":false,"rental_uris":{"android":"levelo://app?vid=862f055f-f649-4717-9d71-9dd984100bd8","ios":"levelo://app?vid=862f055f-f649-4717-9d71-9dd984100bd8"},"vehicle_type_id":"4","last_reported":1758820113,"current_range_meters":17200,"station_id":"ce4bhi12rcd13ifvqfp0","pricing_plan_id":"cebpf4jnsgd1na2vs0mg"},{"bike_id":"20066006-0391-4839-a57f-37d68b9c070a","system_id":"levelo_inurba_marseille","lat":43.3073,"lon":5.42438,"is_reserved":false,"is_disabled":false,"rental_uris":{"android":"levelo://app?vid=20066006-0391-4839-a57f-37d68b9c070a","ios":"levelo://app?vid=20066006-0391-4839-a57f-37d68b9c070a"},"vehicle_type_id":"4","last_reported":1758820113,"current_range_meters":17600,"station_id":"st_cvj6ca6bvosntc0bfgr0","pricing_plan_id":"cebpf4jnsgd1na2vs0mg"},{"bike_id":"467b4306-5fd8-484e-9a4b-cf8eb50151ba","system_id":"levelo_inurba_marseille","lat":43.32286,"lon":5.38285,"is_reserved":false,"is_disabled":false,"rental_uris":{"android":"levelo://app?vid=467b4306-5fd8-484e-9a4b-cf8eb50151ba","ios":"levelo://app?vid=467b4306-5fd8-484e-9a4b-cf8eb50151ba"},"vehicle_type_id":"4","last_reported":1758820113,"current_range_meters":17600,"station_id":"ce4bhr12rcd13ifvqhqg","pricing_plan_id":"cebpf4jnsgd1na2vs0mg"},{"bike_id":"75611fb7-df45-4d9f-9db0-a181136cc424","system_id":"levelo_inurba_marseille","lat":43.21762,"lon":5.34621,"is_reserved":false,"is_disabled":true,"rental_uris":{"android":"levelo://app?vid=75611fb7-df45-4d9f-9db0-a181136cc424","ios":"levelo://app?vid=75611fb7-df45-4d9f-9db0-a181136cc424"},"vehicle_type_id":"4","last_reported":1758820113,"current_range_meters":17600,"station_id":"st_cvj6r9ubvosntc0bgbag","pricing_plan_id":"cebpf4jnsgd1na2vs0mg"},{"bike_id":"ccabd35a-a691-4eed-acd2-dce907f56433","system_id":"levelo_inurba_marseille","lat":43.32347,"lon":5.40621,"is_reserved":false,"is_disabled":false,"rental_uris":{"android":"levelo://app?vid=ccabd35a-a691-4eed-acd2-dce907f56433","ios":"levelo://app?vid=ccabd35a-a691-4eed-acd2-dce907f56433"},"vehicle_type_id":"4","last_reported":1758820113,"current_range_meters":17600,"station_id":"ce4bhq92rcd13ifvqhjg","pricing_plan_id":"cebpf4jnsgd1na2vs0mg"},{"bike_id":"330b2c47-f746-44c7-9f13-5ee538bbcad2","system_id":"levelo_inurba_marseille","lat":43.2835,"lon":5.38111,"is_reserved":false,"is_disabled":false,"rental_uris":{"android":"levelo://app?vid=330b2c47-f746-44c7-9f13-5ee538bbcad2","ios":"levelo://app?vid=330b2c47-f746-44c7-9f13-5ee538bbcad2"},"vehicle_type_id":"4","last_reported":1758820113,"current_range_meters":17600,"station_id":"ce4bh412rcd13ifvqdr0","pricing_plan_id":"cebpf4jnsgd1na2vs0mg"},{"bike_id":"77e2d895-129a-4ff3-9d84-075d048492b7","system_id":"levelo_inurba_marseille","lat":43.24992,"lon":5.38935,"is_reserved":false,"is_disabled":false,"rental_uris":{"android":"levelo://app?vid=77e2d895-129a-4ff3-9d84-075d048492b7","ios":"levelo://app?vid=77e2d895-129a-4ff3-9d84-075d048492b7"},"vehicle_type_id":"4","last_reported":1758820113,"current_range_meters":17600,"station_id":"ce4bhgp2rcd13ifvqfd0","pricing_plan_id":"cebpf4jnsgd1na2vs0mg"},