{"last_updated":1729681644,"ttl":60,"version":"2.2","data":{"bikes":[{"bike_id":"59298ed3-0632-4691-8dd6-840b3d37dd02","system_id":"levelo_inurba_marseille","lat":43.29002,"lon":5.35616,"is_reserved":false,"is_disabled":false,"rental_uris":{"android":"levelo://app?vid=59298ed3-0632-4691-8dd6-840b3d37dd02","ios":"levelo://app?vid=59298ed3-0632-4691-8dd6-840b3d37dd02"},"vehicle_type_id":"4","last_reported":1729681645,"current_range_meters":30000,"station_id":"ce4bhb92rcd13ifvqen0","pricing_plan_id":"cebpf4jnsgd1na2vs0mg"},{"bike_id":"f00152fe-f361-4e7c-aa16-cbbc1e6b9ae3","system_id":"levelo_inurba_marseille","lat":43.29897,"lon":5.38142,"is_reserved":false,"is_disabled":false,"rental_uris":{"android":"levelo://app?vid=f00152fe-f361-4e7c-aa16-cbbc1e6b9ae3","ios":"levelo://app?vid=f00152fe-f361-4e7c-aa16-cbbc1e6b9ae3"},"vehicle_type_id":"4","last_reported":1729681645,"current_range_meters":37600,"station_id":"ce4bgj12rcd13ifvqbc0","pricing_plan_id":"cebpf4jnsgd1na2vs0mg"},{"bike_id":"94505a83-b206-4db0-aff0-8f5678e8c521","system_id":"levelo_inurba_marseille","lat":43.24074,"lon":5.37754,"is_reserved":false,"is_disabled":false,"rental_uris":{"android":"levelo://app?vid=94505a83-b206-4db0-aff0-8f5678e8c521","ios":"levelo://app?vid=94505a83-b206-4db0-aff0-8f5678e8c521"},"vehicle_type_id":"4","last_reported":1729681645,"current_range_meters":17600,"station_id":"ce4bhnp2rcd13ifvqgvg","pricing_plan_id":"cebpf4jnsgd1na2vs0mg"},{"bike_id":"1145614d-9810-46b6-a901-84fd92905091","system_id":"levelo_inurba_marseille","lat":43.30248,"lon":5.40069,"is_reserved":false,"is_disabled":false,"rental_uris":{"android":"levelo://app?vid=1145614d-9810-46b6-a901-84fd92905091","ios":"levelo://app?vid=1145614d-9810-46b6-a901-84fd92905091"},"vehicle_type_id":"4","last_reported":1729681645,"current_range_meters":38800,"station_id":"ce4bgvh2rcd13ifvqcs0","pricing_plan_id":"cebpf4jnsgd1na2vs0mg"},{"bike_id":"da2545c0-1aa1-4252-83b4-6c3657ee2a36","system_id":"levelo_inurba_marseille","lat":43.29556,"lon":5.42289,"is_reserved":false,"is_disabled":false,"rental_uris":{"android":"levelo://app?vid=da2545c0-1aa1-4252-83b4-6c3657ee2a36","ios":"levelo://app?vid=da2545c0-1aa1-4252-83b4-6c3657ee2a36"},"vehicle_type_id":"4","last_reported":1729681645,"current_range_meters":28400,"station_id":"ce4bhph2rcd13ifvqhdg","pricing_plan_id":"cebpf4jnsgd1na2vs0mg"},{"bike_id":"b149ce4e-51e1-44d1-a677-e09dc3311ba7","system_id":"levelo_inurba_marseille","lat":43.24389,"lon":5.37052,"is_reserved":false,"is_disabled":false,"rental_uris":{"android":"levelo://app?vid=b149ce4e-51e1-44d1-a677-e09dc3311ba7","ios":"levelo://app?vid=b149ce4e-51e1-44d1-a677-e09dc3311ba7"},"vehicle_type_id":"4","last_reported":1729681645,"current_range_meters":38800,"station_id":"ce4bhhh2rcd13ifvqfk0","pricing_plan_id":"cebpf4jnsgd1na2vs0mg"},{"bike_id":"cff6bced-ec84-4492-a80f-69ad868342bf","system_id":"levelo_inurba_marseille","lat":43.2621,"lon":5.3744,"is_reserved":false,"is_disabled":false,"rental_uris":{"android":"levelo://app?vid=cff6bced-ec84-4492-a80f-69ad868342bf","ios":"levelo://app?vid=cff6bced-ec84-4492-a80f-69ad868342bf"},"vehicle_type_id":"4","last_reported":1729681645,"current_range_meters":24000,"station_id":"ce4bhgp2rcd13ifvqfc0","pricing_plan_id":"cebpf4jnsgd1na2vs0mg"},{"bike_id":"a581c9ee-de6c-4ca2-adce-d873a10f1b7c","system_id":"levelo_inurba_marseille","lat":43.24079,"lon":5.37747,"is_reserved":false,"is_disabled":false,"rental_uris":{"android":"levelo://app?vid=a581c9ee-de6c-4ca2-adce-d873a10f1b7c","ios":"levelo://app?vid=a581c9ee-de6c-4ca2-adce-d873a10f1b7c"},"vehicle_type_id":"4","last_reported":1729681645,"current_range_meters":11200,"station_id":"ce4bhnp2rcd13ifvqgvg","pricing_plan_id":"cebpf4jnsgd1na2vs0mg"},{"bike_id":"33b2053d-bd1d-49f6-9dc6-9a0d8a900c29","system_id":"levelo_inurba_marseille","lat":43.24073,"lon":5.37752,"is_reserved":false,"is_disabled":false,"rental_uris":{"android":"levelo://app?vid=33b2053d-bd1d-49f6-9dc6-9a0d8a900c29","ios":"levelo://app?vid=33b2053d-bd1d-49f6-9dc6-9a0d8a900c29"},"vehicle_type_id":"4","last_reported":1729681645,"current_range_meters":19600,"station_id":"ce4bhnp2rcd13ifvqgvg","pricing_plan_id":"cebpf4jnsgd1na2vs0mg"},{"bike_id":"b2b3a5d2-308e-4489-8c55-aeb1cd1f9273","system_id":"levelo_inurba_marseille","lat":43.24071,"lon":5.37755,"is_reserved":false,"is_disabled":false,"rental_uris":{"android":"levelo://app?vid=b2b3a5d2-308e-4489-8c55-aeb1cd1f9273","ios":"levelo://app?vid=b2b3a5d2-308e-4489-8c55-aeb1cd1f9273"},"vehicle_type_id":"4","last_reported":1729681645,"current_range_meters":4000,"station_id":"ce4bhnp2rcd13ifvqgvg","pricing_plan_id":"cebpf4jnsgd1na2vs0mg"},{"bike_id":"9413d072-e380-41d2-8dd9-7098a859ea7d","system_id":"levelo_inurba_marseille","lat":43.29191,"lon":5.3933,"is_reserved":false,"is_disabled":false,"rental_uris":{"android":"levelo://app?vid=9413d072-e380-41d2-8dd9-7098a859ea7d","ios":"levelo://app?vid=9413d072-e380-41d2-8dd9-7098a859ea7d"},"vehicle_type_id":"4","last_reported":1729681645,"current_range_meters":34800,"station_id":"ce4bh192rcd13ifvqdd0","pricing_plan_id":"cebpf4jnsgd1na2vs0mg"},{"bike_id":"ae51fc94-1fb5-41ad-933b-707a94af7138","system_id":"levelo_inurba_marseille","lat":43.23152,"lon":5.43704,"is_reserved":false,"is_disabled":false,"rental_uris":{"android":"levelo://app?vid=ae51fc94-1fb5-41ad-933b-707a94af7138","ios":"levelo://app?vid=ae51fc94-1fb5-41ad-933b-707a94af7138"},"vehicle_type_id":"4","last_reported":1729681645,"current_range_meters":10000,"station_id":"ce4bhmp2rcd13ifvqgog","pricing_plan_id":"cebpf4jnsgd1na2vs0mg"},{"bike_id":"bc5570b0-116e-480f-9df3-7a8dff091c99","system_id":"levelo_inurba_marseille","lat":43.24077,"lon":5.37752,"is_reserved":false,"is_disabled":false,"rental_uris":{"android":"levelo://app?vid=bc5570b0-116e-480f-9df3-7a8dff091c99","ios":"levelo://app?vid=bc5570b0-116e-480f-9df3-7a8dff091c99"},"vehicle_type_id":"4","last_reported":1729681645,"current_range_meters":38800,"station_id":"ce4bhnp2rcd13ifvqgvg","pricing_plan_id":"cebpf4jnsgd1na2vs0mg"},{"bike_id":"0541b18a-767d-4369-9915-38fe0e1ec7f3","system_id":"levelo_inurba_marseille","lat":43.29899,"lon":5.38144,"is_reserved":false,"is_disabled":false,"rental_uris":{"android":"levelo://app?vid=0541b18a-767d-4369-9915-38fe0e1ec7f3","ios":"levelo://app?vid=0541b18a-767d-4369-9915-38fe0e1ec7f3"},"vehicle_type_id":"4","last_reported":1729681645,"current_range_meters":37600,"station_id":"ce4bgj12rcd13ifvqbc0","pricing_plan_id":"cebpf4jnsgd1na2vs0mg"},{"bike_id":"7b03caab-9eeb-4b6a-b632-bb17e9d25cc0","system_id":"levelo_inurba_marseille","lat":43.310666,"lon":5.383327,"is_reserved":false,"is_disabled":false,"rental_uris":{"android":"levelo://app?vid=7b03caab-9eeb-4b6a-b632-bb17e9d25cc0","ios":"levelo://app?vid=7b03caab-9eeb-4b6a-b632-bb17e9d25cc0"},"vehicle_type_id":"4","last_reported":1729681645,"current_range_meters":26800,"station_id":"ce4bgv92rcd13ifvqcr0","pricing_plan_id":"cebpf4jnsgd1na2vs0mg"},{"bike_id":"f56ca1b2-817f-4413-a0a4-cb67f6743884","system_id":"levelo_inurba_marseille","lat":43.28487,"lon":5.38409,"is_reserved":false,"is_disabled":false,"rental_uris":{"android":"levelo://app?vid=f56ca1b2-817f-4413-a0a4-cb67f6743884","ios":"levelo://app?vid=f56ca1b2-817f-4413-a0a4-cb67f6743884"},"vehicle_type_id":"4","last_reported":1729681645,"current_range_meters":16000,"station_id":"ce4bh512rcd13ifvqe3g","pricing_plan_id":"cebpf4jnsgd1na2vs0mg"},{"bike_id":"5c449356-4ac4-4d08-a405-c433fbe21a80","system_id":"levelo_inurba_marseille","lat":43.33737,"lon":5.37458,"is_reserved":false,"is_disabled":false,"rental_uris":{"android":"levelo://app?vid=5c449356-4ac4-4d08-a405-c433fbe21a80","ios":"levelo://app?vid=5c449356-4ac4-4d08-a405-c433fbe21a80"},"vehicle_type_id":"4","last_reported":1729681645,"current_range_meters":30000,"station_id":"","pricing_plan_id":"cebpf4jnsgd1na2vs0mg"},{"bike_id":"a34d4e86-e3fb-4711-863f-7eedb40d6428","system_id":"levelo_inurba_marseille","lat":43.29837,"lon":5.36267,"is_reserved":false,"is_disabled":false,"rental_uris":{"android":"levelo://app?vid=a34d4e86-e3fb-4711-863f-7eedb40d6428","ios":"levelo://app?vid=a34d4e86-e3fb-4711-863f-7eedb40d6428"},"vehicle_type_id":"4","last_reported":1729681645,"current_range_meters":38800,"station_id":"ce4bgpp2rcd13ifvqc3g","pricing_plan_id":"cebpf4jnsgd1na2vs0mg"},{"bike_id":"4abe42bd-1df6-4883-b39b-83f621633e39","system_id":"levelo_inurba_marseille","lat":43.258201,"lon":5.394349,"is_reserved":false,"is_disabled":false,"rental_uris":{"android":"levelo://app?vid=4abe42bd-1df6-4883-b39b-83f621633e39","ios":"levelo://app?vid=4abe42bd-1df6-4883-b39b-83f621633e39"},"vehicle_type_id":"4","last_reported":1729681645,"current_range_meters":8400,"station_id":"ce4bhip2rcd13ifvqft0","pricing_plan_id":"cebpf4jnsgd1na2vs0mg"},{"bike_id":"b537a7c5-9c86-4581-9304-b2cb5f9d166b","system_id":"levelo_inurba_marseille","lat":43.2407,"lon":5.37755,"is_reserved":false,"is_disabled":false,"rental_uris":{"android":"levelo://app?vid=b537a7c5-9c86-4581-9304-b2cb5f9d166b","ios":"levelo://app?vid=b537a7c5-9c86-4581-9304-b2cb5f9d166b"},"vehicle_type_id":"4","last_reported":1729681645,"current_range_meters":16400,"station_id":"ce4bhnp2rcd13ifvqgvg","pricing_plan_id":"cebpf4jnsgd1na2vs0mg"},{"bike_id":"80f01561-4f78-4d59-98de-f130f22341eb","system_id":"levelo_inurba_marseille","lat":43.28149,"lon":5.42639,"is_reserved":false,"is_disabled":false,"rental_uris":{"android":"levelo://app?vid=80f01561-4f78-4d59-98de-f130f22341eb","ios":"levelo://app?vid=80f01561-4f78-4d59-98de-f130f22341eb"},"vehicle_type_id":"4","last_reported":1729681645,"current_range_meters":3200,"station_id":"ce4bhnh2rcd13ifvqgug","pricing_plan_id":"cebpf4jnsgd1na2vs0mg"},{"bike_id":"0c6b11eb-50a7-4dc0-bff2-d8026011ec1d","system_id":"levelo_inurba_marseille","lat":43.24389,"lon":5.37057,"is_reserved":false,"is_disabled":false,"rental_uris":{"android":"levelo://app?vid=0c6b11eb-50a7-4dc0-bff2-d8026011ec1d","ios":"levelo://app?vid=0c6b11eb-50a7-4dc0-bff2-d8026011ec1d"},"vehicle_type_id":"4","last_reported":1729681645,"current_range_meters":38800,"station_id":"ce4bhhh2rcd13ifvqfk0","pricing_plan_id":"cebpf4jnsgd1na2vs0mg"},{"bike_id":"3571e33e-08e7-4c65-bcb7-4ff4abd18ba6","system_id":"levelo_inurba_marseille","lat":43.2417,"lon":5.36397,"is_reserved":false,"is_disabled":false,"rental_uris":{"android":"levelo://app?vid=3571e33e-08e7-4c65-bcb7-4ff4abd18ba6","ios":"levelo://app?vid=3571e33e-08e7-4c65-bcb7-4ff4abd18ba6"},"vehicle_type_id":"4","last_reported":1729681645,"current_range_meters":20400,"station_id":"cpo36qri1sfpv3e86is0","pricing_plan_id":"cebpf4jnsgd1na2vs0mg"},{"bike_id":"b0f335d2-df11-48d9-bff5-aa59567e1025","system_id":"levelo_inurba_marseille","lat":43.2848,"lon":5.38417,"is_reserved":false,"is_disabled":false,"rental_uris":{"android":"levelo://app?vid=b0f335d2-df11-48d9-bff5-aa59567e1025","ios":"levelo://app?vid=b0f335d2-df11-48d9-bff5-aa59567e1025"},"vehicle_type_id":"4","last_reported":1729681645,"current_range_meters":28400,"station_id":"ce4bh512rcd13ifvqe3g","pricing_plan_id":"cebpf4jnsgd1na2vs0mg"},{"bike_id":"c769be1b-4262-45e1-ae17-91133a0a1d6c","system_id":"levelo_inurba_marseille","lat":43.3053,"lon":5.36659,"is_reserved":false,"is_disabled":false,"rental_uris":{"android":"levelo://app?vid=c769be1b-4262-45e1-ae17-91133a0a1d6c","ios":"levelo://app?vid=c769be1b-4262-45e1-ae17-91133a0a1d6c"},"vehicle_type_id":"4","last_reported":1729681645,"current_range_meters":12000,"station_id":"","pricing_plan_id":"cebpf4jnsgd1na2vs0mg"},{"bike_id":"4882a116-5452-4f97-bdbd-13df4cccb9d6","system_id":"levelo_inurba_marseille","lat":43.30603,"lon":5.37237,"is_reserved":false,"is_disabled":false,"rental_uris":{"android":"levelo://app?vid=4882a116-5452-4f97-bdbd-13df4cccb9d6","ios":"levelo://app?vid=4882a116-5452-4f97-bdbd-13df4cccb9d6"},"vehicle_type_id":"4","last_reported":1729681645,"current_range_meters":30000,"station_id":"ce4bgqh2rcd13ifvqc4g","pricing_plan_id":"cebpf4jnsgd1na2vs0mg"},{"bike_id":"5ac4dd2b-f3a3-418d-9156-9fd5bf744a5d","system_id":"levelo_inurba_marseille","lat":43.29276,"lon":5.3684,"is_reserved":false,"is_disabled":false,"rental_uris":{"android":"levelo://app?vid=5ac4dd2b-f3a3-418d-9156-9fd5bf744a5d","ios":"levelo://app?vid=5ac4dd2b-f3a3-418d-9156-9fd5bf744a5d"},"vehicle_type_id":"4","last_reported":1729681645,"current_range_meters":30800,"station_id":"ce4bhbp2rcd13ifvqesg","pricing_plan_id":"cebpf4jnsgd1na2vs0mg"},{"bike_id":"3389d5a8-8fd1-4df9-842d-69afacb795fe","system_id":"levelo_inurba_marseille","lat":43.30462,"lon":5.37902,"is_reserved":false,"is_disabled":false,"rental_uris":{"android":"levelo://app?vid=3389d5a8-8fd1-4df9-842d-69afacb795fe","ios":"levelo://app?vid=3389d5a8-8fd1-4df9-842d-69afacb795fe"},"vehicle_type_id":"4","last_reported":1729681645,"current_range_meters":35600,"station_id":"ce4bgup2rcd13ifvqcn0","pricing_plan_id":"cebpf4jnsgd1na2vs0mg"},{"bike_id":"c8e00cd6-b66d-42fb-b127-a7d75d9de5df","system_id":"levelo_inurba_marseille","lat":43.28421,"lon":5.34994,"is_reserved":false,"is_disabled":false,"rental_uris":{"android":"levelo://app?vid=c8e00cd6-b66d-42fb-b127-a7d75d9de5df","ios":"levelo://app?vid=c8e00cd6-b66d-42fb-b127-a7d75d9de5df"},"vehicle_type_id":"4","last_reported":1729681645,"current_range_meters":20000,"station_id":"ce4bhbh2rcd13ifvqepg","pricing_plan_id":"cebpf4jnsgd1na2vs0mg"},{"bike_id":"71ea797b-da06-4327-92dc-47c13ec265e2","system_id":"levelo_inurba_marseille","lat":43.30545,"lon":5.36536,"is_reserved":false,"is_disabled":false,"rental_uris":{"android":"levelo://app?vid=71ea797b-da06-4327-92dc-47c13ec265e2","ios":"levelo://app?vid=71ea797b-da06-4327-92dc-47c13ec265e2"},"vehicle_type_id":"4","last_reported":1729681645,"current_range_meters":38400,"station_id":"ce4bgs12rcd13ifvqcag","pricing_plan_id":"cebpf4jnsgd1na2vs0mg"},{"bike_id":"a2724f34-07b9-4a15-bcd3-4d304af33dde","system_id":"levelo_inurba_marseille","lat":43.29003,"lon":5.35606,"is_reserved":false,"is_disabled":false,"rental_uris":{"android":"levelo://app?vid=a2724f34-07b9-4a15-bcd3-4d304af33dde","ios":"levelo://app?vid=a2724f34-07b9-4a15-bcd3-4d304af33dde"},"vehicle_type_id":"4","last_reported":1729681645,"current_range_meters":26800,"station_id":"ce4bhb92rcd13ifvqen0","pricing_plan_id":"cebpf4jnsgd1na2vs0mg"},{"bike_id":"abd82fe2-fd4a-4c2f-848c-8e67d71ca5d5","system_id":"levelo_inurba_marseille","lat":43.29962,"lon":5.41315,"is_reserved":false,"is_disabled":false,"rental_uris":{"android":"levelo://app?vid=abd82fe2-fd4a-4c2f-848c-8e67d71ca5d5","ios":"levelo://app?vid=abd82fe2-fd4a-4c2f-848c-8e67d71ca5d5"},"vehicle_type_id":"4","last_reported":1729681645,"current_range_meters":27200,"station_id":"ce4bhp12rcd13ifvqh9g","pricing_plan_id":"cebpf4jnsgd1na2vs0mg"},{"bike_id":"2922d87d-aaad-4a13-a9b8-12925e998eb2","system_id":"levelo_inurba_marseille","lat":43.2762,"lon":5.39743,"is_reserved":false,"is_disabled":false,"rental_uris":{"android":"levelo://app?vid=2922d87d-aaad-4a13-a9b8-12925e998eb2","ios":"levelo://app?vid=2922d87d-aaad-4a13-a9b8-12925e998eb2"},"vehicle_type_id":"4","last_reported":1729681645,"current_range_meters":24800,"station_id":"ce4bho92rcd13ifvqh4g","pricing_plan_id":"cebpf4jnsgd1na2vs0mg"},{"bike_id":"36b67483-be36-4ca6-b1a5-421e3143f090","system_id":"levelo_inurba_marseille","lat":43.23152,"lon":5.43708,"is_reserved":false,"is_disabled":false,"rental_uris":{"android":"levelo://app?vid=36b67483-be36-4ca6-b1a5-421e3143f090","ios":"levelo://app?vid=36b67483-be36-4ca6-b1a5-421e3143f090"},"vehicle_type_id":"4","last_reported":1729681645,"current_range_meters":38800,"station_id":"ce4bhmp2rcd13ifvqgog","pricing_plan_id":"cebpf4jnsgd1na2vs0mg"},{"bike_id":"fea88e55-550b-4e93-8a70-9a9c51b2bae4","system_id":"levelo_inurba_marseille","lat":43.32046,"lon":5.41537,"is_reserved":false,"is_disabled":false,"rental_uris":{"android":"levelo://app?vid=fea88e55-550b-4e93-8a70-9a9c51b2bae4","ios":"levelo://app?vid=fea88e55-550b-4e93-8a70-9a9c51b2bae4"},"vehicle_type_id":"4","last_reported":1729681645,"current_range_meters":16400,"station_id":"ce4bhq92rcd13ifvqhkg","pricing_plan_id":"cebpf4jnsgd1na2vs0mg"},{"bike_id":"eed0bb81-1059-4a62-978f-40ddaaec815e","system_id":"levelo_inurba_marseille","lat":43.29786,"lon":5.37104,"is_reserved":false,"is_disabled":false,"rental_uris":{"android":"levelo://app?vid=eed0bb81-1059-4a62-978f-40ddaaec815e","ios":"levelo://app?vid=eed0bb81-1059-4a62-978f-40ddaaec815e"},"vehicle_type_id":"4","last_reported":1729681645,"current_range_meters":30800,"station_id":"ce4bgop2rcd13ifvqc1g","pricing_plan_id":"cebpf4jnsgd1na2vs0mg"},{"bike_id":"1786e6f3-e6fa-4812-bd59-dee9b5495362","system_id":"levelo_inurba_marseille","lat":43.25721,"lon":5.41102,"is_reserved":false,"is_disabled":false,"rental_uris":{"android":"levelo://app?vid=1786e6f3-e6fa-4812-bd59-dee9b5495362","ios":"levelo://app?vid=1786e6f3-e6fa-4812-bd59-dee9b5495362"},"vehicle_type_id":"4","last_reported":1729681645,"current_range_meters":38000,"station_id":"ce4bhkp2rcd13ifvqgd0","pricing_plan_id":"cebpf4jnsgd1na2vs0mg"},{"bike_id":"7aad8bc0-f1b2-45b3-9390-ad350dd15190","system_id":"levelo_inurba_marseille","lat":43.26943,"lon":5.40247,"is_reserved":false,"is_disabled":false,"rental_uris":{"android":"levelo://app?vid=7aad8bc0-f1b2-45b3-9390-ad350dd15190","ios":"levelo://app?vid=7aad8bc0-f1b2-45b3-9390-ad350dd15190"},"vehicle_type_id":"4","last_reported":1729681645,"current_range_meters":7200,"station_id":"cjm6bp8fraef2m0cb0m0","pricing_plan_id":"cebpf4jnsgd1na2vs0mg"},{"bike_id":"eed55585-6685-4994-aea2-2e86f355f5da","system_id":"levelo_inurba_marseille","lat":43.29889,"lon":5.39728,"is_reserved":false,"is_disabled":false,"rental_uris":{"android":"levelo://app?vid=eed55585-6685-4994-aea2-2e86f355f5da","ios":"levelo://app?vid=eed55585-6685-4994-aea2-2e86f355f5da"},"vehicle_type_id":"4","last_reported":1729681645,"current_range_meters":38400,"station_id":"ce4bh0h2rcd13ifvqd50","pricing_plan_id":"cebpf4jnsgd1na2vs0mg"},{"bike_id":"41ca4915-f5cf-4ecf-a173-fd2bb1b984cc","system_id":"levelo_inurba_marseille","lat":43.23195,"lon":5.35551,"is_reserved":false,"is_disabled":false,"rental_uris":{"android":"levelo://app?vid=41ca4915-f5cf-4ecf-a173-fd2bb1b984cc","ios":"levelo://app?vid=41ca4915-f5cf-4ecf-a173-fd2bb1b984cc"},"vehicle_type_id":"4","last_reported":1729681645,"current_range_meters":22400,"station_id":"ce4bhu92rcd13ifvqi70","pricing_plan_id":"cebpf4jnsgd1na2vs0mg"},{"bike_id":"d349fab6-b06e-46c4-b3b0-8668fc4ad41b","system_id":"levelo_inurba_marseille","lat":43.231391,"lon":5.354867,"is_reserved":false,"is_disabled":false,"rental_uris":{"android":"levelo://app?vid=d349fab6-b06e-46c4-b3b0-8668fc4ad41b","ios":"levelo://app?vid=d349fab6-b06e-46c4-b3b0-8668fc4ad41b"},"vehicle_type_id":"4","last_reported":1729681645,"current_range_meters":16400,"station_id":"ce4bhu92rcd13ifvqi70","pricing_plan_id":"cebpf4jnsgd1na2vs0mg"},{"bike_id":"ce2df4ea-f3d8-456d-b124-5dd6b5ad729b","system_id":"levelo_inurba_marseille","lat":43.288207,"lon":5.379144,"is_reserved":false,"is_disabled":false,"rental_uris":{"android":"levelo://app?vid=ce2df4ea-f3d8-456d-b124-5dd6b5ad729b","ios":"levelo://app?vid=ce2df4ea-f3d8-456d-b124-5dd6b5ad729b"},"vehicle_type_id":"4","last_reported":1729681645,"current_range_meters":10800,"station_id":"ce4bh9p2rcd13ifvqec0","pricing_plan_id":"cebpf4jnsgd1na2vs0mg"},{"bike_id":"56bc6709-a96c-4607-ae13-e48c2a4ad872","system_id":"levelo_inurba_marseille","lat":43.27056,"lon":5.40261,"is_reserved":false,"is_disabled":false,"rental_uris":{"android":"levelo://app?vid=56bc6709-a96c-4607-ae13-e48c2a4ad872","ios":"levelo://app?vid=56bc6709-a96c-4607-ae13-e48c2a4ad872"},"vehicle_type_id":"4","last_reported":1729681645,"current_range_meters":32400,"station_id":"ce4bhk92rcd13ifvqgc0","pricing_plan_id":"cebpf4jnsgd1na2vs0mg"},{"bike_id":"ff534449-3ba2-4f0e-a884-8d48b0a042e5","system_id":"levelo_inurba_marseille","lat":43.28855,"lon":5.39319,"is_reserved":false,"is_disabled":false,"rental_uris":{"android":"levelo://app?vid=ff534449-3ba2-4f0e-a884-8d48b0a042e5","ios":"levelo://app?vid=ff534449-3ba2-4f0e-a884-8d48b0a042e5"},"vehicle_type_id":"4","last_reported":1729681645,"current_range_meters":38000,"station_id":"ce4bh2p2rcd13ifvqdi0","pricing_plan_id":"cebpf4jnsgd1na2vs0mg"},{"bike_id":"a85664ae-1a0f-4a17-b7dd-972a062ab2ab","system_id":"levelo_inurba_marseille","lat":43.30538,"lon":5.36549,"is_reserved":false,"is_disabled":false,"rental_uris":{"android":"levelo://app?vid=a85664ae-1a0f-4a17-b7dd-972a062ab2ab","ios":"levelo://app?vid=a85664ae-1a0f-4a17-b7dd-972a062ab2ab"},"vehicle_type_id":"4","last_reported":1729681645,"current_range_meters":23200,"station_id":"ce4bgs12rcd13ifvqcag","pricing_plan_id":"cebpf4jnsgd1na2vs0mg"},{"bike_id":"6a3d026e-f423-4e19-905c-b73e2bbde2ea","system_id":"levelo_inurba_marseille","lat":43.27177,"lon":5.40997,"is_reserved":false,"is_disabled":false,"rental_uris":{"android":"levelo://app?vid=6a3d026e-f423-4e19-905c-b73e2bbde2ea","ios":"levelo://app?vid=6a3d026e-f423-4e19-905c-b73e2bbde2ea"},"vehicle_type_id":"4","last_reported":1729681645,"current_range_meters":38000,"station_id":"ce4bhl12rcd13ifvqgf0","pricing_plan_id":"cebpf4jnsgd1na2vs0mg"},{"bike_id":"df286464-7818-443d-bb5e-0eb060b2a963","system_id":"levelo_inurba_marseille","lat":43.29059,"lon":5.3807,"is_reserved":false,"is_disabled":false,"rental_uris":{"android":"levelo://app?vid=df286464-7818-443d-bb5e-0eb060b2a963","ios":"levelo://app?vid=df286464-7818-443d-bb5e-0eb060b2a963"},"vehicle_type_id":"4","last_reported":1729681645,"current_range_meters":14800,"station_id":"","pricing_plan_id":"cebpf4jnsgd1na2vs0mg"},{"bike_id":"c0577493-6fdf-4288-93e2-1efb6212ffea","system_id":"levelo_inurba_marseille","lat":43.33021,"lon":5.39041,"is_reserved":false,"is_disabled":false,"rental_uris":{"android":"levelo://app?vid=c0577493-6fdf-4288-93e2-1efb6212ffea","ios":"levelo://app?vid=c0577493-6fdf-4288-93e2-1efb6212ffea"},"vehicle_type_id":"4","last_reported":1729681645,"current_range_meters":38400,"station_id":"ce4bhr92rcd13ifvqhrg","pricing_plan_id":"cebpf4jnsgd1na2vs0mg"},{"bike_id":"f5a53045-f9b0-4183-9fc6-73b35736d031","system_id":"levelo_inurba_marseille","lat":43.30296,"lon":5.37705,"is_reserved":false,"is_disabled":false,"rental_uris":{"android":"levelo://app?vid=f5a53045-f9b0-4183-9fc6-73b35736d031","ios":"levelo://app?vid=f5a53045-f9b0-4183-9fc6-73b35736d031"},"vehicle_type_id":"4","last_reported":1729681645,"current_range_meters":38800,"station_id":"ce4bguh2rcd13ifvqcj0","pricing_plan_id":"cebpf4jnsgd1na2vs0mg"},{"bike_id":"cc8dda34-8380-4b98-988a-ac4ac40bc764","system_id":"levelo_inurba_marseille","lat":43.23149,"lon":5.43714,"is_reserved":false,"is_disabled":false,"rental_uris":{"android":"levelo://app?vid=cc8dda34-8380-4b98-988a-ac4ac40bc764","ios":"levelo://app?vid=cc8dda34-8380-4b98-988a-ac4ac40bc764"},"vehicle_type_id":"4","last_reported":1729681645,"current_range_meters":17600,"station_id":"ce4bhmp2rcd13ifvqgog","pricing_plan_id":"cebpf4jnsgd1na2vs0mg"},{"bike_id":"cbe10c03-fb85-436f-9ae4-c9a8a717f05b","system_id":"levelo_inurba_marseille","lat":43.31219,"lon":5.36845,"is_reserved":false,"is_disabled":false,"rental_uris":{"android":"levelo://app?vid=cbe10c03-fb85-436f-9ae4-c9a8a717f05b","ios":"levelo://app?vid=cbe10c03-fb85-436f-9ae4-c9a8a717f05b"},"vehicle_type_id":"4","last_reported":1729681645,"current_range_meters":12400,"station_id":"ce4bgl92rcd13ifvqbq0","pricing_plan_id":"cebpf4jnsgd1na2vs0mg"},{"bike_id":"8c21a646-e407-4d61-9538-182ced2a93a9","system_id":"levelo_inurba_marseille","lat":43.26808,"lon":5.40273,"is_reserved":false,"is_disabled":false,"rental_uris":{"android":"levelo://app?vid=8c21a646-e407-4d61-9538-182ced2a93a9","ios":"levelo://app?vid=8c21a646-e407-4d61-9538-182ced2a93a9"},"vehicle_type_id":"4","last_reported":1729681645,"current_range_meters":24000,"station_id":"ce501612rcd8frsf0b60","pricing_plan_id":"cebpf4jnsgd1na2vs0mg"},{"bike_id":"ee6ea735-dc60-45f0-943f-75f5cd9cc131","system_id":"levelo_inurba_marseille","lat":43.2621,"lon":5.37444,"is_reserved":false,"is_disabled":false,"rental_uris":{"android":"levelo://app?vid=ee6ea735-dc60-45f0-943f-75f5cd9cc131","ios":"levelo://app?vid=ee6ea735-dc60-45f0-943f-75f5cd9cc131"},"vehicle_type_id":"4","last_reported":1729681645,"current_range_meters":20800,"station_id":"ce4bhgp2rcd13ifvqfc0","pricing_plan_id":"cebpf4jnsgd1na2vs0mg"},{"bike_id":"59c0bf37-891b-4db8-8fe1-87e51af2fc26","system_id":"levelo_inurba_marseille","lat":43.313316,"lon":5.36727,"is_reserved":false,"is_disabled":false,"rental_uris":{"android":"levelo://app?vid=59c0bf37-891b-4db8-8fe1-87e51af2fc26","ios":"levelo://app?vid=59c0bf37-891b-4db8-8fe1-87e51af2fc26"},"vehicle_type_id":"4","last_reported":1729681645,"current_range_meters":38800,"station_id":"ce4bgr92rcd13ifvqc6g","pricing_plan_id":"cebpf4jnsgd1na2vs0mg"},{"bike_id":"fd3d93e7-99f7-47eb-b079-2d8de5d8ae7c","system_id":"levelo_inurba_marseille","lat":43.30552,"lon":5.3653,"is_reserved":false,"is_disabled":false,"rental_uris":{"android":"levelo://app?vid=fd3d93e7-99f7-47eb-b079-2d8de5d8ae7c","ios":"levelo://app?vid=fd3d93e7-99f7-47eb-b079-2d8de5d8ae7c"},"vehicle_type_id":"4","last_reported":1729681645,"current_range_meters":39200,"station_id":"ce4bgs12rcd13ifvqcag","pricing_plan_id":"cebpf4jnsgd1na2vs0mg"},{"bike_id":"2df57d9c-b025-4fc9-a0c0-a69158eb59f3","system_id":"levelo_inurba_marseille","lat":43.32113,"lon":5.36765,"is_reserved":false,"is_disabled":false,"rental_uris":{"android":"levelo://app?vid=2df57d9c-b025-4fc9-a0c0-a69158eb59f3","ios":"levelo://app?vid=2df57d9c-b025-4fc9-a0c0-a69158eb59f3"},"vehicle_type_id":"4","last_reported":1729681645,"current_range_meters":25200,"station_id":"ce4bhrh2rcd13ifvqhug","pricing_plan_id":"cebpf4jnsgd1na2vs0mg"},{"bike_id":"51d33ce6-fee0-41a3-93da-4b082a911487","system_id":"levelo_inurba_marseille","lat":43.30544,"lon":5.36554,"is_reserved":false,"is_disabled":false,"rental_uris":{"android":"levelo://app?vid=51d33ce6-fee0-41a3-93da-4b082a911487","ios":"levelo://app?vid=51d33ce6-fee0-41a3-93da-4b082a911487"},"vehicle_type_id":"4","last_reported":1729681645,"current_range_meters":32000,"station_id":"ce4bgs12rcd13ifvqcag","pricing_plan_id":"cebpf4jnsgd1na2vs0mg"},{"bike_id":"4506c05a-9174-4a55-8e72-18aadcb1238d","system_id":"levelo_inurba_marseille","lat":43.29228,"lon":5.36071,"is_reserved":false,"is_disabled":false,"rental_uris":{"android":"levelo://app?vid=4506c05a-9174-4a55-8e72-18aadcb1238d","ios":"levelo://app?vid=4506c05a-9174-4a55-8e72-18aadcb1238d"},"vehicle_type_id":"4","last_reported":1729681645,"current_range_meters":35200,"station_id":"ce4bhbh2rcd13ifvqeqg","pricing_plan_id":"cebpf4jnsgd1na2vs0mg"},{"bike_id":"b7ebb2c8-14ba-48c7-9a78-f26963117a4b","system_id":"levelo_inurba_marseille","lat":43.30535,"lon":5.36565,"is_reserved":false,"is_disabled":false,"rental_uris":{"android":"levelo://app?vid=b7ebb2c8-14ba-48c7-9a78-f26963117a4b","ios":"levelo://app?vid=b7ebb2c8-14ba-48c7-9a78-f26963117a4b"},"vehicle_type_id":"4","last_reported":1729681645,"current_range_meters":14400,"station_id":"ce4bgs12rcd13ifvqcag","pricing_plan_id":"cebpf4jnsgd1na2vs0mg"},{"bike_id":"00490f83-fda2-4b4a-89fc-8f01db40a256","system_id":"levelo_inurba_marseille","lat":43.28376,"lon":5.38629,"is_reserved":false,"is_disabled":false,"rental_uris":{"android":"levelo://app?vid=00490f83-fda2-4b4a-89fc-8f01db40a256","ios":"levelo://app?vid=00490f83-fda2-4b4a-89fc-8f01db40a256"},"vehicle_type_id":"4","last_reported":1729681645,"current_range_meters":32400,"station_id":"ce4bh492rcd13ifvqdvg","pricing_plan_id":"cebpf4jnsgd1na2vs0mg"},{"bike_id":"4f0a955b-bcc1-40e4-9776-53aa4fa7a556","system_id":"levelo_inurba_marseille","lat":43.33766,"lon":5.37441,"is_reserved":false,"is_disabled":false,"rental_uris":{"android":"levelo://app?vid=4f0a955b-bcc1-40e4-9776-53aa4fa7a556","ios":"levelo://app?vid=4f0a955b-bcc1-40e4-9776-53aa4fa7a556"},"vehicle_type_id":"4","last_reported":1729681645,"current_range_meters":37600,"station_id":"","pricing_plan_id":"cebpf4jnsgd1na2vs0mg"},{"bike_id":"b7393e49-91da-4125-a929-c292a93434a4","system_id":"levelo_inurba_marseille","lat":43.24076,"lon":5.37745,"is_reserved":false,"is_disabled":false,"rental_uris":{"android":"levelo://app?vid=b7393e49-91da-4125-a929-c292a93434a4","ios":"levelo://app?vid=b7393e49-91da-4125-a929-c292a93434a4"},"vehicle_type_id":"4","last_reported":1729681645,"current_range_meters":24000,"station_id":"ce4bhnp2rcd13ifvqgvg","pricing_plan_id":"cebpf4jnsgd1na2vs0mg"},{"bike_id":"1ba70f0c-608c-411c-9ddb-c0cdd3d3232d","system_id":"levelo_inurba_marseille","lat":43.26452,"lon":5.37342,"is_reserved":false,"is_disabled":false,"rental_uris":{"android":"levelo://app?vid=1ba70f0c-608c-411c-9ddb-c0cdd3d3232d","ios":"levelo://app?vid=1ba70f0c-608c-411c-9ddb-c0cdd3d3232d"},"vehicle_type_id":"4","last_reported":1729681645,"current_range_meters":28400,"station_id":"ce4bhg12rcd13ifvqf70","pricing_plan_id":"cebpf4jnsgd1na2vs0mg"},{"bike_id":"754b5eb9-bab3-4ffe-9d6b-2d957df7e431","system_id":"levelo_inurba_marseille","lat":43.31236,"lon":5.36874,"is_reserved":false,"is_disabled":false,"rental_uris":{"android":"levelo://app?vid=754b5eb9-bab3-4ffe-9d6b-2d957df7e431","ios":"levelo://app?vid=754b5eb9-bab3-4ffe-9d6b-2d957df7e431"},"vehicle_type_id":"4","last_reported":1729681645,"current_range_meters":8000,"station_id":"ce4bgl92rcd13ifvqbq0","pricing_plan_id":"cebpf4jnsgd1na2vs0mg"},{"bike_id":"3f8e5f04-85c2-461b-9a49-64a0abc92e61","system_id":"levelo_inurba_marseille","lat":43.27966,"lon":5.3871,"is_reserved":false,"is_disabled":false,"rental_uris":{"android":"levelo://app?vid=3f8e5f04-85c2-461b-9a49-64a0abc92e61","ios":"levelo://app?vid=3f8e5f04-85c2-461b-9a49-64a0abc92e61"},"vehicle_type_id":"4","last_reported":1729681645,"current_range_meters":37600,"station_id":"ce4bhg12rcd13ifvqf80","pricing_plan_id":"cebpf4jnsgd1na2vs0mg"},{"bike_id":"9639bebd-201e-4b55-9187-2633b106e19c","system_id":"levelo_inurba_marseille","lat":43.3302,"lon":5.39034,"is_reserved":false,"is_disabled":false,"rental_uris":{"android":"levelo://app?vid=9639bebd-201e-4b55-9187-2633b106e19c","ios":"levelo://app?vid=9639bebd-201e-4b55-9187-2633b106e19c"},"vehicle_type_id":"4","last_reported":1729681645,"current_range_meters":38800,"station_id":"ce4bhr92rcd13ifvqhrg","pricing_plan_id":"cebpf4jnsgd1na2vs0mg"},{"bike_id":"b711bd15-347d-439d-b0c3-bc3d75bef70c","system_id":"levelo_inurba_marseille","lat":43.25726,"lon":5.41102,"is_reserved":false,"is_disabled":false,"rental_uris":{"android":"levelo://app?vid=b711bd15-347d-439d-b0c3-bc3d75bef70c","ios":"levelo://app?vid=b711bd15-347d-439d-b0c3-bc3d75bef70c"},"vehicle_type_id":"4","last_reported":1729681645,"current_range_meters":38000,"station_id":"ce4bhkp2rcd13ifvqgd0","pricing_plan_id":"cebpf4jnsgd1na2vs0mg"},{"bike_id":"63785bdf-f42a-474e-a4eb-fbe091e5b244","system_id":"levelo_inurba_marseille","lat":43.29897,"lon":5.38141,"is_reserved":false,"is_disabled":false,"rental_uris":{"android":"levelo://app?vid=63785bdf-f42a-474e-a4eb-fbe091e5b244","ios":"levelo://app?vid=63785bdf-f42a-474e-a4eb-fbe091e5b244"},"vehicle_type_id":"4","last_reported":1729681645,"current_range_meters":38000,"station_id":"ce4bgj12rcd13ifvqbc0","pricing_plan_id":"cebpf4jnsgd1na2vs0mg"},{"bike_id":"5e8036b5-aae0-4bb1-9916-f276323f4db7","system_id":"levelo_inurba_marseille","lat":43.29762,"lon":5.37111,"is_reserved":false,"is_disabled":false,"rental_uris":{"android":"levelo://app?vid=5e8036b5-aae0-4bb1-9916-f276323f4db7","ios":"levelo://app?vid=5e8036b5-aae0-4bb1-9916-f276323f4db7"},"vehicle_type_id":"4","last_reported":1729681645,"current_range_meters":12400,"station_id":"ce4bgop2rcd13ifvqc1g","pricing_plan_id":"cebpf4jnsgd1na2vs0mg"},{"bike_id":"ae2ce2d4-fc19-4d51-989f-983c86c83842","system_id":"levelo_inurba_marseille","lat":43.33022,"lon":5.39041,"is_reserved":false,"is_disabled":false,"rental_uris":{"android":"levelo://app?vid=ae2ce2d4-fc19-4d51-989f-983c86c83842","ios":"levelo://app?vid=ae2ce2d4-fc19-4d51-989f-983c86c83842"},"vehicle_type_id":"4","last_reported":1729681645,"current_range_meters":38400,"station_id":"ce4bhr92rcd13ifvqhrg","pricing_plan_id":"cebpf4jnsgd1na2vs0mg"},{"bike_id":"c2ce141d-6e76-44dc-931b-253d09157587","system_id":"levelo_inurba_marseille","lat":43.24997,"lon":5.3893,"is_reserved":false,"is_disabled":false,"rental_uris":{"android":"levelo://app?vid=c2ce141d-6e76-44dc-931b-253d09157587","ios":"levelo://app?vid=c2ce141d-6e76-44dc-931b-253d09157587"},"vehicle_type_id":"4","last_reported":1729681645,"current_range_meters":38000,"station_id":"ce4bhgp2rcd13ifvqfd0","pricing_plan_id":"cebpf4jnsgd1na2vs0mg"},{"bike_id":"c6fd4948-9641-45b6-8c16-ac5424e01893","system_id":"levelo_inurba_marseille","lat":43.30152,"lon":5.38087,"is_reserved":false,"is_disabled":false,"rental_uris":{"android":"levelo://app?vid=c6fd4948-9641-45b6-8c16-ac5424e01893","ios":"levelo://app?vid=c6fd4948-9641-45b6-8c16-ac5424e01893"},"vehicle_type_id":"4","last_reported":1729681645,"current_range_meters":38400,"station_id":"ce4bgjp2rcd13ifvqbh0","pricing_plan_id":"cebpf4jnsgd1na2vs0mg"},{"bike_id":"2854aeb2-ce63-4ec2-b7ba-71cd6ac58e6c","system_id":"levelo_inurba_marseille","lat":43.29005,"lon":5.35608,"is_reserved":false,"is_disabled":false,"rental_uris":{"android":"levelo://app?vid=2854aeb2-ce63-4ec2-b7ba-71cd6ac58e6c","ios":"levelo://app?vid=2854aeb2-ce63-4ec2-b7ba-71cd6ac58e6c"},"vehicle_type_id":"4","last_reported":1729681645,"current_range_meters":28000,"station_id":"ce4bhb92rcd13ifvqen0","pricing_plan_id":"cebpf4jnsgd1na2vs0mg"},{"bike_id":"8f84bbcb-ea7f-4edd-a5db-315d8484357d","system_id":"levelo_inurba_marseille","lat":43.28611,"lon":5.35101,"is_reserved":false,"is_disabled":false,"rental_uris":{"android":"levelo://app?vid=8f84bbcb-ea7f-4edd-a5db-315d8484357d","ios":"levelo://app?vid=8f84bbcb-ea7f-4edd-a5db-315d8484357d"},"vehicle_type_id":"4","last_reported":1729681645,"current_range_meters":38800,"station_id":"ce4bhch2rcd13ifvqeug","pricing_plan_id":"cebpf4jnsgd1na2vs0mg"},{"bike_id":"3b2a6b3a-025e-4f82-92ea-4f5d9973bd34","system_id":"levelo_inurba_marseille","lat":43.26941,"lon":5.40246,"is_reserved":false,"is_disabled":false,"rental_uris":{"android":"levelo://app?vid=3b2a6b3a-025e-4f82-92ea-4f5d9973bd34","ios":"levelo://app?vid=3b2a6b3a-025e-4f82-92ea-4f5d9973bd34"},"vehicle_type_id":"4","last_reported":1729681645,"current_range_meters":38800,"station_id":"cjm6bp8fraef2m0cb0m0","pricing_plan_id":"cebpf4jnsgd1na2vs0mg"},{"bike_id":"7cad2579-083c-4aa7-b77e-b2ac1268d7a1","system_id":"levelo_inurba_marseille","lat":43.301952,"lon":5.366251,"is_reserved":false,"is_disabled":false,"rental_uris":{"android":"levelo://app?vid=7cad2579-083c-4aa7-b77e-b2ac1268d7a1","ios":"levelo://app?vid=7cad2579-083c-4aa7-b77e-b2ac1268d7a1"},"vehicle_type_id":"4","last_reported":1729681645,"current_range_meters":21600,"station_id":"ce4bgrh2rcd13ifvqc8g","pricing_plan_id":"cebpf4jnsgd1na2vs0mg"},{"bike_id":"bcacf95d-41d7-437a-9024-b9dc8c811ee1","system_id":"levelo_inurba_marseille","lat":43.30427,"lon":5.38894,"is_reserved":false,"is_disabled":false,"rental_uris":{"android":"levelo://app?vid=bcacf95d-41d7-437a-9024-b9dc8c811ee1","ios":"levelo://app?vid=bcacf95d-41d7-437a-9024-b9dc8c811ee1"},"vehicle_type_id":"4","last_reported":1729681645,"current_range_meters":24400,"station_id":"ce4bgk12rcd13ifvqbi0","pricing_plan_id":"cebpf4jnsgd1na2vs0mg"},{"bike_id":"4950b7c7-c612-4f21-947e-b3d95432847e","system_id":"levelo_inurba_marseille","lat":43.31224,"lon":5.36862,"is_reserved":false,"is_disabled":false,"rental_uris":{"android":"levelo://app?vid=4950b7c7-c612-4f21-947e-b3d95432847e","ios":"levelo://app?vid=4950b7c7-c612-4f21-947e-b3d95432847e"},"vehicle_type_id":"4","last_reported":1729681645,"current_range_meters":27600,"station_id":"ce4bgl92rcd13ifvqbq0","pricing_plan_id":"cebpf4jnsgd1na2vs0mg"},{"bike_id":"f483f593-b27a-45bc-a949-0596e90322bd","system_id":"levelo_inurba_marseille","lat":43.30554,"lon":5.3653,"is_reserved":false,"is_disabled":false,"rental_uris":{"android":"levelo://app?vid=f483f593-b27a-45bc-a949-0596e90322bd","ios":"levelo://app?vid=f483f593-b27a-45bc-a949-0596e90322bd"},"vehicle_type_id":"4","last_reported":1729681645,"current_range_meters":6800,"station_id":"ce4bgs12rcd13ifvqcag","pricing_plan_id":"cebpf4jnsgd1na2vs0mg"},{"bike_id":"927a9ca0-9f48-493a-8d09-f98c0f0c1f2a","system_id":"levelo_inurba_marseille","lat":43.26807,"lon":5.40262,"is_reserved":false,"is_disabled":false,"rental_uris":{"android":"levelo://app?vid=927a9ca0-9f48-493a-8d09-f98c0f0c1f2a","ios":"levelo://app?vid=927a9ca0-9f48-493a-8d09-f98c0f0c1f2a"},"vehicle_type_id":"4","last_reported":1729681645,"current_range_meters":38800,"station_id":"ce501612rcd8frsf0b60","pricing_plan_id":"cebpf4jnsgd1na2vs0mg"},{"bike_id":"4e3ff028-3bec-454a-b6d4-1530a820c200","system_id":"levelo_inurba_marseille","lat":43.27988,"lon":5.41658,"is_reserved":false,"is_disabled":false,"rental_uris":{"android":"levelo://app?vid=4e3ff028-3bec-454a-b6d4-1530a820c200","ios":"levelo://app?vid=4e3ff028-3bec-454a-b6d4-1530a820c200"},"vehicle_type_id":"4","last_reported":1729681645,"current_range_meters":14400,"station_id":"ce4bho12rcd13ifvqh1g","pricing_plan_id":"cebpf4jnsgd1na2vs0mg"},{"bike_id":"5248e1e2-f0c7-4f36-bcab-1c13dbed505a","system_id":"levelo_inurba_marseille","lat":43.29189,"lon":5.35798,"is_reserved":false,"is_disabled":false,"rental_uris":{"android":"levelo://app?vid=5248e1e2-f0c7-4f36-bcab-1c13dbed505a","ios":"levelo://app?vid=5248e1e2-f0c7-4f36-bcab-1c13dbed505a"},"vehicle_type_id":"4","last_reported":1729681645,"current_range_meters":9200,"station_id":"ce4bhb12rcd13ifvqel0","pricing_plan_id":"cebpf4jnsgd1na2vs0mg"},{"bike_id":"8151e4b1-b91e-414e-bc6d-15523dc26ed1","system_id":"levelo_inurba_marseille","lat":43.27496,"lon":5.42455,"is_reserved":false,"is_disabled":false,"rental_uris":{"android":"levelo://app?vid=8151e4b1-b91e-414e-bc6d-15523dc26ed1","ios":"levelo://app?vid=8151e4b1-b91e-414e-bc6d-15523dc26ed1"},"vehicle_type_id":"4","last_reported":1729681645,"current_range_meters":32400,"station_id":"ce4bhn92rcd13ifvqgrg","pricing_plan_id":"cebpf4jnsgd1na2vs0mg"},{"bike_id":"7d9bae66-75c0-414c-b6e5-1dae4af5c1cb","system_id":"levelo_inurba_marseille","lat":43.22929,"lon":5.35377,"is_reserved":false,"is_disabled":false,"rental_uris":{"android":"levelo://app?vid=7d9bae66-75c0-414c-b6e5-1dae4af5c1cb","ios":"levelo://app?vid=7d9bae66-75c0-414c-b6e5-1dae4af5c1cb"},"vehicle_type_id":"4","last_reported":1729681645,"current_range_meters":37600,"station_id":"cpo3532slgdg3j2ikp40","pricing_plan_id":"cebpf4jnsgd1na2vs0mg"},{"bike_id":"bc6fc2dd-0537-4742-a23e-fd87afb51ccf","system_id":"levelo_inurba_marseille","lat":43.25722,"lon":5.41105,"is_reserved":false,"is_disabled":false,"rental_uris":{"android":"levelo://app?vid=bc6fc2dd-0537-4742-a23e-fd87afb51ccf","ios":"levelo://app?vid=bc6fc2dd-0537-4742-a23e-fd87afb51ccf"},"vehicle_type_id":"4","last_reported":1729681645,"current_range_meters":36800,"station_id":"ce4bhkp2rcd13ifvqgd0","pricing_plan_id":"cebpf4jnsgd1na2vs0mg"},{"bike_id":"6a43b4fd-914d-40f7-9bd0-0b672ea03fc4","system_id":"levelo_inurba_marseille","lat":43.29219,"lon":5.36069,"is_reserved":false,"is_disabled":false,"rental_uris":{"android":"levelo://app?vid=6a43b4fd-914d-40f7-9bd0-0b672ea03fc4","ios":"levelo://app?vid=6a43b4fd-914d-40f7-9bd0-0b672ea03fc4"},"vehicle_type_id":"4","last_reported":1729681645,"current_range_meters":34800,"station_id":"ce4bhbh2rcd13ifvqeqg","pricing_plan_id":"cebpf4jnsgd1na2vs0mg"},{"bike_id":"996c7ab2-d449-4d7b-91cf-f943ebfcd4ee","system_id":"levelo_inurba_marseille","lat":43.28409,"lon":5.37515,"is_reserved":false,"is_disabled":false,"rental_uris":{"android":"levelo://app?vid=996c7ab2-d449-4d7b-91cf-f943ebfcd4ee","ios":"levelo://app?vid=996c7ab2-d449-4d7b-91cf-f943ebfcd4ee"},"vehicle_type_id":"4","last_reported":1729681645,"current_range_meters":5600,"station_id":"ce4bh412rcd13ifvqds0","pricing_plan_id":"cebpf4jnsgd1na2vs0mg"},{"bike_id":"5581c273-b730-4610-9500-4c446eb47e82","system_id":"levelo_inurba_marseille","lat":43.32056,"lon":5.41542,"is_reserved":false,"is_disabled":false,"rental_uris":{"android":"levelo://app?vid=5581c273-b730-4610-9500-4c446eb47e82","ios":"levelo://app?vid=5581c273-b730-4610-9500-4c446eb47e82"},"vehicle_type_id":"4","last_reported":1729681645,"current_range_meters":10800,"station_id":"ce4bhq92rcd13ifvqhkg","pricing_plan_id":"cebpf4jnsgd1na2vs0mg"},{"bike_id":"4f6e48e1-d18c-4ef1-8739-6f3d76585a44","system_id":"levelo_inurba_marseille","lat":43.24995,"lon":5.38934,"is_reserved":false,"is_disabled":false,"rental_uris":{"android":"levelo://app?vid=4f6e48e1-d18c-4ef1-8739-6f3d76585a44","ios":"levelo://app?vid=4f6e48e1-d18c-4ef1-8739-6f3d76585a44"},"vehicle_type_id":"4","last_reported":1729681645,"current_range_meters":35600,"station_id":"ce4bhgp2rcd13ifvqfd0","pricing_plan_id":"cebpf4jnsgd1na2vs0mg"},{"bike_id":"c803187e-448f-4d8d-ad3a-ff36110a20d0","system_id":"levelo_inurba_marseille","lat":43.31333,"lon":5.36706,"is_reserved":false,"is_disabled":false,"rental_uris":{"android":"levelo://app?vid=c803187e-448f-4d8d-ad3a-ff36110a20d0","ios":"levelo://app?vid=c803187e-448f-4d8d-ad3a-ff36110a20d0"},"vehicle_type_id":"4","last_reported":1729681645,"current_range_meters":39200,"station_id":"ce4bgr92rcd13ifvqc6g","pricing_plan_id":"cebpf4jnsgd1na2vs0mg"},{"bike_id":"2b9a0c14-3b90-444c-b03d-966cb6cb1c37","system_id":"levelo_inurba_marseille","lat":43.28461,"lon":5.38424,"is_reserved":false,"is_disabled":false,"rental_uris":{"android":"levelo://app?vid=2b9a0c14-3b90-444c-b03d-966cb6cb1c37","ios":"levelo://app?vid=2b9a0c14-3b90-444c-b03d-966cb6cb1c37"},"vehicle_type_id":"4","last_reported":1729681645,"current_range_meters":10800,"station_id":"ce4bh512rcd13ifvqe3g","pricing_plan_id":"cebpf4jnsgd1na2vs0mg"},{"bike_id":"d563aee1-a328-4293-b5aa-9f8512551659","system_id":"levelo_inurba_marseille","lat":43.25855,"lon":5.399476,"is_reserved":false,"is_disabled":false,"rental_uris":{"android":"levelo://app?vid=d563aee1-a328-4293-b5aa-9f8512551659","ios":"levelo://app?vid=d563aee1-a328-4293-b5aa-9f8512551659"},"vehicle_type_id":"4","last_reported":1729681645,"current_range_meters":20800,"station_id":"ce4bhl92rcd13ifvqghg","pricing_plan_id":"cebpf4jnsgd1na2vs0mg"},{"bike_id":"2d9e1a7f-ac4a-4254-8a87-8c2c5c7386bc","system_id":"levelo_inurba_marseille","lat":43.25584,"lon":5.38232,"is_reserved":false,"is_disabled":false,"rental_uris":{"android":"levelo://app?vid=2d9e1a7f-ac4a-4254-8a87-8c2c5c7386bc","ios":"levelo://app?vid=2d9e1a7f-ac4a-4254-8a87-8c2c5c7386bc"},"vehicle_type_id":"4","last_reported":1729681645,"current_range_meters":38400,"station_id":"ce4bhih2rcd13ifvqfs0","pricing_plan_id":"cebpf4jnsgd1na2vs0mg"},{"bike_id":"8375e0a1-36be-4b60-9f98-d6ac6445f7e2","system_id":"levelo_inurba_marseille","lat":43.28614,"lon":5.35099,"is_reserved":false,"is_disabled":false,"rental_uris":{"android":"levelo://app?vid=8375e0a1-36be-4b60-9f98-d6ac6445f7e2","ios":"levelo://app?vid=8375e0a1-36be-4b60-9f98-d6ac6445f7e2"},"vehicle_type_id":"4","last_reported":1729681645,"current_range_meters":27600,"station_id":"ce4bhch2rcd13ifvqeug","pricing_plan_id":"cebpf4jnsgd1na2vs0mg"},{"bike_id":"b48f8c2d-a05e-4cee-bf57-4525735200ad","system_id":"levelo_inurba_marseille","lat":43.26679,"lon":5.38259,"is_reserved":false,"is_disabled":false,"rental_uris":{"android":"levelo://app?vid=b48f8c2d-a05e-4cee-bf57-4525735200ad","ios":"levelo://app?vid=b48f8c2d-a05e-4cee-bf57-4525735200ad"},"vehicle_type_id":"4","last_reported":1729681645,"current_range_meters":38800,"station_id":"ce4bhg92rcd13ifvqf90","pricing_plan_id":"cebpf4jnsgd1na2vs0mg"},{"bike_id":"32010e84-ef8a-46d1-8f5c-57450e9a999d","system_id":"levelo_inurba_marseille","lat":43.27979,"lon":5.3874,"is_reserved":false,"is_disabled":false,"rental_uris":{"android":"levelo://app?vid=32010e84-ef8a-46d1-8f5c-57450e9a999d","ios":"levelo://app?vid=32010e84-ef8a-46d1-8f5c-57450e9a999d"},"vehicle_type_id":"4","last_reported":1729681645,"current_range_meters":16400,"station_id":"ce4bhg12rcd13ifvqf80","pricing_plan_id":"cebpf4jnsgd1na2vs0mg"},{"bike_id":"e637874e-66d3-486d-8483-c432b93967e0","system_id":"levelo_inurba_marseille","lat":43.29681,"lon":5.37287,"is_reserved":false,"is_disabled":false,"rental_uris":{"android":"levelo://app?vid=e637874e-66d3-486d-8483-c432b93967e0","ios":"levelo://app?vid=e637874e-66d3-486d-8483-c432b93967e0"},"vehicle_type_id":"4","last_reported":1729681645,"current_range_meters":16400,"station_id":"ce4bgk12rcd13ifvqbj0","pricing_plan_id":"cebpf4jnsgd1na2vs0mg"},{"bike_id":"467a35a0-721d-4cba-af58-22401a8df03f","system_id":"levelo_inurba_marseille","lat":43.28077,"lon":5.39665,"is_reserved":false,"is_disabled":false,"rental_uris":{"android":"levelo://app?vid=467a35a0-721d-4cba-af58-22401a8df03f","ios":"levelo://app?vid=467a35a0-721d-4cba-af58-22401a8df03f"},"vehicle_type_id":"4","last_reported":1729681645,"current_range_meters":24000,"station_id":"ce4bho12rcd13ifvqh2g","pricing_plan_id":"cebpf4jnsgd1na2vs0mg"},{"bike_id":"4cc31e6b-44f7-4f7a-bad5-d77b1b4983b3","system_id":"levelo_inurba_marseille","lat":43.22933,"lon":5.35377,"is_reserved":false,"is_disabled":false,"rental_uris":{"android":"levelo://app?vid=4cc31e6b-44f7-4f7a-bad5-d77b1b4983b3","ios":"levelo://app?vid=4cc31e6b-44f7-4f7a-bad5-d77b1b4983b3"},"vehicle_type_id":"4","last_reported":1729681645,"current_range_meters":18000,"station_id":"cpo3532slgdg3j2ikp40","pricing_plan_id":"cebpf4jnsgd1na2vs0mg"},{"bike_id":"4899f6e6-1d55-4a75-bd49-d67101dac4e6","system_id":"levelo_inurba_marseille","lat":43.26935,"lon":5.38908,"is_reserved":false,"is_disabled":false,"rental_uris":{"android":"levelo://app?vid=4899f6e6-1d55-4a75-bd49-d67101dac4e6","ios":"levelo://app?vid=4899f6e6-1d55-4a75-bd49-d67101dac4e6"},"vehicle_type_id":"4","last_reported":1729681645,"current_range_meters":40000,"station_id":"ce4bhhh2rcd13ifvqfl0","pricing_plan_id":"cebpf4jnsgd1na2vs0mg"},{"bike_id":"a0143074-47f5-468e-a7b8-a68758c0a9e5","system_id":"levelo_inurba_marseille","lat":43.304535,"lon":5.37892,"is_reserved":false,"is_disabled":false,"rental_uris":{"android":"levelo://app?vid=a0143074-47f5-468e-a7b8-a68758c0a9e5","ios":"levelo://app?vid=a0143074-47f5-468e-a7b8-a68758c0a9e5"},"vehicle_type_id":"4","last_reported":1729681645,"current_range_meters":31200,"station_id":"ce4bgup2rcd13ifvqcn0","pricing_plan_id":"cebpf4jnsgd1na2vs0mg"},{"bike_id":"0f5cdfc4-5b60-4363-9b23-005fe02f6198","system_id":"levelo_inurba_marseille","lat":43.25724,"lon":5.41109,"is_reserved":false,"is_disabled":false,"rental_uris":{"android":"levelo://app?vid=0f5cdfc4-5b60-4363-9b23-005fe02f6198","ios":"levelo://app?vid=0f5cdfc4-5b60-4363-9b23-005fe02f6198"},"vehicle_type_id":"4","last_reported":1729681645,"current_range_meters":15200,"station_id":"ce4bhkp2rcd13ifvqgd0","pricing_plan_id":"cebpf4jnsgd1na2vs0mg"},{"bike_id":"f4e3531b-4071-42e8-8b8e-643d75d3ce79","system_id":"levelo_inurba_marseille","lat":43.27375,"lon":5.36256,"is_reserved":false,"is_disabled":false,"rental_uris":{"android":"levelo://app?vid=f4e3531b-4071-42e8-8b8e-643d75d3ce79","ios":"levelo://app?vid=f4e3531b-4071-42e8-8b8e-643d75d3ce79"},"vehicle_type_id":"4","last_reported":1729681645,"current_range_meters":33600,"station_id":"ce4bhbh2rcd13ifvqeo0","pricing_plan_id":"cebpf4jnsgd1na2vs0mg"},{"bike_id":"fdd2048c-6233-4395-9df8-149f48b3953f","system_id":"levelo_inurba_marseille","lat":43.28695,"lon":5.39972,"is_reserved":false,"is_disabled":false,"rental_uris":{"android":"levelo://app?vid=fdd2048c-6233-4395-9df8-149f48b3953f","ios":"levelo://app?vid=fdd2048c-6233-4395-9df8-149f48b3953f"},"vehicle_type_id":"4","last_reported":1729681645,"current_range_meters":38400,"station_id":"ce4bho92rcd13ifvqh3g","pricing_plan_id":"cebpf4jnsgd1na2vs0mg"},{"bike_id":"3c3b48bb-f8a9-4ae9-82bb-3bca79d11ade","system_id":"levelo_inurba_marseille","lat":43.30549,"lon":5.36705,"is_reserved":false,"is_disabled":false,"rental_uris":{"android":"levelo://app?vid=3c3b48bb-f8a9-4ae9-82bb-3bca79d11ade","ios":"levelo://app?vid=3c3b48bb-f8a9-4ae9-82bb-3bca79d11ade"},"vehicle_type_id":"4","last_reported":1729681645,"current_range_meters":26000,"station_id":"ce4bgrp2rcd13ifvqc9g","pricing_plan_id":"cebpf4jnsgd1na2vs0mg"},{"bike_id":"c43a7e82-6fb7-4d8a-b135-275fafab1c22","system_id":"levelo_inurba_marseille","lat":43.23966,"lon":5.36626,"is_reserved":false,"is_disabled":false,"rental_uris":{"android":"levelo://app?vid=c43a7e82-6fb7-4d8a-b135-275fafab1c22","ios":"levelo://app?vid=c43a7e82-6fb7-4d8a-b135-275fafab1c22"},"vehicle_type_id":"4","last_reported":1729681645,"current_range_meters":38800,"station_id":"ce4bhi12rcd13ifvqfp0","pricing_plan_id":"cebpf4jnsgd1na2vs0mg"},{"bike_id":"0dc5fd65-6c08-45fc-b9d0-c856107da224","system_id":"levelo_inurba_marseille","lat":43.29579,"lon":5.36742,"is_reserved":false,"is_disabled":false,"rental_uris":{"android":"levelo://app?vid=0dc5fd65-6c08-45fc-b9d0-c856107da224","ios":"levelo://app?vid=0dc5fd65-6c08-45fc-b9d0-c856107da224"},"vehicle_type_id":"4","last_reported":1729681645,"current_range_meters":8400,"station_id":"ce4bgph2rcd13ifvqc2g","pricing_plan_id":"cebpf4jnsgd1na2vs0mg"},{"bike_id":"4145a2f9-e09c-4c66-bf90-de4da867398d","system_id":"levelo_inurba_marseille","lat":43.23144,"lon":5.43703,"is_reserved":false,"is_disabled":false,"rental_uris":{"android":"levelo://app?vid=4145a2f9-e09c-4c66-bf90-de4da867398d","ios":"levelo://app?vid=4145a2f9-e09c-4c66-bf90-de4da867398d"},"vehicle_type_id":"4","last_reported":1729681645,"current_range_meters":38800,"station_id":"ce4bhmp2rcd13ifvqgog","pricing_plan_id":"cebpf4jnsgd1na2vs0mg"},{"bike_id":"c04ab802-f35d-4e5d-8440-52e2f675fa64","system_id":"levelo_inurba_marseille","lat":43.23151,"lon":5.43702,"is_reserved":false,"is_disabled":false,"rental_uris":{"android":"levelo://app?vid=c04ab802-f35d-4e5d-8440-52e2f675fa64","ios":"levelo://app?vid=c04ab802-f35d-4e5d-8440-52e2f675fa64"},"vehicle_type_id":"4","last_reported":1729681645,"current_range_meters":27200,"station_id":"ce4bhmp2rcd13ifvqgog","pricing_plan_id":"cebpf4jnsgd1na2vs0mg"},{"bike_id":"f7436227-8593-4258-8d76-388d13547bae","system_id":"levelo_inurba_marseille","lat":43.33611,"lon":5.41039,"is_reserved":false,"is_disabled":false,"rental_uris":{"android":"levelo://app?vid=f7436227-8593-4258-8d76-388d13547bae","ios":"levelo://app?vid=f7436227-8593-4258-8d76-388d13547bae"},"vehicle_type_id":"4","last_reported":1729681645,"current_range_meters":16000,"station_id":"ce4bhqh2rcd13ifvqhmg","pricing_plan_id":"cebpf4jnsgd1na2vs0mg"},{"bike_id":"70c0db28-8045-42ba-a534-2532b86d3455","system_id":"levelo_inurba_marseille","lat":43.22932,"lon":5.35374,"is_reserved":false,"is_disabled":false,"rental_uris":{"android":"levelo://app?vid=70c0db28-8045-42ba-a534-2532b86d3455","ios":"levelo://app?vid=70c0db28-8045-42ba-a534-2532b86d3455"},"vehicle_type_id":"4","last_reported":1729681645,"current_range_meters":18800,"station_id":"cpo3532slgdg3j2ikp40","pricing_plan_id":"cebpf4jnsgd1na2vs0mg"},{"bike_id":"33e1d91f-1ee6-4b90-bfc3-c6205374b466","system_id":"levelo_inurba_marseille","lat":43.28846,"lon":5.39317,"is_reserved":false,"is_disabled":false,"rental_uris":{"android":"levelo://app?vid=33e1d91f-1ee6-4b90-bfc3-c6205374b466","ios":"levelo://app?vid=33e1d91f-1ee6-4b90-bfc3-c6205374b466"},"vehicle_type_id":"4","last_reported":1729681645,"current_range_meters":37600,"station_id":"ce4bh2p2rcd13ifvqdi0","pricing_plan_id":"cebpf4jnsgd1na2vs0mg"},{"bike_id":"fe269560-e2b9-488b-9e4b-72beadfad0e4","system_id":"levelo_inurba_marseille","lat":43.3028,"lon":5.37705,"is_reserved":false,"is_disabled":false,"rental_uris":{"android":"levelo://app?vid=fe269560-e2b9-488b-9e4b-72beadfad0e4","ios":"levelo://app?vid=fe269560-e2b9-488b-9e4b-72beadfad0e4"},"vehicle_type_id":"4","last_reported":1729681645,"current_range_meters":39200,"station_id":"ce4bguh2rcd13ifvqcj0","pricing_plan_id":"cebpf4jnsgd1na2vs0mg"},{"bike_id":"56a6bae7-c49d-48b7-b6d2-971031b6aaca","system_id":"levelo_inurba_marseille","lat":43.27904,"lon":5.38007,"is_reserved":false,"is_disabled":false,"rental_uris":{"android":"levelo://app?vid=56a6bae7-c49d-48b7-b6d2-971031b6aaca","ios":"levelo://app?vid=56a6bae7-c49d-48b7-b6d2-971031b6aaca"},"vehicle_type_id":"4","last_reported":1729681645,"current_range_meters":37600,"station_id":"ce4bhf92rcd13ifvqf50","pricing_plan_id":"cebpf4jnsgd1na2vs0mg"},{"bike_id":"23ae8356-8af5-4222-bc07-578ac964a63c","system_id":"levelo_inurba_marseille","lat":43.27981,"lon":5.3874,"is_reserved":false,"is_disabled":false,"rental_uris":{"android":"levelo://app?vid=23ae8356-8af5-4222-bc07-578ac964a63c","ios":"levelo://app?vid=23ae8356-8af5-4222-bc07-578ac964a63c"},"vehicle_type_id":"4","last_reported":1729681645,"current_range_meters":37600,"station_id":"ce4bhg12rcd13ifvqf80","pricing_plan_id":"cebpf4jnsgd1na2vs0mg"},{"bike_id":"c8c77899-367c-494a-983d-8bcc157151a3","system_id":"levelo_inurba_marseille","lat":43.33727,"lon":5.39183,"is_reserved":false,"is_disabled":false,"rental_uris":{"android":"levelo://app?vid=c8c77899-367c-494a-983d-8bcc157151a3","ios":"levelo://app?vid=c8c77899-367c-494a-983d-8bcc157151a3"},"vehicle_type_id":"4","last_reported":1729681645,"current_range_meters":37600,"station_id":"ce4bhr92rcd13ifvqhsg","pricing_plan_id":"cebpf4jnsgd1na2vs0mg"},{"bike_id":"dbf5fa68-a945-4a8e-b441-daedb8243982","system_id":"levelo_inurba_marseille","lat":43.29707,"lon":5.37691,"is_reserved":false,"is_disabled":false,"rental_uris":{"android":"levelo://app?vid=dbf5fa68-a945-4a8e-b441-daedb8243982","ios":"levelo://app?vid=dbf5fa68-a945-4a8e-b441-daedb8243982"},"vehicle_type_id":"4","last_reported":1729681645,"current_range_meters":38800,"station_id":"ce4bgkh2rcd13ifvqbl0","pricing_plan_id":"cebpf4jnsgd1na2vs0mg"},{"bike_id":"5cb74fba-815a-4799-9854-ce3ae02bea38","system_id":"levelo_inurba_marseille","lat":43.23178,"lon":5.39983,"is_reserved":false,"is_disabled":false,"rental_uris":{"android":"levelo://app?vid=5cb74fba-815a-4799-9854-ce3ae02bea38","ios":"levelo://app?vid=5cb74fba-815a-4799-9854-ce3ae02bea38"},"vehicle_type_id":"4","last_reported":1729681645,"current_range_meters":8000,"station_id":"ce4bhn12rcd13ifvqgqg","pricing_plan_id":"cebpf4jnsgd1na2vs0mg"},{"bike_id":"8adbb70f-e2a6-46a6-900d-4871e507b031","system_id":"levelo_inurba_marseille","lat":43.30796,"lon":5.38156,"is_reserved":false,"is_disabled":false,"rental_uris":{"android":"levelo://app?vid=8adbb70f-e2a6-46a6-900d-4871e507b031","ios":"levelo://app?vid=8adbb70f-e2a6-46a6-900d-4871e507b031"},"vehicle_type_id":"4","last_reported":1729681645,"current_range_meters":14000,"station_id":"ce4bgt12rcd13ifvqce0","pricing_plan_id":"cebpf4jnsgd1na2vs0mg"},{"bike_id":"d04a0a7b-a14a-4fa4-ae16-ffa470dfd5e1","system_id":"levelo_inurba_marseille","lat":43.32535,"lon":5.41445,"is_reserved":false,"is_disabled":false,"rental_uris":{"android":"levelo://app?vid=d04a0a7b-a14a-4fa4-ae16-ffa470dfd5e1","ios":"levelo://app?vid=d04a0a7b-a14a-4fa4-ae16-ffa470dfd5e1"},"vehicle_type_id":"4","last_reported":1729681645,"current_range_meters":8400,"station_id":"ce4bhq12rcd13ifvqhhg","pricing_plan_id":"cebpf4jnsgd1na2vs0mg"},{"bike_id":"cac67a41-9681-408c-91da-eff2bc0278dc","system_id":"levelo_inurba_marseille","lat":43.28367,"lon":5.38616,"is_reserved":false,"is_disabled":false,"rental_uris":{"android":"levelo://app?vid=cac67a41-9681-408c-91da-eff2bc0278dc","ios":"levelo://app?vid=cac67a41-9681-408c-91da-eff2bc0278dc"},"vehicle_type_id":"4","last_reported":1729681645,"current_range_meters":9600,"station_id":"ce4bh492rcd13ifvqdvg","pricing_plan_id":"cebpf4jnsgd1na2vs0mg"},{"bike_id":"81fcae42-b14b-4042-ad17-ec36ee755d7e","system_id":"levelo_inurba_marseille","lat":43.26956,"lon":5.38635,"is_reserved":false,"is_disabled":false,"rental_uris":{"android":"levelo://app?vid=81fcae42-b14b-4042-ad17-ec36ee755d7e","ios":"levelo://app?vid=81fcae42-b14b-4042-ad17-ec36ee755d7e"},"vehicle_type_id":"4","last_reported":1729681645,"current_range_meters":24000,"station_id":"ce4bhh92rcd13ifvqfh0","pricing_plan_id":"cebpf4jnsgd1na2vs0mg"},{"bike_id":"701b3236-71f5-4af2-a91f-70173ad1d636","system_id":"levelo_inurba_marseille","lat":43.25938,"lon":5.40903,"is_reserved":false,"is_disabled":false,"rental_uris":{"android":"levelo://app?vid=701b3236-71f5-4af2-a91f-70173ad1d636","ios":"levelo://app?vid=701b3236-71f5-4af2-a91f-70173ad1d636"},"vehicle_type_id":"4","last_reported":1729681645,"current_range_meters":27200,"station_id":"ce4bhm92rcd13ifvqglg","pricing_plan_id":"cebpf4jnsgd1na2vs0mg"},{"bike_id":"54f7ba52-3644-4d65-bc27-7966fb5ac9d0","system_id":"levelo_inurba_marseille","lat":43.2827,"lon":5.35074,"is_reserved":false,"is_disabled":false,"rental_uris":{"android":"levelo://app?vid=54f7ba52-3644-4d65-bc27-7966fb5ac9d0","ios":"levelo://app?vid=54f7ba52-3644-4d65-bc27-7966fb5ac9d0"},"vehicle_type_id":"4","last_reported":1729681645,"current_range_meters":10800,"station_id":"ce4bhbp2rcd13ifvqerg","pricing_plan_id":"cebpf4jnsgd1na2vs0mg"},{"bike_id":"29665abb-bb05-4470-bec8-a92af688bd5f","system_id":"levelo_inurba_marseille","lat":43.29556,"lon":5.42282,"is_reserved":false,"is_disabled":false,"rental_uris":{"android":"levelo://app?vid=29665abb-bb05-4470-bec8-a92af688bd5f","ios":"levelo://app?vid=29665abb-bb05-4470-bec8-a92af688bd5f"},"vehicle_type_id":"4","last_reported":1729681645,"current_range_meters":29600,"station_id":"ce4bhph2rcd13ifvqhdg","pricing_plan_id":"cebpf4jnsgd1na2vs0mg"},{"bike_id":"7d22e821-921e-408d-8e70-0db0cd4ddc63","system_id":"levelo_inurba_marseille","lat":43.28481,"lon":5.38413,"is_reserved":false,"is_disabled":false,"rental_uris":{"android":"levelo://app?vid=7d22e821-921e-408d-8e70-0db0cd4ddc63","ios":"levelo://app?vid=7d22e821-921e-408d-8e70-0db0cd4ddc63"},"vehicle_type_id":"4","last_reported":1729681645,"current_range_meters":4400,"station_id":"ce4bh512rcd13ifvqe3g","pricing_plan_id":"cebpf4jnsgd1na2vs0mg"},{"bike_id":"ffe855c4-4fd2-4bc9-9768-2d5ddb1326c1","system_id":"levelo_inurba_marseille","lat":43.25113,"lon":5.4032,"is_reserved":false,"is_disabled":false,"rental_uris":{"android":"levelo://app?vid=ffe855c4-4fd2-4bc9-9768-2d5ddb1326c1","ios":"levelo://app?vid=ffe855c4-4fd2-4bc9-9768-2d5ddb1326c1"},"vehicle_type_id":"4","last_reported":1729681645,"current_range_meters":11200,"station_id":"ce4bhlh2rcd13ifvqgig","pricing_plan_id":"cebpf4jnsgd1na2vs0mg"},{"bike_id":"06e88c89-0c0e-4be1-8d9f-ae84107e0b66","system_id":"levelo_inurba_marseille","lat":43.28938,"lon":5.39622,"is_reserved":false,"is_disabled":false,"rental_uris":{"android":"levelo://app?vid=06e88c89-0c0e-4be1-8d9f-ae84107e0b66","ios":"levelo://app?vid=06e88c89-0c0e-4be1-8d9f-ae84107e0b66"},"vehicle_type_id":"4","last_reported":1729681645,"current_range_meters":3600,"station_id":"ce4bh3h2rcd13ifvqdn0","pricing_plan_id":"cebpf4jnsgd1na2vs0mg"},{"bike_id":"c3945b60-e38d-4106-8f18-92c7f436cc4f","system_id":"levelo_inurba_marseille","lat":43.33756,"lon":5.37449,"is_reserved":false,"is_disabled":false,"rental_uris":{"android":"levelo://app?vid=c3945b60-e38d-4106-8f18-92c7f436cc4f","ios":"levelo://app?vid=c3945b60-e38d-4106-8f18-92c7f436cc4f"},"vehicle_type_id":"4","last_reported":1729681645,"current_range_meters":27600,"station_id":"","pricing_plan_id":"cebpf4jnsgd1na2vs0mg"},{"bike_id":"8d6dff3a-d1d6-41d8-a057-5bd0b3631db3","system_id":"levelo_inurba_marseille","lat":43.23975,"lon":5.36619,"is_reserved":false,"is_disabled":false,"rental_uris":{"android":"levelo://app?vid=8d6dff3a-d1d6-41d8-a057-5bd0b3631db3","ios":"levelo://app?vid=8d6dff3a-d1d6-41d8-a057-5bd0b3631db3"},"vehicle_type_id":"4","last_reported":1729681645,"current_range_meters":37600,"station_id":"ce4bhi12rcd13ifvqfp0","pricing_plan_id":"cebpf4jnsgd1na2vs0mg"},{"bike_id":"46eee06c-988d-431c-84d9-253e455ac812","system_id":"levelo_inurba_marseille","lat":43.29217,"lon":5.36072,"is_reserved":false,"is_disabled":false,"rental_uris":{"android":"levelo://app?vid=46eee06c-988d-431c-84d9-253e455ac812","ios":"levelo://app?vid=46eee06c-988d-431c-84d9-253e455ac812"},"vehicle_type_id":"4","last_reported":1729681645,"current_range_meters":38400,"station_id":"ce4bhbh2rcd13ifvqeqg","pricing_plan_id":"cebpf4jnsgd1na2vs0mg"},{"bike_id":"2ae54133-7da2-472b-9f6f-14a0e9ba9c24","system_id":"levelo_inurba_marseille","lat":43.3077,"lon":5.376057,"is_reserved":false,"is_disabled":false,"rental_uris":{"android":"levelo://app?vid=2ae54133-7da2-472b-9f6f-14a0e9ba9c24","ios":"levelo://app?vid=2ae54133-7da2-472b-9f6f-14a0e9ba9c24"},"vehicle_type_id":"4","last_reported":1729681645,"current_range_meters":35600,"station_id":"ce4bh4p2rcd13ifvqe1g","pricing_plan_id":"cebpf4jnsgd1na2vs0mg"},{"bike_id":"78018770-86ea-4404-8452-ce018255cd17","system_id":"levelo_inurba_marseille","lat":43.22936,"lon":5.3538,"is_reserved":false,"is_disabled":false,"rental_uris":{"android":"levelo://app?vid=78018770-86ea-4404-8452-ce018255cd17","ios":"levelo://app?vid=78018770-86ea-4404-8452-ce018255cd17"},"vehicle_type_id":"4","last_reported":1729681645,"current_range_meters":23200,"station_id":"cpo3532slgdg3j2ikp40","pricing_plan_id":"cebpf4jnsgd1na2vs0mg"},{"bike_id":"46a05292-202e-4e11-aff2-86d9f9ea8a69","system_id":"levelo_inurba_marseille","lat":43.30533,"lon":5.36536,"is_reserved":false,"is_disabled":false,"rental_uris":{"android":"levelo://app?vid=46a05292-202e-4e11-aff2-86d9f9ea8a69","ios":"levelo://app?vid=46a05292-202e-4e11-aff2-86d9f9ea8a69"},"vehicle_type_id":"4","last_reported":1729681645,"current_range_meters":31200,"station_id":"ce4bgs12rcd13ifvqcag","pricing_plan_id":"cebpf4jnsgd1na2vs0mg"},{"bike_id":"34e26f02-12a5-4a84-a3d1-8542b07295d2","system_id":"levelo_inurba_marseille","lat":43.28426,"lon":5.34984,"is_reserved":false,"is_disabled":false,"rental_uris":{"android":"levelo://app?vid=34e26f02-12a5-4a84-a3d1-8542b07295d2","ios":"levelo://app?vid=34e26f02-12a5-4a84-a3d1-8542b07295d2"},"vehicle_type_id":"4","last_reported":1729681645,"current_range_meters":19600,"station_id":"ce4bhbh2rcd13ifvqepg","pricing_plan_id":"cebpf4jnsgd1na2vs0mg"},{"bike_id":"cec0febb-a5d7-4415-ba6b-dcdc9a65c10b","system_id":"levelo_inurba_marseille","lat":43.302704,"lon":5.377117,"is_reserved":false,"is_disabled":false,"rental_uris":{"android":"levelo://app?vid=cec0febb-a5d7-4415-ba6b-dcdc9a65c10b","ios":"levelo://app?vid=cec0febb-a5d7-4415-ba6b-dcdc9a65c10b"},"vehicle_type_id":"4","last_reported":1729681645,"current_range_meters":38800,"station_id":"ce4bguh2rcd13ifvqcj0","pricing_plan_id":"cebpf4jnsgd1na2vs0mg"},{"bike_id":"be09e01d-7c11-4a7f-89f3-d7b5414ad2b5","system_id":"levelo_inurba_marseille","lat":43.24184,"lon":5.39735,"is_reserved":false,"is_disabled":false,"rental_uris":{"android":"levelo://app?vid=be09e01d-7c11-4a7f-89f3-d7b5414ad2b5","ios":"levelo://app?vid=be09e01d-7c11-4a7f-89f3-d7b5414ad2b5"},"vehicle_type_id":"4","last_reported":1729681645,"current_range_meters":8800,"station_id":"ce4bhn12rcd13ifvqgpg","pricing_plan_id":"cebpf4jnsgd1na2vs0mg"},{"bike_id":"275233b8-93dd-47b2-a0bd-728bc0ccea73","system_id":"levelo_inurba_marseille","lat":43.29564,"lon":5.37518,"is_reserved":false,"is_disabled":false,"rental_uris":{"android":"levelo://app?vid=275233b8-93dd-47b2-a0bd-728bc0ccea73","ios":"levelo://app?vid=275233b8-93dd-47b2-a0bd-728bc0ccea73"},"vehicle_type_id":"4","last_reported":1729681645,"current_range_meters":35200,"station_id":"ce4bgh92rcd13ifvqb50","pricing_plan_id":"cebpf4jnsgd1na2vs0mg"},{"bike_id":"02875efe-b204-4303-bceb-cdd312e42d55","system_id":"levelo_inurba_marseille","lat":43.30428,"lon":5.38898,"is_reserved":false,"is_disabled":false,"rental_uris":{"android":"levelo://app?vid=02875efe-b204-4303-bceb-cdd312e42d55","ios":"levelo://app?vid=02875efe-b204-4303-bceb-cdd312e42d55"},"vehicle_type_id":"4","last_reported":1729681645,"current_range_meters":22400,"station_id":"ce4bgk12rcd13ifvqbi0","pricing_plan_id":"cebpf4jnsgd1na2vs0mg"},{"bike_id":"247c1539-097b-46dd-8c24-05380c7705d5","system_id":"levelo_inurba_marseille","lat":43.2958,"lon":5.36742,"is_reserved":false,"is_disabled":false,"rental_uris":{"android":"levelo://app?vid=247c1539-097b-46dd-8c24-05380c7705d5","ios":"levelo://app?vid=247c1539-097b-46dd-8c24-05380c7705d5"},"vehicle_type_id":"4","last_reported":1729681645,"current_range_meters":39200,"station_id":"ce4bgph2rcd13ifvqc2g","pricing_plan_id":"cebpf4jnsgd1na2vs0mg"},{"bike_id":"1d3c2354-bb06-46ef-82cb-7b20702826e7","system_id":"levelo_inurba_marseille","lat":43.31343,"lon":5.3671,"is_reserved":false,"is_disabled":false,"rental_uris":{"android":"levelo://app?vid=1d3c2354-bb06-46ef-82cb-7b20702826e7","ios":"levelo://app?vid=1d3c2354-bb06-46ef-82cb-7b20702826e7"},"vehicle_type_id":"4","last_reported":1729681645,"current_range_meters":39200,"station_id":"ce4bgr92rcd13ifvqc6g","pricing_plan_id":"cebpf4jnsgd1na2vs0mg"},{"bike_id":"e0f591a5-4a49-47dc-9aa6-eb75178c5760","system_id":"levelo_inurba_marseille","lat":43.2293,"lon":5.35378,"is_reserved":false,"is_disabled":false,"rental_uris":{"android":"levelo://app?vid=e0f591a5-4a49-47dc-9aa6-eb75178c5760","ios":"levelo://app?vid=e0f591a5-4a49-47dc-9aa6-eb75178c5760"},"vehicle_type_id":"4","last_reported":1729681645,"current_range_meters":36400,"station_id":"cpo3532slgdg3j2ikp40","pricing_plan_id":"cebpf4jnsgd1na2vs0mg"},{"bike_id":"7b5fc2ff-184d-4aef-9546-0b4270693721","system_id":"levelo_inurba_marseille","lat":43.3107,"lon":5.38357,"is_reserved":false,"is_disabled":false,"rental_uris":{"android":"levelo://app?vid=7b5fc2ff-184d-4aef-9546-0b4270693721","ios":"levelo://app?vid=7b5fc2ff-184d-4aef-9546-0b4270693721"},"vehicle_type_id":"4","last_reported":1729681645,"current_range_meters":32000,"station_id":"ce4bgv92rcd13ifvqcr0","pricing_plan_id":"cebpf4jnsgd1na2vs0mg"},{"bike_id":"933801c6-7137-4d35-a550-f95625db21cd","system_id":"levelo_inurba_marseille","lat":43.27963,"lon":5.38719,"is_reserved":false,"is_disabled":false,"rental_uris":{"android":"levelo://app?vid=933801c6-7137-4d35-a550-f95625db21cd","ios":"levelo://app?vid=933801c6-7137-4d35-a550-f95625db21cd"},"vehicle_type_id":"4","last_reported":1729681645,"current_range_meters":38400,"station_id":"ce4bhg12rcd13ifvqf80","pricing_plan_id":"cebpf4jnsgd1na2vs0mg"},{"bike_id":"3758e8e1-6774-4a6d-8d44-4f39d30cb7cf","system_id":"levelo_inurba_marseille","lat":43.22926,"lon":5.35382,"is_reserved":false,"is_disabled":false,"rental_uris":{"android":"levelo://app?vid=3758e8e1-6774-4a6d-8d44-4f39d30cb7cf","ios":"levelo://app?vid=3758e8e1-6774-4a6d-8d44-4f39d30cb7cf"},"vehicle_type_id":"4","last_reported":1729681645,"current_range_meters":37600,"station_id":"cpo3532slgdg3j2ikp40","pricing_plan_id":"cebpf4jnsgd1na2vs0mg"},{"bike_id":"5abb45eb-d914-47b8-85d8-cf77d30671a5","system_id":"levelo_inurba_marseille","lat":43.29414,"lon":5.38629,"is_reserved":false,"is_disabled":false,"rental_uris":{"android":"levelo://app?vid=5abb45eb-d914-47b8-85d8-cf77d30671a5","ios":"levelo://app?vid=5abb45eb-d914-47b8-85d8-cf77d30671a5"},"vehicle_type_id":"4","last_reported":1729681645,"current_range_meters":38800,"station_id":"ce4bh2h2rcd13ifvqdh0","pricing_plan_id":"cebpf4jnsgd1na2vs0mg"},{"bike_id":"946611bd-808f-42aa-8d8e-3a209538d209","system_id":"levelo_inurba_marseille","lat":43.24072,"lon":5.3775,"is_reserved":false,"is_disabled":false,"rental_uris":{"android":"levelo://app?vid=946611bd-808f-42aa-8d8e-3a209538d209","ios":"levelo://app?vid=946611bd-808f-42aa-8d8e-3a209538d209"},"vehicle_type_id":"4","last_reported":1729681645,"current_range_meters":9200,"station_id":"ce4bhnp2rcd13ifvqgvg","pricing_plan_id":"cebpf4jnsgd1na2vs0mg"},{"bike_id":"2acbacbf-fc8a-4cbe-8bda-b0d4965decdc","system_id":"levelo_inurba_marseille","lat":43.28402,"lon":5.37523,"is_reserved":false,"is_disabled":false,"rental_uris":{"android":"levelo://app?vid=2acbacbf-fc8a-4cbe-8bda-b0d4965decdc","ios":"levelo://app?vid=2acbacbf-fc8a-4cbe-8bda-b0d4965decdc"},"vehicle_type_id":"4","last_reported":1729681645,"current_range_meters":4400,"station_id":"ce4bh412rcd13ifvqds0","pricing_plan_id":"cebpf4jnsgd1na2vs0mg"},{"bike_id":"2c55e286-d011-4566-80ae-6b9e777bd194","system_id":"levelo_inurba_marseille","lat":43.27577,"lon":5.38415,"is_reserved":false,"is_disabled":false,"rental_uris":{"android":"levelo://app?vid=2c55e286-d011-4566-80ae-6b9e777bd194","ios":"levelo://app?vid=2c55e286-d011-4566-80ae-6b9e777bd194"},"vehicle_type_id":"4","last_reported":1729681645,"current_range_meters":21600,"station_id":"ce4bhh92rcd13ifvqfi0","pricing_plan_id":"cebpf4jnsgd1na2vs0mg"},{"bike_id":"3e0023f9-da00-4893-862e-c0c8263b6e02","system_id":"levelo_inurba_marseille","lat":43.31369,"lon":5.38491,"is_reserved":false,"is_disabled":false,"rental_uris":{"android":"levelo://app?vid=3e0023f9-da00-4893-862e-c0c8263b6e02","ios":"levelo://app?vid=3e0023f9-da00-4893-862e-c0c8263b6e02"},"vehicle_type_id":"4","last_reported":1729681645,"current_range_meters":8000,"station_id":"ce4bgt92rcd13ifvqcf0","pricing_plan_id":"cebpf4jnsgd1na2vs0mg"},{"bike_id":"985aafd7-c7e7-4f5e-829d-d0a7c3f370c0","system_id":"levelo_inurba_marseille","lat":43.28616,"lon":5.35104,"is_reserved":false,"is_disabled":false,"rental_uris":{"android":"levelo://app?vid=985aafd7-c7e7-4f5e-829d-d0a7c3f370c0","ios":"levelo://app?vid=985aafd7-c7e7-4f5e-829d-d0a7c3f370c0"},"vehicle_type_id":"4","last_reported":1729681645,"current_range_meters":36000,"station_id":"ce4bhch2rcd13ifvqeug","pricing_plan_id":"cebpf4jnsgd1na2vs0mg"},{"bike_id":"6ca7dbae-4d97-4778-8022-4d0931ce9ce7","system_id":"levelo_inurba_marseille","lat":43.305869,"lon":5.393627,"is_reserved":false,"is_disabled":false,"rental_uris":{"android":"levelo://app?vid=6ca7dbae-4d97-4778-8022-4d0931ce9ce7","ios":"levelo://app?vid=6ca7dbae-4d97-4778-8022-4d0931ce9ce7"},"vehicle_type_id":"4","last_reported":1729681645,"current_range_meters":36400,"station_id":"ce4bhap2rcd13ifvqek0","pricing_plan_id":"cebpf4jnsgd1na2vs0mg"},{"bike_id":"4a7abcc4-a1fa-417b-8ffa-a28e55985c43","system_id":"levelo_inurba_marseille","lat":43.24073,"lon":5.37752,"is_reserved":false,"is_disabled":false,"rental_uris":{"android":"levelo://app?vid=4a7abcc4-a1fa-417b-8ffa-a28e55985c43","ios":"levelo://app?vid=4a7abcc4-a1fa-417b-8ffa-a28e55985c43"},"vehicle_type_id":"4","last_reported":1729681645,"current_range_meters":37600,"station_id":"ce4bhnp2rcd13ifvqgvg","pricing_plan_id":"cebpf4jnsgd1na2vs0mg"},{"bike_id":"860423a3-40de-4cc8-b02f-36acef0fec79","system_id":"levelo_inurba_marseille","lat":43.27666,"lon":5.3888,"is_reserved":false,"is_disabled":false,"rental_uris":{"android":"levelo://app?vid=860423a3-40de-4cc8-b02f-36acef0fec79","ios":"levelo://app?vid=860423a3-40de-4cc8-b02f-36acef0fec79"},"vehicle_type_id":"4","last_reported":1729681645,"current_range_meters":32800,"station_id":"ce4bhi12rcd13ifvqfo0","pricing_plan_id":"cebpf4jnsgd1na2vs0mg"},{"bike_id":"efd5afb5-affe-4f92-b718-8fb76e39b27d","system_id":"levelo_inurba_marseille","lat":43.32483,"lon":5.36556,"is_reserved":false,"is_disabled":false,"rental_uris":{"android":"levelo://app?vid=efd5afb5-affe-4f92-b718-8fb76e39b27d","ios":"levelo://app?vid=efd5afb5-affe-4f92-b718-8fb76e39b27d"},"vehicle_type_id":"4","last_reported":1729681645,"current_range_meters":4000,"station_id":"ce4bhs12rcd13ifvqhvg","pricing_plan_id":"cebpf4jnsgd1na2vs0mg"},{"bike_id":"d0ccf715-1741-4354-abf6-accb40ef7112","system_id":"levelo_inurba_marseille","lat":43.30305,"lon":5.36889,"is_reserved":false,"is_disabled":false,"rental_uris":{"android":"levelo://app?vid=d0ccf715-1741-4354-abf6-accb40ef7112","ios":"levelo://app?vid=d0ccf715-1741-4354-abf6-accb40ef7112"},"vehicle_type_id":"4","last_reported":1729681645,"current_range_meters":17600,"station_id":"ce4bgqh2rcd13ifvqc5g","pricing_plan_id":"cebpf4jnsgd1na2vs0mg"},{"bike_id":"1f41f209-6719-4a28-a2e3-1bcb9e5ada20","system_id":"levelo_inurba_marseille","lat":43.23155,"lon":5.43709,"is_reserved":false,"is_disabled":false,"rental_uris":{"android":"levelo://app?vid=1f41f209-6719-4a28-a2e3-1bcb9e5ada20","ios":"levelo://app?vid=1f41f209-6719-4a28-a2e3-1bcb9e5ada20"},"vehicle_type_id":"4","last_reported":1729681645,"current_range_meters":31200,"station_id":"ce4bhmp2rcd13ifvqgog","pricing_plan_id":"cebpf4jnsgd1na2vs0mg"},{"bike_id":"fed29e3d-ded9-4536-b5e9-762e6c2a1343","system_id":"levelo_inurba_marseille","lat":43.29943,"lon":5.39186,"is_reserved":false,"is_disabled":false,"rental_uris":{"android":"levelo://app?vid=fed29e3d-ded9-4536-b5e9-762e6c2a1343","ios":"levelo://app?vid=fed29e3d-ded9-4536-b5e9-762e6c2a1343"},"vehicle_type_id":"4","last_reported":1729681645,"current_range_meters":12800,"station_id":"ce4bghh2rcd13ifvqb60","pricing_plan_id":"cebpf4jnsgd1na2vs0mg"},{"bike_id":"098893cd-4cf7-4f81-be3e-7248bbdae0ba","system_id":"levelo_inurba_marseille","lat":43.28148,"lon":5.42646,"is_reserved":false,"is_disabled":false,"rental_uris":{"android":"levelo://app?vid=098893cd-4cf7-4f81-be3e-7248bbdae0ba","ios":"levelo://app?vid=098893cd-4cf7-4f81-be3e-7248bbdae0ba"},"vehicle_type_id":"4","last_reported":1729681645,"current_range_meters":7200,"station_id":"ce4bhnh2rcd13ifvqgug","pricing_plan_id":"cebpf4jnsgd1na2vs0mg"},{"bike_id":"a755d17d-b844-417e-a9c9-647de9e9b0c9","system_id":"levelo_inurba_marseille","lat":43.307922,"lon":5.376551,"is_reserved":false,"is_disabled":false,"rental_uris":{"android":"levelo://app?vid=a755d17d-b844-417e-a9c9-647de9e9b0c9","ios":"levelo://app?vid=a755d17d-b844-417e-a9c9-647de9e9b0c9"},"vehicle_type_id":"4","last_reported":1729681645,"current_range_meters":30000,"station_id":"ce4bgv92rcd13ifvqcq0","pricing_plan_id":"cebpf4jnsgd1na2vs0mg"},{"bike_id":"81655709-d432-4ba3-98cc-2a86a909a8ab","system_id":"levelo_inurba_marseille","lat":43.269763,"lon":5.386861,"is_reserved":false,"is_disabled":false,"rental_uris":{"android":"levelo://app?vid=81655709-d432-4ba3-98cc-2a86a909a8ab","ios":"levelo://app?vid=81655709-d432-4ba3-98cc-2a86a909a8ab"},"vehicle_type_id":"4","last_reported":1729681645,"current_range_meters":11200,"station_id":"ce4bhu92rcd13ifvqi70","pricing_plan_id":"cebpf4jnsgd1na2vs0mg"},{"bike_id":"8c79de4e-20bb-43e9-9c15-6c86ce5ce78c","system_id":"levelo_inurba_marseille","lat":43.30288,"lon":5.37697,"is_reserved":false,"is_disabled":false,"rental_uris":{"android":"levelo://app?vid=8c79de4e-20bb-43e9-9c15-6c86ce5ce78c","ios":"levelo://app?vid=8c79de4e-20bb-43e9-9c15-6c86ce5ce78c"},"vehicle_type_id":"4","last_reported":1729681645,"current_range_meters":36400,"station_id":"ce4bguh2rcd13ifvqcj0","pricing_plan_id":"cebpf4jnsgd1na2vs0mg"},{"bike_id":"7aef475c-5cbd-4a27-bb8f-59662dfd1bbc","system_id":"levelo_inurba_marseille","lat":43.26493,"lon":5.39539,"is_reserved":false,"is_disabled":false,"rental_uris":{"android":"levelo://app?vid=7aef475c-5cbd-4a27-bb8f-59662dfd1bbc","ios":"levelo://app?vid=7aef475c-5cbd-4a27-bb8f-59662dfd1bbc"},"vehicle_type_id":"4","last_reported":1729681645,"current_range_meters":13600,"station_id":"ce4bhi12rcd13ifvqfq0","pricing_plan_id":"cebpf4jnsgd1na2vs0mg"},{"bike_id":"96b005b1-bb82-4989-9066-4f6b929bf520","system_id":"levelo_inurba_marseille","lat":43.299869,"lon":5.37586,"is_reserved":false,"is_disabled":false,"rental_uris":{"android":"levelo://app?vid=96b005b1-bb82-4989-9066-4f6b929bf520","ios":"levelo://app?vid=96b005b1-bb82-4989-9066-4f6b929bf520"},"vehicle_type_id":"4","last_reported":1729681645,"current_range_meters":19200,"station_id":"ce4bgs92rcd13ifvqcc0","pricing_plan_id":"cebpf4jnsgd1na2vs0mg"},{"bike_id":"98f6a391-6d00-4f4e-b5bf-6325771cc0e2","system_id":"levelo_inurba_marseille","lat":43.2901,"lon":5.35607,"is_reserved":false,"is_disabled":false,"rental_uris":{"android":"levelo://app?vid=98f6a391-6d00-4f4e-b5bf-6325771cc0e2","ios":"levelo://app?vid=98f6a391-6d00-4f4e-b5bf-6325771cc0e2"},"vehicle_type_id":"4","last_reported":1729681645,"current_range_meters":22000,"station_id":"ce4bhb92rcd13ifvqen0","pricing_plan_id":"cebpf4jnsgd1na2vs0mg"},{"bike_id":"8c5e12d8-050f-4b14-b710-7c5bf865b3a7","system_id":"levelo_inurba_marseille","lat":43.29002,"lon":5.35607,"is_reserved":false,"is_disabled":false,"rental_uris":{"android":"levelo://app?vid=8c5e12d8-050f-4b14-b710-7c5bf865b3a7","ios":"levelo://app?vid=8c5e12d8-050f-4b14-b710-7c5bf865b3a7"},"vehicle_type_id":"4","last_reported":1729681645,"current_range_meters":17600,"station_id":"ce4bhb92rcd13ifvqen0","pricing_plan_id":"cebpf4jnsgd1na2vs0mg"},{"bike_id":"a568d340-c401-4b90-a8c2-426fda0a0369","system_id":"levelo_inurba_marseille","lat":43.31225,"lon":5.36862,"is_reserved":false,"is_disabled":false,"rental_uris":{"android":"levelo://app?vid=a568d340-c401-4b90-a8c2-426fda0a0369","ios":"levelo://app?vid=a568d340-c401-4b90-a8c2-426fda0a0369"},"vehicle_type_id":"4","last_reported":1729681645,"current_range_meters":32800,"station_id":"ce4bgl92rcd13ifvqbq0","pricing_plan_id":"cebpf4jnsgd1na2vs0mg"},{"bike_id":"e68074ff-f5e2-424b-ac9b-aa2b95174368","system_id":"levelo_inurba_marseille","lat":43.28151,"lon":5.42646,"is_reserved":false,"is_disabled":false,"rental_uris":{"android":"levelo://app?vid=e68074ff-f5e2-424b-ac9b-aa2b95174368","ios":"levelo://app?vid=e68074ff-f5e2-424b-ac9b-aa2b95174368"},"vehicle_type_id":"4","last_reported":1729681645,"current_range_meters":26800,"station_id":"ce4bhnh2rcd13ifvqgug","pricing_plan_id":"cebpf4jnsgd1na2vs0mg"},{"bike_id":"21b66aba-946c-4760-8fb2-ee9d6ec5d7c7","system_id":"levelo_inurba_marseille","lat":43.2997,"lon":5.37178,"is_reserved":false,"is_disabled":false,"rental_uris":{"android":"levelo://app?vid=21b66aba-946c-4760-8fb2-ee9d6ec5d7c7","ios":"levelo://app?vid=21b66aba-946c-4760-8fb2-ee9d6ec5d7c7"},"vehicle_type_id":"4","last_reported":1729681645,"current_range_meters":32000,"station_id":"ce4bgr92rcd13ifvqc7g","pricing_plan_id":"cebpf4jnsgd1na2vs0mg"},{"bike_id":"815dd284-1bd2-4bb9-992a-b2116e2485bc","system_id":"levelo_inurba_marseille","lat":43.32667,"lon":5.36095,"is_reserved":false,"is_disabled":false,"rental_uris":{"android":"levelo://app?vid=815dd284-1bd2-4bb9-992a-b2116e2485bc","ios":"levelo://app?vid=815dd284-1bd2-4bb9-992a-b2116e2485bc"},"vehicle_type_id":"4","last_reported":1729681645,"current_range_meters":29600,"station_id":"","pricing_plan_id":"cebpf4jnsgd1na2vs0mg"},{"bike_id":"cb5d1a00-62f4-4882-92f7-e2421d467bc7","system_id":"levelo_inurba_marseille","lat":43.30551,"lon":5.36556,"is_reserved":false,"is_disabled":false,"rental_uris":{"android":"levelo://app?vid=cb5d1a00-62f4-4882-92f7-e2421d467bc7","ios":"levelo://app?vid=cb5d1a00-62f4-4882-92f7-e2421d467bc7"},"vehicle_type_id":"4","last_reported":1729681645,"current_range_meters":28800,"station_id":"ce4bgs12rcd13ifvqcag","pricing_plan_id":"cebpf4jnsgd1na2vs0mg"},{"bike_id":"627811a9-4978-496f-972a-e45837dda420","system_id":"levelo_inurba_marseille","lat":43.27493,"lon":5.42449,"is_reserved":false,"is_disabled":false,"rental_uris":{"android":"levelo://app?vid=627811a9-4978-496f-972a-e45837dda420","ios":"levelo://app?vid=627811a9-4978-496f-972a-e45837dda420"},"vehicle_type_id":"4","last_reported":1729681645,"current_range_meters":6800,"station_id":"ce4bhn92rcd13ifvqgrg","pricing_plan_id":"cebpf4jnsgd1na2vs0mg"},{"bike_id":"07c2576b-607e-4887-b80e-36889f16876e","system_id":"levelo_inurba_marseille","lat":43.3248,"lon":5.36557,"is_reserved":false,"is_disabled":false,"rental_uris":{"android":"levelo://app?vid=07c2576b-607e-4887-b80e-36889f16876e","ios":"levelo://app?vid=07c2576b-607e-4887-b80e-36889f16876e"},"vehicle_type_id":"4","last_reported":1729681645,"current_range_meters":30800,"station_id":"ce4bhs12rcd13ifvqhvg","pricing_plan_id":"cebpf4jnsgd1na2vs0mg"},{"bike_id":"d4fa5cb6-520d-43f8-9de2-76f18090c336","system_id":"levelo_inurba_marseille","lat":43.31222,"lon":5.36861,"is_reserved":false,"is_disabled":false,"rental_uris":{"android":"levelo://app?vid=d4fa5cb6-520d-43f8-9de2-76f18090c336","ios":"levelo://app?vid=d4fa5cb6-520d-43f8-9de2-76f18090c336"},"vehicle_type_id":"4","last_reported":1729681645,"current_range_meters":30000,"station_id":"ce4bgl92rcd13ifvqbq0","pricing_plan_id":"cebpf4jnsgd1na2vs0mg"},{"bike_id":"d52c6a35-1a60-499b-ba4e-e6cdebdfe29e","system_id":"levelo_inurba_marseille","lat":43.2842,"lon":5.34994,"is_reserved":false,"is_disabled":false,"rental_uris":{"android":"levelo://app?vid=d52c6a35-1a60-499b-ba4e-e6cdebdfe29e","ios":"levelo://app?vid=d52c6a35-1a60-499b-ba4e-e6cdebdfe29e"},"vehicle_type_id":"4","last_reported":1729681645,"current_range_meters":38800,"station_id":"ce4bhbh2rcd13ifvqepg","pricing_plan_id":"cebpf4jnsgd1na2vs0mg"},{"bike_id":"0e3c4388-07da-4bf0-b894-30ac8cf594bf","system_id":"levelo_inurba_marseille","lat":43.31698,"lon":5.37739,"is_reserved":false,"is_disabled":false,"rental_uris":{"android":"levelo://app?vid=0e3c4388-07da-4bf0-b894-30ac8cf594bf","ios":"levelo://app?vid=0e3c4388-07da-4bf0-b894-30ac8cf594bf"},"vehicle_type_id":"4","last_reported":1729681645,"current_range_meters":19200,"station_id":"ce4bgth2rcd13ifvqch0","pricing_plan_id":"cebpf4jnsgd1na2vs0mg"},{"bike_id":"f4da693c-548c-47ae-97e6-d67d2206004a","system_id":"levelo_inurba_marseille","lat":43.23152,"lon":5.43703,"is_reserved":false,"is_disabled":false,"rental_uris":{"android":"levelo://app?vid=f4da693c-548c-47ae-97e6-d67d2206004a","ios":"levelo://app?vid=f4da693c-548c-47ae-97e6-d67d2206004a"},"vehicle_type_id":"4","last_reported":1729681645,"current_range_meters":24800,"station_id":"ce4bhmp2rcd13ifvqgog","pricing_plan_id":"cebpf4jnsgd1na2vs0mg"},{"bike_id":"aa3a1f3b-5206-4576-a203-030d0d56a18f","system_id":"levelo_inurba_marseille","lat":43.28939,"lon":5.39625,"is_reserved":false,"is_disabled":false,"rental_uris":{"android":"levelo://app?vid=aa3a1f3b-5206-4576-a203-030d0d56a18f","ios":"levelo://app?vid=aa3a1f3b-5206-4576-a203-030d0d56a18f"},"vehicle_type_id":"4","last_reported":1729681645,"current_range_meters":16800,"station_id":"ce4bh3h2rcd13ifvqdn0","pricing_plan_id":"cebpf4jnsgd1na2vs0mg"},{"bike_id":"4ce5bde3-4773-452b-a6b6-79f9c8450f21","system_id":"levelo_inurba_marseille","lat":43.24386,"lon":5.37053,"is_reserved":false,"is_disabled":false,"rental_uris":{"android":"levelo://app?vid=4ce5bde3-4773-452b-a6b6-79f9c8450f21","ios":"levelo://app?vid=4ce5bde3-4773-452b-a6b6-79f9c8450f21"},"vehicle_type_id":"4","last_reported":1729681645,"current_range_meters":17200,"station_id":"ce4bhhh2rcd13ifvqfk0","pricing_plan_id":"cebpf4jnsgd1na2vs0mg"},{"bike_id":"d4703fa4-5acd-4770-b4db-34ecd62a25c0","system_id":"levelo_inurba_marseille","lat":43.29524,"lon":5.37498,"is_reserved":false,"is_disabled":false,"rental_uris":{"android":"levelo://app?vid=d4703fa4-5acd-4770-b4db-34ecd62a25c0","ios":"levelo://app?vid=d4703fa4-5acd-4770-b4db-34ecd62a25c0"},"vehicle_type_id":"4","last_reported":1729681645,"current_range_meters":6800,"station_id":"ce4bgkp2rcd13ifvqbmg","pricing_plan_id":"cebpf4jnsgd1na2vs0mg"},{"bike_id":"d4cd96c4-5e96-4016-8b05-2e812cb9f941","system_id":"levelo_inurba_marseille","lat":43.33602,"lon":5.41033,"is_reserved":false,"is_disabled":false,"rental_uris":{"android":"levelo://app?vid=d4cd96c4-5e96-4016-8b05-2e812cb9f941","ios":"levelo://app?vid=d4cd96c4-5e96-4016-8b05-2e812cb9f941"},"vehicle_type_id":"4","last_reported":1729681645,"current_range_meters":2000,"station_id":"ce4bhqh2rcd13ifvqhmg","pricing_plan_id":"cebpf4jnsgd1na2vs0mg"},{"bike_id":"92e1e9c3-343a-48b6-a3dc-ce1ba251bb57","system_id":"levelo_inurba_marseille","lat":43.24803,"lon":5.37455,"is_reserved":false,"is_disabled":false,"rental_uris":{"android":"levelo://app?vid=92e1e9c3-343a-48b6-a3dc-ce1ba251bb57","ios":"levelo://app?vid=92e1e9c3-343a-48b6-a3dc-ce1ba251bb57"},"vehicle_type_id":"4","last_reported":1729681645,"current_range_meters":38400,"station_id":"ce4bhgh2rcd13ifvqfb0","pricing_plan_id":"cebpf4jnsgd1na2vs0mg"},{"bike_id":"e8b8f5e8-5444-4425-b93f-a4f421824c20","system_id":"levelo_inurba_marseille","lat":43.286652,"lon":5.373493,"is_reserved":false,"is_disabled":false,"rental_uris":{"android":"levelo://app?vid=e8b8f5e8-5444-4425-b93f-a4f421824c20","ios":"levelo://app?vid=e8b8f5e8-5444-4425-b93f-a4f421824c20"},"vehicle_type_id":"4","last_reported":1729681645,"current_range_meters":5600,"station_id":"ce4bh3p2rcd13ifvqdq0","pricing_plan_id":"cebpf4jnsgd1na2vs0mg"},{"bike_id":"5c1c175f-0503-4df3-bc5e-c32c128444db","system_id":"levelo_inurba_marseille","lat":43.22932,"lon":5.35378,"is_reserved":false,"is_disabled":false,"rental_uris":{"android":"levelo://app?vid=5c1c175f-0503-4df3-bc5e-c32c128444db","ios":"levelo://app?vid=5c1c175f-0503-4df3-bc5e-c32c128444db"},"vehicle_type_id":"4","last_reported":1729681645,"current_range_meters":23200,"station_id":"cpo3532slgdg3j2ikp40","pricing_plan_id":"cebpf4jnsgd1na2vs0mg"},{"bike_id":"b114e528-ab54-45ae-9dd2-377e9ea72a0a","system_id":"levelo_inurba_marseille","lat":43.31369,"lon":5.38482,"is_reserved":false,"is_disabled":false,"rental_uris":{"android":"levelo://app?vid=b114e528-ab54-45ae-9dd2-377e9ea72a0a","ios":"levelo://app?vid=b114e528-ab54-45ae-9dd2-377e9ea72a0a"},"vehicle_type_id":"4","last_reported":1729681645,"current_range_meters":28800,"station_id":"ce4bgt92rcd13ifvqcf0","pricing_plan_id":"cebpf4jnsgd1na2vs0mg"},{"bike_id":"78e537d8-bd8f-4d34-aae8-e7b0c845af68","system_id":"levelo_inurba_marseille","lat":43.3014,"lon":5.37411,"is_reserved":false,"is_disabled":false,"rental_uris":{"android":"levelo://app?vid=78e537d8-bd8f-4d34-aae8-e7b0c845af68","ios":"levelo://app?vid=78e537d8-bd8f-4d34-aae8-e7b0c845af68"},"vehicle_type_id":"4","last_reported":1729681645,"current_range_meters":36000,"station_id":"ce4bgs92rcd13ifvqcc0","pricing_plan_id":"cebpf4jnsgd1na2vs0mg"},{"bike_id":"879365b1-4b68-43cd-af87-8ab732a61ad7","system_id":"levelo_inurba_marseille","lat":43.28618,"lon":5.35104,"is_reserved":false,"is_disabled":false,"rental_uris":{"android":"levelo://app?vid=879365b1-4b68-43cd-af87-8ab732a61ad7","ios":"levelo://app?vid=879365b1-4b68-43cd-af87-8ab732a61ad7"},"vehicle_type_id":"4","last_reported":1729681645,"current_range_meters":6800,"station_id":"ce4bhch2rcd13ifvqeug","pricing_plan_id":"cebpf4jnsgd1na2vs0mg"},{"bike_id":"22fc431c-b57c-465f-994e-166d81585d45","system_id":"levelo_inurba_marseille","lat":43.23961,"lon":5.36634,"is_reserved":false,"is_disabled":false,"rental_uris":{"android":"levelo://app?vid=22fc431c-b57c-465f-994e-166d81585d45","ios":"levelo://app?vid=22fc431c-b57c-465f-994e-166d81585d45"},"vehicle_type_id":"4","last_reported":1729681645,"current_range_meters":37600,"station_id":"ce4bhi12rcd13ifvqfp0","pricing_plan_id":"cebpf4jnsgd1na2vs0mg"},{"bike_id":"86260a5e-f8ca-4a78-b654-af58271e70be","system_id":"levelo_inurba_marseille","lat":43.25728,"lon":5.41106,"is_reserved":false,"is_disabled":false,"rental_uris":{"android":"levelo://app?vid=86260a5e-f8ca-4a78-b654-af58271e70be","ios":"levelo://app?vid=86260a5e-f8ca-4a78-b654-af58271e70be"},"vehicle_type_id":"4","last_reported":1729681645,"current_range_meters":38800,"station_id":"ce4bhkp2rcd13ifvqgd0","pricing_plan_id":"cebpf4jnsgd1na2vs0mg"},{"bike_id":"45b842ed-3f11-4387-8544-ce66239ccafc","system_id":"levelo_inurba_marseille","lat":43.29894,"lon":5.38151,"is_reserved":false,"is_disabled":false,"rental_uris":{"android":"levelo://app?vid=45b842ed-3f11-4387-8544-ce66239ccafc","ios":"levelo://app?vid=45b842ed-3f11-4387-8544-ce66239ccafc"},"vehicle_type_id":"4","last_reported":1729681645,"current_range_meters":38800,"station_id":"ce4bgj12rcd13ifvqbc0","pricing_plan_id":"cebpf4jnsgd1na2vs0mg"},{"bike_id":"0c8a264e-8e94-4a4c-8ee7-07add3e10bdf","system_id":"levelo_inurba_marseille","lat":43.31362,"lon":5.38492,"is_reserved":false,"is_disabled":false,"rental_uris":{"android":"levelo://app?vid=0c8a264e-8e94-4a4c-8ee7-07add3e10bdf","ios":"levelo://app?vid=0c8a264e-8e94-4a4c-8ee7-07add3e10bdf"},"vehicle_type_id":"4","last_reported":1729681645,"current_range_meters":26800,"station_id":"ce4bgt92rcd13ifvqcf0","pricing_plan_id":"cebpf4jnsgd1na2vs0mg"},{"bike_id":"7840748f-5407-4646-a30e-2dede6e90251","system_id":"levelo_inurba_marseille","lat":43.24999,"lon":5.38926,"is_reserved":false,"is_disabled":false,"rental_uris":{"android":"levelo://app?vid=7840748f-5407-4646-a30e-2dede6e90251","ios":"levelo://app?vid=7840748f-5407-4646-a30e-2dede6e90251"},"vehicle_type_id":"4","last_reported":1729681645,"current_range_meters":30000,"station_id":"ce4bhgp2rcd13ifvqfd0","pricing_plan_id":"cebpf4jnsgd1na2vs0mg"},{"bike_id":"c9aaa140-4cb3-444a-80ce-93944fd36d74","system_id":"levelo_inurba_marseille","lat":43.25004,"lon":5.38928,"is_reserved":false,"is_disabled":false,"rental_uris":{"android":"levelo://app?vid=c9aaa140-4cb3-444a-80ce-93944fd36d74","ios":"levelo://app?vid=c9aaa140-4cb3-444a-80ce-93944fd36d74"},"vehicle_type_id":"4","last_reported":1729681645,"current_range_meters":37600,"station_id":"ce4bhgp2rcd13ifvqfd0","pricing_plan_id":"cebpf4jnsgd1na2vs0mg"},{"bike_id":"ba299fdb-c76e-4f32-9c7b-186d633f0fe8","system_id":"levelo_inurba_marseille","lat":43.28699,"lon":5.39985,"is_reserved":false,"is_disabled":false,"rental_uris":{"android":"levelo://app?vid=ba299fdb-c76e-4f32-9c7b-186d633f0fe8","ios":"levelo://app?vid=ba299fdb-c76e-4f32-9c7b-186d633f0fe8"},"vehicle_type_id":"4","last_reported":1729681645,"current_range_meters":30000,"station_id":"ce4bho92rcd13ifvqh3g","pricing_plan_id":"cebpf4jnsgd1na2vs0mg"},{"bike_id":"52ce3ebf-273f-4799-91d7-8b75fe283060","system_id":"levelo_inurba_marseille","lat":43.29255,"lon":5.409,"is_reserved":false,"is_disabled":false,"rental_uris":{"android":"levelo://app?vid=52ce3ebf-273f-4799-91d7-8b75fe283060","ios":"levelo://app?vid=52ce3ebf-273f-4799-91d7-8b75fe283060"},"vehicle_type_id":"4","last_reported":1729681645,"current_range_meters":30000,"station_id":"ce4bh192rcd13ifvqdc0","pricing_plan_id":"cebpf4jnsgd1na2vs0mg"},{"bike_id":"27a5a8b0-563c-46fc-81e5-f40494c9273e","system_id":"levelo_inurba_marseille","lat":43.26493,"lon":5.39551,"is_reserved":false,"is_disabled":false,"rental_uris":{"android":"levelo://app?vid=27a5a8b0-563c-46fc-81e5-f40494c9273e","ios":"levelo://app?vid=27a5a8b0-563c-46fc-81e5-f40494c9273e"},"vehicle_type_id":"4","last_reported":1729681645,"current_range_meters":39200,"station_id":"ce4bhi12rcd13ifvqfq0","pricing_plan_id":"cebpf4jnsgd1na2vs0mg"},{"bike_id":"7258a7e0-02ef-43b7-9f55-01996ace8bd0","system_id":"levelo_inurba_marseille","lat":43.30138,"lon":5.37423,"is_reserved":false,"is_disabled":false,"rental_uris":{"android":"levelo://app?vid=7258a7e0-02ef-43b7-9f55-01996ace8bd0","ios":"levelo://app?vid=7258a7e0-02ef-43b7-9f55-01996ace8bd0"},"vehicle_type_id":"4","last_reported":1729681645,"current_range_meters":24000,"station_id":"ce4bgs92rcd13ifvqcc0","pricing_plan_id":"cebpf4jnsgd1na2vs0mg"},{"bike_id":"b9464bfb-1b0e-459a-b305-7ebf8a1f5160","system_id":"levelo_inurba_marseille","lat":43.28415,"lon":5.34999,"is_reserved":false,"is_disabled":false,"rental_uris":{"android":"levelo://app?vid=b9464bfb-1b0e-459a-b305-7ebf8a1f5160","ios":"levelo://app?vid=b9464bfb-1b0e-459a-b305-7ebf8a1f5160"},"vehicle_type_id":"4","last_reported":1729681645,"current_range_meters":30800,"station_id":"ce4bhbh2rcd13ifvqepg","pricing_plan_id":"cebpf4jnsgd1na2vs0mg"},{"bike_id":"a90d435a-f920-4ecd-a2f1-1900446a3610","system_id":"levelo_inurba_marseille","lat":43.29555,"lon":5.4229,"is_reserved":false,"is_disabled":false,"rental_uris":{"android":"levelo://app?vid=a90d435a-f920-4ecd-a2f1-1900446a3610","ios":"levelo://app?vid=a90d435a-f920-4ecd-a2f1-1900446a3610"},"vehicle_type_id":"4","last_reported":1729681645,"current_range_meters":39200,"station_id":"ce4bhph2rcd13ifvqhdg","pricing_plan_id":"cebpf4jnsgd1na2vs0mg"},{"bike_id":"f5d108c1-401f-4ff2-9b4f-332841c8326f","system_id":"levelo_inurba_marseille","lat":43.28838,"lon":5.39317,"is_reserved":false,"is_disabled":false,"rental_uris":{"android":"levelo://app?vid=f5d108c1-401f-4ff2-9b4f-332841c8326f","ios":"levelo://app?vid=f5d108c1-401f-4ff2-9b4f-332841c8326f"},"vehicle_type_id":"4","last_reported":1729681645,"current_range_meters":16000,"station_id":"ce4bh2p2rcd13ifvqdi0","pricing_plan_id":"cebpf4jnsgd1na2vs0mg"},{"bike_id":"94b9531a-0593-4e05-be56-7e98e9ebe760","system_id":"levelo_inurba_marseille","lat":43.31702,"lon":5.37745,"is_reserved":false,"is_disabled":false,"rental_uris":{"android":"levelo://app?vid=94b9531a-0593-4e05-be56-7e98e9ebe760","ios":"levelo://app?vid=94b9531a-0593-4e05-be56-7e98e9ebe760"},"vehicle_type_id":"4","last_reported":1729681645,"current_range_meters":19200,"station_id":"ce4bgth2rcd13ifvqch0","pricing_plan_id":"cebpf4jnsgd1na2vs0mg"},{"bike_id":"a6abc163-ead0-4db5-ad14-7a81ba1fc062","system_id":"levelo_inurba_marseille","lat":43.2958,"lon":5.36744,"is_reserved":false,"is_disabled":false,"rental_uris":{"android":"levelo://app?vid=a6abc163-ead0-4db5-ad14-7a81ba1fc062","ios":"levelo://app?vid=a6abc163-ead0-4db5-ad14-7a81ba1fc062"},"vehicle_type_id":"4","last_reported":1729681645,"current_range_meters":14000,"station_id":"ce4bgph2rcd13ifvqc2g","pricing_plan_id":"cebpf4jnsgd1na2vs0mg"},{"bike_id":"dfe7b766-2fbf-4fb6-9732-c9980ca58c95","system_id":"levelo_inurba_marseille","lat":43.30547,"lon":5.36529,"is_reserved":false,"is_disabled":false,"rental_uris":{"android":"levelo://app?vid=dfe7b766-2fbf-4fb6-9732-c9980ca58c95","ios":"levelo://app?vid=dfe7b766-2fbf-4fb6-9732-c9980ca58c95"},"vehicle_type_id":"4","last_reported":1729681645,"current_range_meters":23200,"station_id":"ce4bgs12rcd13ifvqcag","pricing_plan_id":"cebpf4jnsgd1na2vs0mg"},{"bike_id":"0815173d-d54b-458d-ba9f-5be4ea1d4caa","system_id":"levelo_inurba_marseille","lat":43.2996,"lon":5.41323,"is_reserved":false,"is_disabled":false,"rental_uris":{"android":"levelo://app?vid=0815173d-d54b-458d-ba9f-5be4ea1d4caa","ios":"levelo://app?vid=0815173d-d54b-458d-ba9f-5be4ea1d4caa"},"vehicle_type_id":"4","last_reported":1729681645,"current_range_meters":27200,"station_id":"ce4bhp12rcd13ifvqh9g","pricing_plan_id":"cebpf4jnsgd1na2vs0mg"},{"bike_id":"b07fad1a-1967-4a4f-b877-00570bf6d938","system_id":"levelo_inurba_marseille","lat":43.29203,"lon":5.3932,"is_reserved":false,"is_disabled":false,"rental_uris":{"android":"levelo://app?vid=b07fad1a-1967-4a4f-b877-00570bf6d938","ios":"levelo://app?vid=b07fad1a-1967-4a4f-b877-00570bf6d938"},"vehicle_type_id":"4","last_reported":1729681645,"current_range_meters":38800,"station_id":"ce4bh192rcd13ifvqdd0","pricing_plan_id":"cebpf4jnsgd1na2vs0mg"},{"bike_id":"01d08235-a4e4-434f-8493-03de70774cab","system_id":"levelo_inurba_marseille","lat":43.3211,"lon":5.36772,"is_reserved":false,"is_disabled":false,"rental_uris":{"android":"levelo://app?vid=01d08235-a4e4-434f-8493-03de70774cab","ios":"levelo://app?vid=01d08235-a4e4-434f-8493-03de70774cab"},"vehicle_type_id":"4","last_reported":1729681645,"current_range_meters":38000,"station_id":"ce4bhrh2rcd13ifvqhug","pricing_plan_id":"cebpf4jnsgd1na2vs0mg"},{"bike_id":"2b80f943-bf35-49c7-9584-ea1845fd1d05","system_id":"levelo_inurba_marseille","lat":43.23055,"lon":5.35488,"is_reserved":false,"is_disabled":false,"rental_uris":{"android":"levelo://app?vid=2b80f943-bf35-49c7-9584-ea1845fd1d05","ios":"levelo://app?vid=2b80f943-bf35-49c7-9584-ea1845fd1d05"},"vehicle_type_id":"4","last_reported":1729681645,"current_range_meters":6000,"station_id":"cpo3342slgdg3j2ifvpg","pricing_plan_id":"cebpf4jnsgd1na2vs0mg"},{"bike_id":"2cdfddd9-678d-4be8-83fe-392309f70124","system_id":"levelo_inurba_marseille","lat":43.29894,"lon":5.43673,"is_reserved":false,"is_disabled":false,"rental_uris":{"android":"levelo://app?vid=2cdfddd9-678d-4be8-83fe-392309f70124","ios":"levelo://app?vid=2cdfddd9-678d-4be8-83fe-392309f70124"},"vehicle_type_id":"4","last_reported":1729681645,"current_range_meters":38000,"station_id":"ce4bhpp2rcd13ifvqhfg","pricing_plan_id":"cebpf4jnsgd1na2vs0mg"},{"bike_id":"4ef72ef5-61a4-4c4f-9595-d6f29ddb5a65","system_id":"levelo_inurba_marseille","lat":43.29792,"lon":5.37092,"is_reserved":false,"is_disabled":false,"rental_uris":{"android":"levelo://app?vid=4ef72ef5-61a4-4c4f-9595-d6f29ddb5a65","ios":"levelo://app?vid=4ef72ef5-61a4-4c4f-9595-d6f29ddb5a65"},"vehicle_type_id":"4","last_reported":1729681645,"current_range_meters":37600,"station_id":"ce4bgop2rcd13ifvqc1g","pricing_plan_id":"cebpf4jnsgd1na2vs0mg"},{"bike_id":"9ee92945-fc74-4382-9645-537465c75a5f","system_id":"levelo_inurba_marseille","lat":43.31219,"lon":5.36849,"is_reserved":false,"is_disabled":false,"rental_uris":{"android":"levelo://app?vid=9ee92945-fc74-4382-9645-537465c75a5f","ios":"levelo://app?vid=9ee92945-fc74-4382-9645-537465c75a5f"},"vehicle_type_id":"4","last_reported":1729681645,"current_range_meters":14000,"station_id":"ce4bgl92rcd13ifvqbq0","pricing_plan_id":"cebpf4jnsgd1na2vs0mg"},{"bike_id":"0ba002b8-e108-4a2b-b69b-9d62a94756b7","system_id":"levelo_inurba_marseille","lat":43.25001,"lon":5.38927,"is_reserved":false,"is_disabled":false,"rental_uris":{"android":"levelo://app?vid=0ba002b8-e108-4a2b-b69b-9d62a94756b7","ios":"levelo://app?vid=0ba002b8-e108-4a2b-b69b-9d62a94756b7"},"vehicle_type_id":"4","last_reported":1729681645,"current_range_meters":37600,"station_id":"ce4bhgp2rcd13ifvqfd0","pricing_plan_id":"cebpf4jnsgd1na2vs0mg"},{"bike_id":"8c6548cc-93d1-4591-9408-f91f3a6f16b8","system_id":"levelo_inurba_marseille","lat":43.24077,"lon":5.37759,"is_reserved":false,"is_disabled":false,"rental_uris":{"android":"levelo://app?vid=8c6548cc-93d1-4591-9408-f91f3a6f16b8","ios":"levelo://app?vid=8c6548cc-93d1-4591-9408-f91f3a6f16b8"},"vehicle_type_id":"4","last_reported":1729681645,"current_range_meters":4800,"station_id":"ce4bhnp2rcd13ifvqgvg","pricing_plan_id":"cebpf4jnsgd1na2vs0mg"},{"bike_id":"7c2a9497-38f6-4903-877c-54bf6b95d02e","system_id":"levelo_inurba_marseille","lat":43.31331,"lon":5.36711,"is_reserved":false,"is_disabled":false,"rental_uris":{"android":"levelo://app?vid=7c2a9497-38f6-4903-877c-54bf6b95d02e","ios":"levelo://app?vid=7c2a9497-38f6-4903-877c-54bf6b95d02e"},"vehicle_type_id":"4","last_reported":1729681645,"current_range_meters":26000,"station_id":"ce4bgr92rcd13ifvqc6g","pricing_plan_id":"cebpf4jnsgd1na2vs0mg"},{"bike_id":"e62f00ae-95b5-468f-a61b-55ca7610bf2a","system_id":"levelo_inurba_marseille","lat":43.30881,"lon":5.39648,"is_reserved":false,"is_disabled":false,"rental_uris":{"android":"levelo://app?vid=e62f00ae-95b5-468f-a61b-55ca7610bf2a","ios":"levelo://app?vid=e62f00ae-95b5-468f-a61b-55ca7610bf2a"},"vehicle_type_id":"4","last_reported":1729681645,"current_range_meters":8800,"station_id":"ce4bh012rcd13ifvqcv0","pricing_plan_id":"cebpf4jnsgd1na2vs0mg"},{"bike_id":"6ee8f7f6-a8fa-486b-ba64-92cb6d318cc2","system_id":"levelo_inurba_marseille","lat":43.32479,"lon":5.36556,"is_reserved":false,"is_disabled":false,"rental_uris":{"android":"levelo://app?vid=6ee8f7f6-a8fa-486b-ba64-92cb6d318cc2","ios":"levelo://app?vid=6ee8f7f6-a8fa-486b-ba64-92cb6d318cc2"},"vehicle_type_id":"4","last_reported":1729681645,"current_range_meters":36400,"station_id":"ce4bhs12rcd13ifvqhvg","pricing_plan_id":"cebpf4jnsgd1na2vs0mg"},{"bike_id":"0c1b262e-3faf-4d82-820f-a8eb174f0b12","system_id":"levelo_inurba_marseille","lat":43.29275,"lon":5.36843,"is_reserved":false,"is_disabled":false,"rental_uris":{"android":"levelo://app?vid=0c1b262e-3faf-4d82-820f-a8eb174f0b12","ios":"levelo://app?vid=0c1b262e-3faf-4d82-820f-a8eb174f0b12"},"vehicle_type_id":"4","last_reported":1729681645,"current_range_meters":38400,"station_id":"ce4bhbp2rcd13ifvqesg","pricing_plan_id":"cebpf4jnsgd1na2vs0mg"},{"bike_id":"2b944de8-3bb0-4d29-ba76-e12ab5d7c888","system_id":"levelo_inurba_marseille","lat":43.28851,"lon":5.39312,"is_reserved":false,"is_disabled":false,"rental_uris":{"android":"levelo://app?vid=2b944de8-3bb0-4d29-ba76-e12ab5d7c888","ios":"levelo://app?vid=2b944de8-3bb0-4d29-ba76-e12ab5d7c888"},"vehicle_type_id":"4","last_reported":1729681645,"current_range_meters":38800,"station_id":"ce4bh2p2rcd13ifvqdi0","pricing_plan_id":"cebpf4jnsgd1na2vs0mg"},{"bike_id":"e260f19d-f23e-4fe7-97f7-cb334746140e","system_id":"levelo_inurba_marseille","lat":43.29174,"lon":5.37142,"is_reserved":false,"is_disabled":false,"rental_uris":{"android":"levelo://app?vid=e260f19d-f23e-4fe7-97f7-cb334746140e","ios":"levelo://app?vid=e260f19d-f23e-4fe7-97f7-cb334746140e"},"vehicle_type_id":"4","last_reported":1729681645,"current_range_meters":9200,"station_id":"ce4bha92rcd13ifvqeh0","pricing_plan_id":"cebpf4jnsgd1na2vs0mg"},{"bike_id":"517ecd69-925a-40c6-a887-d6451e845ef8","system_id":"levelo_inurba_marseille","lat":43.28152,"lon":5.42643,"is_reserved":false,"is_disabled":false,"rental_uris":{"android":"levelo://app?vid=517ecd69-925a-40c6-a887-d6451e845ef8","ios":"levelo://app?vid=517ecd69-925a-40c6-a887-d6451e845ef8"},"vehicle_type_id":"4","last_reported":1729681645,"current_range_meters":38000,"station_id":"ce4bhnh2rcd13ifvqgug","pricing_plan_id":"cebpf4jnsgd1na2vs0mg"},