{"last_updated":1740852673,"ttl":60,"version":"2.2","data":{"bikes":[{"bike_id":"8a7a98a1-99f1-4630-b2b5-54231097ca67","system_id":"levelo_inurba_marseille","lat":43.29532,"lon":5.39399,"is_reserved":false,"is_disabled":false,"rental_uris":{"android":"levelo://app?vid=8a7a98a1-99f1-4630-b2b5-54231097ca67","ios":"levelo://app?vid=8a7a98a1-99f1-4630-b2b5-54231097ca67"},"vehicle_type_id":"4","last_reported":1740852673,"current_range_meters":3200,"station_id":"ce4bh292rcd13ifvqdf0","pricing_plan_id":"cebpf4jnsgd1na2vs0mg"},{"bike_id":"4e814bd0-5fb4-45fe-ad56-df460f3eed3e","system_id":"levelo_inurba_marseille","lat":43.28613,"lon":5.35105,"is_reserved":false,"is_disabled":false,"rental_uris":{"android":"levelo://app?vid=4e814bd0-5fb4-45fe-ad56-df460f3eed3e","ios":"levelo://app?vid=4e814bd0-5fb4-45fe-ad56-df460f3eed3e"},"vehicle_type_id":"4","last_reported":1740852673,"current_range_meters":3600,"station_id":"ce4bhch2rcd13ifvqeug","pricing_plan_id":"cebpf4jnsgd1na2vs0mg"},{"bike_id":"6692bac1-0462-42fc-b0b1-f08a529b21dd","system_id":"levelo_inurba_marseille","lat":43.28408,"lon":5.37517,"is_reserved":false,"is_disabled":false,"rental_uris":{"android":"levelo://app?vid=6692bac1-0462-42fc-b0b1-f08a529b21dd","ios":"levelo://app?vid=6692bac1-0462-42fc-b0b1-f08a529b21dd"},"vehicle_type_id":"4","last_reported":1740852673,"current_range_meters":4000,"station_id":"ce4bh412rcd13ifvqds0","pricing_plan_id":"cebpf4jnsgd1na2vs0mg"},{"bike_id":"87b985b0-b21a-457b-876e-995bf2ff8f5e","system_id":"levelo_inurba_marseille","lat":43.32125,"lon":5.36797,"is_reserved":false,"is_disabled":false,"rental_uris":{"android":"levelo://app?vid=87b985b0-b21a-457b-876e-995bf2ff8f5e","ios":"levelo://app?vid=87b985b0-b21a-457b-876e-995bf2ff8f5e"},"vehicle_type_id":"4","last_reported":1740852673,"current_range_meters":4000,"station_id":"ce4bhrh2rcd13ifvqhug","pricing_plan_id":"cebpf4jnsgd1na2vs0mg"},{"bike_id":"49e0a034-277f-4658-83cf-83e39377ef50","system_id":"levelo_inurba_marseille","lat":43.29509,"lon":5.37942,"is_reserved":false,"is_disabled":false,"rental_uris":{"android":"levelo://app?vid=49e0a034-277f-4658-83cf-83e39377ef50","ios":"levelo://app?vid=49e0a034-277f-4658-83cf-83e39377ef50"},"vehicle_type_id":"4","last_reported":1740852673,"current_range_meters":4400,"station_id":"","pricing_plan_id":"cebpf4jnsgd1na2vs0mg"},{"bike_id":"b4ddc093-c126-43dd-a78b-8b9875a0013c","system_id":"levelo_inurba_marseille","lat":43.29786,"lon":5.38098,"is_reserved":false,"is_disabled":false,"rental_uris":{"android":"levelo://app?vid=b4ddc093-c126-43dd-a78b-8b9875a0013c","ios":"levelo://app?vid=b4ddc093-c126-43dd-a78b-8b9875a0013c"},"vehicle_type_id":"4","last_reported":1740852673,"current_range_meters":4400,"station_id":"ce4bgip2rcd13ifvqbb0","pricing_plan_id":"cebpf4jnsgd1na2vs0mg"},{"bike_id":"d2a178ff-b7ae-4f8c-9323-732d0d9f9440","system_id":"levelo_inurba_marseille","lat":43.29536,"lon":5.38541,"is_reserved":false,"is_disabled":false,"rental_uris":{"android":"levelo://app?vid=d2a178ff-b7ae-4f8c-9323-732d0d9f9440","ios":"levelo://app?vid=d2a178ff-b7ae-4f8c-9323-732d0d9f9440"},"vehicle_type_id":"4","last_reported":1740852673,"current_range_meters":4400,"station_id":"ce4bgih2rcd13ifvqba0","pricing_plan_id":"cebpf4jnsgd1na2vs0mg"},{"bike_id":"63c397fe-d712-409b-ba49-04542c9b3bbe","system_id":"levelo_inurba_marseille","lat":43.29533,"lon":5.38548,"is_reserved":false,"is_disabled":false,"rental_uris":{"android":"levelo://app?vid=63c397fe-d712-409b-ba49-04542c9b3bbe","ios":"levelo://app?vid=63c397fe-d712-409b-ba49-04542c9b3bbe"},"vehicle_type_id":"4","last_reported":1740852673,"current_range_meters":4800,"station_id":"ce4bgih2rcd13ifvqba0","pricing_plan_id":"cebpf4jnsgd1na2vs0mg"},{"bike_id":"20f8f531-6cd6-43cc-861d-35ddb4570b7d","system_id":"levelo_inurba_marseille","lat":43.29296,"lon":5.37449,"is_reserved":false,"is_disabled":false,"rental_uris":{"android":"levelo://app?vid=20f8f531-6cd6-43cc-861d-35ddb4570b7d","ios":"levelo://app?vid=20f8f531-6cd6-43cc-861d-35ddb4570b7d"},"vehicle_type_id":"4","last_reported":1740852673,"current_range_meters":6000,"station_id":"ce4bgi12rcd13ifvqb70","pricing_plan_id":"cebpf4jnsgd1na2vs0mg"},{"bike_id":"9eb62bd7-0fdc-491b-9eef-be0a9f73fbfb","system_id":"levelo_inurba_marseille","lat":43.24177,"lon":5.36411,"is_reserved":false,"is_disabled":false,"rental_uris":{"android":"levelo://app?vid=9eb62bd7-0fdc-491b-9eef-be0a9f73fbfb","ios":"levelo://app?vid=9eb62bd7-0fdc-491b-9eef-be0a9f73fbfb"},"vehicle_type_id":"4","last_reported":1740852673,"current_range_meters":6000,"station_id":"cpo36qri1sfpv3e86is0","pricing_plan_id":"cebpf4jnsgd1na2vs0mg"},{"bike_id":"f43e8f05-67b3-418a-8401-d3a05a34cc68","system_id":"levelo_inurba_marseille","lat":43.28715,"lon":5.37945,"is_reserved":false,"is_disabled":false,"rental_uris":{"android":"levelo://app?vid=f43e8f05-67b3-418a-8401-d3a05a34cc68","ios":"levelo://app?vid=f43e8f05-67b3-418a-8401-d3a05a34cc68"},"vehicle_type_id":"4","last_reported":1740852673,"current_range_meters":6000,"station_id":"ce4bh9p2rcd13ifvqec0","pricing_plan_id":"cebpf4jnsgd1na2vs0mg"},{"bike_id":"073251ca-e6f4-4e9f-a4f2-c4b7c58696ae","system_id":"levelo_inurba_marseille","lat":43.28112,"lon":5.37854,"is_reserved":false,"is_disabled":false,"rental_uris":{"android":"levelo://app?vid=073251ca-e6f4-4e9f-a4f2-c4b7c58696ae","ios":"levelo://app?vid=073251ca-e6f4-4e9f-a4f2-c4b7c58696ae"},"vehicle_type_id":"4","last_reported":1740852673,"current_range_meters":6000,"station_id":"ce4bha12rcd13ifvqee0","pricing_plan_id":"cebpf4jnsgd1na2vs0mg"},{"bike_id":"c181dd35-65f4-4fcf-b98c-726f3c52230b","system_id":"levelo_inurba_marseille","lat":43.28421,"lon":5.34985,"is_reserved":false,"is_disabled":false,"rental_uris":{"android":"levelo://app?vid=c181dd35-65f4-4fcf-b98c-726f3c52230b","ios":"levelo://app?vid=c181dd35-65f4-4fcf-b98c-726f3c52230b"},"vehicle_type_id":"4","last_reported":1740852673,"current_range_meters":6400,"station_id":"ce4bhbh2rcd13ifvqepg","pricing_plan_id":"cebpf4jnsgd1na2vs0mg"},{"bike_id":"8dbd79ab-8d7e-44ba-9f11-4afd7e562df1","system_id":"levelo_inurba_marseille","lat":43.25011,"lon":5.3892,"is_reserved":false,"is_disabled":false,"rental_uris":{"android":"levelo://app?vid=8dbd79ab-8d7e-44ba-9f11-4afd7e562df1","ios":"levelo://app?vid=8dbd79ab-8d7e-44ba-9f11-4afd7e562df1"},"vehicle_type_id":"4","last_reported":1740852673,"current_range_meters":6400,"station_id":"ce4bhgp2rcd13ifvqfd0","pricing_plan_id":"cebpf4jnsgd1na2vs0mg"},{"bike_id":"ddc1bd77-be06-4a41-8f5c-f9bea17fcc5b","system_id":"levelo_inurba_marseille","lat":43.28155,"lon":5.42643,"is_reserved":false,"is_disabled":false,"rental_uris":{"android":"levelo://app?vid=ddc1bd77-be06-4a41-8f5c-f9bea17fcc5b","ios":"levelo://app?vid=ddc1bd77-be06-4a41-8f5c-f9bea17fcc5b"},"vehicle_type_id":"4","last_reported":1740852673,"current_range_meters":3200,"station_id":"ce4bhnh2rcd13ifvqgug","pricing_plan_id":"cebpf4jnsgd1na2vs0mg"},{"bike_id":"576bf4de-0033-46bf-9e74-74d91d945d5e","system_id":"levelo_inurba_marseille","lat":43.31227,"lon":5.36886,"is_reserved":false,"is_disabled":false,"rental_uris":{"android":"levelo://app?vid=576bf4de-0033-46bf-9e74-74d91d945d5e","ios":"levelo://app?vid=576bf4de-0033-46bf-9e74-74d91d945d5e"},"vehicle_type_id":"4","last_reported":1740852673,"current_range_meters":6800,"station_id":"ce4bgl92rcd13ifvqbq0","pricing_plan_id":"cebpf4jnsgd1na2vs0mg"},{"bike_id":"d5481c01-2984-43f7-9ca9-876cf6aa8921","system_id":"levelo_inurba_marseille","lat":43.279896,"lon":5.400154,"is_reserved":false,"is_disabled":false,"rental_uris":{"android":"levelo://app?vid=d5481c01-2984-43f7-9ca9-876cf6aa8921","ios":"levelo://app?vid=d5481c01-2984-43f7-9ca9-876cf6aa8921"},"vehicle_type_id":"4","last_reported":1740852673,"current_range_meters":6800,"station_id":"ce4bho92rcd13ifvqh4g","pricing_plan_id":"cebpf4jnsgd1na2vs0mg"},{"bike_id":"d36301ff-065c-4644-9520-d9e8e53fafb9","system_id":"levelo_inurba_marseille","lat":43.27206,"lon":5.39191,"is_reserved":false,"is_disabled":false,"rental_uris":{"android":"levelo://app?vid=d36301ff-065c-4644-9520-d9e8e53fafb9","ios":"levelo://app?vid=d36301ff-065c-4644-9520-d9e8e53fafb9"},"vehicle_type_id":"4","last_reported":1740852673,"current_range_meters":6800,"station_id":"ce4bhhp2rcd13ifvqfm0","pricing_plan_id":"cebpf4jnsgd1na2vs0mg"},{"bike_id":"e92cdb6d-6451-4ce9-a3fe-6646dfad6545","system_id":"levelo_inurba_marseille","lat":43.29887,"lon":5.38902,"is_reserved":false,"is_disabled":false,"rental_uris":{"android":"levelo://app?vid=e92cdb6d-6451-4ce9-a3fe-6646dfad6545","ios":"levelo://app?vid=e92cdb6d-6451-4ce9-a3fe-6646dfad6545"},"vehicle_type_id":"4","last_reported":1740852673,"current_range_meters":10000,"station_id":"ce4bh392rcd13ifvqdl0","pricing_plan_id":"cebpf4jnsgd1na2vs0mg"},{"bike_id":"43b0391e-313d-4ad8-844d-358b87817677","system_id":"levelo_inurba_marseille","lat":43.305857,"lon":5.37059,"is_reserved":false,"is_disabled":false,"rental_uris":{"android":"levelo://app?vid=43b0391e-313d-4ad8-844d-358b87817677","ios":"levelo://app?vid=43b0391e-313d-4ad8-844d-358b87817677"},"vehicle_type_id":"4","last_reported":1740852673,"current_range_meters":7200,"station_id":"ce4bgv92rcd13ifvqcq0","pricing_plan_id":"cebpf4jnsgd1na2vs0mg"},{"bike_id":"35dedd72-bbfd-4af4-8cf3-88326aaa4b0d","system_id":"levelo_inurba_marseille","lat":43.29871,"lon":5.39741,"is_reserved":false,"is_disabled":false,"rental_uris":{"android":"levelo://app?vid=35dedd72-bbfd-4af4-8cf3-88326aaa4b0d","ios":"levelo://app?vid=35dedd72-bbfd-4af4-8cf3-88326aaa4b0d"},"vehicle_type_id":"4","last_reported":1740852673,"current_range_meters":7200,"station_id":"ce4bh0h2rcd13ifvqd50","pricing_plan_id":"cebpf4jnsgd1na2vs0mg"},{"bike_id":"c953975f-fdb8-456c-8f9b-2ce7edc3c9bc","system_id":"levelo_inurba_marseille","lat":43.26801,"lon":5.40263,"is_reserved":false,"is_disabled":false,"rental_uris":{"android":"levelo://app?vid=c953975f-fdb8-456c-8f9b-2ce7edc3c9bc","ios":"levelo://app?vid=c953975f-fdb8-456c-8f9b-2ce7edc3c9bc"},"vehicle_type_id":"4","last_reported":1740852673,"current_range_meters":7200,"station_id":"ce501612rcd8frsf0b60","pricing_plan_id":"cebpf4jnsgd1na2vs0mg"},{"bike_id":"e8e574a6-d13a-4906-9b60-657faa08b971","system_id":"levelo_inurba_marseille","lat":43.268141,"lon":5.40259,"is_reserved":false,"is_disabled":false,"rental_uris":{"android":"levelo://app?vid=e8e574a6-d13a-4906-9b60-657faa08b971","ios":"levelo://app?vid=e8e574a6-d13a-4906-9b60-657faa08b971"},"vehicle_type_id":"4","last_reported":1740852673,"current_range_meters":7200,"station_id":"ce501612rcd8frsf0b60","pricing_plan_id":"cebpf4jnsgd1na2vs0mg"},{"bike_id":"be047da3-12fb-470e-9d78-68641c40dc2c","system_id":"levelo_inurba_marseille","lat":43.28665,"lon":5.4097,"is_reserved":false,"is_disabled":false,"rental_uris":{"android":"levelo://app?vid=be047da3-12fb-470e-9d78-68641c40dc2c","ios":"levelo://app?vid=be047da3-12fb-470e-9d78-68641c40dc2c"},"vehicle_type_id":"4","last_reported":1740852673,"current_range_meters":7200,"station_id":"","pricing_plan_id":"cebpf4jnsgd1na2vs0mg"},{"bike_id":"acc4c3c5-a66f-4445-a187-06615cd33521","system_id":"levelo_inurba_marseille","lat":43.2985,"lon":5.36284,"is_reserved":false,"is_disabled":false,"rental_uris":{"android":"levelo://app?vid=acc4c3c5-a66f-4445-a187-06615cd33521","ios":"levelo://app?vid=acc4c3c5-a66f-4445-a187-06615cd33521"},"vehicle_type_id":"4","last_reported":1740852673,"current_range_meters":6000,"station_id":"ce4bgpp2rcd13ifvqc3g","pricing_plan_id":"cebpf4jnsgd1na2vs0mg"},{"bike_id":"6d488a3b-9a8d-4341-982c-47ae406df338","system_id":"levelo_inurba_marseille","lat":43.30118,"lon":5.39886,"is_reserved":false,"is_disabled":false,"rental_uris":{"android":"levelo://app?vid=6d488a3b-9a8d-4341-982c-47ae406df338","ios":"levelo://app?vid=6d488a3b-9a8d-4341-982c-47ae406df338"},"vehicle_type_id":"4","last_reported":1740852673,"current_range_meters":7200,"station_id":"ce4bh0h2rcd13ifvqd40","pricing_plan_id":"cebpf4jnsgd1na2vs0mg"},{"bike_id":"1ef83ca4-2f4d-464d-9fb6-924b48a09432","system_id":"levelo_inurba_marseille","lat":43.29434,"lon":5.39757,"is_reserved":false,"is_disabled":false,"rental_uris":{"android":"levelo://app?vid=1ef83ca4-2f4d-464d-9fb6-924b48a09432","ios":"levelo://app?vid=1ef83ca4-2f4d-464d-9fb6-924b48a09432"},"vehicle_type_id":"4","last_reported":1740852673,"current_range_meters":8000,"station_id":"ce4bh3h2rcd13ifvqdo0","pricing_plan_id":"cebpf4jnsgd1na2vs0mg"},{"bike_id":"62b12a83-e85f-4351-a240-b88e48bc1e02","system_id":"levelo_inurba_marseille","lat":43.27814,"lon":5.40722,"is_reserved":false,"is_disabled":false,"rental_uris":{"android":"levelo://app?vid=62b12a83-e85f-4351-a240-b88e48bc1e02","ios":"levelo://app?vid=62b12a83-e85f-4351-a240-b88e48bc1e02"},"vehicle_type_id":"4","last_reported":1740852673,"current_range_meters":8000,"station_id":"ce4bhnh2rcd13ifvqgtg","pricing_plan_id":"cebpf4jnsgd1na2vs0mg"},{"bike_id":"a5fd71ea-4807-4e2d-a716-448c8cd70326","system_id":"levelo_inurba_marseille","lat":43.26604,"lon":5.37304,"is_reserved":false,"is_disabled":false,"rental_uris":{"android":"levelo://app?vid=a5fd71ea-4807-4e2d-a716-448c8cd70326","ios":"levelo://app?vid=a5fd71ea-4807-4e2d-a716-448c8cd70326"},"vehicle_type_id":"4","last_reported":1740852673,"current_range_meters":8000,"station_id":"ce4bhg12rcd13ifvqf70","pricing_plan_id":"cebpf4jnsgd1na2vs0mg"},{"bike_id":"a3d1ad85-61ed-42f1-9165-e8598c98f358","system_id":"levelo_inurba_marseille","lat":43.29093,"lon":5.3816,"is_reserved":false,"is_disabled":false,"rental_uris":{"android":"levelo://app?vid=a3d1ad85-61ed-42f1-9165-e8598c98f358","ios":"levelo://app?vid=a3d1ad85-61ed-42f1-9165-e8598c98f358"},"vehicle_type_id":"4","last_reported":1740852673,"current_range_meters":8000,"station_id":"ce4bh512rcd13ifvqe2g","pricing_plan_id":"cebpf4jnsgd1na2vs0mg"},{"bike_id":"1ecc1f23-19c6-4868-8564-23380a1c549d","system_id":"levelo_inurba_marseille","lat":43.28262,"lon":5.35073,"is_reserved":false,"is_disabled":false,"rental_uris":{"android":"levelo://app?vid=1ecc1f23-19c6-4868-8564-23380a1c549d","ios":"levelo://app?vid=1ecc1f23-19c6-4868-8564-23380a1c549d"},"vehicle_type_id":"4","last_reported":1740852673,"current_range_meters":8400,"station_id":"ce4bhbp2rcd13ifvqerg","pricing_plan_id":"cebpf4jnsgd1na2vs0mg"},{"bike_id":"4c04cb62-3b93-4ff4-aae4-ff5bc2c951a5","system_id":"levelo_inurba_marseille","lat":43.29272,"lon":5.36845,"is_reserved":false,"is_disabled":false,"rental_uris":{"android":"levelo://app?vid=4c04cb62-3b93-4ff4-aae4-ff5bc2c951a5","ios":"levelo://app?vid=4c04cb62-3b93-4ff4-aae4-ff5bc2c951a5"},"vehicle_type_id":"4","last_reported":1740852673,"current_range_meters":8400,"station_id":"ce4bhbp2rcd13ifvqesg","pricing_plan_id":"cebpf4jnsgd1na2vs0mg"},{"bike_id":"a091550c-8731-40ff-9f37-503b96528e18","system_id":"levelo_inurba_marseille","lat":43.27072,"lon":5.42279,"is_reserved":false,"is_disabled":false,"rental_uris":{"android":"levelo://app?vid=a091550c-8731-40ff-9f37-503b96528e18","ios":"levelo://app?vid=a091550c-8731-40ff-9f37-503b96528e18"},"vehicle_type_id":"4","last_reported":1740852673,"current_range_meters":8400,"station_id":"ce4bhk92rcd13ifvqgb0","pricing_plan_id":"cebpf4jnsgd1na2vs0mg"},{"bike_id":"afc6b13c-a7a7-4c95-aa8c-34d48af845fe","system_id":"levelo_inurba_marseille","lat":43.28608,"lon":5.37064,"is_reserved":false,"is_disabled":false,"rental_uris":{"android":"levelo://app?vid=afc6b13c-a7a7-4c95-aa8c-34d48af845fe","ios":"levelo://app?vid=afc6b13c-a7a7-4c95-aa8c-34d48af845fe"},"vehicle_type_id":"4","last_reported":1740852673,"current_range_meters":8400,"station_id":"ce4bht12rcd13ifvqi60","pricing_plan_id":"cebpf4jnsgd1na2vs0mg"},{"bike_id":"3f5e4c77-943b-4a46-b257-614bf13afec4","system_id":"levelo_inurba_marseille","lat":43.24169,"lon":5.36421,"is_reserved":false,"is_disabled":false,"rental_uris":{"android":"levelo://app?vid=3f5e4c77-943b-4a46-b257-614bf13afec4","ios":"levelo://app?vid=3f5e4c77-943b-4a46-b257-614bf13afec4"},"vehicle_type_id":"4","last_reported":1740852673,"current_range_meters":8400,"station_id":"cpo36qri1sfpv3e86is0","pricing_plan_id":"cebpf4jnsgd1na2vs0mg"},{"bike_id":"f7888e25-446f-4da8-96e6-65d5daad9223","system_id":"levelo_inurba_marseille","lat":43.28419,"lon":5.35008,"is_reserved":false,"is_disabled":false,"rental_uris":{"android":"levelo://app?vid=f7888e25-446f-4da8-96e6-65d5daad9223","ios":"levelo://app?vid=f7888e25-446f-4da8-96e6-65d5daad9223"},"vehicle_type_id":"4","last_reported":1740852673,"current_range_meters":8400,"station_id":"ce4bhbh2rcd13ifvqepg","pricing_plan_id":"cebpf4jnsgd1na2vs0mg"},{"bike_id":"bb47f977-e532-4b35-9ed4-587d7a97f621","system_id":"levelo_inurba_marseille","lat":43.29261,"lon":5.40913,"is_reserved":false,"is_disabled":false,"rental_uris":{"android":"levelo://app?vid=bb47f977-e532-4b35-9ed4-587d7a97f621","ios":"levelo://app?vid=bb47f977-e532-4b35-9ed4-587d7a97f621"},"vehicle_type_id":"4","last_reported":1740852673,"current_range_meters":8800,"station_id":"ce4bh192rcd13ifvqdc0","pricing_plan_id":"cebpf4jnsgd1na2vs0mg"},{"bike_id":"51939b71-f2de-40f6-8634-9084c265b4cc","system_id":"levelo_inurba_marseille","lat":43.24072,"lon":5.37768,"is_reserved":false,"is_disabled":false,"rental_uris":{"android":"levelo://app?vid=51939b71-f2de-40f6-8634-9084c265b4cc","ios":"levelo://app?vid=51939b71-f2de-40f6-8634-9084c265b4cc"},"vehicle_type_id":"4","last_reported":1740852673,"current_range_meters":8800,"station_id":"ce4bhnp2rcd13ifvqgvg","pricing_plan_id":"cebpf4jnsgd1na2vs0mg"},{"bike_id":"364b209e-752e-45ea-b26c-06b2552c1833","system_id":"levelo_inurba_marseille","lat":43.23194,"lon":5.35574,"is_reserved":false,"is_disabled":false,"rental_uris":{"android":"levelo://app?vid=364b209e-752e-45ea-b26c-06b2552c1833","ios":"levelo://app?vid=364b209e-752e-45ea-b26c-06b2552c1833"},"vehicle_type_id":"4","last_reported":1740852673,"current_range_meters":8800,"station_id":"ce4bhu92rcd13ifvqi70","pricing_plan_id":"cebpf4jnsgd1na2vs0mg"},{"bike_id":"98d30ac8-3bd7-4aef-a008-2521b117e221","system_id":"levelo_inurba_marseille","lat":43.26564,"lon":5.38997,"is_reserved":false,"is_disabled":false,"rental_uris":{"android":"levelo://app?vid=98d30ac8-3bd7-4aef-a008-2521b117e221","ios":"levelo://app?vid=98d30ac8-3bd7-4aef-a008-2521b117e221"},"vehicle_type_id":"4","last_reported":1740852673,"current_range_meters":8400,"station_id":"ce4bhe12rcd13ifvqf30","pricing_plan_id":"cebpf4jnsgd1na2vs0mg"},{"bike_id":"eb6f3018-35af-4819-ab6e-f07ea1f8c2d5","system_id":"levelo_inurba_marseille","lat":43.31757,"lon":5.38992,"is_reserved":false,"is_disabled":false,"rental_uris":{"android":"levelo://app?vid=eb6f3018-35af-4819-ab6e-f07ea1f8c2d5","ios":"levelo://app?vid=eb6f3018-35af-4819-ab6e-f07ea1f8c2d5"},"vehicle_type_id":"4","last_reported":1740852673,"current_range_meters":8800,"station_id":"ce4bhqp2rcd13ifvqhng","pricing_plan_id":"cebpf4jnsgd1na2vs0mg"},{"bike_id":"6b0ed7a7-7fbf-4882-9121-83d16d8dc9a6","system_id":"levelo_inurba_marseille","lat":43.28413,"lon":5.37514,"is_reserved":false,"is_disabled":false,"rental_uris":{"android":"levelo://app?vid=6b0ed7a7-7fbf-4882-9121-83d16d8dc9a6","ios":"levelo://app?vid=6b0ed7a7-7fbf-4882-9121-83d16d8dc9a6"},"vehicle_type_id":"4","last_reported":1740852673,"current_range_meters":8800,"station_id":"ce4bh412rcd13ifvqds0","pricing_plan_id":"cebpf4jnsgd1na2vs0mg"},{"bike_id":"2615bd4c-fea5-4b07-99b2-48a21ae71195","system_id":"levelo_inurba_marseille","lat":43.32658,"lon":5.40997,"is_reserved":false,"is_disabled":false,"rental_uris":{"android":"levelo://app?vid=2615bd4c-fea5-4b07-99b2-48a21ae71195","ios":"levelo://app?vid=2615bd4c-fea5-4b07-99b2-48a21ae71195"},"vehicle_type_id":"4","last_reported":1740852673,"current_range_meters":8400,"station_id":"ce4bhpp2rcd13ifvqhgg","pricing_plan_id":"cebpf4jnsgd1na2vs0mg"},{"bike_id":"49e9cdc7-76a5-4b66-ae2d-61c73beb73a8","system_id":"levelo_inurba_marseille","lat":43.24173,"lon":5.36391,"is_reserved":false,"is_disabled":false,"rental_uris":{"android":"levelo://app?vid=49e9cdc7-76a5-4b66-ae2d-61c73beb73a8","ios":"levelo://app?vid=49e9cdc7-76a5-4b66-ae2d-61c73beb73a8"},"vehicle_type_id":"4","last_reported":1740852673,"current_range_meters":8800,"station_id":"cpo36qri1sfpv3e86is0","pricing_plan_id":"cebpf4jnsgd1na2vs0mg"},{"bike_id":"6937ef5f-28e8-4526-b3bb-0260140c4dea","system_id":"levelo_inurba_marseille","lat":43.30536,"lon":5.36531,"is_reserved":false,"is_disabled":false,"rental_uris":{"android":"levelo://app?vid=6937ef5f-28e8-4526-b3bb-0260140c4dea","ios":"levelo://app?vid=6937ef5f-28e8-4526-b3bb-0260140c4dea"},"vehicle_type_id":"4","last_reported":1740852673,"current_range_meters":8800,"station_id":"ce4bgs12rcd13ifvqcag","pricing_plan_id":"cebpf4jnsgd1na2vs0mg"},{"bike_id":"597c78d8-1097-48db-b3be-fafc8754eab9","system_id":"levelo_inurba_marseille","lat":43.2417,"lon":5.36399,"is_reserved":false,"is_disabled":false,"rental_uris":{"android":"levelo://app?vid=597c78d8-1097-48db-b3be-fafc8754eab9","ios":"levelo://app?vid=597c78d8-1097-48db-b3be-fafc8754eab9"},"vehicle_type_id":"4","last_reported":1740852673,"current_range_meters":9200,"station_id":"cpo36qri1sfpv3e86is0","pricing_plan_id":"cebpf4jnsgd1na2vs0mg"},{"bike_id":"21eb704d-0d59-430c-ac00-3e753c001e9e","system_id":"levelo_inurba_marseille","lat":43.27816,"lon":5.40712,"is_reserved":false,"is_disabled":false,"rental_uris":{"android":"levelo://app?vid=21eb704d-0d59-430c-ac00-3e753c001e9e","ios":"levelo://app?vid=21eb704d-0d59-430c-ac00-3e753c001e9e"},"vehicle_type_id":"4","last_reported":1740852673,"current_range_meters":8800,"station_id":"ce4bhnh2rcd13ifvqgtg","pricing_plan_id":"cebpf4jnsgd1na2vs0mg"},{"bike_id":"593edb3c-7add-4a3d-9dbe-95cef549de0d","system_id":"levelo_inurba_marseille","lat":43.23063,"lon":5.35496,"is_reserved":false,"is_disabled":false,"rental_uris":{"android":"levelo://app?vid=593edb3c-7add-4a3d-9dbe-95cef549de0d","ios":"levelo://app?vid=593edb3c-7add-4a3d-9dbe-95cef549de0d"},"vehicle_type_id":"4","last_reported":1740852673,"current_range_meters":8800,"station_id":"cpo3342slgdg3j2ifvpg","pricing_plan_id":"cebpf4jnsgd1na2vs0mg"},{"bike_id":"59aefcfd-cb49-414f-a2b4-58f76bb5ab27","system_id":"levelo_inurba_marseille","lat":43.30372,"lon":5.42874,"is_reserved":false,"is_disabled":false,"rental_uris":{"android":"levelo://app?vid=59aefcfd-cb49-414f-a2b4-58f76bb5ab27","ios":"levelo://app?vid=59aefcfd-cb49-414f-a2b4-58f76bb5ab27"},"vehicle_type_id":"4","last_reported":1740852673,"current_range_meters":9200,"station_id":"","pricing_plan_id":"cebpf4jnsgd1na2vs0mg"},{"bike_id":"d8d1c2ad-ee42-4629-b935-14048e177bc3","system_id":"levelo_inurba_marseille","lat":43.27075,"lon":5.42272,"is_reserved":false,"is_disabled":false,"rental_uris":{"android":"levelo://app?vid=d8d1c2ad-ee42-4629-b935-14048e177bc3","ios":"levelo://app?vid=d8d1c2ad-ee42-4629-b935-14048e177bc3"},"vehicle_type_id":"4","last_reported":1740852673,"current_range_meters":9200,"station_id":"ce4bhk92rcd13ifvqgb0","pricing_plan_id":"cebpf4jnsgd1na2vs0mg"},{"bike_id":"cf03d938-85b5-4e82-bd24-cbd5f9120c54","system_id":"levelo_inurba_marseille","lat":43.31331,"lon":5.39684,"is_reserved":false,"is_disabled":false,"rental_uris":{"android":"levelo://app?vid=cf03d938-85b5-4e82-bd24-cbd5f9120c54","ios":"levelo://app?vid=cf03d938-85b5-4e82-bd24-cbd5f9120c54"},"vehicle_type_id":"4","last_reported":1740852673,"current_range_meters":9200,"station_id":"ce4bgvp2rcd13ifvqcu0","pricing_plan_id":"cebpf4jnsgd1na2vs0mg"},{"bike_id":"bddf37d4-a2ae-4c74-bcad-602e7e9ee614","system_id":"levelo_inurba_marseille","lat":43.24664,"lon":5.38167,"is_reserved":false,"is_disabled":false,"rental_uris":{"android":"levelo://app?vid=bddf37d4-a2ae-4c74-bcad-602e7e9ee614","ios":"levelo://app?vid=bddf37d4-a2ae-4c74-bcad-602e7e9ee614"},"vehicle_type_id":"4","last_reported":1740852673,"current_range_meters":9200,"station_id":"ce4bhih2rcd13ifvqfr0","pricing_plan_id":"cebpf4jnsgd1na2vs0mg"},{"bike_id":"4b6e9ee7-c4c7-4c15-b9c2-ed9e2413491d","system_id":"levelo_inurba_marseille","lat":43.2928,"lon":5.38464,"is_reserved":false,"is_disabled":false,"rental_uris":{"android":"levelo://app?vid=4b6e9ee7-c4c7-4c15-b9c2-ed9e2413491d","ios":"levelo://app?vid=4b6e9ee7-c4c7-4c15-b9c2-ed9e2413491d"},"vehicle_type_id":"4","last_reported":1740852673,"current_range_meters":9200,"station_id":"ce4bh692rcd13ifvqea0","pricing_plan_id":"cebpf4jnsgd1na2vs0mg"},{"bike_id":"d4349719-fa37-4126-a261-a48c3369e558","system_id":"levelo_inurba_marseille","lat":43.29536,"lon":5.38543,"is_reserved":false,"is_disabled":false,"rental_uris":{"android":"levelo://app?vid=d4349719-fa37-4126-a261-a48c3369e558","ios":"levelo://app?vid=d4349719-fa37-4126-a261-a48c3369e558"},"vehicle_type_id":"4","last_reported":1740852673,"current_range_meters":9200,"station_id":"ce4bgih2rcd13ifvqba0","pricing_plan_id":"cebpf4jnsgd1na2vs0mg"},{"bike_id":"11eeaa41-65fd-4096-aabf-ea952f76267a","system_id":"levelo_inurba_marseille","lat":43.34138,"lon":5.40905,"is_reserved":false,"is_disabled":false,"rental_uris":{"android":"levelo://app?vid=11eeaa41-65fd-4096-aabf-ea952f76267a","ios":"levelo://app?vid=11eeaa41-65fd-4096-aabf-ea952f76267a"},"vehicle_type_id":"4","last_reported":1740852673,"current_range_meters":9200,"station_id":"ce4bhqh2rcd13ifvqhlg","pricing_plan_id":"cebpf4jnsgd1na2vs0mg"},{"bike_id":"04fd4e1b-4e77-4018-8490-04dc198bf472","system_id":"levelo_inurba_marseille","lat":43.29273,"lon":5.36846,"is_reserved":false,"is_disabled":false,"rental_uris":{"android":"levelo://app?vid=04fd4e1b-4e77-4018-8490-04dc198bf472","ios":"levelo://app?vid=04fd4e1b-4e77-4018-8490-04dc198bf472"},"vehicle_type_id":"4","last_reported":1740852673,"current_range_meters":9600,"station_id":"ce4bhbp2rcd13ifvqesg","pricing_plan_id":"cebpf4jnsgd1na2vs0mg"},{"bike_id":"c65e2549-0bd4-4200-87e8-04da94f3c3c4","system_id":"levelo_inurba_marseille","lat":43.28418,"lon":5.34982,"is_reserved":false,"is_disabled":false,"rental_uris":{"android":"levelo://app?vid=c65e2549-0bd4-4200-87e8-04da94f3c3c4","ios":"levelo://app?vid=c65e2549-0bd4-4200-87e8-04da94f3c3c4"},"vehicle_type_id":"4","last_reported":1740852673,"current_range_meters":9600,"station_id":"ce4bhbh2rcd13ifvqepg","pricing_plan_id":"cebpf4jnsgd1na2vs0mg"},{"bike_id":"27503124-3743-4d3e-9ca7-878d3b800381","system_id":"levelo_inurba_marseille","lat":43.31163,"lon":5.38722,"is_reserved":false,"is_disabled":false,"rental_uris":{"android":"levelo://app?vid=27503124-3743-4d3e-9ca7-878d3b800381","ios":"levelo://app?vid=27503124-3743-4d3e-9ca7-878d3b800381"},"vehicle_type_id":"4","last_reported":1740852673,"current_range_meters":10000,"station_id":"ce4bgv12rcd13ifvqcp0","pricing_plan_id":"cebpf4jnsgd1na2vs0mg"},{"bike_id":"a211daec-6e79-49ac-bf0e-0ce952d465e8","system_id":"levelo_inurba_marseille","lat":43.31491,"lon":5.37311,"is_reserved":false,"is_disabled":false,"rental_uris":{"android":"levelo://app?vid=a211daec-6e79-49ac-bf0e-0ce952d465e8","ios":"levelo://app?vid=a211daec-6e79-49ac-bf0e-0ce952d465e8"},"vehicle_type_id":"4","last_reported":1740852673,"current_range_meters":9200,"station_id":"ce4bgt12rcd13ifvqcd0","pricing_plan_id":"cebpf4jnsgd1na2vs0mg"},{"bike_id":"b777b4cf-3a59-4bd6-bbe8-877c47f15172","system_id":"levelo_inurba_marseille","lat":43.29269,"lon":5.36851,"is_reserved":false,"is_disabled":false,"rental_uris":{"android":"levelo://app?vid=b777b4cf-3a59-4bd6-bbe8-877c47f15172","ios":"levelo://app?vid=b777b4cf-3a59-4bd6-bbe8-877c47f15172"},"vehicle_type_id":"4","last_reported":1740852673,"current_range_meters":9600,"station_id":"ce4bhbp2rcd13ifvqesg","pricing_plan_id":"cebpf4jnsgd1na2vs0mg"},{"bike_id":"515ae155-3282-4c96-b0a6-96ea51ddd6e6","system_id":"levelo_inurba_marseille","lat":43.30878,"lon":5.39659,"is_reserved":false,"is_disabled":false,"rental_uris":{"android":"levelo://app?vid=515ae155-3282-4c96-b0a6-96ea51ddd6e6","ios":"levelo://app?vid=515ae155-3282-4c96-b0a6-96ea51ddd6e6"},"vehicle_type_id":"4","last_reported":1740852673,"current_range_meters":8400,"station_id":"ce4bh012rcd13ifvqcv0","pricing_plan_id":"cebpf4jnsgd1na2vs0mg"},{"bike_id":"53ebed9a-fd1a-4d94-96e3-0c8bc5887ace","system_id":"levelo_inurba_marseille","lat":43.31325,"lon":5.39697,"is_reserved":false,"is_disabled":false,"rental_uris":{"android":"levelo://app?vid=53ebed9a-fd1a-4d94-96e3-0c8bc5887ace","ios":"levelo://app?vid=53ebed9a-fd1a-4d94-96e3-0c8bc5887ace"},"vehicle_type_id":"4","last_reported":1740852673,"current_range_meters":10000,"station_id":"ce4bgvp2rcd13ifvqcu0","pricing_plan_id":"cebpf4jnsgd1na2vs0mg"},{"bike_id":"4bd4b995-1984-49fc-b229-218c3bec2a20","system_id":"levelo_inurba_marseille","lat":43.28417,"lon":5.34993,"is_reserved":false,"is_disabled":false,"rental_uris":{"android":"levelo://app?vid=4bd4b995-1984-49fc-b229-218c3bec2a20","ios":"levelo://app?vid=4bd4b995-1984-49fc-b229-218c3bec2a20"},"vehicle_type_id":"4","last_reported":1740852673,"current_range_meters":10000,"station_id":"ce4bhbh2rcd13ifvqepg","pricing_plan_id":"cebpf4jnsgd1na2vs0mg"},{"bike_id":"06b48c7b-b23c-4a46-b007-dd3e94572a2a","system_id":"levelo_inurba_marseille","lat":43.30315,"lon":5.36902,"is_reserved":false,"is_disabled":false,"rental_uris":{"android":"levelo://app?vid=06b48c7b-b23c-4a46-b007-dd3e94572a2a","ios":"levelo://app?vid=06b48c7b-b23c-4a46-b007-dd3e94572a2a"},"vehicle_type_id":"4","last_reported":1740852673,"current_range_meters":10000,"station_id":"ce4bgqh2rcd13ifvqc5g","pricing_plan_id":"cebpf4jnsgd1na2vs0mg"},{"bike_id":"c1680bf3-a159-40f5-a36a-7ae00f9bf0fb","system_id":"levelo_inurba_marseille","lat":43.29421,"lon":5.38629,"is_reserved":false,"is_disabled":false,"rental_uris":{"android":"levelo://app?vid=c1680bf3-a159-40f5-a36a-7ae00f9bf0fb","ios":"levelo://app?vid=c1680bf3-a159-40f5-a36a-7ae00f9bf0fb"},"vehicle_type_id":"4","last_reported":1740852673,"current_range_meters":10000,"station_id":"ce4bh2h2rcd13ifvqdh0","pricing_plan_id":"cebpf4jnsgd1na2vs0mg"},{"bike_id":"492c47ea-3871-4767-9258-8aa4217c5a17","system_id":"levelo_inurba_marseille","lat":43.29258,"lon":5.38433,"is_reserved":false,"is_disabled":false,"rental_uris":{"android":"levelo://app?vid=492c47ea-3871-4767-9258-8aa4217c5a17","ios":"levelo://app?vid=492c47ea-3871-4767-9258-8aa4217c5a17"},"vehicle_type_id":"4","last_reported":1740852673,"current_range_meters":10000,"station_id":"ce4bh692rcd13ifvqea0","pricing_plan_id":"cebpf4jnsgd1na2vs0mg"},{"bike_id":"3bb0ca09-713b-4271-ba00-9d1b6f7245c9","system_id":"levelo_inurba_marseille","lat":43.30882,"lon":5.39655,"is_reserved":false,"is_disabled":false,"rental_uris":{"android":"levelo://app?vid=3bb0ca09-713b-4271-ba00-9d1b6f7245c9","ios":"levelo://app?vid=3bb0ca09-713b-4271-ba00-9d1b6f7245c9"},"vehicle_type_id":"4","last_reported":1740852673,"current_range_meters":10000,"station_id":"ce4bh012rcd13ifvqcv0","pricing_plan_id":"cebpf4jnsgd1na2vs0mg"},{"bike_id":"0caeed4c-6905-4158-8afe-d58e452bba9f","system_id":"levelo_inurba_marseille","lat":43.29256,"lon":5.38431,"is_reserved":false,"is_disabled":false,"rental_uris":{"android":"levelo://app?vid=0caeed4c-6905-4158-8afe-d58e452bba9f","ios":"levelo://app?vid=0caeed4c-6905-4158-8afe-d58e452bba9f"},"vehicle_type_id":"4","last_reported":1740852673,"current_range_meters":10800,"station_id":"ce4bh692rcd13ifvqea0","pricing_plan_id":"cebpf4jnsgd1na2vs0mg"},{"bike_id":"43e1e04c-280b-4d54-bbb9-c3921d8e975b","system_id":"levelo_inurba_marseille","lat":43.29264,"lon":5.36847,"is_reserved":false,"is_disabled":false,"rental_uris":{"android":"levelo://app?vid=43e1e04c-280b-4d54-bbb9-c3921d8e975b","ios":"levelo://app?vid=43e1e04c-280b-4d54-bbb9-c3921d8e975b"},"vehicle_type_id":"4","last_reported":1740852673,"current_range_meters":10800,"station_id":"ce4bhbp2rcd13ifvqesg","pricing_plan_id":"cebpf4jnsgd1na2vs0mg"},{"bike_id":"161d70e9-e213-4bf5-bde1-9c3d7296d89c","system_id":"levelo_inurba_marseille","lat":43.27846,"lon":5.39204,"is_reserved":false,"is_disabled":false,"rental_uris":{"android":"levelo://app?vid=161d70e9-e213-4bf5-bde1-9c3d7296d89c","ios":"levelo://app?vid=161d70e9-e213-4bf5-bde1-9c3d7296d89c"},"vehicle_type_id":"4","last_reported":1740852673,"current_range_meters":10800,"station_id":"ce4bhjp2rcd13ifvqga0","pricing_plan_id":"cebpf4jnsgd1na2vs0mg"},{"bike_id":"28dea3d3-2972-4d56-be96-ad8d8cda42e0","system_id":"levelo_inurba_marseille","lat":43.24547,"lon":5.39521,"is_reserved":false,"is_disabled":false,"rental_uris":{"android":"levelo://app?vid=28dea3d3-2972-4d56-be96-ad8d8cda42e0","ios":"levelo://app?vid=28dea3d3-2972-4d56-be96-ad8d8cda42e0"},"vehicle_type_id":"4","last_reported":1740852673,"current_range_meters":10800,"station_id":"ce4bhlp2rcd13ifvqgjg","pricing_plan_id":"cebpf4jnsgd1na2vs0mg"},{"bike_id":"875e0e4e-acc7-4916-a21e-8a4a106acaf9","system_id":"levelo_inurba_marseille","lat":43.31279,"lon":5.40176,"is_reserved":false,"is_disabled":true,"rental_uris":{"android":"levelo://app?vid=875e0e4e-acc7-4916-a21e-8a4a106acaf9","ios":"levelo://app?vid=875e0e4e-acc7-4916-a21e-8a4a106acaf9"},"vehicle_type_id":"4","last_reported":1740852673,"current_range_meters":10800,"station_id":"ce4bh092rcd13ifvqd30","pricing_plan_id":"cebpf4jnsgd1na2vs0mg"},{"bike_id":"2667b23c-67ae-471f-a157-93cd2283f666","system_id":"levelo_inurba_marseille","lat":43.29606,"lon":5.38111,"is_reserved":false,"is_disabled":false,"rental_uris":{"android":"levelo://app?vid=2667b23c-67ae-471f-a157-93cd2283f666","ios":"levelo://app?vid=2667b23c-67ae-471f-a157-93cd2283f666"},"vehicle_type_id":"4","last_reported":1740852673,"current_range_meters":10800,"station_id":"ce4bgl12rcd13ifvqbo0","pricing_plan_id":"cebpf4jnsgd1na2vs0mg"},{"bike_id":"0693b9d6-4a9d-4e38-bfa2-80f934bcc2e3","system_id":"levelo_inurba_marseille","lat":43.24169,"lon":5.36394,"is_reserved":false,"is_disabled":false,"rental_uris":{"android":"levelo://app?vid=0693b9d6-4a9d-4e38-bfa2-80f934bcc2e3","ios":"levelo://app?vid=0693b9d6-4a9d-4e38-bfa2-80f934bcc2e3"},"vehicle_type_id":"4","last_reported":1740852673,"current_range_meters":11200,"station_id":"cpo36qri1sfpv3e86is0","pricing_plan_id":"cebpf4jnsgd1na2vs0mg"},{"bike_id":"03f102ca-7771-4c46-9959-1d5bc7938eae","system_id":"levelo_inurba_marseille","lat":43.316626,"lon":5.372995,"is_reserved":false,"is_disabled":false,"rental_uris":{"android":"levelo://app?vid=03f102ca-7771-4c46-9959-1d5bc7938eae","ios":"levelo://app?vid=03f102ca-7771-4c46-9959-1d5bc7938eae"},"vehicle_type_id":"4","last_reported":1740852673,"current_range_meters":10800,"station_id":"ce4bhr92rcd13ifvqhrg","pricing_plan_id":"cebpf4jnsgd1na2vs0mg"},{"bike_id":"5d581bbf-c03d-40c4-8c08-d40ad9eeaa19","system_id":"levelo_inurba_marseille","lat":43.29104,"lon":5.42688,"is_reserved":false,"is_disabled":false,"rental_uris":{"android":"levelo://app?vid=5d581bbf-c03d-40c4-8c08-d40ad9eeaa19","ios":"levelo://app?vid=5d581bbf-c03d-40c4-8c08-d40ad9eeaa19"},"vehicle_type_id":"4","last_reported":1740852673,"current_range_meters":11600,"station_id":"","pricing_plan_id":"cebpf4jnsgd1na2vs0mg"},{"bike_id":"4015c440-7267-44b4-8be2-f4b87cb51aa9","system_id":"levelo_inurba_marseille","lat":43.25568,"lon":5.38252,"is_reserved":false,"is_disabled":false,"rental_uris":{"android":"levelo://app?vid=4015c440-7267-44b4-8be2-f4b87cb51aa9","ios":"levelo://app?vid=4015c440-7267-44b4-8be2-f4b87cb51aa9"},"vehicle_type_id":"4","last_reported":1740852673,"current_range_meters":11600,"station_id":"ce4bhih2rcd13ifvqfs0","pricing_plan_id":"cebpf4jnsgd1na2vs0mg"},{"bike_id":"4df11988-4f91-471f-93f7-5709d818f530","system_id":"levelo_inurba_marseille","lat":43.2928,"lon":5.3683,"is_reserved":false,"is_disabled":false,"rental_uris":{"android":"levelo://app?vid=4df11988-4f91-471f-93f7-5709d818f530","ios":"levelo://app?vid=4df11988-4f91-471f-93f7-5709d818f530"},"vehicle_type_id":"4","last_reported":1740852673,"current_range_meters":11600,"station_id":"ce4bhbp2rcd13ifvqesg","pricing_plan_id":"cebpf4jnsgd1na2vs0mg"},{"bike_id":"9df0e5e9-2acf-424a-bb42-5118790856ef","system_id":"levelo_inurba_marseille","lat":43.25502,"lon":5.3765,"is_reserved":false,"is_disabled":false,"rental_uris":{"android":"levelo://app?vid=9df0e5e9-2acf-424a-bb42-5118790856ef","ios":"levelo://app?vid=9df0e5e9-2acf-424a-bb42-5118790856ef"},"vehicle_type_id":"4","last_reported":1740852673,"current_range_meters":11200,"station_id":"ce4bhh12rcd13ifvqff0","pricing_plan_id":"cebpf4jnsgd1na2vs0mg"},{"bike_id":"f502074e-8a5d-4d7f-aa68-e20579afbb3c","system_id":"levelo_inurba_marseille","lat":43.2909,"lon":5.38148,"is_reserved":false,"is_disabled":false,"rental_uris":{"android":"levelo://app?vid=f502074e-8a5d-4d7f-aa68-e20579afbb3c","ios":"levelo://app?vid=f502074e-8a5d-4d7f-aa68-e20579afbb3c"},"vehicle_type_id":"4","last_reported":1740852673,"current_range_meters":12000,"station_id":"ce4bh512rcd13ifvqe2g","pricing_plan_id":"cebpf4jnsgd1na2vs0mg"},{"bike_id":"f480da84-1887-4ade-84fb-1c0d19a4cdd8","system_id":"levelo_inurba_marseille","lat":43.33023,"lon":5.39033,"is_reserved":false,"is_disabled":false,"rental_uris":{"android":"levelo://app?vid=f480da84-1887-4ade-84fb-1c0d19a4cdd8","ios":"levelo://app?vid=f480da84-1887-4ade-84fb-1c0d19a4cdd8"},"vehicle_type_id":"4","last_reported":1740852673,"current_range_meters":12000,"station_id":"ce4bhr92rcd13ifvqhrg","pricing_plan_id":"cebpf4jnsgd1na2vs0mg"},{"bike_id":"e3ea0c82-575d-4f15-b57c-6eebd57f815a","system_id":"levelo_inurba_marseille","lat":43.27326,"lon":5.39125,"is_reserved":false,"is_disabled":true,"rental_uris":{"android":"levelo://app?vid=e3ea0c82-575d-4f15-b57c-6eebd57f815a","ios":"levelo://app?vid=e3ea0c82-575d-4f15-b57c-6eebd57f815a"},"vehicle_type_id":"4","last_reported":1740852673,"current_range_meters":12000,"station_id":"ce4bhgp2rcd13ifvqfe0","pricing_plan_id":"cebpf4jnsgd1na2vs0mg"},{"bike_id":"1697087c-3a15-4d2b-8fbc-57126afe45c3","system_id":"levelo_inurba_marseille","lat":43.23153,"lon":5.43705,"is_reserved":false,"is_disabled":false,"rental_uris":{"android":"levelo://app?vid=1697087c-3a15-4d2b-8fbc-57126afe45c3","ios":"levelo://app?vid=1697087c-3a15-4d2b-8fbc-57126afe45c3"},"vehicle_type_id":"4","last_reported":1740852673,"current_range_meters":12400,"station_id":"ce4bhmp2rcd13ifvqgog","pricing_plan_id":"cebpf4jnsgd1na2vs0mg"},{"bike_id":"2b368b3d-d962-4c21-9c9d-5bc7c2351d31","system_id":"levelo_inurba_marseille","lat":43.31721,"lon":5.40449,"is_reserved":false,"is_disabled":false,"rental_uris":{"android":"levelo://app?vid=2b368b3d-d962-4c21-9c9d-5bc7c2351d31","ios":"levelo://app?vid=2b368b3d-d962-4c21-9c9d-5bc7c2351d31"},"vehicle_type_id":"4","last_reported":1740852673,"current_range_meters":12400,"station_id":"ce4bh012rcd13ifvqd00","pricing_plan_id":"cebpf4jnsgd1na2vs0mg"},{"bike_id":"a791795d-846d-4058-a665-a9ea2ad9fc32","system_id":"levelo_inurba_marseille","lat":43.29308,"lon":5.37464,"is_reserved":false,"is_disabled":false,"rental_uris":{"android":"levelo://app?vid=a791795d-846d-4058-a665-a9ea2ad9fc32","ios":"levelo://app?vid=a791795d-846d-4058-a665-a9ea2ad9fc32"},"vehicle_type_id":"4","last_reported":1740852673,"current_range_meters":12800,"station_id":"ce4bgi12rcd13ifvqb70","pricing_plan_id":"cebpf4jnsgd1na2vs0mg"},{"bike_id":"fb18759c-f3ca-4612-8704-baf08a44bab2","system_id":"levelo_inurba_marseille","lat":43.28422,"lon":5.34985,"is_reserved":false,"is_disabled":false,"rental_uris":{"android":"levelo://app?vid=fb18759c-f3ca-4612-8704-baf08a44bab2","ios":"levelo://app?vid=fb18759c-f3ca-4612-8704-baf08a44bab2"},"vehicle_type_id":"4","last_reported":1740852673,"current_range_meters":12400,"station_id":"ce4bhbh2rcd13ifvqepg","pricing_plan_id":"cebpf4jnsgd1na2vs0mg"},{"bike_id":"3d326c83-df55-456d-a39d-f1c118f8a994","system_id":"levelo_inurba_marseille","lat":43.30203,"lon":5.39972,"is_reserved":false,"is_disabled":true,"rental_uris":{"android":"levelo://app?vid=3d326c83-df55-456d-a39d-f1c118f8a994","ios":"levelo://app?vid=3d326c83-df55-456d-a39d-f1c118f8a994"},"vehicle_type_id":"4","last_reported":1740852673,"current_range_meters":12400,"station_id":"ce4bgvh2rcd13ifvqcs0","pricing_plan_id":"cebpf4jnsgd1na2vs0mg"},{"bike_id":"76a9c493-87af-4f76-8427-270441870081","system_id":"levelo_inurba_marseille","lat":43.28617,"lon":5.35105,"is_reserved":false,"is_disabled":false,"rental_uris":{"android":"levelo://app?vid=76a9c493-87af-4f76-8427-270441870081","ios":"levelo://app?vid=76a9c493-87af-4f76-8427-270441870081"},"vehicle_type_id":"4","last_reported":1740852673,"current_range_meters":12400,"station_id":"ce4bhch2rcd13ifvqeug","pricing_plan_id":"cebpf4jnsgd1na2vs0mg"},{"bike_id":"9fd706f0-2b52-41ea-bba4-526beed6e45b","system_id":"levelo_inurba_marseille","lat":43.30192,"lon":5.38084,"is_reserved":false,"is_disabled":false,"rental_uris":{"android":"levelo://app?vid=9fd706f0-2b52-41ea-bba4-526beed6e45b","ios":"levelo://app?vid=9fd706f0-2b52-41ea-bba4-526beed6e45b"},"vehicle_type_id":"4","last_reported":1740852673,"current_range_meters":12400,"station_id":"","pricing_plan_id":"cebpf4jnsgd1na2vs0mg"},{"bike_id":"ae27860f-736e-49a0-a3ab-fa3385d1f12e","system_id":"levelo_inurba_marseille","lat":43.2695,"lon":5.3865,"is_reserved":false,"is_disabled":false,"rental_uris":{"android":"levelo://app?vid=ae27860f-736e-49a0-a3ab-fa3385d1f12e","ios":"levelo://app?vid=ae27860f-736e-49a0-a3ab-fa3385d1f12e"},"vehicle_type_id":"4","last_reported":1740852673,"current_range_meters":12800,"station_id":"ce4bhh92rcd13ifvqfh0","pricing_plan_id":"cebpf4jnsgd1na2vs0mg"},{"bike_id":"8235333d-301f-40af-bcff-249a4ee0b3a0","system_id":"levelo_inurba_marseille","lat":43.29602,"lon":5.381,"is_reserved":false,"is_disabled":false,"rental_uris":{"android":"levelo://app?vid=8235333d-301f-40af-bcff-249a4ee0b3a0","ios":"levelo://app?vid=8235333d-301f-40af-bcff-249a4ee0b3a0"},"vehicle_type_id":"4","last_reported":1740852673,"current_range_meters":12800,"station_id":"ce4bgl12rcd13ifvqbo0","pricing_plan_id":"cebpf4jnsgd1na2vs0mg"},{"bike_id":"5d7c7708-0760-4884-8883-b9dd9eef0e36","system_id":"levelo_inurba_marseille","lat":43.29776,"lon":5.38113,"is_reserved":false,"is_disabled":false,"rental_uris":{"android":"levelo://app?vid=5d7c7708-0760-4884-8883-b9dd9eef0e36","ios":"levelo://app?vid=5d7c7708-0760-4884-8883-b9dd9eef0e36"},"vehicle_type_id":"4","last_reported":1740852673,"current_range_meters":13600,"station_id":"ce4bgip2rcd13ifvqbb0","pricing_plan_id":"cebpf4jnsgd1na2vs0mg"},{"bike_id":"7cdb8149-bd9c-4804-b1f0-8247e7039b86","system_id":"levelo_inurba_marseille","lat":43.29305,"lon":5.37452,"is_reserved":false,"is_disabled":false,"rental_uris":{"android":"levelo://app?vid=7cdb8149-bd9c-4804-b1f0-8247e7039b86","ios":"levelo://app?vid=7cdb8149-bd9c-4804-b1f0-8247e7039b86"},"vehicle_type_id":"4","last_reported":1740852673,"current_range_meters":13600,"station_id":"ce4bgi12rcd13ifvqb70","pricing_plan_id":"cebpf4jnsgd1na2vs0mg"},{"bike_id":"e0a413a7-bc6b-4647-8e86-c0926ac098ec","system_id":"levelo_inurba_marseille","lat":43.29294,"lon":5.36842,"is_reserved":false,"is_disabled":false,"rental_uris":{"android":"levelo://app?vid=e0a413a7-bc6b-4647-8e86-c0926ac098ec","ios":"levelo://app?vid=e0a413a7-bc6b-4647-8e86-c0926ac098ec"},"vehicle_type_id":"4","last_reported":1740852673,"current_range_meters":13600,"station_id":"ce4bhbp2rcd13ifvqesg","pricing_plan_id":"cebpf4jnsgd1na2vs0mg"},{"bike_id":"0895c1b8-8c3a-490f-8314-29718b9cdf4b","system_id":"levelo_inurba_marseille","lat":43.23192,"lon":5.35556,"is_reserved":false,"is_disabled":false,"rental_uris":{"android":"levelo://app?vid=0895c1b8-8c3a-490f-8314-29718b9cdf4b","ios":"levelo://app?vid=0895c1b8-8c3a-490f-8314-29718b9cdf4b"},"vehicle_type_id":"4","last_reported":1740852673,"current_range_meters":14000,"station_id":"ce4bhu92rcd13ifvqi70","pricing_plan_id":"cebpf4jnsgd1na2vs0mg"},{"bike_id":"7b9468be-36b9-40c0-aa67-495922541126","system_id":"levelo_inurba_marseille","lat":43.30444,"lon":5.39731,"is_reserved":false,"is_disabled":false,"rental_uris":{"android":"levelo://app?vid=7b9468be-36b9-40c0-aa67-495922541126","ios":"levelo://app?vid=7b9468be-36b9-40c0-aa67-495922541126"},"vehicle_type_id":"4","last_reported":1740852673,"current_range_meters":14000,"station_id":"ce4bh0h2rcd13ifvqd40","pricing_plan_id":"cebpf4jnsgd1na2vs0mg"},{"bike_id":"062ab81d-4f6f-4fe7-8a22-9006375c11da","system_id":"levelo_inurba_marseille","lat":43.294155,"lon":5.386189,"is_reserved":false,"is_disabled":false,"rental_uris":{"android":"levelo://app?vid=062ab81d-4f6f-4fe7-8a22-9006375c11da","ios":"levelo://app?vid=062ab81d-4f6f-4fe7-8a22-9006375c11da"},"vehicle_type_id":"4","last_reported":1740852673,"current_range_meters":13600,"station_id":"ce4bh9p2rcd13ifvqec0","pricing_plan_id":"cebpf4jnsgd1na2vs0mg"},{"bike_id":"8f367136-d58c-42ed-91ad-ee71ab4dd3af","system_id":"levelo_inurba_marseille","lat":43.26953,"lon":5.38638,"is_reserved":false,"is_disabled":false,"rental_uris":{"android":"levelo://app?vid=8f367136-d58c-42ed-91ad-ee71ab4dd3af","ios":"levelo://app?vid=8f367136-d58c-42ed-91ad-ee71ab4dd3af"},"vehicle_type_id":"4","last_reported":1740852673,"current_range_meters":14400,"station_id":"ce4bhh92rcd13ifvqfh0","pricing_plan_id":"cebpf4jnsgd1na2vs0mg"},{"bike_id":"6171bbe5-c047-4a95-8c44-682bc0ab3fac","system_id":"levelo_inurba_marseille","lat":43.284101,"lon":5.374917,"is_reserved":false,"is_disabled":false,"rental_uris":{"android":"levelo://app?vid=6171bbe5-c047-4a95-8c44-682bc0ab3fac","ios":"levelo://app?vid=6171bbe5-c047-4a95-8c44-682bc0ab3fac"},"vehicle_type_id":"4","last_reported":1740852673,"current_range_meters":14400,"station_id":"ce4bh412rcd13ifvqds0","pricing_plan_id":"cebpf4jnsgd1na2vs0mg"},{"bike_id":"f6859461-eb1b-4285-a68c-bb639996eef9","system_id":"levelo_inurba_marseille","lat":43.2897,"lon":5.37832,"is_reserved":false,"is_disabled":false,"rental_uris":{"android":"levelo://app?vid=f6859461-eb1b-4285-a68c-bb639996eef9","ios":"levelo://app?vid=f6859461-eb1b-4285-a68c-bb639996eef9"},"vehicle_type_id":"4","last_reported":1740852673,"current_range_meters":14400,"station_id":"ce4bh9p2rcd13ifvqed0","pricing_plan_id":"cebpf4jnsgd1na2vs0mg"},{"bike_id":"a58bb1af-c034-4529-8c26-22d49ae653a8","system_id":"levelo_inurba_marseille","lat":43.27846,"lon":5.39202,"is_reserved":false,"is_disabled":false,"rental_uris":{"android":"levelo://app?vid=a58bb1af-c034-4529-8c26-22d49ae653a8","ios":"levelo://app?vid=a58bb1af-c034-4529-8c26-22d49ae653a8"},"vehicle_type_id":"4","last_reported":1740852673,"current_range_meters":14400,"station_id":"ce4bhjp2rcd13ifvqga0","pricing_plan_id":"cebpf4jnsgd1na2vs0mg"},{"bike_id":"218457ac-5064-4483-b256-7af7da02f0cd","system_id":"levelo_inurba_marseille","lat":43.2797,"lon":5.38713,"is_reserved":false,"is_disabled":true,"rental_uris":{"android":"levelo://app?vid=218457ac-5064-4483-b256-7af7da02f0cd","ios":"levelo://app?vid=218457ac-5064-4483-b256-7af7da02f0cd"},"vehicle_type_id":"4","last_reported":1740852673,"current_range_meters":14400,"station_id":"ce4bhg12rcd13ifvqf80","pricing_plan_id":"cebpf4jnsgd1na2vs0mg"},{"bike_id":"08f4d276-2d9b-494a-8935-d4598d3bd376","system_id":"levelo_inurba_marseille","lat":43.31538,"lon":5.3803,"is_reserved":false,"is_disabled":false,"rental_uris":{"android":"levelo://app?vid=08f4d276-2d9b-494a-8935-d4598d3bd376","ios":"levelo://app?vid=08f4d276-2d9b-494a-8935-d4598d3bd376"},"vehicle_type_id":"4","last_reported":1740852673,"current_range_meters":10800,"station_id":"ce4bhsp2rcd13ifvqi50","pricing_plan_id":"cebpf4jnsgd1na2vs0mg"},{"bike_id":"27d57ba8-cb2b-4da3-bcfc-1efd3956d0fa","system_id":"levelo_inurba_marseille","lat":43.29551,"lon":5.42282,"is_reserved":false,"is_disabled":false,"rental_uris":{"android":"levelo://app?vid=27d57ba8-cb2b-4da3-bcfc-1efd3956d0fa","ios":"levelo://app?vid=27d57ba8-cb2b-4da3-bcfc-1efd3956d0fa"},"vehicle_type_id":"4","last_reported":1740852673,"current_range_meters":14800,"station_id":"ce4bhph2rcd13ifvqhdg","pricing_plan_id":"cebpf4jnsgd1na2vs0mg"},{"bike_id":"364da244-0443-4187-a98a-bc7b7ca7b9dc","system_id":"levelo_inurba_marseille","lat":43.2955,"lon":5.42293,"is_reserved":false,"is_disabled":false,"rental_uris":{"android":"levelo://app?vid=364da244-0443-4187-a98a-bc7b7ca7b9dc","ios":"levelo://app?vid=364da244-0443-4187-a98a-bc7b7ca7b9dc"},"vehicle_type_id":"4","last_reported":1740852673,"current_range_meters":14800,"station_id":"ce4bhph2rcd13ifvqhdg","pricing_plan_id":"cebpf4jnsgd1na2vs0mg"},{"bike_id":"75cacdd1-032d-44f3-80c0-7c98daff7c98","system_id":"levelo_inurba_marseille","lat":43.29864,"lon":5.36275,"is_reserved":false,"is_disabled":false,"rental_uris":{"android":"levelo://app?vid=75cacdd1-032d-44f3-80c0-7c98daff7c98","ios":"levelo://app?vid=75cacdd1-032d-44f3-80c0-7c98daff7c98"},"vehicle_type_id":"4","last_reported":1740852673,"current_range_meters":14800,"station_id":"ce4bgpp2rcd13ifvqc3g","pricing_plan_id":"cebpf4jnsgd1na2vs0mg"},{"bike_id":"0d32b7e9-733c-48e2-ab81-132efa92e887","system_id":"levelo_inurba_marseille","lat":43.30541,"lon":5.36541,"is_reserved":false,"is_disabled":false,"rental_uris":{"android":"levelo://app?vid=0d32b7e9-733c-48e2-ab81-132efa92e887","ios":"levelo://app?vid=0d32b7e9-733c-48e2-ab81-132efa92e887"},"vehicle_type_id":"4","last_reported":1740852673,"current_range_meters":14800,"station_id":"ce4bgs12rcd13ifvqcag","pricing_plan_id":"cebpf4jnsgd1na2vs0mg"},{"bike_id":"f1317508-b318-42b3-b6cc-485d3729a439","system_id":"levelo_inurba_marseille","lat":43.26214,"lon":5.37917,"is_reserved":false,"is_disabled":false,"rental_uris":{"android":"levelo://app?vid=f1317508-b318-42b3-b6cc-485d3729a439","ios":"levelo://app?vid=f1317508-b318-42b3-b6cc-485d3729a439"},"vehicle_type_id":"4","last_reported":1740852673,"current_range_meters":14800,"station_id":"ce4bhjp2rcd13ifvqg90","pricing_plan_id":"cebpf4jnsgd1na2vs0mg"},{"bike_id":"bd249676-5e1b-4fdf-8694-51b38548ec83","system_id":"levelo_inurba_marseille","lat":43.26945,"lon":5.40248,"is_reserved":false,"is_disabled":false,"rental_uris":{"android":"levelo://app?vid=bd249676-5e1b-4fdf-8694-51b38548ec83","ios":"levelo://app?vid=bd249676-5e1b-4fdf-8694-51b38548ec83"},"vehicle_type_id":"4","last_reported":1740852673,"current_range_meters":10800,"station_id":"cjm6bp8fraef2m0cb0m0","pricing_plan_id":"cebpf4jnsgd1na2vs0mg"},{"bike_id":"badd0b82-6b48-41c9-bfbe-17d9453893b8","system_id":"levelo_inurba_marseille","lat":43.29255,"lon":5.3762,"is_reserved":false,"is_disabled":false,"rental_uris":{"android":"levelo://app?vid=badd0b82-6b48-41c9-bfbe-17d9453893b8","ios":"levelo://app?vid=badd0b82-6b48-41c9-bfbe-17d9453893b8"},"vehicle_type_id":"4","last_reported":1740852673,"current_range_meters":15200,"station_id":"ce4bgi12rcd13ifvqb80","pricing_plan_id":"cebpf4jnsgd1na2vs0mg"},{"bike_id":"20d46fcb-4529-4896-b225-392c7b6d1f52","system_id":"levelo_inurba_marseille","lat":43.29215,"lon":5.39324,"is_reserved":false,"is_disabled":true,"rental_uris":{"android":"levelo://app?vid=20d46fcb-4529-4896-b225-392c7b6d1f52","ios":"levelo://app?vid=20d46fcb-4529-4896-b225-392c7b6d1f52"},"vehicle_type_id":"4","last_reported":1740852673,"current_range_meters":15200,"station_id":"ce4bh192rcd13ifvqdd0","pricing_plan_id":"cebpf4jnsgd1na2vs0mg"},{"bike_id":"284ccf54-027c-46be-951e-e78156f52c46","system_id":"levelo_inurba_marseille","lat":43.2928,"lon":5.38447,"is_reserved":false,"is_disabled":false,"rental_uris":{"android":"levelo://app?vid=284ccf54-027c-46be-951e-e78156f52c46","ios":"levelo://app?vid=284ccf54-027c-46be-951e-e78156f52c46"},"vehicle_type_id":"4","last_reported":1740852673,"current_range_meters":15200,"station_id":"ce4bh692rcd13ifvqea0","pricing_plan_id":"cebpf4jnsgd1na2vs0mg"},{"bike_id":"b179ac2e-61f3-42ad-bf84-551da221134c","system_id":"levelo_inurba_marseille","lat":43.31278,"lon":5.40169,"is_reserved":false,"is_disabled":false,"rental_uris":{"android":"levelo://app?vid=b179ac2e-61f3-42ad-bf84-551da221134c","ios":"levelo://app?vid=b179ac2e-61f3-42ad-bf84-551da221134c"},"vehicle_type_id":"4","last_reported":1740852673,"current_range_meters":14800,"station_id":"ce4bh092rcd13ifvqd30","pricing_plan_id":"cebpf4jnsgd1na2vs0mg"},{"bike_id":"ed8bb562-d048-4d97-a62c-052cc210d3b2","system_id":"levelo_inurba_marseille","lat":43.31696,"lon":5.43717,"is_reserved":false,"is_disabled":false,"rental_uris":{"android":"levelo://app?vid=ed8bb562-d048-4d97-a62c-052cc210d3b2","ios":"levelo://app?vid=ed8bb562-d048-4d97-a62c-052cc210d3b2"},"vehicle_type_id":"4","last_reported":1740852673,"current_range_meters":16000,"station_id":"ce4bhp92rcd13ifvqhcg","pricing_plan_id":"cebpf4jnsgd1na2vs0mg"},{"bike_id":"55cd9d41-a7db-4ad2-b2fa-5f40a97efe68","system_id":"levelo_inurba_marseille","lat":43.31723,"lon":5.42392,"is_reserved":false,"is_disabled":false,"rental_uris":{"android":"levelo://app?vid=55cd9d41-a7db-4ad2-b2fa-5f40a97efe68","ios":"levelo://app?vid=55cd9d41-a7db-4ad2-b2fa-5f40a97efe68"},"vehicle_type_id":"4","last_reported":1740852673,"current_range_meters":15200,"station_id":"ce4bhp92rcd13ifvqhbg","pricing_plan_id":"cebpf4jnsgd1na2vs0mg"},{"bike_id":"448be146-7d8e-4cbb-94e4-c736335f2d30","system_id":"levelo_inurba_marseille","lat":43.28417,"lon":5.34986,"is_reserved":false,"is_disabled":false,"rental_uris":{"android":"levelo://app?vid=448be146-7d8e-4cbb-94e4-c736335f2d30","ios":"levelo://app?vid=448be146-7d8e-4cbb-94e4-c736335f2d30"},"vehicle_type_id":"4","last_reported":1740852673,"current_range_meters":16000,"station_id":"ce4bhbh2rcd13ifvqepg","pricing_plan_id":"cebpf4jnsgd1na2vs0mg"},{"bike_id":"abdce9a5-165a-430d-93c6-b1980bc72eea","system_id":"levelo_inurba_marseille","lat":43.31316,"lon":5.39715,"is_reserved":false,"is_disabled":false,"rental_uris":{"android":"levelo://app?vid=abdce9a5-165a-430d-93c6-b1980bc72eea","ios":"levelo://app?vid=abdce9a5-165a-430d-93c6-b1980bc72eea"},"vehicle_type_id":"4","last_reported":1740852673,"current_range_meters":16000,"station_id":"ce4bgvp2rcd13ifvqcu0","pricing_plan_id":"cebpf4jnsgd1na2vs0mg"},{"bike_id":"01af45f0-40f6-4dbb-8674-926a2ca03f64","system_id":"levelo_inurba_marseille","lat":43.29024,"lon":5.37562,"is_reserved":false,"is_disabled":false,"rental_uris":{"android":"levelo://app?vid=01af45f0-40f6-4dbb-8674-926a2ca03f64","ios":"levelo://app?vid=01af45f0-40f6-4dbb-8674-926a2ca03f64"},"vehicle_type_id":"4","last_reported":1740852673,"current_range_meters":16000,"station_id":"ce4bh692rcd13ifvqe90","pricing_plan_id":"cebpf4jnsgd1na2vs0mg"},{"bike_id":"e4aac1b1-835a-4679-bef8-2d57e180562a","system_id":"levelo_inurba_marseille","lat":43.26748,"lon":5.39425,"is_reserved":false,"is_disabled":false,"rental_uris":{"android":"levelo://app?vid=e4aac1b1-835a-4679-bef8-2d57e180562a","ios":"levelo://app?vid=e4aac1b1-835a-4679-bef8-2d57e180562a"},"vehicle_type_id":"4","last_reported":1740852673,"current_range_meters":16000,"station_id":"ce4bhh12rcd13ifvqfg0","pricing_plan_id":"cebpf4jnsgd1na2vs0mg"},{"bike_id":"77b293be-741e-41f6-97b3-5d8636697ded","system_id":"levelo_inurba_marseille","lat":43.29089,"lon":5.38141,"is_reserved":false,"is_disabled":false,"rental_uris":{"android":"levelo://app?vid=77b293be-741e-41f6-97b3-5d8636697ded","ios":"levelo://app?vid=77b293be-741e-41f6-97b3-5d8636697ded"},"vehicle_type_id":"4","last_reported":1740852673,"current_range_meters":15200,"station_id":"ce4bh512rcd13ifvqe2g","pricing_plan_id":"cebpf4jnsgd1na2vs0mg"},{"bike_id":"f7c019bb-24d5-47dd-b673-042e5277a8f7","system_id":"levelo_inurba_marseille","lat":43.30197,"lon":5.38118,"is_reserved":false,"is_disabled":false,"rental_uris":{"android":"levelo://app?vid=f7c019bb-24d5-47dd-b673-042e5277a8f7","ios":"levelo://app?vid=f7c019bb-24d5-47dd-b673-042e5277a8f7"},"vehicle_type_id":"4","last_reported":1740852673,"current_range_meters":16000,"station_id":"","pricing_plan_id":"cebpf4jnsgd1na2vs0mg"},{"bike_id":"28094c26-ebf7-4f10-9752-a86036fd897f","system_id":"levelo_inurba_marseille","lat":43.28422,"lon":5.3498,"is_reserved":false,"is_disabled":false,"rental_uris":{"android":"levelo://app?vid=28094c26-ebf7-4f10-9752-a86036fd897f","ios":"levelo://app?vid=28094c26-ebf7-4f10-9752-a86036fd897f"},"vehicle_type_id":"4","last_reported":1740852673,"current_range_meters":16400,"station_id":"ce4bhbh2rcd13ifvqepg","pricing_plan_id":"cebpf4jnsgd1na2vs0mg"},{"bike_id":"1ff34d4d-5de2-4d1c-a6dc-bf8261c720e1","system_id":"levelo_inurba_marseille","lat":43.27917,"lon":5.39595,"is_reserved":false,"is_disabled":false,"rental_uris":{"android":"levelo://app?vid=1ff34d4d-5de2-4d1c-a6dc-bf8261c720e1","ios":"levelo://app?vid=1ff34d4d-5de2-4d1c-a6dc-bf8261c720e1"},"vehicle_type_id":"4","last_reported":1740852673,"current_range_meters":16400,"station_id":"ce4bhf92rcd13ifvqf40","pricing_plan_id":"cebpf4jnsgd1na2vs0mg"},{"bike_id":"671ccf8a-3e46-43c4-bd76-4373d8752478","system_id":"levelo_inurba_marseille","lat":43.29263,"lon":5.38444,"is_reserved":false,"is_disabled":false,"rental_uris":{"android":"levelo://app?vid=671ccf8a-3e46-43c4-bd76-4373d8752478","ios":"levelo://app?vid=671ccf8a-3e46-43c4-bd76-4373d8752478"},"vehicle_type_id":"4","last_reported":1740852673,"current_range_meters":16400,"station_id":"ce4bh692rcd13ifvqea0","pricing_plan_id":"cebpf4jnsgd1na2vs0mg"},{"bike_id":"d6d16af8-b2fb-4d7c-914c-241c2f0f116c","system_id":"levelo_inurba_marseille","lat":43.30784,"lon":5.37662,"is_reserved":false,"is_disabled":false,"rental_uris":{"android":"levelo://app?vid=d6d16af8-b2fb-4d7c-914c-241c2f0f116c","ios":"levelo://app?vid=d6d16af8-b2fb-4d7c-914c-241c2f0f116c"},"vehicle_type_id":"4","last_reported":1740852673,"current_range_meters":16000,"station_id":"ce4bgv92rcd13ifvqcq0","pricing_plan_id":"cebpf4jnsgd1na2vs0mg"},{"bike_id":"49645587-4897-47af-80cb-ea0df5af90cc","system_id":"levelo_inurba_marseille","lat":43.26209,"lon":5.37441,"is_reserved":false,"is_disabled":false,"rental_uris":{"android":"levelo://app?vid=49645587-4897-47af-80cb-ea0df5af90cc","ios":"levelo://app?vid=49645587-4897-47af-80cb-ea0df5af90cc"},"vehicle_type_id":"4","last_reported":1740852673,"current_range_meters":16400,"station_id":"ce4bhgp2rcd13ifvqfc0","pricing_plan_id":"cebpf4jnsgd1na2vs0mg"},{"bike_id":"6448bf50-ccea-4cda-83b7-661f5e36492c","system_id":"levelo_inurba_marseille","lat":43.29266,"lon":5.4016,"is_reserved":false,"is_disabled":false,"rental_uris":{"android":"levelo://app?vid=6448bf50-ccea-4cda-83b7-661f5e36492c","ios":"levelo://app?vid=6448bf50-ccea-4cda-83b7-661f5e36492c"},"vehicle_type_id":"4","last_reported":1740852673,"current_range_meters":16400,"station_id":"ce4bh312rcd13ifvqdk0","pricing_plan_id":"cebpf4jnsgd1na2vs0mg"},{"bike_id":"3c9c65ff-a2a8-4c52-a6f4-62bcc77556ef","system_id":"levelo_inurba_marseille","lat":43.241669,"lon":5.363923,"is_reserved":false,"is_disabled":false,"rental_uris":{"android":"levelo://app?vid=3c9c65ff-a2a8-4c52-a6f4-62bcc77556ef","ios":"levelo://app?vid=3c9c65ff-a2a8-4c52-a6f4-62bcc77556ef"},"vehicle_type_id":"4","last_reported":1740852673,"current_range_meters":16400,"station_id":"cpo36qri1sfpv3e86is0","pricing_plan_id":"cebpf4jnsgd1na2vs0mg"},{"bike_id":"c272f144-1302-4356-8d7d-046dcce3b360","system_id":"levelo_inurba_marseille","lat":43.26222,"lon":5.37942,"is_reserved":false,"is_disabled":false,"rental_uris":{"android":"levelo://app?vid=c272f144-1302-4356-8d7d-046dcce3b360","ios":"levelo://app?vid=c272f144-1302-4356-8d7d-046dcce3b360"},"vehicle_type_id":"4","last_reported":1740852673,"current_range_meters":16400,"station_id":"ce4bhjp2rcd13ifvqg90","pricing_plan_id":"cebpf4jnsgd1na2vs0mg"},{"bike_id":"3e0dfe8e-516c-45d2-9fb6-b841e772a05c","system_id":"levelo_inurba_marseille","lat":43.27231,"lon":5.39184,"is_reserved":false,"is_disabled":false,"rental_uris":{"android":"levelo://app?vid=3e0dfe8e-516c-45d2-9fb6-b841e772a05c","ios":"levelo://app?vid=3e0dfe8e-516c-45d2-9fb6-b841e772a05c"},"vehicle_type_id":"4","last_reported":1740852673,"current_range_meters":16800,"station_id":"ce4bhhp2rcd13ifvqfm0","pricing_plan_id":"cebpf4jnsgd1na2vs0mg"},{"bike_id":"e2b1a97c-05f9-4994-8c76-5c4c26614832","system_id":"levelo_inurba_marseille","lat":43.26559,"lon":5.37293,"is_reserved":false,"is_disabled":false,"rental_uris":{"android":"levelo://app?vid=e2b1a97c-05f9-4994-8c76-5c4c26614832","ios":"levelo://app?vid=e2b1a97c-05f9-4994-8c76-5c4c26614832"},"vehicle_type_id":"4","last_reported":1740852673,"current_range_meters":16800,"station_id":"ce4bhg12rcd13ifvqf70","pricing_plan_id":"cebpf4jnsgd1na2vs0mg"},{"bike_id":"953cc1e5-7e17-4c1d-b0f2-bff801d3a91c","system_id":"levelo_inurba_marseille","lat":43.29271,"lon":5.38442,"is_reserved":false,"is_disabled":true,"rental_uris":{"android":"levelo://app?vid=953cc1e5-7e17-4c1d-b0f2-bff801d3a91c","ios":"levelo://app?vid=953cc1e5-7e17-4c1d-b0f2-bff801d3a91c"},"vehicle_type_id":"4","last_reported":1740852673,"current_range_meters":16800,"station_id":"ce4bh692rcd13ifvqea0","pricing_plan_id":"cebpf4jnsgd1na2vs0mg"},{"bike_id":"9e5520b4-bf3a-4c93-8806-f068ef30cd9f","system_id":"levelo_inurba_marseille","lat":43.2739,"lon":5.36257,"is_reserved":false,"is_disabled":false,"rental_uris":{"android":"levelo://app?vid=9e5520b4-bf3a-4c93-8806-f068ef30cd9f","ios":"levelo://app?vid=9e5520b4-bf3a-4c93-8806-f068ef30cd9f"},"vehicle_type_id":"4","last_reported":1740852673,"current_range_meters":16800,"station_id":"ce4bhbh2rcd13ifvqeo0","pricing_plan_id":"cebpf4jnsgd1na2vs0mg"},{"bike_id":"1a19f09d-0b6a-4b64-9d93-aa6bb1c37f46","system_id":"levelo_inurba_marseille","lat":43.29606,"lon":5.38106,"is_reserved":false,"is_disabled":false,"rental_uris":{"android":"levelo://app?vid=1a19f09d-0b6a-4b64-9d93-aa6bb1c37f46","ios":"levelo://app?vid=1a19f09d-0b6a-4b64-9d93-aa6bb1c37f46"},"vehicle_type_id":"4","last_reported":1740852673,"current_range_meters":16800,"station_id":"ce4bgl12rcd13ifvqbo0","pricing_plan_id":"cebpf4jnsgd1na2vs0mg"},{"bike_id":"8c528749-43df-40d6-b9b4-e80d7e8bda23","system_id":"levelo_inurba_marseille","lat":43.26553,"lon":5.37284,"is_reserved":false,"is_disabled":false,"rental_uris":{"android":"levelo://app?vid=8c528749-43df-40d6-b9b4-e80d7e8bda23","ios":"levelo://app?vid=8c528749-43df-40d6-b9b4-e80d7e8bda23"},"vehicle_type_id":"4","last_reported":1740852673,"current_range_meters":16800,"station_id":"ce4bhg12rcd13ifvqf70","pricing_plan_id":"cebpf4jnsgd1na2vs0mg"},{"bike_id":"3d3e1218-9db2-47a8-a44c-42be77ca5680","system_id":"levelo_inurba_marseille","lat":43.29288,"lon":5.36841,"is_reserved":false,"is_disabled":false,"rental_uris":{"android":"levelo://app?vid=3d3e1218-9db2-47a8-a44c-42be77ca5680","ios":"levelo://app?vid=3d3e1218-9db2-47a8-a44c-42be77ca5680"},"vehicle_type_id":"4","last_reported":1740852673,"current_range_meters":16800,"station_id":"ce4bhbp2rcd13ifvqesg","pricing_plan_id":"cebpf4jnsgd1na2vs0mg"},{"bike_id":"76d58a2e-82e7-4e1d-a98f-c6152e9b38bc","system_id":"levelo_inurba_marseille","lat":43.27329,"lon":5.39118,"is_reserved":false,"is_disabled":false,"rental_uris":{"android":"levelo://app?vid=76d58a2e-82e7-4e1d-a98f-c6152e9b38bc","ios":"levelo://app?vid=76d58a2e-82e7-4e1d-a98f-c6152e9b38bc"},"vehicle_type_id":"4","last_reported":1740852673,"current_range_meters":16800,"station_id":"ce4bhgp2rcd13ifvqfe0","pricing_plan_id":"cebpf4jnsgd1na2vs0mg"},{"bike_id":"f584bb52-2bfe-4fe2-9b46-fdca215625c1","system_id":"levelo_inurba_marseille","lat":43.29087,"lon":5.38143,"is_reserved":false,"is_disabled":false,"rental_uris":{"android":"levelo://app?vid=f584bb52-2bfe-4fe2-9b46-fdca215625c1","ios":"levelo://app?vid=f584bb52-2bfe-4fe2-9b46-fdca215625c1"},"vehicle_type_id":"4","last_reported":1740852673,"current_range_meters":16800,"station_id":"ce4bh512rcd13ifvqe2g","pricing_plan_id":"cebpf4jnsgd1na2vs0mg"},{"bike_id":"51488355-cec3-4549-a8df-af618d811700","system_id":"levelo_inurba_marseille","lat":43.31708,"lon":5.40465,"is_reserved":false,"is_disabled":false,"rental_uris":{"android":"levelo://app?vid=51488355-cec3-4549-a8df-af618d811700","ios":"levelo://app?vid=51488355-cec3-4549-a8df-af618d811700"},"vehicle_type_id":"4","last_reported":1740852673,"current_range_meters":16800,"station_id":"ce4bh012rcd13ifvqd00","pricing_plan_id":"cebpf4jnsgd1na2vs0mg"},{"bike_id":"dbd24d78-1e72-4b79-b29c-55756f89ecc8","system_id":"levelo_inurba_marseille","lat":43.25012,"lon":5.38961,"is_reserved":false,"is_disabled":false,"rental_uris":{"android":"levelo://app?vid=dbd24d78-1e72-4b79-b29c-55756f89ecc8","ios":"levelo://app?vid=dbd24d78-1e72-4b79-b29c-55756f89ecc8"},"vehicle_type_id":"4","last_reported":1740852673,"current_range_meters":16800,"station_id":"ce4bhgp2rcd13ifvqfd0","pricing_plan_id":"cebpf4jnsgd1na2vs0mg"},{"bike_id":"09940e07-8d4f-4214-b40e-47b93a27cccf","system_id":"levelo_inurba_marseille","lat":43.29572,"lon":5.39964,"is_reserved":false,"is_disabled":false,"rental_uris":{"android":"levelo://app?vid=09940e07-8d4f-4214-b40e-47b93a27cccf","ios":"levelo://app?vid=09940e07-8d4f-4214-b40e-47b93a27cccf"},"vehicle_type_id":"4","last_reported":1740852673,"current_range_meters":17200,"station_id":"ce4bh312rcd13ifvqdj0","pricing_plan_id":"cebpf4jnsgd1na2vs0mg"},{"bike_id":"f8774b53-6aad-4c74-8fcb-de09dc38caee","system_id":"levelo_inurba_marseille","lat":43.27384,"lon":5.36253,"is_reserved":false,"is_disabled":true,"rental_uris":{"android":"levelo://app?vid=f8774b53-6aad-4c74-8fcb-de09dc38caee","ios":"levelo://app?vid=f8774b53-6aad-4c74-8fcb-de09dc38caee"},"vehicle_type_id":"4","last_reported":1740852673,"current_range_meters":17200,"station_id":"ce4bhbh2rcd13ifvqeo0","pricing_plan_id":"cebpf4jnsgd1na2vs0mg"},{"bike_id":"91470621-d7b5-4632-8189-89cd0fb32d4a","system_id":"levelo_inurba_marseille","lat":43.29272,"lon":5.3684,"is_reserved":false,"is_disabled":false,"rental_uris":{"android":"levelo://app?vid=91470621-d7b5-4632-8189-89cd0fb32d4a","ios":"levelo://app?vid=91470621-d7b5-4632-8189-89cd0fb32d4a"},"vehicle_type_id":"4","last_reported":1740852673,"current_range_meters":17200,"station_id":"ce4bhbp2rcd13ifvqesg","pricing_plan_id":"cebpf4jnsgd1na2vs0mg"},{"bike_id":"c55a2b5f-0954-4e06-bb68-763b7bf2d253","system_id":"levelo_inurba_marseille","lat":43.31348,"lon":5.36766,"is_reserved":false,"is_disabled":false,"rental_uris":{"android":"levelo://app?vid=c55a2b5f-0954-4e06-bb68-763b7bf2d253","ios":"levelo://app?vid=c55a2b5f-0954-4e06-bb68-763b7bf2d253"},"vehicle_type_id":"4","last_reported":1740852673,"current_range_meters":17200,"station_id":"ce4bgr92rcd13ifvqc6g","pricing_plan_id":"cebpf4jnsgd1na2vs0mg"},{"bike_id":"620a5eb3-daee-44ad-a3ba-f984dc8c768a","system_id":"levelo_inurba_marseille","lat":43.302,"lon":5.36632,"is_reserved":false,"is_disabled":true,"rental_uris":{"android":"levelo://app?vid=620a5eb3-daee-44ad-a3ba-f984dc8c768a","ios":"levelo://app?vid=620a5eb3-daee-44ad-a3ba-f984dc8c768a"},"vehicle_type_id":"4","last_reported":1740852673,"current_range_meters":17200,"station_id":"ce4bgrh2rcd13ifvqc8g","pricing_plan_id":"cebpf4jnsgd1na2vs0mg"},{"bike_id":"490efdaf-9c06-484b-a976-2cce243d8f4c","system_id":"levelo_inurba_marseille","lat":43.26789,"lon":5.39411,"is_reserved":false,"is_disabled":false,"rental_uris":{"android":"levelo://app?vid=490efdaf-9c06-484b-a976-2cce243d8f4c","ios":"levelo://app?vid=490efdaf-9c06-484b-a976-2cce243d8f4c"},"vehicle_type_id":"4","last_reported":1740852673,"current_range_meters":14400,"station_id":"ce4bhh12rcd13ifvqfg0","pricing_plan_id":"cebpf4jnsgd1na2vs0mg"},{"bike_id":"d0338d15-401f-4f02-ad15-e1eebf71fa48","system_id":"levelo_inurba_marseille","lat":43.29605,"lon":5.38121,"is_reserved":false,"is_disabled":false,"rental_uris":{"android":"levelo://app?vid=d0338d15-401f-4f02-ad15-e1eebf71fa48","ios":"levelo://app?vid=d0338d15-401f-4f02-ad15-e1eebf71fa48"},"vehicle_type_id":"4","last_reported":1740852673,"current_range_meters":17200,"station_id":"ce4bgl12rcd13ifvqbo0","pricing_plan_id":"cebpf4jnsgd1na2vs0mg"},{"bike_id":"57cd94f2-e7d7-48fa-948e-308f17077047","system_id":"levelo_inurba_marseille","lat":43.29065,"lon":5.38153,"is_reserved":false,"is_disabled":false,"rental_uris":{"android":"levelo://app?vid=57cd94f2-e7d7-48fa-948e-308f17077047","ios":"levelo://app?vid=57cd94f2-e7d7-48fa-948e-308f17077047"},"vehicle_type_id":"4","last_reported":1740852673,"current_range_meters":17200,"station_id":"ce4bh512rcd13ifvqe2g","pricing_plan_id":"cebpf4jnsgd1na2vs0mg"},{"bike_id":"17208b52-ac4e-40d4-a3bb-1c58289bc62e","system_id":"levelo_inurba_marseille","lat":43.29061,"lon":5.35909,"is_reserved":false,"is_disabled":false,"rental_uris":{"android":"levelo://app?vid=17208b52-ac4e-40d4-a3bb-1c58289bc62e","ios":"levelo://app?vid=17208b52-ac4e-40d4-a3bb-1c58289bc62e"},"vehicle_type_id":"4","last_reported":1740852673,"current_range_meters":16800,"station_id":"ce4bha92rcd13ifvqeg0","pricing_plan_id":"cebpf4jnsgd1na2vs0mg"},{"bike_id":"5a3ca469-a27c-4bd1-a6f7-8cc81a86868b","system_id":"levelo_inurba_marseille","lat":43.31364,"lon":5.3849,"is_reserved":false,"is_disabled":false,"rental_uris":{"android":"levelo://app?vid=5a3ca469-a27c-4bd1-a6f7-8cc81a86868b","ios":"levelo://app?vid=5a3ca469-a27c-4bd1-a6f7-8cc81a86868b"},"vehicle_type_id":"4","last_reported":1740852673,"current_range_meters":17200,"station_id":"ce4bgt92rcd13ifvqcf0","pricing_plan_id":"cebpf4jnsgd1na2vs0mg"},{"bike_id":"73022eae-0e6a-4873-bca7-f9caf82bcade","system_id":"levelo_inurba_marseille","lat":43.28425,"lon":5.34984,"is_reserved":false,"is_disabled":false,"rental_uris":{"android":"levelo://app?vid=73022eae-0e6a-4873-bca7-f9caf82bcade","ios":"levelo://app?vid=73022eae-0e6a-4873-bca7-f9caf82bcade"},"vehicle_type_id":"4","last_reported":1740852673,"current_range_meters":17200,"station_id":"ce4bhbh2rcd13ifvqepg","pricing_plan_id":"cebpf4jnsgd1na2vs0mg"},{"bike_id":"d5792e34-1a9b-4bc2-abd5-2c645e524662","system_id":"levelo_inurba_marseille","lat":43.31698,"lon":5.40458,"is_reserved":false,"is_disabled":false,"rental_uris":{"android":"levelo://app?vid=d5792e34-1a9b-4bc2-abd5-2c645e524662","ios":"levelo://app?vid=d5792e34-1a9b-4bc2-abd5-2c645e524662"},"vehicle_type_id":"4","last_reported":1740852673,"current_range_meters":17200,"station_id":"ce4bh012rcd13ifvqd00","pricing_plan_id":"cebpf4jnsgd1na2vs0mg"},{"bike_id":"636bb5ff-8ac0-4c67-9787-d0db24b18ebf","system_id":"levelo_inurba_marseille","lat":43.308,"lon":5.38148,"is_reserved":false,"is_disabled":false,"rental_uris":{"android":"levelo://app?vid=636bb5ff-8ac0-4c67-9787-d0db24b18ebf","ios":"levelo://app?vid=636bb5ff-8ac0-4c67-9787-d0db24b18ebf"},"vehicle_type_id":"4","last_reported":1740852673,"current_range_meters":17600,"station_id":"ce4bgt12rcd13ifvqce0","pricing_plan_id":"cebpf4jnsgd1na2vs0mg"},{"bike_id":"148dd239-cfb4-4c53-8890-6a791577901e","system_id":"levelo_inurba_marseille","lat":43.29415,"lon":5.38642,"is_reserved":false,"is_disabled":false,"rental_uris":{"android":"levelo://app?vid=148dd239-cfb4-4c53-8890-6a791577901e","ios":"levelo://app?vid=148dd239-cfb4-4c53-8890-6a791577901e"},"vehicle_type_id":"4","last_reported":1740852673,"current_range_meters":17600,"station_id":"ce4bh2h2rcd13ifvqdh0","pricing_plan_id":"cebpf4jnsgd1na2vs0mg"},{"bike_id":"96090500-e92b-4618-a8ce-3e71815df01c","system_id":"levelo_inurba_marseille","lat":43.31061,"lon":5.38246,"is_reserved":false,"is_disabled":false,"rental_uris":{"android":"levelo://app?vid=96090500-e92b-4618-a8ce-3e71815df01c","ios":"levelo://app?vid=96090500-e92b-4618-a8ce-3e71815df01c"},"vehicle_type_id":"4","last_reported":1740852673,"current_range_meters":17600,"station_id":"","pricing_plan_id":"cebpf4jnsgd1na2vs0mg"},{"bike_id":"6fdba49f-578b-4857-9c6d-8281d6fa9c17","system_id":"levelo_inurba_marseille","lat":43.29,"lon":5.35616,"is_reserved":false,"is_disabled":false,"rental_uris":{"android":"levelo://app?vid=6fdba49f-578b-4857-9c6d-8281d6fa9c17","ios":"levelo://app?vid=6fdba49f-578b-4857-9c6d-8281d6fa9c17"},"vehicle_type_id":"4","last_reported":1740852673,"current_range_meters":17600,"station_id":"ce4bhb92rcd13ifvqen0","pricing_plan_id":"cebpf4jnsgd1na2vs0mg"},{"bike_id":"95545978-ee3a-4c94-aee9-2e4704c4f1a5","system_id":"levelo_inurba_marseille","lat":43.27073,"lon":5.42277,"is_reserved":false,"is_disabled":false,"rental_uris":{"android":"levelo://app?vid=95545978-ee3a-4c94-aee9-2e4704c4f1a5","ios":"levelo://app?vid=95545978-ee3a-4c94-aee9-2e4704c4f1a5"},"vehicle_type_id":"4","last_reported":1740852673,"current_range_meters":18000,"station_id":"ce4bhk92rcd13ifvqgb0","pricing_plan_id":"cebpf4jnsgd1na2vs0mg"},{"bike_id":"31b70e1c-8f1c-400d-bcd4-ffdad39f4759","system_id":"levelo_inurba_marseille","lat":43.30151,"lon":5.38092,"is_reserved":false,"is_disabled":false,"rental_uris":{"android":"levelo://app?vid=31b70e1c-8f1c-400d-bcd4-ffdad39f4759","ios":"levelo://app?vid=31b70e1c-8f1c-400d-bcd4-ffdad39f4759"},"vehicle_type_id":"4","last_reported":1740852673,"current_range_meters":18000,"station_id":"ce4bgjp2rcd13ifvqbh0","pricing_plan_id":"cebpf4jnsgd1na2vs0mg"},{"bike_id":"82ce3d8e-f85f-4f5a-a45f-96b5ebaa8cc4","system_id":"levelo_inurba_marseille","lat":43.29628,"lon":5.3718,"is_reserved":false,"is_disabled":false,"rental_uris":{"android":"levelo://app?vid=82ce3d8e-f85f-4f5a-a45f-96b5ebaa8cc4","ios":"levelo://app?vid=82ce3d8e-f85f-4f5a-a45f-96b5ebaa8cc4"},"vehicle_type_id":"4","last_reported":1740852673,"current_range_meters":18000,"station_id":"ce4bgnh2rcd13ifvqc0g","pricing_plan_id":"cebpf4jnsgd1na2vs0mg"},{"bike_id":"2290bcd6-3531-40a8-8e00-5c5998bf414d","system_id":"levelo_inurba_marseille","lat":43.30419,"lon":5.41297,"is_reserved":false,"is_disabled":false,"rental_uris":{"android":"levelo://app?vid=2290bcd6-3531-40a8-8e00-5c5998bf414d","ios":"levelo://app?vid=2290bcd6-3531-40a8-8e00-5c5998bf414d"},"vehicle_type_id":"4","last_reported":1740852673,"current_range_meters":18000,"station_id":"ce4bhop2rcd13ifvqh8g","pricing_plan_id":"cebpf4jnsgd1na2vs0mg"},{"bike_id":"43cafc12-01d3-4950-aa8e-d935ec8988ae","system_id":"levelo_inurba_marseille","lat":43.24548,"lon":5.39519,"is_reserved":false,"is_disabled":false,"rental_uris":{"android":"levelo://app?vid=43cafc12-01d3-4950-aa8e-d935ec8988ae","ios":"levelo://app?vid=43cafc12-01d3-4950-aa8e-d935ec8988ae"},"vehicle_type_id":"4","last_reported":1740852673,"current_range_meters":18800,"station_id":"ce4bhlp2rcd13ifvqgjg","pricing_plan_id":"cebpf4jnsgd1na2vs0mg"},{"bike_id":"606bdd66-5162-4f4c-bf53-fba710dcc40d","system_id":"levelo_inurba_marseille","lat":43.243978,"lon":5.370655,"is_reserved":false,"is_disabled":true,"rental_uris":{"android":"levelo://app?vid=606bdd66-5162-4f4c-bf53-fba710dcc40d","ios":"levelo://app?vid=606bdd66-5162-4f4c-bf53-fba710dcc40d"},"vehicle_type_id":"4","last_reported":1740852673,"current_range_meters":18800,"station_id":"ce4bhhh2rcd13ifvqfk0","pricing_plan_id":"cebpf4jnsgd1na2vs0mg"},{"bike_id":"0ef53640-d017-41fd-9253-5a11c3b9ca62","system_id":"levelo_inurba_marseille","lat":43.28466,"lon":5.38416,"is_reserved":false,"is_disabled":false,"rental_uris":{"android":"levelo://app?vid=0ef53640-d017-41fd-9253-5a11c3b9ca62","ios":"levelo://app?vid=0ef53640-d017-41fd-9253-5a11c3b9ca62"},"vehicle_type_id":"4","last_reported":1740852673,"current_range_meters":18800,"station_id":"ce4bh512rcd13ifvqe3g","pricing_plan_id":"cebpf4jnsgd1na2vs0mg"},{"bike_id":"da8fda09-e162-41c1-af1e-4ca02a9d1c96","system_id":"levelo_inurba_marseille","lat":43.2782,"lon":5.4071,"is_reserved":false,"is_disabled":false,"rental_uris":{"android":"levelo://app?vid=da8fda09-e162-41c1-af1e-4ca02a9d1c96","ios":"levelo://app?vid=da8fda09-e162-41c1-af1e-4ca02a9d1c96"},"vehicle_type_id":"4","last_reported":1740852673,"current_range_meters":17600,"station_id":"ce4bhnh2rcd13ifvqgtg","pricing_plan_id":"cebpf4jnsgd1na2vs0mg"},{"bike_id":"ef141e35-b8c3-4b85-a416-a335cd184eae","system_id":"levelo_inurba_marseille","lat":43.29306,"lon":5.37179,"is_reserved":false,"is_disabled":false,"rental_uris":{"android":"levelo://app?vid=ef141e35-b8c3-4b85-a416-a335cd184eae","ios":"levelo://app?vid=ef141e35-b8c3-4b85-a416-a335cd184eae"},"vehicle_type_id":"4","last_reported":1740852673,"current_range_meters":18800,"station_id":"ce4bgh92rcd13ifvqb40","pricing_plan_id":"cebpf4jnsgd1na2vs0mg"},{"bike_id":"9237e8bf-2478-49d0-8137-3af731f8c5fd","system_id":"levelo_inurba_marseille","lat":43.30318,"lon":5.39195,"is_reserved":false,"is_disabled":false,"rental_uris":{"android":"levelo://app?vid=9237e8bf-2478-49d0-8137-3af731f8c5fd","ios":"levelo://app?vid=9237e8bf-2478-49d0-8137-3af731f8c5fd"},"vehicle_type_id":"4","last_reported":1740852673,"current_range_meters":18800,"station_id":"ce4bgkh2rcd13ifvqbk0","pricing_plan_id":"cebpf4jnsgd1na2vs0mg"},{"bike_id":"649829b2-c1cd-427e-8261-58cadc14e1d8","system_id":"levelo_inurba_marseille","lat":43.283532,"lon":5.381052,"is_reserved":false,"is_disabled":false,"rental_uris":{"android":"levelo://app?vid=649829b2-c1cd-427e-8261-58cadc14e1d8","ios":"levelo://app?vid=649829b2-c1cd-427e-8261-58cadc14e1d8"},"vehicle_type_id":"4","last_reported":1740852673,"current_range_meters":19200,"station_id":"ce4bhbh2rcd13ifvqeo0","pricing_plan_id":"cebpf4jnsgd1na2vs0mg"},{"bike_id":"c5b35fc3-133b-4fcd-9bc1-000b1b46221f","system_id":"levelo_inurba_marseille","lat":43.24167,"lon":5.36392,"is_reserved":false,"is_disabled":false,"rental_uris":{"android":"levelo://app?vid=c5b35fc3-133b-4fcd-9bc1-000b1b46221f","ios":"levelo://app?vid=c5b35fc3-133b-4fcd-9bc1-000b1b46221f"},"vehicle_type_id":"4","last_reported":1740852673,"current_range_meters":19200,"station_id":"cpo36qri1sfpv3e86is0","pricing_plan_id":"cebpf4jnsgd1na2vs0mg"},{"bike_id":"18ed809a-93be-4ceb-a90d-b4661309b51d","system_id":"levelo_inurba_marseille","lat":43.30935,"lon":5.37413,"is_reserved":false,"is_disabled":false,"rental_uris":{"android":"levelo://app?vid=18ed809a-93be-4ceb-a90d-b4661309b51d","ios":"levelo://app?vid=18ed809a-93be-4ceb-a90d-b4661309b51d"},"vehicle_type_id":"4","last_reported":1740852673,"current_range_meters":19200,"station_id":"","pricing_plan_id":"cebpf4jnsgd1na2vs0mg"},{"bike_id":"bfc39c76-9e71-45ff-a77e-3c72387f605e","system_id":"levelo_inurba_marseille","lat":43.28112,"lon":5.37852,"is_reserved":false,"is_disabled":false,"rental_uris":{"android":"levelo://app?vid=bfc39c76-9e71-45ff-a77e-3c72387f605e","ios":"levelo://app?vid=bfc39c76-9e71-45ff-a77e-3c72387f605e"},"vehicle_type_id":"4","last_reported":1740852673,"current_range_meters":19200,"station_id":"ce4bha12rcd13ifvqee0","pricing_plan_id":"cebpf4jnsgd1na2vs0mg"},{"bike_id":"065424a0-bcf9-4cf7-ba75-1479728388b3","system_id":"levelo_inurba_marseille","lat":43.30433,"lon":5.38891,"is_reserved":false,"is_disabled":false,"rental_uris":{"android":"levelo://app?vid=065424a0-bcf9-4cf7-ba75-1479728388b3","ios":"levelo://app?vid=065424a0-bcf9-4cf7-ba75-1479728388b3"},"vehicle_type_id":"4","last_reported":1740852673,"current_range_meters":19200,"station_id":"ce4bgk12rcd13ifvqbi0","pricing_plan_id":"cebpf4jnsgd1na2vs0mg"},{"bike_id":"d66b749a-0808-469e-b143-0787b08d816b","system_id":"levelo_inurba_marseille","lat":43.262151,"lon":5.374435,"is_reserved":false,"is_disabled":false,"rental_uris":{"android":"levelo://app?vid=d66b749a-0808-469e-b143-0787b08d816b","ios":"levelo://app?vid=d66b749a-0808-469e-b143-0787b08d816b"},"vehicle_type_id":"4","last_reported":1740852673,"current_range_meters":19200,"station_id":"ce4bhgp2rcd13ifvqfc0","pricing_plan_id":"cebpf4jnsgd1na2vs0mg"},{"bike_id":"35de5d9e-453d-4b6e-a49a-d72de279088a","system_id":"levelo_inurba_marseille","lat":43.26197,"lon":5.37476,"is_reserved":false,"is_disabled":false,"rental_uris":{"android":"levelo://app?vid=35de5d9e-453d-4b6e-a49a-d72de279088a","ios":"levelo://app?vid=35de5d9e-453d-4b6e-a49a-d72de279088a"},"vehicle_type_id":"4","last_reported":1740852673,"current_range_meters":19200,"station_id":"ce4bhgp2rcd13ifvqfc0","pricing_plan_id":"cebpf4jnsgd1na2vs0mg"},{"bike_id":"c50e6722-3c8f-4531-8d71-d9caa92f23af","system_id":"levelo_inurba_marseille","lat":43.30791,"lon":5.37643,"is_reserved":false,"is_disabled":false,"rental_uris":{"android":"levelo://app?vid=c50e6722-3c8f-4531-8d71-d9caa92f23af","ios":"levelo://app?vid=c50e6722-3c8f-4531-8d71-d9caa92f23af"},"vehicle_type_id":"4","last_reported":1740852673,"current_range_meters":18800,"station_id":"ce4bgv92rcd13ifvqcq0","pricing_plan_id":"cebpf4jnsgd1na2vs0mg"},{"bike_id":"489d0402-f617-4851-bace-1a9acc20825c","system_id":"levelo_inurba_marseille","lat":43.29094,"lon":5.38151,"is_reserved":false,"is_disabled":false,"rental_uris":{"android":"levelo://app?vid=489d0402-f617-4851-bace-1a9acc20825c","ios":"levelo://app?vid=489d0402-f617-4851-bace-1a9acc20825c"},"vehicle_type_id":"4","last_reported":1740852673,"current_range_meters":19200,"station_id":"ce4bh512rcd13ifvqe2g","pricing_plan_id":"cebpf4jnsgd1na2vs0mg"},{"bike_id":"219c3b0b-00a7-466e-b12d-57038ccef4f4","system_id":"levelo_inurba_marseille","lat":43.26216,"lon":5.37438,"is_reserved":false,"is_disabled":false,"rental_uris":{"android":"levelo://app?vid=219c3b0b-00a7-466e-b12d-57038ccef4f4","ios":"levelo://app?vid=219c3b0b-00a7-466e-b12d-57038ccef4f4"},"vehicle_type_id":"4","last_reported":1740852673,"current_range_meters":19200,"station_id":"ce4bhgp2rcd13ifvqfc0","pricing_plan_id":"cebpf4jnsgd1na2vs0mg"},{"bike_id":"cc836fe0-3cfd-4fe9-beb4-1fec15d76872","system_id":"levelo_inurba_marseille","lat":43.30427,"lon":5.37325,"is_reserved":false,"is_disabled":false,"rental_uris":{"android":"levelo://app?vid=cc836fe0-3cfd-4fe9-beb4-1fec15d76872","ios":"levelo://app?vid=cc836fe0-3cfd-4fe9-beb4-1fec15d76872"},"vehicle_type_id":"4","last_reported":1740852673,"current_range_meters":19200,"station_id":"","pricing_plan_id":"cebpf4jnsgd1na2vs0mg"},{"bike_id":"12619477-24e5-4654-82ba-35b94d72a1cf","system_id":"levelo_inurba_marseille","lat":43.29315,"lon":5.37431,"is_reserved":false,"is_disabled":false,"rental_uris":{"android":"levelo://app?vid=12619477-24e5-4654-82ba-35b94d72a1cf","ios":"levelo://app?vid=12619477-24e5-4654-82ba-35b94d72a1cf"},"vehicle_type_id":"4","last_reported":1740852673,"current_range_meters":19600,"station_id":"ce4bgi12rcd13ifvqb70","pricing_plan_id":"cebpf4jnsgd1na2vs0mg"},{"bike_id":"a3f7d3fb-8fbb-4c36-8dca-051e004c694d","system_id":"levelo_inurba_marseille","lat":43.3144,"lon":5.36961,"is_reserved":false,"is_disabled":false,"rental_uris":{"android":"levelo://app?vid=a3f7d3fb-8fbb-4c36-8dca-051e004c694d","ios":"levelo://app?vid=a3f7d3fb-8fbb-4c36-8dca-051e004c694d"},"vehicle_type_id":"4","last_reported":1740852673,"current_range_meters":19600,"station_id":"","pricing_plan_id":"cebpf4jnsgd1na2vs0mg"},{"bike_id":"3cf39e80-44f4-48a5-b674-da9fd0e1b66d","system_id":"levelo_inurba_marseille","lat":43.29572,"lon":5.37497,"is_reserved":false,"is_disabled":false,"rental_uris":{"android":"levelo://app?vid=3cf39e80-44f4-48a5-b674-da9fd0e1b66d","ios":"levelo://app?vid=3cf39e80-44f4-48a5-b674-da9fd0e1b66d"},"vehicle_type_id":"4","last_reported":1740852673,"current_range_meters":19600,"station_id":"ce4bgh92rcd13ifvqb50","pricing_plan_id":"cebpf4jnsgd1na2vs0mg"},{"bike_id":"670122a3-157a-4ef1-82d1-a5574649dac0","system_id":"levelo_inurba_marseille","lat":43.2396,"lon":5.36639,"is_reserved":false,"is_disabled":false,"rental_uris":{"android":"levelo://app?vid=670122a3-157a-4ef1-82d1-a5574649dac0","ios":"levelo://app?vid=670122a3-157a-4ef1-82d1-a5574649dac0"},"vehicle_type_id":"4","last_reported":1740852673,"current_range_meters":19600,"station_id":"ce4bhi12rcd13ifvqfp0","pricing_plan_id":"cebpf4jnsgd1na2vs0mg"},{"bike_id":"b863bc21-ecc3-4be8-b58d-8f3ecf2d3213","system_id":"levelo_inurba_marseille","lat":43.29429,"lon":5.39774,"is_reserved":false,"is_disabled":true,"rental_uris":{"android":"levelo://app?vid=b863bc21-ecc3-4be8-b58d-8f3ecf2d3213","ios":"levelo://app?vid=b863bc21-ecc3-4be8-b58d-8f3ecf2d3213"},"vehicle_type_id":"4","last_reported":1740852673,"current_range_meters":19600,"station_id":"ce4bh3h2rcd13ifvqdo0","pricing_plan_id":"cebpf4jnsgd1na2vs0mg"},{"bike_id":"846eb34c-de4a-4271-8078-f98339696d7a","system_id":"levelo_inurba_marseille","lat":43.31372,"lon":5.38494,"is_reserved":false,"is_disabled":false,"rental_uris":{"android":"levelo://app?vid=846eb34c-de4a-4271-8078-f98339696d7a","ios":"levelo://app?vid=846eb34c-de4a-4271-8078-f98339696d7a"},"vehicle_type_id":"4","last_reported":1740852673,"current_range_meters":19600,"station_id":"ce4bgt92rcd13ifvqcf0","pricing_plan_id":"cebpf4jnsgd1na2vs0mg"},{"bike_id":"fd61a1d2-15f0-4724-a5a3-37779fda9fbf","system_id":"levelo_inurba_marseille","lat":43.31367,"lon":5.38493,"is_reserved":false,"is_disabled":false,"rental_uris":{"android":"levelo://app?vid=fd61a1d2-15f0-4724-a5a3-37779fda9fbf","ios":"levelo://app?vid=fd61a1d2-15f0-4724-a5a3-37779fda9fbf"},"vehicle_type_id":"4","last_reported":1740852673,"current_range_meters":19600,"station_id":"ce4bgt92rcd13ifvqcf0","pricing_plan_id":"cebpf4jnsgd1na2vs0mg"},{"bike_id":"5aa8a32b-c762-420e-9936-d752bf0266a4","system_id":"levelo_inurba_marseille","lat":43.25121,"lon":5.40318,"is_reserved":false,"is_disabled":false,"rental_uris":{"android":"levelo://app?vid=5aa8a32b-c762-420e-9936-d752bf0266a4","ios":"levelo://app?vid=5aa8a32b-c762-420e-9936-d752bf0266a4"},"vehicle_type_id":"4","last_reported":1740852673,"current_range_meters":20000,"station_id":"ce4bhlh2rcd13ifvqgig","pricing_plan_id":"cebpf4jnsgd1na2vs0mg"},{"bike_id":"64f6fcb8-ceaf-4bcb-9ecc-1aae2ebbe3e6","system_id":"levelo_inurba_marseille","lat":43.29421,"lon":5.38631,"is_reserved":false,"is_disabled":false,"rental_uris":{"android":"levelo://app?vid=64f6fcb8-ceaf-4bcb-9ecc-1aae2ebbe3e6","ios":"levelo://app?vid=64f6fcb8-ceaf-4bcb-9ecc-1aae2ebbe3e6"},"vehicle_type_id":"4","last_reported":1740852673,"current_range_meters":20000,"station_id":"ce4bh2h2rcd13ifvqdh0","pricing_plan_id":"cebpf4jnsgd1na2vs0mg"},{"bike_id":"c6d2d362-1414-4c34-b9d1-b9ce8714a813","system_id":"levelo_inurba_marseille","lat":43.30162,"lon":5.36612,"is_reserved":false,"is_disabled":false,"rental_uris":{"android":"levelo://app?vid=c6d2d362-1414-4c34-b9d1-b9ce8714a813","ios":"levelo://app?vid=c6d2d362-1414-4c34-b9d1-b9ce8714a813"},"vehicle_type_id":"4","last_reported":1740852673,"current_range_meters":20000,"station_id":"ce4bgrh2rcd13ifvqc8g","pricing_plan_id":"cebpf4jnsgd1na2vs0mg"},{"bike_id":"476112c9-3c40-48ac-9bab-1099ff64d6be","system_id":"levelo_inurba_marseille","lat":43.3018,"lon":5.38089,"is_reserved":false,"is_disabled":false,"rental_uris":{"android":"levelo://app?vid=476112c9-3c40-48ac-9bab-1099ff64d6be","ios":"levelo://app?vid=476112c9-3c40-48ac-9bab-1099ff64d6be"},"vehicle_type_id":"4","last_reported":1740852673,"current_range_meters":20000,"station_id":"ce4bgjp2rcd13ifvqbh0","pricing_plan_id":"cebpf4jnsgd1na2vs0mg"},{"bike_id":"266c76e0-bc5a-49d2-9d26-bcf5a3d9e8bd","system_id":"levelo_inurba_marseille","lat":43.30908,"lon":5.36832,"is_reserved":false,"is_disabled":false,"rental_uris":{"android":"levelo://app?vid=266c76e0-bc5a-49d2-9d26-bcf5a3d9e8bd","ios":"levelo://app?vid=266c76e0-bc5a-49d2-9d26-bcf5a3d9e8bd"},"vehicle_type_id":"4","last_reported":1740852673,"current_range_meters":20000,"station_id":"ce4bgn92rcd13ifvqbvg","pricing_plan_id":"cebpf4jnsgd1na2vs0mg"},{"bike_id":"82e1b078-bbf0-4252-9556-c7b8b5ba0768","system_id":"levelo_inurba_marseille","lat":43.29272,"lon":5.38438,"is_reserved":false,"is_disabled":false,"rental_uris":{"android":"levelo://app?vid=82e1b078-bbf0-4252-9556-c7b8b5ba0768","ios":"levelo://app?vid=82e1b078-bbf0-4252-9556-c7b8b5ba0768"},"vehicle_type_id":"4","last_reported":1740852673,"current_range_meters":20000,"station_id":"ce4bh692rcd13ifvqea0","pricing_plan_id":"cebpf4jnsgd1na2vs0mg"},{"bike_id":"982a6c2e-2f14-45e6-81c3-569abb57b097","system_id":"levelo_inurba_marseille","lat":43.23064,"lon":5.35496,"is_reserved":false,"is_disabled":false,"rental_uris":{"android":"levelo://app?vid=982a6c2e-2f14-45e6-81c3-569abb57b097","ios":"levelo://app?vid=982a6c2e-2f14-45e6-81c3-569abb57b097"},"vehicle_type_id":"4","last_reported":1740852673,"current_range_meters":20000,"station_id":"cpo3342slgdg3j2ifvpg","pricing_plan_id":"cebpf4jnsgd1na2vs0mg"},{"bike_id":"80b2d22b-0e98-4d34-b72a-fda3b48b204f","system_id":"levelo_inurba_marseille","lat":43.33019,"lon":5.39043,"is_reserved":false,"is_disabled":false,"rental_uris":{"android":"levelo://app?vid=80b2d22b-0e98-4d34-b72a-fda3b48b204f","ios":"levelo://app?vid=80b2d22b-0e98-4d34-b72a-fda3b48b204f"},"vehicle_type_id":"4","last_reported":1740852673,"current_range_meters":19600,"station_id":"ce4bhr92rcd13ifvqhrg","pricing_plan_id":"cebpf4jnsgd1na2vs0mg"},{"bike_id":"07dfafa5-156e-4d51-a60e-a09b72eed2f1","system_id":"levelo_inurba_marseille","lat":43.27621,"lon":5.36105,"is_reserved":false,"is_disabled":false,"rental_uris":{"android":"levelo://app?vid=07dfafa5-156e-4d51-a60e-a09b72eed2f1","ios":"levelo://app?vid=07dfafa5-156e-4d51-a60e-a09b72eed2f1"},"vehicle_type_id":"4","last_reported":1740852673,"current_range_meters":18000,"station_id":"ce4bgj92rcd13ifvqbe0","pricing_plan_id":"cebpf4jnsgd1na2vs0mg"},{"bike_id":"980e074d-320d-44e5-9198-c6fddd17d2ff","system_id":"levelo_inurba_marseille","lat":43.24073,"lon":5.37756,"is_reserved":false,"is_disabled":false,"rental_uris":{"android":"levelo://app?vid=980e074d-320d-44e5-9198-c6fddd17d2ff","ios":"levelo://app?vid=980e074d-320d-44e5-9198-c6fddd17d2ff"},"vehicle_type_id":"4","last_reported":1740852673,"current_range_meters":20400,"station_id":"ce4bhnp2rcd13ifvqgvg","pricing_plan_id":"cebpf4jnsgd1na2vs0mg"},{"bike_id":"46b42730-9dd3-44c5-91a9-d6d931f385c3","system_id":"levelo_inurba_marseille","lat":43.25473,"lon":5.37645,"is_reserved":false,"is_disabled":false,"rental_uris":{"android":"levelo://app?vid=46b42730-9dd3-44c5-91a9-d6d931f385c3","ios":"levelo://app?vid=46b42730-9dd3-44c5-91a9-d6d931f385c3"},"vehicle_type_id":"4","last_reported":1740852673,"current_range_meters":20400,"station_id":"ce4bhh12rcd13ifvqff0","pricing_plan_id":"cebpf4jnsgd1na2vs0mg"},{"bike_id":"40ec19cc-551a-4ab5-85ad-b4a02749974b","system_id":"levelo_inurba_marseille","lat":43.28469,"lon":5.3841,"is_reserved":false,"is_disabled":false,"rental_uris":{"android":"levelo://app?vid=40ec19cc-551a-4ab5-85ad-b4a02749974b","ios":"levelo://app?vid=40ec19cc-551a-4ab5-85ad-b4a02749974b"},"vehicle_type_id":"4","last_reported":1740852673,"current_range_meters":20400,"station_id":"ce4bh512rcd13ifvqe3g","pricing_plan_id":"cebpf4jnsgd1na2vs0mg"},{"bike_id":"0b85d778-5f42-41f6-99e6-93c2062ce94d","system_id":"levelo_inurba_marseille","lat":43.31708,"lon":5.43706,"is_reserved":false,"is_disabled":false,"rental_uris":{"android":"levelo://app?vid=0b85d778-5f42-41f6-99e6-93c2062ce94d","ios":"levelo://app?vid=0b85d778-5f42-41f6-99e6-93c2062ce94d"},"vehicle_type_id":"4","last_reported":1740852673,"current_range_meters":20400,"station_id":"ce4bhp92rcd13ifvqhcg","pricing_plan_id":"cebpf4jnsgd1na2vs0mg"},{"bike_id":"0a94d3d7-955c-48fc-89c6-1de24505ac89","system_id":"levelo_inurba_marseille","lat":43.3148,"lon":5.37304,"is_reserved":false,"is_disabled":false,"rental_uris":{"android":"levelo://app?vid=0a94d3d7-955c-48fc-89c6-1de24505ac89","ios":"levelo://app?vid=0a94d3d7-955c-48fc-89c6-1de24505ac89"},"vehicle_type_id":"4","last_reported":1740852673,"current_range_meters":20400,"station_id":"ce4bgt12rcd13ifvqcd0","pricing_plan_id":"cebpf4jnsgd1na2vs0mg"},{"bike_id":"0bd32094-c0c7-4baa-bba4-5759fe1cba94","system_id":"levelo_inurba_marseille","lat":43.25687,"lon":5.41091,"is_reserved":false,"is_disabled":false,"rental_uris":{"android":"levelo://app?vid=0bd32094-c0c7-4baa-bba4-5759fe1cba94","ios":"levelo://app?vid=0bd32094-c0c7-4baa-bba4-5759fe1cba94"},"vehicle_type_id":"4","last_reported":1740852673,"current_range_meters":20400,"station_id":"ce4bhkp2rcd13ifvqgd0","pricing_plan_id":"cebpf4jnsgd1na2vs0mg"},{"bike_id":"9518e0b1-fec0-4edb-9daa-3b3f0cd7a75e","system_id":"levelo_inurba_marseille","lat":43.29519,"lon":5.39048,"is_reserved":false,"is_disabled":false,"rental_uris":{"android":"levelo://app?vid=9518e0b1-fec0-4edb-9daa-3b3f0cd7a75e","ios":"levelo://app?vid=9518e0b1-fec0-4edb-9daa-3b3f0cd7a75e"},"vehicle_type_id":"4","last_reported":1740852673,"current_range_meters":20000,"station_id":"ce4bh3p2rcd13ifvqdp0","pricing_plan_id":"cebpf4jnsgd1na2vs0mg"},{"bike_id":"66acdb82-87e9-45d8-9417-aeb263add328","system_id":"levelo_inurba_marseille","lat":43.30438,"lon":5.3891,"is_reserved":false,"is_disabled":false,"rental_uris":{"android":"levelo://app?vid=66acdb82-87e9-45d8-9417-aeb263add328","ios":"levelo://app?vid=66acdb82-87e9-45d8-9417-aeb263add328"},"vehicle_type_id":"4","last_reported":1740852673,"current_range_meters":20400,"station_id":"ce4bgk12rcd13ifvqbi0","pricing_plan_id":"cebpf4jnsgd1na2vs0mg"},{"bike_id":"ccceccb7-b21f-4e41-911f-061e317314d6","system_id":"levelo_inurba_marseille","lat":43.31486,"lon":5.37302,"is_reserved":false,"is_disabled":false,"rental_uris":{"android":"levelo://app?vid=ccceccb7-b21f-4e41-911f-061e317314d6","ios":"levelo://app?vid=ccceccb7-b21f-4e41-911f-061e317314d6"},"vehicle_type_id":"4","last_reported":1740852673,"current_range_meters":20400,"station_id":"ce4bgt12rcd13ifvqcd0","pricing_plan_id":"cebpf4jnsgd1na2vs0mg"},{"bike_id":"b6d72229-34df-42f0-a1f9-8bd8853fad55","system_id":"levelo_inurba_marseille","lat":43.29308,"lon":5.37173,"is_reserved":false,"is_disabled":false,"rental_uris":{"android":"levelo://app?vid=b6d72229-34df-42f0-a1f9-8bd8853fad55","ios":"levelo://app?vid=b6d72229-34df-42f0-a1f9-8bd8853fad55"},"vehicle_type_id":"4","last_reported":1740852673,"current_range_meters":20800,"station_id":"ce4bgh92rcd13ifvqb40","pricing_plan_id":"cebpf4jnsgd1na2vs0mg"},{"bike_id":"23418860-f591-46dc-a2d5-0cc5111bf86a","system_id":"levelo_inurba_marseille","lat":43.26191,"lon":5.42068,"is_reserved":false,"is_disabled":false,"rental_uris":{"android":"levelo://app?vid=23418860-f591-46dc-a2d5-0cc5111bf86a","ios":"levelo://app?vid=23418860-f591-46dc-a2d5-0cc5111bf86a"},"vehicle_type_id":"4","last_reported":1740852673,"current_range_meters":20800,"station_id":"","pricing_plan_id":"cebpf4jnsgd1na2vs0mg"},{"bike_id":"3bc4eda0-da4a-4b3b-86f5-756cd5b48c84","system_id":"levelo_inurba_marseille","lat":43.26813,"lon":5.40256,"is_reserved":false,"is_disabled":false,"rental_uris":{"android":"levelo://app?vid=3bc4eda0-da4a-4b3b-86f5-756cd5b48c84","ios":"levelo://app?vid=3bc4eda0-da4a-4b3b-86f5-756cd5b48c84"},"vehicle_type_id":"4","last_reported":1740852673,"current_range_meters":20800,"station_id":"ce501612rcd8frsf0b60","pricing_plan_id":"cebpf4jnsgd1na2vs0mg"},{"bike_id":"97fb2a21-9fd7-4341-8767-3a424cc45052","system_id":"levelo_inurba_marseille","lat":43.31277,"lon":5.40164,"is_reserved":false,"is_disabled":false,"rental_uris":{"android":"levelo://app?vid=97fb2a21-9fd7-4341-8767-3a424cc45052","ios":"levelo://app?vid=97fb2a21-9fd7-4341-8767-3a424cc45052"},"vehicle_type_id":"4","last_reported":1740852673,"current_range_meters":20400,"station_id":"ce4bh092rcd13ifvqd30","pricing_plan_id":"cebpf4jnsgd1na2vs0mg"},{"bike_id":"b807de75-33b5-46fe-919d-20eed079785e","system_id":"levelo_inurba_marseille","lat":43.27977,"lon":5.38735,"is_reserved":false,"is_disabled":false,"rental_uris":{"android":"levelo://app?vid=b807de75-33b5-46fe-919d-20eed079785e","ios":"levelo://app?vid=b807de75-33b5-46fe-919d-20eed079785e"},"vehicle_type_id":"4","last_reported":1740852673,"current_range_meters":20800,"station_id":"ce4bhg12rcd13ifvqf80","pricing_plan_id":"cebpf4jnsgd1na2vs0mg"},{"bike_id":"80818ed3-0726-43c1-aaf1-e8b55d049fda","system_id":"levelo_inurba_marseille","lat":43.28368,"lon":5.38639,"is_reserved":false,"is_disabled":false,"rental_uris":{"android":"levelo://app?vid=80818ed3-0726-43c1-aaf1-e8b55d049fda","ios":"levelo://app?vid=80818ed3-0726-43c1-aaf1-e8b55d049fda"},"vehicle_type_id":"4","last_reported":1740852673,"current_range_meters":20800,"station_id":"ce4bh492rcd13ifvqdvg","pricing_plan_id":"cebpf4jnsgd1na2vs0mg"},{"bike_id":"a306e060-3db1-4392-8b6c-2e666275e3ef","system_id":"levelo_inurba_marseille","lat":43.24177,"lon":5.39737,"is_reserved":false,"is_disabled":false,"rental_uris":{"android":"levelo://app?vid=a306e060-3db1-4392-8b6c-2e666275e3ef","ios":"levelo://app?vid=a306e060-3db1-4392-8b6c-2e666275e3ef"},"vehicle_type_id":"4","last_reported":1740852673,"current_range_meters":21600,"station_id":"ce4bhn12rcd13ifvqgpg","pricing_plan_id":"cebpf4jnsgd1na2vs0mg"},{"bike_id":"111d7526-4a85-4370-9c67-8d7dbbfab55b","system_id":"levelo_inurba_marseille","lat":43.29425,"lon":5.38623,"is_reserved":false,"is_disabled":false,"rental_uris":{"android":"levelo://app?vid=111d7526-4a85-4370-9c67-8d7dbbfab55b","ios":"levelo://app?vid=111d7526-4a85-4370-9c67-8d7dbbfab55b"},"vehicle_type_id":"4","last_reported":1740852673,"current_range_meters":21600,"station_id":"ce4bh2h2rcd13ifvqdh0","pricing_plan_id":"cebpf4jnsgd1na2vs0mg"},{"bike_id":"ab771a5e-1f93-41b8-9ddd-e44ebc847f5b","system_id":"levelo_inurba_marseille","lat":43.29287,"lon":5.36842,"is_reserved":false,"is_disabled":false,"rental_uris":{"android":"levelo://app?vid=ab771a5e-1f93-41b8-9ddd-e44ebc847f5b","ios":"levelo://app?vid=ab771a5e-1f93-41b8-9ddd-e44ebc847f5b"},"vehicle_type_id":"4","last_reported":1740852673,"current_range_meters":21600,"station_id":"ce4bhbp2rcd13ifvqesg","pricing_plan_id":"cebpf4jnsgd1na2vs0mg"},{"bike_id":"5e814625-ea8c-4d84-b949-f4ebde66e9eb","system_id":"levelo_inurba_marseille","lat":43.29537,"lon":5.38545,"is_reserved":false,"is_disabled":false,"rental_uris":{"android":"levelo://app?vid=5e814625-ea8c-4d84-b949-f4ebde66e9eb","ios":"levelo://app?vid=5e814625-ea8c-4d84-b949-f4ebde66e9eb"},"vehicle_type_id":"4","last_reported":1740852673,"current_range_meters":21600,"station_id":"ce4bgih2rcd13ifvqba0","pricing_plan_id":"cebpf4jnsgd1na2vs0mg"},{"bike_id":"7dba4e39-9363-4d55-b92b-a6c6fddd4c21","system_id":"levelo_inurba_marseille","lat":43.30103,"lon":5.39865,"is_reserved":false,"is_disabled":false,"rental_uris":{"android":"levelo://app?vid=7dba4e39-9363-4d55-b92b-a6c6fddd4c21","ios":"levelo://app?vid=7dba4e39-9363-4d55-b92b-a6c6fddd4c21"},"vehicle_type_id":"4","last_reported":1740852673,"current_range_meters":21600,"station_id":"ce4bh0h2rcd13ifvqd40","pricing_plan_id":"cebpf4jnsgd1na2vs0mg"},{"bike_id":"839954fd-df7c-460f-b834-7aca5229c6ce","system_id":"levelo_inurba_marseille","lat":43.28616,"lon":5.35101,"is_reserved":false,"is_disabled":false,"rental_uris":{"android":"levelo://app?vid=839954fd-df7c-460f-b834-7aca5229c6ce","ios":"levelo://app?vid=839954fd-df7c-460f-b834-7aca5229c6ce"},"vehicle_type_id":"4","last_reported":1740852673,"current_range_meters":21600,"station_id":"ce4bhch2rcd13ifvqeug","pricing_plan_id":"cebpf4jnsgd1na2vs0mg"},{"bike_id":"cc56e1a8-18c0-4ed4-a115-104e1f7295bb","system_id":"levelo_inurba_marseille","lat":43.27212,"lon":5.39183,"is_reserved":false,"is_disabled":false,"rental_uris":{"android":"levelo://app?vid=cc56e1a8-18c0-4ed4-a115-104e1f7295bb","ios":"levelo://app?vid=cc56e1a8-18c0-4ed4-a115-104e1f7295bb"},"vehicle_type_id":"4","last_reported":1740852673,"current_range_meters":20800,"station_id":"ce4bhhp2rcd13ifvqfm0","pricing_plan_id":"cebpf4jnsgd1na2vs0mg"},{"bike_id":"973a322e-84c9-4549-9723-05d80da3cb42","system_id":"levelo_inurba_marseille","lat":43.30173,"lon":5.38083,"is_reserved":false,"is_disabled":false,"rental_uris":{"android":"levelo://app?vid=973a322e-84c9-4549-9723-05d80da3cb42","ios":"levelo://app?vid=973a322e-84c9-4549-9723-05d80da3cb42"},"vehicle_type_id":"4","last_reported":1740852673,"current_range_meters":21600,"station_id":"ce4bgjp2rcd13ifvqbh0","pricing_plan_id":"cebpf4jnsgd1na2vs0mg"},{"bike_id":"75327e3d-7cb0-4e50-90d9-862d4e5024ae","system_id":"levelo_inurba_marseille","lat":43.29025,"lon":5.37556,"is_reserved":false,"is_disabled":false,"rental_uris":{"android":"levelo://app?vid=75327e3d-7cb0-4e50-90d9-862d4e5024ae","ios":"levelo://app?vid=75327e3d-7cb0-4e50-90d9-862d4e5024ae"},"vehicle_type_id":"4","last_reported":1740852673,"current_range_meters":21600,"station_id":"ce4bh692rcd13ifvqe90","pricing_plan_id":"cebpf4jnsgd1na2vs0mg"},{"bike_id":"450ff2ca-1511-47d5-a538-ea9803ac60bd","system_id":"levelo_inurba_marseille","lat":43.29311,"lon":5.37173,"is_reserved":false,"is_disabled":false,"rental_uris":{"android":"levelo://app?vid=450ff2ca-1511-47d5-a538-ea9803ac60bd","ios":"levelo://app?vid=450ff2ca-1511-47d5-a538-ea9803ac60bd"},"vehicle_type_id":"4","last_reported":1740852673,"current_range_meters":21600,"station_id":"ce4bgh92rcd13ifvqb40","pricing_plan_id":"cebpf4jnsgd1na2vs0mg"},{"bike_id":"417fbd7d-d6d8-4c3a-98dd-ce0156edb9f1","system_id":"levelo_inurba_marseille","lat":43.28417,"lon":5.3499,"is_reserved":false,"is_disabled":false,"rental_uris":{"android":"levelo://app?vid=417fbd7d-d6d8-4c3a-98dd-ce0156edb9f1","ios":"levelo://app?vid=417fbd7d-d6d8-4c3a-98dd-ce0156edb9f1"},"vehicle_type_id":"4","last_reported":1740852673,"current_range_meters":21600,"station_id":"ce4bhbh2rcd13ifvqepg","pricing_plan_id":"cebpf4jnsgd1na2vs0mg"},