{"last_updated":1750158542,"ttl":60,"version":"2.2","data":{"bikes":[{"bike_id":"3da29fb8-fc97-44c6-b9ac-31dd456b2fd4","system_id":"levelo_inurba_marseille","lat":43.33771,"lon":5.37424,"is_reserved":false,"is_disabled":true,"rental_uris":{"android":"levelo://app?vid=3da29fb8-fc97-44c6-b9ac-31dd456b2fd4","ios":"levelo://app?vid=3da29fb8-fc97-44c6-b9ac-31dd456b2fd4"},"vehicle_type_id":"4","last_reported":1750158542,"current_range_meters":0,"station_id":"","pricing_plan_id":"cebpf4jnsgd1na2vs0mg"},{"bike_id":"01861ad8-a8d7-4be6-816e-651927c87584","system_id":"levelo_inurba_marseille","lat":43.33751,"lon":5.37456,"is_reserved":false,"is_disabled":true,"rental_uris":{"android":"levelo://app?vid=01861ad8-a8d7-4be6-816e-651927c87584","ios":"levelo://app?vid=01861ad8-a8d7-4be6-816e-651927c87584"},"vehicle_type_id":"4","last_reported":1750158542,"current_range_meters":0,"station_id":"","pricing_plan_id":"cebpf4jnsgd1na2vs0mg"},{"bike_id":"b81ba2bd-624d-43c3-b702-6c0cdad38ab2","system_id":"levelo_inurba_marseille","lat":43.31135,"lon":5.39333,"is_reserved":false,"is_disabled":true,"rental_uris":{"android":"levelo://app?vid=b81ba2bd-624d-43c3-b702-6c0cdad38ab2","ios":"levelo://app?vid=b81ba2bd-624d-43c3-b702-6c0cdad38ab2"},"vehicle_type_id":"4","last_reported":1750158542,"current_range_meters":0,"station_id":"","pricing_plan_id":"cebpf4jnsgd1na2vs0mg"},{"bike_id":"d2bd57c8-6b64-48db-ad24-5398eb3fd9d6","system_id":"levelo_inurba_marseille","lat":43.337444,"lon":5.374475,"is_reserved":false,"is_disabled":true,"rental_uris":{"android":"levelo://app?vid=d2bd57c8-6b64-48db-ad24-5398eb3fd9d6","ios":"levelo://app?vid=d2bd57c8-6b64-48db-ad24-5398eb3fd9d6"},"vehicle_type_id":"4","last_reported":1750158542,"current_range_meters":0,"station_id":"","pricing_plan_id":"cebpf4jnsgd1na2vs0mg"},{"bike_id":"62a493c7-4534-4419-ad43-0582de34a72a","system_id":"levelo_inurba_marseille","lat":43.21366,"lon":5.355183,"is_reserved":false,"is_disabled":true,"rental_uris":{"android":"levelo://app?vid=62a493c7-4534-4419-ad43-0582de34a72a","ios":"levelo://app?vid=62a493c7-4534-4419-ad43-0582de34a72a"},"vehicle_type_id":"4","last_reported":1750158542,"current_range_meters":0,"station_id":"","pricing_plan_id":"cebpf4jnsgd1na2vs0mg"},{"bike_id":"93af304b-67b5-47b8-a3fd-e0775f7cde8c","system_id":"levelo_inurba_marseille","lat":43.21538,"lon":5.34738,"is_reserved":false,"is_disabled":true,"rental_uris":{"android":"levelo://app?vid=93af304b-67b5-47b8-a3fd-e0775f7cde8c","ios":"levelo://app?vid=93af304b-67b5-47b8-a3fd-e0775f7cde8c"},"vehicle_type_id":"4","last_reported":1750158542,"current_range_meters":0,"station_id":"","pricing_plan_id":"cebpf4jnsgd1na2vs0mg"},{"bike_id":"d6609b4f-333b-43c1-9ebe-8726f5e76e88","system_id":"levelo_inurba_marseille","lat":43.337444,"lon":5.374475,"is_reserved":false,"is_disabled":true,"rental_uris":{"android":"levelo://app?vid=d6609b4f-333b-43c1-9ebe-8726f5e76e88","ios":"levelo://app?vid=d6609b4f-333b-43c1-9ebe-8726f5e76e88"},"vehicle_type_id":"4","last_reported":1750158542,"current_range_meters":0,"station_id":"","pricing_plan_id":"cebpf4jnsgd1na2vs0mg"},{"bike_id":"7c6fdbaa-49a0-4e5c-bca1-a07989fcd59f","system_id":"levelo_inurba_marseille","lat":43.31258,"lon":5.38632,"is_reserved":false,"is_disabled":true,"rental_uris":{"android":"levelo://app?vid=7c6fdbaa-49a0-4e5c-bca1-a07989fcd59f","ios":"levelo://app?vid=7c6fdbaa-49a0-4e5c-bca1-a07989fcd59f"},"vehicle_type_id":"4","last_reported":1750158542,"current_range_meters":0,"station_id":"","pricing_plan_id":"cebpf4jnsgd1na2vs0mg"},{"bike_id":"26e35952-b265-4f48-b704-30020c6ab646","system_id":"levelo_inurba_marseille","lat":43.29537,"lon":5.38544,"is_reserved":false,"is_disabled":true,"rental_uris":{"android":"levelo://app?vid=26e35952-b265-4f48-b704-30020c6ab646","ios":"levelo://app?vid=26e35952-b265-4f48-b704-30020c6ab646"},"vehicle_type_id":"4","last_reported":1750158542,"current_range_meters":0,"station_id":"ce4bgih2rcd13ifvqba0","pricing_plan_id":"cebpf4jnsgd1na2vs0mg"},{"bike_id":"25f6e4fb-d988-4e89-acce-fef2d6600035","system_id":"levelo_inurba_marseille","lat":43.30201,"lon":5.36613,"is_reserved":false,"is_disabled":true,"rental_uris":{"android":"levelo://app?vid=25f6e4fb-d988-4e89-acce-fef2d6600035","ios":"levelo://app?vid=25f6e4fb-d988-4e89-acce-fef2d6600035"},"vehicle_type_id":"4","last_reported":1750158542,"current_range_meters":0,"station_id":"ce4bgrh2rcd13ifvqc8g","pricing_plan_id":"cebpf4jnsgd1na2vs0mg"},{"bike_id":"847b7937-2e44-484f-ab16-3c8e0ccd8830","system_id":"levelo_inurba_marseille","lat":43.31371,"lon":5.38527,"is_reserved":false,"is_disabled":true,"rental_uris":{"android":"levelo://app?vid=847b7937-2e44-484f-ab16-3c8e0ccd8830","ios":"levelo://app?vid=847b7937-2e44-484f-ab16-3c8e0ccd8830"},"vehicle_type_id":"4","last_reported":1750158542,"current_range_meters":0,"station_id":"ce4bgt92rcd13ifvqcf0","pricing_plan_id":"cebpf4jnsgd1na2vs0mg"},{"bike_id":"04276415-42b1-4736-aa9f-2d33227b99de","system_id":"levelo_inurba_marseille","lat":43.30924,"lon":5.40144,"is_reserved":false,"is_disabled":true,"rental_uris":{"android":"levelo://app?vid=04276415-42b1-4736-aa9f-2d33227b99de","ios":"levelo://app?vid=04276415-42b1-4736-aa9f-2d33227b99de"},"vehicle_type_id":"4","last_reported":1750158542,"current_range_meters":0,"station_id":"ce4bgvp2rcd13ifvqct0","pricing_plan_id":"cebpf4jnsgd1na2vs0mg"},{"bike_id":"1b812e39-ce63-46a6-9f12-091f0bed1ba8","system_id":"levelo_inurba_marseille","lat":43.28274,"lon":5.35071,"is_reserved":false,"is_disabled":true,"rental_uris":{"android":"levelo://app?vid=1b812e39-ce63-46a6-9f12-091f0bed1ba8","ios":"levelo://app?vid=1b812e39-ce63-46a6-9f12-091f0bed1ba8"},"vehicle_type_id":"4","last_reported":1750158542,"current_range_meters":0,"station_id":"ce4bhbp2rcd13ifvqerg","pricing_plan_id":"cebpf4jnsgd1na2vs0mg"},{"bike_id":"db16bf96-25d9-4ac3-919f-a5052f86098e","system_id":"levelo_inurba_marseille","lat":43.32109,"lon":5.36785,"is_reserved":false,"is_disabled":true,"rental_uris":{"android":"levelo://app?vid=db16bf96-25d9-4ac3-919f-a5052f86098e","ios":"levelo://app?vid=db16bf96-25d9-4ac3-919f-a5052f86098e"},"vehicle_type_id":"4","last_reported":1750158542,"current_range_meters":400,"station_id":"ce4bhrh2rcd13ifvqhug","pricing_plan_id":"cebpf4jnsgd1na2vs0mg"},{"bike_id":"df5e8117-22c4-4b9b-a9bd-c25fb7466808","system_id":"levelo_inurba_marseille","lat":43.29912,"lon":5.37475,"is_reserved":false,"is_disabled":true,"rental_uris":{"android":"levelo://app?vid=df5e8117-22c4-4b9b-a9bd-c25fb7466808","ios":"levelo://app?vid=df5e8117-22c4-4b9b-a9bd-c25fb7466808"},"vehicle_type_id":"4","last_reported":1750158542,"current_range_meters":800,"station_id":"ce4bgjh2rcd13ifvqbg0","pricing_plan_id":"cebpf4jnsgd1na2vs0mg"},{"bike_id":"8ee7d802-1625-4cdd-bd91-fabb8eb988be","system_id":"levelo_inurba_marseille","lat":43.30953,"lon":5.39065,"is_reserved":false,"is_disabled":true,"rental_uris":{"android":"levelo://app?vid=8ee7d802-1625-4cdd-bd91-fabb8eb988be","ios":"levelo://app?vid=8ee7d802-1625-4cdd-bd91-fabb8eb988be"},"vehicle_type_id":"4","last_reported":1750158542,"current_range_meters":800,"station_id":"ce4bgup2rcd13ifvqco0","pricing_plan_id":"cebpf4jnsgd1na2vs0mg"},{"bike_id":"c35ce775-9a64-4526-9987-e8626ee01eb5","system_id":"levelo_inurba_marseille","lat":43.30929,"lon":5.40137,"is_reserved":false,"is_disabled":true,"rental_uris":{"android":"levelo://app?vid=c35ce775-9a64-4526-9987-e8626ee01eb5","ios":"levelo://app?vid=c35ce775-9a64-4526-9987-e8626ee01eb5"},"vehicle_type_id":"4","last_reported":1750158542,"current_range_meters":800,"station_id":"ce4bgvp2rcd13ifvqct0","pricing_plan_id":"cebpf4jnsgd1na2vs0mg"},{"bike_id":"aac0fc11-191e-42ff-91e6-143cca72b34b","system_id":"levelo_inurba_marseille","lat":43.23188,"lon":5.35564,"is_reserved":false,"is_disabled":true,"rental_uris":{"android":"levelo://app?vid=aac0fc11-191e-42ff-91e6-143cca72b34b","ios":"levelo://app?vid=aac0fc11-191e-42ff-91e6-143cca72b34b"},"vehicle_type_id":"4","last_reported":1750158542,"current_range_meters":800,"station_id":"ce4bhu92rcd13ifvqi70","pricing_plan_id":"cebpf4jnsgd1na2vs0mg"},{"bike_id":"dbfce7a3-3423-4296-b193-a177dea644ac","system_id":"levelo_inurba_marseille","lat":43.272871,"lon":5.416139,"is_reserved":false,"is_disabled":true,"rental_uris":{"android":"levelo://app?vid=dbfce7a3-3423-4296-b193-a177dea644ac","ios":"levelo://app?vid=dbfce7a3-3423-4296-b193-a177dea644ac"},"vehicle_type_id":"4","last_reported":1750158542,"current_range_meters":1200,"station_id":"","pricing_plan_id":"cebpf4jnsgd1na2vs0mg"},{"bike_id":"a6f923c2-0adf-4c79-b059-f77b17bdc28d","system_id":"levelo_inurba_marseille","lat":43.3096,"lon":5.39026,"is_reserved":false,"is_disabled":true,"rental_uris":{"android":"levelo://app?vid=a6f923c2-0adf-4c79-b059-f77b17bdc28d","ios":"levelo://app?vid=a6f923c2-0adf-4c79-b059-f77b17bdc28d"},"vehicle_type_id":"4","last_reported":1750158542,"current_range_meters":1200,"station_id":"ce4bgup2rcd13ifvqco0","pricing_plan_id":"cebpf4jnsgd1na2vs0mg"},{"bike_id":"a504485c-f568-4403-a49f-5d7459986974","system_id":"levelo_inurba_marseille","lat":43.32285,"lon":5.38298,"is_reserved":false,"is_disabled":true,"rental_uris":{"android":"levelo://app?vid=a504485c-f568-4403-a49f-5d7459986974","ios":"levelo://app?vid=a504485c-f568-4403-a49f-5d7459986974"},"vehicle_type_id":"4","last_reported":1750158542,"current_range_meters":1200,"station_id":"ce4bhr12rcd13ifvqhqg","pricing_plan_id":"cebpf4jnsgd1na2vs0mg"},{"bike_id":"70a4acb2-c3c0-40b0-af35-19a2c2f0efe8","system_id":"levelo_inurba_marseille","lat":43.32481,"lon":5.36562,"is_reserved":false,"is_disabled":true,"rental_uris":{"android":"levelo://app?vid=70a4acb2-c3c0-40b0-af35-19a2c2f0efe8","ios":"levelo://app?vid=70a4acb2-c3c0-40b0-af35-19a2c2f0efe8"},"vehicle_type_id":"4","last_reported":1750158542,"current_range_meters":1200,"station_id":"ce4bhs12rcd13ifvqhvg","pricing_plan_id":"cebpf4jnsgd1na2vs0mg"},{"bike_id":"f16a5698-ddc2-4e59-97f5-5526424b5a60","system_id":"levelo_inurba_marseille","lat":43.211868,"lon":5.350751,"is_reserved":false,"is_disabled":true,"rental_uris":{"android":"levelo://app?vid=f16a5698-ddc2-4e59-97f5-5526424b5a60","ios":"levelo://app?vid=f16a5698-ddc2-4e59-97f5-5526424b5a60"},"vehicle_type_id":"4","last_reported":1750158542,"current_range_meters":1200,"station_id":"st_cvj6sg6p6f1abm77japg","pricing_plan_id":"cebpf4jnsgd1na2vs0mg"},{"bike_id":"38d035a1-83a6-4d63-835c-c6c19a6d7dc1","system_id":"levelo_inurba_marseille","lat":43.28357,"lon":5.38105,"is_reserved":false,"is_disabled":true,"rental_uris":{"android":"levelo://app?vid=38d035a1-83a6-4d63-835c-c6c19a6d7dc1","ios":"levelo://app?vid=38d035a1-83a6-4d63-835c-c6c19a6d7dc1"},"vehicle_type_id":"4","last_reported":1750158542,"current_range_meters":1600,"station_id":"ce4bh412rcd13ifvqdr0","pricing_plan_id":"cebpf4jnsgd1na2vs0mg"},{"bike_id":"6b8a0710-9656-4131-b80e-0a48275439f1","system_id":"levelo_inurba_marseille","lat":43.280668,"lon":5.378,"is_reserved":false,"is_disabled":true,"rental_uris":{"android":"levelo://app?vid=6b8a0710-9656-4131-b80e-0a48275439f1","ios":"levelo://app?vid=6b8a0710-9656-4131-b80e-0a48275439f1"},"vehicle_type_id":"4","last_reported":1750158542,"current_range_meters":1600,"station_id":"ce4bha12rcd13ifvqee0","pricing_plan_id":"cebpf4jnsgd1na2vs0mg"},{"bike_id":"2561b5be-5324-47ea-9b68-bc83800f2407","system_id":"levelo_inurba_marseille","lat":43.23155,"lon":5.43718,"is_reserved":false,"is_disabled":true,"rental_uris":{"android":"levelo://app?vid=2561b5be-5324-47ea-9b68-bc83800f2407","ios":"levelo://app?vid=2561b5be-5324-47ea-9b68-bc83800f2407"},"vehicle_type_id":"4","last_reported":1750158542,"current_range_meters":1600,"station_id":"ce4bhmp2rcd13ifvqgog","pricing_plan_id":"cebpf4jnsgd1na2vs0mg"},{"bike_id":"f43f2d4b-7022-47e7-9d02-0f666a989515","system_id":"levelo_inurba_marseille","lat":43.23198,"lon":5.35546,"is_reserved":false,"is_disabled":true,"rental_uris":{"android":"levelo://app?vid=f43f2d4b-7022-47e7-9d02-0f666a989515","ios":"levelo://app?vid=f43f2d4b-7022-47e7-9d02-0f666a989515"},"vehicle_type_id":"4","last_reported":1750158542,"current_range_meters":1600,"station_id":"ce4bhu92rcd13ifvqi70","pricing_plan_id":"cebpf4jnsgd1na2vs0mg"},{"bike_id":"4bdf1556-fb5c-4217-b6d4-b3ac5c63a403","system_id":"levelo_inurba_marseille","lat":43.244031,"lon":5.370734,"is_reserved":false,"is_disabled":true,"rental_uris":{"android":"levelo://app?vid=4bdf1556-fb5c-4217-b6d4-b3ac5c63a403","ios":"levelo://app?vid=4bdf1556-fb5c-4217-b6d4-b3ac5c63a403"},"vehicle_type_id":"4","last_reported":1750158542,"current_range_meters":2000,"station_id":"ce4bhhh2rcd13ifvqfk0","pricing_plan_id":"cebpf4jnsgd1na2vs0mg"},{"bike_id":"948929c7-fb83-45fc-b056-cc6ed724db85","system_id":"levelo_inurba_marseille","lat":43.26938,"lon":5.38922,"is_reserved":false,"is_disabled":false,"rental_uris":{"android":"levelo://app?vid=948929c7-fb83-45fc-b056-cc6ed724db85","ios":"levelo://app?vid=948929c7-fb83-45fc-b056-cc6ed724db85"},"vehicle_type_id":"4","last_reported":1750158542,"current_range_meters":2000,"station_id":"ce4bhhh2rcd13ifvqfl0","pricing_plan_id":"cebpf4jnsgd1na2vs0mg"},{"bike_id":"b9e37238-9abe-4b8b-b932-edaee33a7e59","system_id":"levelo_inurba_marseille","lat":43.27488,"lon":5.39015,"is_reserved":false,"is_disabled":false,"rental_uris":{"android":"levelo://app?vid=b9e37238-9abe-4b8b-b932-edaee33a7e59","ios":"levelo://app?vid=b9e37238-9abe-4b8b-b932-edaee33a7e59"},"vehicle_type_id":"4","last_reported":1750158542,"current_range_meters":2800,"station_id":"","pricing_plan_id":"cebpf4jnsgd1na2vs0mg"},{"bike_id":"4eabf809-c966-4cbf-b09e-6d79e221b603","system_id":"levelo_inurba_marseille","lat":43.31349,"lon":5.37358,"is_reserved":false,"is_disabled":false,"rental_uris":{"android":"levelo://app?vid=4eabf809-c966-4cbf-b09e-6d79e221b603","ios":"levelo://app?vid=4eabf809-c966-4cbf-b09e-6d79e221b603"},"vehicle_type_id":"4","last_reported":1750158542,"current_range_meters":3200,"station_id":"","pricing_plan_id":"cebpf4jnsgd1na2vs0mg"},{"bike_id":"77844946-fc4f-4c64-8bba-2c7d71f650ae","system_id":"levelo_inurba_marseille","lat":43.2904,"lon":5.37556,"is_reserved":false,"is_disabled":false,"rental_uris":{"android":"levelo://app?vid=77844946-fc4f-4c64-8bba-2c7d71f650ae","ios":"levelo://app?vid=77844946-fc4f-4c64-8bba-2c7d71f650ae"},"vehicle_type_id":"4","last_reported":1750158542,"current_range_meters":3200,"station_id":"ce4bh692rcd13ifvqe90","pricing_plan_id":"cebpf4jnsgd1na2vs0mg"},{"bike_id":"00add97f-b019-47c3-a9f2-027dcb140f01","system_id":"levelo_inurba_marseille","lat":43.34152,"lon":5.40901,"is_reserved":false,"is_disabled":false,"rental_uris":{"android":"levelo://app?vid=00add97f-b019-47c3-a9f2-027dcb140f01","ios":"levelo://app?vid=00add97f-b019-47c3-a9f2-027dcb140f01"},"vehicle_type_id":"4","last_reported":1750158542,"current_range_meters":3200,"station_id":"ce4bhqh2rcd13ifvqhlg","pricing_plan_id":"cebpf4jnsgd1na2vs0mg"},{"bike_id":"8d297b38-f666-4a46-9dee-0132f800019c","system_id":"levelo_inurba_marseille","lat":43.32207,"lon":5.38611,"is_reserved":false,"is_disabled":false,"rental_uris":{"android":"levelo://app?vid=8d297b38-f666-4a46-9dee-0132f800019c","ios":"levelo://app?vid=8d297b38-f666-4a46-9dee-0132f800019c"},"vehicle_type_id":"4","last_reported":1750158542,"current_range_meters":4000,"station_id":"","pricing_plan_id":"cebpf4jnsgd1na2vs0mg"},{"bike_id":"f530b50a-d990-47a5-b65c-af5ee4d638c8","system_id":"levelo_inurba_marseille","lat":43.31479,"lon":5.3731,"is_reserved":false,"is_disabled":false,"rental_uris":{"android":"levelo://app?vid=f530b50a-d990-47a5-b65c-af5ee4d638c8","ios":"levelo://app?vid=f530b50a-d990-47a5-b65c-af5ee4d638c8"},"vehicle_type_id":"4","last_reported":1750158542,"current_range_meters":4000,"station_id":"ce4bgt12rcd13ifvqcd0","pricing_plan_id":"cebpf4jnsgd1na2vs0mg"},{"bike_id":"cf3b42e0-5daa-49f3-848f-3362c14c1973","system_id":"levelo_inurba_marseille","lat":43.28421,"lon":5.37514,"is_reserved":false,"is_disabled":false,"rental_uris":{"android":"levelo://app?vid=cf3b42e0-5daa-49f3-848f-3362c14c1973","ios":"levelo://app?vid=cf3b42e0-5daa-49f3-848f-3362c14c1973"},"vehicle_type_id":"4","last_reported":1750158542,"current_range_meters":4000,"station_id":"ce4bh412rcd13ifvqds0","pricing_plan_id":"cebpf4jnsgd1na2vs0mg"},{"bike_id":"0be01308-55bd-492a-ba16-c501d509280e","system_id":"levelo_inurba_marseille","lat":43.28485,"lon":5.38552,"is_reserved":false,"is_disabled":false,"rental_uris":{"android":"levelo://app?vid=0be01308-55bd-492a-ba16-c501d509280e","ios":"levelo://app?vid=0be01308-55bd-492a-ba16-c501d509280e"},"vehicle_type_id":"4","last_reported":1750158542,"current_range_meters":4000,"station_id":"ce4bh8p2rcd13ifvqeb0","pricing_plan_id":"cebpf4jnsgd1na2vs0mg"},{"bike_id":"2a66c5d6-2b92-4fd4-9f33-6c2256ab8544","system_id":"levelo_inurba_marseille","lat":43.26033,"lon":5.37543,"is_reserved":false,"is_disabled":false,"rental_uris":{"android":"levelo://app?vid=2a66c5d6-2b92-4fd4-9f33-6c2256ab8544","ios":"levelo://app?vid=2a66c5d6-2b92-4fd4-9f33-6c2256ab8544"},"vehicle_type_id":"4","last_reported":1750158542,"current_range_meters":4000,"station_id":"ce4bhgh2rcd13ifvqfa0","pricing_plan_id":"cebpf4jnsgd1na2vs0mg"},{"bike_id":"3c84ed4c-7c83-4897-b70f-f731f8f82ce6","system_id":"levelo_inurba_marseille","lat":43.2481,"lon":5.37455,"is_reserved":false,"is_disabled":false,"rental_uris":{"android":"levelo://app?vid=3c84ed4c-7c83-4897-b70f-f731f8f82ce6","ios":"levelo://app?vid=3c84ed4c-7c83-4897-b70f-f731f8f82ce6"},"vehicle_type_id":"4","last_reported":1750158542,"current_range_meters":4000,"station_id":"ce4bhgh2rcd13ifvqfb0","pricing_plan_id":"cebpf4jnsgd1na2vs0mg"},{"bike_id":"865ef206-3fa1-4f06-aade-230077662c7e","system_id":"levelo_inurba_marseille","lat":43.32963,"lon":5.39069,"is_reserved":false,"is_disabled":false,"rental_uris":{"android":"levelo://app?vid=865ef206-3fa1-4f06-aade-230077662c7e","ios":"levelo://app?vid=865ef206-3fa1-4f06-aade-230077662c7e"},"vehicle_type_id":"4","last_reported":1750158542,"current_range_meters":4400,"station_id":"","pricing_plan_id":"cebpf4jnsgd1na2vs0mg"},{"bike_id":"355d33db-d830-4abb-a2f9-34e06aea68bc","system_id":"levelo_inurba_marseille","lat":43.32224,"lon":5.38115,"is_reserved":false,"is_disabled":false,"rental_uris":{"android":"levelo://app?vid=355d33db-d830-4abb-a2f9-34e06aea68bc","ios":"levelo://app?vid=355d33db-d830-4abb-a2f9-34e06aea68bc"},"vehicle_type_id":"4","last_reported":1750158542,"current_range_meters":4800,"station_id":"","pricing_plan_id":"cebpf4jnsgd1na2vs0mg"},{"bike_id":"c1cd5be2-900e-4ff3-8872-76dcf89f3ef7","system_id":"levelo_inurba_marseille","lat":43.28594,"lon":5.39521,"is_reserved":false,"is_disabled":false,"rental_uris":{"android":"levelo://app?vid=c1cd5be2-900e-4ff3-8872-76dcf89f3ef7","ios":"levelo://app?vid=c1cd5be2-900e-4ff3-8872-76dcf89f3ef7"},"vehicle_type_id":"4","last_reported":1750158542,"current_range_meters":4800,"station_id":"ce4bh292rcd13ifvqdg0","pricing_plan_id":"cebpf4jnsgd1na2vs0mg"},{"bike_id":"7f8a3718-92f3-4d8f-b137-2b70ada08f1e","system_id":"levelo_inurba_marseille","lat":43.3415,"lon":5.40896,"is_reserved":false,"is_disabled":false,"rental_uris":{"android":"levelo://app?vid=7f8a3718-92f3-4d8f-b137-2b70ada08f1e","ios":"levelo://app?vid=7f8a3718-92f3-4d8f-b137-2b70ada08f1e"},"vehicle_type_id":"4","last_reported":1750158542,"current_range_meters":4800,"station_id":"ce4bhqh2rcd13ifvqhlg","pricing_plan_id":"cebpf4jnsgd1na2vs0mg"},{"bike_id":"f03501b3-7634-4444-9a22-7f996a732b4a","system_id":"levelo_inurba_marseille","lat":43.31373,"lon":5.36686,"is_reserved":false,"is_disabled":false,"rental_uris":{"android":"levelo://app?vid=f03501b3-7634-4444-9a22-7f996a732b4a","ios":"levelo://app?vid=f03501b3-7634-4444-9a22-7f996a732b4a"},"vehicle_type_id":"4","last_reported":1750158542,"current_range_meters":5600,"station_id":"ce4bgr92rcd13ifvqc6g","pricing_plan_id":"cebpf4jnsgd1na2vs0mg"},{"bike_id":"7b60ab4e-8780-4fbb-b5f1-5ef288a37cbd","system_id":"levelo_inurba_marseille","lat":43.27372,"lon":5.36257,"is_reserved":false,"is_disabled":false,"rental_uris":{"android":"levelo://app?vid=7b60ab4e-8780-4fbb-b5f1-5ef288a37cbd","ios":"levelo://app?vid=7b60ab4e-8780-4fbb-b5f1-5ef288a37cbd"},"vehicle_type_id":"4","last_reported":1750158542,"current_range_meters":5600,"station_id":"ce4bhbh2rcd13ifvqeo0","pricing_plan_id":"cebpf4jnsgd1na2vs0mg"},{"bike_id":"7c08ad99-fdc9-4d14-a3a0-0490fe86507c","system_id":"levelo_inurba_marseille","lat":43.21193,"lon":5.35073,"is_reserved":false,"is_disabled":false,"rental_uris":{"android":"levelo://app?vid=7c08ad99-fdc9-4d14-a3a0-0490fe86507c","ios":"levelo://app?vid=7c08ad99-fdc9-4d14-a3a0-0490fe86507c"},"vehicle_type_id":"4","last_reported":1750158542,"current_range_meters":5600,"station_id":"st_cvj6sg6p6f1abm77japg","pricing_plan_id":"cebpf4jnsgd1na2vs0mg"},{"bike_id":"1db768cf-ab18-4939-ab09-86d7ddf698a9","system_id":"levelo_inurba_marseille","lat":43.29778,"lon":5.37066,"is_reserved":false,"is_disabled":false,"rental_uris":{"android":"levelo://app?vid=1db768cf-ab18-4939-ab09-86d7ddf698a9","ios":"levelo://app?vid=1db768cf-ab18-4939-ab09-86d7ddf698a9"},"vehicle_type_id":"4","last_reported":1750158542,"current_range_meters":6400,"station_id":"","pricing_plan_id":"cebpf4jnsgd1na2vs0mg"},{"bike_id":"dcb87a9a-18f8-41c6-9134-949f31e21b42","system_id":"levelo_inurba_marseille","lat":43.269969,"lon":5.399684,"is_reserved":false,"is_disabled":false,"rental_uris":{"android":"levelo://app?vid=dcb87a9a-18f8-41c6-9134-949f31e21b42","ios":"levelo://app?vid=dcb87a9a-18f8-41c6-9134-949f31e21b42"},"vehicle_type_id":"4","last_reported":1750158542,"current_range_meters":6400,"station_id":"","pricing_plan_id":"cebpf4jnsgd1na2vs0mg"},{"bike_id":"045a639a-5239-478c-b32d-6ed1eeb8c55b","system_id":"levelo_inurba_marseille","lat":43.30472,"lon":5.37901,"is_reserved":false,"is_disabled":false,"rental_uris":{"android":"levelo://app?vid=045a639a-5239-478c-b32d-6ed1eeb8c55b","ios":"levelo://app?vid=045a639a-5239-478c-b32d-6ed1eeb8c55b"},"vehicle_type_id":"4","last_reported":1750158542,"current_range_meters":6400,"station_id":"ce4bgup2rcd13ifvqcn0","pricing_plan_id":"cebpf4jnsgd1na2vs0mg"},{"bike_id":"0698f97e-142d-4b85-9644-721065d52a60","system_id":"levelo_inurba_marseille","lat":43.24075,"lon":5.37759,"is_reserved":false,"is_disabled":false,"rental_uris":{"android":"levelo://app?vid=0698f97e-142d-4b85-9644-721065d52a60","ios":"levelo://app?vid=0698f97e-142d-4b85-9644-721065d52a60"},"vehicle_type_id":"4","last_reported":1750158542,"current_range_meters":6400,"station_id":"ce4bhnp2rcd13ifvqgvg","pricing_plan_id":"cebpf4jnsgd1na2vs0mg"},{"bike_id":"114d22b8-7c0a-44fd-b057-e3bc7a7f7b18","system_id":"levelo_inurba_marseille","lat":43.29937,"lon":5.36553,"is_reserved":false,"is_disabled":false,"rental_uris":{"android":"levelo://app?vid=114d22b8-7c0a-44fd-b057-e3bc7a7f7b18","ios":"levelo://app?vid=114d22b8-7c0a-44fd-b057-e3bc7a7f7b18"},"vehicle_type_id":"4","last_reported":1750158542,"current_range_meters":6800,"station_id":"ce4bgm92rcd13ifvqbr0","pricing_plan_id":"cebpf4jnsgd1na2vs0mg"},{"bike_id":"9cc313bd-ee8b-487b-af99-06fa106b44f8","system_id":"levelo_inurba_marseille","lat":43.28487,"lon":5.38419,"is_reserved":false,"is_disabled":false,"rental_uris":{"android":"levelo://app?vid=9cc313bd-ee8b-487b-af99-06fa106b44f8","ios":"levelo://app?vid=9cc313bd-ee8b-487b-af99-06fa106b44f8"},"vehicle_type_id":"4","last_reported":1750158542,"current_range_meters":6800,"station_id":"ce4bh512rcd13ifvqe3g","pricing_plan_id":"cebpf4jnsgd1na2vs0mg"},{"bike_id":"5ddbfd0a-7b45-42c7-888a-1aa0e529f683","system_id":"levelo_inurba_marseille","lat":43.27968,"lon":5.38739,"is_reserved":false,"is_disabled":false,"rental_uris":{"android":"levelo://app?vid=5ddbfd0a-7b45-42c7-888a-1aa0e529f683","ios":"levelo://app?vid=5ddbfd0a-7b45-42c7-888a-1aa0e529f683"},"vehicle_type_id":"4","last_reported":1750158542,"current_range_meters":6800,"station_id":"ce4bhg12rcd13ifvqf80","pricing_plan_id":"cebpf4jnsgd1na2vs0mg"},{"bike_id":"3042c9e5-c5a5-4a11-94d1-8e536b5e25f7","system_id":"levelo_inurba_marseille","lat":43.21186,"lon":5.35069,"is_reserved":false,"is_disabled":false,"rental_uris":{"android":"levelo://app?vid=3042c9e5-c5a5-4a11-94d1-8e536b5e25f7","ios":"levelo://app?vid=3042c9e5-c5a5-4a11-94d1-8e536b5e25f7"},"vehicle_type_id":"4","last_reported":1750158542,"current_range_meters":6800,"station_id":"st_cvj6sg6p6f1abm77japg","pricing_plan_id":"cebpf4jnsgd1na2vs0mg"},{"bike_id":"d1e91863-b43c-479f-aa55-7b46098790f4","system_id":"levelo_inurba_marseille","lat":43.30441,"lon":5.3888,"is_reserved":false,"is_disabled":false,"rental_uris":{"android":"levelo://app?vid=d1e91863-b43c-479f-aa55-7b46098790f4","ios":"levelo://app?vid=d1e91863-b43c-479f-aa55-7b46098790f4"},"vehicle_type_id":"4","last_reported":1750158542,"current_range_meters":7200,"station_id":"ce4bgk12rcd13ifvqbi0","pricing_plan_id":"cebpf4jnsgd1na2vs0mg"},{"bike_id":"26a09134-8508-4070-aaff-ae574614f5c0","system_id":"levelo_inurba_marseille","lat":43.312321,"lon":5.368583,"is_reserved":false,"is_disabled":false,"rental_uris":{"android":"levelo://app?vid=26a09134-8508-4070-aaff-ae574614f5c0","ios":"levelo://app?vid=26a09134-8508-4070-aaff-ae574614f5c0"},"vehicle_type_id":"4","last_reported":1750158542,"current_range_meters":7200,"station_id":"ce4bgl92rcd13ifvqbq0","pricing_plan_id":"cebpf4jnsgd1na2vs0mg"},{"bike_id":"65dcae41-20fd-4a13-a50c-cba71a1b91de","system_id":"levelo_inurba_marseille","lat":43.28266,"lon":5.35068,"is_reserved":false,"is_disabled":false,"rental_uris":{"android":"levelo://app?vid=65dcae41-20fd-4a13-a50c-cba71a1b91de","ios":"levelo://app?vid=65dcae41-20fd-4a13-a50c-cba71a1b91de"},"vehicle_type_id":"4","last_reported":1750158542,"current_range_meters":7200,"station_id":"ce4bhbp2rcd13ifvqerg","pricing_plan_id":"cebpf4jnsgd1na2vs0mg"},{"bike_id":"cad845a2-a547-4053-8178-f37bdffbc796","system_id":"levelo_inurba_marseille","lat":43.26568,"lon":5.39003,"is_reserved":false,"is_disabled":false,"rental_uris":{"android":"levelo://app?vid=cad845a2-a547-4053-8178-f37bdffbc796","ios":"levelo://app?vid=cad845a2-a547-4053-8178-f37bdffbc796"},"vehicle_type_id":"4","last_reported":1750158542,"current_range_meters":7200,"station_id":"ce4bhe12rcd13ifvqf30","pricing_plan_id":"cebpf4jnsgd1na2vs0mg"},{"bike_id":"9f0429dc-0a96-4d60-9787-121900704844","system_id":"levelo_inurba_marseille","lat":43.2621,"lon":5.37437,"is_reserved":false,"is_disabled":false,"rental_uris":{"android":"levelo://app?vid=9f0429dc-0a96-4d60-9787-121900704844","ios":"levelo://app?vid=9f0429dc-0a96-4d60-9787-121900704844"},"vehicle_type_id":"4","last_reported":1750158542,"current_range_meters":7200,"station_id":"ce4bhgp2rcd13ifvqfc0","pricing_plan_id":"cebpf4jnsgd1na2vs0mg"},{"bike_id":"b519ae5b-0b89-4515-8c33-7df77434803f","system_id":"levelo_inurba_marseille","lat":43.23151,"lon":5.43714,"is_reserved":false,"is_disabled":false,"rental_uris":{"android":"levelo://app?vid=b519ae5b-0b89-4515-8c33-7df77434803f","ios":"levelo://app?vid=b519ae5b-0b89-4515-8c33-7df77434803f"},"vehicle_type_id":"4","last_reported":1750158542,"current_range_meters":7200,"station_id":"ce4bhmp2rcd13ifvqgog","pricing_plan_id":"cebpf4jnsgd1na2vs0mg"},{"bike_id":"a2935b19-195a-493d-a1de-dd9a910aea57","system_id":"levelo_inurba_marseille","lat":43.3056,"lon":5.36558,"is_reserved":false,"is_disabled":false,"rental_uris":{"android":"levelo://app?vid=a2935b19-195a-493d-a1de-dd9a910aea57","ios":"levelo://app?vid=a2935b19-195a-493d-a1de-dd9a910aea57"},"vehicle_type_id":"4","last_reported":1750158542,"current_range_meters":8000,"station_id":"ce4bgs12rcd13ifvqcag","pricing_plan_id":"cebpf4jnsgd1na2vs0mg"},{"bike_id":"cfc82a10-8d52-42f6-94f0-8ed715236c6e","system_id":"levelo_inurba_marseille","lat":43.30954,"lon":5.39056,"is_reserved":false,"is_disabled":false,"rental_uris":{"android":"levelo://app?vid=cfc82a10-8d52-42f6-94f0-8ed715236c6e","ios":"levelo://app?vid=cfc82a10-8d52-42f6-94f0-8ed715236c6e"},"vehicle_type_id":"4","last_reported":1750158542,"current_range_meters":8000,"station_id":"ce4bgup2rcd13ifvqco0","pricing_plan_id":"cebpf4jnsgd1na2vs0mg"},{"bike_id":"93f21924-efbe-42c7-950c-9d90255234dd","system_id":"levelo_inurba_marseille","lat":43.30947,"lon":5.39037,"is_reserved":false,"is_disabled":false,"rental_uris":{"android":"levelo://app?vid=93f21924-efbe-42c7-950c-9d90255234dd","ios":"levelo://app?vid=93f21924-efbe-42c7-950c-9d90255234dd"},"vehicle_type_id":"4","last_reported":1750158542,"current_range_meters":8000,"station_id":"ce4bgup2rcd13ifvqco0","pricing_plan_id":"cebpf4jnsgd1na2vs0mg"},{"bike_id":"6afc644c-08c3-42de-8619-3f94e2ba41cd","system_id":"levelo_inurba_marseille","lat":43.29906,"lon":5.4364,"is_reserved":false,"is_disabled":false,"rental_uris":{"android":"levelo://app?vid=6afc644c-08c3-42de-8619-3f94e2ba41cd","ios":"levelo://app?vid=6afc644c-08c3-42de-8619-3f94e2ba41cd"},"vehicle_type_id":"4","last_reported":1750158542,"current_range_meters":8000,"station_id":"ce4bhpp2rcd13ifvqhfg","pricing_plan_id":"cebpf4jnsgd1na2vs0mg"},{"bike_id":"ba90fa7e-d29e-48a7-b1af-f3e07f3b8524","system_id":"levelo_inurba_marseille","lat":43.31224,"lon":5.36852,"is_reserved":false,"is_disabled":false,"rental_uris":{"android":"levelo://app?vid=ba90fa7e-d29e-48a7-b1af-f3e07f3b8524","ios":"levelo://app?vid=ba90fa7e-d29e-48a7-b1af-f3e07f3b8524"},"vehicle_type_id":"4","last_reported":1750158542,"current_range_meters":8400,"station_id":"ce4bgl92rcd13ifvqbq0","pricing_plan_id":"cebpf4jnsgd1na2vs0mg"},{"bike_id":"49e10b2d-9e95-4858-94f2-ee277f6c100b","system_id":"levelo_inurba_marseille","lat":43.28425,"lon":5.34985,"is_reserved":false,"is_disabled":false,"rental_uris":{"android":"levelo://app?vid=49e10b2d-9e95-4858-94f2-ee277f6c100b","ios":"levelo://app?vid=49e10b2d-9e95-4858-94f2-ee277f6c100b"},"vehicle_type_id":"4","last_reported":1750158542,"current_range_meters":8400,"station_id":"ce4bhbh2rcd13ifvqepg","pricing_plan_id":"cebpf4jnsgd1na2vs0mg"},{"bike_id":"012407c1-8e8b-4e4a-9e21-7b85105ee3f6","system_id":"levelo_inurba_marseille","lat":43.27814,"lon":5.40711,"is_reserved":false,"is_disabled":false,"rental_uris":{"android":"levelo://app?vid=012407c1-8e8b-4e4a-9e21-7b85105ee3f6","ios":"levelo://app?vid=012407c1-8e8b-4e4a-9e21-7b85105ee3f6"},"vehicle_type_id":"4","last_reported":1750158542,"current_range_meters":8400,"station_id":"ce4bhnh2rcd13ifvqgtg","pricing_plan_id":"cebpf4jnsgd1na2vs0mg"},{"bike_id":"545d22d0-4bdb-4967-b574-d0f808cfcbea","system_id":"levelo_inurba_marseille","lat":43.211913,"lon":5.350736,"is_reserved":false,"is_disabled":false,"rental_uris":{"android":"levelo://app?vid=545d22d0-4bdb-4967-b574-d0f808cfcbea","ios":"levelo://app?vid=545d22d0-4bdb-4967-b574-d0f808cfcbea"},"vehicle_type_id":"4","last_reported":1750158542,"current_range_meters":8400,"station_id":"st_cvj6sg6p6f1abm77japg","pricing_plan_id":"cebpf4jnsgd1na2vs0mg"},{"bike_id":"86a90cd9-0ec1-4b48-97db-dbc18b55bc07","system_id":"levelo_inurba_marseille","lat":43.2481,"lon":5.37454,"is_reserved":false,"is_disabled":false,"rental_uris":{"android":"levelo://app?vid=86a90cd9-0ec1-4b48-97db-dbc18b55bc07","ios":"levelo://app?vid=86a90cd9-0ec1-4b48-97db-dbc18b55bc07"},"vehicle_type_id":"4","last_reported":1750158542,"current_range_meters":8800,"station_id":"ce4bhgh2rcd13ifvqfb0","pricing_plan_id":"cebpf4jnsgd1na2vs0mg"},{"bike_id":"94c9e254-0016-41fc-af3d-5f15fdf8330a","system_id":"levelo_inurba_marseille","lat":43.27068,"lon":5.42269,"is_reserved":false,"is_disabled":false,"rental_uris":{"android":"levelo://app?vid=94c9e254-0016-41fc-af3d-5f15fdf8330a","ios":"levelo://app?vid=94c9e254-0016-41fc-af3d-5f15fdf8330a"},"vehicle_type_id":"4","last_reported":1750158542,"current_range_meters":8800,"station_id":"ce4bhk92rcd13ifvqgb0","pricing_plan_id":"cebpf4jnsgd1na2vs0mg"},{"bike_id":"0bfd102e-1051-4eca-850e-072e5a1c5409","system_id":"levelo_inurba_marseille","lat":43.33732,"lon":5.39185,"is_reserved":false,"is_disabled":false,"rental_uris":{"android":"levelo://app?vid=0bfd102e-1051-4eca-850e-072e5a1c5409","ios":"levelo://app?vid=0bfd102e-1051-4eca-850e-072e5a1c5409"},"vehicle_type_id":"4","last_reported":1750158542,"current_range_meters":8800,"station_id":"ce4bhr92rcd13ifvqhsg","pricing_plan_id":"cebpf4jnsgd1na2vs0mg"},{"bike_id":"64c6d212-acc6-47e3-9e04-fbaf04a7ed4e","system_id":"levelo_inurba_marseille","lat":43.26995,"lon":5.38753,"is_reserved":false,"is_disabled":false,"rental_uris":{"android":"levelo://app?vid=64c6d212-acc6-47e3-9e04-fbaf04a7ed4e","ios":"levelo://app?vid=64c6d212-acc6-47e3-9e04-fbaf04a7ed4e"},"vehicle_type_id":"4","last_reported":1750158542,"current_range_meters":9200,"station_id":"","pricing_plan_id":"cebpf4jnsgd1na2vs0mg"},{"bike_id":"2f7ef29a-3995-4378-b182-be1ee968173c","system_id":"levelo_inurba_marseille","lat":43.2836,"lon":5.38631,"is_reserved":false,"is_disabled":false,"rental_uris":{"android":"levelo://app?vid=2f7ef29a-3995-4378-b182-be1ee968173c","ios":"levelo://app?vid=2f7ef29a-3995-4378-b182-be1ee968173c"},"vehicle_type_id":"4","last_reported":1750158542,"current_range_meters":9200,"station_id":"ce4bh492rcd13ifvqdvg","pricing_plan_id":"cebpf4jnsgd1na2vs0mg"},{"bike_id":"f625322a-1365-46b1-a897-85012c0358fa","system_id":"levelo_inurba_marseille","lat":43.29031,"lon":5.38654,"is_reserved":false,"is_disabled":false,"rental_uris":{"android":"levelo://app?vid=f625322a-1365-46b1-a897-85012c0358fa","ios":"levelo://app?vid=f625322a-1365-46b1-a897-85012c0358fa"},"vehicle_type_id":"4","last_reported":1750158542,"current_range_meters":9200,"station_id":"ce4bh4p2rcd13ifvqe0g","pricing_plan_id":"cebpf4jnsgd1na2vs0mg"},{"bike_id":"d93dd0a2-94c8-4539-beff-f4db55edaef0","system_id":"levelo_inurba_marseille","lat":43.26565,"lon":5.39009,"is_reserved":false,"is_disabled":false,"rental_uris":{"android":"levelo://app?vid=d93dd0a2-94c8-4539-beff-f4db55edaef0","ios":"levelo://app?vid=d93dd0a2-94c8-4539-beff-f4db55edaef0"},"vehicle_type_id":"4","last_reported":1750158542,"current_range_meters":9200,"station_id":"ce4bhe12rcd13ifvqf30","pricing_plan_id":"cebpf4jnsgd1na2vs0mg"},{"bike_id":"da3e1724-606c-4f9a-9130-d56dd48e22e0","system_id":"levelo_inurba_marseille","lat":43.32919,"lon":5.40601,"is_reserved":false,"is_disabled":false,"rental_uris":{"android":"levelo://app?vid=da3e1724-606c-4f9a-9130-d56dd48e22e0","ios":"levelo://app?vid=da3e1724-606c-4f9a-9130-d56dd48e22e0"},"vehicle_type_id":"4","last_reported":1750158542,"current_range_meters":9600,"station_id":"","pricing_plan_id":"cebpf4jnsgd1na2vs0mg"},{"bike_id":"356258c8-0ad6-493b-b5a4-77e865070f65","system_id":"levelo_inurba_marseille","lat":43.326113,"lon":5.419731,"is_reserved":false,"is_disabled":false,"rental_uris":{"android":"levelo://app?vid=356258c8-0ad6-493b-b5a4-77e865070f65","ios":"levelo://app?vid=356258c8-0ad6-493b-b5a4-77e865070f65"},"vehicle_type_id":"4","last_reported":1750158542,"current_range_meters":9600,"station_id":"","pricing_plan_id":"cebpf4jnsgd1na2vs0mg"},{"bike_id":"4d2513ec-9b5d-4a87-a782-9f6d67a2b9c7","system_id":"levelo_inurba_marseille","lat":43.24401,"lon":5.37056,"is_reserved":false,"is_disabled":false,"rental_uris":{"android":"levelo://app?vid=4d2513ec-9b5d-4a87-a782-9f6d67a2b9c7","ios":"levelo://app?vid=4d2513ec-9b5d-4a87-a782-9f6d67a2b9c7"},"vehicle_type_id":"4","last_reported":1750158542,"current_range_meters":9600,"station_id":"ce4bhhh2rcd13ifvqfk0","pricing_plan_id":"cebpf4jnsgd1na2vs0mg"},{"bike_id":"f522b07b-cafd-41a9-86b7-04590a3909c7","system_id":"levelo_inurba_marseille","lat":43.26809,"lon":5.4027,"is_reserved":false,"is_disabled":false,"rental_uris":{"android":"levelo://app?vid=f522b07b-cafd-41a9-86b7-04590a3909c7","ios":"levelo://app?vid=f522b07b-cafd-41a9-86b7-04590a3909c7"},"vehicle_type_id":"4","last_reported":1750158542,"current_range_meters":9600,"station_id":"ce501612rcd8frsf0b60","pricing_plan_id":"cebpf4jnsgd1na2vs0mg"},{"bike_id":"b35914ae-da38-46fc-9230-b3564743afac","system_id":"levelo_inurba_marseille","lat":43.3173,"lon":5.40451,"is_reserved":false,"is_disabled":false,"rental_uris":{"android":"levelo://app?vid=b35914ae-da38-46fc-9230-b3564743afac","ios":"levelo://app?vid=b35914ae-da38-46fc-9230-b3564743afac"},"vehicle_type_id":"4","last_reported":1750158542,"current_range_meters":10000,"station_id":"","pricing_plan_id":"cebpf4jnsgd1na2vs0mg"},{"bike_id":"495ed5a6-10f8-4ae0-9798-3eec6b4ecf2c","system_id":"levelo_inurba_marseille","lat":43.26227,"lon":5.39367,"is_reserved":false,"is_disabled":false,"rental_uris":{"android":"levelo://app?vid=495ed5a6-10f8-4ae0-9798-3eec6b4ecf2c","ios":"levelo://app?vid=495ed5a6-10f8-4ae0-9798-3eec6b4ecf2c"},"vehicle_type_id":"4","last_reported":1750158542,"current_range_meters":10000,"station_id":"","pricing_plan_id":"cebpf4jnsgd1na2vs0mg"},{"bike_id":"b91197d7-eb3b-443b-a1f9-65ab53e725fa","system_id":"levelo_inurba_marseille","lat":43.30464,"lon":5.37909,"is_reserved":false,"is_disabled":false,"rental_uris":{"android":"levelo://app?vid=b91197d7-eb3b-443b-a1f9-65ab53e725fa","ios":"levelo://app?vid=b91197d7-eb3b-443b-a1f9-65ab53e725fa"},"vehicle_type_id":"4","last_reported":1750158542,"current_range_meters":10000,"station_id":"ce4bgup2rcd13ifvqcn0","pricing_plan_id":"cebpf4jnsgd1na2vs0mg"},{"bike_id":"7db2dafb-5c52-41eb-95fb-ee667194c9d2","system_id":"levelo_inurba_marseille","lat":43.30936,"lon":5.3903,"is_reserved":false,"is_disabled":false,"rental_uris":{"android":"levelo://app?vid=7db2dafb-5c52-41eb-95fb-ee667194c9d2","ios":"levelo://app?vid=7db2dafb-5c52-41eb-95fb-ee667194c9d2"},"vehicle_type_id":"4","last_reported":1750158542,"current_range_meters":10000,"station_id":"ce4bgup2rcd13ifvqco0","pricing_plan_id":"cebpf4jnsgd1na2vs0mg"},{"bike_id":"caff9461-825e-4eec-9c12-4ca61d2dde3b","system_id":"levelo_inurba_marseille","lat":43.27381,"lon":5.36263,"is_reserved":false,"is_disabled":false,"rental_uris":{"android":"levelo://app?vid=caff9461-825e-4eec-9c12-4ca61d2dde3b","ios":"levelo://app?vid=caff9461-825e-4eec-9c12-4ca61d2dde3b"},"vehicle_type_id":"4","last_reported":1750158542,"current_range_meters":10000,"station_id":"ce4bhbh2rcd13ifvqeo0","pricing_plan_id":"cebpf4jnsgd1na2vs0mg"},{"bike_id":"26782e56-21f5-4acd-a2e5-b5c1635a6df2","system_id":"levelo_inurba_marseille","lat":43.27915,"lon":5.39575,"is_reserved":false,"is_disabled":false,"rental_uris":{"android":"levelo://app?vid=26782e56-21f5-4acd-a2e5-b5c1635a6df2","ios":"levelo://app?vid=26782e56-21f5-4acd-a2e5-b5c1635a6df2"},"vehicle_type_id":"4","last_reported":1750158542,"current_range_meters":10000,"station_id":"ce4bhf92rcd13ifvqf40","pricing_plan_id":"cebpf4jnsgd1na2vs0mg"},{"bike_id":"a71d6554-b76e-45cb-bbdb-f22b0e98760b","system_id":"levelo_inurba_marseille","lat":43.24811,"lon":5.37458,"is_reserved":false,"is_disabled":false,"rental_uris":{"android":"levelo://app?vid=a71d6554-b76e-45cb-bbdb-f22b0e98760b","ios":"levelo://app?vid=a71d6554-b76e-45cb-bbdb-f22b0e98760b"},"vehicle_type_id":"4","last_reported":1750158542,"current_range_meters":10000,"station_id":"ce4bhgh2rcd13ifvqfb0","pricing_plan_id":"cebpf4jnsgd1na2vs0mg"},{"bike_id":"9f09464e-ade9-4fa6-b1c5-c496cf5a04dc","system_id":"levelo_inurba_marseille","lat":43.29369,"lon":5.37834,"is_reserved":false,"is_disabled":false,"rental_uris":{"android":"levelo://app?vid=9f09464e-ade9-4fa6-b1c5-c496cf5a04dc","ios":"levelo://app?vid=9f09464e-ade9-4fa6-b1c5-c496cf5a04dc"},"vehicle_type_id":"4","last_reported":1750158542,"current_range_meters":10800,"station_id":"ce4bgjh2rcd13ifvqbf0","pricing_plan_id":"cebpf4jnsgd1na2vs0mg"},{"bike_id":"f016dc45-2017-404d-a558-ee428fca3390","system_id":"levelo_inurba_marseille","lat":43.29713,"lon":5.37688,"is_reserved":false,"is_disabled":false,"rental_uris":{"android":"levelo://app?vid=f016dc45-2017-404d-a558-ee428fca3390","ios":"levelo://app?vid=f016dc45-2017-404d-a558-ee428fca3390"},"vehicle_type_id":"4","last_reported":1750158542,"current_range_meters":10800,"station_id":"ce4bgkh2rcd13ifvqbl0","pricing_plan_id":"cebpf4jnsgd1na2vs0mg"},{"bike_id":"291634e2-fff9-44a7-b1f9-ed482c8bb6a4","system_id":"levelo_inurba_marseille","lat":43.23182,"lon":5.39988,"is_reserved":false,"is_disabled":false,"rental_uris":{"android":"levelo://app?vid=291634e2-fff9-44a7-b1f9-ed482c8bb6a4","ios":"levelo://app?vid=291634e2-fff9-44a7-b1f9-ed482c8bb6a4"},"vehicle_type_id":"4","last_reported":1750158542,"current_range_meters":10800,"station_id":"ce4bhn12rcd13ifvqgqg","pricing_plan_id":"cebpf4jnsgd1na2vs0mg"},{"bike_id":"3b136301-d892-4bf1-aa15-695ec30464ca","system_id":"levelo_inurba_marseille","lat":43.32087,"lon":5.36789,"is_reserved":false,"is_disabled":false,"rental_uris":{"android":"levelo://app?vid=3b136301-d892-4bf1-aa15-695ec30464ca","ios":"levelo://app?vid=3b136301-d892-4bf1-aa15-695ec30464ca"},"vehicle_type_id":"4","last_reported":1750158542,"current_range_meters":10800,"station_id":"ce4bhrh2rcd13ifvqhug","pricing_plan_id":"cebpf4jnsgd1na2vs0mg"},{"bike_id":"4bf1e93d-8b55-44e9-b3d0-065b3d59d20a","system_id":"levelo_inurba_marseille","lat":43.29028,"lon":5.3813,"is_reserved":false,"is_disabled":false,"rental_uris":{"android":"levelo://app?vid=4bf1e93d-8b55-44e9-b3d0-065b3d59d20a","ios":"levelo://app?vid=4bf1e93d-8b55-44e9-b3d0-065b3d59d20a"},"vehicle_type_id":"4","last_reported":1750158542,"current_range_meters":11200,"station_id":"ce4bh4p2rcd13ifvqe1g","pricing_plan_id":"cebpf4jnsgd1na2vs0mg"},{"bike_id":"6e2eb180-1726-4fc4-9922-3b086d859afa","system_id":"levelo_inurba_marseille","lat":43.29229,"lon":5.3606,"is_reserved":false,"is_disabled":false,"rental_uris":{"android":"levelo://app?vid=6e2eb180-1726-4fc4-9922-3b086d859afa","ios":"levelo://app?vid=6e2eb180-1726-4fc4-9922-3b086d859afa"},"vehicle_type_id":"4","last_reported":1750158542,"current_range_meters":11200,"station_id":"ce4bhbh2rcd13ifvqeqg","pricing_plan_id":"cebpf4jnsgd1na2vs0mg"},{"bike_id":"3e35cb00-7b2d-4acb-a07e-5a98b8474985","system_id":"levelo_inurba_marseille","lat":43.31083,"lon":5.42432,"is_reserved":false,"is_disabled":false,"rental_uris":{"android":"levelo://app?vid=3e35cb00-7b2d-4acb-a07e-5a98b8474985","ios":"levelo://app?vid=3e35cb00-7b2d-4acb-a07e-5a98b8474985"},"vehicle_type_id":"4","last_reported":1750158542,"current_range_meters":11200,"station_id":"ce4bhp92rcd13ifvqhag","pricing_plan_id":"cebpf4jnsgd1na2vs0mg"},{"bike_id":"0297c019-5abe-4fda-9d60-02855e45f8c7","system_id":"levelo_inurba_marseille","lat":43.32335,"lon":5.40617,"is_reserved":false,"is_disabled":false,"rental_uris":{"android":"levelo://app?vid=0297c019-5abe-4fda-9d60-02855e45f8c7","ios":"levelo://app?vid=0297c019-5abe-4fda-9d60-02855e45f8c7"},"vehicle_type_id":"4","last_reported":1750158542,"current_range_meters":11200,"station_id":"ce4bhq92rcd13ifvqhjg","pricing_plan_id":"cebpf4jnsgd1na2vs0mg"},{"bike_id":"25960fd9-8509-4555-9b23-fa4fae1e21d0","system_id":"levelo_inurba_marseille","lat":43.29012,"lon":5.382005,"is_reserved":false,"is_disabled":false,"rental_uris":{"android":"levelo://app?vid=25960fd9-8509-4555-9b23-fa4fae1e21d0","ios":"levelo://app?vid=25960fd9-8509-4555-9b23-fa4fae1e21d0"},"vehicle_type_id":"4","last_reported":1750158542,"current_range_meters":11600,"station_id":"","pricing_plan_id":"cebpf4jnsgd1na2vs0mg"},{"bike_id":"21db6be8-f2e2-48de-81b0-b885d32bca75","system_id":"levelo_inurba_marseille","lat":43.30606,"lon":5.37231,"is_reserved":false,"is_disabled":false,"rental_uris":{"android":"levelo://app?vid=21db6be8-f2e2-48de-81b0-b885d32bca75","ios":"levelo://app?vid=21db6be8-f2e2-48de-81b0-b885d32bca75"},"vehicle_type_id":"4","last_reported":1750158542,"current_range_meters":11600,"station_id":"ce4bgqh2rcd13ifvqc4g","pricing_plan_id":"cebpf4jnsgd1na2vs0mg"},{"bike_id":"753c4dda-a1c0-449b-8905-a94fd983bcba","system_id":"levelo_inurba_marseille","lat":43.30548,"lon":5.36525,"is_reserved":false,"is_disabled":false,"rental_uris":{"android":"levelo://app?vid=753c4dda-a1c0-449b-8905-a94fd983bcba","ios":"levelo://app?vid=753c4dda-a1c0-449b-8905-a94fd983bcba"},"vehicle_type_id":"4","last_reported":1750158542,"current_range_meters":11600,"station_id":"ce4bgs12rcd13ifvqcag","pricing_plan_id":"cebpf4jnsgd1na2vs0mg"},{"bike_id":"953a7c18-4e6d-47aa-8116-d64ebd3dda17","system_id":"levelo_inurba_marseille","lat":43.2512,"lon":5.40325,"is_reserved":false,"is_disabled":false,"rental_uris":{"android":"levelo://app?vid=953a7c18-4e6d-47aa-8116-d64ebd3dda17","ios":"levelo://app?vid=953a7c18-4e6d-47aa-8116-d64ebd3dda17"},"vehicle_type_id":"4","last_reported":1750158542,"current_range_meters":11600,"station_id":"ce4bhlh2rcd13ifvqgig","pricing_plan_id":"cebpf4jnsgd1na2vs0mg"},{"bike_id":"222abc74-91c7-44a6-88b6-c71afabef20f","system_id":"levelo_inurba_marseille","lat":43.3249,"lon":5.36569,"is_reserved":false,"is_disabled":false,"rental_uris":{"android":"levelo://app?vid=222abc74-91c7-44a6-88b6-c71afabef20f","ios":"levelo://app?vid=222abc74-91c7-44a6-88b6-c71afabef20f"},"vehicle_type_id":"4","last_reported":1750158542,"current_range_meters":11600,"station_id":"ce4bhs12rcd13ifvqhvg","pricing_plan_id":"cebpf4jnsgd1na2vs0mg"},{"bike_id":"0a94beed-a4e0-492f-a6b8-1bf5f17be726","system_id":"levelo_inurba_marseille","lat":43.23195,"lon":5.3555,"is_reserved":false,"is_disabled":false,"rental_uris":{"android":"levelo://app?vid=0a94beed-a4e0-492f-a6b8-1bf5f17be726","ios":"levelo://app?vid=0a94beed-a4e0-492f-a6b8-1bf5f17be726"},"vehicle_type_id":"4","last_reported":1750158542,"current_range_meters":11600,"station_id":"ce4bhu92rcd13ifvqi70","pricing_plan_id":"cebpf4jnsgd1na2vs0mg"},{"bike_id":"1458d060-5289-4be4-8980-51d09bd67034","system_id":"levelo_inurba_marseille","lat":43.2972,"lon":5.3769,"is_reserved":false,"is_disabled":false,"rental_uris":{"android":"levelo://app?vid=1458d060-5289-4be4-8980-51d09bd67034","ios":"levelo://app?vid=1458d060-5289-4be4-8980-51d09bd67034"},"vehicle_type_id":"4","last_reported":1750158542,"current_range_meters":12000,"station_id":"ce4bgkh2rcd13ifvqbl0","pricing_plan_id":"cebpf4jnsgd1na2vs0mg"},{"bike_id":"d15e97b3-501f-458f-810d-aadce744705f","system_id":"levelo_inurba_marseille","lat":43.31251,"lon":5.36865,"is_reserved":false,"is_disabled":false,"rental_uris":{"android":"levelo://app?vid=d15e97b3-501f-458f-810d-aadce744705f","ios":"levelo://app?vid=d15e97b3-501f-458f-810d-aadce744705f"},"vehicle_type_id":"4","last_reported":1750158542,"current_range_meters":12000,"station_id":"ce4bgl92rcd13ifvqbq0","pricing_plan_id":"cebpf4jnsgd1na2vs0mg"},{"bike_id":"d804df7d-c3ab-4628-870a-312f957f478e","system_id":"levelo_inurba_marseille","lat":43.2621,"lon":5.3744,"is_reserved":false,"is_disabled":false,"rental_uris":{"android":"levelo://app?vid=d804df7d-c3ab-4628-870a-312f957f478e","ios":"levelo://app?vid=d804df7d-c3ab-4628-870a-312f957f478e"},"vehicle_type_id":"4","last_reported":1750158542,"current_range_meters":12000,"station_id":"ce4bhgp2rcd13ifvqfc0","pricing_plan_id":"cebpf4jnsgd1na2vs0mg"},{"bike_id":"fecb1707-00a5-41d4-8e5a-64177f296127","system_id":"levelo_inurba_marseille","lat":43.25937,"lon":5.40907,"is_reserved":false,"is_disabled":false,"rental_uris":{"android":"levelo://app?vid=fecb1707-00a5-41d4-8e5a-64177f296127","ios":"levelo://app?vid=fecb1707-00a5-41d4-8e5a-64177f296127"},"vehicle_type_id":"4","last_reported":1750158542,"current_range_meters":12000,"station_id":"ce4bhm92rcd13ifvqglg","pricing_plan_id":"cebpf4jnsgd1na2vs0mg"},{"bike_id":"a48f89be-792c-4114-b951-5ad486d89736","system_id":"levelo_inurba_marseille","lat":43.24071,"lon":5.37763,"is_reserved":false,"is_disabled":false,"rental_uris":{"android":"levelo://app?vid=a48f89be-792c-4114-b951-5ad486d89736","ios":"levelo://app?vid=a48f89be-792c-4114-b951-5ad486d89736"},"vehicle_type_id":"4","last_reported":1750158542,"current_range_meters":12000,"station_id":"ce4bhnp2rcd13ifvqgvg","pricing_plan_id":"cebpf4jnsgd1na2vs0mg"},{"bike_id":"1e373418-986e-4d3c-9ff7-c37dd7c7a214","system_id":"levelo_inurba_marseille","lat":43.29901,"lon":5.43678,"is_reserved":false,"is_disabled":false,"rental_uris":{"android":"levelo://app?vid=1e373418-986e-4d3c-9ff7-c37dd7c7a214","ios":"levelo://app?vid=1e373418-986e-4d3c-9ff7-c37dd7c7a214"},"vehicle_type_id":"4","last_reported":1750158542,"current_range_meters":12000,"station_id":"ce4bhpp2rcd13ifvqhfg","pricing_plan_id":"cebpf4jnsgd1na2vs0mg"},{"bike_id":"e15767f9-99de-440a-9aa0-bf83ccab5aef","system_id":"levelo_inurba_marseille","lat":43.28081,"lon":5.39636,"is_reserved":false,"is_disabled":false,"rental_uris":{"android":"levelo://app?vid=e15767f9-99de-440a-9aa0-bf83ccab5aef","ios":"levelo://app?vid=e15767f9-99de-440a-9aa0-bf83ccab5aef"},"vehicle_type_id":"4","last_reported":1750158542,"current_range_meters":12400,"station_id":"ce4bho12rcd13ifvqh2g","pricing_plan_id":"cebpf4jnsgd1na2vs0mg"},{"bike_id":"15457d03-8aa5-40fe-a39e-b9a8265e0cfb","system_id":"levelo_inurba_marseille","lat":43.31082,"lon":5.42426,"is_reserved":false,"is_disabled":false,"rental_uris":{"android":"levelo://app?vid=15457d03-8aa5-40fe-a39e-b9a8265e0cfb","ios":"levelo://app?vid=15457d03-8aa5-40fe-a39e-b9a8265e0cfb"},"vehicle_type_id":"4","last_reported":1750158542,"current_range_meters":12400,"station_id":"ce4bhp92rcd13ifvqhag","pricing_plan_id":"cebpf4jnsgd1na2vs0mg"},{"bike_id":"0e27dafc-21df-4fb1-bd36-2450a7866702","system_id":"levelo_inurba_marseille","lat":43.2716,"lon":5.39996,"is_reserved":false,"is_disabled":false,"rental_uris":{"android":"levelo://app?vid=0e27dafc-21df-4fb1-bd36-2450a7866702","ios":"levelo://app?vid=0e27dafc-21df-4fb1-bd36-2450a7866702"},"vehicle_type_id":"4","last_reported":1750158542,"current_range_meters":12800,"station_id":"","pricing_plan_id":"cebpf4jnsgd1na2vs0mg"},{"bike_id":"49128d43-40a9-4373-a4a1-c7f3e9f0ebaf","system_id":"levelo_inurba_marseille","lat":43.28666,"lon":5.36348,"is_reserved":false,"is_disabled":false,"rental_uris":{"android":"levelo://app?vid=49128d43-40a9-4373-a4a1-c7f3e9f0ebaf","ios":"levelo://app?vid=49128d43-40a9-4373-a4a1-c7f3e9f0ebaf"},"vehicle_type_id":"4","last_reported":1750158542,"current_range_meters":12800,"station_id":"ce4bhah2rcd13ifvqej0","pricing_plan_id":"cebpf4jnsgd1na2vs0mg"},{"bike_id":"7b32835d-e602-499c-a4c6-c36ae292b8bf","system_id":"levelo_inurba_marseille","lat":43.26214,"lon":5.37438,"is_reserved":false,"is_disabled":false,"rental_uris":{"android":"levelo://app?vid=7b32835d-e602-499c-a4c6-c36ae292b8bf","ios":"levelo://app?vid=7b32835d-e602-499c-a4c6-c36ae292b8bf"},"vehicle_type_id":"4","last_reported":1750158542,"current_range_meters":12800,"station_id":"ce4bhgp2rcd13ifvqfc0","pricing_plan_id":"cebpf4jnsgd1na2vs0mg"},{"bike_id":"c8828ece-f322-462e-acc4-541ade2632e6","system_id":"levelo_inurba_marseille","lat":43.27251,"lon":5.39102,"is_reserved":false,"is_disabled":false,"rental_uris":{"android":"levelo://app?vid=c8828ece-f322-462e-acc4-541ade2632e6","ios":"levelo://app?vid=c8828ece-f322-462e-acc4-541ade2632e6"},"vehicle_type_id":"4","last_reported":1750158542,"current_range_meters":13600,"station_id":"","pricing_plan_id":"cebpf4jnsgd1na2vs0mg"},{"bike_id":"eca25bd6-1b44-4388-a7b0-074a85a4f502","system_id":"levelo_inurba_marseille","lat":43.31095,"lon":5.39739,"is_reserved":false,"is_disabled":false,"rental_uris":{"android":"levelo://app?vid=eca25bd6-1b44-4388-a7b0-074a85a4f502","ios":"levelo://app?vid=eca25bd6-1b44-4388-a7b0-074a85a4f502"},"vehicle_type_id":"4","last_reported":1750158542,"current_range_meters":14000,"station_id":"","pricing_plan_id":"cebpf4jnsgd1na2vs0mg"},{"bike_id":"6b48cd58-d833-4cc2-8b58-daeeb4ef016b","system_id":"levelo_inurba_marseille","lat":43.32049,"lon":5.41545,"is_reserved":false,"is_disabled":false,"rental_uris":{"android":"levelo://app?vid=6b48cd58-d833-4cc2-8b58-daeeb4ef016b","ios":"levelo://app?vid=6b48cd58-d833-4cc2-8b58-daeeb4ef016b"},"vehicle_type_id":"4","last_reported":1750158542,"current_range_meters":14000,"station_id":"ce4bhq92rcd13ifvqhkg","pricing_plan_id":"cebpf4jnsgd1na2vs0mg"},{"bike_id":"b4f1098b-a5e3-422a-a5ec-cfc9995f684a","system_id":"levelo_inurba_marseille","lat":43.3125,"lon":5.36879,"is_reserved":false,"is_disabled":false,"rental_uris":{"android":"levelo://app?vid=b4f1098b-a5e3-422a-a5ec-cfc9995f684a","ios":"levelo://app?vid=b4f1098b-a5e3-422a-a5ec-cfc9995f684a"},"vehicle_type_id":"4","last_reported":1750158542,"current_range_meters":14400,"station_id":"ce4bgl92rcd13ifvqbq0","pricing_plan_id":"cebpf4jnsgd1na2vs0mg"},{"bike_id":"6d392914-420e-49a0-9a62-e1c19d840639","system_id":"levelo_inurba_marseille","lat":43.30389,"lon":5.42487,"is_reserved":false,"is_disabled":false,"rental_uris":{"android":"levelo://app?vid=6d392914-420e-49a0-9a62-e1c19d840639","ios":"levelo://app?vid=6d392914-420e-49a0-9a62-e1c19d840639"},"vehicle_type_id":"4","last_reported":1750158542,"current_range_meters":14400,"station_id":"ce4bhoh2rcd13ifvqh6g","pricing_plan_id":"cebpf4jnsgd1na2vs0mg"},{"bike_id":"7c5d0588-82b8-4608-9bdc-83ca6f35ab3a","system_id":"levelo_inurba_marseille","lat":43.3248,"lon":5.3657,"is_reserved":false,"is_disabled":false,"rental_uris":{"android":"levelo://app?vid=7c5d0588-82b8-4608-9bdc-83ca6f35ab3a","ios":"levelo://app?vid=7c5d0588-82b8-4608-9bdc-83ca6f35ab3a"},"vehicle_type_id":"4","last_reported":1750158542,"current_range_meters":14400,"station_id":"ce4bhs12rcd13ifvqhvg","pricing_plan_id":"cebpf4jnsgd1na2vs0mg"},{"bike_id":"8f3ce912-d888-4d21-b0ae-50b62344cd42","system_id":"levelo_inurba_marseille","lat":43.24148,"lon":5.36428,"is_reserved":false,"is_disabled":false,"rental_uris":{"android":"levelo://app?vid=8f3ce912-d888-4d21-b0ae-50b62344cd42","ios":"levelo://app?vid=8f3ce912-d888-4d21-b0ae-50b62344cd42"},"vehicle_type_id":"4","last_reported":1750158542,"current_range_meters":14400,"station_id":"cpo36qri1sfpv3e86is0","pricing_plan_id":"cebpf4jnsgd1na2vs0mg"},{"bike_id":"83cfee7d-980d-496a-98c8-745c7e44c68d","system_id":"levelo_inurba_marseille","lat":43.32872,"lon":5.39088,"is_reserved":false,"is_disabled":false,"rental_uris":{"android":"levelo://app?vid=83cfee7d-980d-496a-98c8-745c7e44c68d","ios":"levelo://app?vid=83cfee7d-980d-496a-98c8-745c7e44c68d"},"vehicle_type_id":"4","last_reported":1750158542,"current_range_meters":14800,"station_id":"","pricing_plan_id":"cebpf4jnsgd1na2vs0mg"},{"bike_id":"aa40e98d-e213-44ff-a2cc-712e41558de1","system_id":"levelo_inurba_marseille","lat":43.2921,"lon":5.39324,"is_reserved":false,"is_disabled":false,"rental_uris":{"android":"levelo://app?vid=aa40e98d-e213-44ff-a2cc-712e41558de1","ios":"levelo://app?vid=aa40e98d-e213-44ff-a2cc-712e41558de1"},"vehicle_type_id":"4","last_reported":1750158542,"current_range_meters":14800,"station_id":"ce4bh192rcd13ifvqdd0","pricing_plan_id":"cebpf4jnsgd1na2vs0mg"},{"bike_id":"b6346b71-e3a8-4f9f-bfd5-8ef73fd1abda","system_id":"levelo_inurba_marseille","lat":43.29882,"lon":5.38912,"is_reserved":false,"is_disabled":false,"rental_uris":{"android":"levelo://app?vid=b6346b71-e3a8-4f9f-bfd5-8ef73fd1abda","ios":"levelo://app?vid=b6346b71-e3a8-4f9f-bfd5-8ef73fd1abda"},"vehicle_type_id":"4","last_reported":1750158542,"current_range_meters":14800,"station_id":"ce4bh392rcd13ifvqdl0","pricing_plan_id":"cebpf4jnsgd1na2vs0mg"},{"bike_id":"dbc9e049-20eb-4396-bea9-7959c502091e","system_id":"levelo_inurba_marseille","lat":43.31719,"lon":5.42393,"is_reserved":false,"is_disabled":false,"rental_uris":{"android":"levelo://app?vid=dbc9e049-20eb-4396-bea9-7959c502091e","ios":"levelo://app?vid=dbc9e049-20eb-4396-bea9-7959c502091e"},"vehicle_type_id":"4","last_reported":1750158542,"current_range_meters":14800,"station_id":"ce4bhp92rcd13ifvqhbg","pricing_plan_id":"cebpf4jnsgd1na2vs0mg"},{"bike_id":"2515e943-c2ba-4c74-abc7-9747cab4ac58","system_id":"levelo_inurba_marseille","lat":43.29369,"lon":5.37824,"is_reserved":false,"is_disabled":false,"rental_uris":{"android":"levelo://app?vid=2515e943-c2ba-4c74-abc7-9747cab4ac58","ios":"levelo://app?vid=2515e943-c2ba-4c74-abc7-9747cab4ac58"},"vehicle_type_id":"4","last_reported":1750158542,"current_range_meters":15200,"station_id":"ce4bgjh2rcd13ifvqbf0","pricing_plan_id":"cebpf4jnsgd1na2vs0mg"},{"bike_id":"0a77914a-4bf8-467b-baa8-0cf20ba4cc08","system_id":"levelo_inurba_marseille","lat":43.2841,"lon":5.37509,"is_reserved":false,"is_disabled":false,"rental_uris":{"android":"levelo://app?vid=0a77914a-4bf8-467b-baa8-0cf20ba4cc08","ios":"levelo://app?vid=0a77914a-4bf8-467b-baa8-0cf20ba4cc08"},"vehicle_type_id":"4","last_reported":1750158542,"current_range_meters":15200,"station_id":"ce4bh412rcd13ifvqds0","pricing_plan_id":"cebpf4jnsgd1na2vs0mg"},{"bike_id":"74966967-4262-47a8-b898-c10e45c1f375","system_id":"levelo_inurba_marseille","lat":43.21193,"lon":5.35072,"is_reserved":false,"is_disabled":false,"rental_uris":{"android":"levelo://app?vid=74966967-4262-47a8-b898-c10e45c1f375","ios":"levelo://app?vid=74966967-4262-47a8-b898-c10e45c1f375"},"vehicle_type_id":"4","last_reported":1750158542,"current_range_meters":15200,"station_id":"st_cvj6sg6p6f1abm77japg","pricing_plan_id":"cebpf4jnsgd1na2vs0mg"},{"bike_id":"9d24cb73-5b0f-4098-a3f8-2d578d6bd333","system_id":"levelo_inurba_marseille","lat":43.2439,"lon":5.37064,"is_reserved":false,"is_disabled":false,"rental_uris":{"android":"levelo://app?vid=9d24cb73-5b0f-4098-a3f8-2d578d6bd333","ios":"levelo://app?vid=9d24cb73-5b0f-4098-a3f8-2d578d6bd333"},"vehicle_type_id":"4","last_reported":1750158542,"current_range_meters":16000,"station_id":"ce4bhhh2rcd13ifvqfk0","pricing_plan_id":"cebpf4jnsgd1na2vs0mg"},{"bike_id":"2090556a-ebe6-4fcd-b60b-df67d7c8e4f7","system_id":"levelo_inurba_marseille","lat":43.299016,"lon":5.436651,"is_reserved":false,"is_disabled":false,"rental_uris":{"android":"levelo://app?vid=2090556a-ebe6-4fcd-b60b-df67d7c8e4f7","ios":"levelo://app?vid=2090556a-ebe6-4fcd-b60b-df67d7c8e4f7"},"vehicle_type_id":"4","last_reported":1750158542,"current_range_meters":16000,"station_id":"ce4bhpp2rcd13ifvqhfg","pricing_plan_id":"cebpf4jnsgd1na2vs0mg"},{"bike_id":"6a94f819-0553-44de-bd75-5be24057749c","system_id":"levelo_inurba_marseille","lat":43.302447,"lon":5.400807,"is_reserved":false,"is_disabled":false,"rental_uris":{"android":"levelo://app?vid=6a94f819-0553-44de-bd75-5be24057749c","ios":"levelo://app?vid=6a94f819-0553-44de-bd75-5be24057749c"},"vehicle_type_id":"4","last_reported":1750158542,"current_range_meters":16400,"station_id":"ce4bgvh2rcd13ifvqcs0","pricing_plan_id":"cebpf4jnsgd1na2vs0mg"},{"bike_id":"5b7c3cfc-d05e-4999-b669-dc11e23b557f","system_id":"levelo_inurba_marseille","lat":43.29279,"lon":5.36836,"is_reserved":false,"is_disabled":false,"rental_uris":{"android":"levelo://app?vid=5b7c3cfc-d05e-4999-b669-dc11e23b557f","ios":"levelo://app?vid=5b7c3cfc-d05e-4999-b669-dc11e23b557f"},"vehicle_type_id":"4","last_reported":1750158542,"current_range_meters":16400,"station_id":"ce4bhbp2rcd13ifvqesg","pricing_plan_id":"cebpf4jnsgd1na2vs0mg"},{"bike_id":"675ba28e-d230-4f78-89cd-e8c81d8da15f","system_id":"levelo_inurba_marseille","lat":43.21192,"lon":5.35074,"is_reserved":false,"is_disabled":false,"rental_uris":{"android":"levelo://app?vid=675ba28e-d230-4f78-89cd-e8c81d8da15f","ios":"levelo://app?vid=675ba28e-d230-4f78-89cd-e8c81d8da15f"},"vehicle_type_id":"4","last_reported":1750158542,"current_range_meters":16400,"station_id":"st_cvj6sg6p6f1abm77japg","pricing_plan_id":"cebpf4jnsgd1na2vs0mg"},{"bike_id":"de0f7c2b-5974-4035-a240-8ed367c0e3f3","system_id":"levelo_inurba_marseille","lat":43.31972,"lon":5.3761,"is_reserved":false,"is_disabled":false,"rental_uris":{"android":"levelo://app?vid=de0f7c2b-5974-4035-a240-8ed367c0e3f3","ios":"levelo://app?vid=de0f7c2b-5974-4035-a240-8ed367c0e3f3"},"vehicle_type_id":"4","last_reported":1750158542,"current_range_meters":16800,"station_id":"","pricing_plan_id":"cebpf4jnsgd1na2vs0mg"},{"bike_id":"6f660f29-a9a2-4e8a-8cfd-daad34ee2fc9","system_id":"levelo_inurba_marseille","lat":43.31366,"lon":5.38491,"is_reserved":false,"is_disabled":false,"rental_uris":{"android":"levelo://app?vid=6f660f29-a9a2-4e8a-8cfd-daad34ee2fc9","ios":"levelo://app?vid=6f660f29-a9a2-4e8a-8cfd-daad34ee2fc9"},"vehicle_type_id":"4","last_reported":1750158542,"current_range_meters":16800,"station_id":"ce4bgt92rcd13ifvqcf0","pricing_plan_id":"cebpf4jnsgd1na2vs0mg"},{"bike_id":"1dca189b-e58d-407e-91a0-5d0b482c7bd9","system_id":"levelo_inurba_marseille","lat":43.282678,"lon":5.350646,"is_reserved":false,"is_disabled":false,"rental_uris":{"android":"levelo://app?vid=1dca189b-e58d-407e-91a0-5d0b482c7bd9","ios":"levelo://app?vid=1dca189b-e58d-407e-91a0-5d0b482c7bd9"},"vehicle_type_id":"4","last_reported":1750158542,"current_range_meters":16800,"station_id":"ce4bhbp2rcd13ifvqerg","pricing_plan_id":"cebpf4jnsgd1na2vs0mg"},{"bike_id":"31ac1c6c-b608-4f86-8941-e01ea9ffa527","system_id":"levelo_inurba_marseille","lat":43.25969,"lon":5.40902,"is_reserved":false,"is_disabled":false,"rental_uris":{"android":"levelo://app?vid=31ac1c6c-b608-4f86-8941-e01ea9ffa527","ios":"levelo://app?vid=31ac1c6c-b608-4f86-8941-e01ea9ffa527"},"vehicle_type_id":"4","last_reported":1750158542,"current_range_meters":16800,"station_id":"ce4bhm92rcd13ifvqglg","pricing_plan_id":"cebpf4jnsgd1na2vs0mg"},{"bike_id":"dab6fb6d-3e6d-412b-a0e1-f672326dbd00","system_id":"levelo_inurba_marseille","lat":43.24202,"lon":5.39761,"is_reserved":false,"is_disabled":false,"rental_uris":{"android":"levelo://app?vid=dab6fb6d-3e6d-412b-a0e1-f672326dbd00","ios":"levelo://app?vid=dab6fb6d-3e6d-412b-a0e1-f672326dbd00"},"vehicle_type_id":"4","last_reported":1750158542,"current_range_meters":16800,"station_id":"ce4bhn12rcd13ifvqgpg","pricing_plan_id":"cebpf4jnsgd1na2vs0mg"},{"bike_id":"8ce88c20-7164-4569-bf49-0f29de965c0b","system_id":"levelo_inurba_marseille","lat":43.280776,"lon":5.39663,"is_reserved":false,"is_disabled":false,"rental_uris":{"android":"levelo://app?vid=8ce88c20-7164-4569-bf49-0f29de965c0b","ios":"levelo://app?vid=8ce88c20-7164-4569-bf49-0f29de965c0b"},"vehicle_type_id":"4","last_reported":1750158542,"current_range_meters":16800,"station_id":"ce4bho12rcd13ifvqh2g","pricing_plan_id":"cebpf4jnsgd1na2vs0mg"},{"bike_id":"68b69c32-2076-4a85-9793-aa4899be2f55","system_id":"levelo_inurba_marseille","lat":43.21189,"lon":5.35074,"is_reserved":false,"is_disabled":false,"rental_uris":{"android":"levelo://app?vid=68b69c32-2076-4a85-9793-aa4899be2f55","ios":"levelo://app?vid=68b69c32-2076-4a85-9793-aa4899be2f55"},"vehicle_type_id":"4","last_reported":1750158542,"current_range_meters":16800,"station_id":"st_cvj6sg6p6f1abm77japg","pricing_plan_id":"cebpf4jnsgd1na2vs0mg"},{"bike_id":"3518210a-6d90-482f-a11b-11cb7c94acd1","system_id":"levelo_inurba_marseille","lat":43.2647,"lon":5.39217,"is_reserved":false,"is_disabled":false,"rental_uris":{"android":"levelo://app?vid=3518210a-6d90-482f-a11b-11cb7c94acd1","ios":"levelo://app?vid=3518210a-6d90-482f-a11b-11cb7c94acd1"},"vehicle_type_id":"4","last_reported":1750158542,"current_range_meters":17200,"station_id":"","pricing_plan_id":"cebpf4jnsgd1na2vs0mg"},{"bike_id":"f32c865f-478c-4839-8a2e-bcb19a1b8b1a","system_id":"levelo_inurba_marseille","lat":43.27373,"lon":5.36262,"is_reserved":false,"is_disabled":false,"rental_uris":{"android":"levelo://app?vid=f32c865f-478c-4839-8a2e-bcb19a1b8b1a","ios":"levelo://app?vid=f32c865f-478c-4839-8a2e-bcb19a1b8b1a"},"vehicle_type_id":"4","last_reported":1750158542,"current_range_meters":17200,"station_id":"ce4bhbh2rcd13ifvqeo0","pricing_plan_id":"cebpf4jnsgd1na2vs0mg"},{"bike_id":"7a529b43-3b11-4663-9a4e-b2e108c78f3d","system_id":"levelo_inurba_marseille","lat":43.28425,"lon":5.3499,"is_reserved":false,"is_disabled":false,"rental_uris":{"android":"levelo://app?vid=7a529b43-3b11-4663-9a4e-b2e108c78f3d","ios":"levelo://app?vid=7a529b43-3b11-4663-9a4e-b2e108c78f3d"},"vehicle_type_id":"4","last_reported":1750158542,"current_range_meters":17200,"station_id":"ce4bhbh2rcd13ifvqepg","pricing_plan_id":"cebpf4jnsgd1na2vs0mg"},{"bike_id":"b72d5c6d-aa69-46a1-82f4-f15329dddc92","system_id":"levelo_inurba_marseille","lat":43.23153,"lon":5.43699,"is_reserved":false,"is_disabled":false,"rental_uris":{"android":"levelo://app?vid=b72d5c6d-aa69-46a1-82f4-f15329dddc92","ios":"levelo://app?vid=b72d5c6d-aa69-46a1-82f4-f15329dddc92"},"vehicle_type_id":"4","last_reported":1750158542,"current_range_meters":17200,"station_id":"ce4bhmp2rcd13ifvqgog","pricing_plan_id":"cebpf4jnsgd1na2vs0mg"},{"bike_id":"b89448d2-5ab9-4ef4-b2a3-2485808874d4","system_id":"levelo_inurba_marseille","lat":43.24075,"lon":5.37761,"is_reserved":false,"is_disabled":false,"rental_uris":{"android":"levelo://app?vid=b89448d2-5ab9-4ef4-b2a3-2485808874d4","ios":"levelo://app?vid=b89448d2-5ab9-4ef4-b2a3-2485808874d4"},"vehicle_type_id":"4","last_reported":1750158542,"current_range_meters":17200,"station_id":"ce4bhnp2rcd13ifvqgvg","pricing_plan_id":"cebpf4jnsgd1na2vs0mg"},{"bike_id":"7effa1d6-6762-4d51-b05b-edbcec45e3c4","system_id":"levelo_inurba_marseille","lat":43.25673,"lon":5.40953,"is_reserved":false,"is_disabled":false,"rental_uris":{"android":"levelo://app?vid=7effa1d6-6762-4d51-b05b-edbcec45e3c4","ios":"levelo://app?vid=7effa1d6-6762-4d51-b05b-edbcec45e3c4"},"vehicle_type_id":"4","last_reported":1750158542,"current_range_meters":17600,"station_id":"","pricing_plan_id":"cebpf4jnsgd1na2vs0mg"},{"bike_id":"2f0f7865-53e4-4955-8eb9-1bb98bf95595","system_id":"levelo_inurba_marseille","lat":43.31757,"lon":5.37585,"is_reserved":false,"is_disabled":false,"rental_uris":{"android":"levelo://app?vid=2f0f7865-53e4-4955-8eb9-1bb98bf95595","ios":"levelo://app?vid=2f0f7865-53e4-4955-8eb9-1bb98bf95595"},"vehicle_type_id":"4","last_reported":1750158542,"current_range_meters":17600,"station_id":"","pricing_plan_id":"cebpf4jnsgd1na2vs0mg"},{"bike_id":"de0bda34-41a6-4231-8ed4-c93e07fc3176","system_id":"levelo_inurba_marseille","lat":43.32634,"lon":5.37522,"is_reserved":false,"is_disabled":false,"rental_uris":{"android":"levelo://app?vid=de0bda34-41a6-4231-8ed4-c93e07fc3176","ios":"levelo://app?vid=de0bda34-41a6-4231-8ed4-c93e07fc3176"},"vehicle_type_id":"4","last_reported":1750158542,"current_range_meters":17600,"station_id":"","pricing_plan_id":"cebpf4jnsgd1na2vs0mg"},{"bike_id":"790136cd-3002-4740-9133-bbf89202dd2a","system_id":"levelo_inurba_marseille","lat":43.28426,"lon":5.34988,"is_reserved":false,"is_disabled":false,"rental_uris":{"android":"levelo://app?vid=790136cd-3002-4740-9133-bbf89202dd2a","ios":"levelo://app?vid=790136cd-3002-4740-9133-bbf89202dd2a"},"vehicle_type_id":"4","last_reported":1750158542,"current_range_meters":17600,"station_id":"ce4bhbh2rcd13ifvqepg","pricing_plan_id":"cebpf4jnsgd1na2vs0mg"},{"bike_id":"6c6ce972-4d4c-4210-922d-2711bd8ecabd","system_id":"levelo_inurba_marseille","lat":43.270673,"lon":5.40255,"is_reserved":false,"is_disabled":false,"rental_uris":{"android":"levelo://app?vid=6c6ce972-4d4c-4210-922d-2711bd8ecabd","ios":"levelo://app?vid=6c6ce972-4d4c-4210-922d-2711bd8ecabd"},"vehicle_type_id":"4","last_reported":1750158542,"current_range_meters":17600,"station_id":"ce4bhk92rcd13ifvqgc0","pricing_plan_id":"cebpf4jnsgd1na2vs0mg"},{"bike_id":"51490275-adbe-42c8-8c02-8d0998bae051","system_id":"levelo_inurba_marseille","lat":43.25733,"lon":5.41109,"is_reserved":false,"is_disabled":false,"rental_uris":{"android":"levelo://app?vid=51490275-adbe-42c8-8c02-8d0998bae051","ios":"levelo://app?vid=51490275-adbe-42c8-8c02-8d0998bae051"},"vehicle_type_id":"4","last_reported":1750158542,"current_range_meters":17600,"station_id":"ce4bhkp2rcd13ifvqgd0","pricing_plan_id":"cebpf4jnsgd1na2vs0mg"},{"bike_id":"d8cca091-a0fe-4f51-8c26-021946b118f8","system_id":"levelo_inurba_marseille","lat":43.24199,"lon":5.39727,"is_reserved":false,"is_disabled":false,"rental_uris":{"android":"levelo://app?vid=d8cca091-a0fe-4f51-8c26-021946b118f8","ios":"levelo://app?vid=d8cca091-a0fe-4f51-8c26-021946b118f8"},"vehicle_type_id":"4","last_reported":1750158542,"current_range_meters":17600,"station_id":"ce4bhn12rcd13ifvqgpg","pricing_plan_id":"cebpf4jnsgd1na2vs0mg"},{"bike_id":"ddf2d687-f39e-4991-b1da-028824ded0c5","system_id":"levelo_inurba_marseille","lat":43.24805,"lon":5.37453,"is_reserved":false,"is_disabled":false,"rental_uris":{"android":"levelo://app?vid=ddf2d687-f39e-4991-b1da-028824ded0c5","ios":"levelo://app?vid=ddf2d687-f39e-4991-b1da-028824ded0c5"},"vehicle_type_id":"4","last_reported":1750158542,"current_range_meters":18000,"station_id":"ce4bhgh2rcd13ifvqfb0","pricing_plan_id":"cebpf4jnsgd1na2vs0mg"},{"bike_id":"2a498a8e-3ac7-4b16-ba9f-9af52dbd5850","system_id":"levelo_inurba_marseille","lat":43.308147,"lon":5.43535,"is_reserved":false,"is_disabled":false,"rental_uris":{"android":"levelo://app?vid=2a498a8e-3ac7-4b16-ba9f-9af52dbd5850","ios":"levelo://app?vid=2a498a8e-3ac7-4b16-ba9f-9af52dbd5850"},"vehicle_type_id":"4","last_reported":1750158542,"current_range_meters":18000,"station_id":"ce4bhph2rcd13ifvqheg","pricing_plan_id":"cebpf4jnsgd1na2vs0mg"},{"bike_id":"4cda9327-46c6-426e-87dd-c291d5dc5ff7","system_id":"levelo_inurba_marseille","lat":43.21194,"lon":5.35082,"is_reserved":false,"is_disabled":false,"rental_uris":{"android":"levelo://app?vid=4cda9327-46c6-426e-87dd-c291d5dc5ff7","ios":"levelo://app?vid=4cda9327-46c6-426e-87dd-c291d5dc5ff7"},"vehicle_type_id":"4","last_reported":1750158542,"current_range_meters":18000,"station_id":"st_cvj6sg6p6f1abm77japg","pricing_plan_id":"cebpf4jnsgd1na2vs0mg"},{"bike_id":"2bcdbebc-789a-4460-923a-20ef9246776d","system_id":"levelo_inurba_marseille","lat":43.2119,"lon":5.35068,"is_reserved":false,"is_disabled":false,"rental_uris":{"android":"levelo://app?vid=2bcdbebc-789a-4460-923a-20ef9246776d","ios":"levelo://app?vid=2bcdbebc-789a-4460-923a-20ef9246776d"},"vehicle_type_id":"4","last_reported":1750158542,"current_range_meters":18000,"station_id":"st_cvj6sg6p6f1abm77japg","pricing_plan_id":"cebpf4jnsgd1na2vs0mg"},{"bike_id":"4b8da722-ee9e-48a4-a5e5-3a8a10364708","system_id":"levelo_inurba_marseille","lat":43.31223,"lon":5.37803,"is_reserved":false,"is_disabled":false,"rental_uris":{"android":"levelo://app?vid=4b8da722-ee9e-48a4-a5e5-3a8a10364708","ios":"levelo://app?vid=4b8da722-ee9e-48a4-a5e5-3a8a10364708"},"vehicle_type_id":"4","last_reported":1750158542,"current_range_meters":18800,"station_id":"","pricing_plan_id":"cebpf4jnsgd1na2vs0mg"},{"bike_id":"4ce5b165-f22d-40cf-abd3-1cb294861955","system_id":"levelo_inurba_marseille","lat":43.21236,"lon":5.34962,"is_reserved":false,"is_disabled":false,"rental_uris":{"android":"levelo://app?vid=4ce5b165-f22d-40cf-abd3-1cb294861955","ios":"levelo://app?vid=4ce5b165-f22d-40cf-abd3-1cb294861955"},"vehicle_type_id":"4","last_reported":1750158542,"current_range_meters":18800,"station_id":"","pricing_plan_id":"cebpf4jnsgd1na2vs0mg"},{"bike_id":"4044121f-8112-4080-985e-ba2a383fbd39","system_id":"levelo_inurba_marseille","lat":43.31241,"lon":5.36864,"is_reserved":false,"is_disabled":false,"rental_uris":{"android":"levelo://app?vid=4044121f-8112-4080-985e-ba2a383fbd39","ios":"levelo://app?vid=4044121f-8112-4080-985e-ba2a383fbd39"},"vehicle_type_id":"4","last_reported":1750158542,"current_range_meters":18800,"station_id":"ce4bgl92rcd13ifvqbq0","pricing_plan_id":"cebpf4jnsgd1na2vs0mg"},{"bike_id":"8a709f57-ece0-4df0-9650-614d4077dd43","system_id":"levelo_inurba_marseille","lat":43.30953,"lon":5.39033,"is_reserved":false,"is_disabled":false,"rental_uris":{"android":"levelo://app?vid=8a709f57-ece0-4df0-9650-614d4077dd43","ios":"levelo://app?vid=8a709f57-ece0-4df0-9650-614d4077dd43"},"vehicle_type_id":"4","last_reported":1750158542,"current_range_meters":18800,"station_id":"ce4bgup2rcd13ifvqco0","pricing_plan_id":"cebpf4jnsgd1na2vs0mg"},{"bike_id":"8d8672f5-a668-4c19-82b4-1aa3c6e3959d","system_id":"levelo_inurba_marseille","lat":43.28423,"lon":5.35001,"is_reserved":false,"is_disabled":false,"rental_uris":{"android":"levelo://app?vid=8d8672f5-a668-4c19-82b4-1aa3c6e3959d","ios":"levelo://app?vid=8d8672f5-a668-4c19-82b4-1aa3c6e3959d"},"vehicle_type_id":"4","last_reported":1750158542,"current_range_meters":18800,"station_id":"ce4bhbh2rcd13ifvqepg","pricing_plan_id":"cebpf4jnsgd1na2vs0mg"},{"bike_id":"afeb1fc8-0f97-4165-a679-c6d1d394f03c","system_id":"levelo_inurba_marseille","lat":43.26231,"lon":5.37451,"is_reserved":false,"is_disabled":false,"rental_uris":{"android":"levelo://app?vid=afeb1fc8-0f97-4165-a679-c6d1d394f03c","ios":"levelo://app?vid=afeb1fc8-0f97-4165-a679-c6d1d394f03c"},"vehicle_type_id":"4","last_reported":1750158542,"current_range_meters":18800,"station_id":"ce4bhgp2rcd13ifvqfc0","pricing_plan_id":"cebpf4jnsgd1na2vs0mg"},{"bike_id":"af1ee377-8b44-4dd4-b122-7ff02af5fc6a","system_id":"levelo_inurba_marseille","lat":43.28711,"lon":5.39997,"is_reserved":false,"is_disabled":false,"rental_uris":{"android":"levelo://app?vid=af1ee377-8b44-4dd4-b122-7ff02af5fc6a","ios":"levelo://app?vid=af1ee377-8b44-4dd4-b122-7ff02af5fc6a"},"vehicle_type_id":"4","last_reported":1750158542,"current_range_meters":18800,"station_id":"ce4bho92rcd13ifvqh3g","pricing_plan_id":"cebpf4jnsgd1na2vs0mg"},{"bike_id":"5cbdd979-131e-4b0a-a5c9-96ef156802c9","system_id":"levelo_inurba_marseille","lat":43.28411,"lon":5.39221,"is_reserved":false,"is_disabled":false,"rental_uris":{"android":"levelo://app?vid=5cbdd979-131e-4b0a-a5c9-96ef156802c9","ios":"levelo://app?vid=5cbdd979-131e-4b0a-a5c9-96ef156802c9"},"vehicle_type_id":"4","last_reported":1750158542,"current_range_meters":18800,"station_id":"ce4bhoh2rcd13ifvqh5g","pricing_plan_id":"cebpf4jnsgd1na2vs0mg"},{"bike_id":"cc8086c3-023b-4662-b7ba-91199240f1a1","system_id":"levelo_inurba_marseille","lat":43.23054,"lon":5.35478,"is_reserved":false,"is_disabled":false,"rental_uris":{"android":"levelo://app?vid=cc8086c3-023b-4662-b7ba-91199240f1a1","ios":"levelo://app?vid=cc8086c3-023b-4662-b7ba-91199240f1a1"},"vehicle_type_id":"4","last_reported":1750158542,"current_range_meters":18800,"station_id":"cpo3342slgdg3j2ifvpg","pricing_plan_id":"cebpf4jnsgd1na2vs0mg"},{"bike_id":"653a05d9-205d-420f-b0c9-a638667f0917","system_id":"levelo_inurba_marseille","lat":43.21178,"lon":5.35075,"is_reserved":false,"is_disabled":false,"rental_uris":{"android":"levelo://app?vid=653a05d9-205d-420f-b0c9-a638667f0917","ios":"levelo://app?vid=653a05d9-205d-420f-b0c9-a638667f0917"},"vehicle_type_id":"4","last_reported":1750158542,"current_range_meters":18800,"station_id":"st_cvj6sg6p6f1abm77japg","pricing_plan_id":"cebpf4jnsgd1na2vs0mg"},{"bike_id":"1786c8b7-4aaf-418e-934d-9818a016701f","system_id":"levelo_inurba_marseille","lat":43.2972,"lon":5.37698,"is_reserved":false,"is_disabled":false,"rental_uris":{"android":"levelo://app?vid=1786c8b7-4aaf-418e-934d-9818a016701f","ios":"levelo://app?vid=1786c8b7-4aaf-418e-934d-9818a016701f"},"vehicle_type_id":"4","last_reported":1750158542,"current_range_meters":19200,"station_id":"ce4bgkh2rcd13ifvqbl0","pricing_plan_id":"cebpf4jnsgd1na2vs0mg"},{"bike_id":"3a90966d-98c9-44ea-aa56-05b010046e69","system_id":"levelo_inurba_marseille","lat":43.30606,"lon":5.37219,"is_reserved":false,"is_disabled":false,"rental_uris":{"android":"levelo://app?vid=3a90966d-98c9-44ea-aa56-05b010046e69","ios":"levelo://app?vid=3a90966d-98c9-44ea-aa56-05b010046e69"},"vehicle_type_id":"4","last_reported":1750158542,"current_range_meters":19200,"station_id":"ce4bgqh2rcd13ifvqc4g","pricing_plan_id":"cebpf4jnsgd1na2vs0mg"},{"bike_id":"8c3d33c2-117b-44ab-81f9-61fd393f4aa8","system_id":"levelo_inurba_marseille","lat":43.30528,"lon":5.36718,"is_reserved":false,"is_disabled":false,"rental_uris":{"android":"levelo://app?vid=8c3d33c2-117b-44ab-81f9-61fd393f4aa8","ios":"levelo://app?vid=8c3d33c2-117b-44ab-81f9-61fd393f4aa8"},"vehicle_type_id":"4","last_reported":1750158542,"current_range_meters":19200,"station_id":"ce4bgrp2rcd13ifvqc9g","pricing_plan_id":"cebpf4jnsgd1na2vs0mg"},{"bike_id":"c85eedfa-48b9-4839-a461-3c8c329eabc6","system_id":"levelo_inurba_marseille","lat":43.30543,"lon":5.36551,"is_reserved":false,"is_disabled":false,"rental_uris":{"android":"levelo://app?vid=c85eedfa-48b9-4839-a461-3c8c329eabc6","ios":"levelo://app?vid=c85eedfa-48b9-4839-a461-3c8c329eabc6"},"vehicle_type_id":"4","last_reported":1750158542,"current_range_meters":19200,"station_id":"ce4bgs12rcd13ifvqcag","pricing_plan_id":"cebpf4jnsgd1na2vs0mg"},{"bike_id":"15c8ae02-8e99-4704-aa0b-0b411ebbfdc4","system_id":"levelo_inurba_marseille","lat":43.30546,"lon":5.36567,"is_reserved":false,"is_disabled":false,"rental_uris":{"android":"levelo://app?vid=15c8ae02-8e99-4704-aa0b-0b411ebbfdc4","ios":"levelo://app?vid=15c8ae02-8e99-4704-aa0b-0b411ebbfdc4"},"vehicle_type_id":"4","last_reported":1750158542,"current_range_meters":19200,"station_id":"ce4bgs12rcd13ifvqcag","pricing_plan_id":"cebpf4jnsgd1na2vs0mg"},{"bike_id":"986e67b0-cf98-42e7-83d8-2a3fe330f1bd","system_id":"levelo_inurba_marseille","lat":43.26206,"lon":5.37451,"is_reserved":false,"is_disabled":false,"rental_uris":{"android":"levelo://app?vid=986e67b0-cf98-42e7-83d8-2a3fe330f1bd","ios":"levelo://app?vid=986e67b0-cf98-42e7-83d8-2a3fe330f1bd"},"vehicle_type_id":"4","last_reported":1750158542,"current_range_meters":19200,"station_id":"ce4bhgp2rcd13ifvqfc0","pricing_plan_id":"cebpf4jnsgd1na2vs0mg"},{"bike_id":"2a977167-669d-4e13-bcb2-d7bdb4c33fc6","system_id":"levelo_inurba_marseille","lat":43.24387,"lon":5.37053,"is_reserved":false,"is_disabled":false,"rental_uris":{"android":"levelo://app?vid=2a977167-669d-4e13-bcb2-d7bdb4c33fc6","ios":"levelo://app?vid=2a977167-669d-4e13-bcb2-d7bdb4c33fc6"},"vehicle_type_id":"4","last_reported":1750158542,"current_range_meters":19200,"station_id":"ce4bhhh2rcd13ifvqfk0","pricing_plan_id":"cebpf4jnsgd1na2vs0mg"},{"bike_id":"ae1a1e4b-b44a-4b7f-bf60-016a7fa91655","system_id":"levelo_inurba_marseille","lat":43.25748,"lon":5.41145,"is_reserved":false,"is_disabled":false,"rental_uris":{"android":"levelo://app?vid=ae1a1e4b-b44a-4b7f-bf60-016a7fa91655","ios":"levelo://app?vid=ae1a1e4b-b44a-4b7f-bf60-016a7fa91655"},"vehicle_type_id":"4","last_reported":1750158542,"current_range_meters":19200,"station_id":"ce4bhkp2rcd13ifvqgd0","pricing_plan_id":"cebpf4jnsgd1na2vs0mg"},{"bike_id":"87c33c1d-0218-48b5-a0dc-9a634e006a9b","system_id":"levelo_inurba_marseille","lat":43.25124,"lon":5.40316,"is_reserved":false,"is_disabled":false,"rental_uris":{"android":"levelo://app?vid=87c33c1d-0218-48b5-a0dc-9a634e006a9b","ios":"levelo://app?vid=87c33c1d-0218-48b5-a0dc-9a634e006a9b"},"vehicle_type_id":"4","last_reported":1750158542,"current_range_meters":19200,"station_id":"ce4bhlh2rcd13ifvqgig","pricing_plan_id":"cebpf4jnsgd1na2vs0mg"},{"bike_id":"b5df771f-0292-4acc-afde-88c7e4fb1865","system_id":"levelo_inurba_marseille","lat":43.24176,"lon":5.39734,"is_reserved":false,"is_disabled":false,"rental_uris":{"android":"levelo://app?vid=b5df771f-0292-4acc-afde-88c7e4fb1865","ios":"levelo://app?vid=b5df771f-0292-4acc-afde-88c7e4fb1865"},"vehicle_type_id":"4","last_reported":1750158542,"current_range_meters":19200,"station_id":"ce4bhn12rcd13ifvqgpg","pricing_plan_id":"cebpf4jnsgd1na2vs0mg"},{"bike_id":"268aafb4-1331-426c-97bc-a7d6564caeb6","system_id":"levelo_inurba_marseille","lat":43.32915,"lon":5.37929,"is_reserved":false,"is_disabled":false,"rental_uris":{"android":"levelo://app?vid=268aafb4-1331-426c-97bc-a7d6564caeb6","ios":"levelo://app?vid=268aafb4-1331-426c-97bc-a7d6564caeb6"},"vehicle_type_id":"4","last_reported":1750158542,"current_range_meters":19600,"station_id":"","pricing_plan_id":"cebpf4jnsgd1na2vs0mg"},{"bike_id":"7d637ca4-a634-42d1-9b45-120b1ec61cc1","system_id":"levelo_inurba_marseille","lat":43.31238,"lon":5.36882,"is_reserved":false,"is_disabled":false,"rental_uris":{"android":"levelo://app?vid=7d637ca4-a634-42d1-9b45-120b1ec61cc1","ios":"levelo://app?vid=7d637ca4-a634-42d1-9b45-120b1ec61cc1"},"vehicle_type_id":"4","last_reported":1750158542,"current_range_meters":19600,"station_id":"ce4bgl92rcd13ifvqbq0","pricing_plan_id":"cebpf4jnsgd1na2vs0mg"},{"bike_id":"41b2faea-b574-434d-b06a-387f06093d10","system_id":"levelo_inurba_marseille","lat":43.30465,"lon":5.37903,"is_reserved":false,"is_disabled":false,"rental_uris":{"android":"levelo://app?vid=41b2faea-b574-434d-b06a-387f06093d10","ios":"levelo://app?vid=41b2faea-b574-434d-b06a-387f06093d10"},"vehicle_type_id":"4","last_reported":1750158542,"current_range_meters":19600,"station_id":"ce4bgup2rcd13ifvqcn0","pricing_plan_id":"cebpf4jnsgd1na2vs0mg"},{"bike_id":"fe5ac1dd-3375-4d91-ab59-6d642a19c334","system_id":"levelo_inurba_marseille","lat":43.30785,"lon":5.37636,"is_reserved":false,"is_disabled":false,"rental_uris":{"android":"levelo://app?vid=fe5ac1dd-3375-4d91-ab59-6d642a19c334","ios":"levelo://app?vid=fe5ac1dd-3375-4d91-ab59-6d642a19c334"},"vehicle_type_id":"4","last_reported":1750158542,"current_range_meters":19600,"station_id":"ce4bgv92rcd13ifvqcq0","pricing_plan_id":"cebpf4jnsgd1na2vs0mg"},{"bike_id":"2f85e1fa-f302-4137-826f-ea952750e86c","system_id":"levelo_inurba_marseille","lat":43.24809,"lon":5.37455,"is_reserved":false,"is_disabled":false,"rental_uris":{"android":"levelo://app?vid=2f85e1fa-f302-4137-826f-ea952750e86c","ios":"levelo://app?vid=2f85e1fa-f302-4137-826f-ea952750e86c"},"vehicle_type_id":"4","last_reported":1750158542,"current_range_meters":19600,"station_id":"ce4bhgh2rcd13ifvqfb0","pricing_plan_id":"cebpf4jnsgd1na2vs0mg"},{"bike_id":"d758b1de-b553-4d6d-b4e7-21d65690d39e","system_id":"levelo_inurba_marseille","lat":43.26217,"lon":5.37453,"is_reserved":false,"is_disabled":false,"rental_uris":{"android":"levelo://app?vid=d758b1de-b553-4d6d-b4e7-21d65690d39e","ios":"levelo://app?vid=d758b1de-b553-4d6d-b4e7-21d65690d39e"},"vehicle_type_id":"4","last_reported":1750158542,"current_range_meters":19600,"station_id":"ce4bhgp2rcd13ifvqfc0","pricing_plan_id":"cebpf4jnsgd1na2vs0mg"},{"bike_id":"7e6b8fed-584f-4a52-a503-0d97797bcab3","system_id":"levelo_inurba_marseille","lat":43.30542,"lon":5.38412,"is_reserved":false,"is_disabled":false,"rental_uris":{"android":"levelo://app?vid=7e6b8fed-584f-4a52-a503-0d97797bcab3","ios":"levelo://app?vid=7e6b8fed-584f-4a52-a503-0d97797bcab3"},"vehicle_type_id":"4","last_reported":1750158542,"current_range_meters":20000,"station_id":"ce4bgg92rcd13ifvqb30","pricing_plan_id":"cebpf4jnsgd1na2vs0mg"},{"bike_id":"3eaf5d76-7bdb-454a-8e3f-54f986b432e6","system_id":"levelo_inurba_marseille","lat":43.31352,"lon":5.36753,"is_reserved":false,"is_disabled":false,"rental_uris":{"android":"levelo://app?vid=3eaf5d76-7bdb-454a-8e3f-54f986b432e6","ios":"levelo://app?vid=3eaf5d76-7bdb-454a-8e3f-54f986b432e6"},"vehicle_type_id":"4","last_reported":1750158542,"current_range_meters":20000,"station_id":"ce4bgr92rcd13ifvqc6g","pricing_plan_id":"cebpf4jnsgd1na2vs0mg"},{"bike_id":"bea5595f-dc4e-4787-a000-3ba86a97e39d","system_id":"levelo_inurba_marseille","lat":43.3137,"lon":5.36729,"is_reserved":false,"is_disabled":false,"rental_uris":{"android":"levelo://app?vid=bea5595f-dc4e-4787-a000-3ba86a97e39d","ios":"levelo://app?vid=bea5595f-dc4e-4787-a000-3ba86a97e39d"},"vehicle_type_id":"4","last_reported":1750158542,"current_range_meters":20000,"station_id":"ce4bgr92rcd13ifvqc6g","pricing_plan_id":"cebpf4jnsgd1na2vs0mg"},{"bike_id":"4008ba4f-6b0b-45bc-a270-2ba8ab147905","system_id":"levelo_inurba_marseille","lat":43.24176,"lon":5.39727,"is_reserved":false,"is_disabled":false,"rental_uris":{"android":"levelo://app?vid=4008ba4f-6b0b-45bc-a270-2ba8ab147905","ios":"levelo://app?vid=4008ba4f-6b0b-45bc-a270-2ba8ab147905"},"vehicle_type_id":"4","last_reported":1750158542,"current_range_meters":20000,"station_id":"ce4bhn12rcd13ifvqgpg","pricing_plan_id":"cebpf4jnsgd1na2vs0mg"},{"bike_id":"6a588629-1737-42f2-b0d8-1ffe38ce0c29","system_id":"levelo_inurba_marseille","lat":43.30424,"lon":5.41283,"is_reserved":false,"is_disabled":false,"rental_uris":{"android":"levelo://app?vid=6a588629-1737-42f2-b0d8-1ffe38ce0c29","ios":"levelo://app?vid=6a588629-1737-42f2-b0d8-1ffe38ce0c29"},"vehicle_type_id":"4","last_reported":1750158542,"current_range_meters":20000,"station_id":"ce4bhop2rcd13ifvqh8g","pricing_plan_id":"cebpf4jnsgd1na2vs0mg"},{"bike_id":"63224521-bf7a-426e-9796-0bdf15e655b6","system_id":"levelo_inurba_marseille","lat":43.31084,"lon":5.42426,"is_reserved":false,"is_disabled":false,"rental_uris":{"android":"levelo://app?vid=63224521-bf7a-426e-9796-0bdf15e655b6","ios":"levelo://app?vid=63224521-bf7a-426e-9796-0bdf15e655b6"},"vehicle_type_id":"4","last_reported":1750158542,"current_range_meters":20000,"station_id":"ce4bhp92rcd13ifvqhag","pricing_plan_id":"cebpf4jnsgd1na2vs0mg"},{"bike_id":"9d8e87e7-e44d-4dea-b332-ba7baca8e903","system_id":"levelo_inurba_marseille","lat":43.23195,"lon":5.35557,"is_reserved":false,"is_disabled":false,"rental_uris":{"android":"levelo://app?vid=9d8e87e7-e44d-4dea-b332-ba7baca8e903","ios":"levelo://app?vid=9d8e87e7-e44d-4dea-b332-ba7baca8e903"},"vehicle_type_id":"4","last_reported":1750158542,"current_range_meters":20000,"station_id":"ce4bhu92rcd13ifvqi70","pricing_plan_id":"cebpf4jnsgd1na2vs0mg"},{"bike_id":"8ad9234e-001a-4549-8bba-9baf2ef98804","system_id":"levelo_inurba_marseille","lat":43.26891,"lon":5.40299,"is_reserved":false,"is_disabled":false,"rental_uris":{"android":"levelo://app?vid=8ad9234e-001a-4549-8bba-9baf2ef98804","ios":"levelo://app?vid=8ad9234e-001a-4549-8bba-9baf2ef98804"},"vehicle_type_id":"4","last_reported":1750158542,"current_range_meters":20400,"station_id":"","pricing_plan_id":"cebpf4jnsgd1na2vs0mg"},{"bike_id":"1c724053-b460-4aee-a0dc-bd4b9a89ec38","system_id":"levelo_inurba_marseille","lat":43.23151,"lon":5.43719,"is_reserved":false,"is_disabled":false,"rental_uris":{"android":"levelo://app?vid=1c724053-b460-4aee-a0dc-bd4b9a89ec38","ios":"levelo://app?vid=1c724053-b460-4aee-a0dc-bd4b9a89ec38"},"vehicle_type_id":"4","last_reported":1750158542,"current_range_meters":20400,"station_id":"ce4bhmp2rcd13ifvqgog","pricing_plan_id":"cebpf4jnsgd1na2vs0mg"},{"bike_id":"456e3e01-d483-4af3-ad8c-fac20db5c110","system_id":"levelo_inurba_marseille","lat":43.24184,"lon":5.39738,"is_reserved":false,"is_disabled":false,"rental_uris":{"android":"levelo://app?vid=456e3e01-d483-4af3-ad8c-fac20db5c110","ios":"levelo://app?vid=456e3e01-d483-4af3-ad8c-fac20db5c110"},"vehicle_type_id":"4","last_reported":1750158542,"current_range_meters":20400,"station_id":"ce4bhn12rcd13ifvqgpg","pricing_plan_id":"cebpf4jnsgd1na2vs0mg"},{"bike_id":"48f64832-91ad-4708-8973-113713b5b18c","system_id":"levelo_inurba_marseille","lat":43.2986,"lon":5.38152,"is_reserved":false,"is_disabled":false,"rental_uris":{"android":"levelo://app?vid=48f64832-91ad-4708-8973-113713b5b18c","ios":"levelo://app?vid=48f64832-91ad-4708-8973-113713b5b18c"},"vehicle_type_id":"4","last_reported":1750158542,"current_range_meters":20800,"station_id":"ce4bgj12rcd13ifvqbc0","pricing_plan_id":"cebpf4jnsgd1na2vs0mg"},{"bike_id":"1ec1fdeb-870d-4a40-bfab-4cf6dc0f9eb7","system_id":"levelo_inurba_marseille","lat":43.31491,"lon":5.3729,"is_reserved":false,"is_disabled":false,"rental_uris":{"android":"levelo://app?vid=1ec1fdeb-870d-4a40-bfab-4cf6dc0f9eb7","ios":"levelo://app?vid=1ec1fdeb-870d-4a40-bfab-4cf6dc0f9eb7"},"vehicle_type_id":"4","last_reported":1750158542,"current_range_meters":20800,"station_id":"ce4bgt12rcd13ifvqcd0","pricing_plan_id":"cebpf4jnsgd1na2vs0mg"},{"bike_id":"6c70de3a-096a-42b1-8111-ffa660806cac","system_id":"levelo_inurba_marseille","lat":43.3095,"lon":5.39025,"is_reserved":false,"is_disabled":false,"rental_uris":{"android":"levelo://app?vid=6c70de3a-096a-42b1-8111-ffa660806cac","ios":"levelo://app?vid=6c70de3a-096a-42b1-8111-ffa660806cac"},"vehicle_type_id":"4","last_reported":1750158542,"current_range_meters":20800,"station_id":"ce4bgup2rcd13ifvqco0","pricing_plan_id":"cebpf4jnsgd1na2vs0mg"},{"bike_id":"ed42a794-bac6-4119-8088-e27515344cd4","system_id":"levelo_inurba_marseille","lat":43.29032,"lon":5.3865,"is_reserved":false,"is_disabled":false,"rental_uris":{"android":"levelo://app?vid=ed42a794-bac6-4119-8088-e27515344cd4","ios":"levelo://app?vid=ed42a794-bac6-4119-8088-e27515344cd4"},"vehicle_type_id":"4","last_reported":1750158542,"current_range_meters":20800,"station_id":"ce4bh4p2rcd13ifvqe0g","pricing_plan_id":"cebpf4jnsgd1na2vs0mg"},{"bike_id":"99125c8b-989b-4c57-94ad-331d389f1748","system_id":"levelo_inurba_marseille","lat":43.28988,"lon":5.37828,"is_reserved":false,"is_disabled":false,"rental_uris":{"android":"levelo://app?vid=99125c8b-989b-4c57-94ad-331d389f1748","ios":"levelo://app?vid=99125c8b-989b-4c57-94ad-331d389f1748"},"vehicle_type_id":"4","last_reported":1750158542,"current_range_meters":20800,"station_id":"ce4bh9p2rcd13ifvqed0","pricing_plan_id":"cebpf4jnsgd1na2vs0mg"},{"bike_id":"7ab828d7-bff8-42f2-a98a-78f3ebd2297f","system_id":"levelo_inurba_marseille","lat":43.255067,"lon":5.376317,"is_reserved":false,"is_disabled":false,"rental_uris":{"android":"levelo://app?vid=7ab828d7-bff8-42f2-a98a-78f3ebd2297f","ios":"levelo://app?vid=7ab828d7-bff8-42f2-a98a-78f3ebd2297f"},"vehicle_type_id":"4","last_reported":1750158542,"current_range_meters":20800,"station_id":"ce4bhh12rcd13ifvqff0","pricing_plan_id":"cebpf4jnsgd1na2vs0mg"},{"bike_id":"61185e51-def2-4557-89b9-f06c340ff2e2","system_id":"levelo_inurba_marseille","lat":43.21178,"lon":5.35078,"is_reserved":false,"is_disabled":false,"rental_uris":{"android":"levelo://app?vid=61185e51-def2-4557-89b9-f06c340ff2e2","ios":"levelo://app?vid=61185e51-def2-4557-89b9-f06c340ff2e2"},"vehicle_type_id":"4","last_reported":1750158542,"current_range_meters":20800,"station_id":"st_cvj6sg6p6f1abm77japg","pricing_plan_id":"cebpf4jnsgd1na2vs0mg"},{"bike_id":"70126c2f-6031-4486-aeb2-9adb511888e4","system_id":"levelo_inurba_marseille","lat":43.28429,"lon":5.34991,"is_reserved":false,"is_disabled":false,"rental_uris":{"android":"levelo://app?vid=70126c2f-6031-4486-aeb2-9adb511888e4","ios":"levelo://app?vid=70126c2f-6031-4486-aeb2-9adb511888e4"},"vehicle_type_id":"4","last_reported":1750158542,"current_range_meters":21600,"station_id":"ce4bhbh2rcd13ifvqepg","pricing_plan_id":"cebpf4jnsgd1na2vs0mg"},{"bike_id":"f1fd66bd-cfc2-46bc-a7de-0fb26acfec32","system_id":"levelo_inurba_marseille","lat":43.257077,"lon":5.411083,"is_reserved":false,"is_disabled":false,"rental_uris":{"android":"levelo://app?vid=f1fd66bd-cfc2-46bc-a7de-0fb26acfec32","ios":"levelo://app?vid=f1fd66bd-cfc2-46bc-a7de-0fb26acfec32"},"vehicle_type_id":"4","last_reported":1750158542,"current_range_meters":21600,"station_id":"ce4bhkp2rcd13ifvqgd0","pricing_plan_id":"cebpf4jnsgd1na2vs0mg"},{"bike_id":"00be506d-169a-4042-ac82-06e38349d440","system_id":"levelo_inurba_marseille","lat":43.29581,"lon":5.36739,"is_reserved":false,"is_disabled":false,"rental_uris":{"android":"levelo://app?vid=00be506d-169a-4042-ac82-06e38349d440","ios":"levelo://app?vid=00be506d-169a-4042-ac82-06e38349d440"},"vehicle_type_id":"4","last_reported":1750158542,"current_range_meters":22000,"station_id":"ce4bgph2rcd13ifvqc2g","pricing_plan_id":"cebpf4jnsgd1na2vs0mg"},{"bike_id":"ba1c9e04-4520-4cc5-9b9a-654c12163ae1","system_id":"levelo_inurba_marseille","lat":43.2512,"lon":5.40319,"is_reserved":false,"is_disabled":false,"rental_uris":{"android":"levelo://app?vid=ba1c9e04-4520-4cc5-9b9a-654c12163ae1","ios":"levelo://app?vid=ba1c9e04-4520-4cc5-9b9a-654c12163ae1"},"vehicle_type_id":"4","last_reported":1750158542,"current_range_meters":22000,"station_id":"ce4bhlh2rcd13ifvqgig","pricing_plan_id":"cebpf4jnsgd1na2vs0mg"},{"bike_id":"2d011489-3a50-4137-8707-13a2dba13148","system_id":"levelo_inurba_marseille","lat":43.25948,"lon":5.40901,"is_reserved":false,"is_disabled":false,"rental_uris":{"android":"levelo://app?vid=2d011489-3a50-4137-8707-13a2dba13148","ios":"levelo://app?vid=2d011489-3a50-4137-8707-13a2dba13148"},"vehicle_type_id":"4","last_reported":1750158542,"current_range_meters":22000,"station_id":"ce4bhm92rcd13ifvqglg","pricing_plan_id":"cebpf4jnsgd1na2vs0mg"},{"bike_id":"aebd12da-766f-4242-a9f6-9430df140b4c","system_id":"levelo_inurba_marseille","lat":43.24206,"lon":5.39735,"is_reserved":false,"is_disabled":false,"rental_uris":{"android":"levelo://app?vid=aebd12da-766f-4242-a9f6-9430df140b4c","ios":"levelo://app?vid=aebd12da-766f-4242-a9f6-9430df140b4c"},"vehicle_type_id":"4","last_reported":1750158542,"current_range_meters":22000,"station_id":"ce4bhn12rcd13ifvqgpg","pricing_plan_id":"cebpf4jnsgd1na2vs0mg"},{"bike_id":"1a609d4b-1507-4675-b1d5-dd09919e68f5","system_id":"levelo_inurba_marseille","lat":43.27824,"lon":5.40728,"is_reserved":false,"is_disabled":false,"rental_uris":{"android":"levelo://app?vid=1a609d4b-1507-4675-b1d5-dd09919e68f5","ios":"levelo://app?vid=1a609d4b-1507-4675-b1d5-dd09919e68f5"},"vehicle_type_id":"4","last_reported":1750158542,"current_range_meters":22000,"station_id":"ce4bhnh2rcd13ifvqgtg","pricing_plan_id":"cebpf4jnsgd1na2vs0mg"},{"bike_id":"5fbdc1ce-a49f-4f28-8530-35b7b0d09f91","system_id":"levelo_inurba_marseille","lat":43.34142,"lon":5.40897,"is_reserved":false,"is_disabled":false,"rental_uris":{"android":"levelo://app?vid=5fbdc1ce-a49f-4f28-8530-35b7b0d09f91","ios":"levelo://app?vid=5fbdc1ce-a49f-4f28-8530-35b7b0d09f91"},"vehicle_type_id":"4","last_reported":1750158542,"current_range_meters":22000,"station_id":"ce4bhqh2rcd13ifvqhlg","pricing_plan_id":"cebpf4jnsgd1na2vs0mg"},{"bike_id":"c189e9ab-927a-4036-bda0-f1e05096b490","system_id":"levelo_inurba_marseille","lat":43.3069,"lon":5.42485,"is_reserved":false,"is_disabled":false,"rental_uris":{"android":"levelo://app?vid=c189e9ab-927a-4036-bda0-f1e05096b490","ios":"levelo://app?vid=c189e9ab-927a-4036-bda0-f1e05096b490"},"vehicle_type_id":"4","last_reported":1750158542,"current_range_meters":22000,"station_id":"st_cvj6ca6bvosntc0bfgr0","pricing_plan_id":"cebpf4jnsgd1na2vs0mg"},{"bike_id":"13ddb1f2-a0ee-4240-8e9f-f85405cf491e","system_id":"levelo_inurba_marseille","lat":43.30434,"lon":5.38882,"is_reserved":false,"is_disabled":false,"rental_uris":{"android":"levelo://app?vid=13ddb1f2-a0ee-4240-8e9f-f85405cf491e","ios":"levelo://app?vid=13ddb1f2-a0ee-4240-8e9f-f85405cf491e"},"vehicle_type_id":"4","last_reported":1750158542,"current_range_meters":22400,"station_id":"ce4bgk12rcd13ifvqbi0","pricing_plan_id":"cebpf4jnsgd1na2vs0mg"},{"bike_id":"18d6ded3-7e4e-41d6-9a57-63e21c02f396","system_id":"levelo_inurba_marseille","lat":43.2985,"lon":5.36285,"is_reserved":false,"is_disabled":false,"rental_uris":{"android":"levelo://app?vid=18d6ded3-7e4e-41d6-9a57-63e21c02f396","ios":"levelo://app?vid=18d6ded3-7e4e-41d6-9a57-63e21c02f396"},"vehicle_type_id":"4","last_reported":1750158542,"current_range_meters":22400,"station_id":"ce4bgpp2rcd13ifvqc3g","pricing_plan_id":"cebpf4jnsgd1na2vs0mg"},{"bike_id":"ebfb692b-f013-40a4-b271-1cca54572bce","system_id":"levelo_inurba_marseille","lat":43.3078,"lon":5.37647,"is_reserved":false,"is_disabled":false,"rental_uris":{"android":"levelo://app?vid=ebfb692b-f013-40a4-b271-1cca54572bce","ios":"levelo://app?vid=ebfb692b-f013-40a4-b271-1cca54572bce"},"vehicle_type_id":"4","last_reported":1750158542,"current_range_meters":22400,"station_id":"ce4bgv92rcd13ifvqcq0","pricing_plan_id":"cebpf4jnsgd1na2vs0mg"},{"bike_id":"2b4a012a-6d20-424a-867e-2e5209a0c464","system_id":"levelo_inurba_marseille","lat":43.307928,"lon":5.376504,"is_reserved":false,"is_disabled":false,"rental_uris":{"android":"levelo://app?vid=2b4a012a-6d20-424a-867e-2e5209a0c464","ios":"levelo://app?vid=2b4a012a-6d20-424a-867e-2e5209a0c464"},"vehicle_type_id":"4","last_reported":1750158542,"current_range_meters":22400,"station_id":"ce4bgv92rcd13ifvqcq0","pricing_plan_id":"cebpf4jnsgd1na2vs0mg"},{"bike_id":"8cb711da-e053-4498-9bca-e8ee0f6169eb","system_id":"levelo_inurba_marseille","lat":43.29273,"lon":5.38445,"is_reserved":false,"is_disabled":false,"rental_uris":{"android":"levelo://app?vid=8cb711da-e053-4498-9bca-e8ee0f6169eb","ios":"levelo://app?vid=8cb711da-e053-4498-9bca-e8ee0f6169eb"},"vehicle_type_id":"4","last_reported":1750158542,"current_range_meters":22400,"station_id":"ce4bh692rcd13ifvqea0","pricing_plan_id":"cebpf4jnsgd1na2vs0mg"},{"bike_id":"674a0dad-5d10-4aa4-8b4c-31b73788e9e7","system_id":"levelo_inurba_marseille","lat":43.29005,"lon":5.35614,"is_reserved":false,"is_disabled":false,"rental_uris":{"android":"levelo://app?vid=674a0dad-5d10-4aa4-8b4c-31b73788e9e7","ios":"levelo://app?vid=674a0dad-5d10-4aa4-8b4c-31b73788e9e7"},"vehicle_type_id":"4","last_reported":1750158542,"current_range_meters":22400,"station_id":"ce4bhb92rcd13ifvqen0","pricing_plan_id":"cebpf4jnsgd1na2vs0mg"},{"bike_id":"c7e547d7-32b7-4811-bd94-8b5b3e52e615","system_id":"levelo_inurba_marseille","lat":43.28078,"lon":5.39658,"is_reserved":false,"is_disabled":false,"rental_uris":{"android":"levelo://app?vid=c7e547d7-32b7-4811-bd94-8b5b3e52e615","ios":"levelo://app?vid=c7e547d7-32b7-4811-bd94-8b5b3e52e615"},"vehicle_type_id":"4","last_reported":1750158542,"current_range_meters":22400,"station_id":"ce4bho12rcd13ifvqh2g","pricing_plan_id":"cebpf4jnsgd1na2vs0mg"},{"bike_id":"8cb5a287-b653-4c4c-ab13-49155b937c99","system_id":"levelo_inurba_marseille","lat":43.287,"lon":5.39982,"is_reserved":false,"is_disabled":false,"rental_uris":{"android":"levelo://app?vid=8cb5a287-b653-4c4c-ab13-49155b937c99","ios":"levelo://app?vid=8cb5a287-b653-4c4c-ab13-49155b937c99"},"vehicle_type_id":"4","last_reported":1750158542,"current_range_meters":22400,"station_id":"ce4bho92rcd13ifvqh3g","pricing_plan_id":"cebpf4jnsgd1na2vs0mg"},{"bike_id":"a6b32ddc-9b6c-44ef-b1b5-321fb556560d","system_id":"levelo_inurba_marseille","lat":43.28704,"lon":5.39976,"is_reserved":false,"is_disabled":false,"rental_uris":{"android":"levelo://app?vid=a6b32ddc-9b6c-44ef-b1b5-321fb556560d","ios":"levelo://app?vid=a6b32ddc-9b6c-44ef-b1b5-321fb556560d"},"vehicle_type_id":"4","last_reported":1750158542,"current_range_meters":22400,"station_id":"ce4bho92rcd13ifvqh3g","pricing_plan_id":"cebpf4jnsgd1na2vs0mg"},{"bike_id":"6cb8910e-d48f-4998-8f89-bce55953f5bd","system_id":"levelo_inurba_marseille","lat":43.33787,"lon":5.37434,"is_reserved":false,"is_disabled":false,"rental_uris":{"android":"levelo://app?vid=6cb8910e-d48f-4998-8f89-bce55953f5bd","ios":"levelo://app?vid=6cb8910e-d48f-4998-8f89-bce55953f5bd"},"vehicle_type_id":"4","last_reported":1750158542,"current_range_meters":22800,"station_id":"","pricing_plan_id":"cebpf4jnsgd1na2vs0mg"},{"bike_id":"8e077055-7ad0-4e0a-b9a5-744e94f44b1d","system_id":"levelo_inurba_marseille","lat":43.31408,"lon":5.36799,"is_reserved":false,"is_disabled":false,"rental_uris":{"android":"levelo://app?vid=8e077055-7ad0-4e0a-b9a5-744e94f44b1d","ios":"levelo://app?vid=8e077055-7ad0-4e0a-b9a5-744e94f44b1d"},"vehicle_type_id":"4","last_reported":1750158542,"current_range_meters":22800,"station_id":"","pricing_plan_id":"cebpf4jnsgd1na2vs0mg"},{"bike_id":"092b451a-ca1a-4ef4-ae94-87645936d24d","system_id":"levelo_inurba_marseille","lat":43.21766,"lon":5.34622,"is_reserved":false,"is_disabled":false,"rental_uris":{"android":"levelo://app?vid=092b451a-ca1a-4ef4-ae94-87645936d24d","ios":"levelo://app?vid=092b451a-ca1a-4ef4-ae94-87645936d24d"},"vehicle_type_id":"4","last_reported":1750158542,"current_range_meters":22800,"station_id":"","pricing_plan_id":"cebpf4jnsgd1na2vs0mg"},{"bike_id":"183887d8-b949-4351-ad34-413178b3177d","system_id":"levelo_inurba_marseille","lat":43.311541,"lon":5.388137,"is_reserved":false,"is_disabled":false,"rental_uris":{"android":"levelo://app?vid=183887d8-b949-4351-ad34-413178b3177d","ios":"levelo://app?vid=183887d8-b949-4351-ad34-413178b3177d"},"vehicle_type_id":"4","last_reported":1750158542,"current_range_meters":22800,"station_id":"ce4bgv12rcd13ifvqcp0","pricing_plan_id":"cebpf4jnsgd1na2vs0mg"},{"bike_id":"03b39728-e84a-4511-b1c1-16667558a2d5","system_id":"levelo_inurba_marseille","lat":43.290197,"lon":5.378391,"is_reserved":false,"is_disabled":false,"rental_uris":{"android":"levelo://app?vid=03b39728-e84a-4511-b1c1-16667558a2d5","ios":"levelo://app?vid=03b39728-e84a-4511-b1c1-16667558a2d5"},"vehicle_type_id":"4","last_reported":1750158542,"current_range_meters":22800,"station_id":"ce4bh9p2rcd13ifvqed0","pricing_plan_id":"cebpf4jnsgd1na2vs0mg"},{"bike_id":"b696bbeb-9072-44ce-aab1-d3e4dfb2e19f","system_id":"levelo_inurba_marseille","lat":43.28414,"lon":5.34977,"is_reserved":false,"is_disabled":false,"rental_uris":{"android":"levelo://app?vid=b696bbeb-9072-44ce-aab1-d3e4dfb2e19f","ios":"levelo://app?vid=b696bbeb-9072-44ce-aab1-d3e4dfb2e19f"},"vehicle_type_id":"4","last_reported":1750158542,"current_range_meters":22800,"station_id":"ce4bhbh2rcd13ifvqepg","pricing_plan_id":"cebpf4jnsgd1na2vs0mg"},