{"last_updated":1706389551,"ttl":30,"version":"2.2","data":{"bikes":[{"bike_id":"187862be-4b67-4314-8d96-e18dc43dd843","system_id":"levelo_inurba_marseille","lat":43.312239,"lon":5.368562,"is_reserved":false,"is_disabled":false,"rental_uris":{"android":"levelo://app?vid=187862be-4b67-4314-8d96-e18dc43dd843","ios":"levelo://app?vid=187862be-4b67-4314-8d96-e18dc43dd843"},"vehicle_type_id":"4","last_reported":1706389551,"current_range_meters":7200,"station_id":"ce4bgl92rcd13ifvqbq0","pricing_plan_id":"free"},{"bike_id":"b08dc5fa-7a57-4826-93c7-1626f1bc0fbb","system_id":"levelo_inurba_marseille","lat":43.312239,"lon":5.368562,"is_reserved":false,"is_disabled":false,"rental_uris":{"android":"levelo://app?vid=b08dc5fa-7a57-4826-93c7-1626f1bc0fbb","ios":"levelo://app?vid=b08dc5fa-7a57-4826-93c7-1626f1bc0fbb"},"vehicle_type_id":"4","last_reported":1706389551,"current_range_meters":27600,"station_id":"ce4bgl92rcd13ifvqbq0","pricing_plan_id":"free"},{"bike_id":"75472d2f-c33b-4291-9ef3-06d76d15d270","system_id":"levelo_inurba_marseille","lat":43.309039,"lon":5.371797,"is_reserved":false,"is_disabled":false,"rental_uris":{"android":"levelo://app?vid=75472d2f-c33b-4291-9ef3-06d76d15d270","ios":"levelo://app?vid=75472d2f-c33b-4291-9ef3-06d76d15d270"},"vehicle_type_id":"4","last_reported":1706389551,"current_range_meters":9600,"station_id":"ce4bguh2rcd13ifvqckg","pricing_plan_id":"free"},{"bike_id":"bda51473-b6be-4f34-845c-fe39f005a126","system_id":"levelo_inurba_marseille","lat":43.309039,"lon":5.371797,"is_reserved":false,"is_disabled":false,"rental_uris":{"android":"levelo://app?vid=bda51473-b6be-4f34-845c-fe39f005a126","ios":"levelo://app?vid=bda51473-b6be-4f34-845c-fe39f005a126"},"vehicle_type_id":"4","last_reported":1706389551,"current_range_meters":22000,"station_id":"ce4bguh2rcd13ifvqckg","pricing_plan_id":"free"},{"bike_id":"cf666fee-9862-40f0-8271-74852148745c","system_id":"levelo_inurba_marseille","lat":43.309039,"lon":5.371797,"is_reserved":false,"is_disabled":false,"rental_uris":{"android":"levelo://app?vid=cf666fee-9862-40f0-8271-74852148745c","ios":"levelo://app?vid=cf666fee-9862-40f0-8271-74852148745c"},"vehicle_type_id":"4","last_reported":1706389551,"current_range_meters":25200,"station_id":"ce4bguh2rcd13ifvqckg","pricing_plan_id":"free"},{"bike_id":"f0223e44-7f80-4774-80b9-2bd330cab4a9","system_id":"levelo_inurba_marseille","lat":43.30886,"lon":5.371881,"is_reserved":false,"is_disabled":false,"rental_uris":{"android":"levelo://app?vid=f0223e44-7f80-4774-80b9-2bd330cab4a9","ios":"levelo://app?vid=f0223e44-7f80-4774-80b9-2bd330cab4a9"},"vehicle_type_id":"4","last_reported":1706389551,"current_range_meters":4400,"station_id":"ce4bguh2rcd13ifvqckg","pricing_plan_id":"free"},{"bike_id":"ff6c1c25-8287-4f32-9d54-133fa7cb156b","system_id":"levelo_inurba_marseille","lat":43.309039,"lon":5.371797,"is_reserved":false,"is_disabled":false,"rental_uris":{"android":"levelo://app?vid=ff6c1c25-8287-4f32-9d54-133fa7cb156b","ios":"levelo://app?vid=ff6c1c25-8287-4f32-9d54-133fa7cb156b"},"vehicle_type_id":"4","last_reported":1706389551,"current_range_meters":17600,"station_id":"ce4bguh2rcd13ifvqckg","pricing_plan_id":"free"},{"bike_id":"b3a4c76c-4b91-4838-bce7-c17a779a0349","system_id":"levelo_inurba_marseille","lat":43.305474,"lon":5.36532,"is_reserved":false,"is_disabled":false,"rental_uris":{"android":"levelo://app?vid=b3a4c76c-4b91-4838-bce7-c17a779a0349","ios":"levelo://app?vid=b3a4c76c-4b91-4838-bce7-c17a779a0349"},"vehicle_type_id":"4","last_reported":1706389551,"current_range_meters":0,"station_id":"ce4bgs12rcd13ifvqcag","pricing_plan_id":"free"},{"bike_id":"c0aca7fd-4281-4ec5-937e-70d16daadeeb","system_id":"levelo_inurba_marseille","lat":43.311187,"lon":5.377689,"is_reserved":false,"is_disabled":false,"rental_uris":{"android":"levelo://app?vid=c0aca7fd-4281-4ec5-937e-70d16daadeeb","ios":"levelo://app?vid=c0aca7fd-4281-4ec5-937e-70d16daadeeb"},"vehicle_type_id":"4","last_reported":1706389551,"current_range_meters":0,"station_id":"ce4bgt92rcd13ifvqcg0","pricing_plan_id":"free"},{"bike_id":"498f3b3f-8c19-4f52-95b7-450ee2a83755","system_id":"levelo_inurba_marseille","lat":43.307945,"lon":5.376487,"is_reserved":false,"is_disabled":false,"rental_uris":{"android":"levelo://app?vid=498f3b3f-8c19-4f52-95b7-450ee2a83755","ios":"levelo://app?vid=498f3b3f-8c19-4f52-95b7-450ee2a83755"},"vehicle_type_id":"4","last_reported":1706389551,"current_range_meters":0,"station_id":"ce4bgv92rcd13ifvqcq0","pricing_plan_id":"free"},{"bike_id":"5884c4ad-110e-459c-8e82-d6cc5c141c5e","system_id":"levelo_inurba_marseille","lat":43.307945,"lon":5.376487,"is_reserved":false,"is_disabled":false,"rental_uris":{"android":"levelo://app?vid=5884c4ad-110e-459c-8e82-d6cc5c141c5e","ios":"levelo://app?vid=5884c4ad-110e-459c-8e82-d6cc5c141c5e"},"vehicle_type_id":"4","last_reported":1706389551,"current_range_meters":4800,"station_id":"ce4bgv92rcd13ifvqcq0","pricing_plan_id":"free"},{"bike_id":"6fff0b7d-2514-4e0c-a138-b6e9cb85be95","system_id":"levelo_inurba_marseille","lat":43.317075,"lon":5.377367,"is_reserved":false,"is_disabled":false,"rental_uris":{"android":"levelo://app?vid=6fff0b7d-2514-4e0c-a138-b6e9cb85be95","ios":"levelo://app?vid=6fff0b7d-2514-4e0c-a138-b6e9cb85be95"},"vehicle_type_id":"4","last_reported":1706389551,"current_range_meters":30000,"station_id":"ce4bgth2rcd13ifvqch0","pricing_plan_id":"free"},{"bike_id":"bf70306f-e475-47ca-8724-a7e42b25d923","system_id":"levelo_inurba_marseille","lat":43.317075,"lon":5.377367,"is_reserved":false,"is_disabled":false,"rental_uris":{"android":"levelo://app?vid=bf70306f-e475-47ca-8724-a7e42b25d923","ios":"levelo://app?vid=bf70306f-e475-47ca-8724-a7e42b25d923"},"vehicle_type_id":"4","last_reported":1706389551,"current_range_meters":15200,"station_id":"ce4bgth2rcd13ifvqch0","pricing_plan_id":"free"},{"bike_id":"760e8431-4505-4e25-89a2-d05baf70ef01","system_id":"levelo_inurba_marseille","lat":43.30311,"lon":5.36897,"is_reserved":false,"is_disabled":false,"rental_uris":{"android":"levelo://app?vid=760e8431-4505-4e25-89a2-d05baf70ef01","ios":"levelo://app?vid=760e8431-4505-4e25-89a2-d05baf70ef01"},"vehicle_type_id":"4","last_reported":1706389551,"current_range_meters":0,"station_id":"ce4bgqh2rcd13ifvqc5g","pricing_plan_id":"free"},{"bike_id":"90410a4f-3b57-47b3-858a-d3a370536f17","system_id":"levelo_inurba_marseille","lat":43.303046,"lon":5.368981,"is_reserved":false,"is_disabled":false,"rental_uris":{"android":"levelo://app?vid=90410a4f-3b57-47b3-858a-d3a370536f17","ios":"levelo://app?vid=90410a4f-3b57-47b3-858a-d3a370536f17"},"vehicle_type_id":"4","last_reported":1706389551,"current_range_meters":8400,"station_id":"ce4bgqh2rcd13ifvqc5g","pricing_plan_id":"free"},{"bike_id":"b83daeb9-a39c-4884-86e2-16a37c651f7f","system_id":"levelo_inurba_marseille","lat":43.320007,"lon":5.37625,"is_reserved":false,"is_disabled":false,"rental_uris":{"android":"levelo://app?vid=b83daeb9-a39c-4884-86e2-16a37c651f7f","ios":"levelo://app?vid=b83daeb9-a39c-4884-86e2-16a37c651f7f"},"vehicle_type_id":"4","last_reported":1706389551,"current_range_meters":9200,"station_id":"","pricing_plan_id":"free"},{"bike_id":"2b9973b9-e21f-458a-9e13-6cc909633bbf","system_id":"levelo_inurba_marseille","lat":43.31537,"lon":5.38034,"is_reserved":false,"is_disabled":false,"rental_uris":{"android":"levelo://app?vid=2b9973b9-e21f-458a-9e13-6cc909633bbf","ios":"levelo://app?vid=2b9973b9-e21f-458a-9e13-6cc909633bbf"},"vehicle_type_id":"4","last_reported":1706389551,"current_range_meters":400,"station_id":"ce4bhsp2rcd13ifvqi50","pricing_plan_id":"free"},{"bike_id":"f256c0b2-36ab-4ce0-bab1-f59755183e03","system_id":"levelo_inurba_marseille","lat":43.308012,"lon":5.381511,"is_reserved":false,"is_disabled":false,"rental_uris":{"android":"levelo://app?vid=f256c0b2-36ab-4ce0-bab1-f59755183e03","ios":"levelo://app?vid=f256c0b2-36ab-4ce0-bab1-f59755183e03"},"vehicle_type_id":"4","last_reported":1706389551,"current_range_meters":0,"station_id":"ce4bgt12rcd13ifvqce0","pricing_plan_id":"free"},{"bike_id":"7f9c6bd7-a1bd-4751-955f-bbdc78090dce","system_id":"levelo_inurba_marseille","lat":43.308103,"lon":5.381581,"is_reserved":false,"is_disabled":false,"rental_uris":{"android":"levelo://app?vid=7f9c6bd7-a1bd-4751-955f-bbdc78090dce","ios":"levelo://app?vid=7f9c6bd7-a1bd-4751-955f-bbdc78090dce"},"vehicle_type_id":"4","last_reported":1706389551,"current_range_meters":0,"station_id":"ce4bgt12rcd13ifvqce0","pricing_plan_id":"free"},{"bike_id":"ed6ddac7-660c-488e-a5cb-28d416d8e481","system_id":"levelo_inurba_marseille","lat":43.32474,"lon":5.36567,"is_reserved":false,"is_disabled":false,"rental_uris":{"android":"levelo://app?vid=ed6ddac7-660c-488e-a5cb-28d416d8e481","ios":"levelo://app?vid=ed6ddac7-660c-488e-a5cb-28d416d8e481"},"vehicle_type_id":"4","last_reported":1706389551,"current_range_meters":22000,"station_id":"ce4bhs12rcd13ifvqhvg","pricing_plan_id":"free"},{"bike_id":"1aa02228-2f1b-463e-8efd-48a87ba76624","system_id":"levelo_inurba_marseille","lat":43.324771,"lon":5.36557,"is_reserved":false,"is_disabled":false,"rental_uris":{"android":"levelo://app?vid=1aa02228-2f1b-463e-8efd-48a87ba76624","ios":"levelo://app?vid=1aa02228-2f1b-463e-8efd-48a87ba76624"},"vehicle_type_id":"4","last_reported":1706389551,"current_range_meters":6400,"station_id":"ce4bhs12rcd13ifvqhvg","pricing_plan_id":"free"},{"bike_id":"dc00bdf8-dc57-4b02-8d44-8ea4906debe3","system_id":"levelo_inurba_marseille","lat":43.324771,"lon":5.36557,"is_reserved":false,"is_disabled":false,"rental_uris":{"android":"levelo://app?vid=dc00bdf8-dc57-4b02-8d44-8ea4906debe3","ios":"levelo://app?vid=dc00bdf8-dc57-4b02-8d44-8ea4906debe3"},"vehicle_type_id":"4","last_reported":1706389551,"current_range_meters":8400,"station_id":"ce4bhs12rcd13ifvqhvg","pricing_plan_id":"free"},{"bike_id":"686d1336-6154-44a2-a815-74da2771d8d3","system_id":"levelo_inurba_marseille","lat":43.30274,"lon":5.37697,"is_reserved":false,"is_disabled":false,"rental_uris":{"android":"levelo://app?vid=686d1336-6154-44a2-a815-74da2771d8d3","ios":"levelo://app?vid=686d1336-6154-44a2-a815-74da2771d8d3"},"vehicle_type_id":"4","last_reported":1706389551,"current_range_meters":0,"station_id":"ce4bguh2rcd13ifvqcj0","pricing_plan_id":"free"},{"bike_id":"0a7e6cb7-a296-4427-9321-e25fb7e34e86","system_id":"levelo_inurba_marseille","lat":43.30268,"lon":5.37707,"is_reserved":false,"is_disabled":false,"rental_uris":{"android":"levelo://app?vid=0a7e6cb7-a296-4427-9321-e25fb7e34e86","ios":"levelo://app?vid=0a7e6cb7-a296-4427-9321-e25fb7e34e86"},"vehicle_type_id":"4","last_reported":1706389551,"current_range_meters":5200,"station_id":"ce4bguh2rcd13ifvqcj0","pricing_plan_id":"free"},{"bike_id":"ae7ab608-8fac-4c0d-9f43-8ffacb07a49d","system_id":"levelo_inurba_marseille","lat":43.319935,"lon":5.381699,"is_reserved":false,"is_disabled":false,"rental_uris":{"android":"levelo://app?vid=ae7ab608-8fac-4c0d-9f43-8ffacb07a49d","ios":"levelo://app?vid=ae7ab608-8fac-4c0d-9f43-8ffacb07a49d"},"vehicle_type_id":"4","last_reported":1706389551,"current_range_meters":400,"station_id":"ce4bhr12rcd13ifvqhpg","pricing_plan_id":"free"},{"bike_id":"16dde943-30de-448b-926b-37edf9320ed3","system_id":"levelo_inurba_marseille","lat":43.313571,"lon":5.384829,"is_reserved":false,"is_disabled":false,"rental_uris":{"android":"levelo://app?vid=16dde943-30de-448b-926b-37edf9320ed3","ios":"levelo://app?vid=16dde943-30de-448b-926b-37edf9320ed3"},"vehicle_type_id":"4","last_reported":1706389551,"current_range_meters":25200,"station_id":"ce4bgt92rcd13ifvqcf0","pricing_plan_id":"free"},{"bike_id":"a7f469c3-6d74-4848-bc37-17e95acb2eb3","system_id":"levelo_inurba_marseille","lat":43.31371,"lon":5.38487,"is_reserved":false,"is_disabled":false,"rental_uris":{"android":"levelo://app?vid=a7f469c3-6d74-4848-bc37-17e95acb2eb3","ios":"levelo://app?vid=a7f469c3-6d74-4848-bc37-17e95acb2eb3"},"vehicle_type_id":"4","last_reported":1706389551,"current_range_meters":0,"station_id":"ce4bgt92rcd13ifvqcf0","pricing_plan_id":"free"},{"bike_id":"b46a582b-59f6-4c16-95f8-833739571b36","system_id":"levelo_inurba_marseille","lat":43.299724,"lon":5.371829,"is_reserved":false,"is_disabled":false,"rental_uris":{"android":"levelo://app?vid=b46a582b-59f6-4c16-95f8-833739571b36","ios":"levelo://app?vid=b46a582b-59f6-4c16-95f8-833739571b36"},"vehicle_type_id":"4","last_reported":1706389551,"current_range_meters":14400,"station_id":"ce4bgr92rcd13ifvqc7g","pricing_plan_id":"free"},{"bike_id":"26991a63-71dd-4961-8072-2bb39e6a47cd","system_id":"levelo_inurba_marseille","lat":43.299724,"lon":5.371829,"is_reserved":false,"is_disabled":false,"rental_uris":{"android":"levelo://app?vid=26991a63-71dd-4961-8072-2bb39e6a47cd","ios":"levelo://app?vid=26991a63-71dd-4961-8072-2bb39e6a47cd"},"vehicle_type_id":"4","last_reported":1706389551,"current_range_meters":22000,"station_id":"ce4bgr92rcd13ifvqc7g","pricing_plan_id":"free"},{"bike_id":"aff3a1b2-9313-4c91-9585-ecd429027b87","system_id":"levelo_inurba_marseille","lat":43.299724,"lon":5.371829,"is_reserved":false,"is_disabled":false,"rental_uris":{"android":"levelo://app?vid=aff3a1b2-9313-4c91-9585-ecd429027b87","ios":"levelo://app?vid=aff3a1b2-9313-4c91-9585-ecd429027b87"},"vehicle_type_id":"4","last_reported":1706389551,"current_range_meters":24800,"station_id":"ce4bgr92rcd13ifvqc7g","pricing_plan_id":"free"},{"bike_id":"17e5e392-59cf-4830-aaa8-8e4e36b2d3db","system_id":"levelo_inurba_marseille","lat":43.29965,"lon":5.37172,"is_reserved":false,"is_disabled":false,"rental_uris":{"android":"levelo://app?vid=17e5e392-59cf-4830-aaa8-8e4e36b2d3db","ios":"levelo://app?vid=17e5e392-59cf-4830-aaa8-8e4e36b2d3db"},"vehicle_type_id":"4","last_reported":1706389551,"current_range_meters":0,"station_id":"ce4bgr92rcd13ifvqc7g","pricing_plan_id":"free"},{"bike_id":"ac4aca9c-ca4c-4538-9391-bbaa7ffab41d","system_id":"levelo_inurba_marseille","lat":43.305364,"lon":5.384119,"is_reserved":false,"is_disabled":false,"rental_uris":{"android":"levelo://app?vid=ac4aca9c-ca4c-4538-9391-bbaa7ffab41d","ios":"levelo://app?vid=ac4aca9c-ca4c-4538-9391-bbaa7ffab41d"},"vehicle_type_id":"4","last_reported":1706389551,"current_range_meters":0,"station_id":"ce4bgg92rcd13ifvqb30","pricing_plan_id":"free"},{"bike_id":"e075152c-7e91-4d7d-ae80-1cc267641e42","system_id":"levelo_inurba_marseille","lat":43.298433,"lon":5.362774,"is_reserved":false,"is_disabled":false,"rental_uris":{"android":"levelo://app?vid=e075152c-7e91-4d7d-ae80-1cc267641e42","ios":"levelo://app?vid=e075152c-7e91-4d7d-ae80-1cc267641e42"},"vehicle_type_id":"4","last_reported":1706389551,"current_range_meters":800,"station_id":"ce4bgpp2rcd13ifvqc3g","pricing_plan_id":"free"},{"bike_id":"c51314e2-fa19-4ab8-8007-b22aeb9cb5bd","system_id":"levelo_inurba_marseille","lat":43.298433,"lon":5.362774,"is_reserved":false,"is_disabled":false,"rental_uris":{"android":"levelo://app?vid=c51314e2-fa19-4ab8-8007-b22aeb9cb5bd","ios":"levelo://app?vid=c51314e2-fa19-4ab8-8007-b22aeb9cb5bd"},"vehicle_type_id":"4","last_reported":1706389551,"current_range_meters":2800,"station_id":"ce4bgpp2rcd13ifvqc3g","pricing_plan_id":"free"},{"bike_id":"f10fa397-31c1-4cf1-82f9-a240e6de7e26","system_id":"levelo_inurba_marseille","lat":43.30538,"lon":5.38429,"is_reserved":false,"is_disabled":false,"rental_uris":{"android":"levelo://app?vid=f10fa397-31c1-4cf1-82f9-a240e6de7e26","ios":"levelo://app?vid=f10fa397-31c1-4cf1-82f9-a240e6de7e26"},"vehicle_type_id":"4","last_reported":1706389551,"current_range_meters":0,"station_id":"ce4bgg92rcd13ifvqb30","pricing_plan_id":"free"},{"bike_id":"d6184ca0-8359-4b12-a3d3-7b72b5357555","system_id":"levelo_inurba_marseille","lat":43.299243,"lon":5.37481,"is_reserved":false,"is_disabled":false,"rental_uris":{"android":"levelo://app?vid=d6184ca0-8359-4b12-a3d3-7b72b5357555","ios":"levelo://app?vid=d6184ca0-8359-4b12-a3d3-7b72b5357555"},"vehicle_type_id":"4","last_reported":1706389551,"current_range_meters":23600,"station_id":"ce4bgjh2rcd13ifvqbg0","pricing_plan_id":"free"},{"bike_id":"8d0ff2d2-5b40-46d4-840b-7c94aaa5e528","system_id":"levelo_inurba_marseille","lat":43.311722,"lon":5.387247,"is_reserved":false,"is_disabled":false,"rental_uris":{"android":"levelo://app?vid=8d0ff2d2-5b40-46d4-840b-7c94aaa5e528","ios":"levelo://app?vid=8d0ff2d2-5b40-46d4-840b-7c94aaa5e528"},"vehicle_type_id":"4","last_reported":1706389551,"current_range_meters":8000,"station_id":"ce4bgv12rcd13ifvqcp0","pricing_plan_id":"free"},{"bike_id":"6de24dc7-379c-449a-89a5-10c6648f25b3","system_id":"levelo_inurba_marseille","lat":43.299243,"lon":5.374807,"is_reserved":false,"is_disabled":false,"rental_uris":{"android":"levelo://app?vid=6de24dc7-379c-449a-89a5-10c6648f25b3","ios":"levelo://app?vid=6de24dc7-379c-449a-89a5-10c6648f25b3"},"vehicle_type_id":"4","last_reported":1706389551,"current_range_meters":11600,"station_id":"ce4bgjh2rcd13ifvqbg0","pricing_plan_id":"free"},{"bike_id":"9dbedc0e-de93-49f0-9e8a-f31552902195","system_id":"levelo_inurba_marseille","lat":43.311722,"lon":5.387247,"is_reserved":false,"is_disabled":false,"rental_uris":{"android":"levelo://app?vid=9dbedc0e-de93-49f0-9e8a-f31552902195","ios":"levelo://app?vid=9dbedc0e-de93-49f0-9e8a-f31552902195"},"vehicle_type_id":"4","last_reported":1706389551,"current_range_meters":0,"station_id":"ce4bgv12rcd13ifvqcp0","pricing_plan_id":"free"},{"bike_id":"f333593b-a055-4773-b1bc-9da5ee05312e","system_id":"levelo_inurba_marseille","lat":43.322872,"lon":5.382756,"is_reserved":false,"is_disabled":false,"rental_uris":{"android":"levelo://app?vid=f333593b-a055-4773-b1bc-9da5ee05312e","ios":"levelo://app?vid=f333593b-a055-4773-b1bc-9da5ee05312e"},"vehicle_type_id":"4","last_reported":1706389551,"current_range_meters":30000,"station_id":"ce4bhr12rcd13ifvqhqg","pricing_plan_id":"free"},{"bike_id":"a3b74381-0d58-448f-9a1c-2f1261e3769d","system_id":"levelo_inurba_marseille","lat":43.322872,"lon":5.382756,"is_reserved":false,"is_disabled":false,"rental_uris":{"android":"levelo://app?vid=a3b74381-0d58-448f-9a1c-2f1261e3769d","ios":"levelo://app?vid=a3b74381-0d58-448f-9a1c-2f1261e3769d"},"vehicle_type_id":"4","last_reported":1706389551,"current_range_meters":31200,"station_id":"ce4bhr12rcd13ifvqhqg","pricing_plan_id":"free"},{"bike_id":"965a5dab-e227-4efc-b518-9780186a9de9","system_id":"levelo_inurba_marseille","lat":43.322872,"lon":5.382756,"is_reserved":false,"is_disabled":false,"rental_uris":{"android":"levelo://app?vid=965a5dab-e227-4efc-b518-9780186a9de9","ios":"levelo://app?vid=965a5dab-e227-4efc-b518-9780186a9de9"},"vehicle_type_id":"4","last_reported":1706389551,"current_range_meters":27600,"station_id":"ce4bhr12rcd13ifvqhqg","pricing_plan_id":"free"},{"bike_id":"ab98e573-92e3-4c87-b938-e8306447ae15","system_id":"levelo_inurba_marseille","lat":43.322872,"lon":5.382756,"is_reserved":false,"is_disabled":false,"rental_uris":{"android":"levelo://app?vid=ab98e573-92e3-4c87-b938-e8306447ae15","ios":"levelo://app?vid=ab98e573-92e3-4c87-b938-e8306447ae15"},"vehicle_type_id":"4","last_reported":1706389551,"current_range_meters":22400,"station_id":"ce4bhr12rcd13ifvqhqg","pricing_plan_id":"free"},{"bike_id":"5e98879a-df25-42d7-a72e-59c9369b5f46","system_id":"levelo_inurba_marseille","lat":43.32291,"lon":5.382669,"is_reserved":false,"is_disabled":false,"rental_uris":{"android":"levelo://app?vid=5e98879a-df25-42d7-a72e-59c9369b5f46","ios":"levelo://app?vid=5e98879a-df25-42d7-a72e-59c9369b5f46"},"vehicle_type_id":"4","last_reported":1706389551,"current_range_meters":30400,"station_id":"ce4bhr12rcd13ifvqhqg","pricing_plan_id":"free"},{"bike_id":"a49e851f-6aa0-407e-b67f-162ed9b21698","system_id":"levelo_inurba_marseille","lat":43.297163,"lon":5.365866,"is_reserved":false,"is_disabled":false,"rental_uris":{"android":"levelo://app?vid=a49e851f-6aa0-407e-b67f-162ed9b21698","ios":"levelo://app?vid=a49e851f-6aa0-407e-b67f-162ed9b21698"},"vehicle_type_id":"4","last_reported":1706389551,"current_range_meters":22000,"station_id":"ce4bgn12rcd13ifvqbt0","pricing_plan_id":"free"},{"bike_id":"12edd8fe-ac42-424b-86a0-ddbc64b4f114","system_id":"levelo_inurba_marseille","lat":43.328345,"lon":5.366936,"is_reserved":false,"is_disabled":false,"rental_uris":{"android":"levelo://app?vid=12edd8fe-ac42-424b-86a0-ddbc64b4f114","ios":"levelo://app?vid=12edd8fe-ac42-424b-86a0-ddbc64b4f114"},"vehicle_type_id":"4","last_reported":1706389551,"current_range_meters":16800,"station_id":"ce4bhs92rcd13ifvqi0g","pricing_plan_id":"free"},{"bike_id":"8e7174ec-d29f-47c6-bde8-e9809206730d","system_id":"levelo_inurba_marseille","lat":43.297163,"lon":5.365866,"is_reserved":false,"is_disabled":false,"rental_uris":{"android":"levelo://app?vid=8e7174ec-d29f-47c6-bde8-e9809206730d","ios":"levelo://app?vid=8e7174ec-d29f-47c6-bde8-e9809206730d"},"vehicle_type_id":"4","last_reported":1706389551,"current_range_meters":7200,"station_id":"ce4bgn12rcd13ifvqbt0","pricing_plan_id":"free"},{"bike_id":"c0578521-d866-423f-9407-a4ab371bc661","system_id":"levelo_inurba_marseille","lat":43.297163,"lon":5.365866,"is_reserved":false,"is_disabled":false,"rental_uris":{"android":"levelo://app?vid=c0578521-d866-423f-9407-a4ab371bc661","ios":"levelo://app?vid=c0578521-d866-423f-9407-a4ab371bc661"},"vehicle_type_id":"4","last_reported":1706389551,"current_range_meters":10400,"station_id":"ce4bgn12rcd13ifvqbt0","pricing_plan_id":"free"},{"bike_id":"419770a0-4a5f-4b49-a4bc-fe1f93efa0b5","system_id":"levelo_inurba_marseille","lat":43.295968,"lon":5.36792,"is_reserved":false,"is_disabled":false,"rental_uris":{"android":"levelo://app?vid=419770a0-4a5f-4b49-a4bc-fe1f93efa0b5","ios":"levelo://app?vid=419770a0-4a5f-4b49-a4bc-fe1f93efa0b5"},"vehicle_type_id":"4","last_reported":1706389551,"current_range_meters":0,"station_id":"","pricing_plan_id":"free"},{"bike_id":"31b9c425-12bd-48a6-927e-bb99ab0a25a5","system_id":"levelo_inurba_marseille","lat":43.309589,"lon":5.390258,"is_reserved":false,"is_disabled":false,"rental_uris":{"android":"levelo://app?vid=31b9c425-12bd-48a6-927e-bb99ab0a25a5","ios":"levelo://app?vid=31b9c425-12bd-48a6-927e-bb99ab0a25a5"},"vehicle_type_id":"4","last_reported":1706389551,"current_range_meters":5600,"station_id":"ce4bgup2rcd13ifvqco0","pricing_plan_id":"free"},{"bike_id":"42d2bf29-505d-474a-8182-eb16cc94b7b3","system_id":"levelo_inurba_marseille","lat":43.296935,"lon":5.376544,"is_reserved":false,"is_disabled":false,"rental_uris":{"android":"levelo://app?vid=42d2bf29-505d-474a-8182-eb16cc94b7b3","ios":"levelo://app?vid=42d2bf29-505d-474a-8182-eb16cc94b7b3"},"vehicle_type_id":"4","last_reported":1706389551,"current_range_meters":6000,"station_id":"ce4bgkh2rcd13ifvqbl0","pricing_plan_id":"free"},{"bike_id":"5849c8f1-de07-480c-ab10-c023b55280ba","system_id":"levelo_inurba_marseille","lat":43.322563,"lon":5.386867,"is_reserved":false,"is_disabled":false,"rental_uris":{"android":"levelo://app?vid=5849c8f1-de07-480c-ab10-c023b55280ba","ios":"levelo://app?vid=5849c8f1-de07-480c-ab10-c023b55280ba"},"vehicle_type_id":"4","last_reported":1706389551,"current_range_meters":800,"station_id":"","pricing_plan_id":"free"},{"bike_id":"003be8bb-e19b-4ce3-bebc-b9877864fa6b","system_id":"levelo_inurba_marseille","lat":43.317557,"lon":5.390173,"is_reserved":false,"is_disabled":false,"rental_uris":{"android":"levelo://app?vid=003be8bb-e19b-4ce3-bebc-b9877864fa6b","ios":"levelo://app?vid=003be8bb-e19b-4ce3-bebc-b9877864fa6b"},"vehicle_type_id":"4","last_reported":1706389551,"current_range_meters":23200,"station_id":"ce4bhqp2rcd13ifvqhng","pricing_plan_id":"free"},{"bike_id":"1843a16f-5926-4ba5-ab13-d972d3f50e10","system_id":"levelo_inurba_marseille","lat":43.317557,"lon":5.390173,"is_reserved":false,"is_disabled":false,"rental_uris":{"android":"levelo://app?vid=1843a16f-5926-4ba5-ab13-d972d3f50e10","ios":"levelo://app?vid=1843a16f-5926-4ba5-ab13-d972d3f50e10"},"vehicle_type_id":"4","last_reported":1706389551,"current_range_meters":0,"station_id":"ce4bhqp2rcd13ifvqhng","pricing_plan_id":"free"},{"bike_id":"c005807b-61e7-4c36-91eb-c8318085de90","system_id":"levelo_inurba_marseille","lat":43.295748,"lon":5.37522,"is_reserved":false,"is_disabled":false,"rental_uris":{"android":"levelo://app?vid=c005807b-61e7-4c36-91eb-c8318085de90","ios":"levelo://app?vid=c005807b-61e7-4c36-91eb-c8318085de90"},"vehicle_type_id":"4","last_reported":1706389551,"current_range_meters":16000,"station_id":"ce4bgh92rcd13ifvqb50","pricing_plan_id":"free"},{"bike_id":"70605af0-3b87-42a5-a951-4a63dddf52ee","system_id":"levelo_inurba_marseille","lat":43.29974,"lon":5.38485,"is_reserved":false,"is_disabled":false,"rental_uris":{"android":"levelo://app?vid=70605af0-3b87-42a5-a951-4a63dddf52ee","ios":"levelo://app?vid=70605af0-3b87-42a5-a951-4a63dddf52ee"},"vehicle_type_id":"4","last_reported":1706389551,"current_range_meters":0,"station_id":"ce4bgj92rcd13ifvqbd0","pricing_plan_id":"free"},{"bike_id":"faaaddf7-4ab0-4062-bd5a-afec93a27f67","system_id":"levelo_inurba_marseille","lat":43.299717,"lon":5.384845,"is_reserved":false,"is_disabled":false,"rental_uris":{"android":"levelo://app?vid=faaaddf7-4ab0-4062-bd5a-afec93a27f67","ios":"levelo://app?vid=faaaddf7-4ab0-4062-bd5a-afec93a27f67"},"vehicle_type_id":"4","last_reported":1706389551,"current_range_meters":9200,"station_id":"ce4bgj92rcd13ifvqbd0","pricing_plan_id":"free"},{"bike_id":"3802b87b-36fb-4991-944a-38232876a682","system_id":"levelo_inurba_marseille","lat":43.299707,"lon":5.384859,"is_reserved":false,"is_disabled":false,"rental_uris":{"android":"levelo://app?vid=3802b87b-36fb-4991-944a-38232876a682","ios":"levelo://app?vid=3802b87b-36fb-4991-944a-38232876a682"},"vehicle_type_id":"4","last_reported":1706389551,"current_range_meters":0,"station_id":"ce4bgj92rcd13ifvqbd0","pricing_plan_id":"free"},{"bike_id":"311f2bb5-da85-44fc-915b-153e21fa0c75","system_id":"levelo_inurba_marseille","lat":43.32367,"lon":5.388836,"is_reserved":false,"is_disabled":false,"rental_uris":{"android":"levelo://app?vid=311f2bb5-da85-44fc-915b-153e21fa0c75","ios":"levelo://app?vid=311f2bb5-da85-44fc-915b-153e21fa0c75"},"vehicle_type_id":"4","last_reported":1706389551,"current_range_meters":3200,"station_id":"ce4bhqp2rcd13ifvqhog","pricing_plan_id":"free"},{"bike_id":"e98c1561-21a0-441d-9954-5e91311044ba","system_id":"levelo_inurba_marseille","lat":43.32367,"lon":5.388836,"is_reserved":false,"is_disabled":false,"rental_uris":{"android":"levelo://app?vid=e98c1561-21a0-441d-9954-5e91311044ba","ios":"levelo://app?vid=e98c1561-21a0-441d-9954-5e91311044ba"},"vehicle_type_id":"4","last_reported":1706389551,"current_range_meters":0,"station_id":"ce4bhqp2rcd13ifvqhog","pricing_plan_id":"free"},{"bike_id":"36fdf3a9-6637-4abe-9106-b80fdb7b6025","system_id":"levelo_inurba_marseille","lat":43.32367,"lon":5.388836,"is_reserved":false,"is_disabled":false,"rental_uris":{"android":"levelo://app?vid=36fdf3a9-6637-4abe-9106-b80fdb7b6025","ios":"levelo://app?vid=36fdf3a9-6637-4abe-9106-b80fdb7b6025"},"vehicle_type_id":"4","last_reported":1706389551,"current_range_meters":16400,"station_id":"ce4bhqp2rcd13ifvqhog","pricing_plan_id":"free"},{"bike_id":"46249a89-a10e-4c37-9345-d82224fbacfb","system_id":"levelo_inurba_marseille","lat":43.29306,"lon":5.37174,"is_reserved":false,"is_disabled":false,"rental_uris":{"android":"levelo://app?vid=46249a89-a10e-4c37-9345-d82224fbacfb","ios":"levelo://app?vid=46249a89-a10e-4c37-9345-d82224fbacfb"},"vehicle_type_id":"4","last_reported":1706389551,"current_range_meters":14800,"station_id":"ce4bgh92rcd13ifvqb40","pricing_plan_id":"free"},{"bike_id":"c4e7c37f-c53a-47dc-8afc-a470ac87125d","system_id":"levelo_inurba_marseille","lat":43.29305,"lon":5.37173,"is_reserved":false,"is_disabled":false,"rental_uris":{"android":"levelo://app?vid=c4e7c37f-c53a-47dc-8afc-a470ac87125d","ios":"levelo://app?vid=c4e7c37f-c53a-47dc-8afc-a470ac87125d"},"vehicle_type_id":"4","last_reported":1706389551,"current_range_meters":0,"station_id":"ce4bgh92rcd13ifvqb40","pricing_plan_id":"free"},{"bike_id":"1bcb486c-90af-45fd-a0c3-ddf6f21f3b01","system_id":"levelo_inurba_marseille","lat":43.29271,"lon":5.36843,"is_reserved":false,"is_disabled":false,"rental_uris":{"android":"levelo://app?vid=1bcb486c-90af-45fd-a0c3-ddf6f21f3b01","ios":"levelo://app?vid=1bcb486c-90af-45fd-a0c3-ddf6f21f3b01"},"vehicle_type_id":"4","last_reported":1706389551,"current_range_meters":0,"station_id":"ce4bhbp2rcd13ifvqesg","pricing_plan_id":"free"},{"bike_id":"ae6aa349-8492-41d9-ab85-f47dc0855de0","system_id":"levelo_inurba_marseille","lat":43.29268,"lon":5.36851,"is_reserved":false,"is_disabled":false,"rental_uris":{"android":"levelo://app?vid=ae6aa349-8492-41d9-ab85-f47dc0855de0","ios":"levelo://app?vid=ae6aa349-8492-41d9-ab85-f47dc0855de0"},"vehicle_type_id":"4","last_reported":1706389551,"current_range_meters":0,"station_id":"ce4bhbp2rcd13ifvqesg","pricing_plan_id":"free"},{"bike_id":"25aa3a54-632b-4587-bc7d-41c24cb3374b","system_id":"levelo_inurba_marseille","lat":43.29301,"lon":5.37448,"is_reserved":false,"is_disabled":false,"rental_uris":{"android":"levelo://app?vid=25aa3a54-632b-4587-bc7d-41c24cb3374b","ios":"levelo://app?vid=25aa3a54-632b-4587-bc7d-41c24cb3374b"},"vehicle_type_id":"4","last_reported":1706389551,"current_range_meters":0,"station_id":"ce4bgi12rcd13ifvqb70","pricing_plan_id":"free"},{"bike_id":"9f1d5f02-5e69-4afb-9572-a4ac22ad15c3","system_id":"levelo_inurba_marseille","lat":43.29301,"lon":5.37455,"is_reserved":false,"is_disabled":false,"rental_uris":{"android":"levelo://app?vid=9f1d5f02-5e69-4afb-9572-a4ac22ad15c3","ios":"levelo://app?vid=9f1d5f02-5e69-4afb-9572-a4ac22ad15c3"},"vehicle_type_id":"4","last_reported":1706389551,"current_range_meters":0,"station_id":"ce4bgi12rcd13ifvqb70","pricing_plan_id":"free"},{"bike_id":"8e6557db-8e3e-4cd9-87c3-0a7e161cab7b","system_id":"levelo_inurba_marseille","lat":43.306006,"lon":5.393555,"is_reserved":false,"is_disabled":false,"rental_uris":{"android":"levelo://app?vid=8e6557db-8e3e-4cd9-87c3-0a7e161cab7b","ios":"levelo://app?vid=8e6557db-8e3e-4cd9-87c3-0a7e161cab7b"},"vehicle_type_id":"4","last_reported":1706389551,"current_range_meters":0,"station_id":"ce4bh0p2rcd13ifvqd80","pricing_plan_id":"free"},{"bike_id":"621e787a-a8ac-4700-ac44-4e84dcdb4015","system_id":"levelo_inurba_marseille","lat":43.293009,"lon":5.374584,"is_reserved":false,"is_disabled":false,"rental_uris":{"android":"levelo://app?vid=621e787a-a8ac-4700-ac44-4e84dcdb4015","ios":"levelo://app?vid=621e787a-a8ac-4700-ac44-4e84dcdb4015"},"vehicle_type_id":"4","last_reported":1706389551,"current_range_meters":14400,"station_id":"ce4bgi12rcd13ifvqb70","pricing_plan_id":"free"},{"bike_id":"b3c66b14-f67b-4a0d-907d-009d2202c68a","system_id":"levelo_inurba_marseille","lat":43.305994,"lon":5.393687,"is_reserved":false,"is_disabled":false,"rental_uris":{"android":"levelo://app?vid=b3c66b14-f67b-4a0d-907d-009d2202c68a","ios":"levelo://app?vid=b3c66b14-f67b-4a0d-907d-009d2202c68a"},"vehicle_type_id":"4","last_reported":1706389551,"current_range_meters":1200,"station_id":"ce4bh0p2rcd13ifvqd80","pricing_plan_id":"free"},{"bike_id":"91b6ce03-8d50-4ff9-ab43-eb203913956f","system_id":"levelo_inurba_marseille","lat":43.309038,"lon":5.396546,"is_reserved":false,"is_disabled":false,"rental_uris":{"android":"levelo://app?vid=91b6ce03-8d50-4ff9-ab43-eb203913956f","ios":"levelo://app?vid=91b6ce03-8d50-4ff9-ab43-eb203913956f"},"vehicle_type_id":"4","last_reported":1706389551,"current_range_meters":11200,"station_id":"ce4bh012rcd13ifvqcv0","pricing_plan_id":"free"},{"bike_id":"9fe98a6d-524c-40c3-912a-d3188d9b5626","system_id":"levelo_inurba_marseille","lat":43.29529,"lon":5.385581,"is_reserved":false,"is_disabled":false,"rental_uris":{"android":"levelo://app?vid=9fe98a6d-524c-40c3-912a-d3188d9b5626","ios":"levelo://app?vid=9fe98a6d-524c-40c3-912a-d3188d9b5626"},"vehicle_type_id":"4","last_reported":1706389551,"current_range_meters":5200,"station_id":"ce4bgih2rcd13ifvqba0","pricing_plan_id":"free"},{"bike_id":"91aaf35a-cc21-472e-967d-5d8415f42af2","system_id":"levelo_inurba_marseille","lat":43.29529,"lon":5.385581,"is_reserved":false,"is_disabled":false,"rental_uris":{"android":"levelo://app?vid=91aaf35a-cc21-472e-967d-5d8415f42af2","ios":"levelo://app?vid=91aaf35a-cc21-472e-967d-5d8415f42af2"},"vehicle_type_id":"4","last_reported":1706389551,"current_range_meters":17600,"station_id":"ce4bgih2rcd13ifvqba0","pricing_plan_id":"free"},{"bike_id":"47182dbb-418f-42f4-9cdb-1a458760aba0","system_id":"levelo_inurba_marseille","lat":43.29529,"lon":5.385581,"is_reserved":false,"is_disabled":false,"rental_uris":{"android":"levelo://app?vid=47182dbb-418f-42f4-9cdb-1a458760aba0","ios":"levelo://app?vid=47182dbb-418f-42f4-9cdb-1a458760aba0"},"vehicle_type_id":"4","last_reported":1706389551,"current_range_meters":22000,"station_id":"ce4bgih2rcd13ifvqba0","pricing_plan_id":"free"},{"bike_id":"147df5a7-5381-4ee6-849d-e7d78bffa282","system_id":"levelo_inurba_marseille","lat":43.301495,"lon":5.392908,"is_reserved":false,"is_disabled":false,"rental_uris":{"android":"levelo://app?vid=147df5a7-5381-4ee6-849d-e7d78bffa282","ios":"levelo://app?vid=147df5a7-5381-4ee6-849d-e7d78bffa282"},"vehicle_type_id":"4","last_reported":1706389551,"current_range_meters":0,"station_id":"","pricing_plan_id":"free"},{"bike_id":"d1ad6d4c-80b4-4ccc-873e-be116dfcb95e","system_id":"levelo_inurba_marseille","lat":43.29529,"lon":5.385581,"is_reserved":false,"is_disabled":false,"rental_uris":{"android":"levelo://app?vid=d1ad6d4c-80b4-4ccc-873e-be116dfcb95e","ios":"levelo://app?vid=d1ad6d4c-80b4-4ccc-873e-be116dfcb95e"},"vehicle_type_id":"4","last_reported":1706389551,"current_range_meters":22000,"station_id":"ce4bgih2rcd13ifvqba0","pricing_plan_id":"free"},{"bike_id":"35a5a8f9-cff3-4876-955f-37d30e34a46e","system_id":"levelo_inurba_marseille","lat":43.295294,"lon":5.385473,"is_reserved":false,"is_disabled":false,"rental_uris":{"android":"levelo://app?vid=35a5a8f9-cff3-4876-955f-37d30e34a46e","ios":"levelo://app?vid=35a5a8f9-cff3-4876-955f-37d30e34a46e"},"vehicle_type_id":"4","last_reported":1706389551,"current_range_meters":0,"station_id":"ce4bgih2rcd13ifvqba0","pricing_plan_id":"free"},{"bike_id":"3a203e11-1325-4b78-87c4-a71522e4fe55","system_id":"levelo_inurba_marseille","lat":43.29529,"lon":5.385581,"is_reserved":false,"is_disabled":false,"rental_uris":{"android":"levelo://app?vid=3a203e11-1325-4b78-87c4-a71522e4fe55","ios":"levelo://app?vid=3a203e11-1325-4b78-87c4-a71522e4fe55"},"vehicle_type_id":"4","last_reported":1706389551,"current_range_meters":6400,"station_id":"ce4bgih2rcd13ifvqba0","pricing_plan_id":"free"},{"bike_id":"9d7cf6bf-c35e-43bb-a7f9-23ca2d740dee","system_id":"levelo_inurba_marseille","lat":43.302008,"lon":5.394694,"is_reserved":false,"is_disabled":false,"rental_uris":{"android":"levelo://app?vid=9d7cf6bf-c35e-43bb-a7f9-23ca2d740dee","ios":"levelo://app?vid=9d7cf6bf-c35e-43bb-a7f9-23ca2d740dee"},"vehicle_type_id":"4","last_reported":1706389551,"current_range_meters":23600,"station_id":"ce4bh0p2rcd13ifvqd70","pricing_plan_id":"free"},{"bike_id":"7a88baef-7765-4d21-b7a4-d18b783baf9d","system_id":"levelo_inurba_marseille","lat":43.302008,"lon":5.394694,"is_reserved":false,"is_disabled":false,"rental_uris":{"android":"levelo://app?vid=7a88baef-7765-4d21-b7a4-d18b783baf9d","ios":"levelo://app?vid=7a88baef-7765-4d21-b7a4-d18b783baf9d"},"vehicle_type_id":"4","last_reported":1706389551,"current_range_meters":0,"station_id":"ce4bh0p2rcd13ifvqd70","pricing_plan_id":"free"},{"bike_id":"a7d85f0f-61ee-4761-a65e-c26e4b7cb4e7","system_id":"levelo_inurba_marseille","lat":43.290441,"lon":5.359123,"is_reserved":false,"is_disabled":false,"rental_uris":{"android":"levelo://app?vid=a7d85f0f-61ee-4761-a65e-c26e4b7cb4e7","ios":"levelo://app?vid=a7d85f0f-61ee-4761-a65e-c26e4b7cb4e7"},"vehicle_type_id":"4","last_reported":1706389551,"current_range_meters":28000,"station_id":"","pricing_plan_id":"free"},{"bike_id":"3a0241c0-b48a-41d2-9648-6d4ab85a15c4","system_id":"levelo_inurba_marseille","lat":43.294153,"lon":5.386305,"is_reserved":false,"is_disabled":false,"rental_uris":{"android":"levelo://app?vid=3a0241c0-b48a-41d2-9648-6d4ab85a15c4","ios":"levelo://app?vid=3a0241c0-b48a-41d2-9648-6d4ab85a15c4"},"vehicle_type_id":"4","last_reported":1706389551,"current_range_meters":18000,"station_id":"ce4bh2h2rcd13ifvqdh0","pricing_plan_id":"free"},{"bike_id":"c8565d01-a88a-4d41-9d70-1f8945c64159","system_id":"levelo_inurba_marseille","lat":43.294153,"lon":5.386305,"is_reserved":false,"is_disabled":false,"rental_uris":{"android":"levelo://app?vid=c8565d01-a88a-4d41-9d70-1f8945c64159","ios":"levelo://app?vid=c8565d01-a88a-4d41-9d70-1f8945c64159"},"vehicle_type_id":"4","last_reported":1706389551,"current_range_meters":400,"station_id":"ce4bh2h2rcd13ifvqdh0","pricing_plan_id":"free"},{"bike_id":"3661d287-6810-42a6-937e-fa80876a9493","system_id":"levelo_inurba_marseille","lat":43.2898,"lon":5.37178,"is_reserved":false,"is_disabled":false,"rental_uris":{"android":"levelo://app?vid=3661d287-6810-42a6-937e-fa80876a9493","ios":"levelo://app?vid=3661d287-6810-42a6-937e-fa80876a9493"},"vehicle_type_id":"4","last_reported":1706389551,"current_range_meters":0,"station_id":"","pricing_plan_id":"free"},{"bike_id":"34352741-92b6-46cb-a96b-05c6fbd86707","system_id":"levelo_inurba_marseille","lat":43.294153,"lon":5.386305,"is_reserved":false,"is_disabled":false,"rental_uris":{"android":"levelo://app?vid=34352741-92b6-46cb-a96b-05c6fbd86707","ios":"levelo://app?vid=34352741-92b6-46cb-a96b-05c6fbd86707"},"vehicle_type_id":"4","last_reported":1706389551,"current_range_meters":0,"station_id":"ce4bh2h2rcd13ifvqdh0","pricing_plan_id":"free"},{"bike_id":"0252f5d7-4f30-4af8-b3b9-a40854b2a88b","system_id":"levelo_inurba_marseille","lat":43.29423,"lon":5.38625,"is_reserved":false,"is_disabled":false,"rental_uris":{"android":"levelo://app?vid=0252f5d7-4f30-4af8-b3b9-a40854b2a88b","ios":"levelo://app?vid=0252f5d7-4f30-4af8-b3b9-a40854b2a88b"},"vehicle_type_id":"4","last_reported":1706389551,"current_range_meters":0,"station_id":"ce4bh2h2rcd13ifvqdh0","pricing_plan_id":"free"},{"bike_id":"b9436fc9-664b-4597-8d2e-ca5a564837e6","system_id":"levelo_inurba_marseille","lat":43.29416,"lon":5.38635,"is_reserved":false,"is_disabled":false,"rental_uris":{"android":"levelo://app?vid=b9436fc9-664b-4597-8d2e-ca5a564837e6","ios":"levelo://app?vid=b9436fc9-664b-4597-8d2e-ca5a564837e6"},"vehicle_type_id":"4","last_reported":1706389551,"current_range_meters":0,"station_id":"ce4bh2h2rcd13ifvqdh0","pricing_plan_id":"free"},{"bike_id":"781cbc6b-fdaa-4c2b-bfde-3b1a3dfd4045","system_id":"levelo_inurba_marseille","lat":43.29402,"lon":5.386593,"is_reserved":false,"is_disabled":false,"rental_uris":{"android":"levelo://app?vid=781cbc6b-fdaa-4c2b-bfde-3b1a3dfd4045","ios":"levelo://app?vid=781cbc6b-fdaa-4c2b-bfde-3b1a3dfd4045"},"vehicle_type_id":"4","last_reported":1706389551,"current_range_meters":22800,"station_id":"ce4bh2h2rcd13ifvqdh0","pricing_plan_id":"free"},{"bike_id":"41772e7a-9baa-42cd-8354-92c1640fe8b8","system_id":"levelo_inurba_marseille","lat":43.292718,"lon":5.384396,"is_reserved":false,"is_disabled":false,"rental_uris":{"android":"levelo://app?vid=41772e7a-9baa-42cd-8354-92c1640fe8b8","ios":"levelo://app?vid=41772e7a-9baa-42cd-8354-92c1640fe8b8"},"vehicle_type_id":"4","last_reported":1706389551,"current_range_meters":0,"station_id":"ce4bh692rcd13ifvqea0","pricing_plan_id":"free"},{"bike_id":"16a15b54-0e91-4aba-a891-dcebeda320c9","system_id":"levelo_inurba_marseille","lat":43.304296,"lon":5.397513,"is_reserved":false,"is_disabled":false,"rental_uris":{"android":"levelo://app?vid=16a15b54-0e91-4aba-a891-dcebeda320c9","ios":"levelo://app?vid=16a15b54-0e91-4aba-a891-dcebeda320c9"},"vehicle_type_id":"4","last_reported":1706389551,"current_range_meters":2400,"station_id":"ce4bh092rcd13ifvqd20","pricing_plan_id":"free"},{"bike_id":"eaba0230-97b4-4bf4-a22f-856e0c9c0e8c","system_id":"levelo_inurba_marseille","lat":43.295169,"lon":5.390426,"is_reserved":false,"is_disabled":false,"rental_uris":{"android":"levelo://app?vid=eaba0230-97b4-4bf4-a22f-856e0c9c0e8c","ios":"levelo://app?vid=eaba0230-97b4-4bf4-a22f-856e0c9c0e8c"},"vehicle_type_id":"4","last_reported":1706389551,"current_range_meters":0,"station_id":"ce4bh3p2rcd13ifvqdp0","pricing_plan_id":"free"},{"bike_id":"dbddf17b-f217-4a18-b2b8-a8d63e416f42","system_id":"levelo_inurba_marseille","lat":43.29789,"lon":5.39339,"is_reserved":false,"is_disabled":false,"rental_uris":{"android":"levelo://app?vid=dbddf17b-f217-4a18-b2b8-a8d63e416f42","ios":"levelo://app?vid=dbddf17b-f217-4a18-b2b8-a8d63e416f42"},"vehicle_type_id":"4","last_reported":1706389551,"current_range_meters":5200,"station_id":"chh1huq6cuj3fo74tm60","pricing_plan_id":"free"},{"bike_id":"342af207-fe36-4b30-8624-da2d5a2d0679","system_id":"levelo_inurba_marseille","lat":43.28987,"lon":5.37831,"is_reserved":false,"is_disabled":false,"rental_uris":{"android":"levelo://app?vid=342af207-fe36-4b30-8624-da2d5a2d0679","ios":"levelo://app?vid=342af207-fe36-4b30-8624-da2d5a2d0679"},"vehicle_type_id":"4","last_reported":1706389551,"current_range_meters":0,"station_id":"ce4bh9p2rcd13ifvqed0","pricing_plan_id":"free"},{"bike_id":"0c19d4db-5478-427e-9224-b50bf63972a9","system_id":"levelo_inurba_marseille","lat":43.295169,"lon":5.390426,"is_reserved":false,"is_disabled":false,"rental_uris":{"android":"levelo://app?vid=0c19d4db-5478-427e-9224-b50bf63972a9","ios":"levelo://app?vid=0c19d4db-5478-427e-9224-b50bf63972a9"},"vehicle_type_id":"4","last_reported":1706389551,"current_range_meters":4800,"station_id":"ce4bh3p2rcd13ifvqdp0","pricing_plan_id":"free"},{"bike_id":"adbc09a9-1e33-4e85-bc43-6018b71f3ef0","system_id":"levelo_inurba_marseille","lat":43.289741,"lon":5.378306,"is_reserved":false,"is_disabled":false,"rental_uris":{"android":"levelo://app?vid=adbc09a9-1e33-4e85-bc43-6018b71f3ef0","ios":"levelo://app?vid=adbc09a9-1e33-4e85-bc43-6018b71f3ef0"},"vehicle_type_id":"4","last_reported":1706389551,"current_range_meters":6000,"station_id":"ce4bh9p2rcd13ifvqed0","pricing_plan_id":"free"},{"bike_id":"e9ea9178-06c4-439f-bcde-0989d93b5e8b","system_id":"levelo_inurba_marseille","lat":43.295169,"lon":5.390426,"is_reserved":false,"is_disabled":false,"rental_uris":{"android":"levelo://app?vid=e9ea9178-06c4-439f-bcde-0989d93b5e8b","ios":"levelo://app?vid=e9ea9178-06c4-439f-bcde-0989d93b5e8b"},"vehicle_type_id":"4","last_reported":1706389551,"current_range_meters":9200,"station_id":"ce4bh3p2rcd13ifvqdp0","pricing_plan_id":"free"},{"bike_id":"268eb07f-0294-468c-985d-22b6c63a219e","system_id":"levelo_inurba_marseille","lat":43.295169,"lon":5.390426,"is_reserved":false,"is_disabled":false,"rental_uris":{"android":"levelo://app?vid=268eb07f-0294-468c-985d-22b6c63a219e","ios":"levelo://app?vid=268eb07f-0294-468c-985d-22b6c63a219e"},"vehicle_type_id":"4","last_reported":1706389551,"current_range_meters":21200,"station_id":"ce4bh3p2rcd13ifvqdp0","pricing_plan_id":"free"},{"bike_id":"8b30194f-78cb-41a2-bf00-142e2b6fe6cd","system_id":"levelo_inurba_marseille","lat":43.290094,"lon":5.381264,"is_reserved":false,"is_disabled":false,"rental_uris":{"android":"levelo://app?vid=8b30194f-78cb-41a2-bf00-142e2b6fe6cd","ios":"levelo://app?vid=8b30194f-78cb-41a2-bf00-142e2b6fe6cd"},"vehicle_type_id":"4","last_reported":1706389551,"current_range_meters":10000,"station_id":"ce4bh4p2rcd13ifvqe1g","pricing_plan_id":"free"},{"bike_id":"af36ca8a-255e-4543-9415-66520e3c304b","system_id":"levelo_inurba_marseille","lat":43.309371,"lon":5.401449,"is_reserved":false,"is_disabled":false,"rental_uris":{"android":"levelo://app?vid=af36ca8a-255e-4543-9415-66520e3c304b","ios":"levelo://app?vid=af36ca8a-255e-4543-9415-66520e3c304b"},"vehicle_type_id":"4","last_reported":1706389551,"current_range_meters":11200,"station_id":"ce4bgvp2rcd13ifvqct0","pricing_plan_id":"free"},{"bike_id":"a563cdbf-78b8-441c-8dce-8da1c3325b92","system_id":"levelo_inurba_marseille","lat":43.33749,"lon":5.37463,"is_reserved":false,"is_disabled":false,"rental_uris":{"android":"levelo://app?vid=a563cdbf-78b8-441c-8dce-8da1c3325b92","ios":"levelo://app?vid=a563cdbf-78b8-441c-8dce-8da1c3325b92"},"vehicle_type_id":"4","last_reported":1706389551,"current_range_meters":16800,"station_id":"","pricing_plan_id":"free"},{"bike_id":"02cc1ce4-717f-4b60-a8ae-e32a4e8fb56c","system_id":"levelo_inurba_marseille","lat":43.33754,"lon":5.37496,"is_reserved":false,"is_disabled":false,"rental_uris":{"android":"levelo://app?vid=02cc1ce4-717f-4b60-a8ae-e32a4e8fb56c","ios":"levelo://app?vid=02cc1ce4-717f-4b60-a8ae-e32a4e8fb56c"},"vehicle_type_id":"4","last_reported":1706389551,"current_range_meters":10800,"station_id":"","pricing_plan_id":"free"},{"bike_id":"b7f12eab-e0a6-499e-87ec-2b4381c4602a","system_id":"levelo_inurba_marseille","lat":43.337578,"lon":5.374924,"is_reserved":false,"is_disabled":false,"rental_uris":{"android":"levelo://app?vid=b7f12eab-e0a6-499e-87ec-2b4381c4602a","ios":"levelo://app?vid=b7f12eab-e0a6-499e-87ec-2b4381c4602a"},"vehicle_type_id":"4","last_reported":1706389551,"current_range_meters":22800,"station_id":"","pricing_plan_id":"free"},{"bike_id":"a9554a78-0f9d-4cdd-9ecd-598bb2d54931","system_id":"levelo_inurba_marseille","lat":43.337595,"lon":5.374844,"is_reserved":false,"is_disabled":false,"rental_uris":{"android":"levelo://app?vid=a9554a78-0f9d-4cdd-9ecd-598bb2d54931","ios":"levelo://app?vid=a9554a78-0f9d-4cdd-9ecd-598bb2d54931"},"vehicle_type_id":"4","last_reported":1706389551,"current_range_meters":30400,"station_id":"","pricing_plan_id":"free"},{"bike_id":"b7d3b81d-d85a-44b5-a0c7-8f9c9f74639e","system_id":"levelo_inurba_marseille","lat":43.33765,"lon":5.374672,"is_reserved":false,"is_disabled":false,"rental_uris":{"android":"levelo://app?vid=b7d3b81d-d85a-44b5-a0c7-8f9c9f74639e","ios":"levelo://app?vid=b7d3b81d-d85a-44b5-a0c7-8f9c9f74639e"},"vehicle_type_id":"4","last_reported":1706389551,"current_range_meters":29600,"station_id":"","pricing_plan_id":"free"},{"bike_id":"1facbbf3-baac-42f8-85eb-cb1e36f3e4b9","system_id":"levelo_inurba_marseille","lat":43.33763,"lon":5.37486,"is_reserved":false,"is_disabled":false,"rental_uris":{"android":"levelo://app?vid=1facbbf3-baac-42f8-85eb-cb1e36f3e4b9","ios":"levelo://app?vid=1facbbf3-baac-42f8-85eb-cb1e36f3e4b9"},"vehicle_type_id":"4","last_reported":1706389551,"current_range_meters":17600,"station_id":"","pricing_plan_id":"free"},{"bike_id":"bd7c49e0-243f-4049-bc25-2de8f060bb29","system_id":"levelo_inurba_marseille","lat":43.33764,"lon":5.37489,"is_reserved":false,"is_disabled":false,"rental_uris":{"android":"levelo://app?vid=bd7c49e0-243f-4049-bc25-2de8f060bb29","ios":"levelo://app?vid=bd7c49e0-243f-4049-bc25-2de8f060bb29"},"vehicle_type_id":"4","last_reported":1706389551,"current_range_meters":23200,"station_id":"","pricing_plan_id":"free"},{"bike_id":"eaeff2f9-be33-4cbc-b315-c230be10dd9b","system_id":"levelo_inurba_marseille","lat":43.33766,"lon":5.37495,"is_reserved":false,"is_disabled":false,"rental_uris":{"android":"levelo://app?vid=eaeff2f9-be33-4cbc-b315-c230be10dd9b","ios":"levelo://app?vid=eaeff2f9-be33-4cbc-b315-c230be10dd9b"},"vehicle_type_id":"4","last_reported":1706389551,"current_range_meters":8400,"station_id":"","pricing_plan_id":"free"},{"bike_id":"08e018e6-f212-4f99-9d7b-119b1ecb9bfc","system_id":"levelo_inurba_marseille","lat":43.301117,"lon":5.398795,"is_reserved":false,"is_disabled":false,"rental_uris":{"android":"levelo://app?vid=08e018e6-f212-4f99-9d7b-119b1ecb9bfc","ios":"levelo://app?vid=08e018e6-f212-4f99-9d7b-119b1ecb9bfc"},"vehicle_type_id":"4","last_reported":1706389551,"current_range_meters":3200,"station_id":"ce4bh0h2rcd13ifvqd40","pricing_plan_id":"free"},{"bike_id":"2732745e-7ad1-44ef-a813-8d11af25407e","system_id":"levelo_inurba_marseille","lat":43.301117,"lon":5.398795,"is_reserved":false,"is_disabled":false,"rental_uris":{"android":"levelo://app?vid=2732745e-7ad1-44ef-a813-8d11af25407e","ios":"levelo://app?vid=2732745e-7ad1-44ef-a813-8d11af25407e"},"vehicle_type_id":"4","last_reported":1706389551,"current_range_meters":6800,"station_id":"ce4bh0h2rcd13ifvqd40","pricing_plan_id":"free"},{"bike_id":"2fe24097-b1c2-4583-ba1f-cf8501171a4c","system_id":"levelo_inurba_marseille","lat":43.337676,"lon":5.377798,"is_reserved":false,"is_disabled":false,"rental_uris":{"android":"levelo://app?vid=2fe24097-b1c2-4583-ba1f-cf8501171a4c","ios":"levelo://app?vid=2fe24097-b1c2-4583-ba1f-cf8501171a4c"},"vehicle_type_id":"4","last_reported":1706389551,"current_range_meters":14800,"station_id":"","pricing_plan_id":"free"},{"bike_id":"7cdf7104-5a33-4e06-a795-e6aa86f77f29","system_id":"levelo_inurba_marseille","lat":43.290274,"lon":5.386391,"is_reserved":false,"is_disabled":false,"rental_uris":{"android":"levelo://app?vid=7cdf7104-5a33-4e06-a795-e6aa86f77f29","ios":"levelo://app?vid=7cdf7104-5a33-4e06-a795-e6aa86f77f29"},"vehicle_type_id":"4","last_reported":1706389551,"current_range_meters":0,"station_id":"ce4bh4p2rcd13ifvqe0g","pricing_plan_id":"free"},{"bike_id":"f9c7d467-a118-4821-a99e-6af025b373dd","system_id":"levelo_inurba_marseille","lat":43.302759,"lon":5.400793,"is_reserved":false,"is_disabled":false,"rental_uris":{"android":"levelo://app?vid=f9c7d467-a118-4821-a99e-6af025b373dd","ios":"levelo://app?vid=f9c7d467-a118-4821-a99e-6af025b373dd"},"vehicle_type_id":"4","last_reported":1706389551,"current_range_meters":1600,"station_id":"ce4bgvh2rcd13ifvqcs0","pricing_plan_id":"free"},{"bike_id":"cb419dc8-49a4-4b16-8ab7-d07a55d883c4","system_id":"levelo_inurba_marseille","lat":43.290336,"lon":5.386425,"is_reserved":false,"is_disabled":false,"rental_uris":{"android":"levelo://app?vid=cb419dc8-49a4-4b16-8ab7-d07a55d883c4","ios":"levelo://app?vid=cb419dc8-49a4-4b16-8ab7-d07a55d883c4"},"vehicle_type_id":"4","last_reported":1706389551,"current_range_meters":0,"station_id":"ce4bh4p2rcd13ifvqe0g","pricing_plan_id":"free"},{"bike_id":"183bb1c1-398f-466c-b05d-327ac4efc436","system_id":"levelo_inurba_marseille","lat":43.302511,"lon":5.400653,"is_reserved":false,"is_disabled":false,"rental_uris":{"android":"levelo://app?vid=183bb1c1-398f-466c-b05d-327ac4efc436","ios":"levelo://app?vid=183bb1c1-398f-466c-b05d-327ac4efc436"},"vehicle_type_id":"4","last_reported":1706389551,"current_range_meters":13600,"station_id":"ce4bgth2rcd13ifvqch0","pricing_plan_id":"free"},{"bike_id":"285c6f92-9402-4605-b497-fc24d4b1f364","system_id":"levelo_inurba_marseille","lat":43.28922,"lon":5.38397,"is_reserved":false,"is_disabled":false,"rental_uris":{"android":"levelo://app?vid=285c6f92-9402-4605-b497-fc24d4b1f364","ios":"levelo://app?vid=285c6f92-9402-4605-b497-fc24d4b1f364"},"vehicle_type_id":"4","last_reported":1706389551,"current_range_meters":0,"station_id":"ce4bh612rcd13ifvqe6g","pricing_plan_id":"free"},{"bike_id":"1b1f88f4-df68-4def-ac35-d4f7f6c8c955","system_id":"levelo_inurba_marseille","lat":43.29023,"lon":5.38657,"is_reserved":false,"is_disabled":false,"rental_uris":{"android":"levelo://app?vid=1b1f88f4-df68-4def-ac35-d4f7f6c8c955","ios":"levelo://app?vid=1b1f88f4-df68-4def-ac35-d4f7f6c8c955"},"vehicle_type_id":"4","last_reported":1706389551,"current_range_meters":0,"station_id":"ce4bh4p2rcd13ifvqe0g","pricing_plan_id":"free"},{"bike_id":"87a456f6-1729-4a98-b28b-b04e1f57da06","system_id":"levelo_inurba_marseille","lat":43.293009,"lon":5.374584,"is_reserved":false,"is_disabled":false,"rental_uris":{"android":"levelo://app?vid=87a456f6-1729-4a98-b28b-b04e1f57da06","ios":"levelo://app?vid=87a456f6-1729-4a98-b28b-b04e1f57da06"},"vehicle_type_id":"4","last_reported":1706389551,"current_range_meters":11600,"station_id":"ce4bgi12rcd13ifvqb70","pricing_plan_id":"free"},{"bike_id":"3f902acc-107e-4c90-a395-45f9b66de96c","system_id":"levelo_inurba_marseille","lat":43.31683,"lon":5.40467,"is_reserved":false,"is_disabled":false,"rental_uris":{"android":"levelo://app?vid=3f902acc-107e-4c90-a395-45f9b66de96c","ios":"levelo://app?vid=3f902acc-107e-4c90-a395-45f9b66de96c"},"vehicle_type_id":"4","last_reported":1706389551,"current_range_meters":17600,"station_id":"ce4bh012rcd13ifvqd00","pricing_plan_id":"free"},{"bike_id":"bfc88bf9-ee52-4c14-b80e-38bed4398db3","system_id":"levelo_inurba_marseille","lat":43.29197,"lon":5.39301,"is_reserved":false,"is_disabled":false,"rental_uris":{"android":"levelo://app?vid=bfc88bf9-ee52-4c14-b80e-38bed4398db3","ios":"levelo://app?vid=bfc88bf9-ee52-4c14-b80e-38bed4398db3"},"vehicle_type_id":"4","last_reported":1706389551,"current_range_meters":16400,"station_id":"ce4bh192rcd13ifvqdd0","pricing_plan_id":"free"},{"bike_id":"c8c1c79c-4794-4fab-8b1a-fa36d90d783f","system_id":"levelo_inurba_marseille","lat":43.291994,"lon":5.392907,"is_reserved":false,"is_disabled":false,"rental_uris":{"android":"levelo://app?vid=c8c1c79c-4794-4fab-8b1a-fa36d90d783f","ios":"levelo://app?vid=c8c1c79c-4794-4fab-8b1a-fa36d90d783f"},"vehicle_type_id":"4","last_reported":1706389551,"current_range_meters":9600,"station_id":"ce4bh192rcd13ifvqdd0","pricing_plan_id":"free"},{"bike_id":"a8003b15-3713-4655-a4eb-e2e6ca8b33cf","system_id":"levelo_inurba_marseille","lat":43.284538,"lon":5.358657,"is_reserved":false,"is_disabled":false,"rental_uris":{"android":"levelo://app?vid=a8003b15-3713-4655-a4eb-e2e6ca8b33cf","ios":"levelo://app?vid=a8003b15-3713-4655-a4eb-e2e6ca8b33cf"},"vehicle_type_id":"4","last_reported":1706389551,"current_range_meters":0,"station_id":"ce4bhah2rcd13ifvqei0","pricing_plan_id":"free"},{"bike_id":"d5ad36f4-1365-4cda-9660-2f04755d1815","system_id":"levelo_inurba_marseille","lat":43.294314,"lon":5.397498,"is_reserved":false,"is_disabled":false,"rental_uris":{"android":"levelo://app?vid=d5ad36f4-1365-4cda-9660-2f04755d1815","ios":"levelo://app?vid=d5ad36f4-1365-4cda-9660-2f04755d1815"},"vehicle_type_id":"4","last_reported":1706389551,"current_range_meters":31200,"station_id":"ce4bh3h2rcd13ifvqdo0","pricing_plan_id":"free"},{"bike_id":"bf3fe8c6-327b-4e7e-91cd-1e4011551874","system_id":"levelo_inurba_marseille","lat":43.294314,"lon":5.397498,"is_reserved":false,"is_disabled":false,"rental_uris":{"android":"levelo://app?vid=bf3fe8c6-327b-4e7e-91cd-1e4011551874","ios":"levelo://app?vid=bf3fe8c6-327b-4e7e-91cd-1e4011551874"},"vehicle_type_id":"4","last_reported":1706389551,"current_range_meters":26000,"station_id":"ce4bh3h2rcd13ifvqdo0","pricing_plan_id":"free"},{"bike_id":"627d0d6d-5ebb-4711-9faf-8f53ee903ceb","system_id":"levelo_inurba_marseille","lat":43.294314,"lon":5.397498,"is_reserved":false,"is_disabled":false,"rental_uris":{"android":"levelo://app?vid=627d0d6d-5ebb-4711-9faf-8f53ee903ceb","ios":"levelo://app?vid=627d0d6d-5ebb-4711-9faf-8f53ee903ceb"},"vehicle_type_id":"4","last_reported":1706389551,"current_range_meters":18800,"station_id":"ce4bh3h2rcd13ifvqdo0","pricing_plan_id":"free"},{"bike_id":"42f4c48e-d712-4466-90ec-c7e79874eaab","system_id":"levelo_inurba_marseille","lat":43.28614,"lon":5.35099,"is_reserved":false,"is_disabled":false,"rental_uris":{"android":"levelo://app?vid=42f4c48e-d712-4466-90ec-c7e79874eaab","ios":"levelo://app?vid=42f4c48e-d712-4466-90ec-c7e79874eaab"},"vehicle_type_id":"4","last_reported":1706389551,"current_range_meters":0,"station_id":"ce4bhch2rcd13ifvqeug","pricing_plan_id":"free"},{"bike_id":"d464a807-7e7f-4991-bd28-630bfbfd1e92","system_id":"levelo_inurba_marseille","lat":43.295713,"lon":5.399639,"is_reserved":false,"is_disabled":false,"rental_uris":{"android":"levelo://app?vid=d464a807-7e7f-4991-bd28-630bfbfd1e92","ios":"levelo://app?vid=d464a807-7e7f-4991-bd28-630bfbfd1e92"},"vehicle_type_id":"4","last_reported":1706389551,"current_range_meters":0,"station_id":"ce4bh312rcd13ifvqdj0","pricing_plan_id":"free"},{"bike_id":"d857ccfe-fe6f-44ca-8cb4-418a361337cd","system_id":"levelo_inurba_marseille","lat":43.295713,"lon":5.399639,"is_reserved":false,"is_disabled":false,"rental_uris":{"android":"levelo://app?vid=d857ccfe-fe6f-44ca-8cb4-418a361337cd","ios":"levelo://app?vid=d857ccfe-fe6f-44ca-8cb4-418a361337cd"},"vehicle_type_id":"4","last_reported":1706389551,"current_range_meters":23600,"station_id":"ce4bh312rcd13ifvqdj0","pricing_plan_id":"free"},{"bike_id":"f9acbd93-369d-48fe-8942-2194c9ec26d8","system_id":"levelo_inurba_marseille","lat":43.295713,"lon":5.399639,"is_reserved":false,"is_disabled":false,"rental_uris":{"android":"levelo://app?vid=f9acbd93-369d-48fe-8942-2194c9ec26d8","ios":"levelo://app?vid=f9acbd93-369d-48fe-8942-2194c9ec26d8"},"vehicle_type_id":"4","last_reported":1706389551,"current_range_meters":11600,"station_id":"ce4bh312rcd13ifvqdj0","pricing_plan_id":"free"},{"bike_id":"e0628533-5eb2-4125-833c-66684fe12966","system_id":"levelo_inurba_marseille","lat":43.295713,"lon":5.399639,"is_reserved":false,"is_disabled":false,"rental_uris":{"android":"levelo://app?vid=e0628533-5eb2-4125-833c-66684fe12966","ios":"levelo://app?vid=e0628533-5eb2-4125-833c-66684fe12966"},"vehicle_type_id":"4","last_reported":1706389551,"current_range_meters":20400,"station_id":"ce4bh312rcd13ifvqdj0","pricing_plan_id":"free"},{"bike_id":"6bdbccc9-9646-4d57-aeb8-f835c1656928","system_id":"levelo_inurba_marseille","lat":43.295713,"lon":5.399639,"is_reserved":false,"is_disabled":false,"rental_uris":{"android":"levelo://app?vid=6bdbccc9-9646-4d57-aeb8-f835c1656928","ios":"levelo://app?vid=6bdbccc9-9646-4d57-aeb8-f835c1656928"},"vehicle_type_id":"4","last_reported":1706389551,"current_range_meters":9200,"station_id":"ce4bh312rcd13ifvqdj0","pricing_plan_id":"free"},{"bike_id":"1ea08b22-4273-4a0a-a774-42b0735e1a74","system_id":"levelo_inurba_marseille","lat":43.295713,"lon":5.399639,"is_reserved":false,"is_disabled":false,"rental_uris":{"android":"levelo://app?vid=1ea08b22-4273-4a0a-a774-42b0735e1a74","ios":"levelo://app?vid=1ea08b22-4273-4a0a-a774-42b0735e1a74"},"vehicle_type_id":"4","last_reported":1706389551,"current_range_meters":6000,"station_id":"ce4bh312rcd13ifvqdj0","pricing_plan_id":"free"},{"bike_id":"0e26b1ea-95fb-4555-9e18-0f73a3b37904","system_id":"levelo_inurba_marseille","lat":43.286595,"lon":5.386795,"is_reserved":false,"is_disabled":false,"rental_uris":{"android":"levelo://app?vid=0e26b1ea-95fb-4555-9e18-0f73a3b37904","ios":"levelo://app?vid=0e26b1ea-95fb-4555-9e18-0f73a3b37904"},"vehicle_type_id":"4","last_reported":1706389551,"current_range_meters":3200,"station_id":"ce4bh492rcd13ifvqdug","pricing_plan_id":"free"},{"bike_id":"b0aa9168-35cd-47bc-8379-c83afb07e727","system_id":"levelo_inurba_marseille","lat":43.286595,"lon":5.386795,"is_reserved":false,"is_disabled":false,"rental_uris":{"android":"levelo://app?vid=b0aa9168-35cd-47bc-8379-c83afb07e727","ios":"levelo://app?vid=b0aa9168-35cd-47bc-8379-c83afb07e727"},"vehicle_type_id":"4","last_reported":1706389551,"current_range_meters":2400,"station_id":"ce4bh492rcd13ifvqdug","pricing_plan_id":"free"},{"bike_id":"4ed148e5-1c31-4df7-b39a-5bb838397399","system_id":"levelo_inurba_marseille","lat":43.28657,"lon":5.38674,"is_reserved":false,"is_disabled":false,"rental_uris":{"android":"levelo://app?vid=4ed148e5-1c31-4df7-b39a-5bb838397399","ios":"levelo://app?vid=4ed148e5-1c31-4df7-b39a-5bb838397399"},"vehicle_type_id":"4","last_reported":1706389551,"current_range_meters":5200,"station_id":"ce4bh492rcd13ifvqdug","pricing_plan_id":"free"},{"bike_id":"2b5f4982-548b-4158-a72b-a9e801ba15e5","system_id":"levelo_inurba_marseille","lat":43.323464,"lon":5.406297,"is_reserved":false,"is_disabled":false,"rental_uris":{"android":"levelo://app?vid=2b5f4982-548b-4158-a72b-a9e801ba15e5","ios":"levelo://app?vid=2b5f4982-548b-4158-a72b-a9e801ba15e5"},"vehicle_type_id":"4","last_reported":1706389551,"current_range_meters":26400,"station_id":"ce4bhq92rcd13ifvqhjg","pricing_plan_id":"free"},{"bike_id":"2bb38835-1a5e-4d01-8935-6396d43e5266","system_id":"levelo_inurba_marseille","lat":43.337168,"lon":5.391825,"is_reserved":false,"is_disabled":false,"rental_uris":{"android":"levelo://app?vid=2bb38835-1a5e-4d01-8935-6396d43e5266","ios":"levelo://app?vid=2bb38835-1a5e-4d01-8935-6396d43e5266"},"vehicle_type_id":"4","last_reported":1706389551,"current_range_meters":23200,"station_id":"ce4bhr92rcd13ifvqhsg","pricing_plan_id":"free"},{"bike_id":"a3f30509-feaf-4375-af71-8a441027e5bd","system_id":"levelo_inurba_marseille","lat":43.33717,"lon":5.391857,"is_reserved":false,"is_disabled":false,"rental_uris":{"android":"levelo://app?vid=a3f30509-feaf-4375-af71-8a441027e5bd","ios":"levelo://app?vid=a3f30509-feaf-4375-af71-8a441027e5bd"},"vehicle_type_id":"4","last_reported":1706389551,"current_range_meters":26400,"station_id":"ce4bhr92rcd13ifvqhsg","pricing_plan_id":"free"},{"bike_id":"5a77c2ec-f42b-428b-aa8a-d8131f3fc0ad","system_id":"levelo_inurba_marseille","lat":43.284793,"lon":5.384113,"is_reserved":false,"is_disabled":false,"rental_uris":{"android":"levelo://app?vid=5a77c2ec-f42b-428b-aa8a-d8131f3fc0ad","ios":"levelo://app?vid=5a77c2ec-f42b-428b-aa8a-d8131f3fc0ad"},"vehicle_type_id":"4","last_reported":1706389551,"current_range_meters":0,"station_id":"ce4bh512rcd13ifvqe3g","pricing_plan_id":"free"},{"bike_id":"4241c0c5-137f-4591-94d3-33a9ac1e7f83","system_id":"levelo_inurba_marseille","lat":43.284787,"lon":5.384116,"is_reserved":false,"is_disabled":false,"rental_uris":{"android":"levelo://app?vid=4241c0c5-137f-4591-94d3-33a9ac1e7f83","ios":"levelo://app?vid=4241c0c5-137f-4591-94d3-33a9ac1e7f83"},"vehicle_type_id":"4","last_reported":1706389551,"current_range_meters":8400,"station_id":"ce4bh512rcd13ifvqe3g","pricing_plan_id":"free"},{"bike_id":"bab5eaab-4e16-4abc-8fb3-38afff0196f3","system_id":"levelo_inurba_marseille","lat":43.298005,"lon":5.404114,"is_reserved":false,"is_disabled":false,"rental_uris":{"android":"levelo://app?vid=bab5eaab-4e16-4abc-8fb3-38afff0196f3","ios":"levelo://app?vid=bab5eaab-4e16-4abc-8fb3-38afff0196f3"},"vehicle_type_id":"4","last_reported":1706389551,"current_range_meters":800,"station_id":"ce4bh112rcd13ifvqd90","pricing_plan_id":"free"},{"bike_id":"5a787660-a430-4227-adc0-4b37d167694a","system_id":"levelo_inurba_marseille","lat":43.283498,"lon":5.380948,"is_reserved":false,"is_disabled":false,"rental_uris":{"android":"levelo://app?vid=5a787660-a430-4227-adc0-4b37d167694a","ios":"levelo://app?vid=5a787660-a430-4227-adc0-4b37d167694a"},"vehicle_type_id":"4","last_reported":1706389551,"current_range_meters":23600,"station_id":"ce4bh412rcd13ifvqdr0","pricing_plan_id":"free"},{"bike_id":"3a330916-ddbf-4c1b-aa02-f263d7e67157","system_id":"levelo_inurba_marseille","lat":43.28846,"lon":5.39311,"is_reserved":false,"is_disabled":false,"rental_uris":{"android":"levelo://app?vid=3a330916-ddbf-4c1b-aa02-f263d7e67157","ios":"levelo://app?vid=3a330916-ddbf-4c1b-aa02-f263d7e67157"},"vehicle_type_id":"4","last_reported":1706389551,"current_range_meters":0,"station_id":"ce4bh2p2rcd13ifvqdi0","pricing_plan_id":"free"},{"bike_id":"e4c54c6b-c762-4777-a859-1686f187edbe","system_id":"levelo_inurba_marseille","lat":43.288427,"lon":5.393172,"is_reserved":false,"is_disabled":false,"rental_uris":{"android":"levelo://app?vid=e4c54c6b-c762-4777-a859-1686f187edbe","ios":"levelo://app?vid=e4c54c6b-c762-4777-a859-1686f187edbe"},"vehicle_type_id":"4","last_reported":1706389551,"current_range_meters":11200,"station_id":"ce4bh492rcd13ifvqdug","pricing_plan_id":"free"},{"bike_id":"b41bcd76-cb12-4b33-95cd-9444d1e23578","system_id":"levelo_inurba_marseille","lat":43.293556,"lon":5.401561,"is_reserved":false,"is_disabled":false,"rental_uris":{"android":"levelo://app?vid=b41bcd76-cb12-4b33-95cd-9444d1e23578","ios":"levelo://app?vid=b41bcd76-cb12-4b33-95cd-9444d1e23578"},"vehicle_type_id":"4","last_reported":1706389551,"current_range_meters":8800,"station_id":"","pricing_plan_id":"free"},{"bike_id":"9c44152c-7d5d-45bd-a809-4c5dec73d8e8","system_id":"levelo_inurba_marseille","lat":43.289363,"lon":5.396322,"is_reserved":false,"is_disabled":false,"rental_uris":{"android":"levelo://app?vid=9c44152c-7d5d-45bd-a809-4c5dec73d8e8","ios":"levelo://app?vid=9c44152c-7d5d-45bd-a809-4c5dec73d8e8"},"vehicle_type_id":"4","last_reported":1706389551,"current_range_meters":0,"station_id":"ce4bh3h2rcd13ifvqdn0","pricing_plan_id":"free"},{"bike_id":"e2a75e49-7512-4e13-8294-0973071fb87c","system_id":"levelo_inurba_marseille","lat":43.293009,"lon":5.374584,"is_reserved":false,"is_disabled":false,"rental_uris":{"android":"levelo://app?vid=e2a75e49-7512-4e13-8294-0973071fb87c","ios":"levelo://app?vid=e2a75e49-7512-4e13-8294-0973071fb87c"},"vehicle_type_id":"4","last_reported":1706389551,"current_range_meters":5200,"station_id":"ce4bgi12rcd13ifvqb70","pricing_plan_id":"free"},{"bike_id":"f7d4e601-ef44-48be-98d9-621364370410","system_id":"levelo_inurba_marseille","lat":43.29269,"lon":5.40122,"is_reserved":false,"is_disabled":false,"rental_uris":{"android":"levelo://app?vid=f7d4e601-ef44-48be-98d9-621364370410","ios":"levelo://app?vid=f7d4e601-ef44-48be-98d9-621364370410"},"vehicle_type_id":"4","last_reported":1706389551,"current_range_meters":20800,"station_id":"ce4bh312rcd13ifvqdk0","pricing_plan_id":"free"},{"bike_id":"75b07e6f-b422-4010-b590-e1b155614aae","system_id":"levelo_inurba_marseille","lat":43.283502,"lon":5.386471,"is_reserved":false,"is_disabled":false,"rental_uris":{"android":"levelo://app?vid=75b07e6f-b422-4010-b590-e1b155614aae","ios":"levelo://app?vid=75b07e6f-b422-4010-b590-e1b155614aae"},"vehicle_type_id":"4","last_reported":1706389551,"current_range_meters":15600,"station_id":"ce4bh492rcd13ifvqdvg","pricing_plan_id":"free"},{"bike_id":"acf13dde-b033-4a9e-980a-8adba0d06dae","system_id":"levelo_inurba_marseille","lat":43.282754,"lon":5.350519,"is_reserved":false,"is_disabled":false,"rental_uris":{"android":"levelo://app?vid=acf13dde-b033-4a9e-980a-8adba0d06dae","ios":"levelo://app?vid=acf13dde-b033-4a9e-980a-8adba0d06dae"},"vehicle_type_id":"4","last_reported":1706389551,"current_range_meters":4000,"station_id":"ce4bhbp2rcd13ifvqerg","pricing_plan_id":"free"},{"bike_id":"9bffd38b-db5b-4e40-affe-eef268395954","system_id":"levelo_inurba_marseille","lat":43.280382,"lon":5.369291,"is_reserved":false,"is_disabled":false,"rental_uris":{"android":"levelo://app?vid=9bffd38b-db5b-4e40-affe-eef268395954","ios":"levelo://app?vid=9bffd38b-db5b-4e40-affe-eef268395954"},"vehicle_type_id":"4","last_reported":1706389551,"current_range_meters":17200,"station_id":"ce4bha12rcd13ifvqef0","pricing_plan_id":"free"},{"bike_id":"651c649b-9e71-443b-aa28-223c236ca9c0","system_id":"levelo_inurba_marseille","lat":43.283502,"lon":5.386471,"is_reserved":false,"is_disabled":false,"rental_uris":{"android":"levelo://app?vid=651c649b-9e71-443b-aa28-223c236ca9c0","ios":"levelo://app?vid=651c649b-9e71-443b-aa28-223c236ca9c0"},"vehicle_type_id":"4","last_reported":1706389551,"current_range_meters":24000,"station_id":"ce4bh492rcd13ifvqdvg","pricing_plan_id":"free"},{"bike_id":"b24d3f3b-f4bc-42c8-a4e9-e0ee81e33637","system_id":"levelo_inurba_marseille","lat":43.28039,"lon":5.369297,"is_reserved":false,"is_disabled":false,"rental_uris":{"android":"levelo://app?vid=b24d3f3b-f4bc-42c8-a4e9-e0ee81e33637","ios":"levelo://app?vid=b24d3f3b-f4bc-42c8-a4e9-e0ee81e33637"},"vehicle_type_id":"4","last_reported":1706389551,"current_range_meters":0,"station_id":"ce4bha12rcd13ifvqef0","pricing_plan_id":"free"},{"bike_id":"bedd07bf-1366-4b98-96dd-5f8f7e8bf8c1","system_id":"levelo_inurba_marseille","lat":43.28039,"lon":5.369297,"is_reserved":false,"is_disabled":false,"rental_uris":{"android":"levelo://app?vid=bedd07bf-1366-4b98-96dd-5f8f7e8bf8c1","ios":"levelo://app?vid=bedd07bf-1366-4b98-96dd-5f8f7e8bf8c1"},"vehicle_type_id":"4","last_reported":1706389551,"current_range_meters":4000,"station_id":"ce4bha12rcd13ifvqef0","pricing_plan_id":"free"},{"bike_id":"6ad524ec-8dc6-4cb3-b55e-f661989d8fc0","system_id":"levelo_inurba_marseille","lat":43.281044,"lon":5.378308,"is_reserved":false,"is_disabled":false,"rental_uris":{"android":"levelo://app?vid=6ad524ec-8dc6-4cb3-b55e-f661989d8fc0","ios":"levelo://app?vid=6ad524ec-8dc6-4cb3-b55e-f661989d8fc0"},"vehicle_type_id":"4","last_reported":1706389551,"current_range_meters":27600,"station_id":"ce4bha12rcd13ifvqee0","pricing_plan_id":"free"},{"bike_id":"7bc5764c-74d5-4cb7-a872-7187af679de0","system_id":"levelo_inurba_marseille","lat":43.296263,"lon":5.40601,"is_reserved":false,"is_disabled":false,"rental_uris":{"android":"levelo://app?vid=7bc5764c-74d5-4cb7-a872-7187af679de0","ios":"levelo://app?vid=7bc5764c-74d5-4cb7-a872-7187af679de0"},"vehicle_type_id":"4","last_reported":1706389551,"current_range_meters":4400,"station_id":"ce4bh0h2rcd13ifvqd60","pricing_plan_id":"free"},{"bike_id":"3d71b8bf-8009-46b6-b950-d0b03762ecec","system_id":"levelo_inurba_marseille","lat":43.284462,"lon":5.392121,"is_reserved":false,"is_disabled":false,"rental_uris":{"android":"levelo://app?vid=3d71b8bf-8009-46b6-b950-d0b03762ecec","ios":"levelo://app?vid=3d71b8bf-8009-46b6-b950-d0b03762ecec"},"vehicle_type_id":"4","last_reported":1706389551,"current_range_meters":12400,"station_id":"ce4bhoh2rcd13ifvqh5g","pricing_plan_id":"free"},{"bike_id":"5908d44b-d88a-4644-897f-5f2ac41b3103","system_id":"levelo_inurba_marseille","lat":43.284462,"lon":5.392121,"is_reserved":false,"is_disabled":false,"rental_uris":{"android":"levelo://app?vid=5908d44b-d88a-4644-897f-5f2ac41b3103","ios":"levelo://app?vid=5908d44b-d88a-4644-897f-5f2ac41b3103"},"vehicle_type_id":"4","last_reported":1706389551,"current_range_meters":24800,"station_id":"ce4bhoh2rcd13ifvqh5g","pricing_plan_id":"free"},{"bike_id":"30fa10b2-4c40-4f45-b55f-7d7fa5ac1ea4","system_id":"levelo_inurba_marseille","lat":43.284358,"lon":5.391818,"is_reserved":false,"is_disabled":false,"rental_uris":{"android":"levelo://app?vid=30fa10b2-4c40-4f45-b55f-7d7fa5ac1ea4","ios":"levelo://app?vid=30fa10b2-4c40-4f45-b55f-7d7fa5ac1ea4"},"vehicle_type_id":"4","last_reported":1706389551,"current_range_meters":26800,"station_id":"ce4bhoh2rcd13ifvqh5g","pricing_plan_id":"free"},{"bike_id":"0b06d2eb-4b86-4521-b262-b5461273decc","system_id":"levelo_inurba_marseille","lat":43.284462,"lon":5.392121,"is_reserved":false,"is_disabled":false,"rental_uris":{"android":"levelo://app?vid=0b06d2eb-4b86-4521-b262-b5461273decc","ios":"levelo://app?vid=0b06d2eb-4b86-4521-b262-b5461273decc"},"vehicle_type_id":"4","last_reported":1706389551,"current_range_meters":17200,"station_id":"ce4bhoh2rcd13ifvqh5g","pricing_plan_id":"free"},{"bike_id":"389446d9-6922-4319-a6fd-c02e7d12e3e1","system_id":"levelo_inurba_marseille","lat":43.28573,"lon":5.394992,"is_reserved":false,"is_disabled":false,"rental_uris":{"android":"levelo://app?vid=389446d9-6922-4319-a6fd-c02e7d12e3e1","ios":"levelo://app?vid=389446d9-6922-4319-a6fd-c02e7d12e3e1"},"vehicle_type_id":"4","last_reported":1706389551,"current_range_meters":13200,"station_id":"ce4bh292rcd13ifvqdg0","pricing_plan_id":"free"},{"bike_id":"046406e2-3124-4f65-a46c-e831ec439c33","system_id":"levelo_inurba_marseille","lat":43.326605,"lon":5.409903,"is_reserved":false,"is_disabled":false,"rental_uris":{"android":"levelo://app?vid=046406e2-3124-4f65-a46c-e831ec439c33","ios":"levelo://app?vid=046406e2-3124-4f65-a46c-e831ec439c33"},"vehicle_type_id":"4","last_reported":1706389551,"current_range_meters":26000,"station_id":"ce4bhpp2rcd13ifvqhgg","pricing_plan_id":"free"},{"bike_id":"7b2e6cc4-d84f-4dd1-98b9-fc9f8c3a9992","system_id":"levelo_inurba_marseille","lat":43.282876,"lon":5.391026,"is_reserved":false,"is_disabled":false,"rental_uris":{"android":"levelo://app?vid=7b2e6cc4-d84f-4dd1-98b9-fc9f8c3a9992","ios":"levelo://app?vid=7b2e6cc4-d84f-4dd1-98b9-fc9f8c3a9992"},"vehicle_type_id":"4","last_reported":1706389551,"current_range_meters":0,"station_id":"","pricing_plan_id":"free"},{"bike_id":"f88e5645-f175-48fa-ac41-b6657c24031f","system_id":"levelo_inurba_marseille","lat":43.287154,"lon":5.399979,"is_reserved":false,"is_disabled":false,"rental_uris":{"android":"levelo://app?vid=f88e5645-f175-48fa-ac41-b6657c24031f","ios":"levelo://app?vid=f88e5645-f175-48fa-ac41-b6657c24031f"},"vehicle_type_id":"4","last_reported":1706389551,"current_range_meters":9200,"station_id":"ce4bho92rcd13ifvqh3g","pricing_plan_id":"free"},{"bike_id":"9114dfde-63c5-490b-8080-cb1c7a31fe39","system_id":"levelo_inurba_marseille","lat":43.279087,"lon":5.380114,"is_reserved":false,"is_disabled":false,"rental_uris":{"android":"levelo://app?vid=9114dfde-63c5-490b-8080-cb1c7a31fe39","ios":"levelo://app?vid=9114dfde-63c5-490b-8080-cb1c7a31fe39"},"vehicle_type_id":"4","last_reported":1706389551,"current_range_meters":0,"station_id":"ce4bhf92rcd13ifvqf50","pricing_plan_id":"free"},{"bike_id":"388a7e3a-fedb-4e1f-bdc7-f33bc5a1260e","system_id":"levelo_inurba_marseille","lat":43.287154,"lon":5.399979,"is_reserved":false,"is_disabled":false,"rental_uris":{"android":"levelo://app?vid=388a7e3a-fedb-4e1f-bdc7-f33bc5a1260e","ios":"levelo://app?vid=388a7e3a-fedb-4e1f-bdc7-f33bc5a1260e"},"vehicle_type_id":"4","last_reported":1706389551,"current_range_meters":20400,"station_id":"ce4bho92rcd13ifvqh3g","pricing_plan_id":"free"},{"bike_id":"3bb97bac-72f4-4034-b5c6-039901b30c29","system_id":"levelo_inurba_marseille","lat":43.287154,"lon":5.399979,"is_reserved":false,"is_disabled":false,"rental_uris":{"android":"levelo://app?vid=3bb97bac-72f4-4034-b5c6-039901b30c29","ios":"levelo://app?vid=3bb97bac-72f4-4034-b5c6-039901b30c29"},"vehicle_type_id":"4","last_reported":1706389551,"current_range_meters":8000,"station_id":"ce4bho92rcd13ifvqh3g","pricing_plan_id":"free"},{"bike_id":"1df68d81-a107-45bf-8cf6-017807205d1c","system_id":"levelo_inurba_marseille","lat":43.287154,"lon":5.399979,"is_reserved":false,"is_disabled":false,"rental_uris":{"android":"levelo://app?vid=1df68d81-a107-45bf-8cf6-017807205d1c","ios":"levelo://app?vid=1df68d81-a107-45bf-8cf6-017807205d1c"},"vehicle_type_id":"4","last_reported":1706389551,"current_range_meters":23200,"station_id":"ce4bho92rcd13ifvqh3g","pricing_plan_id":"free"},{"bike_id":"f83a3a7e-1d78-42cc-a2d9-6a1634b4b2ae","system_id":"levelo_inurba_marseille","lat":43.320577,"lon":5.415321,"is_reserved":false,"is_disabled":false,"rental_uris":{"android":"levelo://app?vid=f83a3a7e-1d78-42cc-a2d9-6a1634b4b2ae","ios":"levelo://app?vid=f83a3a7e-1d78-42cc-a2d9-6a1634b4b2ae"},"vehicle_type_id":"4","last_reported":1706389551,"current_range_meters":31200,"station_id":"ce4bhq92rcd13ifvqhkg","pricing_plan_id":"free"},{"bike_id":"2973af37-eb47-4ea4-b919-cd38df4c8fdd","system_id":"levelo_inurba_marseille","lat":43.3204,"lon":5.415375,"is_reserved":false,"is_disabled":false,"rental_uris":{"android":"levelo://app?vid=2973af37-eb47-4ea4-b919-cd38df4c8fdd","ios":"levelo://app?vid=2973af37-eb47-4ea4-b919-cd38df4c8fdd"},"vehicle_type_id":"4","last_reported":1706389551,"current_range_meters":20000,"station_id":"ce4bhq92rcd13ifvqhkg","pricing_plan_id":"free"},{"bike_id":"09b6ee3e-51fd-4add-b1f5-fb3703f213ce","system_id":"levelo_inurba_marseille","lat":43.320526,"lon":5.415382,"is_reserved":false,"is_disabled":false,"rental_uris":{"android":"levelo://app?vid=09b6ee3e-51fd-4add-b1f5-fb3703f213ce","ios":"levelo://app?vid=09b6ee3e-51fd-4add-b1f5-fb3703f213ce"},"vehicle_type_id":"4","last_reported":1706389551,"current_range_meters":7200,"station_id":"ce4bhq92rcd13ifvqhkg","pricing_plan_id":"free"},{"bike_id":"ec389e75-8cea-4be6-8517-e15f0b47835c","system_id":"levelo_inurba_marseille","lat":43.320531,"lon":5.415418,"is_reserved":false,"is_disabled":false,"rental_uris":{"android":"levelo://app?vid=ec389e75-8cea-4be6-8517-e15f0b47835c","ios":"levelo://app?vid=ec389e75-8cea-4be6-8517-e15f0b47835c"},"vehicle_type_id":"4","last_reported":1706389551,"current_range_meters":23600,"station_id":"ce4bhq92rcd13ifvqhkg","pricing_plan_id":"free"},{"bike_id":"4977dd65-369e-417b-9c52-fe977a945b82","system_id":"levelo_inurba_marseille","lat":43.320045,"lon":5.415048,"is_reserved":false,"is_disabled":false,"rental_uris":{"android":"levelo://app?vid=4977dd65-369e-417b-9c52-fe977a945b82","ios":"levelo://app?vid=4977dd65-369e-417b-9c52-fe977a945b82"},"vehicle_type_id":"4","last_reported":1706389551,"current_range_meters":28400,"station_id":"ce4bhq92rcd13ifvqhkg","pricing_plan_id":"free"},{"bike_id":"1052cb6a-ce28-4baa-852f-a6ce05f1666f","system_id":"levelo_inurba_marseille","lat":43.279742,"lon":5.38744,"is_reserved":false,"is_disabled":false,"rental_uris":{"android":"levelo://app?vid=1052cb6a-ce28-4baa-852f-a6ce05f1666f","ios":"levelo://app?vid=1052cb6a-ce28-4baa-852f-a6ce05f1666f"},"vehicle_type_id":"4","last_reported":1706389551,"current_range_meters":12800,"station_id":"ce4bhg12rcd13ifvqf80","pricing_plan_id":"free"},{"bike_id":"fcf5ad55-9d29-48f4-b96b-b5827880831a","system_id":"levelo_inurba_marseille","lat":43.32,"lon":5.41579,"is_reserved":false,"is_disabled":false,"rental_uris":{"android":"levelo://app?vid=fcf5ad55-9d29-48f4-b96b-b5827880831a","ios":"levelo://app?vid=fcf5ad55-9d29-48f4-b96b-b5827880831a"},"vehicle_type_id":"4","last_reported":1706389551,"current_range_meters":16400,"station_id":"ce4bhq92rcd13ifvqhkg","pricing_plan_id":"free"},{"bike_id":"b76e95c5-f444-4bf9-a146-b7c4f4f835b1","system_id":"levelo_inurba_marseille","lat":43.279742,"lon":5.38744,"is_reserved":false,"is_disabled":false,"rental_uris":{"android":"levelo://app?vid=b76e95c5-f444-4bf9-a146-b7c4f4f835b1","ios":"levelo://app?vid=b76e95c5-f444-4bf9-a146-b7c4f4f835b1"},"vehicle_type_id":"4","last_reported":1706389551,"current_range_meters":25200,"station_id":"ce4bhg12rcd13ifvqf80","pricing_plan_id":"free"},{"bike_id":"d996d290-e6fd-4548-bb86-aa3c38ac8963","system_id":"levelo_inurba_marseille","lat":43.29261,"lon":5.40902,"is_reserved":false,"is_disabled":false,"rental_uris":{"android":"levelo://app?vid=d996d290-e6fd-4548-bb86-aa3c38ac8963","ios":"levelo://app?vid=d996d290-e6fd-4548-bb86-aa3c38ac8963"},"vehicle_type_id":"4","last_reported":1706389551,"current_range_meters":7200,"station_id":"ce4bh192rcd13ifvqdc0","pricing_plan_id":"free"},{"bike_id":"f8cc7572-1e5c-4009-b7a6-3d902a2b38b0","system_id":"levelo_inurba_marseille","lat":43.292569,"lon":5.409107,"is_reserved":false,"is_disabled":false,"rental_uris":{"android":"levelo://app?vid=f8cc7572-1e5c-4009-b7a6-3d902a2b38b0","ios":"levelo://app?vid=f8cc7572-1e5c-4009-b7a6-3d902a2b38b0"},"vehicle_type_id":"4","last_reported":1706389551,"current_range_meters":3200,"station_id":"ce4bh192rcd13ifvqdc0","pricing_plan_id":"free"},{"bike_id":"9a417061-d415-48e8-9e5b-cd111674e5c4","system_id":"levelo_inurba_marseille","lat":43.280784,"lon":5.396622,"is_reserved":false,"is_disabled":false,"rental_uris":{"android":"levelo://app?vid=9a417061-d415-48e8-9e5b-cd111674e5c4","ios":"levelo://app?vid=9a417061-d415-48e8-9e5b-cd111674e5c4"},"vehicle_type_id":"4","last_reported":1706389551,"current_range_meters":30000,"station_id":"ce4bho12rcd13ifvqh2g","pricing_plan_id":"free"},{"bike_id":"33403f65-7f5e-4335-bfde-cbf758fedf56","system_id":"levelo_inurba_marseille","lat":43.303837,"lon":5.418724,"is_reserved":false,"is_disabled":false,"rental_uris":{"android":"levelo://app?vid=33403f65-7f5e-4335-bfde-cbf758fedf56","ios":"levelo://app?vid=33403f65-7f5e-4335-bfde-cbf758fedf56"},"vehicle_type_id":"4","last_reported":1706389551,"current_range_meters":8800,"station_id":"ce4bhop2rcd13ifvqh7g","pricing_plan_id":"free"},{"bike_id":"92e8da09-3409-4000-9985-171117abb951","system_id":"levelo_inurba_marseille","lat":43.303837,"lon":5.418724,"is_reserved":false,"is_disabled":false,"rental_uris":{"android":"levelo://app?vid=92e8da09-3409-4000-9985-171117abb951","ios":"levelo://app?vid=92e8da09-3409-4000-9985-171117abb951"},"vehicle_type_id":"4","last_reported":1706389551,"current_range_meters":24000,"station_id":"ce4bhop2rcd13ifvqh7g","pricing_plan_id":"free"},{"bike_id":"88d2c9b0-3248-4ccc-a383-1e24083a1f43","system_id":"levelo_inurba_marseille","lat":43.30355,"lon":5.41876,"is_reserved":false,"is_disabled":false,"rental_uris":{"android":"levelo://app?vid=88d2c9b0-3248-4ccc-a383-1e24083a1f43","ios":"levelo://app?vid=88d2c9b0-3248-4ccc-a383-1e24083a1f43"},"vehicle_type_id":"4","last_reported":1706389551,"current_range_meters":4400,"station_id":"ce4bhop2rcd13ifvqh7g","pricing_plan_id":"free"},{"bike_id":"8dec0c10-6cf2-4b36-a839-6533b7665a85","system_id":"levelo_inurba_marseille","lat":43.303837,"lon":5.418724,"is_reserved":false,"is_disabled":false,"rental_uris":{"android":"levelo://app?vid=8dec0c10-6cf2-4b36-a839-6533b7665a85","ios":"levelo://app?vid=8dec0c10-6cf2-4b36-a839-6533b7665a85"},"vehicle_type_id":"4","last_reported":1706389551,"current_range_meters":24000,"station_id":"ce4bhop2rcd13ifvqh7g","pricing_plan_id":"free"},{"bike_id":"219e447c-b35e-46a8-81b5-85429626dfb5","system_id":"levelo_inurba_marseille","lat":43.278354,"lon":5.391962,"is_reserved":false,"is_disabled":false,"rental_uris":{"android":"levelo://app?vid=219e447c-b35e-46a8-81b5-85429626dfb5","ios":"levelo://app?vid=219e447c-b35e-46a8-81b5-85429626dfb5"},"vehicle_type_id":"4","last_reported":1706389551,"current_range_meters":0,"station_id":"ce4bhjp2rcd13ifvqga0","pricing_plan_id":"free"},{"bike_id":"e405ec28-3991-4d6e-be28-ded1ab199d77","system_id":"levelo_inurba_marseille","lat":43.278295,"lon":5.392005,"is_reserved":false,"is_disabled":false,"rental_uris":{"android":"levelo://app?vid=e405ec28-3991-4d6e-be28-ded1ab199d77","ios":"levelo://app?vid=e405ec28-3991-4d6e-be28-ded1ab199d77"},"vehicle_type_id":"4","last_reported":1706389551,"current_range_meters":0,"station_id":"ce4bhjp2rcd13ifvqga0","pricing_plan_id":"free"},{"bike_id":"3a62dd08-4bc1-4a20-adc8-d422b968856e","system_id":"levelo_inurba_marseille","lat":43.2738,"lon":5.36255,"is_reserved":false,"is_disabled":false,"rental_uris":{"android":"levelo://app?vid=3a62dd08-4bc1-4a20-adc8-d422b968856e","ios":"levelo://app?vid=3a62dd08-4bc1-4a20-adc8-d422b968856e"},"vehicle_type_id":"4","last_reported":1706389551,"current_range_meters":0,"station_id":"ce4bhbh2rcd13ifvqeo0","pricing_plan_id":"free"},{"bike_id":"4dedf9f3-06c8-46f1-a682-ac1aca55bab2","system_id":"levelo_inurba_marseille","lat":43.276769,"lon":5.388787,"is_reserved":false,"is_disabled":false,"rental_uris":{"android":"levelo://app?vid=4dedf9f3-06c8-46f1-a682-ac1aca55bab2","ios":"levelo://app?vid=4dedf9f3-06c8-46f1-a682-ac1aca55bab2"},"vehicle_type_id":"4","last_reported":1706389551,"current_range_meters":11200,"station_id":"ce4bhi12rcd13ifvqfo0","pricing_plan_id":"free"},{"bike_id":"4c803e42-72e5-45e3-972e-237817b0d1bb","system_id":"levelo_inurba_marseille","lat":43.276769,"lon":5.388787,"is_reserved":false,"is_disabled":false,"rental_uris":{"android":"levelo://app?vid=4c803e42-72e5-45e3-972e-237817b0d1bb","ios":"levelo://app?vid=4c803e42-72e5-45e3-972e-237817b0d1bb"},"vehicle_type_id":"4","last_reported":1706389551,"current_range_meters":0,"station_id":"ce4bhi12rcd13ifvqfo0","pricing_plan_id":"free"},{"bike_id":"3fc7bb9e-7914-44ec-947b-246c7d72ad60","system_id":"levelo_inurba_marseille","lat":43.273613,"lon":5.362705,"is_reserved":false,"is_disabled":false,"rental_uris":{"android":"levelo://app?vid=3fc7bb9e-7914-44ec-947b-246c7d72ad60","ios":"levelo://app?vid=3fc7bb9e-7914-44ec-947b-246c7d72ad60"},"vehicle_type_id":"4","last_reported":1706389551,"current_range_meters":9200,"station_id":"ce4bhbh2rcd13ifvqeo0","pricing_plan_id":"free"},{"bike_id":"55c1ffc4-a584-4f13-9314-3c1427210f1b","system_id":"levelo_inurba_marseille","lat":43.273609,"lon":5.362708,"is_reserved":false,"is_disabled":false,"rental_uris":{"android":"levelo://app?vid=55c1ffc4-a584-4f13-9314-3c1427210f1b","ios":"levelo://app?vid=55c1ffc4-a584-4f13-9314-3c1427210f1b"},"vehicle_type_id":"4","last_reported":1706389551,"current_range_meters":14800,"station_id":"ce4bhbh2rcd13ifvqeo0","pricing_plan_id":"free"},{"bike_id":"8f5a4b00-5747-43af-8fb9-6bf63647eb7f","system_id":"levelo_inurba_marseille","lat":43.336134,"lon":5.410341,"is_reserved":false,"is_disabled":false,"rental_uris":{"android":"levelo://app?vid=8f5a4b00-5747-43af-8fb9-6bf63647eb7f","ios":"levelo://app?vid=8f5a4b00-5747-43af-8fb9-6bf63647eb7f"},"vehicle_type_id":"4","last_reported":1706389551,"current_range_meters":12400,"station_id":"ce4bhqh2rcd13ifvqhmg","pricing_plan_id":"free"},{"bike_id":"e5c90429-6479-42a5-8251-79e94794ed0e","system_id":"levelo_inurba_marseille","lat":43.336134,"lon":5.410341,"is_reserved":false,"is_disabled":false,"rental_uris":{"android":"levelo://app?vid=e5c90429-6479-42a5-8251-79e94794ed0e","ios":"levelo://app?vid=e5c90429-6479-42a5-8251-79e94794ed0e"},"vehicle_type_id":"4","last_reported":1706389551,"current_range_meters":0,"station_id":"ce4bhqh2rcd13ifvqhmg","pricing_plan_id":"free"},{"bike_id":"0bd470c3-afd0-46ed-b569-4279e2016a2d","system_id":"levelo_inurba_marseille","lat":43.336134,"lon":5.410341,"is_reserved":false,"is_disabled":false,"rental_uris":{"android":"levelo://app?vid=0bd470c3-afd0-46ed-b569-4279e2016a2d","ios":"levelo://app?vid=0bd470c3-afd0-46ed-b569-4279e2016a2d"},"vehicle_type_id":"4","last_reported":1706389551,"current_range_meters":6400,"station_id":"ce4bhqh2rcd13ifvqhmg","pricing_plan_id":"free"},{"bike_id":"f735ded7-37df-41e9-a094-f7380e6d5e97","system_id":"levelo_inurba_marseille","lat":43.28005,"lon":5.40003,"is_reserved":false,"is_disabled":false,"rental_uris":{"android":"levelo://app?vid=f735ded7-37df-41e9-a094-f7380e6d5e97","ios":"levelo://app?vid=f735ded7-37df-41e9-a094-f7380e6d5e97"},"vehicle_type_id":"4","last_reported":1706389551,"current_range_meters":3600,"station_id":"ce4bho92rcd13ifvqh4g","pricing_plan_id":"free"},{"bike_id":"252afe26-ec0a-4f11-8150-edf163f98ab6","system_id":"levelo_inurba_marseille","lat":43.28004,"lon":5.40002,"is_reserved":false,"is_disabled":false,"rental_uris":{"android":"levelo://app?vid=252afe26-ec0a-4f11-8150-edf163f98ab6","ios":"levelo://app?vid=252afe26-ec0a-4f11-8150-edf163f98ab6"},"vehicle_type_id":"4","last_reported":1706389551,"current_range_meters":13200,"station_id":"ce4bho92rcd13ifvqh4g","pricing_plan_id":"free"},{"bike_id":"0520e41c-1900-438e-b035-0c52fa2237ab","system_id":"levelo_inurba_marseille","lat":43.279952,"lon":5.400085,"is_reserved":false,"is_disabled":false,"rental_uris":{"android":"levelo://app?vid=0520e41c-1900-438e-b035-0c52fa2237ab","ios":"levelo://app?vid=0520e41c-1900-438e-b035-0c52fa2237ab"},"vehicle_type_id":"4","last_reported":1706389551,"current_range_meters":7600,"station_id":"ce4bho92rcd13ifvqh4g","pricing_plan_id":"free"},{"bike_id":"7c050c8e-408d-4641-98ed-c85439d84819","system_id":"levelo_inurba_marseille","lat":43.27997,"lon":5.40006,"is_reserved":false,"is_disabled":false,"rental_uris":{"android":"levelo://app?vid=7c050c8e-408d-4641-98ed-c85439d84819","ios":"levelo://app?vid=7c050c8e-408d-4641-98ed-c85439d84819"},"vehicle_type_id":"4","last_reported":1706389551,"current_range_meters":13600,"station_id":"ce4bho92rcd13ifvqh4g","pricing_plan_id":"free"},{"bike_id":"5f1d2cfe-ae9a-4499-b3e5-66ede9a75fee","system_id":"levelo_inurba_marseille","lat":43.279952,"lon":5.400085,"is_reserved":false,"is_disabled":false,"rental_uris":{"android":"levelo://app?vid=5f1d2cfe-ae9a-4499-b3e5-66ede9a75fee","ios":"levelo://app?vid=5f1d2cfe-ae9a-4499-b3e5-66ede9a75fee"},"vehicle_type_id":"4","last_reported":1706389551,"current_range_meters":14800,"station_id":"ce4bho92rcd13ifvqh4g","pricing_plan_id":"free"},{"bike_id":"ea0d2951-586c-4e59-b307-88de37e5376b","system_id":"levelo_inurba_marseille","lat":43.279975,"lon":5.40009,"is_reserved":false,"is_disabled":false,"rental_uris":{"android":"levelo://app?vid=ea0d2951-586c-4e59-b307-88de37e5376b","ios":"levelo://app?vid=ea0d2951-586c-4e59-b307-88de37e5376b"},"vehicle_type_id":"4","last_reported":1706389551,"current_range_meters":15600,"station_id":"ce4bho92rcd13ifvqh4g","pricing_plan_id":"free"},{"bike_id":"6f46a34b-d5d1-4592-8607-98eec5146735","system_id":"levelo_inurba_marseille","lat":43.283713,"lon":5.407089,"is_reserved":false,"is_disabled":false,"rental_uris":{"android":"levelo://app?vid=6f46a34b-d5d1-4592-8607-98eec5146735","ios":"levelo://app?vid=6f46a34b-d5d1-4592-8607-98eec5146735"},"vehicle_type_id":"4","last_reported":1706389551,"current_range_meters":5600,"station_id":"","pricing_plan_id":"free"},{"bike_id":"71d90591-5f7c-490f-af55-6817cf4e60cc","system_id":"levelo_inurba_marseille","lat":43.274884,"lon":5.38971,"is_reserved":false,"is_disabled":false,"rental_uris":{"android":"levelo://app?vid=71d90591-5f7c-490f-af55-6817cf4e60cc","ios":"levelo://app?vid=71d90591-5f7c-490f-af55-6817cf4e60cc"},"vehicle_type_id":"4","last_reported":1706389551,"current_range_meters":0,"station_id":"","pricing_plan_id":"free"},{"bike_id":"1dc6aee1-185a-4c87-8b91-93bb335cd229","system_id":"levelo_inurba_marseille","lat":43.310785,"lon":5.424305,"is_reserved":false,"is_disabled":false,"rental_uris":{"android":"levelo://app?vid=1dc6aee1-185a-4c87-8b91-93bb335cd229","ios":"levelo://app?vid=1dc6aee1-185a-4c87-8b91-93bb335cd229"},"vehicle_type_id":"4","last_reported":1706389551,"current_range_meters":17200,"station_id":"ce4bhp92rcd13ifvqhag","pricing_plan_id":"free"},{"bike_id":"ee875769-e8b7-4caa-b3b8-2dad519b3fb1","system_id":"levelo_inurba_marseille","lat":43.31088,"lon":5.42429,"is_reserved":false,"is_disabled":false,"rental_uris":{"android":"levelo://app?vid=ee875769-e8b7-4caa-b3b8-2dad519b3fb1","ios":"levelo://app?vid=ee875769-e8b7-4caa-b3b8-2dad519b3fb1"},"vehicle_type_id":"4","last_reported":1706389551,"current_range_meters":17600,"station_id":"ce4bhp92rcd13ifvqhag","pricing_plan_id":"free"},{"bike_id":"76a1444e-7429-4c72-9ae5-313749a04157","system_id":"levelo_inurba_marseille","lat":43.3108,"lon":5.42435,"is_reserved":false,"is_disabled":false,"rental_uris":{"android":"levelo://app?vid=76a1444e-7429-4c72-9ae5-313749a04157","ios":"levelo://app?vid=76a1444e-7429-4c72-9ae5-313749a04157"},"vehicle_type_id":"4","last_reported":1706389551,"current_range_meters":17200,"station_id":"ce4bhp92rcd13ifvqhag","pricing_plan_id":"free"},{"bike_id":"cf88769c-c9a4-41f5-8aa7-80a6639cc934","system_id":"levelo_inurba_marseille","lat":43.340804,"lon":5.410219,"is_reserved":false,"is_disabled":false,"rental_uris":{"android":"levelo://app?vid=cf88769c-c9a4-41f5-8aa7-80a6639cc934","ios":"levelo://app?vid=cf88769c-c9a4-41f5-8aa7-80a6639cc934"},"vehicle_type_id":"4","last_reported":1706389551,"current_range_meters":7600,"station_id":"ce4bhqh2rcd13ifvqhlg","pricing_plan_id":"free"},{"bike_id":"a98e2a5e-bdd6-494e-9351-adac87bae90b","system_id":"levelo_inurba_marseille","lat":43.2765,"lon":5.39764,"is_reserved":false,"is_disabled":false,"rental_uris":{"android":"levelo://app?vid=a98e2a5e-bdd6-494e-9351-adac87bae90b","ios":"levelo://app?vid=a98e2a5e-bdd6-494e-9351-adac87bae90b"},"vehicle_type_id":"4","last_reported":1706389551,"current_range_meters":0,"station_id":"","pricing_plan_id":"free"},{"bike_id":"8de02a42-7ee3-4427-ae12-afb226ef6792","system_id":"levelo_inurba_marseille","lat":43.273125,"lon":5.390731,"is_reserved":false,"is_disabled":false,"rental_uris":{"android":"levelo://app?vid=8de02a42-7ee3-4427-ae12-afb226ef6792","ios":"levelo://app?vid=8de02a42-7ee3-4427-ae12-afb226ef6792"},"vehicle_type_id":"4","last_reported":1706389551,"current_range_meters":2400,"station_id":"ce4bhgp2rcd13ifvqfe0","pricing_plan_id":"free"},{"bike_id":"b05aa716-e993-4c70-99c4-dbe272cbcc26","system_id":"levelo_inurba_marseille","lat":43.27319,"lon":5.39088,"is_reserved":false,"is_disabled":false,"rental_uris":{"android":"levelo://app?vid=b05aa716-e993-4c70-99c4-dbe272cbcc26","ios":"levelo://app?vid=b05aa716-e993-4c70-99c4-dbe272cbcc26"},"vehicle_type_id":"4","last_reported":1706389551,"current_range_meters":0,"station_id":"ce4bhgp2rcd13ifvqfe0","pricing_plan_id":"free"},{"bike_id":"b5e52bf3-7a58-4f29-9adc-4051a0ac6e17","system_id":"levelo_inurba_marseille","lat":43.274272,"lon":5.394048,"is_reserved":false,"is_disabled":false,"rental_uris":{"android":"levelo://app?vid=b5e52bf3-7a58-4f29-9adc-4051a0ac6e17","ios":"levelo://app?vid=b5e52bf3-7a58-4f29-9adc-4051a0ac6e17"},"vehicle_type_id":"4","last_reported":1706389551,"current_range_meters":16000,"station_id":"ce4bhdp2rcd13ifvqf20","pricing_plan_id":"free"},{"bike_id":"79aba3fd-e7b6-41fe-974b-a11d6cc1ed17","system_id":"levelo_inurba_marseille","lat":43.295165,"lon":5.422641,"is_reserved":false,"is_disabled":false,"rental_uris":{"android":"levelo://app?vid=79aba3fd-e7b6-41fe-974b-a11d6cc1ed17","ios":"levelo://app?vid=79aba3fd-e7b6-41fe-974b-a11d6cc1ed17"},"vehicle_type_id":"4","last_reported":1706389551,"current_range_meters":20800,"station_id":"ce4bhph2rcd13ifvqhdg","pricing_plan_id":"free"},{"bike_id":"da044c65-8344-4ffe-bef4-f362ad4bfa1b","system_id":"levelo_inurba_marseille","lat":43.295511,"lon":5.422926,"is_reserved":false,"is_disabled":false,"rental_uris":{"android":"levelo://app?vid=da044c65-8344-4ffe-bef4-f362ad4bfa1b","ios":"levelo://app?vid=da044c65-8344-4ffe-bef4-f362ad4bfa1b"},"vehicle_type_id":"4","last_reported":1706389551,"current_range_meters":17600,"station_id":"ce4bhph2rcd13ifvqhdg","pricing_plan_id":"free"},{"bike_id":"b2d4d8a5-9c8f-4c1f-9cd4-c63e9c58d660","system_id":"levelo_inurba_marseille","lat":43.27217,"lon":5.39175,"is_reserved":false,"is_disabled":false,"rental_uris":{"android":"levelo://app?vid=b2d4d8a5-9c8f-4c1f-9cd4-c63e9c58d660","ios":"levelo://app?vid=b2d4d8a5-9c8f-4c1f-9cd4-c63e9c58d660"},"vehicle_type_id":"4","last_reported":1706389551,"current_range_meters":0,"station_id":"ce4bhhp2rcd13ifvqfm0","pricing_plan_id":"free"},{"bike_id":"8c63f70d-c815-4fe9-8862-39d6e9885f77","system_id":"levelo_inurba_marseille","lat":43.27209,"lon":5.39178,"is_reserved":false,"is_disabled":false,"rental_uris":{"android":"levelo://app?vid=8c63f70d-c815-4fe9-8862-39d6e9885f77","ios":"levelo://app?vid=8c63f70d-c815-4fe9-8862-39d6e9885f77"},"vehicle_type_id":"4","last_reported":1706389551,"current_range_meters":0,"station_id":"ce4bhhp2rcd13ifvqfm0","pricing_plan_id":"free"},{"bike_id":"098dda6a-8ac5-4190-9f3f-3b5bd525d4ff","system_id":"levelo_inurba_marseille","lat":43.272118,"lon":5.391758,"is_reserved":false,"is_disabled":false,"rental_uris":{"android":"levelo://app?vid=098dda6a-8ac5-4190-9f3f-3b5bd525d4ff","ios":"levelo://app?vid=098dda6a-8ac5-4190-9f3f-3b5bd525d4ff"},"vehicle_type_id":"4","last_reported":1706389551,"current_range_meters":0,"station_id":"ce4bhhp2rcd13ifvqfm0","pricing_plan_id":"free"},{"bike_id":"3b3f8b1e-b7cc-4cd9-9ad7-ba912c358518","system_id":"levelo_inurba_marseille","lat":43.272116,"lon":5.391747,"is_reserved":false,"is_disabled":false,"rental_uris":{"android":"levelo://app?vid=3b3f8b1e-b7cc-4cd9-9ad7-ba912c358518","ios":"levelo://app?vid=3b3f8b1e-b7cc-4cd9-9ad7-ba912c358518"},"vehicle_type_id":"4","last_reported":1706389551,"current_range_meters":800,"station_id":"ce4bhhp2rcd13ifvqfm0","pricing_plan_id":"free"},{"bike_id":"967d4c4c-d680-47bc-9c6d-3973e884e152","system_id":"levelo_inurba_marseille","lat":43.278128,"lon":5.407195,"is_reserved":false,"is_disabled":false,"rental_uris":{"android":"levelo://app?vid=967d4c4c-d680-47bc-9c6d-3973e884e152","ios":"levelo://app?vid=967d4c4c-d680-47bc-9c6d-3973e884e152"},"vehicle_type_id":"4","last_reported":1706389551,"current_range_meters":22000,"station_id":"ce4bhnh2rcd13ifvqgtg","pricing_plan_id":"free"},{"bike_id":"9263ea7e-7f4b-4fbf-8ac1-c0bceb416a31","system_id":"levelo_inurba_marseille","lat":43.269467,"lon":5.386439,"is_reserved":false,"is_disabled":false,"rental_uris":{"android":"levelo://app?vid=9263ea7e-7f4b-4fbf-8ac1-c0bceb416a31","ios":"levelo://app?vid=9263ea7e-7f4b-4fbf-8ac1-c0bceb416a31"},"vehicle_type_id":"4","last_reported":1706389551,"current_range_meters":19200,"station_id":"ce4bhh92rcd13ifvqfh0","pricing_plan_id":"free"},{"bike_id":"4429ce92-580f-4da3-8dc7-5f603e5ce515","system_id":"levelo_inurba_marseille","lat":43.269467,"lon":5.386439,"is_reserved":false,"is_disabled":false,"rental_uris":{"android":"levelo://app?vid=4429ce92-580f-4da3-8dc7-5f603e5ce515","ios":"levelo://app?vid=4429ce92-580f-4da3-8dc7-5f603e5ce515"},"vehicle_type_id":"4","last_reported":1706389551,"current_range_meters":19200,"station_id":"ce4bhh92rcd13ifvqfh0","pricing_plan_id":"free"},{"bike_id":"30960197-f73f-476d-bb41-35ff6f03ade0","system_id":"levelo_inurba_marseille","lat":43.26953,"lon":5.38637,"is_reserved":false,"is_disabled":false,"rental_uris":{"android":"levelo://app?vid=30960197-f73f-476d-bb41-35ff6f03ade0","ios":"levelo://app?vid=30960197-f73f-476d-bb41-35ff6f03ade0"},"vehicle_type_id":"4","last_reported":1706389551,"current_range_meters":0,"station_id":"ce4bhh92rcd13ifvqfh0","pricing_plan_id":"free"},{"bike_id":"0f11d406-7590-44e0-bd8d-cb92808bfe07","system_id":"levelo_inurba_marseille","lat":43.279465,"lon":5.410561,"is_reserved":false,"is_disabled":false,"rental_uris":{"android":"levelo://app?vid=0f11d406-7590-44e0-bd8d-cb92808bfe07","ios":"levelo://app?vid=0f11d406-7590-44e0-bd8d-cb92808bfe07"},"vehicle_type_id":"4","last_reported":1706389551,"current_range_meters":14000,"station_id":"ce4bhnp2rcd13ifvqh0g","pricing_plan_id":"free"},{"bike_id":"c6584083-8842-41d0-ae2e-2930473b10e6","system_id":"levelo_inurba_marseille","lat":43.279465,"lon":5.410561,"is_reserved":false,"is_disabled":false,"rental_uris":{"android":"levelo://app?vid=c6584083-8842-41d0-ae2e-2930473b10e6","ios":"levelo://app?vid=c6584083-8842-41d0-ae2e-2930473b10e6"},"vehicle_type_id":"4","last_reported":1706389551,"current_range_meters":0,"station_id":"ce4bhnp2rcd13ifvqh0g","pricing_plan_id":"free"},{"bike_id":"30a27a06-0774-4cb9-9899-b8ab3790ab52","system_id":"levelo_inurba_marseille","lat":43.279465,"lon":5.410561,"is_reserved":false,"is_disabled":false,"rental_uris":{"android":"levelo://app?vid=30a27a06-0774-4cb9-9899-b8ab3790ab52","ios":"levelo://app?vid=30a27a06-0774-4cb9-9899-b8ab3790ab52"},"vehicle_type_id":"4","last_reported":1706389551,"current_range_meters":17600,"station_id":"ce4bhnp2rcd13ifvqh0g","pricing_plan_id":"free"},{"bike_id":"32b64e15-81eb-4ca1-83e9-19d1902cdf45","system_id":"levelo_inurba_marseille","lat":43.279465,"lon":5.410561,"is_reserved":false,"is_disabled":false,"rental_uris":{"android":"levelo://app?vid=32b64e15-81eb-4ca1-83e9-19d1902cdf45","ios":"levelo://app?vid=32b64e15-81eb-4ca1-83e9-19d1902cdf45"},"vehicle_type_id":"4","last_reported":1706389551,"current_range_meters":5600,"station_id":"ce4bhnp2rcd13ifvqh0g","pricing_plan_id":"free"},{"bike_id":"b0782314-3536-4e91-bad0-41ed9d871198","system_id":"levelo_inurba_marseille","lat":43.279465,"lon":5.410561,"is_reserved":false,"is_disabled":false,"rental_uris":{"android":"levelo://app?vid=b0782314-3536-4e91-bad0-41ed9d871198","ios":"levelo://app?vid=b0782314-3536-4e91-bad0-41ed9d871198"},"vehicle_type_id":"4","last_reported":1706389551,"current_range_meters":21200,"station_id":"ce4bhnp2rcd13ifvqh0g","pricing_plan_id":"free"},{"bike_id":"41312551-4e14-4ac7-8b21-5486a76a095a","system_id":"levelo_inurba_marseille","lat":43.269319,"lon":5.389397,"is_reserved":false,"is_disabled":false,"rental_uris":{"android":"levelo://app?vid=41312551-4e14-4ac7-8b21-5486a76a095a","ios":"levelo://app?vid=41312551-4e14-4ac7-8b21-5486a76a095a"},"vehicle_type_id":"4","last_reported":1706389551,"current_range_meters":0,"station_id":"ce4bhhh2rcd13ifvqfl0","pricing_plan_id":"free"},{"bike_id":"08ea72ed-c239-4668-982b-e34895bb8e9a","system_id":"levelo_inurba_marseille","lat":43.26674,"lon":5.38273,"is_reserved":false,"is_disabled":false,"rental_uris":{"android":"levelo://app?vid=08ea72ed-c239-4668-982b-e34895bb8e9a","ios":"levelo://app?vid=08ea72ed-c239-4668-982b-e34895bb8e9a"},"vehicle_type_id":"4","last_reported":1706389551,"current_range_meters":0,"station_id":"ce4bhg92rcd13ifvqf90","pricing_plan_id":"free"},{"bike_id":"981a4c79-022b-4ef8-bffd-00f2344c0b9a","system_id":"levelo_inurba_marseille","lat":43.267966,"lon":5.393976,"is_reserved":false,"is_disabled":false,"rental_uris":{"android":"levelo://app?vid=981a4c79-022b-4ef8-bffd-00f2344c0b9a","ios":"levelo://app?vid=981a4c79-022b-4ef8-bffd-00f2344c0b9a"},"vehicle_type_id":"4","last_reported":1706389551,"current_range_meters":23200,"station_id":"ce4bhh12rcd13ifvqfg0","pricing_plan_id":"free"},{"bike_id":"b691d634-e569-4112-9619-590d55b67610","system_id":"levelo_inurba_marseille","lat":43.27996,"lon":5.416624,"is_reserved":false,"is_disabled":false,"rental_uris":{"android":"levelo://app?vid=b691d634-e569-4112-9619-590d55b67610","ios":"levelo://app?vid=b691d634-e569-4112-9619-590d55b67610"},"vehicle_type_id":"4","last_reported":1706389551,"current_range_meters":4400,"station_id":"ce4bho12rcd13ifvqh1g","pricing_plan_id":"free"},