{"last_updated":1734711037,"ttl":60,"version":"2.2","data":{"bikes":[{"bike_id":"eaf9115d-e166-4d63-a2b6-294753257e94","system_id":"levelo_inurba_marseille","lat":43.30629,"lon":5.37228,"is_reserved":false,"is_disabled":false,"rental_uris":{"android":"levelo://app?vid=eaf9115d-e166-4d63-a2b6-294753257e94","ios":"levelo://app?vid=eaf9115d-e166-4d63-a2b6-294753257e94"},"vehicle_type_id":"4","last_reported":1734711037,"current_range_meters":28000,"station_id":"ce4bgqh2rcd13ifvqc4g","pricing_plan_id":"cebpf4jnsgd1na2vs0mg"},{"bike_id":"eb156c91-5c91-4664-a66b-8fb17c1b7811","system_id":"levelo_inurba_marseille","lat":43.2844,"lon":5.39186,"is_reserved":false,"is_disabled":false,"rental_uris":{"android":"levelo://app?vid=eb156c91-5c91-4664-a66b-8fb17c1b7811","ios":"levelo://app?vid=eb156c91-5c91-4664-a66b-8fb17c1b7811"},"vehicle_type_id":"4","last_reported":1734711037,"current_range_meters":36800,"station_id":"ce4bhoh2rcd13ifvqh5g","pricing_plan_id":"cebpf4jnsgd1na2vs0mg"},{"bike_id":"ae22752e-06d0-42aa-9edd-df54184dfec7","system_id":"levelo_inurba_marseille","lat":43.297,"lon":5.37694,"is_reserved":false,"is_disabled":false,"rental_uris":{"android":"levelo://app?vid=ae22752e-06d0-42aa-9edd-df54184dfec7","ios":"levelo://app?vid=ae22752e-06d0-42aa-9edd-df54184dfec7"},"vehicle_type_id":"4","last_reported":1734711037,"current_range_meters":10000,"station_id":"ce4bgkh2rcd13ifvqbl0","pricing_plan_id":"cebpf4jnsgd1na2vs0mg"},{"bike_id":"c20c717d-c827-41e6-9454-3f93a777b421","system_id":"levelo_inurba_marseille","lat":43.27831,"lon":5.39193,"is_reserved":false,"is_disabled":true,"rental_uris":{"android":"levelo://app?vid=c20c717d-c827-41e6-9454-3f93a777b421","ios":"levelo://app?vid=c20c717d-c827-41e6-9454-3f93a777b421"},"vehicle_type_id":"4","last_reported":1734711037,"current_range_meters":1200,"station_id":"ce4bhjp2rcd13ifvqga0","pricing_plan_id":"cebpf4jnsgd1na2vs0mg"},{"bike_id":"2eb257a1-2a78-480b-8cc6-d5506d0fb05f","system_id":"levelo_inurba_marseille","lat":43.29528,"lon":5.39398,"is_reserved":false,"is_disabled":false,"rental_uris":{"android":"levelo://app?vid=2eb257a1-2a78-480b-8cc6-d5506d0fb05f","ios":"levelo://app?vid=2eb257a1-2a78-480b-8cc6-d5506d0fb05f"},"vehicle_type_id":"4","last_reported":1734711037,"current_range_meters":16800,"station_id":"ce4bh292rcd13ifvqdf0","pricing_plan_id":"cebpf4jnsgd1na2vs0mg"},{"bike_id":"b8d0e431-551e-42b8-b8f0-e2dfb3ae76df","system_id":"levelo_inurba_marseille","lat":43.27422,"lon":5.39403,"is_reserved":false,"is_disabled":false,"rental_uris":{"android":"levelo://app?vid=b8d0e431-551e-42b8-b8f0-e2dfb3ae76df","ios":"levelo://app?vid=b8d0e431-551e-42b8-b8f0-e2dfb3ae76df"},"vehicle_type_id":"4","last_reported":1734711037,"current_range_meters":38800,"station_id":"ce4bhdp2rcd13ifvqf20","pricing_plan_id":"cebpf4jnsgd1na2vs0mg"},{"bike_id":"0b3c962c-40d1-4375-b60d-644d72aaacf1","system_id":"levelo_inurba_marseille","lat":43.280101,"lon":5.404028,"is_reserved":false,"is_disabled":true,"rental_uris":{"android":"levelo://app?vid=0b3c962c-40d1-4375-b60d-644d72aaacf1","ios":"levelo://app?vid=0b3c962c-40d1-4375-b60d-644d72aaacf1"},"vehicle_type_id":"4","last_reported":1734711037,"current_range_meters":0,"station_id":"","pricing_plan_id":"cebpf4jnsgd1na2vs0mg"},{"bike_id":"f314edec-ad40-4323-9112-c6239e4e13b2","system_id":"levelo_inurba_marseille","lat":43.26565,"lon":5.39004,"is_reserved":false,"is_disabled":false,"rental_uris":{"android":"levelo://app?vid=f314edec-ad40-4323-9112-c6239e4e13b2","ios":"levelo://app?vid=f314edec-ad40-4323-9112-c6239e4e13b2"},"vehicle_type_id":"4","last_reported":1734711037,"current_range_meters":19200,"station_id":"ce4bhe12rcd13ifvqf30","pricing_plan_id":"cebpf4jnsgd1na2vs0mg"},{"bike_id":"dabe25e8-c0c3-4436-897f-b5ddbccfe0ce","system_id":"levelo_inurba_marseille","lat":43.23959,"lon":5.36629,"is_reserved":false,"is_disabled":false,"rental_uris":{"android":"levelo://app?vid=dabe25e8-c0c3-4436-897f-b5ddbccfe0ce","ios":"levelo://app?vid=dabe25e8-c0c3-4436-897f-b5ddbccfe0ce"},"vehicle_type_id":"4","last_reported":1734711037,"current_range_meters":38800,"station_id":"ce4bhi12rcd13ifvqfp0","pricing_plan_id":"cebpf4jnsgd1na2vs0mg"},{"bike_id":"dae4111a-1c3d-45f4-8835-f110251605a8","system_id":"levelo_inurba_marseille","lat":43.29274,"lon":5.368436,"is_reserved":false,"is_disabled":false,"rental_uris":{"android":"levelo://app?vid=dae4111a-1c3d-45f4-8835-f110251605a8","ios":"levelo://app?vid=dae4111a-1c3d-45f4-8835-f110251605a8"},"vehicle_type_id":"4","last_reported":1734711037,"current_range_meters":34800,"station_id":"ce4bhbp2rcd13ifvqesg","pricing_plan_id":"cebpf4jnsgd1na2vs0mg"},{"bike_id":"1c7bee34-3735-4b6e-bce4-352db6125a44","system_id":"levelo_inurba_marseille","lat":43.29317,"lon":5.36842,"is_reserved":false,"is_disabled":false,"rental_uris":{"android":"levelo://app?vid=1c7bee34-3735-4b6e-bce4-352db6125a44","ios":"levelo://app?vid=1c7bee34-3735-4b6e-bce4-352db6125a44"},"vehicle_type_id":"4","last_reported":1734711037,"current_range_meters":27600,"station_id":"ce4bhbp2rcd13ifvqesg","pricing_plan_id":"cebpf4jnsgd1na2vs0mg"},{"bike_id":"39ece7e2-88a7-440f-ab56-28064b63e041","system_id":"levelo_inurba_marseille","lat":43.29966,"lon":5.37193,"is_reserved":false,"is_disabled":false,"rental_uris":{"android":"levelo://app?vid=39ece7e2-88a7-440f-ab56-28064b63e041","ios":"levelo://app?vid=39ece7e2-88a7-440f-ab56-28064b63e041"},"vehicle_type_id":"4","last_reported":1734711037,"current_range_meters":17200,"station_id":"ce4bgr92rcd13ifvqc7g","pricing_plan_id":"cebpf4jnsgd1na2vs0mg"},{"bike_id":"93cd12d2-ee52-454b-a1c6-a2a94b1185da","system_id":"levelo_inurba_marseille","lat":43.2482,"lon":5.37447,"is_reserved":false,"is_disabled":false,"rental_uris":{"android":"levelo://app?vid=93cd12d2-ee52-454b-a1c6-a2a94b1185da","ios":"levelo://app?vid=93cd12d2-ee52-454b-a1c6-a2a94b1185da"},"vehicle_type_id":"4","last_reported":1734711037,"current_range_meters":38800,"station_id":"ce4bhgh2rcd13ifvqfb0","pricing_plan_id":"cebpf4jnsgd1na2vs0mg"},{"bike_id":"3c9c9f95-2c3e-44d5-86c1-641622c9eb92","system_id":"levelo_inurba_marseille","lat":43.29076,"lon":5.37179,"is_reserved":false,"is_disabled":false,"rental_uris":{"android":"levelo://app?vid=3c9c9f95-2c3e-44d5-86c1-641622c9eb92","ios":"levelo://app?vid=3c9c9f95-2c3e-44d5-86c1-641622c9eb92"},"vehicle_type_id":"4","last_reported":1734711037,"current_range_meters":39200,"station_id":"ce4bh5p2rcd13ifvqe4g","pricing_plan_id":"cebpf4jnsgd1na2vs0mg"},{"bike_id":"608374e1-f5ef-4e14-aac6-f3b4fbfd2453","system_id":"levelo_inurba_marseille","lat":43.2509,"lon":5.39526,"is_reserved":false,"is_disabled":false,"rental_uris":{"android":"levelo://app?vid=608374e1-f5ef-4e14-aac6-f3b4fbfd2453","ios":"levelo://app?vid=608374e1-f5ef-4e14-aac6-f3b4fbfd2453"},"vehicle_type_id":"4","last_reported":1734711037,"current_range_meters":36400,"station_id":"ce4bhm12rcd13ifvqgkg","pricing_plan_id":"cebpf4jnsgd1na2vs0mg"},{"bike_id":"a6b29f44-fdb7-43b4-aa0a-03a46febd127","system_id":"levelo_inurba_marseille","lat":43.308863,"lon":5.378124,"is_reserved":false,"is_disabled":true,"rental_uris":{"android":"levelo://app?vid=a6b29f44-fdb7-43b4-aa0a-03a46febd127","ios":"levelo://app?vid=a6b29f44-fdb7-43b4-aa0a-03a46febd127"},"vehicle_type_id":"4","last_reported":1734711037,"current_range_meters":17200,"station_id":"","pricing_plan_id":"cebpf4jnsgd1na2vs0mg"},{"bike_id":"7ec8621a-9726-4d85-b602-b2b6b4a16cb4","system_id":"levelo_inurba_marseille","lat":43.29608,"lon":5.37727,"is_reserved":false,"is_disabled":false,"rental_uris":{"android":"levelo://app?vid=7ec8621a-9726-4d85-b602-b2b6b4a16cb4","ios":"levelo://app?vid=7ec8621a-9726-4d85-b602-b2b6b4a16cb4"},"vehicle_type_id":"4","last_reported":1734711037,"current_range_meters":38800,"station_id":"ce4bgi92rcd13ifvqb90","pricing_plan_id":"cebpf4jnsgd1na2vs0mg"},{"bike_id":"3091d709-3c11-43a1-a95d-31c0908ceed1","system_id":"levelo_inurba_marseille","lat":43.29269,"lon":5.36841,"is_reserved":false,"is_disabled":false,"rental_uris":{"android":"levelo://app?vid=3091d709-3c11-43a1-a95d-31c0908ceed1","ios":"levelo://app?vid=3091d709-3c11-43a1-a95d-31c0908ceed1"},"vehicle_type_id":"4","last_reported":1734711037,"current_range_meters":26800,"station_id":"ce4bhbp2rcd13ifvqesg","pricing_plan_id":"cebpf4jnsgd1na2vs0mg"},{"bike_id":"28d82292-98ba-4250-85c9-c5fea471f0be","system_id":"levelo_inurba_marseille","lat":43.29551,"lon":5.42295,"is_reserved":false,"is_disabled":false,"rental_uris":{"android":"levelo://app?vid=28d82292-98ba-4250-85c9-c5fea471f0be","ios":"levelo://app?vid=28d82292-98ba-4250-85c9-c5fea471f0be"},"vehicle_type_id":"4","last_reported":1734711037,"current_range_meters":18000,"station_id":"ce4bhph2rcd13ifvqhdg","pricing_plan_id":"cebpf4jnsgd1na2vs0mg"},{"bike_id":"5f25b3f0-3d9b-4c73-95e3-59b4f39b7708","system_id":"levelo_inurba_marseille","lat":43.30786,"lon":5.37652,"is_reserved":false,"is_disabled":false,"rental_uris":{"android":"levelo://app?vid=5f25b3f0-3d9b-4c73-95e3-59b4f39b7708","ios":"levelo://app?vid=5f25b3f0-3d9b-4c73-95e3-59b4f39b7708"},"vehicle_type_id":"4","last_reported":1734711037,"current_range_meters":38800,"station_id":"ce4bgv92rcd13ifvqcq0","pricing_plan_id":"cebpf4jnsgd1na2vs0mg"},{"bike_id":"85f27a5d-9af7-4b09-a20c-f802a8f11d6d","system_id":"levelo_inurba_marseille","lat":43.32659,"lon":5.40985,"is_reserved":false,"is_disabled":false,"rental_uris":{"android":"levelo://app?vid=85f27a5d-9af7-4b09-a20c-f802a8f11d6d","ios":"levelo://app?vid=85f27a5d-9af7-4b09-a20c-f802a8f11d6d"},"vehicle_type_id":"4","last_reported":1734711037,"current_range_meters":9600,"station_id":"ce4bhpp2rcd13ifvqhgg","pricing_plan_id":"cebpf4jnsgd1na2vs0mg"},{"bike_id":"8def5f22-fa5f-458c-8734-8a04b5685f13","system_id":"levelo_inurba_marseille","lat":43.30258,"lon":5.40085,"is_reserved":false,"is_disabled":false,"rental_uris":{"android":"levelo://app?vid=8def5f22-fa5f-458c-8734-8a04b5685f13","ios":"levelo://app?vid=8def5f22-fa5f-458c-8734-8a04b5685f13"},"vehicle_type_id":"4","last_reported":1734711037,"current_range_meters":13600,"station_id":"ce4bgvh2rcd13ifvqcs0","pricing_plan_id":"cebpf4jnsgd1na2vs0mg"},{"bike_id":"c7a472ed-6dc3-4cde-83b8-4deb8af0b49b","system_id":"levelo_inurba_marseille","lat":43.24403,"lon":5.3705,"is_reserved":false,"is_disabled":false,"rental_uris":{"android":"levelo://app?vid=c7a472ed-6dc3-4cde-83b8-4deb8af0b49b","ios":"levelo://app?vid=c7a472ed-6dc3-4cde-83b8-4deb8af0b49b"},"vehicle_type_id":"4","last_reported":1734711037,"current_range_meters":22000,"station_id":"ce4bhhh2rcd13ifvqfk0","pricing_plan_id":"cebpf4jnsgd1na2vs0mg"},{"bike_id":"af375b95-98ed-4d0c-a1db-a5220a0cbfa9","system_id":"levelo_inurba_marseille","lat":43.31729,"lon":5.40428,"is_reserved":false,"is_disabled":false,"rental_uris":{"android":"levelo://app?vid=af375b95-98ed-4d0c-a1db-a5220a0cbfa9","ios":"levelo://app?vid=af375b95-98ed-4d0c-a1db-a5220a0cbfa9"},"vehicle_type_id":"4","last_reported":1734711037,"current_range_meters":37600,"station_id":"","pricing_plan_id":"cebpf4jnsgd1na2vs0mg"},{"bike_id":"1569b405-3527-4d3e-86e5-dce51adbfda2","system_id":"levelo_inurba_marseille","lat":43.2582,"lon":5.39435,"is_reserved":false,"is_disabled":false,"rental_uris":{"android":"levelo://app?vid=1569b405-3527-4d3e-86e5-dce51adbfda2","ios":"levelo://app?vid=1569b405-3527-4d3e-86e5-dce51adbfda2"},"vehicle_type_id":"4","last_reported":1734711037,"current_range_meters":32000,"station_id":"ce4bhip2rcd13ifvqft0","pricing_plan_id":"cebpf4jnsgd1na2vs0mg"},{"bike_id":"2f49c74a-2d98-4cf5-99a8-7fc9e9946fa5","system_id":"levelo_inurba_marseille","lat":43.26938,"lon":5.38913,"is_reserved":false,"is_disabled":false,"rental_uris":{"android":"levelo://app?vid=2f49c74a-2d98-4cf5-99a8-7fc9e9946fa5","ios":"levelo://app?vid=2f49c74a-2d98-4cf5-99a8-7fc9e9946fa5"},"vehicle_type_id":"4","last_reported":1734711037,"current_range_meters":36400,"station_id":"ce4bhhh2rcd13ifvqfl0","pricing_plan_id":"cebpf4jnsgd1na2vs0mg"},{"bike_id":"dd52cea9-6fe3-460c-a4fc-255f18d6f38c","system_id":"levelo_inurba_marseille","lat":43.25004,"lon":5.38923,"is_reserved":false,"is_disabled":false,"rental_uris":{"android":"levelo://app?vid=dd52cea9-6fe3-460c-a4fc-255f18d6f38c","ios":"levelo://app?vid=dd52cea9-6fe3-460c-a4fc-255f18d6f38c"},"vehicle_type_id":"4","last_reported":1734711037,"current_range_meters":28800,"station_id":"ce4bhgp2rcd13ifvqfd0","pricing_plan_id":"cebpf4jnsgd1na2vs0mg"},{"bike_id":"714703e4-4373-45a0-8859-0524fe8e8d54","system_id":"levelo_inurba_marseille","lat":43.30149,"lon":5.37401,"is_reserved":false,"is_disabled":false,"rental_uris":{"android":"levelo://app?vid=714703e4-4373-45a0-8859-0524fe8e8d54","ios":"levelo://app?vid=714703e4-4373-45a0-8859-0524fe8e8d54"},"vehicle_type_id":"4","last_reported":1734711037,"current_range_meters":36800,"station_id":"ce4bgs92rcd13ifvqcc0","pricing_plan_id":"cebpf4jnsgd1na2vs0mg"},{"bike_id":"dbfa572c-48d2-40b7-9e4a-c067a654725a","system_id":"levelo_inurba_marseille","lat":43.29693,"lon":5.36607,"is_reserved":false,"is_disabled":false,"rental_uris":{"android":"levelo://app?vid=dbfa572c-48d2-40b7-9e4a-c067a654725a","ios":"levelo://app?vid=dbfa572c-48d2-40b7-9e4a-c067a654725a"},"vehicle_type_id":"4","last_reported":1734711037,"current_range_meters":38800,"station_id":"ce4bgn12rcd13ifvqbt0","pricing_plan_id":"cebpf4jnsgd1na2vs0mg"},{"bike_id":"c1c1f643-8ca6-4907-87fc-f3b280fa0c6c","system_id":"levelo_inurba_marseille","lat":43.29008,"lon":5.35612,"is_reserved":false,"is_disabled":false,"rental_uris":{"android":"levelo://app?vid=c1c1f643-8ca6-4907-87fc-f3b280fa0c6c","ios":"levelo://app?vid=c1c1f643-8ca6-4907-87fc-f3b280fa0c6c"},"vehicle_type_id":"4","last_reported":1734711037,"current_range_meters":12400,"station_id":"ce4bhb92rcd13ifvqen0","pricing_plan_id":"cebpf4jnsgd1na2vs0mg"},{"bike_id":"a3490aca-cd3e-423c-b291-413d54e7a9b6","system_id":"levelo_inurba_marseille","lat":43.29748,"lon":5.37664,"is_reserved":false,"is_disabled":false,"rental_uris":{"android":"levelo://app?vid=a3490aca-cd3e-423c-b291-413d54e7a9b6","ios":"levelo://app?vid=a3490aca-cd3e-423c-b291-413d54e7a9b6"},"vehicle_type_id":"4","last_reported":1734711037,"current_range_meters":36400,"station_id":"ce4bgkh2rcd13ifvqbl0","pricing_plan_id":"cebpf4jnsgd1na2vs0mg"},{"bike_id":"897e83d4-47e9-4759-95cb-be7dcc401779","system_id":"levelo_inurba_marseille","lat":43.28653,"lon":5.36362,"is_reserved":false,"is_disabled":false,"rental_uris":{"android":"levelo://app?vid=897e83d4-47e9-4759-95cb-be7dcc401779","ios":"levelo://app?vid=897e83d4-47e9-4759-95cb-be7dcc401779"},"vehicle_type_id":"4","last_reported":1734711037,"current_range_meters":38800,"station_id":"ce4bhah2rcd13ifvqej0","pricing_plan_id":"cebpf4jnsgd1na2vs0mg"},{"bike_id":"6b37a30e-dcbc-42ca-903f-664acdfd4bc7","system_id":"levelo_inurba_marseille","lat":43.25727,"lon":5.41108,"is_reserved":false,"is_disabled":false,"rental_uris":{"android":"levelo://app?vid=6b37a30e-dcbc-42ca-903f-664acdfd4bc7","ios":"levelo://app?vid=6b37a30e-dcbc-42ca-903f-664acdfd4bc7"},"vehicle_type_id":"4","last_reported":1734711037,"current_range_meters":39200,"station_id":"ce4bhkp2rcd13ifvqgd0","pricing_plan_id":"cebpf4jnsgd1na2vs0mg"},{"bike_id":"9d6818e0-2837-4204-89ad-978da11db751","system_id":"levelo_inurba_marseille","lat":43.29525,"lon":5.37516,"is_reserved":false,"is_disabled":false,"rental_uris":{"android":"levelo://app?vid=9d6818e0-2837-4204-89ad-978da11db751","ios":"levelo://app?vid=9d6818e0-2837-4204-89ad-978da11db751"},"vehicle_type_id":"4","last_reported":1734711037,"current_range_meters":38800,"station_id":"ce4bgkp2rcd13ifvqbmg","pricing_plan_id":"cebpf4jnsgd1na2vs0mg"},{"bike_id":"9ae03718-4820-4789-a6ef-94ba3f9d34ae","system_id":"levelo_inurba_marseille","lat":43.30332,"lon":5.40431,"is_reserved":false,"is_disabled":false,"rental_uris":{"android":"levelo://app?vid=9ae03718-4820-4789-a6ef-94ba3f9d34ae","ios":"levelo://app?vid=9ae03718-4820-4789-a6ef-94ba3f9d34ae"},"vehicle_type_id":"4","last_reported":1734711037,"current_range_meters":17200,"station_id":"ce4bh012rcd13ifvqd10","pricing_plan_id":"cebpf4jnsgd1na2vs0mg"},{"bike_id":"be86c96b-fb94-4eb1-abd6-eaf43a735168","system_id":"levelo_inurba_marseille","lat":43.30895,"lon":5.39646,"is_reserved":false,"is_disabled":false,"rental_uris":{"android":"levelo://app?vid=be86c96b-fb94-4eb1-abd6-eaf43a735168","ios":"levelo://app?vid=be86c96b-fb94-4eb1-abd6-eaf43a735168"},"vehicle_type_id":"4","last_reported":1734711037,"current_range_meters":39200,"station_id":"ce4bh012rcd13ifvqcv0","pricing_plan_id":"cebpf4jnsgd1na2vs0mg"},{"bike_id":"6840d155-4ad1-41f0-8aba-5b39be5e42db","system_id":"levelo_inurba_marseille","lat":43.34143,"lon":5.40897,"is_reserved":false,"is_disabled":true,"rental_uris":{"android":"levelo://app?vid=6840d155-4ad1-41f0-8aba-5b39be5e42db","ios":"levelo://app?vid=6840d155-4ad1-41f0-8aba-5b39be5e42db"},"vehicle_type_id":"4","last_reported":1734711037,"current_range_meters":30000,"station_id":"ce4bhqh2rcd13ifvqhlg","pricing_plan_id":"cebpf4jnsgd1na2vs0mg"},{"bike_id":"49afe83b-abb5-4be5-a10f-e37f6b41e94f","system_id":"levelo_inurba_marseille","lat":43.29899,"lon":5.43661,"is_reserved":false,"is_disabled":false,"rental_uris":{"android":"levelo://app?vid=49afe83b-abb5-4be5-a10f-e37f6b41e94f","ios":"levelo://app?vid=49afe83b-abb5-4be5-a10f-e37f6b41e94f"},"vehicle_type_id":"4","last_reported":1734711037,"current_range_meters":32000,"station_id":"ce4bhpp2rcd13ifvqhfg","pricing_plan_id":"cebpf4jnsgd1na2vs0mg"},{"bike_id":"45bf07f8-9c21-4901-8608-fe03e5e167f1","system_id":"levelo_inurba_marseille","lat":43.308828,"lon":5.396488,"is_reserved":false,"is_disabled":false,"rental_uris":{"android":"levelo://app?vid=45bf07f8-9c21-4901-8608-fe03e5e167f1","ios":"levelo://app?vid=45bf07f8-9c21-4901-8608-fe03e5e167f1"},"vehicle_type_id":"4","last_reported":1734711037,"current_range_meters":38000,"station_id":"ce4bh012rcd13ifvqcv0","pricing_plan_id":"cebpf4jnsgd1na2vs0mg"},{"bike_id":"fe187b0f-abff-4fa7-8a20-0462e6c79208","system_id":"levelo_inurba_marseille","lat":43.24394,"lon":5.37056,"is_reserved":false,"is_disabled":false,"rental_uris":{"android":"levelo://app?vid=fe187b0f-abff-4fa7-8a20-0462e6c79208","ios":"levelo://app?vid=fe187b0f-abff-4fa7-8a20-0462e6c79208"},"vehicle_type_id":"4","last_reported":1734711037,"current_range_meters":22800,"station_id":"ce4bhhh2rcd13ifvqfk0","pricing_plan_id":"cebpf4jnsgd1na2vs0mg"},{"bike_id":"fb76eaa0-1869-4cd4-93eb-97b1025f0840","system_id":"levelo_inurba_marseille","lat":43.27929,"lon":5.3959,"is_reserved":false,"is_disabled":false,"rental_uris":{"android":"levelo://app?vid=fb76eaa0-1869-4cd4-93eb-97b1025f0840","ios":"levelo://app?vid=fb76eaa0-1869-4cd4-93eb-97b1025f0840"},"vehicle_type_id":"4","last_reported":1734711037,"current_range_meters":33600,"station_id":"ce4bhf92rcd13ifvqf40","pricing_plan_id":"cebpf4jnsgd1na2vs0mg"},{"bike_id":"ae2bdd2d-2ead-4556-8ee4-c7578937c6fd","system_id":"levelo_inurba_marseille","lat":43.28712,"lon":5.40011,"is_reserved":false,"is_disabled":false,"rental_uris":{"android":"levelo://app?vid=ae2bdd2d-2ead-4556-8ee4-c7578937c6fd","ios":"levelo://app?vid=ae2bdd2d-2ead-4556-8ee4-c7578937c6fd"},"vehicle_type_id":"4","last_reported":1734711037,"current_range_meters":38800,"station_id":"ce4bho92rcd13ifvqh3g","pricing_plan_id":"cebpf4jnsgd1na2vs0mg"},{"bike_id":"9f8f7974-ba92-4bb5-96cc-2b11e60b188c","system_id":"levelo_inurba_marseille","lat":43.3054,"lon":5.36714,"is_reserved":false,"is_disabled":false,"rental_uris":{"android":"levelo://app?vid=9f8f7974-ba92-4bb5-96cc-2b11e60b188c","ios":"levelo://app?vid=9f8f7974-ba92-4bb5-96cc-2b11e60b188c"},"vehicle_type_id":"4","last_reported":1734711037,"current_range_meters":24800,"station_id":"ce4bgrp2rcd13ifvqc9g","pricing_plan_id":"cebpf4jnsgd1na2vs0mg"},{"bike_id":"4d58949e-ec08-4bbf-9d29-57826bbf2c8a","system_id":"levelo_inurba_marseille","lat":43.27496,"lon":5.42462,"is_reserved":false,"is_disabled":true,"rental_uris":{"android":"levelo://app?vid=4d58949e-ec08-4bbf-9d29-57826bbf2c8a","ios":"levelo://app?vid=4d58949e-ec08-4bbf-9d29-57826bbf2c8a"},"vehicle_type_id":"4","last_reported":1734711037,"current_range_meters":0,"station_id":"ce4bhn92rcd13ifvqgrg","pricing_plan_id":"cebpf4jnsgd1na2vs0mg"},{"bike_id":"c36f9794-db64-4a07-823f-b590f113a19f","system_id":"levelo_inurba_marseille","lat":43.27925,"lon":5.41052,"is_reserved":false,"is_disabled":false,"rental_uris":{"android":"levelo://app?vid=c36f9794-db64-4a07-823f-b590f113a19f","ios":"levelo://app?vid=c36f9794-db64-4a07-823f-b590f113a19f"},"vehicle_type_id":"4","last_reported":1734711037,"current_range_meters":10000,"station_id":"ce4bhnp2rcd13ifvqh0g","pricing_plan_id":"cebpf4jnsgd1na2vs0mg"},{"bike_id":"a05e82d5-edf0-4bab-8347-bee3a08758db","system_id":"levelo_inurba_marseille","lat":43.30332,"lon":5.40429,"is_reserved":false,"is_disabled":false,"rental_uris":{"android":"levelo://app?vid=a05e82d5-edf0-4bab-8347-bee3a08758db","ios":"levelo://app?vid=a05e82d5-edf0-4bab-8347-bee3a08758db"},"vehicle_type_id":"4","last_reported":1734711037,"current_range_meters":39200,"station_id":"ce4bh012rcd13ifvqd10","pricing_plan_id":"cebpf4jnsgd1na2vs0mg"},{"bike_id":"c99d3e0e-b994-4a85-af09-70d11a5e9824","system_id":"levelo_inurba_marseille","lat":43.26949,"lon":5.38634,"is_reserved":false,"is_disabled":false,"rental_uris":{"android":"levelo://app?vid=c99d3e0e-b994-4a85-af09-70d11a5e9824","ios":"levelo://app?vid=c99d3e0e-b994-4a85-af09-70d11a5e9824"},"vehicle_type_id":"4","last_reported":1734711037,"current_range_meters":36800,"station_id":"ce4bhh92rcd13ifvqfh0","pricing_plan_id":"cebpf4jnsgd1na2vs0mg"},{"bike_id":"75bcc3b1-3091-4198-922a-90b0ea0094c0","system_id":"levelo_inurba_marseille","lat":43.25579,"lon":5.382333,"is_reserved":false,"is_disabled":false,"rental_uris":{"android":"levelo://app?vid=75bcc3b1-3091-4198-922a-90b0ea0094c0","ios":"levelo://app?vid=75bcc3b1-3091-4198-922a-90b0ea0094c0"},"vehicle_type_id":"4","last_reported":1734711037,"current_range_meters":38800,"station_id":"ce4bhih2rcd13ifvqfs0","pricing_plan_id":"cebpf4jnsgd1na2vs0mg"},{"bike_id":"f111cf8c-c88f-4078-b751-43b0b653fb0e","system_id":"levelo_inurba_marseille","lat":43.28714,"lon":5.39987,"is_reserved":false,"is_disabled":false,"rental_uris":{"android":"levelo://app?vid=f111cf8c-c88f-4078-b751-43b0b653fb0e","ios":"levelo://app?vid=f111cf8c-c88f-4078-b751-43b0b653fb0e"},"vehicle_type_id":"4","last_reported":1734711037,"current_range_meters":28400,"station_id":"ce4bho92rcd13ifvqh3g","pricing_plan_id":"cebpf4jnsgd1na2vs0mg"},{"bike_id":"b5436064-4838-4a21-99fb-87553b534de1","system_id":"levelo_inurba_marseille","lat":43.29283,"lon":5.36852,"is_reserved":false,"is_disabled":false,"rental_uris":{"android":"levelo://app?vid=b5436064-4838-4a21-99fb-87553b534de1","ios":"levelo://app?vid=b5436064-4838-4a21-99fb-87553b534de1"},"vehicle_type_id":"4","last_reported":1734711037,"current_range_meters":33200,"station_id":"ce4bhbp2rcd13ifvqesg","pricing_plan_id":"cebpf4jnsgd1na2vs0mg"},{"bike_id":"050c3878-40f7-4736-b04e-eb1dd4174ffa","system_id":"levelo_inurba_marseille","lat":43.23184,"lon":5.39981,"is_reserved":false,"is_disabled":false,"rental_uris":{"android":"levelo://app?vid=050c3878-40f7-4736-b04e-eb1dd4174ffa","ios":"levelo://app?vid=050c3878-40f7-4736-b04e-eb1dd4174ffa"},"vehicle_type_id":"4","last_reported":1734711037,"current_range_meters":26000,"station_id":"ce4bhn12rcd13ifvqgqg","pricing_plan_id":"cebpf4jnsgd1na2vs0mg"},{"bike_id":"ceca975b-b342-4918-8353-e4cd51aebfcc","system_id":"levelo_inurba_marseille","lat":43.28613,"lon":5.35108,"is_reserved":false,"is_disabled":false,"rental_uris":{"android":"levelo://app?vid=ceca975b-b342-4918-8353-e4cd51aebfcc","ios":"levelo://app?vid=ceca975b-b342-4918-8353-e4cd51aebfcc"},"vehicle_type_id":"4","last_reported":1734711037,"current_range_meters":11200,"station_id":"ce4bhch2rcd13ifvqeug","pricing_plan_id":"cebpf4jnsgd1na2vs0mg"},{"bike_id":"1f84512c-4bd7-4e9a-8ae9-c58538d6e275","system_id":"levelo_inurba_marseille","lat":43.28662,"lon":5.36344,"is_reserved":false,"is_disabled":false,"rental_uris":{"android":"levelo://app?vid=1f84512c-4bd7-4e9a-8ae9-c58538d6e275","ios":"levelo://app?vid=1f84512c-4bd7-4e9a-8ae9-c58538d6e275"},"vehicle_type_id":"4","last_reported":1734711037,"current_range_meters":38800,"station_id":"ce4bhah2rcd13ifvqej0","pricing_plan_id":"cebpf4jnsgd1na2vs0mg"},{"bike_id":"72492ff3-d3e5-4b81-822b-1d3357339451","system_id":"levelo_inurba_marseille","lat":43.29303,"lon":5.40004,"is_reserved":false,"is_disabled":true,"rental_uris":{"android":"levelo://app?vid=72492ff3-d3e5-4b81-822b-1d3357339451","ios":"levelo://app?vid=72492ff3-d3e5-4b81-822b-1d3357339451"},"vehicle_type_id":"4","last_reported":1734711037,"current_range_meters":30800,"station_id":"","pricing_plan_id":"cebpf4jnsgd1na2vs0mg"},{"bike_id":"ac35e660-89e6-4739-9d9a-129983f77756","system_id":"levelo_inurba_marseille","lat":43.30389,"lon":5.36777,"is_reserved":false,"is_disabled":false,"rental_uris":{"android":"levelo://app?vid=ac35e660-89e6-4739-9d9a-129983f77756","ios":"levelo://app?vid=ac35e660-89e6-4739-9d9a-129983f77756"},"vehicle_type_id":"4","last_reported":1734711037,"current_range_meters":15200,"station_id":"","pricing_plan_id":"cebpf4jnsgd1na2vs0mg"},{"bike_id":"68cc3280-8c90-422e-b1e6-051d15979724","system_id":"levelo_inurba_marseille","lat":43.23192,"lon":5.39977,"is_reserved":false,"is_disabled":false,"rental_uris":{"android":"levelo://app?vid=68cc3280-8c90-422e-b1e6-051d15979724","ios":"levelo://app?vid=68cc3280-8c90-422e-b1e6-051d15979724"},"vehicle_type_id":"4","last_reported":1734711037,"current_range_meters":16800,"station_id":"ce4bhn12rcd13ifvqgqg","pricing_plan_id":"cebpf4jnsgd1na2vs0mg"},{"bike_id":"762239eb-88b2-4bd6-ab4c-386ecf6d4e71","system_id":"levelo_inurba_marseille","lat":43.29017,"lon":5.38119,"is_reserved":false,"is_disabled":false,"rental_uris":{"android":"levelo://app?vid=762239eb-88b2-4bd6-ab4c-386ecf6d4e71","ios":"levelo://app?vid=762239eb-88b2-4bd6-ab4c-386ecf6d4e71"},"vehicle_type_id":"4","last_reported":1734711037,"current_range_meters":38400,"station_id":"ce4bh4p2rcd13ifvqe1g","pricing_plan_id":"cebpf4jnsgd1na2vs0mg"},{"bike_id":"7b1aaf4d-f192-44dd-92a9-c2c9b8902fce","system_id":"levelo_inurba_marseille","lat":43.29574,"lon":5.37528,"is_reserved":false,"is_disabled":false,"rental_uris":{"android":"levelo://app?vid=7b1aaf4d-f192-44dd-92a9-c2c9b8902fce","ios":"levelo://app?vid=7b1aaf4d-f192-44dd-92a9-c2c9b8902fce"},"vehicle_type_id":"4","last_reported":1734711037,"current_range_meters":38400,"station_id":"ce4bgh92rcd13ifvqb50","pricing_plan_id":"cebpf4jnsgd1na2vs0mg"},{"bike_id":"b3c94148-282c-49ef-bed3-a778d2e917e9","system_id":"levelo_inurba_marseille","lat":43.30156,"lon":5.38084,"is_reserved":false,"is_disabled":false,"rental_uris":{"android":"levelo://app?vid=b3c94148-282c-49ef-bed3-a778d2e917e9","ios":"levelo://app?vid=b3c94148-282c-49ef-bed3-a778d2e917e9"},"vehicle_type_id":"4","last_reported":1734711037,"current_range_meters":33600,"station_id":"ce4bgjp2rcd13ifvqbh0","pricing_plan_id":"cebpf4jnsgd1na2vs0mg"},{"bike_id":"d25a62d7-af27-4bc9-a172-f5e934b927c0","system_id":"levelo_inurba_marseille","lat":43.2572,"lon":5.41114,"is_reserved":false,"is_disabled":false,"rental_uris":{"android":"levelo://app?vid=d25a62d7-af27-4bc9-a172-f5e934b927c0","ios":"levelo://app?vid=d25a62d7-af27-4bc9-a172-f5e934b927c0"},"vehicle_type_id":"4","last_reported":1734711037,"current_range_meters":24000,"station_id":"ce4bhkp2rcd13ifvqgd0","pricing_plan_id":"cebpf4jnsgd1na2vs0mg"},{"bike_id":"f2155042-275c-47e0-8cae-fe4b77efcb7a","system_id":"levelo_inurba_marseille","lat":43.26933,"lon":5.40252,"is_reserved":false,"is_disabled":false,"rental_uris":{"android":"levelo://app?vid=f2155042-275c-47e0-8cae-fe4b77efcb7a","ios":"levelo://app?vid=f2155042-275c-47e0-8cae-fe4b77efcb7a"},"vehicle_type_id":"4","last_reported":1734711037,"current_range_meters":34000,"station_id":"cjm6bp8fraef2m0cb0m0","pricing_plan_id":"cebpf4jnsgd1na2vs0mg"},{"bike_id":"0389d3f3-c55f-4412-ae76-1d66146421e5","system_id":"levelo_inurba_marseille","lat":43.30271,"lon":5.37701,"is_reserved":false,"is_disabled":false,"rental_uris":{"android":"levelo://app?vid=0389d3f3-c55f-4412-ae76-1d66146421e5","ios":"levelo://app?vid=0389d3f3-c55f-4412-ae76-1d66146421e5"},"vehicle_type_id":"4","last_reported":1734711037,"current_range_meters":38000,"station_id":"ce4bguh2rcd13ifvqcj0","pricing_plan_id":"cebpf4jnsgd1na2vs0mg"},{"bike_id":"1a0d11f0-028d-46a4-9578-bf3d63abb59e","system_id":"levelo_inurba_marseille","lat":43.27982,"lon":5.38686,"is_reserved":false,"is_disabled":false,"rental_uris":{"android":"levelo://app?vid=1a0d11f0-028d-46a4-9578-bf3d63abb59e","ios":"levelo://app?vid=1a0d11f0-028d-46a4-9578-bf3d63abb59e"},"vehicle_type_id":"4","last_reported":1734711037,"current_range_meters":38800,"station_id":"ce4bhg12rcd13ifvqf80","pricing_plan_id":"cebpf4jnsgd1na2vs0mg"},{"bike_id":"782bcbf2-b7de-4b04-bebc-aaa0329dd90c","system_id":"levelo_inurba_marseille","lat":43.23194,"lon":5.35552,"is_reserved":false,"is_disabled":false,"rental_uris":{"android":"levelo://app?vid=782bcbf2-b7de-4b04-bebc-aaa0329dd90c","ios":"levelo://app?vid=782bcbf2-b7de-4b04-bebc-aaa0329dd90c"},"vehicle_type_id":"4","last_reported":1734711037,"current_range_meters":36000,"station_id":"ce4bhu92rcd13ifvqi70","pricing_plan_id":"cebpf4jnsgd1na2vs0mg"},{"bike_id":"8bf4e844-9859-44b0-aa6b-34bb8ed5811d","system_id":"levelo_inurba_marseille","lat":43.29609,"lon":5.37734,"is_reserved":false,"is_disabled":false,"rental_uris":{"android":"levelo://app?vid=8bf4e844-9859-44b0-aa6b-34bb8ed5811d","ios":"levelo://app?vid=8bf4e844-9859-44b0-aa6b-34bb8ed5811d"},"vehicle_type_id":"4","last_reported":1734711037,"current_range_meters":25200,"station_id":"ce4bgi92rcd13ifvqb90","pricing_plan_id":"cebpf4jnsgd1na2vs0mg"},{"bike_id":"cebd35cb-7f3e-4a4a-a93c-498051f519b0","system_id":"levelo_inurba_marseille","lat":43.28413,"lon":5.37503,"is_reserved":false,"is_disabled":true,"rental_uris":{"android":"levelo://app?vid=cebd35cb-7f3e-4a4a-a93c-498051f519b0","ios":"levelo://app?vid=cebd35cb-7f3e-4a4a-a93c-498051f519b0"},"vehicle_type_id":"4","last_reported":1734711037,"current_range_meters":0,"station_id":"ce4bh412rcd13ifvqds0","pricing_plan_id":"cebpf4jnsgd1na2vs0mg"},{"bike_id":"3bc3f774-8045-4b13-a54f-3a826c864f17","system_id":"levelo_inurba_marseille","lat":43.2799,"lon":5.41667,"is_reserved":false,"is_disabled":true,"rental_uris":{"android":"levelo://app?vid=3bc3f774-8045-4b13-a54f-3a826c864f17","ios":"levelo://app?vid=3bc3f774-8045-4b13-a54f-3a826c864f17"},"vehicle_type_id":"4","last_reported":1734711037,"current_range_meters":0,"station_id":"ce4bho12rcd13ifvqh1g","pricing_plan_id":"cebpf4jnsgd1na2vs0mg"},{"bike_id":"636fcb99-adcb-4624-b022-8efc725021e9","system_id":"levelo_inurba_marseille","lat":43.30543,"lon":5.38434,"is_reserved":false,"is_disabled":false,"rental_uris":{"android":"levelo://app?vid=636fcb99-adcb-4624-b022-8efc725021e9","ios":"levelo://app?vid=636fcb99-adcb-4624-b022-8efc725021e9"},"vehicle_type_id":"4","last_reported":1734711037,"current_range_meters":24800,"station_id":"ce4bgg92rcd13ifvqb30","pricing_plan_id":"cebpf4jnsgd1na2vs0mg"},{"bike_id":"4cd26b56-2d24-41ec-b924-2e3491be3826","system_id":"levelo_inurba_marseille","lat":43.2762,"lon":5.36103,"is_reserved":false,"is_disabled":false,"rental_uris":{"android":"levelo://app?vid=4cd26b56-2d24-41ec-b924-2e3491be3826","ios":"levelo://app?vid=4cd26b56-2d24-41ec-b924-2e3491be3826"},"vehicle_type_id":"4","last_reported":1734711037,"current_range_meters":29600,"station_id":"ce4bgj92rcd13ifvqbe0","pricing_plan_id":"cebpf4jnsgd1na2vs0mg"},{"bike_id":"1897ad2d-5c02-4d9f-ba4c-937899dfbdc3","system_id":"levelo_inurba_marseille","lat":43.243919,"lon":5.370498,"is_reserved":false,"is_disabled":false,"rental_uris":{"android":"levelo://app?vid=1897ad2d-5c02-4d9f-ba4c-937899dfbdc3","ios":"levelo://app?vid=1897ad2d-5c02-4d9f-ba4c-937899dfbdc3"},"vehicle_type_id":"4","last_reported":1734711037,"current_range_meters":38800,"station_id":"ce4bhhh2rcd13ifvqfk0","pricing_plan_id":"cebpf4jnsgd1na2vs0mg"},{"bike_id":"e9e5d726-62e1-4b6b-a23c-0a4951c24076","system_id":"levelo_inurba_marseille","lat":43.24084,"lon":5.39726,"is_reserved":false,"is_disabled":true,"rental_uris":{"android":"levelo://app?vid=e9e5d726-62e1-4b6b-a23c-0a4951c24076","ios":"levelo://app?vid=e9e5d726-62e1-4b6b-a23c-0a4951c24076"},"vehicle_type_id":"4","last_reported":1734711037,"current_range_meters":0,"station_id":"","pricing_plan_id":"cebpf4jnsgd1na2vs0mg"},{"bike_id":"d532bafb-9e8b-4cf7-90e8-b135eb98500d","system_id":"levelo_inurba_marseille","lat":43.30543,"lon":5.36702,"is_reserved":false,"is_disabled":false,"rental_uris":{"android":"levelo://app?vid=d532bafb-9e8b-4cf7-90e8-b135eb98500d","ios":"levelo://app?vid=d532bafb-9e8b-4cf7-90e8-b135eb98500d"},"vehicle_type_id":"4","last_reported":1734711037,"current_range_meters":38000,"station_id":"ce4bgrp2rcd13ifvqc9g","pricing_plan_id":"cebpf4jnsgd1na2vs0mg"},{"bike_id":"4a359a1e-97fe-4c74-8314-19c6f23fc11a","system_id":"levelo_inurba_marseille","lat":43.30889,"lon":5.37186,"is_reserved":false,"is_disabled":false,"rental_uris":{"android":"levelo://app?vid=4a359a1e-97fe-4c74-8314-19c6f23fc11a","ios":"levelo://app?vid=4a359a1e-97fe-4c74-8314-19c6f23fc11a"},"vehicle_type_id":"4","last_reported":1734711037,"current_range_meters":38800,"station_id":"ce4bguh2rcd13ifvqckg","pricing_plan_id":"cebpf4jnsgd1na2vs0mg"},{"bike_id":"f8b09440-c317-4ec3-9729-94e2d0bc3b5c","system_id":"levelo_inurba_marseille","lat":43.30302,"lon":5.39213,"is_reserved":false,"is_disabled":false,"rental_uris":{"android":"levelo://app?vid=f8b09440-c317-4ec3-9729-94e2d0bc3b5c","ios":"levelo://app?vid=f8b09440-c317-4ec3-9729-94e2d0bc3b5c"},"vehicle_type_id":"4","last_reported":1734711037,"current_range_meters":20000,"station_id":"ce4bgkh2rcd13ifvqbk0","pricing_plan_id":"cebpf4jnsgd1na2vs0mg"},{"bike_id":"36e1421a-526a-45b4-9352-d10c15fd9574","system_id":"levelo_inurba_marseille","lat":43.308094,"lon":5.43513,"is_reserved":false,"is_disabled":false,"rental_uris":{"android":"levelo://app?vid=36e1421a-526a-45b4-9352-d10c15fd9574","ios":"levelo://app?vid=36e1421a-526a-45b4-9352-d10c15fd9574"},"vehicle_type_id":"4","last_reported":1734711037,"current_range_meters":22800,"station_id":"ce4bhph2rcd13ifvqheg","pricing_plan_id":"cebpf4jnsgd1na2vs0mg"},{"bike_id":"da47edb6-6b7d-48ce-8360-5fd99f41974c","system_id":"levelo_inurba_marseille","lat":43.23187,"lon":5.39992,"is_reserved":false,"is_disabled":false,"rental_uris":{"android":"levelo://app?vid=da47edb6-6b7d-48ce-8360-5fd99f41974c","ios":"levelo://app?vid=da47edb6-6b7d-48ce-8360-5fd99f41974c"},"vehicle_type_id":"4","last_reported":1734711037,"current_range_meters":30000,"station_id":"ce4bhn12rcd13ifvqgqg","pricing_plan_id":"cebpf4jnsgd1na2vs0mg"},{"bike_id":"fc7acaf9-c48b-4b16-a364-6da5e3914141","system_id":"levelo_inurba_marseille","lat":43.30132,"lon":5.39862,"is_reserved":false,"is_disabled":false,"rental_uris":{"android":"levelo://app?vid=fc7acaf9-c48b-4b16-a364-6da5e3914141","ios":"levelo://app?vid=fc7acaf9-c48b-4b16-a364-6da5e3914141"},"vehicle_type_id":"4","last_reported":1734711037,"current_range_meters":8400,"station_id":"ce4bh0h2rcd13ifvqd40","pricing_plan_id":"cebpf4jnsgd1na2vs0mg"},{"bike_id":"8d5cd704-3ae3-4b46-9311-ff35a83d3c93","system_id":"levelo_inurba_marseille","lat":43.26805,"lon":5.39449,"is_reserved":false,"is_disabled":false,"rental_uris":{"android":"levelo://app?vid=8d5cd704-3ae3-4b46-9311-ff35a83d3c93","ios":"levelo://app?vid=8d5cd704-3ae3-4b46-9311-ff35a83d3c93"},"vehicle_type_id":"4","last_reported":1734711037,"current_range_meters":32000,"station_id":"ce4bhh12rcd13ifvqfg0","pricing_plan_id":"cebpf4jnsgd1na2vs0mg"},{"bike_id":"44127e4e-8e84-4a38-89f7-8f4efb63f7a5","system_id":"levelo_inurba_marseille","lat":43.31202,"lon":5.36752,"is_reserved":false,"is_disabled":true,"rental_uris":{"android":"levelo://app?vid=44127e4e-8e84-4a38-89f7-8f4efb63f7a5","ios":"levelo://app?vid=44127e4e-8e84-4a38-89f7-8f4efb63f7a5"},"vehicle_type_id":"4","last_reported":1734711037,"current_range_meters":0,"station_id":"","pricing_plan_id":"cebpf4jnsgd1na2vs0mg"},{"bike_id":"b51b6d9e-f955-4912-8ab2-8e2513271c65","system_id":"levelo_inurba_marseille","lat":43.27569,"lon":5.38401,"is_reserved":false,"is_disabled":false,"rental_uris":{"android":"levelo://app?vid=b51b6d9e-f955-4912-8ab2-8e2513271c65","ios":"levelo://app?vid=b51b6d9e-f955-4912-8ab2-8e2513271c65"},"vehicle_type_id":"4","last_reported":1734711037,"current_range_meters":38400,"station_id":"ce4bhh92rcd13ifvqfi0","pricing_plan_id":"cebpf4jnsgd1na2vs0mg"},{"bike_id":"14a3341d-76a5-4f85-81ea-b7803f59e410","system_id":"levelo_inurba_marseille","lat":43.32305,"lon":5.38386,"is_reserved":false,"is_disabled":false,"rental_uris":{"android":"levelo://app?vid=14a3341d-76a5-4f85-81ea-b7803f59e410","ios":"levelo://app?vid=14a3341d-76a5-4f85-81ea-b7803f59e410"},"vehicle_type_id":"4","last_reported":1734711037,"current_range_meters":35600,"station_id":"","pricing_plan_id":"cebpf4jnsgd1na2vs0mg"},{"bike_id":"ad0d9634-91c1-4e40-9c9b-65e7fe20ac12","system_id":"levelo_inurba_marseille","lat":43.28006,"lon":5.40015,"is_reserved":false,"is_disabled":false,"rental_uris":{"android":"levelo://app?vid=ad0d9634-91c1-4e40-9c9b-65e7fe20ac12","ios":"levelo://app?vid=ad0d9634-91c1-4e40-9c9b-65e7fe20ac12"},"vehicle_type_id":"4","last_reported":1734711037,"current_range_meters":8800,"station_id":"ce4bho92rcd13ifvqh4g","pricing_plan_id":"cebpf4jnsgd1na2vs0mg"},{"bike_id":"e53af4bb-798c-44fc-920e-ede8397d1365","system_id":"levelo_inurba_marseille","lat":43.28944,"lon":5.36642,"is_reserved":false,"is_disabled":false,"rental_uris":{"android":"levelo://app?vid=e53af4bb-798c-44fc-920e-ede8397d1365","ios":"levelo://app?vid=e53af4bb-798c-44fc-920e-ede8397d1365"},"vehicle_type_id":"4","last_reported":1734711037,"current_range_meters":34000,"station_id":"ce4bhap2rcd13ifvqek0","pricing_plan_id":"cebpf4jnsgd1na2vs0mg"},{"bike_id":"16aed697-4c3c-4b8d-becb-29bd4ba293bc","system_id":"levelo_inurba_marseille","lat":43.29631,"lon":5.37146,"is_reserved":false,"is_disabled":false,"rental_uris":{"android":"levelo://app?vid=16aed697-4c3c-4b8d-becb-29bd4ba293bc","ios":"levelo://app?vid=16aed697-4c3c-4b8d-becb-29bd4ba293bc"},"vehicle_type_id":"4","last_reported":1734711037,"current_range_meters":36800,"station_id":"ce4bgnh2rcd13ifvqc0g","pricing_plan_id":"cebpf4jnsgd1na2vs0mg"},{"bike_id":"4c1fd80c-e9fb-42bb-9ee8-77cae5913cbe","system_id":"levelo_inurba_marseille","lat":43.28617,"lon":5.37058,"is_reserved":false,"is_disabled":false,"rental_uris":{"android":"levelo://app?vid=4c1fd80c-e9fb-42bb-9ee8-77cae5913cbe","ios":"levelo://app?vid=4c1fd80c-e9fb-42bb-9ee8-77cae5913cbe"},"vehicle_type_id":"4","last_reported":1734711037,"current_range_meters":36800,"station_id":"ce4bht12rcd13ifvqi60","pricing_plan_id":"cebpf4jnsgd1na2vs0mg"},{"bike_id":"a198e248-41c4-4a27-af7b-34f7a7595000","system_id":"levelo_inurba_marseille","lat":43.299095,"lon":5.374617,"is_reserved":false,"is_disabled":false,"rental_uris":{"android":"levelo://app?vid=a198e248-41c4-4a27-af7b-34f7a7595000","ios":"levelo://app?vid=a198e248-41c4-4a27-af7b-34f7a7595000"},"vehicle_type_id":"4","last_reported":1734711037,"current_range_meters":38800,"station_id":"ce4bgjh2rcd13ifvqbg0","pricing_plan_id":"cebpf4jnsgd1na2vs0mg"},{"bike_id":"5ccf4016-43de-40ec-b7cb-18f36b051f59","system_id":"levelo_inurba_marseille","lat":43.28185,"lon":5.42664,"is_reserved":false,"is_disabled":true,"rental_uris":{"android":"levelo://app?vid=5ccf4016-43de-40ec-b7cb-18f36b051f59","ios":"levelo://app?vid=5ccf4016-43de-40ec-b7cb-18f36b051f59"},"vehicle_type_id":"4","last_reported":1734711037,"current_range_meters":1200,"station_id":"ce4bhnh2rcd13ifvqgug","pricing_plan_id":"cebpf4jnsgd1na2vs0mg"},{"bike_id":"0af73d92-da12-41ac-97c8-2b0feb4bf704","system_id":"levelo_inurba_marseille","lat":43.25111,"lon":5.40319,"is_reserved":false,"is_disabled":false,"rental_uris":{"android":"levelo://app?vid=0af73d92-da12-41ac-97c8-2b0feb4bf704","ios":"levelo://app?vid=0af73d92-da12-41ac-97c8-2b0feb4bf704"},"vehicle_type_id":"4","last_reported":1734711037,"current_range_meters":5600,"station_id":"ce4bhlh2rcd13ifvqgig","pricing_plan_id":"cebpf4jnsgd1na2vs0mg"},{"bike_id":"6d3e152a-52b7-4e48-8ce9-495072b8eb15","system_id":"levelo_inurba_marseille","lat":43.33026,"lon":5.39037,"is_reserved":false,"is_disabled":false,"rental_uris":{"android":"levelo://app?vid=6d3e152a-52b7-4e48-8ce9-495072b8eb15","ios":"levelo://app?vid=6d3e152a-52b7-4e48-8ce9-495072b8eb15"},"vehicle_type_id":"4","last_reported":1734711037,"current_range_meters":38800,"station_id":"ce4bhr92rcd13ifvqhrg","pricing_plan_id":"cebpf4jnsgd1na2vs0mg"},{"bike_id":"f4106c4e-f598-41ff-9f05-337b3040db0e","system_id":"levelo_inurba_marseille","lat":43.33003,"lon":5.39044,"is_reserved":false,"is_disabled":false,"rental_uris":{"android":"levelo://app?vid=f4106c4e-f598-41ff-9f05-337b3040db0e","ios":"levelo://app?vid=f4106c4e-f598-41ff-9f05-337b3040db0e"},"vehicle_type_id":"4","last_reported":1734711037,"current_range_meters":14000,"station_id":"ce4bhr92rcd13ifvqhrg","pricing_plan_id":"cebpf4jnsgd1na2vs0mg"},{"bike_id":"82d04b50-e48e-48de-9086-622bd99590fe","system_id":"levelo_inurba_marseille","lat":43.31671,"lon":5.40468,"is_reserved":false,"is_disabled":false,"rental_uris":{"android":"levelo://app?vid=82d04b50-e48e-48de-9086-622bd99590fe","ios":"levelo://app?vid=82d04b50-e48e-48de-9086-622bd99590fe"},"vehicle_type_id":"4","last_reported":1734711037,"current_range_meters":38800,"station_id":"ce4bh012rcd13ifvqd00","pricing_plan_id":"cebpf4jnsgd1na2vs0mg"},{"bike_id":"88d0fca1-50cd-440e-a583-785fe0c07914","system_id":"levelo_inurba_marseille","lat":43.33015,"lon":5.39021,"is_reserved":false,"is_disabled":false,"rental_uris":{"android":"levelo://app?vid=88d0fca1-50cd-440e-a583-785fe0c07914","ios":"levelo://app?vid=88d0fca1-50cd-440e-a583-785fe0c07914"},"vehicle_type_id":"4","last_reported":1734711037,"current_range_meters":3600,"station_id":"ce4bhr92rcd13ifvqhrg","pricing_plan_id":"cebpf4jnsgd1na2vs0mg"},{"bike_id":"584b817f-1a7d-4e53-8e6b-a260280bc97e","system_id":"levelo_inurba_marseille","lat":43.27817,"lon":5.40642,"is_reserved":false,"is_disabled":false,"rental_uris":{"android":"levelo://app?vid=584b817f-1a7d-4e53-8e6b-a260280bc97e","ios":"levelo://app?vid=584b817f-1a7d-4e53-8e6b-a260280bc97e"},"vehicle_type_id":"4","last_reported":1734711037,"current_range_meters":21600,"station_id":"","pricing_plan_id":"cebpf4jnsgd1na2vs0mg"},{"bike_id":"47999179-0530-4062-bf2c-6049c149c154","system_id":"levelo_inurba_marseille","lat":43.30886,"lon":5.39629,"is_reserved":false,"is_disabled":false,"rental_uris":{"android":"levelo://app?vid=47999179-0530-4062-bf2c-6049c149c154","ios":"levelo://app?vid=47999179-0530-4062-bf2c-6049c149c154"},"vehicle_type_id":"4","last_reported":1734711037,"current_range_meters":38800,"station_id":"ce4bh012rcd13ifvqcv0","pricing_plan_id":"cebpf4jnsgd1na2vs0mg"},{"bike_id":"77dd45bd-8318-4b15-b271-d6ad3042584d","system_id":"levelo_inurba_marseille","lat":43.28607,"lon":5.37063,"is_reserved":false,"is_disabled":false,"rental_uris":{"android":"levelo://app?vid=77dd45bd-8318-4b15-b271-d6ad3042584d","ios":"levelo://app?vid=77dd45bd-8318-4b15-b271-d6ad3042584d"},"vehicle_type_id":"4","last_reported":1734711037,"current_range_meters":36400,"station_id":"ce4bht12rcd13ifvqi60","pricing_plan_id":"cebpf4jnsgd1na2vs0mg"},{"bike_id":"e21b3740-0042-462a-b7db-bf50c59c5c46","system_id":"levelo_inurba_marseille","lat":43.23175,"lon":5.39993,"is_reserved":false,"is_disabled":false,"rental_uris":{"android":"levelo://app?vid=e21b3740-0042-462a-b7db-bf50c59c5c46","ios":"levelo://app?vid=e21b3740-0042-462a-b7db-bf50c59c5c46"},"vehicle_type_id":"4","last_reported":1734711037,"current_range_meters":38000,"station_id":"ce4bhn12rcd13ifvqgqg","pricing_plan_id":"cebpf4jnsgd1na2vs0mg"},{"bike_id":"4ce5df16-d3d9-4bcd-bd7b-5456cdfb6471","system_id":"levelo_inurba_marseille","lat":43.29622,"lon":5.37163,"is_reserved":false,"is_disabled":false,"rental_uris":{"android":"levelo://app?vid=4ce5df16-d3d9-4bcd-bd7b-5456cdfb6471","ios":"levelo://app?vid=4ce5df16-d3d9-4bcd-bd7b-5456cdfb6471"},"vehicle_type_id":"4","last_reported":1734711037,"current_range_meters":38000,"station_id":"ce4bgnh2rcd13ifvqc0g","pricing_plan_id":"cebpf4jnsgd1na2vs0mg"},{"bike_id":"0c3f74c9-7fe6-4a32-a121-9ffc2bb55675","system_id":"levelo_inurba_marseille","lat":43.24653,"lon":5.38895,"is_reserved":false,"is_disabled":false,"rental_uris":{"android":"levelo://app?vid=0c3f74c9-7fe6-4a32-a121-9ffc2bb55675","ios":"levelo://app?vid=0c3f74c9-7fe6-4a32-a121-9ffc2bb55675"},"vehicle_type_id":"4","last_reported":1734711037,"current_range_meters":22400,"station_id":"ce4bhg12rcd13ifvqf60","pricing_plan_id":"cebpf4jnsgd1na2vs0mg"},{"bike_id":"f148b7b4-1594-46dd-a894-c75a02d433bb","system_id":"levelo_inurba_marseille","lat":43.29876,"lon":5.38905,"is_reserved":false,"is_disabled":false,"rental_uris":{"android":"levelo://app?vid=f148b7b4-1594-46dd-a894-c75a02d433bb","ios":"levelo://app?vid=f148b7b4-1594-46dd-a894-c75a02d433bb"},"vehicle_type_id":"4","last_reported":1734711037,"current_range_meters":19600,"station_id":"ce4bh392rcd13ifvqdl0","pricing_plan_id":"cebpf4jnsgd1na2vs0mg"},{"bike_id":"0c9a1202-8e72-4c9a-bd45-c006f8854121","system_id":"levelo_inurba_marseille","lat":43.30151,"lon":5.38082,"is_reserved":false,"is_disabled":false,"rental_uris":{"android":"levelo://app?vid=0c9a1202-8e72-4c9a-bd45-c006f8854121","ios":"levelo://app?vid=0c9a1202-8e72-4c9a-bd45-c006f8854121"},"vehicle_type_id":"4","last_reported":1734711037,"current_range_meters":19600,"station_id":"ce4bgjp2rcd13ifvqbh0","pricing_plan_id":"cebpf4jnsgd1na2vs0mg"},{"bike_id":"9f94c5b1-3e9e-4e29-8795-16921aa608a2","system_id":"levelo_inurba_marseille","lat":43.26788,"lon":5.39416,"is_reserved":false,"is_disabled":false,"rental_uris":{"android":"levelo://app?vid=9f94c5b1-3e9e-4e29-8795-16921aa608a2","ios":"levelo://app?vid=9f94c5b1-3e9e-4e29-8795-16921aa608a2"},"vehicle_type_id":"4","last_reported":1734711037,"current_range_meters":31200,"station_id":"ce4bhh12rcd13ifvqfg0","pricing_plan_id":"cebpf4jnsgd1na2vs0mg"},{"bike_id":"38c4dcc2-7e7b-466e-8590-d8e273320cb3","system_id":"levelo_inurba_marseille","lat":43.25122,"lon":5.40318,"is_reserved":false,"is_disabled":false,"rental_uris":{"android":"levelo://app?vid=38c4dcc2-7e7b-466e-8590-d8e273320cb3","ios":"levelo://app?vid=38c4dcc2-7e7b-466e-8590-d8e273320cb3"},"vehicle_type_id":"4","last_reported":1734711037,"current_range_meters":19200,"station_id":"ce4bhlh2rcd13ifvqgig","pricing_plan_id":"cebpf4jnsgd1na2vs0mg"},{"bike_id":"eeb165cd-0850-4135-b307-a7a2de607d7b","system_id":"levelo_inurba_marseille","lat":43.28614,"lon":5.37058,"is_reserved":false,"is_disabled":false,"rental_uris":{"android":"levelo://app?vid=eeb165cd-0850-4135-b307-a7a2de607d7b","ios":"levelo://app?vid=eeb165cd-0850-4135-b307-a7a2de607d7b"},"vehicle_type_id":"4","last_reported":1734711037,"current_range_meters":38800,"station_id":"ce4bht12rcd13ifvqi60","pricing_plan_id":"cebpf4jnsgd1na2vs0mg"},{"bike_id":"d15b9e1c-c1ed-413d-8ee1-a35fe12ec13c","system_id":"levelo_inurba_marseille","lat":43.30881,"lon":5.39634,"is_reserved":false,"is_disabled":false,"rental_uris":{"android":"levelo://app?vid=d15b9e1c-c1ed-413d-8ee1-a35fe12ec13c","ios":"levelo://app?vid=d15b9e1c-c1ed-413d-8ee1-a35fe12ec13c"},"vehicle_type_id":"4","last_reported":1734711037,"current_range_meters":38400,"station_id":"ce4bh012rcd13ifvqcv0","pricing_plan_id":"cebpf4jnsgd1na2vs0mg"},{"bike_id":"bde16004-2a0c-4fc8-acdd-f812d033bf70","system_id":"levelo_inurba_marseille","lat":43.26065,"lon":5.39388,"is_reserved":false,"is_disabled":false,"rental_uris":{"android":"levelo://app?vid=bde16004-2a0c-4fc8-acdd-f812d033bf70","ios":"levelo://app?vid=bde16004-2a0c-4fc8-acdd-f812d033bf70"},"vehicle_type_id":"4","last_reported":1734711037,"current_range_meters":8000,"station_id":"ce4bhh92rcd13ifvqfj0","pricing_plan_id":"cebpf4jnsgd1na2vs0mg"},{"bike_id":"014b72e6-d4f3-4603-ac0f-f404f22e17fd","system_id":"levelo_inurba_marseille","lat":43.27223,"lon":5.39191,"is_reserved":false,"is_disabled":false,"rental_uris":{"android":"levelo://app?vid=014b72e6-d4f3-4603-ac0f-f404f22e17fd","ios":"levelo://app?vid=014b72e6-d4f3-4603-ac0f-f404f22e17fd"},"vehicle_type_id":"4","last_reported":1734711037,"current_range_meters":32800,"station_id":"ce4bhhp2rcd13ifvqfm0","pricing_plan_id":"cebpf4jnsgd1na2vs0mg"},{"bike_id":"269a5c1d-dd1c-4e0c-a02f-f7dd3e557142","system_id":"levelo_inurba_marseille","lat":43.28284,"lon":5.35075,"is_reserved":false,"is_disabled":false,"rental_uris":{"android":"levelo://app?vid=269a5c1d-dd1c-4e0c-a02f-f7dd3e557142","ios":"levelo://app?vid=269a5c1d-dd1c-4e0c-a02f-f7dd3e557142"},"vehicle_type_id":"4","last_reported":1734711037,"current_range_meters":38800,"station_id":"ce4bhbp2rcd13ifvqerg","pricing_plan_id":"cebpf4jnsgd1na2vs0mg"},{"bike_id":"027ad6fa-a454-4f80-8714-9a407458ff41","system_id":"levelo_inurba_marseille","lat":43.29277,"lon":5.36851,"is_reserved":false,"is_disabled":false,"rental_uris":{"android":"levelo://app?vid=027ad6fa-a454-4f80-8714-9a407458ff41","ios":"levelo://app?vid=027ad6fa-a454-4f80-8714-9a407458ff41"},"vehicle_type_id":"4","last_reported":1734711037,"current_range_meters":35200,"station_id":"ce4bhbp2rcd13ifvqesg","pricing_plan_id":"cebpf4jnsgd1na2vs0mg"},{"bike_id":"b97de283-c1e2-4a6a-a5f9-a7d1e36ef5dd","system_id":"levelo_inurba_marseille","lat":43.2963,"lon":5.37156,"is_reserved":false,"is_disabled":false,"rental_uris":{"android":"levelo://app?vid=b97de283-c1e2-4a6a-a5f9-a7d1e36ef5dd","ios":"levelo://app?vid=b97de283-c1e2-4a6a-a5f9-a7d1e36ef5dd"},"vehicle_type_id":"4","last_reported":1734711037,"current_range_meters":38800,"station_id":"ce4bgnh2rcd13ifvqc0g","pricing_plan_id":"cebpf4jnsgd1na2vs0mg"},{"bike_id":"9f50244a-d38a-491a-9f70-c23a46404b46","system_id":"levelo_inurba_marseille","lat":43.28614,"lon":5.37059,"is_reserved":false,"is_disabled":false,"rental_uris":{"android":"levelo://app?vid=9f50244a-d38a-491a-9f70-c23a46404b46","ios":"levelo://app?vid=9f50244a-d38a-491a-9f70-c23a46404b46"},"vehicle_type_id":"4","last_reported":1734711037,"current_range_meters":38800,"station_id":"ce4bht12rcd13ifvqi60","pricing_plan_id":"cebpf4jnsgd1na2vs0mg"},{"bike_id":"d49e9901-0be3-493d-8b2e-09dfce392707","system_id":"levelo_inurba_marseille","lat":43.27376,"lon":5.36235,"is_reserved":false,"is_disabled":false,"rental_uris":{"android":"levelo://app?vid=d49e9901-0be3-493d-8b2e-09dfce392707","ios":"levelo://app?vid=d49e9901-0be3-493d-8b2e-09dfce392707"},"vehicle_type_id":"4","last_reported":1734711037,"current_range_meters":38800,"station_id":"ce4bhbh2rcd13ifvqeo0","pricing_plan_id":"cebpf4jnsgd1na2vs0mg"},{"bike_id":"14ea9127-b96f-4810-917d-c001c3ab434c","system_id":"levelo_inurba_marseille","lat":43.26781,"lon":5.3942,"is_reserved":false,"is_disabled":false,"rental_uris":{"android":"levelo://app?vid=14ea9127-b96f-4810-917d-c001c3ab434c","ios":"levelo://app?vid=14ea9127-b96f-4810-917d-c001c3ab434c"},"vehicle_type_id":"4","last_reported":1734711037,"current_range_meters":21600,"station_id":"ce4bhh12rcd13ifvqfg0","pricing_plan_id":"cebpf4jnsgd1na2vs0mg"},{"bike_id":"2d8348c6-f536-4709-9955-5d94d8e38e89","system_id":"levelo_inurba_marseille","lat":43.27973,"lon":5.38742,"is_reserved":false,"is_disabled":false,"rental_uris":{"android":"levelo://app?vid=2d8348c6-f536-4709-9955-5d94d8e38e89","ios":"levelo://app?vid=2d8348c6-f536-4709-9955-5d94d8e38e89"},"vehicle_type_id":"4","last_reported":1734711037,"current_range_meters":38800,"station_id":"ce4bhg12rcd13ifvqf80","pricing_plan_id":"cebpf4jnsgd1na2vs0mg"},{"bike_id":"fb98f284-a2d9-4f3c-9562-39d6195392d4","system_id":"levelo_inurba_marseille","lat":43.26783,"lon":5.39421,"is_reserved":false,"is_disabled":false,"rental_uris":{"android":"levelo://app?vid=fb98f284-a2d9-4f3c-9562-39d6195392d4","ios":"levelo://app?vid=fb98f284-a2d9-4f3c-9562-39d6195392d4"},"vehicle_type_id":"4","last_reported":1734711037,"current_range_meters":28000,"station_id":"ce4bhh12rcd13ifvqfg0","pricing_plan_id":"cebpf4jnsgd1na2vs0mg"},{"bike_id":"ba613d9a-c172-4f64-b690-2b58c17adbf8","system_id":"levelo_inurba_marseille","lat":43.30546,"lon":5.36527,"is_reserved":false,"is_disabled":false,"rental_uris":{"android":"levelo://app?vid=ba613d9a-c172-4f64-b690-2b58c17adbf8","ios":"levelo://app?vid=ba613d9a-c172-4f64-b690-2b58c17adbf8"},"vehicle_type_id":"4","last_reported":1734711037,"current_range_meters":36800,"station_id":"ce4bgs12rcd13ifvqcag","pricing_plan_id":"cebpf4jnsgd1na2vs0mg"},{"bike_id":"a778632e-b371-4e72-8853-c6878f32b072","system_id":"levelo_inurba_marseille","lat":43.29051,"lon":5.35913,"is_reserved":false,"is_disabled":false,"rental_uris":{"android":"levelo://app?vid=a778632e-b371-4e72-8853-c6878f32b072","ios":"levelo://app?vid=a778632e-b371-4e72-8853-c6878f32b072"},"vehicle_type_id":"4","last_reported":1734711037,"current_range_meters":28000,"station_id":"ce4bha92rcd13ifvqeg0","pricing_plan_id":"cebpf4jnsgd1na2vs0mg"},{"bike_id":"a7053f8c-b657-4929-95e3-080c0ef9f617","system_id":"levelo_inurba_marseille","lat":43.27937,"lon":5.41053,"is_reserved":false,"is_disabled":false,"rental_uris":{"android":"levelo://app?vid=a7053f8c-b657-4929-95e3-080c0ef9f617","ios":"levelo://app?vid=a7053f8c-b657-4929-95e3-080c0ef9f617"},"vehicle_type_id":"4","last_reported":1734711037,"current_range_meters":24000,"station_id":"ce4bhnp2rcd13ifvqh0g","pricing_plan_id":"cebpf4jnsgd1na2vs0mg"},{"bike_id":"8fb1bad3-a121-4eb1-a55f-687f99cf68d1","system_id":"levelo_inurba_marseille","lat":43.255,"lon":5.3764,"is_reserved":false,"is_disabled":false,"rental_uris":{"android":"levelo://app?vid=8fb1bad3-a121-4eb1-a55f-687f99cf68d1","ios":"levelo://app?vid=8fb1bad3-a121-4eb1-a55f-687f99cf68d1"},"vehicle_type_id":"4","last_reported":1734711037,"current_range_meters":38800,"station_id":"ce4bhh12rcd13ifvqff0","pricing_plan_id":"cebpf4jnsgd1na2vs0mg"},{"bike_id":"09bec947-4c4d-46e1-81b7-d95e087b0d9f","system_id":"levelo_inurba_marseille","lat":43.25492,"lon":5.37651,"is_reserved":false,"is_disabled":false,"rental_uris":{"android":"levelo://app?vid=09bec947-4c4d-46e1-81b7-d95e087b0d9f","ios":"levelo://app?vid=09bec947-4c4d-46e1-81b7-d95e087b0d9f"},"vehicle_type_id":"4","last_reported":1734711037,"current_range_meters":38800,"station_id":"ce4bhh12rcd13ifvqff0","pricing_plan_id":"cebpf4jnsgd1na2vs0mg"},{"bike_id":"d774063a-8d0e-493e-a1d0-cf5935db0089","system_id":"levelo_inurba_marseille","lat":43.26942,"lon":5.40254,"is_reserved":false,"is_disabled":false,"rental_uris":{"android":"levelo://app?vid=d774063a-8d0e-493e-a1d0-cf5935db0089","ios":"levelo://app?vid=d774063a-8d0e-493e-a1d0-cf5935db0089"},"vehicle_type_id":"4","last_reported":1734711037,"current_range_meters":38800,"station_id":"cjm6bp8fraef2m0cb0m0","pricing_plan_id":"cebpf4jnsgd1na2vs0mg"},{"bike_id":"fc4ff347-ef4d-4a4d-ae09-babf618fedb6","system_id":"levelo_inurba_marseille","lat":43.24176,"lon":5.36394,"is_reserved":false,"is_disabled":false,"rental_uris":{"android":"levelo://app?vid=fc4ff347-ef4d-4a4d-ae09-babf618fedb6","ios":"levelo://app?vid=fc4ff347-ef4d-4a4d-ae09-babf618fedb6"},"vehicle_type_id":"4","last_reported":1734711037,"current_range_meters":38000,"station_id":"cpo36qri1sfpv3e86is0","pricing_plan_id":"cebpf4jnsgd1na2vs0mg"},{"bike_id":"4e1c702f-4fec-4a09-a45d-af1848f5ba3b","system_id":"levelo_inurba_marseille","lat":43.25579,"lon":5.38235,"is_reserved":false,"is_disabled":false,"rental_uris":{"android":"levelo://app?vid=4e1c702f-4fec-4a09-a45d-af1848f5ba3b","ios":"levelo://app?vid=4e1c702f-4fec-4a09-a45d-af1848f5ba3b"},"vehicle_type_id":"4","last_reported":1734711037,"current_range_meters":38800,"station_id":"ce4bhih2rcd13ifvqfs0","pricing_plan_id":"cebpf4jnsgd1na2vs0mg"},{"bike_id":"92ef1c83-c9a3-4676-ad64-662c02748f79","system_id":"levelo_inurba_marseille","lat":43.28929,"lon":5.38404,"is_reserved":false,"is_disabled":false,"rental_uris":{"android":"levelo://app?vid=92ef1c83-c9a3-4676-ad64-662c02748f79","ios":"levelo://app?vid=92ef1c83-c9a3-4676-ad64-662c02748f79"},"vehicle_type_id":"4","last_reported":1734711037,"current_range_meters":12800,"station_id":"ce4bh612rcd13ifvqe6g","pricing_plan_id":"cebpf4jnsgd1na2vs0mg"},{"bike_id":"f0598eeb-6636-4202-bc3a-c35fdb37b2a3","system_id":"levelo_inurba_marseille","lat":43.30156,"lon":5.3809,"is_reserved":false,"is_disabled":false,"rental_uris":{"android":"levelo://app?vid=f0598eeb-6636-4202-bc3a-c35fdb37b2a3","ios":"levelo://app?vid=f0598eeb-6636-4202-bc3a-c35fdb37b2a3"},"vehicle_type_id":"4","last_reported":1734711037,"current_range_meters":22800,"station_id":"ce4bgjp2rcd13ifvqbh0","pricing_plan_id":"cebpf4jnsgd1na2vs0mg"},{"bike_id":"5fc59427-ff66-4ac7-b740-e6385140447f","system_id":"levelo_inurba_marseille","lat":43.30885,"lon":5.39654,"is_reserved":false,"is_disabled":false,"rental_uris":{"android":"levelo://app?vid=5fc59427-ff66-4ac7-b740-e6385140447f","ios":"levelo://app?vid=5fc59427-ff66-4ac7-b740-e6385140447f"},"vehicle_type_id":"4","last_reported":1734711037,"current_range_meters":32800,"station_id":"ce4bh012rcd13ifvqcv0","pricing_plan_id":"cebpf4jnsgd1na2vs0mg"},{"bike_id":"10cebee1-8e53-4504-8dc6-92f59059f295","system_id":"levelo_inurba_marseille","lat":43.2783,"lon":5.40709,"is_reserved":false,"is_disabled":false,"rental_uris":{"android":"levelo://app?vid=10cebee1-8e53-4504-8dc6-92f59059f295","ios":"levelo://app?vid=10cebee1-8e53-4504-8dc6-92f59059f295"},"vehicle_type_id":"4","last_reported":1734711037,"current_range_meters":39200,"station_id":"ce4bhnh2rcd13ifvqgtg","pricing_plan_id":"cebpf4jnsgd1na2vs0mg"},{"bike_id":"67a4a002-2747-4fde-9326-f268d8663975","system_id":"levelo_inurba_marseille","lat":43.29204,"lon":5.39328,"is_reserved":false,"is_disabled":false,"rental_uris":{"android":"levelo://app?vid=67a4a002-2747-4fde-9326-f268d8663975","ios":"levelo://app?vid=67a4a002-2747-4fde-9326-f268d8663975"},"vehicle_type_id":"4","last_reported":1734711037,"current_range_meters":38000,"station_id":"ce4bh192rcd13ifvqdd0","pricing_plan_id":"cebpf4jnsgd1na2vs0mg"},{"bike_id":"c8d2fd91-0c14-4645-89cc-3e9c94401d3e","system_id":"levelo_inurba_marseille","lat":43.25826,"lon":5.39433,"is_reserved":false,"is_disabled":false,"rental_uris":{"android":"levelo://app?vid=c8d2fd91-0c14-4645-89cc-3e9c94401d3e","ios":"levelo://app?vid=c8d2fd91-0c14-4645-89cc-3e9c94401d3e"},"vehicle_type_id":"4","last_reported":1734711037,"current_range_meters":14800,"station_id":"ce4bhip2rcd13ifvqft0","pricing_plan_id":"cebpf4jnsgd1na2vs0mg"},{"bike_id":"4695cff2-e8a9-4cfc-a059-a1678fa39cf5","system_id":"levelo_inurba_marseille","lat":43.27815,"lon":5.40714,"is_reserved":false,"is_disabled":false,"rental_uris":{"android":"levelo://app?vid=4695cff2-e8a9-4cfc-a059-a1678fa39cf5","ios":"levelo://app?vid=4695cff2-e8a9-4cfc-a059-a1678fa39cf5"},"vehicle_type_id":"4","last_reported":1734711037,"current_range_meters":31200,"station_id":"ce4bhnh2rcd13ifvqgtg","pricing_plan_id":"cebpf4jnsgd1na2vs0mg"},{"bike_id":"cd9c32a6-2eaf-49bc-9468-d8291593aab0","system_id":"levelo_inurba_marseille","lat":43.29863,"lon":5.39726,"is_reserved":false,"is_disabled":false,"rental_uris":{"android":"levelo://app?vid=cd9c32a6-2eaf-49bc-9468-d8291593aab0","ios":"levelo://app?vid=cd9c32a6-2eaf-49bc-9468-d8291593aab0"},"vehicle_type_id":"4","last_reported":1734711037,"current_range_meters":34800,"station_id":"ce4bh0h2rcd13ifvqd50","pricing_plan_id":"cebpf4jnsgd1na2vs0mg"},{"bike_id":"06e248df-04c6-4d69-b0eb-69cbb1fe0400","system_id":"levelo_inurba_marseille","lat":43.27374,"lon":5.36259,"is_reserved":false,"is_disabled":false,"rental_uris":{"android":"levelo://app?vid=06e248df-04c6-4d69-b0eb-69cbb1fe0400","ios":"levelo://app?vid=06e248df-04c6-4d69-b0eb-69cbb1fe0400"},"vehicle_type_id":"4","last_reported":1734711037,"current_range_meters":32000,"station_id":"ce4bhbh2rcd13ifvqeo0","pricing_plan_id":"cebpf4jnsgd1na2vs0mg"},{"bike_id":"014f65b2-e389-4dc9-bdbc-de77644f1fd3","system_id":"levelo_inurba_marseille","lat":43.24809,"lon":5.37458,"is_reserved":false,"is_disabled":false,"rental_uris":{"android":"levelo://app?vid=014f65b2-e389-4dc9-bdbc-de77644f1fd3","ios":"levelo://app?vid=014f65b2-e389-4dc9-bdbc-de77644f1fd3"},"vehicle_type_id":"4","last_reported":1734711037,"current_range_meters":12400,"station_id":"ce4bhgh2rcd13ifvqfb0","pricing_plan_id":"cebpf4jnsgd1na2vs0mg"},{"bike_id":"13a35a67-defb-4b95-b6f1-351314faad7b","system_id":"levelo_inurba_marseille","lat":43.27311,"lon":5.39084,"is_reserved":false,"is_disabled":false,"rental_uris":{"android":"levelo://app?vid=13a35a67-defb-4b95-b6f1-351314faad7b","ios":"levelo://app?vid=13a35a67-defb-4b95-b6f1-351314faad7b"},"vehicle_type_id":"4","last_reported":1734711037,"current_range_meters":31200,"station_id":"ce4bhgp2rcd13ifvqfe0","pricing_plan_id":"cebpf4jnsgd1na2vs0mg"},{"bike_id":"98fc733f-5d91-435e-ad0c-b71f46f528b9","system_id":"levelo_inurba_marseille","lat":43.2961,"lon":5.37726,"is_reserved":false,"is_disabled":false,"rental_uris":{"android":"levelo://app?vid=98fc733f-5d91-435e-ad0c-b71f46f528b9","ios":"levelo://app?vid=98fc733f-5d91-435e-ad0c-b71f46f528b9"},"vehicle_type_id":"4","last_reported":1734711037,"current_range_meters":38400,"station_id":"ce4bgi92rcd13ifvqb90","pricing_plan_id":"cebpf4jnsgd1na2vs0mg"},{"bike_id":"638d1a0a-b22c-4a97-8cfe-d34e6e594a85","system_id":"levelo_inurba_marseille","lat":43.29575,"lon":5.39984,"is_reserved":false,"is_disabled":false,"rental_uris":{"android":"levelo://app?vid=638d1a0a-b22c-4a97-8cfe-d34e6e594a85","ios":"levelo://app?vid=638d1a0a-b22c-4a97-8cfe-d34e6e594a85"},"vehicle_type_id":"4","last_reported":1734711037,"current_range_meters":8000,"station_id":"ce4bh312rcd13ifvqdj0","pricing_plan_id":"cebpf4jnsgd1na2vs0mg"},{"bike_id":"561d59d6-1d47-4d38-b0b2-39b2b1955965","system_id":"levelo_inurba_marseille","lat":43.28695,"lon":5.37388,"is_reserved":false,"is_disabled":false,"rental_uris":{"android":"levelo://app?vid=561d59d6-1d47-4d38-b0b2-39b2b1955965","ios":"levelo://app?vid=561d59d6-1d47-4d38-b0b2-39b2b1955965"},"vehicle_type_id":"4","last_reported":1734711037,"current_range_meters":10800,"station_id":"ce4bh3p2rcd13ifvqdq0","pricing_plan_id":"cebpf4jnsgd1na2vs0mg"},{"bike_id":"1f41c6a9-5c05-49b3-b25c-3178e0d31bc1","system_id":"levelo_inurba_marseille","lat":43.32287,"lon":5.38265,"is_reserved":false,"is_disabled":false,"rental_uris":{"android":"levelo://app?vid=1f41c6a9-5c05-49b3-b25c-3178e0d31bc1","ios":"levelo://app?vid=1f41c6a9-5c05-49b3-b25c-3178e0d31bc1"},"vehicle_type_id":"4","last_reported":1734711037,"current_range_meters":16400,"station_id":"ce4bhr12rcd13ifvqhqg","pricing_plan_id":"cebpf4jnsgd1na2vs0mg"},{"bike_id":"3b3a9f95-b6f9-4abb-b98c-297b41f30393","system_id":"levelo_inurba_marseille","lat":43.28854,"lon":5.35843,"is_reserved":false,"is_disabled":false,"rental_uris":{"android":"levelo://app?vid=3b3a9f95-b6f9-4abb-b98c-297b41f30393","ios":"levelo://app?vid=3b3a9f95-b6f9-4abb-b98c-297b41f30393"},"vehicle_type_id":"4","last_reported":1734711037,"current_range_meters":36400,"station_id":"ce4bhb12rcd13ifvqem0","pricing_plan_id":"cebpf4jnsgd1na2vs0mg"},{"bike_id":"bf1b8baa-ea39-4542-9d79-18e23a29399b","system_id":"levelo_inurba_marseille","lat":43.29065,"lon":5.37153,"is_reserved":false,"is_disabled":false,"rental_uris":{"android":"levelo://app?vid=bf1b8baa-ea39-4542-9d79-18e23a29399b","ios":"levelo://app?vid=bf1b8baa-ea39-4542-9d79-18e23a29399b"},"vehicle_type_id":"4","last_reported":1734711037,"current_range_meters":22400,"station_id":"ce4bh5p2rcd13ifvqe4g","pricing_plan_id":"cebpf4jnsgd1na2vs0mg"},{"bike_id":"2a12bde8-ca1e-4ca8-8cbb-8dbf9a638106","system_id":"levelo_inurba_marseille","lat":43.23204,"lon":5.35561,"is_reserved":false,"is_disabled":false,"rental_uris":{"android":"levelo://app?vid=2a12bde8-ca1e-4ca8-8cbb-8dbf9a638106","ios":"levelo://app?vid=2a12bde8-ca1e-4ca8-8cbb-8dbf9a638106"},"vehicle_type_id":"4","last_reported":1734711037,"current_range_meters":24800,"station_id":"ce4bhu92rcd13ifvqi70","pricing_plan_id":"cebpf4jnsgd1na2vs0mg"},{"bike_id":"82b98b08-cf84-40f3-a0a4-1136038c5b5f","system_id":"levelo_inurba_marseille","lat":43.28843,"lon":5.35858,"is_reserved":false,"is_disabled":false,"rental_uris":{"android":"levelo://app?vid=82b98b08-cf84-40f3-a0a4-1136038c5b5f","ios":"levelo://app?vid=82b98b08-cf84-40f3-a0a4-1136038c5b5f"},"vehicle_type_id":"4","last_reported":1734711037,"current_range_meters":34800,"station_id":"ce4bhb12rcd13ifvqem0","pricing_plan_id":"cebpf4jnsgd1na2vs0mg"},{"bike_id":"c4f01ca7-28f1-454d-ba01-b7f6f6e2db1f","system_id":"levelo_inurba_marseille","lat":43.24806,"lon":5.37457,"is_reserved":false,"is_disabled":false,"rental_uris":{"android":"levelo://app?vid=c4f01ca7-28f1-454d-ba01-b7f6f6e2db1f","ios":"levelo://app?vid=c4f01ca7-28f1-454d-ba01-b7f6f6e2db1f"},"vehicle_type_id":"4","last_reported":1734711037,"current_range_meters":15200,"station_id":"ce4bhgh2rcd13ifvqfb0","pricing_plan_id":"cebpf4jnsgd1na2vs0mg"},{"bike_id":"434fc0df-6295-4be1-949d-a77a16929ec8","system_id":"levelo_inurba_marseille","lat":43.261996,"lon":5.379321,"is_reserved":false,"is_disabled":false,"rental_uris":{"android":"levelo://app?vid=434fc0df-6295-4be1-949d-a77a16929ec8","ios":"levelo://app?vid=434fc0df-6295-4be1-949d-a77a16929ec8"},"vehicle_type_id":"4","last_reported":1734711037,"current_range_meters":38800,"station_id":"ce4bhjp2rcd13ifvqg90","pricing_plan_id":"cebpf4jnsgd1na2vs0mg"},{"bike_id":"52d103dc-06c5-4c21-970e-d027f8ec7fee","system_id":"levelo_inurba_marseille","lat":43.25089,"lon":5.39517,"is_reserved":false,"is_disabled":false,"rental_uris":{"android":"levelo://app?vid=52d103dc-06c5-4c21-970e-d027f8ec7fee","ios":"levelo://app?vid=52d103dc-06c5-4c21-970e-d027f8ec7fee"},"vehicle_type_id":"4","last_reported":1734711037,"current_range_meters":10000,"station_id":"ce4bhm12rcd13ifvqgkg","pricing_plan_id":"cebpf4jnsgd1na2vs0mg"},{"bike_id":"f0bcbb45-555d-4c5b-8534-084b0fafc4e9","system_id":"levelo_inurba_marseille","lat":43.29165,"lon":5.37148,"is_reserved":false,"is_disabled":true,"rental_uris":{"android":"levelo://app?vid=f0bcbb45-555d-4c5b-8534-084b0fafc4e9","ios":"levelo://app?vid=f0bcbb45-555d-4c5b-8534-084b0fafc4e9"},"vehicle_type_id":"4","last_reported":1734711037,"current_range_meters":11200,"station_id":"ce4bha92rcd13ifvqeh0","pricing_plan_id":"cebpf4jnsgd1na2vs0mg"},{"bike_id":"7dd6393c-b620-4591-ae70-a7d1b2028444","system_id":"levelo_inurba_marseille","lat":43.31707,"lon":5.37751,"is_reserved":false,"is_disabled":false,"rental_uris":{"android":"levelo://app?vid=7dd6393c-b620-4591-ae70-a7d1b2028444","ios":"levelo://app?vid=7dd6393c-b620-4591-ae70-a7d1b2028444"},"vehicle_type_id":"4","last_reported":1734711037,"current_range_meters":38800,"station_id":"ce4bgth2rcd13ifvqch0","pricing_plan_id":"cebpf4jnsgd1na2vs0mg"},{"bike_id":"2a4abf2e-b79f-44b8-baa5-024c717448dc","system_id":"levelo_inurba_marseille","lat":43.30542,"lon":5.36539,"is_reserved":false,"is_disabled":false,"rental_uris":{"android":"levelo://app?vid=2a4abf2e-b79f-44b8-baa5-024c717448dc","ios":"levelo://app?vid=2a4abf2e-b79f-44b8-baa5-024c717448dc"},"vehicle_type_id":"4","last_reported":1734711037,"current_range_meters":36800,"station_id":"ce4bgs12rcd13ifvqcag","pricing_plan_id":"cebpf4jnsgd1na2vs0mg"},{"bike_id":"b002d028-e42c-46e2-93ce-a18a7a90546e","system_id":"levelo_inurba_marseille","lat":43.32301,"lon":5.38285,"is_reserved":false,"is_disabled":false,"rental_uris":{"android":"levelo://app?vid=b002d028-e42c-46e2-93ce-a18a7a90546e","ios":"levelo://app?vid=b002d028-e42c-46e2-93ce-a18a7a90546e"},"vehicle_type_id":"4","last_reported":1734711037,"current_range_meters":16800,"station_id":"ce4bhr12rcd13ifvqhqg","pricing_plan_id":"cebpf4jnsgd1na2vs0mg"},{"bike_id":"090bd1f0-d75e-4c30-aad2-56d990024016","system_id":"levelo_inurba_marseille","lat":43.2988,"lon":5.39737,"is_reserved":false,"is_disabled":false,"rental_uris":{"android":"levelo://app?vid=090bd1f0-d75e-4c30-aad2-56d990024016","ios":"levelo://app?vid=090bd1f0-d75e-4c30-aad2-56d990024016"},"vehicle_type_id":"4","last_reported":1734711037,"current_range_meters":19600,"station_id":"ce4bh0h2rcd13ifvqd50","pricing_plan_id":"cebpf4jnsgd1na2vs0mg"},{"bike_id":"cd7c4e5f-dac7-4b20-b813-d214c9037ac4","system_id":"levelo_inurba_marseille","lat":43.25859,"lon":5.399105,"is_reserved":false,"is_disabled":false,"rental_uris":{"android":"levelo://app?vid=cd7c4e5f-dac7-4b20-b813-d214c9037ac4","ios":"levelo://app?vid=cd7c4e5f-dac7-4b20-b813-d214c9037ac4"},"vehicle_type_id":"4","last_reported":1734711037,"current_range_meters":36400,"station_id":"ce4bhl92rcd13ifvqghg","pricing_plan_id":"cebpf4jnsgd1na2vs0mg"},{"bike_id":"117e128b-6b9b-4adf-a787-e1bbde6205c2","system_id":"levelo_inurba_marseille","lat":43.29631,"lon":5.4058,"is_reserved":false,"is_disabled":false,"rental_uris":{"android":"levelo://app?vid=117e128b-6b9b-4adf-a787-e1bbde6205c2","ios":"levelo://app?vid=117e128b-6b9b-4adf-a787-e1bbde6205c2"},"vehicle_type_id":"4","last_reported":1734711037,"current_range_meters":39200,"station_id":"ce4bh0h2rcd13ifvqd60","pricing_plan_id":"cebpf4jnsgd1na2vs0mg"},{"bike_id":"1040f4d2-d0a4-4d56-a64b-8aa8d285e0ef","system_id":"levelo_inurba_marseille","lat":43.28268,"lon":5.35067,"is_reserved":false,"is_disabled":false,"rental_uris":{"android":"levelo://app?vid=1040f4d2-d0a4-4d56-a64b-8aa8d285e0ef","ios":"levelo://app?vid=1040f4d2-d0a4-4d56-a64b-8aa8d285e0ef"},"vehicle_type_id":"4","last_reported":1734711037,"current_range_meters":25600,"station_id":"ce4bhbp2rcd13ifvqerg","pricing_plan_id":"cebpf4jnsgd1na2vs0mg"},{"bike_id":"4094ac40-fe97-4483-91f4-bc4b6a97b4f3","system_id":"levelo_inurba_marseille","lat":43.25838,"lon":5.39415,"is_reserved":false,"is_disabled":false,"rental_uris":{"android":"levelo://app?vid=4094ac40-fe97-4483-91f4-bc4b6a97b4f3","ios":"levelo://app?vid=4094ac40-fe97-4483-91f4-bc4b6a97b4f3"},"vehicle_type_id":"4","last_reported":1734711037,"current_range_meters":9600,"station_id":"ce4bhip2rcd13ifvqft0","pricing_plan_id":"cebpf4jnsgd1na2vs0mg"},{"bike_id":"b44f9236-c33f-43b3-ab7e-0f32e9951c9e","system_id":"levelo_inurba_marseille","lat":43.23203,"lon":5.35556,"is_reserved":false,"is_disabled":false,"rental_uris":{"android":"levelo://app?vid=b44f9236-c33f-43b3-ab7e-0f32e9951c9e","ios":"levelo://app?vid=b44f9236-c33f-43b3-ab7e-0f32e9951c9e"},"vehicle_type_id":"4","last_reported":1734711037,"current_range_meters":38800,"station_id":"ce4bhu92rcd13ifvqi70","pricing_plan_id":"cebpf4jnsgd1na2vs0mg"},{"bike_id":"d87ffba0-4755-4b72-af0f-d66b6e4b6a85","system_id":"levelo_inurba_marseille","lat":43.28362,"lon":5.38098,"is_reserved":false,"is_disabled":false,"rental_uris":{"android":"levelo://app?vid=d87ffba0-4755-4b72-af0f-d66b6e4b6a85","ios":"levelo://app?vid=d87ffba0-4755-4b72-af0f-d66b6e4b6a85"},"vehicle_type_id":"4","last_reported":1734711037,"current_range_meters":11600,"station_id":"ce4bh412rcd13ifvqdr0","pricing_plan_id":"cebpf4jnsgd1na2vs0mg"},{"bike_id":"7cdaab41-d6a9-411c-91af-08e1cd111a45","system_id":"levelo_inurba_marseille","lat":43.30779,"lon":5.40267,"is_reserved":false,"is_disabled":false,"rental_uris":{"android":"levelo://app?vid=7cdaab41-d6a9-411c-91af-08e1cd111a45","ios":"levelo://app?vid=7cdaab41-d6a9-411c-91af-08e1cd111a45"},"vehicle_type_id":"4","last_reported":1734711037,"current_range_meters":10800,"station_id":"","pricing_plan_id":"cebpf4jnsgd1na2vs0mg"},{"bike_id":"ccc6602e-98be-4003-8018-85b6210ad28c","system_id":"levelo_inurba_marseille","lat":43.27684,"lon":5.38892,"is_reserved":false,"is_disabled":false,"rental_uris":{"android":"levelo://app?vid=ccc6602e-98be-4003-8018-85b6210ad28c","ios":"levelo://app?vid=ccc6602e-98be-4003-8018-85b6210ad28c"},"vehicle_type_id":"4","last_reported":1734711037,"current_range_meters":27600,"station_id":"ce4bhi12rcd13ifvqfo0","pricing_plan_id":"cebpf4jnsgd1na2vs0mg"},{"bike_id":"eee3ab3f-1f34-4288-8c7e-f51394f74087","system_id":"levelo_inurba_marseille","lat":43.24674,"lon":5.38151,"is_reserved":false,"is_disabled":false,"rental_uris":{"android":"levelo://app?vid=eee3ab3f-1f34-4288-8c7e-f51394f74087","ios":"levelo://app?vid=eee3ab3f-1f34-4288-8c7e-f51394f74087"},"vehicle_type_id":"4","last_reported":1734711037,"current_range_meters":38800,"station_id":"ce4bhih2rcd13ifvqfr0","pricing_plan_id":"cebpf4jnsgd1na2vs0mg"},{"bike_id":"a75b08f1-37cc-41c5-95db-2b9ed81dc942","system_id":"levelo_inurba_marseille","lat":43.29725,"lon":5.37696,"is_reserved":false,"is_disabled":false,"rental_uris":{"android":"levelo://app?vid=a75b08f1-37cc-41c5-95db-2b9ed81dc942","ios":"levelo://app?vid=a75b08f1-37cc-41c5-95db-2b9ed81dc942"},"vehicle_type_id":"4","last_reported":1734711037,"current_range_meters":24000,"station_id":"ce4bgkh2rcd13ifvqbl0","pricing_plan_id":"cebpf4jnsgd1na2vs0mg"},{"bike_id":"7f26a9f5-a8ad-47b3-9fb1-698bff1dae74","system_id":"levelo_inurba_marseille","lat":43.30309,"lon":5.377,"is_reserved":false,"is_disabled":false,"rental_uris":{"android":"levelo://app?vid=7f26a9f5-a8ad-47b3-9fb1-698bff1dae74","ios":"levelo://app?vid=7f26a9f5-a8ad-47b3-9fb1-698bff1dae74"},"vehicle_type_id":"4","last_reported":1734711037,"current_range_meters":38800,"station_id":"ce4bguh2rcd13ifvqcj0","pricing_plan_id":"cebpf4jnsgd1na2vs0mg"},{"bike_id":"6b2d33d2-c480-4eff-a39c-ef0138c5be04","system_id":"levelo_inurba_marseille","lat":43.29712,"lon":5.36593,"is_reserved":false,"is_disabled":false,"rental_uris":{"android":"levelo://app?vid=6b2d33d2-c480-4eff-a39c-ef0138c5be04","ios":"levelo://app?vid=6b2d33d2-c480-4eff-a39c-ef0138c5be04"},"vehicle_type_id":"4","last_reported":1734711037,"current_range_meters":38800,"station_id":"ce4bgn12rcd13ifvqbt0","pricing_plan_id":"cebpf4jnsgd1na2vs0mg"},{"bike_id":"17b601cd-a936-4f03-83ec-79f3f5082e84","system_id":"levelo_inurba_marseille","lat":43.33024,"lon":5.39035,"is_reserved":false,"is_disabled":false,"rental_uris":{"android":"levelo://app?vid=17b601cd-a936-4f03-83ec-79f3f5082e84","ios":"levelo://app?vid=17b601cd-a936-4f03-83ec-79f3f5082e84"},"vehicle_type_id":"4","last_reported":1734711037,"current_range_meters":25200,"station_id":"ce4bhr92rcd13ifvqhrg","pricing_plan_id":"cebpf4jnsgd1na2vs0mg"},{"bike_id":"59edd089-7379-4180-ab91-a07c47a59c06","system_id":"levelo_inurba_marseille","lat":43.31084,"lon":5.42432,"is_reserved":false,"is_disabled":false,"rental_uris":{"android":"levelo://app?vid=59edd089-7379-4180-ab91-a07c47a59c06","ios":"levelo://app?vid=59edd089-7379-4180-ab91-a07c47a59c06"},"vehicle_type_id":"4","last_reported":1734711037,"current_range_meters":25600,"station_id":"ce4bhp92rcd13ifvqhag","pricing_plan_id":"cebpf4jnsgd1na2vs0mg"},{"bike_id":"61d6996d-3290-4ff0-9ef3-387b57fcacbb","system_id":"levelo_inurba_marseille","lat":43.30158,"lon":5.37397,"is_reserved":false,"is_disabled":false,"rental_uris":{"android":"levelo://app?vid=61d6996d-3290-4ff0-9ef3-387b57fcacbb","ios":"levelo://app?vid=61d6996d-3290-4ff0-9ef3-387b57fcacbb"},"vehicle_type_id":"4","last_reported":1734711037,"current_range_meters":32800,"station_id":"ce4bgs92rcd13ifvqcc0","pricing_plan_id":"cebpf4jnsgd1na2vs0mg"},{"bike_id":"cf7ee5da-8f20-4e0c-9be2-887033ef8c21","system_id":"levelo_inurba_marseille","lat":43.299333,"lon":5.365651,"is_reserved":false,"is_disabled":false,"rental_uris":{"android":"levelo://app?vid=cf7ee5da-8f20-4e0c-9be2-887033ef8c21","ios":"levelo://app?vid=cf7ee5da-8f20-4e0c-9be2-887033ef8c21"},"vehicle_type_id":"4","last_reported":1734711037,"current_range_meters":28400,"station_id":"ce4bgm92rcd13ifvqbr0","pricing_plan_id":"cebpf4jnsgd1na2vs0mg"},{"bike_id":"ff2c6e08-65dd-4d02-a5dc-248b32d35d34","system_id":"levelo_inurba_marseille","lat":43.26206,"lon":5.3745,"is_reserved":false,"is_disabled":false,"rental_uris":{"android":"levelo://app?vid=ff2c6e08-65dd-4d02-a5dc-248b32d35d34","ios":"levelo://app?vid=ff2c6e08-65dd-4d02-a5dc-248b32d35d34"},"vehicle_type_id":"4","last_reported":1734711037,"current_range_meters":38000,"station_id":"ce4bhgp2rcd13ifvqfc0","pricing_plan_id":"cebpf4jnsgd1na2vs0mg"},{"bike_id":"811bb531-1de9-425d-bc91-b1a27311e2d7","system_id":"levelo_inurba_marseille","lat":43.27177,"lon":5.40997,"is_reserved":false,"is_disabled":false,"rental_uris":{"android":"levelo://app?vid=811bb531-1de9-425d-bc91-b1a27311e2d7","ios":"levelo://app?vid=811bb531-1de9-425d-bc91-b1a27311e2d7"},"vehicle_type_id":"4","last_reported":1734711037,"current_range_meters":34800,"station_id":"ce4bhl12rcd13ifvqgf0","pricing_plan_id":"cebpf4jnsgd1na2vs0mg"},{"bike_id":"145b4131-68e1-411d-ba4a-4016be63f7bf","system_id":"levelo_inurba_marseille","lat":43.26558,"lon":5.37291,"is_reserved":false,"is_disabled":false,"rental_uris":{"android":"levelo://app?vid=145b4131-68e1-411d-ba4a-4016be63f7bf","ios":"levelo://app?vid=145b4131-68e1-411d-ba4a-4016be63f7bf"},"vehicle_type_id":"4","last_reported":1734711037,"current_range_meters":35600,"station_id":"ce4bhg12rcd13ifvqf70","pricing_plan_id":"cebpf4jnsgd1na2vs0mg"},{"bike_id":"bb1f2d7a-5e3a-4cf1-9415-e597a327b016","system_id":"levelo_inurba_marseille","lat":43.26561,"lon":5.37283,"is_reserved":false,"is_disabled":false,"rental_uris":{"android":"levelo://app?vid=bb1f2d7a-5e3a-4cf1-9415-e597a327b016","ios":"levelo://app?vid=bb1f2d7a-5e3a-4cf1-9415-e597a327b016"},"vehicle_type_id":"4","last_reported":1734711037,"current_range_meters":11200,"station_id":"ce4bhg12rcd13ifvqf70","pricing_plan_id":"cebpf4jnsgd1na2vs0mg"},{"bike_id":"5a9e1f8f-4a37-48c8-bff5-f7b67145cfce","system_id":"levelo_inurba_marseille","lat":43.30294,"lon":5.37702,"is_reserved":false,"is_disabled":false,"rental_uris":{"android":"levelo://app?vid=5a9e1f8f-4a37-48c8-bff5-f7b67145cfce","ios":"levelo://app?vid=5a9e1f8f-4a37-48c8-bff5-f7b67145cfce"},"vehicle_type_id":"4","last_reported":1734711037,"current_range_meters":35600,"station_id":"ce4bguh2rcd13ifvqcj0","pricing_plan_id":"cebpf4jnsgd1na2vs0mg"},{"bike_id":"522ebddf-020e-4164-a0fa-4e6f6d68e6b9","system_id":"levelo_inurba_marseille","lat":43.27823,"lon":5.40726,"is_reserved":false,"is_disabled":false,"rental_uris":{"android":"levelo://app?vid=522ebddf-020e-4164-a0fa-4e6f6d68e6b9","ios":"levelo://app?vid=522ebddf-020e-4164-a0fa-4e6f6d68e6b9"},"vehicle_type_id":"4","last_reported":1734711037,"current_range_meters":22000,"station_id":"ce4bhnh2rcd13ifvqgtg","pricing_plan_id":"cebpf4jnsgd1na2vs0mg"},{"bike_id":"d7a9a039-2919-4498-94bc-85df69bbf9b4","system_id":"levelo_inurba_marseille","lat":43.25099,"lon":5.39513,"is_reserved":false,"is_disabled":false,"rental_uris":{"android":"levelo://app?vid=d7a9a039-2919-4498-94bc-85df69bbf9b4","ios":"levelo://app?vid=d7a9a039-2919-4498-94bc-85df69bbf9b4"},"vehicle_type_id":"4","last_reported":1734711037,"current_range_meters":6000,"station_id":"ce4bhm12rcd13ifvqgkg","pricing_plan_id":"cebpf4jnsgd1na2vs0mg"},{"bike_id":"e22aa40e-4498-46be-8f58-36c823e909f8","system_id":"levelo_inurba_marseille","lat":43.28854,"lon":5.35859,"is_reserved":false,"is_disabled":false,"rental_uris":{"android":"levelo://app?vid=e22aa40e-4498-46be-8f58-36c823e909f8","ios":"levelo://app?vid=e22aa40e-4498-46be-8f58-36c823e909f8"},"vehicle_type_id":"4","last_reported":1734711037,"current_range_meters":36400,"station_id":"ce4bhb12rcd13ifvqem0","pricing_plan_id":"cebpf4jnsgd1na2vs0mg"},{"bike_id":"f6e00a83-cc1f-4aaf-83bb-77e9d3b9e809","system_id":"levelo_inurba_marseille","lat":43.337444,"lon":5.374475,"is_reserved":false,"is_disabled":false,"rental_uris":{"android":"levelo://app?vid=f6e00a83-cc1f-4aaf-83bb-77e9d3b9e809","ios":"levelo://app?vid=f6e00a83-cc1f-4aaf-83bb-77e9d3b9e809"},"vehicle_type_id":"4","last_reported":1734711037,"current_range_meters":28000,"station_id":"","pricing_plan_id":"cebpf4jnsgd1na2vs0mg"},{"bike_id":"2e0a4273-9b64-4eb1-8d1b-b8e55991eb0a","system_id":"levelo_inurba_marseille","lat":43.2728,"lon":5.4008,"is_reserved":false,"is_disabled":true,"rental_uris":{"android":"levelo://app?vid=2e0a4273-9b64-4eb1-8d1b-b8e55991eb0a","ios":"levelo://app?vid=2e0a4273-9b64-4eb1-8d1b-b8e55991eb0a"},"vehicle_type_id":"4","last_reported":1734711037,"current_range_meters":0,"station_id":"","pricing_plan_id":"cebpf4jnsgd1na2vs0mg"},{"bike_id":"08678457-b2ae-4e17-878c-b423670d0798","system_id":"levelo_inurba_marseille","lat":43.29619,"lon":5.37723,"is_reserved":false,"is_disabled":false,"rental_uris":{"android":"levelo://app?vid=08678457-b2ae-4e17-878c-b423670d0798","ios":"levelo://app?vid=08678457-b2ae-4e17-878c-b423670d0798"},"vehicle_type_id":"4","last_reported":1734711037,"current_range_meters":12000,"station_id":"ce4bgi92rcd13ifvqb90","pricing_plan_id":"cebpf4jnsgd1na2vs0mg"},{"bike_id":"30289b14-76f8-43ad-b446-b979609a1dda","system_id":"levelo_inurba_marseille","lat":43.303175,"lon":5.369013,"is_reserved":false,"is_disabled":false,"rental_uris":{"android":"levelo://app?vid=30289b14-76f8-43ad-b446-b979609a1dda","ios":"levelo://app?vid=30289b14-76f8-43ad-b446-b979609a1dda"},"vehicle_type_id":"4","last_reported":1734711037,"current_range_meters":38800,"station_id":"ce4bgqh2rcd13ifvqc5g","pricing_plan_id":"cebpf4jnsgd1na2vs0mg"},{"bike_id":"f957ffa3-7b76-4b18-bb62-81627d313cf8","system_id":"levelo_inurba_marseille","lat":43.23197,"lon":5.35555,"is_reserved":false,"is_disabled":false,"rental_uris":{"android":"levelo://app?vid=f957ffa3-7b76-4b18-bb62-81627d313cf8","ios":"levelo://app?vid=f957ffa3-7b76-4b18-bb62-81627d313cf8"},"vehicle_type_id":"4","last_reported":1734711037,"current_range_meters":29600,"station_id":"ce4bhu92rcd13ifvqi70","pricing_plan_id":"cebpf4jnsgd1na2vs0mg"},{"bike_id":"5dd95ec7-a282-40a6-a0fe-4e2e61de4064","system_id":"levelo_inurba_marseille","lat":43.26346,"lon":5.40131,"is_reserved":false,"is_disabled":true,"rental_uris":{"android":"levelo://app?vid=5dd95ec7-a282-40a6-a0fe-4e2e61de4064","ios":"levelo://app?vid=5dd95ec7-a282-40a6-a0fe-4e2e61de4064"},"vehicle_type_id":"4","last_reported":1734711037,"current_range_meters":7200,"station_id":"","pricing_plan_id":"cebpf4jnsgd1na2vs0mg"},{"bike_id":"a86ec51d-9767-48f5-9411-073a7de5a6cb","system_id":"levelo_inurba_marseille","lat":43.29851,"lon":5.36277,"is_reserved":false,"is_disabled":false,"rental_uris":{"android":"levelo://app?vid=a86ec51d-9767-48f5-9411-073a7de5a6cb","ios":"levelo://app?vid=a86ec51d-9767-48f5-9411-073a7de5a6cb"},"vehicle_type_id":"4","last_reported":1734711037,"current_range_meters":35600,"station_id":"ce4bgpp2rcd13ifvqc3g","pricing_plan_id":"cebpf4jnsgd1na2vs0mg"},{"bike_id":"2256e953-e04c-4a1a-96b7-b03d74e4d2b6","system_id":"levelo_inurba_marseille","lat":43.2481,"lon":5.37452,"is_reserved":false,"is_disabled":false,"rental_uris":{"android":"levelo://app?vid=2256e953-e04c-4a1a-96b7-b03d74e4d2b6","ios":"levelo://app?vid=2256e953-e04c-4a1a-96b7-b03d74e4d2b6"},"vehicle_type_id":"4","last_reported":1734711037,"current_range_meters":38800,"station_id":"ce4bhgh2rcd13ifvqfb0","pricing_plan_id":"cebpf4jnsgd1na2vs0mg"},{"bike_id":"260171d1-5388-4de2-8f1f-acb7e571567f","system_id":"levelo_inurba_marseille","lat":43.29776,"lon":5.37696,"is_reserved":false,"is_disabled":false,"rental_uris":{"android":"levelo://app?vid=260171d1-5388-4de2-8f1f-acb7e571567f","ios":"levelo://app?vid=260171d1-5388-4de2-8f1f-acb7e571567f"},"vehicle_type_id":"4","last_reported":1734711037,"current_range_meters":16400,"station_id":"","pricing_plan_id":"cebpf4jnsgd1na2vs0mg"},{"bike_id":"d60d8232-4a96-492d-9348-9c3d8bdfda03","system_id":"levelo_inurba_marseille","lat":43.29838,"lon":5.36292,"is_reserved":false,"is_disabled":false,"rental_uris":{"android":"levelo://app?vid=d60d8232-4a96-492d-9348-9c3d8bdfda03","ios":"levelo://app?vid=d60d8232-4a96-492d-9348-9c3d8bdfda03"},"vehicle_type_id":"4","last_reported":1734711037,"current_range_meters":39200,"station_id":"ce4bgpp2rcd13ifvqc3g","pricing_plan_id":"cebpf4jnsgd1na2vs0mg"},{"bike_id":"71bbf96e-867e-43ae-af00-19d339bd7b65","system_id":"levelo_inurba_marseille","lat":43.26939,"lon":5.38937,"is_reserved":false,"is_disabled":false,"rental_uris":{"android":"levelo://app?vid=71bbf96e-867e-43ae-af00-19d339bd7b65","ios":"levelo://app?vid=71bbf96e-867e-43ae-af00-19d339bd7b65"},"vehicle_type_id":"4","last_reported":1734711037,"current_range_meters":32800,"station_id":"ce4bhhh2rcd13ifvqfl0","pricing_plan_id":"cebpf4jnsgd1na2vs0mg"},{"bike_id":"2fdc3292-7478-4713-ad1d-204237e84084","system_id":"levelo_inurba_marseille","lat":43.31368,"lon":5.38363,"is_reserved":false,"is_disabled":false,"rental_uris":{"android":"levelo://app?vid=2fdc3292-7478-4713-ad1d-204237e84084","ios":"levelo://app?vid=2fdc3292-7478-4713-ad1d-204237e84084"},"vehicle_type_id":"4","last_reported":1734711037,"current_range_meters":36800,"station_id":"","pricing_plan_id":"cebpf4jnsgd1na2vs0mg"},{"bike_id":"19f34006-1dba-4c03-b59a-0511830589aa","system_id":"levelo_inurba_marseille","lat":43.24812,"lon":5.37478,"is_reserved":false,"is_disabled":false,"rental_uris":{"android":"levelo://app?vid=19f34006-1dba-4c03-b59a-0511830589aa","ios":"levelo://app?vid=19f34006-1dba-4c03-b59a-0511830589aa"},"vehicle_type_id":"4","last_reported":1734711037,"current_range_meters":25200,"station_id":"ce4bhgh2rcd13ifvqfb0","pricing_plan_id":"cebpf4jnsgd1na2vs0mg"},{"bike_id":"420e50bc-a0ce-4397-b1c6-a56298406987","system_id":"levelo_inurba_marseille","lat":43.29157,"lon":5.37172,"is_reserved":false,"is_disabled":false,"rental_uris":{"android":"levelo://app?vid=420e50bc-a0ce-4397-b1c6-a56298406987","ios":"levelo://app?vid=420e50bc-a0ce-4397-b1c6-a56298406987"},"vehicle_type_id":"4","last_reported":1734711037,"current_range_meters":19600,"station_id":"ce4bha92rcd13ifvqeh0","pricing_plan_id":"cebpf4jnsgd1na2vs0mg"},{"bike_id":"8315f4ca-8aa7-497b-8d87-1e93439ecfd4","system_id":"levelo_inurba_marseille","lat":43.29622,"lon":5.37171,"is_reserved":false,"is_disabled":false,"rental_uris":{"android":"levelo://app?vid=8315f4ca-8aa7-497b-8d87-1e93439ecfd4","ios":"levelo://app?vid=8315f4ca-8aa7-497b-8d87-1e93439ecfd4"},"vehicle_type_id":"4","last_reported":1734711037,"current_range_meters":38800,"station_id":"ce4bgnh2rcd13ifvqc0g","pricing_plan_id":"cebpf4jnsgd1na2vs0mg"},{"bike_id":"08053a78-7a46-47a7-a278-80aceea2e329","system_id":"levelo_inurba_marseille","lat":43.30549,"lon":5.3653,"is_reserved":false,"is_disabled":false,"rental_uris":{"android":"levelo://app?vid=08053a78-7a46-47a7-a278-80aceea2e329","ios":"levelo://app?vid=08053a78-7a46-47a7-a278-80aceea2e329"},"vehicle_type_id":"4","last_reported":1734711037,"current_range_meters":33200,"station_id":"ce4bgs12rcd13ifvqcag","pricing_plan_id":"cebpf4jnsgd1na2vs0mg"},{"bike_id":"dac6f34b-ac7a-42d9-8f8e-094fe790b4e7","system_id":"levelo_inurba_marseille","lat":43.25874,"lon":5.39903,"is_reserved":false,"is_disabled":false,"rental_uris":{"android":"levelo://app?vid=dac6f34b-ac7a-42d9-8f8e-094fe790b4e7","ios":"levelo://app?vid=dac6f34b-ac7a-42d9-8f8e-094fe790b4e7"},"vehicle_type_id":"4","last_reported":1734711037,"current_range_meters":33600,"station_id":"ce4bhl92rcd13ifvqghg","pricing_plan_id":"cebpf4jnsgd1na2vs0mg"},{"bike_id":"73089af4-8bef-4c4e-9573-8a8f768947b4","system_id":"levelo_inurba_marseille","lat":43.31086,"lon":5.42437,"is_reserved":false,"is_disabled":false,"rental_uris":{"android":"levelo://app?vid=73089af4-8bef-4c4e-9573-8a8f768947b4","ios":"levelo://app?vid=73089af4-8bef-4c4e-9573-8a8f768947b4"},"vehicle_type_id":"4","last_reported":1734711037,"current_range_meters":38800,"station_id":"ce4bhp92rcd13ifvqhag","pricing_plan_id":"cebpf4jnsgd1na2vs0mg"},{"bike_id":"3ef2a89c-513f-442a-9a79-d8642e125b70","system_id":"levelo_inurba_marseille","lat":43.30429,"lon":5.38893,"is_reserved":false,"is_disabled":true,"rental_uris":{"android":"levelo://app?vid=3ef2a89c-513f-442a-9a79-d8642e125b70","ios":"levelo://app?vid=3ef2a89c-513f-442a-9a79-d8642e125b70"},"vehicle_type_id":"4","last_reported":1734711037,"current_range_meters":0,"station_id":"ce4bgk12rcd13ifvqbi0","pricing_plan_id":"cebpf4jnsgd1na2vs0mg"},{"bike_id":"8aff7627-914b-4e4e-881a-7c104ca6f877","system_id":"levelo_inurba_marseille","lat":43.28864,"lon":5.35859,"is_reserved":false,"is_disabled":false,"rental_uris":{"android":"levelo://app?vid=8aff7627-914b-4e4e-881a-7c104ca6f877","ios":"levelo://app?vid=8aff7627-914b-4e4e-881a-7c104ca6f877"},"vehicle_type_id":"4","last_reported":1734711037,"current_range_meters":17200,"station_id":"ce4bhb12rcd13ifvqem0","pricing_plan_id":"cebpf4jnsgd1na2vs0mg"},{"bike_id":"18b21dc8-9cbb-45a7-b829-dbc87a621342","system_id":"levelo_inurba_marseille","lat":43.31257,"lon":5.36866,"is_reserved":false,"is_disabled":false,"rental_uris":{"android":"levelo://app?vid=18b21dc8-9cbb-45a7-b829-dbc87a621342","ios":"levelo://app?vid=18b21dc8-9cbb-45a7-b829-dbc87a621342"},"vehicle_type_id":"4","last_reported":1734711037,"current_range_meters":28800,"station_id":"ce4bgl92rcd13ifvqbq0","pricing_plan_id":"cebpf4jnsgd1na2vs0mg"},{"bike_id":"e95b6dd2-b7b2-4aa5-a337-91a982ea4727","system_id":"levelo_inurba_marseille","lat":43.28935,"lon":5.36639,"is_reserved":false,"is_disabled":false,"rental_uris":{"android":"levelo://app?vid=e95b6dd2-b7b2-4aa5-a337-91a982ea4727","ios":"levelo://app?vid=e95b6dd2-b7b2-4aa5-a337-91a982ea4727"},"vehicle_type_id":"4","last_reported":1734711037,"current_range_meters":4000,"station_id":"ce4bhap2rcd13ifvqek0","pricing_plan_id":"cebpf4jnsgd1na2vs0mg"},{"bike_id":"cc414c34-265e-4dca-beaa-6c84c5588df6","system_id":"levelo_inurba_marseille","lat":43.2867,"lon":5.38663,"is_reserved":false,"is_disabled":false,"rental_uris":{"android":"levelo://app?vid=cc414c34-265e-4dca-beaa-6c84c5588df6","ios":"levelo://app?vid=cc414c34-265e-4dca-beaa-6c84c5588df6"},"vehicle_type_id":"4","last_reported":1734711037,"current_range_meters":36000,"station_id":"ce4bh492rcd13ifvqdug","pricing_plan_id":"cebpf4jnsgd1na2vs0mg"},{"bike_id":"cc91e18c-31a1-4d61-8bec-2d478014f9b7","system_id":"levelo_inurba_marseille","lat":43.27382,"lon":5.36246,"is_reserved":false,"is_disabled":false,"rental_uris":{"android":"levelo://app?vid=cc91e18c-31a1-4d61-8bec-2d478014f9b7","ios":"levelo://app?vid=cc91e18c-31a1-4d61-8bec-2d478014f9b7"},"vehicle_type_id":"4","last_reported":1734711037,"current_range_meters":28400,"station_id":"ce4bhbh2rcd13ifvqeo0","pricing_plan_id":"cebpf4jnsgd1na2vs0mg"},{"bike_id":"995e49be-00f0-4521-ae78-ebb1876da282","system_id":"levelo_inurba_marseille","lat":43.26936,"lon":5.38906,"is_reserved":false,"is_disabled":false,"rental_uris":{"android":"levelo://app?vid=995e49be-00f0-4521-ae78-ebb1876da282","ios":"levelo://app?vid=995e49be-00f0-4521-ae78-ebb1876da282"},"vehicle_type_id":"4","last_reported":1734711037,"current_range_meters":38000,"station_id":"ce4bhhh2rcd13ifvqfl0","pricing_plan_id":"cebpf4jnsgd1na2vs0mg"},{"bike_id":"41d8c16e-99b6-4955-bb19-a53e6f0d3a04","system_id":"levelo_inurba_marseille","lat":43.29298,"lon":5.37457,"is_reserved":false,"is_disabled":false,"rental_uris":{"android":"levelo://app?vid=41d8c16e-99b6-4955-bb19-a53e6f0d3a04","ios":"levelo://app?vid=41d8c16e-99b6-4955-bb19-a53e6f0d3a04"},"vehicle_type_id":"4","last_reported":1734711037,"current_range_meters":29600,"station_id":"ce4bgi12rcd13ifvqb70","pricing_plan_id":"cebpf4jnsgd1na2vs0mg"},{"bike_id":"494c8398-822e-42ee-a7f1-dfd664d1fba7","system_id":"levelo_inurba_marseille","lat":43.232,"lon":5.35548,"is_reserved":false,"is_disabled":false,"rental_uris":{"android":"levelo://app?vid=494c8398-822e-42ee-a7f1-dfd664d1fba7","ios":"levelo://app?vid=494c8398-822e-42ee-a7f1-dfd664d1fba7"},"vehicle_type_id":"4","last_reported":1734711037,"current_range_meters":34800,"station_id":"ce4bhu92rcd13ifvqi70","pricing_plan_id":"cebpf4jnsgd1na2vs0mg"},{"bike_id":"521627db-3652-4ad1-a6f0-7d5c37a6728a","system_id":"levelo_inurba_marseille","lat":43.29523,"lon":5.39041,"is_reserved":false,"is_disabled":false,"rental_uris":{"android":"levelo://app?vid=521627db-3652-4ad1-a6f0-7d5c37a6728a","ios":"levelo://app?vid=521627db-3652-4ad1-a6f0-7d5c37a6728a"},"vehicle_type_id":"4","last_reported":1734711037,"current_range_meters":36000,"station_id":"ce4bh3p2rcd13ifvqdp0","pricing_plan_id":"cebpf4jnsgd1na2vs0mg"},{"bike_id":"fbdf6156-8014-4f46-9b80-f7f54ff1d0c7","system_id":"levelo_inurba_marseille","lat":43.29008,"lon":5.35603,"is_reserved":false,"is_disabled":true,"rental_uris":{"android":"levelo://app?vid=fbdf6156-8014-4f46-9b80-f7f54ff1d0c7","ios":"levelo://app?vid=fbdf6156-8014-4f46-9b80-f7f54ff1d0c7"},"vehicle_type_id":"4","last_reported":1734711037,"current_range_meters":2000,"station_id":"ce4bhb92rcd13ifvqen0","pricing_plan_id":"cebpf4jnsgd1na2vs0mg"},{"bike_id":"c782be4b-818b-4cb4-830c-89e6e8de2966","system_id":"levelo_inurba_marseille","lat":43.27835,"lon":5.40707,"is_reserved":false,"is_disabled":false,"rental_uris":{"android":"levelo://app?vid=c782be4b-818b-4cb4-830c-89e6e8de2966","ios":"levelo://app?vid=c782be4b-818b-4cb4-830c-89e6e8de2966"},"vehicle_type_id":"4","last_reported":1734711037,"current_range_meters":32800,"station_id":"ce4bhnh2rcd13ifvqgtg","pricing_plan_id":"cebpf4jnsgd1na2vs0mg"},{"bike_id":"714aa917-666e-44ad-87e7-7e5422dc5135","system_id":"levelo_inurba_marseille","lat":43.28622,"lon":5.35104,"is_reserved":false,"is_disabled":false,"rental_uris":{"android":"levelo://app?vid=714aa917-666e-44ad-87e7-7e5422dc5135","ios":"levelo://app?vid=714aa917-666e-44ad-87e7-7e5422dc5135"},"vehicle_type_id":"4","last_reported":1734711037,"current_range_meters":29600,"station_id":"ce4bhch2rcd13ifvqeug","pricing_plan_id":"cebpf4jnsgd1na2vs0mg"},{"bike_id":"19e417df-82d2-48ec-8ba1-d90396957c67","system_id":"levelo_inurba_marseille","lat":43.29604,"lon":5.37719,"is_reserved":false,"is_disabled":false,"rental_uris":{"android":"levelo://app?vid=19e417df-82d2-48ec-8ba1-d90396957c67","ios":"levelo://app?vid=19e417df-82d2-48ec-8ba1-d90396957c67"},"vehicle_type_id":"4","last_reported":1734711037,"current_range_meters":26000,"station_id":"ce4bgi92rcd13ifvqb90","pricing_plan_id":"cebpf4jnsgd1na2vs0mg"},{"bike_id":"55fa967f-e3e3-42c4-9dd1-2bcbb5fc2d4d","system_id":"levelo_inurba_marseille","lat":43.27236,"lon":5.39057,"is_reserved":false,"is_disabled":false,"rental_uris":{"android":"levelo://app?vid=55fa967f-e3e3-42c4-9dd1-2bcbb5fc2d4d","ios":"levelo://app?vid=55fa967f-e3e3-42c4-9dd1-2bcbb5fc2d4d"},"vehicle_type_id":"4","last_reported":1734711037,"current_range_meters":23200,"station_id":"","pricing_plan_id":"cebpf4jnsgd1na2vs0mg"},{"bike_id":"47cc93a7-70b5-45bf-991b-f441a77935aa","system_id":"levelo_inurba_marseille","lat":43.27317,"lon":5.39066,"is_reserved":false,"is_disabled":true,"rental_uris":{"android":"levelo://app?vid=47cc93a7-70b5-45bf-991b-f441a77935aa","ios":"levelo://app?vid=47cc93a7-70b5-45bf-991b-f441a77935aa"},"vehicle_type_id":"4","last_reported":1734711037,"current_range_meters":38800,"station_id":"ce4bhgp2rcd13ifvqfe0","pricing_plan_id":"cebpf4jnsgd1na2vs0mg"},{"bike_id":"93a82e60-314a-4cb0-a5cf-a19515d4fc75","system_id":"levelo_inurba_marseille","lat":43.29606,"lon":5.37525,"is_reserved":false,"is_disabled":false,"rental_uris":{"android":"levelo://app?vid=93a82e60-314a-4cb0-a5cf-a19515d4fc75","ios":"levelo://app?vid=93a82e60-314a-4cb0-a5cf-a19515d4fc75"},"vehicle_type_id":"4","last_reported":1734711037,"current_range_meters":24800,"station_id":"ce4bgh92rcd13ifvqb50","pricing_plan_id":"cebpf4jnsgd1na2vs0mg"},{"bike_id":"60ad9e6b-6272-4ae7-a9fe-58afb99c8da8","system_id":"levelo_inurba_marseille","lat":43.3054,"lon":5.36539,"is_reserved":false,"is_disabled":false,"rental_uris":{"android":"levelo://app?vid=60ad9e6b-6272-4ae7-a9fe-58afb99c8da8","ios":"levelo://app?vid=60ad9e6b-6272-4ae7-a9fe-58afb99c8da8"},"vehicle_type_id":"4","last_reported":1734711037,"current_range_meters":9600,"station_id":"ce4bgs12rcd13ifvqcag","pricing_plan_id":"cebpf4jnsgd1na2vs0mg"},{"bike_id":"a2eba22b-b0ee-4005-9bf3-576bb458d391","system_id":"levelo_inurba_marseille","lat":43.279651,"lon":5.387544,"is_reserved":false,"is_disabled":true,"rental_uris":{"android":"levelo://app?vid=a2eba22b-b0ee-4005-9bf3-576bb458d391","ios":"levelo://app?vid=a2eba22b-b0ee-4005-9bf3-576bb458d391"},"vehicle_type_id":"4","last_reported":1734711037,"current_range_meters":0,"station_id":"","pricing_plan_id":"cebpf4jnsgd1na2vs0mg"},{"bike_id":"a831f63f-54e4-483b-b7e3-c00e270282f2","system_id":"levelo_inurba_marseille","lat":43.2917,"lon":5.37151,"is_reserved":false,"is_disabled":false,"rental_uris":{"android":"levelo://app?vid=a831f63f-54e4-483b-b7e3-c00e270282f2","ios":"levelo://app?vid=a831f63f-54e4-483b-b7e3-c00e270282f2"},"vehicle_type_id":"4","last_reported":1734711037,"current_range_meters":32400,"station_id":"ce4bha92rcd13ifvqeh0","pricing_plan_id":"cebpf4jnsgd1na2vs0mg"},{"bike_id":"fcf6f42c-9492-49dd-a9e6-322a50636e12","system_id":"levelo_inurba_marseille","lat":43.31723,"lon":5.37776,"is_reserved":false,"is_disabled":false,"rental_uris":{"android":"levelo://app?vid=fcf6f42c-9492-49dd-a9e6-322a50636e12","ios":"levelo://app?vid=fcf6f42c-9492-49dd-a9e6-322a50636e12"},"vehicle_type_id":"4","last_reported":1734711037,"current_range_meters":10800,"station_id":"ce4bgth2rcd13ifvqch0","pricing_plan_id":"cebpf4jnsgd1na2vs0mg"},{"bike_id":"6a8762b5-0041-476f-b625-20061105d127","system_id":"levelo_inurba_marseille","lat":43.28721,"lon":5.37933,"is_reserved":false,"is_disabled":false,"rental_uris":{"android":"levelo://app?vid=6a8762b5-0041-476f-b625-20061105d127","ios":"levelo://app?vid=6a8762b5-0041-476f-b625-20061105d127"},"vehicle_type_id":"4","last_reported":1734711037,"current_range_meters":36800,"station_id":"ce4bh9p2rcd13ifvqec0","pricing_plan_id":"cebpf4jnsgd1na2vs0mg"},{"bike_id":"c7a98f8b-a258-4c43-a6cc-cdcc01680fcd","system_id":"levelo_inurba_marseille","lat":43.33026,"lon":5.39037,"is_reserved":false,"is_disabled":false,"rental_uris":{"android":"levelo://app?vid=c7a98f8b-a258-4c43-a6cc-cdcc01680fcd","ios":"levelo://app?vid=c7a98f8b-a258-4c43-a6cc-cdcc01680fcd"},"vehicle_type_id":"4","last_reported":1734711037,"current_range_meters":36400,"station_id":"ce4bhr92rcd13ifvqhrg","pricing_plan_id":"cebpf4jnsgd1na2vs0mg"},{"bike_id":"f384362e-dca0-4d89-b509-4071c545130d","system_id":"levelo_inurba_marseille","lat":43.26549,"lon":5.37288,"is_reserved":false,"is_disabled":true,"rental_uris":{"android":"levelo://app?vid=f384362e-dca0-4d89-b509-4071c545130d","ios":"levelo://app?vid=f384362e-dca0-4d89-b509-4071c545130d"},"vehicle_type_id":"4","last_reported":1734711037,"current_range_meters":38000,"station_id":"ce4bhg12rcd13ifvqf70","pricing_plan_id":"cebpf4jnsgd1na2vs0mg"},{"bike_id":"e439633d-8302-430a-acdc-f9f16f9a2b90","system_id":"levelo_inurba_marseille","lat":43.31768,"lon":5.39014,"is_reserved":false,"is_disabled":false,"rental_uris":{"android":"levelo://app?vid=e439633d-8302-430a-acdc-f9f16f9a2b90","ios":"levelo://app?vid=e439633d-8302-430a-acdc-f9f16f9a2b90"},"vehicle_type_id":"4","last_reported":1734711037,"current_range_meters":4400,"station_id":"ce4bhqp2rcd13ifvqhng","pricing_plan_id":"cebpf4jnsgd1na2vs0mg"},{"bike_id":"90c30985-06e3-4db2-b244-81401934253b","system_id":"levelo_inurba_marseille","lat":43.24812,"lon":5.37461,"is_reserved":false,"is_disabled":false,"rental_uris":{"android":"levelo://app?vid=90c30985-06e3-4db2-b244-81401934253b","ios":"levelo://app?vid=90c30985-06e3-4db2-b244-81401934253b"},"vehicle_type_id":"4","last_reported":1734711037,"current_range_meters":38800,"station_id":"ce4bhgh2rcd13ifvqfb0","pricing_plan_id":"cebpf4jnsgd1na2vs0mg"},{"bike_id":"ff30b694-3300-4edb-99dd-b61380cfb77a","system_id":"levelo_inurba_marseille","lat":43.26939,"lon":5.38917,"is_reserved":false,"is_disabled":false,"rental_uris":{"android":"levelo://app?vid=ff30b694-3300-4edb-99dd-b61380cfb77a","ios":"levelo://app?vid=ff30b694-3300-4edb-99dd-b61380cfb77a"},"vehicle_type_id":"4","last_reported":1734711037,"current_range_meters":38000,"station_id":"ce4bhhh2rcd13ifvqfl0","pricing_plan_id":"cebpf4jnsgd1na2vs0mg"},{"bike_id":"ac7c5f56-daad-496c-965f-9103737000e8","system_id":"levelo_inurba_marseille","lat":43.23965,"lon":5.36633,"is_reserved":false,"is_disabled":false,"rental_uris":{"android":"levelo://app?vid=ac7c5f56-daad-496c-965f-9103737000e8","ios":"levelo://app?vid=ac7c5f56-daad-496c-965f-9103737000e8"},"vehicle_type_id":"4","last_reported":1734711037,"current_range_meters":38800,"station_id":"ce4bhi12rcd13ifvqfp0","pricing_plan_id":"cebpf4jnsgd1na2vs0mg"},