{"last_updated":1730484730,"ttl":60,"version":"2.2","data":{"bikes":[{"bike_id":"36d826ee-cf04-49f1-91ed-9dfd2b3e4728","system_id":"levelo_inurba_marseille","lat":43.29589,"lon":5.38099,"is_reserved":false,"is_disabled":false,"rental_uris":{"android":"levelo://app?vid=36d826ee-cf04-49f1-91ed-9dfd2b3e4728","ios":"levelo://app?vid=36d826ee-cf04-49f1-91ed-9dfd2b3e4728"},"vehicle_type_id":"4","last_reported":1730484731,"current_range_meters":36400,"station_id":"ce4bgl12rcd13ifvqbo0","pricing_plan_id":"cebpf4jnsgd1na2vs0mg"},{"bike_id":"964edb94-8893-4dd2-a188-856ee23e52c7","system_id":"levelo_inurba_marseille","lat":43.29192,"lon":5.35807,"is_reserved":false,"is_disabled":false,"rental_uris":{"android":"levelo://app?vid=964edb94-8893-4dd2-a188-856ee23e52c7","ios":"levelo://app?vid=964edb94-8893-4dd2-a188-856ee23e52c7"},"vehicle_type_id":"4","last_reported":1730484731,"current_range_meters":7200,"station_id":"ce4bhb12rcd13ifvqel0","pricing_plan_id":"cebpf4jnsgd1na2vs0mg"},{"bike_id":"7f47fea8-3b5e-437a-a31e-f4194bf70b17","system_id":"levelo_inurba_marseille","lat":43.24658,"lon":5.3816,"is_reserved":false,"is_disabled":false,"rental_uris":{"android":"levelo://app?vid=7f47fea8-3b5e-437a-a31e-f4194bf70b17","ios":"levelo://app?vid=7f47fea8-3b5e-437a-a31e-f4194bf70b17"},"vehicle_type_id":"4","last_reported":1730484731,"current_range_meters":33200,"station_id":"ce4bhih2rcd13ifvqfr0","pricing_plan_id":"cebpf4jnsgd1na2vs0mg"},{"bike_id":"8682c02d-b75e-4986-bf40-c0b0cf6578e7","system_id":"levelo_inurba_marseille","lat":43.32108,"lon":5.36777,"is_reserved":false,"is_disabled":false,"rental_uris":{"android":"levelo://app?vid=8682c02d-b75e-4986-bf40-c0b0cf6578e7","ios":"levelo://app?vid=8682c02d-b75e-4986-bf40-c0b0cf6578e7"},"vehicle_type_id":"4","last_reported":1730484731,"current_range_meters":6000,"station_id":"ce4bhrh2rcd13ifvqhug","pricing_plan_id":"cebpf4jnsgd1na2vs0mg"},{"bike_id":"f4585e26-1b29-48d3-8b37-58ec663397e9","system_id":"levelo_inurba_marseille","lat":43.28351,"lon":5.38106,"is_reserved":false,"is_disabled":false,"rental_uris":{"android":"levelo://app?vid=f4585e26-1b29-48d3-8b37-58ec663397e9","ios":"levelo://app?vid=f4585e26-1b29-48d3-8b37-58ec663397e9"},"vehicle_type_id":"4","last_reported":1730484731,"current_range_meters":38000,"station_id":"ce4bh412rcd13ifvqdr0","pricing_plan_id":"cebpf4jnsgd1na2vs0mg"},{"bike_id":"14401744-cb80-4c67-b6a6-9de171f18c09","system_id":"levelo_inurba_marseille","lat":43.29593,"lon":5.38104,"is_reserved":false,"is_disabled":false,"rental_uris":{"android":"levelo://app?vid=14401744-cb80-4c67-b6a6-9de171f18c09","ios":"levelo://app?vid=14401744-cb80-4c67-b6a6-9de171f18c09"},"vehicle_type_id":"4","last_reported":1730484731,"current_range_meters":8800,"station_id":"ce4bgl12rcd13ifvqbo0","pricing_plan_id":"cebpf4jnsgd1na2vs0mg"},{"bike_id":"cb04363b-a512-46a6-bfa5-e74a0e596169","system_id":"levelo_inurba_marseille","lat":43.29298,"lon":5.37456,"is_reserved":false,"is_disabled":false,"rental_uris":{"android":"levelo://app?vid=cb04363b-a512-46a6-bfa5-e74a0e596169","ios":"levelo://app?vid=cb04363b-a512-46a6-bfa5-e74a0e596169"},"vehicle_type_id":"4","last_reported":1730484731,"current_range_meters":8400,"station_id":"ce4bgi12rcd13ifvqb70","pricing_plan_id":"cebpf4jnsgd1na2vs0mg"},{"bike_id":"512c4bd5-3edb-49b7-a54a-bbe327a08aa0","system_id":"levelo_inurba_marseille","lat":43.25726,"lon":5.41114,"is_reserved":false,"is_disabled":false,"rental_uris":{"android":"levelo://app?vid=512c4bd5-3edb-49b7-a54a-bbe327a08aa0","ios":"levelo://app?vid=512c4bd5-3edb-49b7-a54a-bbe327a08aa0"},"vehicle_type_id":"4","last_reported":1730484731,"current_range_meters":16800,"station_id":"ce4bhkp2rcd13ifvqgd0","pricing_plan_id":"cebpf4jnsgd1na2vs0mg"},{"bike_id":"a4627486-a087-47d1-bdea-e9476cd49986","system_id":"levelo_inurba_marseille","lat":43.23189,"lon":5.35549,"is_reserved":false,"is_disabled":false,"rental_uris":{"android":"levelo://app?vid=a4627486-a087-47d1-bdea-e9476cd49986","ios":"levelo://app?vid=a4627486-a087-47d1-bdea-e9476cd49986"},"vehicle_type_id":"4","last_reported":1730484731,"current_range_meters":30800,"station_id":"ce4bhu92rcd13ifvqi70","pricing_plan_id":"cebpf4jnsgd1na2vs0mg"},{"bike_id":"1746b00c-7a5e-4712-9d5a-47ce59a8d72c","system_id":"levelo_inurba_marseille","lat":43.25107,"lon":5.40321,"is_reserved":false,"is_disabled":false,"rental_uris":{"android":"levelo://app?vid=1746b00c-7a5e-4712-9d5a-47ce59a8d72c","ios":"levelo://app?vid=1746b00c-7a5e-4712-9d5a-47ce59a8d72c"},"vehicle_type_id":"4","last_reported":1730484731,"current_range_meters":12400,"station_id":"ce4bhlh2rcd13ifvqgig","pricing_plan_id":"cebpf4jnsgd1na2vs0mg"},{"bike_id":"98606055-e59c-468c-9d5f-0ff0d6cc7798","system_id":"levelo_inurba_marseille","lat":43.29609,"lon":5.38099,"is_reserved":false,"is_disabled":false,"rental_uris":{"android":"levelo://app?vid=98606055-e59c-468c-9d5f-0ff0d6cc7798","ios":"levelo://app?vid=98606055-e59c-468c-9d5f-0ff0d6cc7798"},"vehicle_type_id":"4","last_reported":1730484731,"current_range_meters":31200,"station_id":"ce4bgl12rcd13ifvqbo0","pricing_plan_id":"cebpf4jnsgd1na2vs0mg"},{"bike_id":"509a9bdc-ca48-4855-8040-748bb9b3087b","system_id":"levelo_inurba_marseille","lat":43.25936,"lon":5.40911,"is_reserved":false,"is_disabled":false,"rental_uris":{"android":"levelo://app?vid=509a9bdc-ca48-4855-8040-748bb9b3087b","ios":"levelo://app?vid=509a9bdc-ca48-4855-8040-748bb9b3087b"},"vehicle_type_id":"4","last_reported":1730484731,"current_range_meters":26000,"station_id":"ce4bhm92rcd13ifvqglg","pricing_plan_id":"cebpf4jnsgd1na2vs0mg"},{"bike_id":"2aa57e73-59e9-4b02-83b0-ef94935f4180","system_id":"levelo_inurba_marseille","lat":43.29194,"lon":5.39321,"is_reserved":false,"is_disabled":false,"rental_uris":{"android":"levelo://app?vid=2aa57e73-59e9-4b02-83b0-ef94935f4180","ios":"levelo://app?vid=2aa57e73-59e9-4b02-83b0-ef94935f4180"},"vehicle_type_id":"4","last_reported":1730484731,"current_range_meters":32400,"station_id":"ce4bh192rcd13ifvqdd0","pricing_plan_id":"cebpf4jnsgd1na2vs0mg"},{"bike_id":"57cc4a95-0243-41ba-ac84-cf86db1c4bb0","system_id":"levelo_inurba_marseille","lat":43.30434,"lon":5.389,"is_reserved":false,"is_disabled":false,"rental_uris":{"android":"levelo://app?vid=57cc4a95-0243-41ba-ac84-cf86db1c4bb0","ios":"levelo://app?vid=57cc4a95-0243-41ba-ac84-cf86db1c4bb0"},"vehicle_type_id":"4","last_reported":1730484731,"current_range_meters":17600,"station_id":"ce4bgk12rcd13ifvqbi0","pricing_plan_id":"cebpf4jnsgd1na2vs0mg"},{"bike_id":"4c447978-dabd-4f0d-9bb3-f94f4cdd716e","system_id":"levelo_inurba_marseille","lat":43.23181,"lon":5.39995,"is_reserved":false,"is_disabled":false,"rental_uris":{"android":"levelo://app?vid=4c447978-dabd-4f0d-9bb3-f94f4cdd716e","ios":"levelo://app?vid=4c447978-dabd-4f0d-9bb3-f94f4cdd716e"},"vehicle_type_id":"4","last_reported":1730484731,"current_range_meters":12400,"station_id":"ce4bhn12rcd13ifvqgqg","pricing_plan_id":"cebpf4jnsgd1na2vs0mg"},{"bike_id":"1a9678d5-9b04-41ca-b1ec-ac3769fdcabb","system_id":"levelo_inurba_marseille","lat":43.27941,"lon":5.41048,"is_reserved":false,"is_disabled":false,"rental_uris":{"android":"levelo://app?vid=1a9678d5-9b04-41ca-b1ec-ac3769fdcabb","ios":"levelo://app?vid=1a9678d5-9b04-41ca-b1ec-ac3769fdcabb"},"vehicle_type_id":"4","last_reported":1730484731,"current_range_meters":25200,"station_id":"ce4bhnp2rcd13ifvqh0g","pricing_plan_id":"cebpf4jnsgd1na2vs0mg"},{"bike_id":"fe897454-dffc-4f65-b97d-08e45f23a6e2","system_id":"levelo_inurba_marseille","lat":43.29155,"lon":5.37159,"is_reserved":false,"is_disabled":false,"rental_uris":{"android":"levelo://app?vid=fe897454-dffc-4f65-b97d-08e45f23a6e2","ios":"levelo://app?vid=fe897454-dffc-4f65-b97d-08e45f23a6e2"},"vehicle_type_id":"4","last_reported":1730484731,"current_range_meters":6800,"station_id":"ce4bha92rcd13ifvqeh0","pricing_plan_id":"cebpf4jnsgd1na2vs0mg"},{"bike_id":"efbe383f-83c6-4df5-ac1f-ffa8f2e0197b","system_id":"levelo_inurba_marseille","lat":43.31335,"lon":5.39699,"is_reserved":false,"is_disabled":false,"rental_uris":{"android":"levelo://app?vid=efbe383f-83c6-4df5-ac1f-ffa8f2e0197b","ios":"levelo://app?vid=efbe383f-83c6-4df5-ac1f-ffa8f2e0197b"},"vehicle_type_id":"4","last_reported":1730484731,"current_range_meters":8800,"station_id":"ce4bgvp2rcd13ifvqcu0","pricing_plan_id":"cebpf4jnsgd1na2vs0mg"},{"bike_id":"20680e09-458c-4c0b-8c4c-da8056a4052e","system_id":"levelo_inurba_marseille","lat":43.29037,"lon":5.37564,"is_reserved":false,"is_disabled":false,"rental_uris":{"android":"levelo://app?vid=20680e09-458c-4c0b-8c4c-da8056a4052e","ios":"levelo://app?vid=20680e09-458c-4c0b-8c4c-da8056a4052e"},"vehicle_type_id":"4","last_reported":1730484731,"current_range_meters":18800,"station_id":"ce4bh692rcd13ifvqe90","pricing_plan_id":"cebpf4jnsgd1na2vs0mg"},{"bike_id":"9a3ae72f-4b69-4d49-be8f-dd96c6541acd","system_id":"levelo_inurba_marseille","lat":43.29904,"lon":5.38488,"is_reserved":false,"is_disabled":false,"rental_uris":{"android":"levelo://app?vid=9a3ae72f-4b69-4d49-be8f-dd96c6541acd","ios":"levelo://app?vid=9a3ae72f-4b69-4d49-be8f-dd96c6541acd"},"vehicle_type_id":"4","last_reported":1730484731,"current_range_meters":14800,"station_id":"ce4bh392rcd13ifvqdl0","pricing_plan_id":"cebpf4jnsgd1na2vs0mg"},{"bike_id":"97eaea7b-28fd-4b60-8636-a889f07211b7","system_id":"levelo_inurba_marseille","lat":43.30935,"lon":5.40139,"is_reserved":false,"is_disabled":false,"rental_uris":{"android":"levelo://app?vid=97eaea7b-28fd-4b60-8636-a889f07211b7","ios":"levelo://app?vid=97eaea7b-28fd-4b60-8636-a889f07211b7"},"vehicle_type_id":"4","last_reported":1730484731,"current_range_meters":10000,"station_id":"ce4bgvp2rcd13ifvqct0","pricing_plan_id":"cebpf4jnsgd1na2vs0mg"},{"bike_id":"6d162001-d972-459f-b696-83d1c7a72080","system_id":"levelo_inurba_marseille","lat":43.29307,"lon":5.37462,"is_reserved":false,"is_disabled":false,"rental_uris":{"android":"levelo://app?vid=6d162001-d972-459f-b696-83d1c7a72080","ios":"levelo://app?vid=6d162001-d972-459f-b696-83d1c7a72080"},"vehicle_type_id":"4","last_reported":1730484731,"current_range_meters":10800,"station_id":"ce4bgl92rcd13ifvqbq0","pricing_plan_id":"cebpf4jnsgd1na2vs0mg"},{"bike_id":"53666ca2-d243-4f5e-8466-56bcf2799a94","system_id":"levelo_inurba_marseille","lat":43.29419,"lon":5.38629,"is_reserved":false,"is_disabled":false,"rental_uris":{"android":"levelo://app?vid=53666ca2-d243-4f5e-8466-56bcf2799a94","ios":"levelo://app?vid=53666ca2-d243-4f5e-8466-56bcf2799a94"},"vehicle_type_id":"4","last_reported":1730484731,"current_range_meters":12800,"station_id":"ce4bh2h2rcd13ifvqdh0","pricing_plan_id":"cebpf4jnsgd1na2vs0mg"},{"bike_id":"ca7418d4-c49d-4525-bde7-bfd3a3b3b27d","system_id":"levelo_inurba_marseille","lat":43.29414,"lon":5.38613,"is_reserved":false,"is_disabled":false,"rental_uris":{"android":"levelo://app?vid=ca7418d4-c49d-4525-bde7-bfd3a3b3b27d","ios":"levelo://app?vid=ca7418d4-c49d-4525-bde7-bfd3a3b3b27d"},"vehicle_type_id":"4","last_reported":1730484731,"current_range_meters":8400,"station_id":"ce4bh2h2rcd13ifvqdh0","pricing_plan_id":"cebpf4jnsgd1na2vs0mg"},{"bike_id":"f9c1ab10-6aca-4125-81db-f0d90fa2915d","system_id":"levelo_inurba_marseille","lat":43.29606,"lon":5.37727,"is_reserved":false,"is_disabled":false,"rental_uris":{"android":"levelo://app?vid=f9c1ab10-6aca-4125-81db-f0d90fa2915d","ios":"levelo://app?vid=f9c1ab10-6aca-4125-81db-f0d90fa2915d"},"vehicle_type_id":"4","last_reported":1730484731,"current_range_meters":8400,"station_id":"ce4bgi92rcd13ifvqb90","pricing_plan_id":"cebpf4jnsgd1na2vs0mg"},{"bike_id":"ea1c796d-8371-4a8a-bdfb-1d6794eb91c5","system_id":"levelo_inurba_marseille","lat":43.29707,"lon":5.37701,"is_reserved":false,"is_disabled":false,"rental_uris":{"android":"levelo://app?vid=ea1c796d-8371-4a8a-bdfb-1d6794eb91c5","ios":"levelo://app?vid=ea1c796d-8371-4a8a-bdfb-1d6794eb91c5"},"vehicle_type_id":"4","last_reported":1730484731,"current_range_meters":20800,"station_id":"ce4bgkh2rcd13ifvqbl0","pricing_plan_id":"cebpf4jnsgd1na2vs0mg"},{"bike_id":"8d57ff4a-4527-4b83-9e44-8fa879a3fb58","system_id":"levelo_inurba_marseille","lat":43.28561,"lon":5.395,"is_reserved":false,"is_disabled":false,"rental_uris":{"android":"levelo://app?vid=8d57ff4a-4527-4b83-9e44-8fa879a3fb58","ios":"levelo://app?vid=8d57ff4a-4527-4b83-9e44-8fa879a3fb58"},"vehicle_type_id":"4","last_reported":1730484731,"current_range_meters":38800,"station_id":"ce4bh292rcd13ifvqdg0","pricing_plan_id":"cebpf4jnsgd1na2vs0mg"},{"bike_id":"c4c0fe0e-ff1e-4475-a116-cee6e1975045","system_id":"levelo_inurba_marseille","lat":43.289307,"lon":5.389085,"is_reserved":false,"is_disabled":false,"rental_uris":{"android":"levelo://app?vid=c4c0fe0e-ff1e-4475-a116-cee6e1975045","ios":"levelo://app?vid=c4c0fe0e-ff1e-4475-a116-cee6e1975045"},"vehicle_type_id":"4","last_reported":1730484731,"current_range_meters":12800,"station_id":"","pricing_plan_id":"cebpf4jnsgd1na2vs0mg"},{"bike_id":"a7125d65-74ce-495d-817a-4658be7b2ef8","system_id":"levelo_inurba_marseille","lat":43.28695,"lon":5.37388,"is_reserved":false,"is_disabled":false,"rental_uris":{"android":"levelo://app?vid=a7125d65-74ce-495d-817a-4658be7b2ef8","ios":"levelo://app?vid=a7125d65-74ce-495d-817a-4658be7b2ef8"},"vehicle_type_id":"4","last_reported":1730484731,"current_range_meters":20400,"station_id":"ce4bh3p2rcd13ifvqdq0","pricing_plan_id":"cebpf4jnsgd1na2vs0mg"},{"bike_id":"1ee4974e-e356-4947-8cea-a24e9f4ac0d9","system_id":"levelo_inurba_marseille","lat":43.29275,"lon":5.40119,"is_reserved":false,"is_disabled":false,"rental_uris":{"android":"levelo://app?vid=1ee4974e-e356-4947-8cea-a24e9f4ac0d9","ios":"levelo://app?vid=1ee4974e-e356-4947-8cea-a24e9f4ac0d9"},"vehicle_type_id":"4","last_reported":1730484731,"current_range_meters":7200,"station_id":"ce4bh312rcd13ifvqdk0","pricing_plan_id":"cebpf4jnsgd1na2vs0mg"},{"bike_id":"ce4b9b4b-c9db-466f-ade6-da9f1060e908","system_id":"levelo_inurba_marseille","lat":43.29016,"lon":5.38652,"is_reserved":false,"is_disabled":false,"rental_uris":{"android":"levelo://app?vid=ce4b9b4b-c9db-466f-ade6-da9f1060e908","ios":"levelo://app?vid=ce4b9b4b-c9db-466f-ade6-da9f1060e908"},"vehicle_type_id":"4","last_reported":1730484731,"current_range_meters":6400,"station_id":"ce4bh4p2rcd13ifvqe0g","pricing_plan_id":"cebpf4jnsgd1na2vs0mg"},{"bike_id":"f2de7b25-4dbc-4628-943f-6023e60f2e05","system_id":"levelo_inurba_marseille","lat":43.2849,"lon":5.38432,"is_reserved":false,"is_disabled":false,"rental_uris":{"android":"levelo://app?vid=f2de7b25-4dbc-4628-943f-6023e60f2e05","ios":"levelo://app?vid=f2de7b25-4dbc-4628-943f-6023e60f2e05"},"vehicle_type_id":"4","last_reported":1730484731,"current_range_meters":38800,"station_id":"ce4bhh12rcd13ifvqfg0","pricing_plan_id":"cebpf4jnsgd1na2vs0mg"},{"bike_id":"7aca20f8-1574-4b9d-bf15-a513db192236","system_id":"levelo_inurba_marseille","lat":43.29417,"lon":5.38631,"is_reserved":false,"is_disabled":false,"rental_uris":{"android":"levelo://app?vid=7aca20f8-1574-4b9d-bf15-a513db192236","ios":"levelo://app?vid=7aca20f8-1574-4b9d-bf15-a513db192236"},"vehicle_type_id":"4","last_reported":1730484731,"current_range_meters":39200,"station_id":"ce4bh2h2rcd13ifvqdh0","pricing_plan_id":"cebpf4jnsgd1na2vs0mg"},{"bike_id":"267ea0cd-b759-4924-8293-2891019683b9","system_id":"levelo_inurba_marseille","lat":43.30526,"lon":5.36716,"is_reserved":false,"is_disabled":false,"rental_uris":{"android":"levelo://app?vid=267ea0cd-b759-4924-8293-2891019683b9","ios":"levelo://app?vid=267ea0cd-b759-4924-8293-2891019683b9"},"vehicle_type_id":"4","last_reported":1730484731,"current_range_meters":7200,"station_id":"ce4bgrp2rcd13ifvqc9g","pricing_plan_id":"cebpf4jnsgd1na2vs0mg"},{"bike_id":"d5cc3b1a-2d11-43a5-a32b-b3d146f40d91","system_id":"levelo_inurba_marseille","lat":43.29552,"lon":5.42287,"is_reserved":false,"is_disabled":false,"rental_uris":{"android":"levelo://app?vid=d5cc3b1a-2d11-43a5-a32b-b3d146f40d91","ios":"levelo://app?vid=d5cc3b1a-2d11-43a5-a32b-b3d146f40d91"},"vehicle_type_id":"4","last_reported":1730484731,"current_range_meters":39200,"station_id":"ce4bhph2rcd13ifvqhdg","pricing_plan_id":"cebpf4jnsgd1na2vs0mg"},{"bike_id":"90d5d68c-138a-4f05-95ba-e50b716963cc","system_id":"levelo_inurba_marseille","lat":43.29265,"lon":5.38449,"is_reserved":false,"is_disabled":false,"rental_uris":{"android":"levelo://app?vid=90d5d68c-138a-4f05-95ba-e50b716963cc","ios":"levelo://app?vid=90d5d68c-138a-4f05-95ba-e50b716963cc"},"vehicle_type_id":"4","last_reported":1730484731,"current_range_meters":31200,"station_id":"ce4bh692rcd13ifvqea0","pricing_plan_id":"cebpf4jnsgd1na2vs0mg"},{"bike_id":"b17881e5-6879-49c4-a525-6dae1c0a4e7f","system_id":"levelo_inurba_marseille","lat":43.23198,"lon":5.35556,"is_reserved":false,"is_disabled":false,"rental_uris":{"android":"levelo://app?vid=b17881e5-6879-49c4-a525-6dae1c0a4e7f","ios":"levelo://app?vid=b17881e5-6879-49c4-a525-6dae1c0a4e7f"},"vehicle_type_id":"4","last_reported":1730484731,"current_range_meters":30800,"station_id":"ce4bhu92rcd13ifvqi70","pricing_plan_id":"cebpf4jnsgd1na2vs0mg"},{"bike_id":"afa39957-71be-4682-bdac-91a4c814290b","system_id":"levelo_inurba_marseille","lat":43.28921,"lon":5.38388,"is_reserved":false,"is_disabled":false,"rental_uris":{"android":"levelo://app?vid=afa39957-71be-4682-bdac-91a4c814290b","ios":"levelo://app?vid=afa39957-71be-4682-bdac-91a4c814290b"},"vehicle_type_id":"4","last_reported":1730484731,"current_range_meters":34800,"station_id":"ce4bh612rcd13ifvqe6g","pricing_plan_id":"cebpf4jnsgd1na2vs0mg"},{"bike_id":"9938ebcd-9900-4f33-ae62-087d07b91466","system_id":"levelo_inurba_marseille","lat":43.25727,"lon":5.41109,"is_reserved":false,"is_disabled":false,"rental_uris":{"android":"levelo://app?vid=9938ebcd-9900-4f33-ae62-087d07b91466","ios":"levelo://app?vid=9938ebcd-9900-4f33-ae62-087d07b91466"},"vehicle_type_id":"4","last_reported":1730484731,"current_range_meters":39200,"station_id":"ce4bhkp2rcd13ifvqgd0","pricing_plan_id":"cebpf4jnsgd1na2vs0mg"},{"bike_id":"e960ac30-070e-494a-a9c1-effafcd9c6f4","system_id":"levelo_inurba_marseille","lat":43.29449,"lon":5.39591,"is_reserved":false,"is_disabled":false,"rental_uris":{"android":"levelo://app?vid=e960ac30-070e-494a-a9c1-effafcd9c6f4","ios":"levelo://app?vid=e960ac30-070e-494a-a9c1-effafcd9c6f4"},"vehicle_type_id":"4","last_reported":1730484731,"current_range_meters":12000,"station_id":"","pricing_plan_id":"cebpf4jnsgd1na2vs0mg"},{"bike_id":"6c26f9c8-71ad-4674-b09c-5d483b8428e0","system_id":"levelo_inurba_marseille","lat":43.30124,"lon":5.39865,"is_reserved":false,"is_disabled":false,"rental_uris":{"android":"levelo://app?vid=6c26f9c8-71ad-4674-b09c-5d483b8428e0","ios":"levelo://app?vid=6c26f9c8-71ad-4674-b09c-5d483b8428e0"},"vehicle_type_id":"4","last_reported":1730484731,"current_range_meters":3200,"station_id":"ce4bh0h2rcd13ifvqd40","pricing_plan_id":"cebpf4jnsgd1na2vs0mg"},{"bike_id":"e88bce18-5080-4503-afe2-a948bda99fe8","system_id":"levelo_inurba_marseille","lat":43.29971,"lon":5.38491,"is_reserved":false,"is_disabled":false,"rental_uris":{"android":"levelo://app?vid=e88bce18-5080-4503-afe2-a948bda99fe8","ios":"levelo://app?vid=e88bce18-5080-4503-afe2-a948bda99fe8"},"vehicle_type_id":"4","last_reported":1730484731,"current_range_meters":38800,"station_id":"ce4bgj92rcd13ifvqbd0","pricing_plan_id":"cebpf4jnsgd1na2vs0mg"},{"bike_id":"e43606e6-97e3-4e59-8126-7ebd875058e1","system_id":"levelo_inurba_marseille","lat":43.29783,"lon":5.39353,"is_reserved":false,"is_disabled":false,"rental_uris":{"android":"levelo://app?vid=e43606e6-97e3-4e59-8126-7ebd875058e1","ios":"levelo://app?vid=e43606e6-97e3-4e59-8126-7ebd875058e1"},"vehicle_type_id":"4","last_reported":1730484731,"current_range_meters":4000,"station_id":"chh1huq6cuj3fo74tm60","pricing_plan_id":"cebpf4jnsgd1na2vs0mg"},{"bike_id":"ed2b703d-385f-4f5f-840b-c14df0c3c966","system_id":"levelo_inurba_marseille","lat":43.28268,"lon":5.350601,"is_reserved":false,"is_disabled":false,"rental_uris":{"android":"levelo://app?vid=ed2b703d-385f-4f5f-840b-c14df0c3c966","ios":"levelo://app?vid=ed2b703d-385f-4f5f-840b-c14df0c3c966"},"vehicle_type_id":"4","last_reported":1730484731,"current_range_meters":36800,"station_id":"ce4bhbp2rcd13ifvqerg","pricing_plan_id":"cebpf4jnsgd1na2vs0mg"},{"bike_id":"d69eef29-33f1-400b-9dbd-e583b4f600d8","system_id":"levelo_inurba_marseille","lat":43.24652,"lon":5.38898,"is_reserved":false,"is_disabled":false,"rental_uris":{"android":"levelo://app?vid=d69eef29-33f1-400b-9dbd-e583b4f600d8","ios":"levelo://app?vid=d69eef29-33f1-400b-9dbd-e583b4f600d8"},"vehicle_type_id":"4","last_reported":1730484731,"current_range_meters":16800,"station_id":"ce4bhg12rcd13ifvqf60","pricing_plan_id":"cebpf4jnsgd1na2vs0mg"},{"bike_id":"bd4e2b20-1aa1-479f-bd96-ad4e0572a62c","system_id":"levelo_inurba_marseille","lat":43.32476,"lon":5.36587,"is_reserved":false,"is_disabled":false,"rental_uris":{"android":"levelo://app?vid=bd4e2b20-1aa1-479f-bd96-ad4e0572a62c","ios":"levelo://app?vid=bd4e2b20-1aa1-479f-bd96-ad4e0572a62c"},"vehicle_type_id":"4","last_reported":1730484731,"current_range_meters":28800,"station_id":"ce4bhs12rcd13ifvqhvg","pricing_plan_id":"cebpf4jnsgd1na2vs0mg"},{"bike_id":"c2156f05-7689-4dbe-9776-0f37e549dc18","system_id":"levelo_inurba_marseille","lat":43.29059,"lon":5.3716,"is_reserved":false,"is_disabled":false,"rental_uris":{"android":"levelo://app?vid=c2156f05-7689-4dbe-9776-0f37e549dc18","ios":"levelo://app?vid=c2156f05-7689-4dbe-9776-0f37e549dc18"},"vehicle_type_id":"4","last_reported":1730484731,"current_range_meters":16400,"station_id":"ce4bh5p2rcd13ifvqe4g","pricing_plan_id":"cebpf4jnsgd1na2vs0mg"},{"bike_id":"317d8648-1888-421e-ba60-471ba77ee79e","system_id":"levelo_inurba_marseille","lat":43.29806,"lon":5.38088,"is_reserved":false,"is_disabled":false,"rental_uris":{"android":"levelo://app?vid=317d8648-1888-421e-ba60-471ba77ee79e","ios":"levelo://app?vid=317d8648-1888-421e-ba60-471ba77ee79e"},"vehicle_type_id":"4","last_reported":1730484731,"current_range_meters":7200,"station_id":"ce4bgip2rcd13ifvqbb0","pricing_plan_id":"cebpf4jnsgd1na2vs0mg"},{"bike_id":"658dacf4-7ef3-4634-8126-9bbd88e5a6eb","system_id":"levelo_inurba_marseille","lat":43.23182,"lon":5.35546,"is_reserved":false,"is_disabled":false,"rental_uris":{"android":"levelo://app?vid=658dacf4-7ef3-4634-8126-9bbd88e5a6eb","ios":"levelo://app?vid=658dacf4-7ef3-4634-8126-9bbd88e5a6eb"},"vehicle_type_id":"4","last_reported":1730484731,"current_range_meters":24400,"station_id":"ce4bhu92rcd13ifvqi70","pricing_plan_id":"cebpf4jnsgd1na2vs0mg"},{"bike_id":"509636c2-4c89-4f67-a29f-8ac2e383d016","system_id":"levelo_inurba_marseille","lat":43.30777,"lon":5.37651,"is_reserved":false,"is_disabled":false,"rental_uris":{"android":"levelo://app?vid=509636c2-4c89-4f67-a29f-8ac2e383d016","ios":"levelo://app?vid=509636c2-4c89-4f67-a29f-8ac2e383d016"},"vehicle_type_id":"4","last_reported":1730484731,"current_range_meters":36000,"station_id":"ce4bgt12rcd13ifvqcd0","pricing_plan_id":"cebpf4jnsgd1na2vs0mg"},{"bike_id":"b98cfd7f-acdf-400e-bf8f-9132b0f74693","system_id":"levelo_inurba_marseille","lat":43.28098,"lon":5.37843,"is_reserved":false,"is_disabled":false,"rental_uris":{"android":"levelo://app?vid=b98cfd7f-acdf-400e-bf8f-9132b0f74693","ios":"levelo://app?vid=b98cfd7f-acdf-400e-bf8f-9132b0f74693"},"vehicle_type_id":"4","last_reported":1730484731,"current_range_meters":25600,"station_id":"ce4bha12rcd13ifvqee0","pricing_plan_id":"cebpf4jnsgd1na2vs0mg"},{"bike_id":"e62e38a9-284c-4b15-bfe8-8b214b98f04b","system_id":"levelo_inurba_marseille","lat":43.2305,"lon":5.35493,"is_reserved":false,"is_disabled":false,"rental_uris":{"android":"levelo://app?vid=e62e38a9-284c-4b15-bfe8-8b214b98f04b","ios":"levelo://app?vid=e62e38a9-284c-4b15-bfe8-8b214b98f04b"},"vehicle_type_id":"4","last_reported":1730484731,"current_range_meters":25600,"station_id":"cpo3342slgdg3j2ifvpg","pricing_plan_id":"cebpf4jnsgd1na2vs0mg"},{"bike_id":"522cf0ac-265a-440b-92ae-96252ff4b6fc","system_id":"levelo_inurba_marseille","lat":43.29032,"lon":5.38642,"is_reserved":false,"is_disabled":false,"rental_uris":{"android":"levelo://app?vid=522cf0ac-265a-440b-92ae-96252ff4b6fc","ios":"levelo://app?vid=522cf0ac-265a-440b-92ae-96252ff4b6fc"},"vehicle_type_id":"4","last_reported":1730484731,"current_range_meters":21600,"station_id":"ce4bh4p2rcd13ifvqe0g","pricing_plan_id":"cebpf4jnsgd1na2vs0mg"},{"bike_id":"4bca4246-446c-4e91-b9e6-968e3532641e","system_id":"levelo_inurba_marseille","lat":43.28466,"lon":5.38411,"is_reserved":false,"is_disabled":false,"rental_uris":{"android":"levelo://app?vid=4bca4246-446c-4e91-b9e6-968e3532641e","ios":"levelo://app?vid=4bca4246-446c-4e91-b9e6-968e3532641e"},"vehicle_type_id":"4","last_reported":1730484731,"current_range_meters":40000,"station_id":"ce4bh512rcd13ifvqe3g","pricing_plan_id":"cebpf4jnsgd1na2vs0mg"},{"bike_id":"e7ba2081-2d39-4d89-bf87-a4fc5c880f93","system_id":"levelo_inurba_marseille","lat":43.28102,"lon":5.37826,"is_reserved":false,"is_disabled":false,"rental_uris":{"android":"levelo://app?vid=e7ba2081-2d39-4d89-bf87-a4fc5c880f93","ios":"levelo://app?vid=e7ba2081-2d39-4d89-bf87-a4fc5c880f93"},"vehicle_type_id":"4","last_reported":1730484731,"current_range_meters":39200,"station_id":"ce4bha12rcd13ifvqee0","pricing_plan_id":"cebpf4jnsgd1na2vs0mg"},{"bike_id":"a0549040-4993-4a87-bdbb-b16c852e1889","system_id":"levelo_inurba_marseille","lat":43.2783,"lon":5.39211,"is_reserved":false,"is_disabled":false,"rental_uris":{"android":"levelo://app?vid=a0549040-4993-4a87-bdbb-b16c852e1889","ios":"levelo://app?vid=a0549040-4993-4a87-bdbb-b16c852e1889"},"vehicle_type_id":"4","last_reported":1730484731,"current_range_meters":39200,"station_id":"ce4bhjp2rcd13ifvqga0","pricing_plan_id":"cebpf4jnsgd1na2vs0mg"},{"bike_id":"7f13858a-bf09-42cc-a2ae-f1a6f96a5ea8","system_id":"levelo_inurba_marseille","lat":43.29975,"lon":5.38502,"is_reserved":false,"is_disabled":false,"rental_uris":{"android":"levelo://app?vid=7f13858a-bf09-42cc-a2ae-f1a6f96a5ea8","ios":"levelo://app?vid=7f13858a-bf09-42cc-a2ae-f1a6f96a5ea8"},"vehicle_type_id":"4","last_reported":1730484731,"current_range_meters":37600,"station_id":"ce4bgj92rcd13ifvqbd0","pricing_plan_id":"cebpf4jnsgd1na2vs0mg"},{"bike_id":"b890158d-4cc0-42ea-b1b1-cf934d08cc8a","system_id":"levelo_inurba_marseille","lat":43.32363,"lon":5.38885,"is_reserved":false,"is_disabled":false,"rental_uris":{"android":"levelo://app?vid=b890158d-4cc0-42ea-b1b1-cf934d08cc8a","ios":"levelo://app?vid=b890158d-4cc0-42ea-b1b1-cf934d08cc8a"},"vehicle_type_id":"4","last_reported":1730484731,"current_range_meters":32000,"station_id":"ce4bhqp2rcd13ifvqhog","pricing_plan_id":"cebpf4jnsgd1na2vs0mg"},{"bike_id":"fe9625bd-3854-4eec-a593-8fa0f2878c84","system_id":"levelo_inurba_marseille","lat":43.29533,"lon":5.38536,"is_reserved":false,"is_disabled":false,"rental_uris":{"android":"levelo://app?vid=fe9625bd-3854-4eec-a593-8fa0f2878c84","ios":"levelo://app?vid=fe9625bd-3854-4eec-a593-8fa0f2878c84"},"vehicle_type_id":"4","last_reported":1730484731,"current_range_meters":16400,"station_id":"ce4bgih2rcd13ifvqba0","pricing_plan_id":"cebpf4jnsgd1na2vs0mg"},{"bike_id":"569b0fbe-ed72-417d-9e56-1ca18cf64965","system_id":"levelo_inurba_marseille","lat":43.29695,"lon":5.36162,"is_reserved":false,"is_disabled":false,"rental_uris":{"android":"levelo://app?vid=569b0fbe-ed72-417d-9e56-1ca18cf64965","ios":"levelo://app?vid=569b0fbe-ed72-417d-9e56-1ca18cf64965"},"vehicle_type_id":"4","last_reported":1730484731,"current_range_meters":36400,"station_id":"","pricing_plan_id":"cebpf4jnsgd1na2vs0mg"},{"bike_id":"a0f24817-96c3-43f1-8df3-4fdc906cff21","system_id":"levelo_inurba_marseille","lat":43.31327,"lon":5.39695,"is_reserved":false,"is_disabled":false,"rental_uris":{"android":"levelo://app?vid=a0f24817-96c3-43f1-8df3-4fdc906cff21","ios":"levelo://app?vid=a0f24817-96c3-43f1-8df3-4fdc906cff21"},"vehicle_type_id":"4","last_reported":1730484731,"current_range_meters":8800,"station_id":"ce4bgvp2rcd13ifvqcu0","pricing_plan_id":"cebpf4jnsgd1na2vs0mg"},{"bike_id":"fa7676c1-2639-4b99-bd6e-8a5d76a8230f","system_id":"levelo_inurba_marseille","lat":43.29086,"lon":5.3815,"is_reserved":false,"is_disabled":false,"rental_uris":{"android":"levelo://app?vid=fa7676c1-2639-4b99-bd6e-8a5d76a8230f","ios":"levelo://app?vid=fa7676c1-2639-4b99-bd6e-8a5d76a8230f"},"vehicle_type_id":"4","last_reported":1730484731,"current_range_meters":20400,"station_id":"ce4bh512rcd13ifvqe2g","pricing_plan_id":"cebpf4jnsgd1na2vs0mg"},{"bike_id":"33a35d52-0527-4fcf-a71d-b955380e23e2","system_id":"levelo_inurba_marseille","lat":43.24541,"lon":5.39524,"is_reserved":false,"is_disabled":false,"rental_uris":{"android":"levelo://app?vid=33a35d52-0527-4fcf-a71d-b955380e23e2","ios":"levelo://app?vid=33a35d52-0527-4fcf-a71d-b955380e23e2"},"vehicle_type_id":"4","last_reported":1730484731,"current_range_meters":13600,"station_id":"ce4bhlp2rcd13ifvqgjg","pricing_plan_id":"cebpf4jnsgd1na2vs0mg"},{"bike_id":"b63084c1-e516-4e21-ab1a-e03ff7fa8ed4","system_id":"levelo_inurba_marseille","lat":43.29876,"lon":5.38908,"is_reserved":false,"is_disabled":false,"rental_uris":{"android":"levelo://app?vid=b63084c1-e516-4e21-ab1a-e03ff7fa8ed4","ios":"levelo://app?vid=b63084c1-e516-4e21-ab1a-e03ff7fa8ed4"},"vehicle_type_id":"4","last_reported":1730484731,"current_range_meters":29600,"station_id":"ce4bh392rcd13ifvqdl0","pricing_plan_id":"cebpf4jnsgd1na2vs0mg"},{"bike_id":"bbd68c01-c214-49b0-a206-90bef18c6e70","system_id":"levelo_inurba_marseille","lat":43.32038,"lon":5.41554,"is_reserved":false,"is_disabled":false,"rental_uris":{"android":"levelo://app?vid=bbd68c01-c214-49b0-a206-90bef18c6e70","ios":"levelo://app?vid=bbd68c01-c214-49b0-a206-90bef18c6e70"},"vehicle_type_id":"4","last_reported":1730484731,"current_range_meters":9600,"station_id":"ce4bhq92rcd13ifvqhkg","pricing_plan_id":"cebpf4jnsgd1na2vs0mg"},{"bike_id":"016a4bf1-781c-43c3-9a9e-b42149c36362","system_id":"levelo_inurba_marseille","lat":43.28345,"lon":5.38117,"is_reserved":false,"is_disabled":false,"rental_uris":{"android":"levelo://app?vid=016a4bf1-781c-43c3-9a9e-b42149c36362","ios":"levelo://app?vid=016a4bf1-781c-43c3-9a9e-b42149c36362"},"vehicle_type_id":"4","last_reported":1730484731,"current_range_meters":8000,"station_id":"ce4bh412rcd13ifvqdr0","pricing_plan_id":"cebpf4jnsgd1na2vs0mg"},{"bike_id":"56aa8e73-3bf8-4d46-8bae-63219603b93d","system_id":"levelo_inurba_marseille","lat":43.28484,"lon":5.38554,"is_reserved":false,"is_disabled":false,"rental_uris":{"android":"levelo://app?vid=56aa8e73-3bf8-4d46-8bae-63219603b93d","ios":"levelo://app?vid=56aa8e73-3bf8-4d46-8bae-63219603b93d"},"vehicle_type_id":"4","last_reported":1730484731,"current_range_meters":18000,"station_id":"ce4bh8p2rcd13ifvqeb0","pricing_plan_id":"cebpf4jnsgd1na2vs0mg"},{"bike_id":"f688de7e-2a4b-4df2-960b-70682e10d085","system_id":"levelo_inurba_marseille","lat":43.27831,"lon":5.39209,"is_reserved":false,"is_disabled":false,"rental_uris":{"android":"levelo://app?vid=f688de7e-2a4b-4df2-960b-70682e10d085","ios":"levelo://app?vid=f688de7e-2a4b-4df2-960b-70682e10d085"},"vehicle_type_id":"4","last_reported":1730484731,"current_range_meters":16800,"station_id":"ce4bhjp2rcd13ifvqga0","pricing_plan_id":"cebpf4jnsgd1na2vs0mg"},{"bike_id":"cffb5f57-4e0f-4783-aee4-e0d75d299fd0","system_id":"levelo_inurba_marseille","lat":43.32653,"lon":5.40998,"is_reserved":false,"is_disabled":false,"rental_uris":{"android":"levelo://app?vid=cffb5f57-4e0f-4783-aee4-e0d75d299fd0","ios":"levelo://app?vid=cffb5f57-4e0f-4783-aee4-e0d75d299fd0"},"vehicle_type_id":"4","last_reported":1730484731,"current_range_meters":3200,"station_id":"ce4bhpp2rcd13ifvqhgg","pricing_plan_id":"cebpf4jnsgd1na2vs0mg"},{"bike_id":"dc0df623-bd88-48f0-b488-eb8bc3b9bf25","system_id":"levelo_inurba_marseille","lat":43.29537,"lon":5.3751,"is_reserved":false,"is_disabled":false,"rental_uris":{"android":"levelo://app?vid=dc0df623-bd88-48f0-b488-eb8bc3b9bf25","ios":"levelo://app?vid=dc0df623-bd88-48f0-b488-eb8bc3b9bf25"},"vehicle_type_id":"4","last_reported":1730484731,"current_range_meters":9600,"station_id":"ce4bgkp2rcd13ifvqbmg","pricing_plan_id":"cebpf4jnsgd1na2vs0mg"},{"bike_id":"c42d5b20-443b-4617-97a7-62b13e93c482","system_id":"levelo_inurba_marseille","lat":43.24175,"lon":5.3973,"is_reserved":false,"is_disabled":false,"rental_uris":{"android":"levelo://app?vid=c42d5b20-443b-4617-97a7-62b13e93c482","ios":"levelo://app?vid=c42d5b20-443b-4617-97a7-62b13e93c482"},"vehicle_type_id":"4","last_reported":1730484731,"current_range_meters":4800,"station_id":"ce4bhn12rcd13ifvqgpg","pricing_plan_id":"cebpf4jnsgd1na2vs0mg"},{"bike_id":"b0176a28-527c-42b9-b750-f1dad8510223","system_id":"levelo_inurba_marseille","lat":43.29664,"lon":5.37659,"is_reserved":false,"is_disabled":false,"rental_uris":{"android":"levelo://app?vid=b0176a28-527c-42b9-b750-f1dad8510223","ios":"levelo://app?vid=b0176a28-527c-42b9-b750-f1dad8510223"},"vehicle_type_id":"4","last_reported":1730484731,"current_range_meters":33200,"station_id":"","pricing_plan_id":"cebpf4jnsgd1na2vs0mg"},{"bike_id":"1d52eed1-5a7a-4a22-95bd-37e228e68f8c","system_id":"levelo_inurba_marseille","lat":43.29297,"lon":5.3746,"is_reserved":false,"is_disabled":false,"rental_uris":{"android":"levelo://app?vid=1d52eed1-5a7a-4a22-95bd-37e228e68f8c","ios":"levelo://app?vid=1d52eed1-5a7a-4a22-95bd-37e228e68f8c"},"vehicle_type_id":"4","last_reported":1730484731,"current_range_meters":4400,"station_id":"ce4bgi12rcd13ifvqb70","pricing_plan_id":"cebpf4jnsgd1na2vs0mg"},{"bike_id":"971278ea-a959-492c-a695-27132035b303","system_id":"levelo_inurba_marseille","lat":43.2961,"lon":5.37727,"is_reserved":false,"is_disabled":false,"rental_uris":{"android":"levelo://app?vid=971278ea-a959-492c-a695-27132035b303","ios":"levelo://app?vid=971278ea-a959-492c-a695-27132035b303"},"vehicle_type_id":"4","last_reported":1730484731,"current_range_meters":10000,"station_id":"ce4bgi92rcd13ifvqb90","pricing_plan_id":"cebpf4jnsgd1na2vs0mg"},{"bike_id":"690a1760-6f34-4606-98eb-b610087f6136","system_id":"levelo_inurba_marseille","lat":43.28146,"lon":5.42653,"is_reserved":false,"is_disabled":false,"rental_uris":{"android":"levelo://app?vid=690a1760-6f34-4606-98eb-b610087f6136","ios":"levelo://app?vid=690a1760-6f34-4606-98eb-b610087f6136"},"vehicle_type_id":"4","last_reported":1730484731,"current_range_meters":11200,"station_id":"ce4bhnh2rcd13ifvqgug","pricing_plan_id":"cebpf4jnsgd1na2vs0mg"},{"bike_id":"e1610605-5756-4123-907e-88ebe2cdf2d8","system_id":"levelo_inurba_marseille","lat":43.29027,"lon":5.38641,"is_reserved":false,"is_disabled":false,"rental_uris":{"android":"levelo://app?vid=e1610605-5756-4123-907e-88ebe2cdf2d8","ios":"levelo://app?vid=e1610605-5756-4123-907e-88ebe2cdf2d8"},"vehicle_type_id":"4","last_reported":1730484731,"current_range_meters":34000,"station_id":"ce4bh4p2rcd13ifvqe0g","pricing_plan_id":"cebpf4jnsgd1na2vs0mg"},{"bike_id":"18402065-9e87-476b-95ad-30853de181a0","system_id":"levelo_inurba_marseille","lat":43.32449,"lon":5.4555,"is_reserved":false,"is_disabled":false,"rental_uris":{"android":"levelo://app?vid=18402065-9e87-476b-95ad-30853de181a0","ios":"levelo://app?vid=18402065-9e87-476b-95ad-30853de181a0"},"vehicle_type_id":"4","last_reported":1730484731,"current_range_meters":10000,"station_id":"","pricing_plan_id":"cebpf4jnsgd1na2vs0mg"},{"bike_id":"711fc037-1485-48d1-a756-6d4246ae9cd4","system_id":"levelo_inurba_marseille","lat":43.24655,"lon":5.38898,"is_reserved":false,"is_disabled":false,"rental_uris":{"android":"levelo://app?vid=711fc037-1485-48d1-a756-6d4246ae9cd4","ios":"levelo://app?vid=711fc037-1485-48d1-a756-6d4246ae9cd4"},"vehicle_type_id":"4","last_reported":1730484731,"current_range_meters":7200,"station_id":"ce4bhg12rcd13ifvqf60","pricing_plan_id":"cebpf4jnsgd1na2vs0mg"},{"bike_id":"90749ab4-4b24-4c24-9ec4-05a77103eebc","system_id":"levelo_inurba_marseille","lat":43.2678,"lon":5.39415,"is_reserved":false,"is_disabled":false,"rental_uris":{"android":"levelo://app?vid=90749ab4-4b24-4c24-9ec4-05a77103eebc","ios":"levelo://app?vid=90749ab4-4b24-4c24-9ec4-05a77103eebc"},"vehicle_type_id":"4","last_reported":1730484731,"current_range_meters":24800,"station_id":"ce4bhh12rcd13ifvqfg0","pricing_plan_id":"cebpf4jnsgd1na2vs0mg"},{"bike_id":"8b3868c0-34b1-4835-8232-f296c753f3b9","system_id":"levelo_inurba_marseille","lat":43.31487,"lon":5.37308,"is_reserved":false,"is_disabled":false,"rental_uris":{"android":"levelo://app?vid=8b3868c0-34b1-4835-8232-f296c753f3b9","ios":"levelo://app?vid=8b3868c0-34b1-4835-8232-f296c753f3b9"},"vehicle_type_id":"4","last_reported":1730484731,"current_range_meters":8400,"station_id":"ce4bgt12rcd13ifvqcd0","pricing_plan_id":"cebpf4jnsgd1na2vs0mg"},{"bike_id":"c147ab21-0fba-4a91-8b84-e8326c779d04","system_id":"levelo_inurba_marseille","lat":43.30534,"lon":5.36701,"is_reserved":false,"is_disabled":false,"rental_uris":{"android":"levelo://app?vid=c147ab21-0fba-4a91-8b84-e8326c779d04","ios":"levelo://app?vid=c147ab21-0fba-4a91-8b84-e8326c779d04"},"vehicle_type_id":"4","last_reported":1730484731,"current_range_meters":12400,"station_id":"ce4bgrp2rcd13ifvqc9g","pricing_plan_id":"cebpf4jnsgd1na2vs0mg"},{"bike_id":"b8fc8de3-105f-433e-93f8-bd86e6f13f3e","system_id":"levelo_inurba_marseille","lat":43.29789,"lon":5.39342,"is_reserved":false,"is_disabled":false,"rental_uris":{"android":"levelo://app?vid=b8fc8de3-105f-433e-93f8-bd86e6f13f3e","ios":"levelo://app?vid=b8fc8de3-105f-433e-93f8-bd86e6f13f3e"},"vehicle_type_id":"4","last_reported":1730484731,"current_range_meters":30400,"station_id":"chh1huq6cuj3fo74tm60","pricing_plan_id":"cebpf4jnsgd1na2vs0mg"},{"bike_id":"c37c8179-02aa-438c-a0ee-24f40210968a","system_id":"levelo_inurba_marseille","lat":43.30125,"lon":5.39846,"is_reserved":false,"is_disabled":false,"rental_uris":{"android":"levelo://app?vid=c37c8179-02aa-438c-a0ee-24f40210968a","ios":"levelo://app?vid=c37c8179-02aa-438c-a0ee-24f40210968a"},"vehicle_type_id":"4","last_reported":1730484731,"current_range_meters":30000,"station_id":"ce4bh0h2rcd13ifvqd40","pricing_plan_id":"cebpf4jnsgd1na2vs0mg"},{"bike_id":"aa143365-9eca-4166-ad43-26a0cd732d6e","system_id":"levelo_inurba_marseille","lat":43.31279,"lon":5.40178,"is_reserved":false,"is_disabled":false,"rental_uris":{"android":"levelo://app?vid=aa143365-9eca-4166-ad43-26a0cd732d6e","ios":"levelo://app?vid=aa143365-9eca-4166-ad43-26a0cd732d6e"},"vehicle_type_id":"4","last_reported":1730484731,"current_range_meters":17600,"station_id":"ce4bh092rcd13ifvqd30","pricing_plan_id":"cebpf4jnsgd1na2vs0mg"},{"bike_id":"6839ab5e-4b95-46fb-aacf-bc5b6f154750","system_id":"levelo_inurba_marseille","lat":43.27906,"lon":5.3801,"is_reserved":false,"is_disabled":false,"rental_uris":{"android":"levelo://app?vid=6839ab5e-4b95-46fb-aacf-bc5b6f154750","ios":"levelo://app?vid=6839ab5e-4b95-46fb-aacf-bc5b6f154750"},"vehicle_type_id":"4","last_reported":1730484731,"current_range_meters":27200,"station_id":"ce4bhf92rcd13ifvqf50","pricing_plan_id":"cebpf4jnsgd1na2vs0mg"},{"bike_id":"15aedfc2-a1e6-49dd-b638-e485c8ab9717","system_id":"levelo_inurba_marseille","lat":43.29278,"lon":5.3685,"is_reserved":false,"is_disabled":false,"rental_uris":{"android":"levelo://app?vid=15aedfc2-a1e6-49dd-b638-e485c8ab9717","ios":"levelo://app?vid=15aedfc2-a1e6-49dd-b638-e485c8ab9717"},"vehicle_type_id":"4","last_reported":1730484731,"current_range_meters":6400,"station_id":"ce4bhbp2rcd13ifvqesg","pricing_plan_id":"cebpf4jnsgd1na2vs0mg"},{"bike_id":"95c3889e-71f5-4021-a680-4e313107e766","system_id":"levelo_inurba_marseille","lat":43.290215,"lon":5.381346,"is_reserved":false,"is_disabled":false,"rental_uris":{"android":"levelo://app?vid=95c3889e-71f5-4021-a680-4e313107e766","ios":"levelo://app?vid=95c3889e-71f5-4021-a680-4e313107e766"},"vehicle_type_id":"4","last_reported":1730484731,"current_range_meters":18000,"station_id":"ce4bh4p2rcd13ifvqe1g","pricing_plan_id":"cebpf4jnsgd1na2vs0mg"},{"bike_id":"7ea35843-89c8-4fef-a669-156725de09d9","system_id":"levelo_inurba_marseille","lat":43.30187,"lon":5.36632,"is_reserved":false,"is_disabled":false,"rental_uris":{"android":"levelo://app?vid=7ea35843-89c8-4fef-a669-156725de09d9","ios":"levelo://app?vid=7ea35843-89c8-4fef-a669-156725de09d9"},"vehicle_type_id":"4","last_reported":1730484731,"current_range_meters":2800,"station_id":"ce4bgrh2rcd13ifvqc8g","pricing_plan_id":"cebpf4jnsgd1na2vs0mg"},{"bike_id":"61337678-156c-415b-9152-626f5dde9ef1","system_id":"levelo_inurba_marseille","lat":43.270355,"lon":5.392527,"is_reserved":false,"is_disabled":false,"rental_uris":{"android":"levelo://app?vid=61337678-156c-415b-9152-626f5dde9ef1","ios":"levelo://app?vid=61337678-156c-415b-9152-626f5dde9ef1"},"vehicle_type_id":"4","last_reported":1730484731,"current_range_meters":24800,"station_id":"","pricing_plan_id":"cebpf4jnsgd1na2vs0mg"},{"bike_id":"c2b00462-2933-4d11-a017-569b2ae0a056","system_id":"levelo_inurba_marseille","lat":43.28659,"lon":5.38664,"is_reserved":false,"is_disabled":false,"rental_uris":{"android":"levelo://app?vid=c2b00462-2933-4d11-a017-569b2ae0a056","ios":"levelo://app?vid=c2b00462-2933-4d11-a017-569b2ae0a056"},"vehicle_type_id":"4","last_reported":1730484731,"current_range_meters":28400,"station_id":"ce4bh492rcd13ifvqdug","pricing_plan_id":"cebpf4jnsgd1na2vs0mg"},{"bike_id":"dcf49731-972d-47a6-bb4c-1419a86c5120","system_id":"levelo_inurba_marseille","lat":43.23962,"lon":5.36631,"is_reserved":false,"is_disabled":false,"rental_uris":{"android":"levelo://app?vid=dcf49731-972d-47a6-bb4c-1419a86c5120","ios":"levelo://app?vid=dcf49731-972d-47a6-bb4c-1419a86c5120"},"vehicle_type_id":"4","last_reported":1730484731,"current_range_meters":6000,"station_id":"ce4bhi12rcd13ifvqfp0","pricing_plan_id":"cebpf4jnsgd1na2vs0mg"},{"bike_id":"8c5aa0b9-49a7-4f5d-9e83-a4ce1726bbcf","system_id":"levelo_inurba_marseille","lat":43.28704,"lon":5.39993,"is_reserved":false,"is_disabled":false,"rental_uris":{"android":"levelo://app?vid=8c5aa0b9-49a7-4f5d-9e83-a4ce1726bbcf","ios":"levelo://app?vid=8c5aa0b9-49a7-4f5d-9e83-a4ce1726bbcf"},"vehicle_type_id":"4","last_reported":1730484731,"current_range_meters":4000,"station_id":"ce4bho92rcd13ifvqh3g","pricing_plan_id":"cebpf4jnsgd1na2vs0mg"},{"bike_id":"4e8fe0ad-71c6-47fb-9841-bf39262a8adc","system_id":"levelo_inurba_marseille","lat":43.31995,"lon":5.38168,"is_reserved":false,"is_disabled":false,"rental_uris":{"android":"levelo://app?vid=4e8fe0ad-71c6-47fb-9841-bf39262a8adc","ios":"levelo://app?vid=4e8fe0ad-71c6-47fb-9841-bf39262a8adc"},"vehicle_type_id":"4","last_reported":1730484731,"current_range_meters":30400,"station_id":"ce4bhr12rcd13ifvqhpg","pricing_plan_id":"cebpf4jnsgd1na2vs0mg"},{"bike_id":"0ca19edd-ed14-4997-a23d-7463e7263b90","system_id":"levelo_inurba_marseille","lat":43.24998,"lon":5.38926,"is_reserved":false,"is_disabled":false,"rental_uris":{"android":"levelo://app?vid=0ca19edd-ed14-4997-a23d-7463e7263b90","ios":"levelo://app?vid=0ca19edd-ed14-4997-a23d-7463e7263b90"},"vehicle_type_id":"4","last_reported":1730484731,"current_range_meters":38800,"station_id":"ce4bhgp2rcd13ifvqfd0","pricing_plan_id":"cebpf4jnsgd1na2vs0mg"},{"bike_id":"0ed68df8-f16b-48e1-8dca-3de2c5a2efd8","system_id":"levelo_inurba_marseille","lat":43.29109,"lon":5.41739,"is_reserved":false,"is_disabled":false,"rental_uris":{"android":"levelo://app?vid=0ed68df8-f16b-48e1-8dca-3de2c5a2efd8","ios":"levelo://app?vid=0ed68df8-f16b-48e1-8dca-3de2c5a2efd8"},"vehicle_type_id":"4","last_reported":1730484731,"current_range_meters":17200,"station_id":"","pricing_plan_id":"cebpf4jnsgd1na2vs0mg"},{"bike_id":"76df0ae2-afe0-4973-93d1-55ab51d53ea0","system_id":"levelo_inurba_marseille","lat":43.29588,"lon":5.38111,"is_reserved":false,"is_disabled":false,"rental_uris":{"android":"levelo://app?vid=76df0ae2-afe0-4973-93d1-55ab51d53ea0","ios":"levelo://app?vid=76df0ae2-afe0-4973-93d1-55ab51d53ea0"},"vehicle_type_id":"4","last_reported":1730484731,"current_range_meters":36400,"station_id":"ce4bgl12rcd13ifvqbo0","pricing_plan_id":"cebpf4jnsgd1na2vs0mg"},{"bike_id":"b66d1e60-7d0e-43b4-ba41-b72b2b5d73d0","system_id":"levelo_inurba_marseille","lat":43.29787,"lon":5.393565,"is_reserved":false,"is_disabled":false,"rental_uris":{"android":"levelo://app?vid=b66d1e60-7d0e-43b4-ba41-b72b2b5d73d0","ios":"levelo://app?vid=b66d1e60-7d0e-43b4-ba41-b72b2b5d73d0"},"vehicle_type_id":"4","last_reported":1730484731,"current_range_meters":10800,"station_id":"chh1huq6cuj3fo74tm60","pricing_plan_id":"cebpf4jnsgd1na2vs0mg"},{"bike_id":"864b5968-b26c-4169-bbf7-a4fb0a24de7b","system_id":"levelo_inurba_marseille","lat":43.28473,"lon":5.3841,"is_reserved":false,"is_disabled":false,"rental_uris":{"android":"levelo://app?vid=864b5968-b26c-4169-bbf7-a4fb0a24de7b","ios":"levelo://app?vid=864b5968-b26c-4169-bbf7-a4fb0a24de7b"},"vehicle_type_id":"4","last_reported":1730484731,"current_range_meters":38000,"station_id":"ce4bh512rcd13ifvqe3g","pricing_plan_id":"cebpf4jnsgd1na2vs0mg"},{"bike_id":"ce1c0bfc-a782-4160-bbc2-c789895e94b9","system_id":"levelo_inurba_marseille","lat":43.32364,"lon":5.38884,"is_reserved":false,"is_disabled":false,"rental_uris":{"android":"levelo://app?vid=ce1c0bfc-a782-4160-bbc2-c789895e94b9","ios":"levelo://app?vid=ce1c0bfc-a782-4160-bbc2-c789895e94b9"},"vehicle_type_id":"4","last_reported":1730484731,"current_range_meters":17600,"station_id":"ce4bhqp2rcd13ifvqhog","pricing_plan_id":"cebpf4jnsgd1na2vs0mg"},{"bike_id":"106181b3-538c-4635-a0d1-cb94dae9b956","system_id":"levelo_inurba_marseille","lat":43.231925,"lon":5.35553,"is_reserved":false,"is_disabled":false,"rental_uris":{"android":"levelo://app?vid=106181b3-538c-4635-a0d1-cb94dae9b956","ios":"levelo://app?vid=106181b3-538c-4635-a0d1-cb94dae9b956"},"vehicle_type_id":"4","last_reported":1730484731,"current_range_meters":39200,"station_id":"ce4bhu92rcd13ifvqi70","pricing_plan_id":"cebpf4jnsgd1na2vs0mg"},{"bike_id":"d76250ec-05b2-4cbb-ac9b-06e5c2c4aaf2","system_id":"levelo_inurba_marseille","lat":43.30593,"lon":5.39364,"is_reserved":false,"is_disabled":false,"rental_uris":{"android":"levelo://app?vid=d76250ec-05b2-4cbb-ac9b-06e5c2c4aaf2","ios":"levelo://app?vid=d76250ec-05b2-4cbb-ac9b-06e5c2c4aaf2"},"vehicle_type_id":"4","last_reported":1730484731,"current_range_meters":30000,"station_id":"ce4bh0p2rcd13ifvqd80","pricing_plan_id":"cebpf4jnsgd1na2vs0mg"},{"bike_id":"c9fe9305-e5b5-403a-8ac6-ee784523647c","system_id":"levelo_inurba_marseille","lat":43.23435,"lon":5.35942,"is_reserved":false,"is_disabled":false,"rental_uris":{"android":"levelo://app?vid=c9fe9305-e5b5-403a-8ac6-ee784523647c","ios":"levelo://app?vid=c9fe9305-e5b5-403a-8ac6-ee784523647c"},"vehicle_type_id":"4","last_reported":1730484731,"current_range_meters":22000,"station_id":"","pricing_plan_id":"cebpf4jnsgd1na2vs0mg"},{"bike_id":"69a0d18e-0381-4102-9fad-3f8c57fc1228","system_id":"levelo_inurba_marseille","lat":43.23063,"lon":5.3549,"is_reserved":false,"is_disabled":false,"rental_uris":{"android":"levelo://app?vid=69a0d18e-0381-4102-9fad-3f8c57fc1228","ios":"levelo://app?vid=69a0d18e-0381-4102-9fad-3f8c57fc1228"},"vehicle_type_id":"4","last_reported":1730484731,"current_range_meters":38800,"station_id":"cpo3342slgdg3j2ifvpg","pricing_plan_id":"cebpf4jnsgd1na2vs0mg"},{"bike_id":"07d0df56-f8bc-46e6-871c-8e071fb175e5","system_id":"levelo_inurba_marseille","lat":43.2319,"lon":5.35557,"is_reserved":false,"is_disabled":false,"rental_uris":{"android":"levelo://app?vid=07d0df56-f8bc-46e6-871c-8e071fb175e5","ios":"levelo://app?vid=07d0df56-f8bc-46e6-871c-8e071fb175e5"},"vehicle_type_id":"4","last_reported":1730484731,"current_range_meters":38800,"station_id":"ce4bhu92rcd13ifvqi70","pricing_plan_id":"cebpf4jnsgd1na2vs0mg"},{"bike_id":"d067261d-1f65-4dda-b2ae-d6541cf03bfa","system_id":"levelo_inurba_marseille","lat":43.28666,"lon":5.38655,"is_reserved":false,"is_disabled":false,"rental_uris":{"android":"levelo://app?vid=d067261d-1f65-4dda-b2ae-d6541cf03bfa","ios":"levelo://app?vid=d067261d-1f65-4dda-b2ae-d6541cf03bfa"},"vehicle_type_id":"4","last_reported":1730484731,"current_range_meters":0,"station_id":"ce4bh492rcd13ifvqdug","pricing_plan_id":"cebpf4jnsgd1na2vs0mg"},{"bike_id":"19e6008c-0743-45ac-b4bf-fc683ef0e14c","system_id":"levelo_inurba_marseille","lat":43.25719,"lon":5.41112,"is_reserved":false,"is_disabled":false,"rental_uris":{"android":"levelo://app?vid=19e6008c-0743-45ac-b4bf-fc683ef0e14c","ios":"levelo://app?vid=19e6008c-0743-45ac-b4bf-fc683ef0e14c"},"vehicle_type_id":"4","last_reported":1730484731,"current_range_meters":28800,"station_id":"ce4bhkp2rcd13ifvqgd0","pricing_plan_id":"cebpf4jnsgd1na2vs0mg"},{"bike_id":"1024fd51-25ba-4f19-a9a9-008fe680e83d","system_id":"levelo_inurba_marseille","lat":43.30589,"lon":5.37218,"is_reserved":false,"is_disabled":false,"rental_uris":{"android":"levelo://app?vid=1024fd51-25ba-4f19-a9a9-008fe680e83d","ios":"levelo://app?vid=1024fd51-25ba-4f19-a9a9-008fe680e83d"},"vehicle_type_id":"4","last_reported":1730484731,"current_range_meters":9600,"station_id":"ce4bgqh2rcd13ifvqc4g","pricing_plan_id":"cebpf4jnsgd1na2vs0mg"},{"bike_id":"c121262e-e64f-4c57-ad81-84bc1a1971e7","system_id":"levelo_inurba_marseille","lat":43.29417,"lon":5.38613,"is_reserved":false,"is_disabled":false,"rental_uris":{"android":"levelo://app?vid=c121262e-e64f-4c57-ad81-84bc1a1971e7","ios":"levelo://app?vid=c121262e-e64f-4c57-ad81-84bc1a1971e7"},"vehicle_type_id":"4","last_reported":1730484731,"current_range_meters":27200,"station_id":"ce4bh2h2rcd13ifvqdh0","pricing_plan_id":"cebpf4jnsgd1na2vs0mg"},{"bike_id":"223427b6-a667-4fba-bfd1-d25670cecee0","system_id":"levelo_inurba_marseille","lat":43.29031,"lon":5.3756,"is_reserved":false,"is_disabled":false,"rental_uris":{"android":"levelo://app?vid=223427b6-a667-4fba-bfd1-d25670cecee0","ios":"levelo://app?vid=223427b6-a667-4fba-bfd1-d25670cecee0"},"vehicle_type_id":"4","last_reported":1730484731,"current_range_meters":38800,"station_id":"ce4bh692rcd13ifvqe90","pricing_plan_id":"cebpf4jnsgd1na2vs0mg"},{"bike_id":"ed0fdff3-e0b3-49e3-83e7-ade54aca060c","system_id":"levelo_inurba_marseille","lat":43.28438,"lon":5.39192,"is_reserved":false,"is_disabled":false,"rental_uris":{"android":"levelo://app?vid=ed0fdff3-e0b3-49e3-83e7-ade54aca060c","ios":"levelo://app?vid=ed0fdff3-e0b3-49e3-83e7-ade54aca060c"},"vehicle_type_id":"4","last_reported":1730484731,"current_range_meters":14000,"station_id":"ce4bhoh2rcd13ifvqh5g","pricing_plan_id":"cebpf4jnsgd1na2vs0mg"},{"bike_id":"59f9c0bc-c7cd-434c-9d31-d2ab9ca2970f","system_id":"levelo_inurba_marseille","lat":43.32652,"lon":5.40996,"is_reserved":false,"is_disabled":false,"rental_uris":{"android":"levelo://app?vid=59f9c0bc-c7cd-434c-9d31-d2ab9ca2970f","ios":"levelo://app?vid=59f9c0bc-c7cd-434c-9d31-d2ab9ca2970f"},"vehicle_type_id":"4","last_reported":1730484731,"current_range_meters":9200,"station_id":"ce4bhpp2rcd13ifvqhgg","pricing_plan_id":"cebpf4jnsgd1na2vs0mg"},{"bike_id":"3276c322-0007-49f1-9e5e-150107a7e6ab","system_id":"levelo_inurba_marseille","lat":43.29602,"lon":5.38113,"is_reserved":false,"is_disabled":false,"rental_uris":{"android":"levelo://app?vid=3276c322-0007-49f1-9e5e-150107a7e6ab","ios":"levelo://app?vid=3276c322-0007-49f1-9e5e-150107a7e6ab"},"vehicle_type_id":"4","last_reported":1730484731,"current_range_meters":3600,"station_id":"ce4bgl12rcd13ifvqbo0","pricing_plan_id":"cebpf4jnsgd1na2vs0mg"},{"bike_id":"27a302cb-edc8-497a-bad2-a9681f63458f","system_id":"levelo_inurba_marseille","lat":43.28482,"lon":5.385613,"is_reserved":false,"is_disabled":false,"rental_uris":{"android":"levelo://app?vid=27a302cb-edc8-497a-bad2-a9681f63458f","ios":"levelo://app?vid=27a302cb-edc8-497a-bad2-a9681f63458f"},"vehicle_type_id":"4","last_reported":1730484731,"current_range_meters":25200,"station_id":"ce4bh8p2rcd13ifvqeb0","pricing_plan_id":"cebpf4jnsgd1na2vs0mg"},{"bike_id":"367151e3-d9d1-496e-afc3-1d3ad14f98c6","system_id":"levelo_inurba_marseille","lat":43.323681,"lon":5.388859,"is_reserved":false,"is_disabled":false,"rental_uris":{"android":"levelo://app?vid=367151e3-d9d1-496e-afc3-1d3ad14f98c6","ios":"levelo://app?vid=367151e3-d9d1-496e-afc3-1d3ad14f98c6"},"vehicle_type_id":"4","last_reported":1730484731,"current_range_meters":36400,"station_id":"ce4bhqp2rcd13ifvqhog","pricing_plan_id":"cebpf4jnsgd1na2vs0mg"},{"bike_id":"f615e294-0409-44a2-a018-25a12cadb6a0","system_id":"levelo_inurba_marseille","lat":43.29272,"lon":5.38444,"is_reserved":false,"is_disabled":false,"rental_uris":{"android":"levelo://app?vid=f615e294-0409-44a2-a018-25a12cadb6a0","ios":"levelo://app?vid=f615e294-0409-44a2-a018-25a12cadb6a0"},"vehicle_type_id":"4","last_reported":1730484731,"current_range_meters":13600,"station_id":"ce4bh692rcd13ifvqea0","pricing_plan_id":"cebpf4jnsgd1na2vs0mg"},{"bike_id":"f988207f-62da-49c8-bdd2-b2c04659336c","system_id":"levelo_inurba_marseille","lat":43.26951,"lon":5.38632,"is_reserved":false,"is_disabled":false,"rental_uris":{"android":"levelo://app?vid=f988207f-62da-49c8-bdd2-b2c04659336c","ios":"levelo://app?vid=f988207f-62da-49c8-bdd2-b2c04659336c"},"vehicle_type_id":"4","last_reported":1730484731,"current_range_meters":37600,"station_id":"ce4bhh92rcd13ifvqfh0","pricing_plan_id":"cebpf4jnsgd1na2vs0mg"},{"bike_id":"d8b30d62-8fb7-4930-b190-e85b44e5d382","system_id":"levelo_inurba_marseille","lat":43.29803,"lon":5.38098,"is_reserved":false,"is_disabled":false,"rental_uris":{"android":"levelo://app?vid=d8b30d62-8fb7-4930-b190-e85b44e5d382","ios":"levelo://app?vid=d8b30d62-8fb7-4930-b190-e85b44e5d382"},"vehicle_type_id":"4","last_reported":1730484731,"current_range_meters":24800,"station_id":"ce4bgip2rcd13ifvqbb0","pricing_plan_id":"cebpf4jnsgd1na2vs0mg"},{"bike_id":"5314461f-5b80-4a30-a9c7-109db7ab689b","system_id":"levelo_inurba_marseille","lat":43.27372,"lon":5.36259,"is_reserved":false,"is_disabled":false,"rental_uris":{"android":"levelo://app?vid=5314461f-5b80-4a30-a9c7-109db7ab689b","ios":"levelo://app?vid=5314461f-5b80-4a30-a9c7-109db7ab689b"},"vehicle_type_id":"4","last_reported":1730484731,"current_range_meters":24000,"station_id":"ce4bhbh2rcd13ifvqeo0","pricing_plan_id":"cebpf4jnsgd1na2vs0mg"},{"bike_id":"41de4148-7f27-47fd-975a-e08dda6454dc","system_id":"levelo_inurba_marseille","lat":43.2962,"lon":5.37169,"is_reserved":false,"is_disabled":false,"rental_uris":{"android":"levelo://app?vid=41de4148-7f27-47fd-975a-e08dda6454dc","ios":"levelo://app?vid=41de4148-7f27-47fd-975a-e08dda6454dc"},"vehicle_type_id":"4","last_reported":1730484731,"current_range_meters":12400,"station_id":"ce4bgnh2rcd13ifvqc0g","pricing_plan_id":"cebpf4jnsgd1na2vs0mg"},{"bike_id":"b308451d-42cb-41d1-b5a5-a3a56d0b89d4","system_id":"levelo_inurba_marseille","lat":43.29027,"lon":5.38636,"is_reserved":false,"is_disabled":false,"rental_uris":{"android":"levelo://app?vid=b308451d-42cb-41d1-b5a5-a3a56d0b89d4","ios":"levelo://app?vid=b308451d-42cb-41d1-b5a5-a3a56d0b89d4"},"vehicle_type_id":"4","last_reported":1730484731,"current_range_meters":6000,"station_id":"ce4bh4p2rcd13ifvqe0g","pricing_plan_id":"cebpf4jnsgd1na2vs0mg"},{"bike_id":"a51b32eb-bce6-49ee-995d-911914cb0a4d","system_id":"levelo_inurba_marseille","lat":43.29806,"lon":5.38095,"is_reserved":false,"is_disabled":false,"rental_uris":{"android":"levelo://app?vid=a51b32eb-bce6-49ee-995d-911914cb0a4d","ios":"levelo://app?vid=a51b32eb-bce6-49ee-995d-911914cb0a4d"},"vehicle_type_id":"4","last_reported":1730484731,"current_range_meters":19200,"station_id":"ce4bgip2rcd13ifvqbb0","pricing_plan_id":"cebpf4jnsgd1na2vs0mg"},{"bike_id":"57d18951-2001-4003-92d2-aa5cb684af8c","system_id":"levelo_inurba_marseille","lat":43.271003,"lon":5.394477,"is_reserved":false,"is_disabled":false,"rental_uris":{"android":"levelo://app?vid=57d18951-2001-4003-92d2-aa5cb684af8c","ios":"levelo://app?vid=57d18951-2001-4003-92d2-aa5cb684af8c"},"vehicle_type_id":"4","last_reported":1730484731,"current_range_meters":21600,"station_id":"","pricing_plan_id":"cebpf4jnsgd1na2vs0mg"},{"bike_id":"6d92fbc9-1212-480c-9fcd-cf158c9bd688","system_id":"levelo_inurba_marseille","lat":43.24167,"lon":5.36401,"is_reserved":false,"is_disabled":false,"rental_uris":{"android":"levelo://app?vid=6d92fbc9-1212-480c-9fcd-cf158c9bd688","ios":"levelo://app?vid=6d92fbc9-1212-480c-9fcd-cf158c9bd688"},"vehicle_type_id":"4","last_reported":1730484731,"current_range_meters":17600,"station_id":"cpo36qri1sfpv3e86is0","pricing_plan_id":"cebpf4jnsgd1na2vs0mg"},{"bike_id":"16b75837-b535-4915-a838-53bd99153242","system_id":"levelo_inurba_marseille","lat":43.31115,"lon":5.37778,"is_reserved":false,"is_disabled":false,"rental_uris":{"android":"levelo://app?vid=16b75837-b535-4915-a838-53bd99153242","ios":"levelo://app?vid=16b75837-b535-4915-a838-53bd99153242"},"vehicle_type_id":"4","last_reported":1730484731,"current_range_meters":10800,"station_id":"ce4bgt92rcd13ifvqcg0","pricing_plan_id":"cebpf4jnsgd1na2vs0mg"},{"bike_id":"e8bb2e43-06e1-4662-9540-13b29d948ad5","system_id":"levelo_inurba_marseille","lat":43.33725,"lon":5.39187,"is_reserved":false,"is_disabled":false,"rental_uris":{"android":"levelo://app?vid=e8bb2e43-06e1-4662-9540-13b29d948ad5","ios":"levelo://app?vid=e8bb2e43-06e1-4662-9540-13b29d948ad5"},"vehicle_type_id":"4","last_reported":1730484731,"current_range_meters":7200,"station_id":"ce4bhr92rcd13ifvqhsg","pricing_plan_id":"cebpf4jnsgd1na2vs0mg"},{"bike_id":"de7afcfd-20fc-484b-9c8c-67668540ae00","system_id":"levelo_inurba_marseille","lat":43.30244,"lon":5.40042,"is_reserved":false,"is_disabled":false,"rental_uris":{"android":"levelo://app?vid=de7afcfd-20fc-484b-9c8c-67668540ae00","ios":"levelo://app?vid=de7afcfd-20fc-484b-9c8c-67668540ae00"},"vehicle_type_id":"4","last_reported":1730484731,"current_range_meters":25600,"station_id":"ce4bgvh2rcd13ifvqcs0","pricing_plan_id":"cebpf4jnsgd1na2vs0mg"},{"bike_id":"acbd4b0d-3693-4cc0-8d0e-f86217a260cb","system_id":"levelo_inurba_marseille","lat":43.28777,"lon":5.38472,"is_reserved":false,"is_disabled":false,"rental_uris":{"android":"levelo://app?vid=acbd4b0d-3693-4cc0-8d0e-f86217a260cb","ios":"levelo://app?vid=acbd4b0d-3693-4cc0-8d0e-f86217a260cb"},"vehicle_type_id":"4","last_reported":1730484731,"current_range_meters":9200,"station_id":"","pricing_plan_id":"cebpf4jnsgd1na2vs0mg"},{"bike_id":"dee78bd8-3802-45af-a002-dc082f3ccf4c","system_id":"levelo_inurba_marseille","lat":43.29978,"lon":5.38484,"is_reserved":false,"is_disabled":false,"rental_uris":{"android":"levelo://app?vid=dee78bd8-3802-45af-a002-dc082f3ccf4c","ios":"levelo://app?vid=dee78bd8-3802-45af-a002-dc082f3ccf4c"},"vehicle_type_id":"4","last_reported":1730484731,"current_range_meters":17600,"station_id":"ce4bgj92rcd13ifvqbd0","pricing_plan_id":"cebpf4jnsgd1na2vs0mg"},{"bike_id":"94279a57-03c0-47b7-abe3-7226e86fd3b0","system_id":"levelo_inurba_marseille","lat":43.27613,"lon":5.36113,"is_reserved":false,"is_disabled":false,"rental_uris":{"android":"levelo://app?vid=94279a57-03c0-47b7-abe3-7226e86fd3b0","ios":"levelo://app?vid=94279a57-03c0-47b7-abe3-7226e86fd3b0"},"vehicle_type_id":"4","last_reported":1730484731,"current_range_meters":24400,"station_id":"ce4bgj92rcd13ifvqbe0","pricing_plan_id":"cebpf4jnsgd1na2vs0mg"},{"bike_id":"59b6c4df-2efc-488e-9091-ae041fc70747","system_id":"levelo_inurba_marseille","lat":43.297455,"lon":5.376936,"is_reserved":false,"is_disabled":false,"rental_uris":{"android":"levelo://app?vid=59b6c4df-2efc-488e-9091-ae041fc70747","ios":"levelo://app?vid=59b6c4df-2efc-488e-9091-ae041fc70747"},"vehicle_type_id":"4","last_reported":1730484731,"current_range_meters":4000,"station_id":"ce4bgj12rcd13ifvqbc0","pricing_plan_id":"cebpf4jnsgd1na2vs0mg"},{"bike_id":"9ee9f6c7-8f7f-4af6-9064-132ef6a59dfd","system_id":"levelo_inurba_marseille","lat":43.30874,"lon":5.37849,"is_reserved":false,"is_disabled":false,"rental_uris":{"android":"levelo://app?vid=9ee9f6c7-8f7f-4af6-9064-132ef6a59dfd","ios":"levelo://app?vid=9ee9f6c7-8f7f-4af6-9064-132ef6a59dfd"},"vehicle_type_id":"4","last_reported":1730484731,"current_range_meters":26800,"station_id":"ce4bguh2rcd13ifvqcj0","pricing_plan_id":"cebpf4jnsgd1na2vs0mg"},{"bike_id":"6cdada4d-910a-4275-bce7-09cdc5904740","system_id":"levelo_inurba_marseille","lat":43.33021,"lon":5.39045,"is_reserved":false,"is_disabled":false,"rental_uris":{"android":"levelo://app?vid=6cdada4d-910a-4275-bce7-09cdc5904740","ios":"levelo://app?vid=6cdada4d-910a-4275-bce7-09cdc5904740"},"vehicle_type_id":"4","last_reported":1730484731,"current_range_meters":20400,"station_id":"ce4bhr92rcd13ifvqhrg","pricing_plan_id":"cebpf4jnsgd1na2vs0mg"},{"bike_id":"42048d4f-3394-4b7d-9f23-8170efa9936e","system_id":"levelo_inurba_marseille","lat":43.296112,"lon":5.377075,"is_reserved":false,"is_disabled":false,"rental_uris":{"android":"levelo://app?vid=42048d4f-3394-4b7d-9f23-8170efa9936e","ios":"levelo://app?vid=42048d4f-3394-4b7d-9f23-8170efa9936e"},"vehicle_type_id":"4","last_reported":1730484731,"current_range_meters":36800,"station_id":"ce4bgi92rcd13ifvqb90","pricing_plan_id":"cebpf4jnsgd1na2vs0mg"},{"bike_id":"811f91a7-b491-4bd2-b61b-6549a4b39843","system_id":"levelo_inurba_marseille","lat":43.29419,"lon":5.3862,"is_reserved":false,"is_disabled":false,"rental_uris":{"android":"levelo://app?vid=811f91a7-b491-4bd2-b61b-6549a4b39843","ios":"levelo://app?vid=811f91a7-b491-4bd2-b61b-6549a4b39843"},"vehicle_type_id":"4","last_reported":1730484731,"current_range_meters":32800,"station_id":"ce4bh2h2rcd13ifvqdh0","pricing_plan_id":"cebpf4jnsgd1na2vs0mg"},{"bike_id":"2aa9fdb6-af95-4fcb-981b-749cd7df1059","system_id":"levelo_inurba_marseille","lat":43.29794,"lon":5.40405,"is_reserved":false,"is_disabled":false,"rental_uris":{"android":"levelo://app?vid=2aa9fdb6-af95-4fcb-981b-749cd7df1059","ios":"levelo://app?vid=2aa9fdb6-af95-4fcb-981b-749cd7df1059"},"vehicle_type_id":"4","last_reported":1730484731,"current_range_meters":38800,"station_id":"ce4bh112rcd13ifvqd90","pricing_plan_id":"cebpf4jnsgd1na2vs0mg"},{"bike_id":"eb22ebc7-9397-4247-9035-6ba0867e2f05","system_id":"levelo_inurba_marseille","lat":43.2867,"lon":5.38665,"is_reserved":false,"is_disabled":false,"rental_uris":{"android":"levelo://app?vid=eb22ebc7-9397-4247-9035-6ba0867e2f05","ios":"levelo://app?vid=eb22ebc7-9397-4247-9035-6ba0867e2f05"},"vehicle_type_id":"4","last_reported":1730484731,"current_range_meters":0,"station_id":"ce4bh492rcd13ifvqdug","pricing_plan_id":"cebpf4jnsgd1na2vs0mg"},{"bike_id":"ce7a9679-1309-4337-a277-05901a838b7d","system_id":"levelo_inurba_marseille","lat":43.29347,"lon":5.43429,"is_reserved":false,"is_disabled":false,"rental_uris":{"android":"levelo://app?vid=ce7a9679-1309-4337-a277-05901a838b7d","ios":"levelo://app?vid=ce7a9679-1309-4337-a277-05901a838b7d"},"vehicle_type_id":"4","last_reported":1730484731,"current_range_meters":16000,"station_id":"","pricing_plan_id":"cebpf4jnsgd1na2vs0mg"},{"bike_id":"b97baae5-d1a7-40e1-a789-1bfe329a07c6","system_id":"levelo_inurba_marseille","lat":43.3169,"lon":5.40483,"is_reserved":false,"is_disabled":false,"rental_uris":{"android":"levelo://app?vid=b97baae5-d1a7-40e1-a789-1bfe329a07c6","ios":"levelo://app?vid=b97baae5-d1a7-40e1-a789-1bfe329a07c6"},"vehicle_type_id":"4","last_reported":1730484731,"current_range_meters":22400,"station_id":"ce4bh012rcd13ifvqd00","pricing_plan_id":"cebpf4jnsgd1na2vs0mg"},{"bike_id":"1ec42ac6-5e39-44e8-8d03-db5ffb93026a","system_id":"levelo_inurba_marseille","lat":43.28098,"lon":5.37839,"is_reserved":false,"is_disabled":false,"rental_uris":{"android":"levelo://app?vid=1ec42ac6-5e39-44e8-8d03-db5ffb93026a","ios":"levelo://app?vid=1ec42ac6-5e39-44e8-8d03-db5ffb93026a"},"vehicle_type_id":"4","last_reported":1730484731,"current_range_meters":10000,"station_id":"ce4bha12rcd13ifvqee0","pricing_plan_id":"cebpf4jnsgd1na2vs0mg"},{"bike_id":"f9a27b2b-61b4-4445-9516-181fdc3e9b69","system_id":"levelo_inurba_marseille","lat":43.29841,"lon":5.36262,"is_reserved":false,"is_disabled":false,"rental_uris":{"android":"levelo://app?vid=f9a27b2b-61b4-4445-9516-181fdc3e9b69","ios":"levelo://app?vid=f9a27b2b-61b4-4445-9516-181fdc3e9b69"},"vehicle_type_id":"4","last_reported":1730484731,"current_range_meters":28000,"station_id":"ce4bgpp2rcd13ifvqc3g","pricing_plan_id":"cebpf4jnsgd1na2vs0mg"},{"bike_id":"a3d874bc-9c6d-472a-954f-d73499ffde18","system_id":"levelo_inurba_marseille","lat":43.308807,"lon":5.396611,"is_reserved":false,"is_disabled":false,"rental_uris":{"android":"levelo://app?vid=a3d874bc-9c6d-472a-954f-d73499ffde18","ios":"levelo://app?vid=a3d874bc-9c6d-472a-954f-d73499ffde18"},"vehicle_type_id":"4","last_reported":1730484731,"current_range_meters":28000,"station_id":"ce4bh012rcd13ifvqcv0","pricing_plan_id":"cebpf4jnsgd1na2vs0mg"},{"bike_id":"89278f8d-dfe9-4ad6-a16f-d4bb717fd27f","system_id":"levelo_inurba_marseille","lat":43.29422,"lon":5.38628,"is_reserved":false,"is_disabled":false,"rental_uris":{"android":"levelo://app?vid=89278f8d-dfe9-4ad6-a16f-d4bb717fd27f","ios":"levelo://app?vid=89278f8d-dfe9-4ad6-a16f-d4bb717fd27f"},"vehicle_type_id":"4","last_reported":1730484731,"current_range_meters":24400,"station_id":"ce4bh2h2rcd13ifvqdh0","pricing_plan_id":"cebpf4jnsgd1na2vs0mg"},{"bike_id":"d5158683-abc1-4972-89f7-142d9f840937","system_id":"levelo_inurba_marseille","lat":43.28725,"lon":5.37937,"is_reserved":false,"is_disabled":false,"rental_uris":{"android":"levelo://app?vid=d5158683-abc1-4972-89f7-142d9f840937","ios":"levelo://app?vid=d5158683-abc1-4972-89f7-142d9f840937"},"vehicle_type_id":"4","last_reported":1730484731,"current_range_meters":38800,"station_id":"ce4bh9p2rcd13ifvqec0","pricing_plan_id":"cebpf4jnsgd1na2vs0mg"},{"bike_id":"48f311ea-c15c-4c36-b596-38b404fd4878","system_id":"levelo_inurba_marseille","lat":43.29591,"lon":5.38106,"is_reserved":false,"is_disabled":false,"rental_uris":{"android":"levelo://app?vid=48f311ea-c15c-4c36-b596-38b404fd4878","ios":"levelo://app?vid=48f311ea-c15c-4c36-b596-38b404fd4878"},"vehicle_type_id":"4","last_reported":1730484731,"current_range_meters":30800,"station_id":"ce4bgl12rcd13ifvqbo0","pricing_plan_id":"cebpf4jnsgd1na2vs0mg"},{"bike_id":"f694336d-d853-436d-b34f-51df41dad120","system_id":"levelo_inurba_marseille","lat":43.29794,"lon":5.38092,"is_reserved":false,"is_disabled":false,"rental_uris":{"android":"levelo://app?vid=f694336d-d853-436d-b34f-51df41dad120","ios":"levelo://app?vid=f694336d-d853-436d-b34f-51df41dad120"},"vehicle_type_id":"4","last_reported":1730484731,"current_range_meters":20000,"station_id":"ce4bgip2rcd13ifvqbb0","pricing_plan_id":"cebpf4jnsgd1na2vs0mg"},{"bike_id":"c54af523-7fb5-40e4-9336-358ed1f94b95","system_id":"levelo_inurba_marseille","lat":43.30955,"lon":5.40798,"is_reserved":false,"is_disabled":false,"rental_uris":{"android":"levelo://app?vid=c54af523-7fb5-40e4-9336-358ed1f94b95","ios":"levelo://app?vid=c54af523-7fb5-40e4-9336-358ed1f94b95"},"vehicle_type_id":"4","last_reported":1730484731,"current_range_meters":26800,"station_id":"","pricing_plan_id":"cebpf4jnsgd1na2vs0mg"},{"bike_id":"41d47d69-979b-4480-8fb6-135de4b1e8ff","system_id":"levelo_inurba_marseille","lat":43.2572,"lon":5.41112,"is_reserved":false,"is_disabled":false,"rental_uris":{"android":"levelo://app?vid=41d47d69-979b-4480-8fb6-135de4b1e8ff","ios":"levelo://app?vid=41d47d69-979b-4480-8fb6-135de4b1e8ff"},"vehicle_type_id":"4","last_reported":1730484731,"current_range_meters":40000,"station_id":"ce4bhkp2rcd13ifvqgd0","pricing_plan_id":"cebpf4jnsgd1na2vs0mg"},{"bike_id":"4065be5d-cba5-4c61-9ecb-949355cac390","system_id":"levelo_inurba_marseille","lat":43.29952,"lon":5.38494,"is_reserved":false,"is_disabled":false,"rental_uris":{"android":"levelo://app?vid=4065be5d-cba5-4c61-9ecb-949355cac390","ios":"levelo://app?vid=4065be5d-cba5-4c61-9ecb-949355cac390"},"vehicle_type_id":"4","last_reported":1730484731,"current_range_meters":10800,"station_id":"ce4bgj92rcd13ifvqbd0","pricing_plan_id":"cebpf4jnsgd1na2vs0mg"},{"bike_id":"af76d671-9d22-4069-a539-cdfdd0c3e7b6","system_id":"levelo_inurba_marseille","lat":43.27307,"lon":5.39077,"is_reserved":false,"is_disabled":false,"rental_uris":{"android":"levelo://app?vid=af76d671-9d22-4069-a539-cdfdd0c3e7b6","ios":"levelo://app?vid=af76d671-9d22-4069-a539-cdfdd0c3e7b6"},"vehicle_type_id":"4","last_reported":1730484731,"current_range_meters":6000,"station_id":"ce4bhgp2rcd13ifvqfe0","pricing_plan_id":"cebpf4jnsgd1na2vs0mg"},{"bike_id":"4e82479c-d34d-4b92-a8b5-55af69f2e45a","system_id":"levelo_inurba_marseille","lat":43.29574,"lon":5.36737,"is_reserved":false,"is_disabled":false,"rental_uris":{"android":"levelo://app?vid=4e82479c-d34d-4b92-a8b5-55af69f2e45a","ios":"levelo://app?vid=4e82479c-d34d-4b92-a8b5-55af69f2e45a"},"vehicle_type_id":"4","last_reported":1730484731,"current_range_meters":10000,"station_id":"ce4bgph2rcd13ifvqc2g","pricing_plan_id":"cebpf4jnsgd1na2vs0mg"},{"bike_id":"dca90d08-a4a6-4420-b1b4-cd1e75ddbc81","system_id":"levelo_inurba_marseille","lat":43.31652,"lon":5.43597,"is_reserved":false,"is_disabled":false,"rental_uris":{"android":"levelo://app?vid=dca90d08-a4a6-4420-b1b4-cd1e75ddbc81","ios":"levelo://app?vid=dca90d08-a4a6-4420-b1b4-cd1e75ddbc81"},"vehicle_type_id":"4","last_reported":1730484731,"current_range_meters":25200,"station_id":"ce4bhp92rcd13ifvqhcg","pricing_plan_id":"cebpf4jnsgd1na2vs0mg"},{"bike_id":"2e679aa2-6222-4666-94d2-8febbbac34cf","system_id":"levelo_inurba_marseille","lat":43.28997,"lon":5.48082,"is_reserved":false,"is_disabled":false,"rental_uris":{"android":"levelo://app?vid=2e679aa2-6222-4666-94d2-8febbbac34cf","ios":"levelo://app?vid=2e679aa2-6222-4666-94d2-8febbbac34cf"},"vehicle_type_id":"4","last_reported":1730484731,"current_range_meters":6000,"station_id":"","pricing_plan_id":"cebpf4jnsgd1na2vs0mg"},{"bike_id":"bc7682fd-7ae9-4e70-94d2-ee2c0a3e3684","system_id":"levelo_inurba_marseille","lat":43.25106,"lon":5.40315,"is_reserved":false,"is_disabled":false,"rental_uris":{"android":"levelo://app?vid=bc7682fd-7ae9-4e70-94d2-ee2c0a3e3684","ios":"levelo://app?vid=bc7682fd-7ae9-4e70-94d2-ee2c0a3e3684"},"vehicle_type_id":"4","last_reported":1730484731,"current_range_meters":24000,"station_id":"ce4bhlh2rcd13ifvqgig","pricing_plan_id":"cebpf4jnsgd1na2vs0mg"},{"bike_id":"82676ee6-d7ce-4ecb-971a-4bdc9a00524a","system_id":"levelo_inurba_marseille","lat":43.28108,"lon":5.37842,"is_reserved":false,"is_disabled":false,"rental_uris":{"android":"levelo://app?vid=82676ee6-d7ce-4ecb-971a-4bdc9a00524a","ios":"levelo://app?vid=82676ee6-d7ce-4ecb-971a-4bdc9a00524a"},"vehicle_type_id":"4","last_reported":1730484731,"current_range_meters":20800,"station_id":"ce4bha12rcd13ifvqee0","pricing_plan_id":"cebpf4jnsgd1na2vs0mg"},{"bike_id":"687cd6e8-3f3f-4d61-9c8a-3102854bff64","system_id":"levelo_inurba_marseille","lat":43.23193,"lon":5.35551,"is_reserved":false,"is_disabled":false,"rental_uris":{"android":"levelo://app?vid=687cd6e8-3f3f-4d61-9c8a-3102854bff64","ios":"levelo://app?vid=687cd6e8-3f3f-4d61-9c8a-3102854bff64"},"vehicle_type_id":"4","last_reported":1730484731,"current_range_meters":8400,"station_id":"ce4bhu92rcd13ifvqi70","pricing_plan_id":"cebpf4jnsgd1na2vs0mg"},{"bike_id":"589ac114-e349-4d4d-aae5-325daa9a810d","system_id":"levelo_inurba_marseille","lat":43.28411,"lon":5.37513,"is_reserved":false,"is_disabled":false,"rental_uris":{"android":"levelo://app?vid=589ac114-e349-4d4d-aae5-325daa9a810d","ios":"levelo://app?vid=589ac114-e349-4d4d-aae5-325daa9a810d"},"vehicle_type_id":"4","last_reported":1730484731,"current_range_meters":4400,"station_id":"ce4bh412rcd13ifvqds0","pricing_plan_id":"cebpf4jnsgd1na2vs0mg"},{"bike_id":"5e009c35-9d88-4f66-bd94-1eb3233a1fac","system_id":"levelo_inurba_marseille","lat":43.29525,"lon":5.38537,"is_reserved":false,"is_disabled":false,"rental_uris":{"android":"levelo://app?vid=5e009c35-9d88-4f66-bd94-1eb3233a1fac","ios":"levelo://app?vid=5e009c35-9d88-4f66-bd94-1eb3233a1fac"},"vehicle_type_id":"4","last_reported":1730484731,"current_range_meters":27600,"station_id":"ce4bgih2rcd13ifvqba0","pricing_plan_id":"cebpf4jnsgd1na2vs0mg"},{"bike_id":"5804714d-ac69-4ae7-864c-bc5e2f8291c8","system_id":"levelo_inurba_marseille","lat":43.28458,"lon":5.38406,"is_reserved":false,"is_disabled":false,"rental_uris":{"android":"levelo://app?vid=5804714d-ac69-4ae7-864c-bc5e2f8291c8","ios":"levelo://app?vid=5804714d-ac69-4ae7-864c-bc5e2f8291c8"},"vehicle_type_id":"4","last_reported":1730484731,"current_range_meters":16400,"station_id":"ce4bh512rcd13ifvqe3g","pricing_plan_id":"cebpf4jnsgd1na2vs0mg"},{"bike_id":"1b7f1ceb-6d92-43f3-b16f-0ad3e46cf32c","system_id":"levelo_inurba_marseille","lat":43.27806,"lon":5.40712,"is_reserved":false,"is_disabled":false,"rental_uris":{"android":"levelo://app?vid=1b7f1ceb-6d92-43f3-b16f-0ad3e46cf32c","ios":"levelo://app?vid=1b7f1ceb-6d92-43f3-b16f-0ad3e46cf32c"},"vehicle_type_id":"4","last_reported":1730484731,"current_range_meters":31200,"station_id":"ce4bhnh2rcd13ifvqgtg","pricing_plan_id":"cebpf4jnsgd1na2vs0mg"},{"bike_id":"6d7df840-1df9-4563-9cc2-c8c01ac6c4ec","system_id":"levelo_inurba_marseille","lat":43.28489,"lon":5.3842,"is_reserved":false,"is_disabled":false,"rental_uris":{"android":"levelo://app?vid=6d7df840-1df9-4563-9cc2-c8c01ac6c4ec","ios":"levelo://app?vid=6d7df840-1df9-4563-9cc2-c8c01ac6c4ec"},"vehicle_type_id":"4","last_reported":1730484731,"current_range_meters":13600,"station_id":"ce4bh512rcd13ifvqe3g","pricing_plan_id":"cebpf4jnsgd1na2vs0mg"},{"bike_id":"ef730039-42c0-44f6-8405-a428d461b534","system_id":"levelo_inurba_marseille","lat":43.29779,"lon":5.37106,"is_reserved":false,"is_disabled":false,"rental_uris":{"android":"levelo://app?vid=ef730039-42c0-44f6-8405-a428d461b534","ios":"levelo://app?vid=ef730039-42c0-44f6-8405-a428d461b534"},"vehicle_type_id":"4","last_reported":1730484731,"current_range_meters":10800,"station_id":"ce4bgop2rcd13ifvqc1g","pricing_plan_id":"cebpf4jnsgd1na2vs0mg"},{"bike_id":"43696823-ec85-43a1-892d-54413b95bdce","system_id":"levelo_inurba_marseille","lat":43.229556,"lon":5.353404,"is_reserved":false,"is_disabled":false,"rental_uris":{"android":"levelo://app?vid=43696823-ec85-43a1-892d-54413b95bdce","ios":"levelo://app?vid=43696823-ec85-43a1-892d-54413b95bdce"},"vehicle_type_id":"4","last_reported":1730484731,"current_range_meters":30400,"station_id":"cpo3532slgdg3j2ikp40","pricing_plan_id":"cebpf4jnsgd1na2vs0mg"},{"bike_id":"2c227232-4760-4dfd-8c61-3feb299c44bc","system_id":"levelo_inurba_marseille","lat":43.29532,"lon":5.37506,"is_reserved":false,"is_disabled":false,"rental_uris":{"android":"levelo://app?vid=2c227232-4760-4dfd-8c61-3feb299c44bc","ios":"levelo://app?vid=2c227232-4760-4dfd-8c61-3feb299c44bc"},"vehicle_type_id":"4","last_reported":1730484731,"current_range_meters":33600,"station_id":"ce4bgkp2rcd13ifvqbmg","pricing_plan_id":"cebpf4jnsgd1na2vs0mg"},{"bike_id":"590e7e4b-6095-4155-a8aa-04e23bd4b0d0","system_id":"levelo_inurba_marseille","lat":43.31078,"lon":5.42431,"is_reserved":false,"is_disabled":false,"rental_uris":{"android":"levelo://app?vid=590e7e4b-6095-4155-a8aa-04e23bd4b0d0","ios":"levelo://app?vid=590e7e4b-6095-4155-a8aa-04e23bd4b0d0"},"vehicle_type_id":"4","last_reported":1730484731,"current_range_meters":6400,"station_id":"ce4bhp92rcd13ifvqhag","pricing_plan_id":"cebpf4jnsgd1na2vs0mg"},{"bike_id":"09be3748-ef53-43dd-a3ec-e99061c1fb02","system_id":"levelo_inurba_marseille","lat":43.29416,"lon":5.38627,"is_reserved":false,"is_disabled":false,"rental_uris":{"android":"levelo://app?vid=09be3748-ef53-43dd-a3ec-e99061c1fb02","ios":"levelo://app?vid=09be3748-ef53-43dd-a3ec-e99061c1fb02"},"vehicle_type_id":"4","last_reported":1730484731,"current_range_meters":4000,"station_id":"ce4bh2h2rcd13ifvqdh0","pricing_plan_id":"cebpf4jnsgd1na2vs0mg"},{"bike_id":"abdfaa97-78dc-4752-a598-cccac81689f5","system_id":"levelo_inurba_marseille","lat":43.297946,"lon":5.380953,"is_reserved":false,"is_disabled":false,"rental_uris":{"android":"levelo://app?vid=abdfaa97-78dc-4752-a598-cccac81689f5","ios":"levelo://app?vid=abdfaa97-78dc-4752-a598-cccac81689f5"},"vehicle_type_id":"4","last_reported":1730484731,"current_range_meters":9600,"station_id":"ce4bh312rcd13ifvqdj0","pricing_plan_id":"cebpf4jnsgd1na2vs0mg"},{"bike_id":"d397b293-47ea-4010-bcf0-e831aa66f2fd","system_id":"levelo_inurba_marseille","lat":43.28988,"lon":5.37825,"is_reserved":false,"is_disabled":false,"rental_uris":{"android":"levelo://app?vid=d397b293-47ea-4010-bcf0-e831aa66f2fd","ios":"levelo://app?vid=d397b293-47ea-4010-bcf0-e831aa66f2fd"},"vehicle_type_id":"4","last_reported":1730484731,"current_range_meters":38400,"station_id":"ce4bh9p2rcd13ifvqed0","pricing_plan_id":"cebpf4jnsgd1na2vs0mg"},{"bike_id":"44077018-4dba-4c60-9b65-8397f6e9af31","system_id":"levelo_inurba_marseille","lat":43.25867,"lon":5.39899,"is_reserved":false,"is_disabled":false,"rental_uris":{"android":"levelo://app?vid=44077018-4dba-4c60-9b65-8397f6e9af31","ios":"levelo://app?vid=44077018-4dba-4c60-9b65-8397f6e9af31"},"vehicle_type_id":"4","last_reported":1730484731,"current_range_meters":35200,"station_id":"ce4bhl92rcd13ifvqghg","pricing_plan_id":"cebpf4jnsgd1na2vs0mg"},{"bike_id":"f89ae353-b5c8-47a5-9832-cff109b7ba8e","system_id":"levelo_inurba_marseille","lat":43.29071,"lon":5.38308,"is_reserved":false,"is_disabled":false,"rental_uris":{"android":"levelo://app?vid=f89ae353-b5c8-47a5-9832-cff109b7ba8e","ios":"levelo://app?vid=f89ae353-b5c8-47a5-9832-cff109b7ba8e"},"vehicle_type_id":"4","last_reported":1730484731,"current_range_meters":29600,"station_id":"","pricing_plan_id":"cebpf4jnsgd1na2vs0mg"},{"bike_id":"55d57c35-2798-44bd-b340-e44ab4f96ac1","system_id":"levelo_inurba_marseille","lat":43.337444,"lon":5.374475,"is_reserved":false,"is_disabled":false,"rental_uris":{"android":"levelo://app?vid=55d57c35-2798-44bd-b340-e44ab4f96ac1","ios":"levelo://app?vid=55d57c35-2798-44bd-b340-e44ab4f96ac1"},"vehicle_type_id":"4","last_reported":1730484731,"current_range_meters":36400,"station_id":"","pricing_plan_id":"cebpf4jnsgd1na2vs0mg"},{"bike_id":"e4c0b42b-ae70-43f4-bac2-ebefe93ecd3f","system_id":"levelo_inurba_marseille","lat":43.29529,"lon":5.38547,"is_reserved":false,"is_disabled":false,"rental_uris":{"android":"levelo://app?vid=e4c0b42b-ae70-43f4-bac2-ebefe93ecd3f","ios":"levelo://app?vid=e4c0b42b-ae70-43f4-bac2-ebefe93ecd3f"},"vehicle_type_id":"4","last_reported":1730484731,"current_range_meters":13600,"station_id":"ce4bgih2rcd13ifvqba0","pricing_plan_id":"cebpf4jnsgd1na2vs0mg"},{"bike_id":"14ca47dc-26b9-4d43-ad82-bb585ec61e18","system_id":"levelo_inurba_marseille","lat":43.29525,"lon":5.39028,"is_reserved":false,"is_disabled":false,"rental_uris":{"android":"levelo://app?vid=14ca47dc-26b9-4d43-ad82-bb585ec61e18","ios":"levelo://app?vid=14ca47dc-26b9-4d43-ad82-bb585ec61e18"},"vehicle_type_id":"4","last_reported":1730484731,"current_range_meters":16400,"station_id":"ce4bh3p2rcd13ifvqdp0","pricing_plan_id":"cebpf4jnsgd1na2vs0mg"},{"bike_id":"0160854c-1c1e-462b-a871-b5f8e012995c","system_id":"levelo_inurba_marseille","lat":43.23176,"lon":5.39986,"is_reserved":false,"is_disabled":false,"rental_uris":{"android":"levelo://app?vid=0160854c-1c1e-462b-a871-b5f8e012995c","ios":"levelo://app?vid=0160854c-1c1e-462b-a871-b5f8e012995c"},"vehicle_type_id":"4","last_reported":1730484731,"current_range_meters":5600,"station_id":"ce4bhn12rcd13ifvqgqg","pricing_plan_id":"cebpf4jnsgd1na2vs0mg"},{"bike_id":"0d4e0479-d8a2-45f2-91e0-dd87823320fe","system_id":"levelo_inurba_marseille","lat":43.33777,"lon":5.37469,"is_reserved":false,"is_disabled":false,"rental_uris":{"android":"levelo://app?vid=0d4e0479-d8a2-45f2-91e0-dd87823320fe","ios":"levelo://app?vid=0d4e0479-d8a2-45f2-91e0-dd87823320fe"},"vehicle_type_id":"4","last_reported":1730484731,"current_range_meters":24800,"station_id":"","pricing_plan_id":"cebpf4jnsgd1na2vs0mg"},{"bike_id":"3621c4f9-06a7-4177-a984-88e086f5a073","system_id":"levelo_inurba_marseille","lat":43.291877,"lon":5.393213,"is_reserved":false,"is_disabled":false,"rental_uris":{"android":"levelo://app?vid=3621c4f9-06a7-4177-a984-88e086f5a073","ios":"levelo://app?vid=3621c4f9-06a7-4177-a984-88e086f5a073"},"vehicle_type_id":"4","last_reported":1730484731,"current_range_meters":39200,"station_id":"ce4bh192rcd13ifvqdd0","pricing_plan_id":"cebpf4jnsgd1na2vs0mg"},{"bike_id":"79d8cd76-967c-43b2-ae82-d8bd784eb736","system_id":"levelo_inurba_marseille","lat":43.29579,"lon":5.36739,"is_reserved":false,"is_disabled":false,"rental_uris":{"android":"levelo://app?vid=79d8cd76-967c-43b2-ae82-d8bd784eb736","ios":"levelo://app?vid=79d8cd76-967c-43b2-ae82-d8bd784eb736"},"vehicle_type_id":"4","last_reported":1730484731,"current_range_meters":38800,"station_id":"ce4bgph2rcd13ifvqc2g","pricing_plan_id":"cebpf4jnsgd1na2vs0mg"},{"bike_id":"8ae2c13c-0234-49e7-9784-0ddabc24bd38","system_id":"levelo_inurba_marseille","lat":43.29026,"lon":5.38141,"is_reserved":false,"is_disabled":false,"rental_uris":{"android":"levelo://app?vid=8ae2c13c-0234-49e7-9784-0ddabc24bd38","ios":"levelo://app?vid=8ae2c13c-0234-49e7-9784-0ddabc24bd38"},"vehicle_type_id":"4","last_reported":1730484731,"current_range_meters":39200,"station_id":"ce4bh4p2rcd13ifvqe1g","pricing_plan_id":"cebpf4jnsgd1na2vs0mg"},{"bike_id":"f3494ccd-26e5-4d4f-a35d-12aa200ec061","system_id":"levelo_inurba_marseille","lat":43.2942,"lon":5.38631,"is_reserved":false,"is_disabled":false,"rental_uris":{"android":"levelo://app?vid=f3494ccd-26e5-4d4f-a35d-12aa200ec061","ios":"levelo://app?vid=f3494ccd-26e5-4d4f-a35d-12aa200ec061"},"vehicle_type_id":"4","last_reported":1730484731,"current_range_meters":14400,"station_id":"ce4bh2h2rcd13ifvqdh0","pricing_plan_id":"cebpf4jnsgd1na2vs0mg"},{"bike_id":"7edda5be-cf74-499d-9fbd-2d52bcbe5f3c","system_id":"levelo_inurba_marseille","lat":43.28093,"lon":5.37836,"is_reserved":false,"is_disabled":false,"rental_uris":{"android":"levelo://app?vid=7edda5be-cf74-499d-9fbd-2d52bcbe5f3c","ios":"levelo://app?vid=7edda5be-cf74-499d-9fbd-2d52bcbe5f3c"},"vehicle_type_id":"4","last_reported":1730484731,"current_range_meters":38400,"station_id":"ce4bha12rcd13ifvqee0","pricing_plan_id":"cebpf4jnsgd1na2vs0mg"},{"bike_id":"3040547d-7cac-4ac8-a811-2d6932ea8c51","system_id":"levelo_inurba_marseille","lat":43.28361,"lon":5.38634,"is_reserved":false,"is_disabled":false,"rental_uris":{"android":"levelo://app?vid=3040547d-7cac-4ac8-a811-2d6932ea8c51","ios":"levelo://app?vid=3040547d-7cac-4ac8-a811-2d6932ea8c51"},"vehicle_type_id":"4","last_reported":1730484731,"current_range_meters":39200,"station_id":"ce4bh492rcd13ifvqdvg","pricing_plan_id":"cebpf4jnsgd1na2vs0mg"},{"bike_id":"257f1900-8f8b-441a-b324-445f46e95697","system_id":"levelo_inurba_marseille","lat":43.27067,"lon":5.42278,"is_reserved":false,"is_disabled":false,"rental_uris":{"android":"levelo://app?vid=257f1900-8f8b-441a-b324-445f46e95697","ios":"levelo://app?vid=257f1900-8f8b-441a-b324-445f46e95697"},"vehicle_type_id":"4","last_reported":1730484731,"current_range_meters":8800,"station_id":"ce4bhk92rcd13ifvqgb0","pricing_plan_id":"cebpf4jnsgd1na2vs0mg"},{"bike_id":"d43d67f3-395a-471b-8c22-d596ee0d8526","system_id":"levelo_inurba_marseille","lat":43.30129,"lon":5.39855,"is_reserved":false,"is_disabled":false,"rental_uris":{"android":"levelo://app?vid=d43d67f3-395a-471b-8c22-d596ee0d8526","ios":"levelo://app?vid=d43d67f3-395a-471b-8c22-d596ee0d8526"},"vehicle_type_id":"4","last_reported":1730484731,"current_range_meters":27600,"station_id":"ce4bh0h2rcd13ifvqd40","pricing_plan_id":"cebpf4jnsgd1na2vs0mg"},{"bike_id":"0b3db19a-d24d-499d-9b08-7cc3cd19fd0a","system_id":"levelo_inurba_marseille","lat":43.29533,"lon":5.38582,"is_reserved":false,"is_disabled":false,"rental_uris":{"android":"levelo://app?vid=0b3db19a-d24d-499d-9b08-7cc3cd19fd0a","ios":"levelo://app?vid=0b3db19a-d24d-499d-9b08-7cc3cd19fd0a"},"vehicle_type_id":"4","last_reported":1730484731,"current_range_meters":10000,"station_id":"ce4bgih2rcd13ifvqba0","pricing_plan_id":"cebpf4jnsgd1na2vs0mg"},{"bike_id":"1ef2d7c4-f5c1-436c-b75f-8e2b0715e1fe","system_id":"levelo_inurba_marseille","lat":43.24385,"lon":5.37065,"is_reserved":false,"is_disabled":false,"rental_uris":{"android":"levelo://app?vid=1ef2d7c4-f5c1-436c-b75f-8e2b0715e1fe","ios":"levelo://app?vid=1ef2d7c4-f5c1-436c-b75f-8e2b0715e1fe"},"vehicle_type_id":"4","last_reported":1730484731,"current_range_meters":23200,"station_id":"ce4bhhh2rcd13ifvqfk0","pricing_plan_id":"cebpf4jnsgd1na2vs0mg"},{"bike_id":"dcc3412c-7336-4d5e-a8cb-a4954fb1723f","system_id":"levelo_inurba_marseille","lat":43.23068,"lon":5.35495,"is_reserved":false,"is_disabled":false,"rental_uris":{"android":"levelo://app?vid=dcc3412c-7336-4d5e-a8cb-a4954fb1723f","ios":"levelo://app?vid=dcc3412c-7336-4d5e-a8cb-a4954fb1723f"},"vehicle_type_id":"4","last_reported":1730484731,"current_range_meters":6800,"station_id":"cpo3342slgdg3j2ifvpg","pricing_plan_id":"cebpf4jnsgd1na2vs0mg"},{"bike_id":"e70dca12-eb09-4c18-8bc9-1d9f64763361","system_id":"levelo_inurba_marseille","lat":43.31121,"lon":5.37772,"is_reserved":false,"is_disabled":false,"rental_uris":{"android":"levelo://app?vid=e70dca12-eb09-4c18-8bc9-1d9f64763361","ios":"levelo://app?vid=e70dca12-eb09-4c18-8bc9-1d9f64763361"},"vehicle_type_id":"4","last_reported":1730484731,"current_range_meters":32000,"station_id":"ce4bgt92rcd13ifvqcg0","pricing_plan_id":"cebpf4jnsgd1na2vs0mg"},{"bike_id":"307485a8-03c5-4576-ab62-b50dc46abcb2","system_id":"levelo_inurba_marseille","lat":43.246553,"lon":5.381694,"is_reserved":false,"is_disabled":false,"rental_uris":{"android":"levelo://app?vid=307485a8-03c5-4576-ab62-b50dc46abcb2","ios":"levelo://app?vid=307485a8-03c5-4576-ab62-b50dc46abcb2"},"vehicle_type_id":"4","last_reported":1730484731,"current_range_meters":0,"station_id":"ce4bhih2rcd13ifvqfr0","pricing_plan_id":"cebpf4jnsgd1na2vs0mg"},{"bike_id":"cb4600ac-b5c8-41d2-b897-c00aecaaae82","system_id":"levelo_inurba_marseille","lat":43.28357,"lon":5.38108,"is_reserved":false,"is_disabled":false,"rental_uris":{"android":"levelo://app?vid=cb4600ac-b5c8-41d2-b897-c00aecaaae82","ios":"levelo://app?vid=cb4600ac-b5c8-41d2-b897-c00aecaaae82"},"vehicle_type_id":"4","last_reported":1730484731,"current_range_meters":16400,"station_id":"ce4bh412rcd13ifvqdr0","pricing_plan_id":"cebpf4jnsgd1na2vs0mg"},{"bike_id":"ef6cd22d-620b-4690-bbfe-42ed1f9d398f","system_id":"levelo_inurba_marseille","lat":43.29417,"lon":5.38624,"is_reserved":false,"is_disabled":false,"rental_uris":{"android":"levelo://app?vid=ef6cd22d-620b-4690-bbfe-42ed1f9d398f","ios":"levelo://app?vid=ef6cd22d-620b-4690-bbfe-42ed1f9d398f"},"vehicle_type_id":"4","last_reported":1730484731,"current_range_meters":24400,"station_id":"ce4bh2h2rcd13ifvqdh0","pricing_plan_id":"cebpf4jnsgd1na2vs0mg"},{"bike_id":"96c0e514-1593-48ac-b3fa-52ff0cacac35","system_id":"levelo_inurba_marseille","lat":43.30241,"lon":5.40051,"is_reserved":false,"is_disabled":false,"rental_uris":{"android":"levelo://app?vid=96c0e514-1593-48ac-b3fa-52ff0cacac35","ios":"levelo://app?vid=96c0e514-1593-48ac-b3fa-52ff0cacac35"},"vehicle_type_id":"4","last_reported":1730484731,"current_range_meters":22800,"station_id":"ce4bgvh2rcd13ifvqcs0","pricing_plan_id":"cebpf4jnsgd1na2vs0mg"},{"bike_id":"6eebaa63-3150-485e-aa8f-063147b7db12","system_id":"levelo_inurba_marseille","lat":43.28348,"lon":5.38107,"is_reserved":false,"is_disabled":false,"rental_uris":{"android":"levelo://app?vid=6eebaa63-3150-485e-aa8f-063147b7db12","ios":"levelo://app?vid=6eebaa63-3150-485e-aa8f-063147b7db12"},"vehicle_type_id":"4","last_reported":1730484731,"current_range_meters":32800,"station_id":"ce4bh412rcd13ifvqdr0","pricing_plan_id":"cebpf4jnsgd1na2vs0mg"},{"bike_id":"47d8b02d-09d5-42ce-ae8f-5dc9b22fa0a3","system_id":"levelo_inurba_marseille","lat":43.27421,"lon":5.39411,"is_reserved":false,"is_disabled":false,"rental_uris":{"android":"levelo://app?vid=47d8b02d-09d5-42ce-ae8f-5dc9b22fa0a3","ios":"levelo://app?vid=47d8b02d-09d5-42ce-ae8f-5dc9b22fa0a3"},"vehicle_type_id":"4","last_reported":1730484731,"current_range_meters":34800,"station_id":"ce4bhdp2rcd13ifvqf20","pricing_plan_id":"cebpf4jnsgd1na2vs0mg"},{"bike_id":"178dd10a-770d-48af-924b-ec366d471771","system_id":"levelo_inurba_marseille","lat":43.28099,"lon":5.37835,"is_reserved":false,"is_disabled":false,"rental_uris":{"android":"levelo://app?vid=178dd10a-770d-48af-924b-ec366d471771","ios":"levelo://app?vid=178dd10a-770d-48af-924b-ec366d471771"},"vehicle_type_id":"4","last_reported":1730484731,"current_range_meters":26000,"station_id":"ce4bha12rcd13ifvqee0","pricing_plan_id":"cebpf4jnsgd1na2vs0mg"},{"bike_id":"be25dfc1-4897-4ca8-8488-ce42318fff93","system_id":"levelo_inurba_marseille","lat":43.29788,"lon":5.39351,"is_reserved":false,"is_disabled":false,"rental_uris":{"android":"levelo://app?vid=be25dfc1-4897-4ca8-8488-ce42318fff93","ios":"levelo://app?vid=be25dfc1-4897-4ca8-8488-ce42318fff93"},"vehicle_type_id":"4","last_reported":1730484731,"current_range_meters":3600,"station_id":"chh1huq6cuj3fo74tm60","pricing_plan_id":"cebpf4jnsgd1na2vs0mg"},{"bike_id":"5c0fd539-082d-46b1-b843-7977c938338a","system_id":"levelo_inurba_marseille","lat":43.295258,"lon":5.38629,"is_reserved":false,"is_disabled":false,"rental_uris":{"android":"levelo://app?vid=5c0fd539-082d-46b1-b843-7977c938338a","ios":"levelo://app?vid=5c0fd539-082d-46b1-b843-7977c938338a"},"vehicle_type_id":"4","last_reported":1730484731,"current_range_meters":18000,"station_id":"","pricing_plan_id":"cebpf4jnsgd1na2vs0mg"},{"bike_id":"71097616-42fd-4e6c-b266-c892c04e5c35","system_id":"levelo_inurba_marseille","lat":43.28652,"lon":5.36353,"is_reserved":false,"is_disabled":false,"rental_uris":{"android":"levelo://app?vid=71097616-42fd-4e6c-b266-c892c04e5c35","ios":"levelo://app?vid=71097616-42fd-4e6c-b266-c892c04e5c35"},"vehicle_type_id":"4","last_reported":1730484731,"current_range_meters":39200,"station_id":"ce4bhah2rcd13ifvqej0","pricing_plan_id":"cebpf4jnsgd1na2vs0mg"},{"bike_id":"aedd613a-3e0e-48bc-bcce-01db4dfff1e5","system_id":"levelo_inurba_marseille","lat":43.27066,"lon":5.42283,"is_reserved":false,"is_disabled":false,"rental_uris":{"android":"levelo://app?vid=aedd613a-3e0e-48bc-bcce-01db4dfff1e5","ios":"levelo://app?vid=aedd613a-3e0e-48bc-bcce-01db4dfff1e5"},"vehicle_type_id":"4","last_reported":1730484731,"current_range_meters":28400,"station_id":"ce4bhk92rcd13ifvqgb0","pricing_plan_id":"cebpf4jnsgd1na2vs0mg"},{"bike_id":"ac383205-65b8-4368-a830-f2afdd379e05","system_id":"levelo_inurba_marseille","lat":43.28487,"lon":5.38418,"is_reserved":false,"is_disabled":false,"rental_uris":{"android":"levelo://app?vid=ac383205-65b8-4368-a830-f2afdd379e05","ios":"levelo://app?vid=ac383205-65b8-4368-a830-f2afdd379e05"},"vehicle_type_id":"4","last_reported":1730484731,"current_range_meters":8800,"station_id":"ce4bh512rcd13ifvqe3g","pricing_plan_id":"cebpf4jnsgd1na2vs0mg"},{"bike_id":"bd95dc30-8740-459a-925b-11d03e37dc4f","system_id":"levelo_inurba_marseille","lat":43.32263,"lon":5.38277,"is_reserved":false,"is_disabled":false,"rental_uris":{"android":"levelo://app?vid=bd95dc30-8740-459a-925b-11d03e37dc4f","ios":"levelo://app?vid=bd95dc30-8740-459a-925b-11d03e37dc4f"},"vehicle_type_id":"4","last_reported":1730484731,"current_range_meters":36800,"station_id":"ce4bhr12rcd13ifvqhqg","pricing_plan_id":"cebpf4jnsgd1na2vs0mg"},{"bike_id":"0a29cf26-6c84-43c4-b23e-0cf20cc5163f","system_id":"levelo_inurba_marseille","lat":43.2903,"lon":5.38631,"is_reserved":false,"is_disabled":false,"rental_uris":{"android":"levelo://app?vid=0a29cf26-6c84-43c4-b23e-0cf20cc5163f","ios":"levelo://app?vid=0a29cf26-6c84-43c4-b23e-0cf20cc5163f"},"vehicle_type_id":"4","last_reported":1730484731,"current_range_meters":25600,"station_id":"ce4bh4p2rcd13ifvqe0g","pricing_plan_id":"cebpf4jnsgd1na2vs0mg"},{"bike_id":"42bc8a4f-9579-44a5-a38a-addbfdb0883e","system_id":"levelo_inurba_marseille","lat":43.23177,"lon":5.39987,"is_reserved":false,"is_disabled":false,"rental_uris":{"android":"levelo://app?vid=42bc8a4f-9579-44a5-a38a-addbfdb0883e","ios":"levelo://app?vid=42bc8a4f-9579-44a5-a38a-addbfdb0883e"},"vehicle_type_id":"4","last_reported":1730484731,"current_range_meters":30800,"station_id":"ce4bhn12rcd13ifvqgqg","pricing_plan_id":"cebpf4jnsgd1na2vs0mg"},{"bike_id":"2ebfd831-a157-437f-a2a8-6d7d3d2404cc","system_id":"levelo_inurba_marseille","lat":43.29259,"lon":5.38433,"is_reserved":false,"is_disabled":false,"rental_uris":{"android":"levelo://app?vid=2ebfd831-a157-437f-a2a8-6d7d3d2404cc","ios":"levelo://app?vid=2ebfd831-a157-437f-a2a8-6d7d3d2404cc"},"vehicle_type_id":"4","last_reported":1730484731,"current_range_meters":10000,"station_id":"ce4bh692rcd13ifvqea0","pricing_plan_id":"cebpf4jnsgd1na2vs0mg"},{"bike_id":"a6ee4ad3-0084-4a36-a312-d05d4de765fd","system_id":"levelo_inurba_marseille","lat":43.27967,"lon":5.38729,"is_reserved":false,"is_disabled":false,"rental_uris":{"android":"levelo://app?vid=a6ee4ad3-0084-4a36-a312-d05d4de765fd","ios":"levelo://app?vid=a6ee4ad3-0084-4a36-a312-d05d4de765fd"},"vehicle_type_id":"4","last_reported":1730484731,"current_range_meters":36800,"station_id":"ce4bhg12rcd13ifvqf80","pricing_plan_id":"cebpf4jnsgd1na2vs0mg"},{"bike_id":"eee8a414-dd6b-4a5d-ad2f-dbf9052c4775","system_id":"levelo_inurba_marseille","lat":43.29914,"lon":5.37477,"is_reserved":false,"is_disabled":false,"rental_uris":{"android":"levelo://app?vid=eee8a414-dd6b-4a5d-ad2f-dbf9052c4775","ios":"levelo://app?vid=eee8a414-dd6b-4a5d-ad2f-dbf9052c4775"},"vehicle_type_id":"4","last_reported":1730484731,"current_range_meters":4800,"station_id":"ce4bgjh2rcd13ifvqbg0","pricing_plan_id":"cebpf4jnsgd1na2vs0mg"},{"bike_id":"c829c6f7-7cee-48d3-b0a1-e99d8675b3b5","system_id":"levelo_inurba_marseille","lat":43.298,"lon":5.38086,"is_reserved":false,"is_disabled":false,"rental_uris":{"android":"levelo://app?vid=c829c6f7-7cee-48d3-b0a1-e99d8675b3b5","ios":"levelo://app?vid=c829c6f7-7cee-48d3-b0a1-e99d8675b3b5"},"vehicle_type_id":"4","last_reported":1730484731,"current_range_meters":18800,"station_id":"ce4bgip2rcd13ifvqbb0","pricing_plan_id":"cebpf4jnsgd1na2vs0mg"},{"bike_id":"cb5ea47a-3798-4077-b904-e0e749807094","system_id":"levelo_inurba_marseille","lat":43.30517,"lon":5.38072,"is_reserved":false,"is_disabled":false,"rental_uris":{"android":"levelo://app?vid=cb5ea47a-3798-4077-b904-e0e749807094","ios":"levelo://app?vid=cb5ea47a-3798-4077-b904-e0e749807094"},"vehicle_type_id":"4","last_reported":1730484731,"current_range_meters":18000,"station_id":"","pricing_plan_id":"cebpf4jnsgd1na2vs0mg"},{"bike_id":"1df1abc2-7026-447b-8038-e9719616b4ae","system_id":"levelo_inurba_marseille","lat":43.27497,"lon":5.4245,"is_reserved":false,"is_disabled":false,"rental_uris":{"android":"levelo://app?vid=1df1abc2-7026-447b-8038-e9719616b4ae","ios":"levelo://app?vid=1df1abc2-7026-447b-8038-e9719616b4ae"},"vehicle_type_id":"4","last_reported":1730484731,"current_range_meters":22800,"station_id":"ce4bhn92rcd13ifvqgrg","pricing_plan_id":"cebpf4jnsgd1na2vs0mg"},{"bike_id":"ad092866-3ea0-416b-8831-c867ec16cab7","system_id":"levelo_inurba_marseille","lat":43.3197,"lon":5.38267,"is_reserved":false,"is_disabled":false,"rental_uris":{"android":"levelo://app?vid=ad092866-3ea0-416b-8831-c867ec16cab7","ios":"levelo://app?vid=ad092866-3ea0-416b-8831-c867ec16cab7"},"vehicle_type_id":"4","last_reported":1730484731,"current_range_meters":36400,"station_id":"","pricing_plan_id":"cebpf4jnsgd1na2vs0mg"},{"bike_id":"73fae46a-d86f-48a5-af38-118d2c23c38f","system_id":"levelo_inurba_marseille","lat":43.30308,"lon":5.36892,"is_reserved":false,"is_disabled":false,"rental_uris":{"android":"levelo://app?vid=73fae46a-d86f-48a5-af38-118d2c23c38f","ios":"levelo://app?vid=73fae46a-d86f-48a5-af38-118d2c23c38f"},"vehicle_type_id":"4","last_reported":1730484731,"current_range_meters":17200,"station_id":"ce4bgqh2rcd13ifvqc5g","pricing_plan_id":"cebpf4jnsgd1na2vs0mg"},{"bike_id":"c9b11084-fd02-4686-8786-67ca5744df2f","system_id":"levelo_inurba_marseille","lat":43.29032,"lon":5.37565,"is_reserved":false,"is_disabled":false,"rental_uris":{"android":"levelo://app?vid=c9b11084-fd02-4686-8786-67ca5744df2f","ios":"levelo://app?vid=c9b11084-fd02-4686-8786-67ca5744df2f"},"vehicle_type_id":"4","last_reported":1730484731,"current_range_meters":12000,"station_id":"ce4bh692rcd13ifvqe90","pricing_plan_id":"cebpf4jnsgd1na2vs0mg"},{"bike_id":"98bb79ad-ac02-4255-b14e-ec478eac22e9","system_id":"levelo_inurba_marseille","lat":43.23968,"lon":5.36623,"is_reserved":false,"is_disabled":false,"rental_uris":{"android":"levelo://app?vid=98bb79ad-ac02-4255-b14e-ec478eac22e9","ios":"levelo://app?vid=98bb79ad-ac02-4255-b14e-ec478eac22e9"},"vehicle_type_id":"4","last_reported":1730484731,"current_range_meters":36800,"station_id":"ce4bhi12rcd13ifvqfp0","pricing_plan_id":"cebpf4jnsgd1na2vs0mg"},{"bike_id":"8d654401-0e6a-4d79-82da-83f8b1a52f2c","system_id":"levelo_inurba_marseille","lat":43.31321,"lon":5.36667,"is_reserved":false,"is_disabled":false,"rental_uris":{"android":"levelo://app?vid=8d654401-0e6a-4d79-82da-83f8b1a52f2c","ios":"levelo://app?vid=8d654401-0e6a-4d79-82da-83f8b1a52f2c"},"vehicle_type_id":"4","last_reported":1730484731,"current_range_meters":4800,"station_id":"ce4bgr92rcd13ifvqc6g","pricing_plan_id":"cebpf4jnsgd1na2vs0mg"},{"bike_id":"dfec8711-bd44-4abc-922f-f6f3c788db9b","system_id":"levelo_inurba_marseille","lat":43.30758,"lon":5.40002,"is_reserved":false,"is_disabled":false,"rental_uris":{"android":"levelo://app?vid=dfec8711-bd44-4abc-922f-f6f3c788db9b","ios":"levelo://app?vid=dfec8711-bd44-4abc-922f-f6f3c788db9b"},"vehicle_type_id":"4","last_reported":1730484731,"current_range_meters":18000,"station_id":"ce4bhq92rcd13ifvqhjg","pricing_plan_id":"cebpf4jnsgd1na2vs0mg"},{"bike_id":"06d1198d-5c84-4366-9e7b-846554270000","system_id":"levelo_inurba_marseille","lat":43.29273,"lon":5.36849,"is_reserved":false,"is_disabled":false,"rental_uris":{"android":"levelo://app?vid=06d1198d-5c84-4366-9e7b-846554270000","ios":"levelo://app?vid=06d1198d-5c84-4366-9e7b-846554270000"},"vehicle_type_id":"4","last_reported":1730484731,"current_range_meters":29600,"station_id":"ce4bhbp2rcd13ifvqesg","pricing_plan_id":"cebpf4jnsgd1na2vs0mg"},{"bike_id":"628093c8-229b-483a-90ae-e71e75d30c06","system_id":"levelo_inurba_marseille","lat":43.246553,"lon":5.381694,"is_reserved":false,"is_disabled":false,"rental_uris":{"android":"levelo://app?vid=628093c8-229b-483a-90ae-e71e75d30c06","ios":"levelo://app?vid=628093c8-229b-483a-90ae-e71e75d30c06"},"vehicle_type_id":"4","last_reported":1730484731,"current_range_meters":24800,"station_id":"ce4bhih2rcd13ifvqfr0","pricing_plan_id":"cebpf4jnsgd1na2vs0mg"},{"bike_id":"3efcce18-423c-40fc-83f2-b795e0cd5d4f","system_id":"levelo_inurba_marseille","lat":43.29699,"lon":5.37674,"is_reserved":false,"is_disabled":false,"rental_uris":{"android":"levelo://app?vid=3efcce18-423c-40fc-83f2-b795e0cd5d4f","ios":"levelo://app?vid=3efcce18-423c-40fc-83f2-b795e0cd5d4f"},"vehicle_type_id":"4","last_reported":1730484731,"current_range_meters":38400,"station_id":"ce4bgkh2rcd13ifvqbl0","pricing_plan_id":"cebpf4jnsgd1na2vs0mg"},{"bike_id":"cb0a3c79-54fa-4556-8624-42e76d6c5de4","system_id":"levelo_inurba_marseille","lat":43.25718,"lon":5.41122,"is_reserved":false,"is_disabled":false,"rental_uris":{"android":"levelo://app?vid=cb0a3c79-54fa-4556-8624-42e76d6c5de4","ios":"levelo://app?vid=cb0a3c79-54fa-4556-8624-42e76d6c5de4"},"vehicle_type_id":"4","last_reported":1730484731,"current_range_meters":32800,"station_id":"ce4bhkp2rcd13ifvqgd0","pricing_plan_id":"cebpf4jnsgd1na2vs0mg"},{"bike_id":"d1e4ea99-4399-4e6c-8459-dccd746398f2","system_id":"levelo_inurba_marseille","lat":43.29561,"lon":5.3997,"is_reserved":false,"is_disabled":false,"rental_uris":{"android":"levelo://app?vid=d1e4ea99-4399-4e6c-8459-dccd746398f2","ios":"levelo://app?vid=d1e4ea99-4399-4e6c-8459-dccd746398f2"},"vehicle_type_id":"4","last_reported":1730484731,"current_range_meters":21600,"station_id":"ce4bh312rcd13ifvqdj0","pricing_plan_id":"cebpf4jnsgd1na2vs0mg"},{"bike_id":"6208a283-5c15-4979-8779-e7ea39a3a965","system_id":"levelo_inurba_marseille","lat":43.303,"lon":5.36879,"is_reserved":false,"is_disabled":false,"rental_uris":{"android":"levelo://app?vid=6208a283-5c15-4979-8779-e7ea39a3a965","ios":"levelo://app?vid=6208a283-5c15-4979-8779-e7ea39a3a965"},"vehicle_type_id":"4","last_reported":1730484731,"current_range_meters":10800,"station_id":"ce4bgqh2rcd13ifvqc5g","pricing_plan_id":"cebpf4jnsgd1na2vs0mg"},