{"last_updated":1743790409,"ttl":60,"version":"2.2","data":{"bikes":[{"bike_id":"17f05454-fe0c-4f79-ba2d-aa3c5eef62ba","system_id":"levelo_inurba_marseille","lat":43.299136,"lon":5.381455,"is_reserved":false,"is_disabled":false,"rental_uris":{"android":"levelo://app?vid=17f05454-fe0c-4f79-ba2d-aa3c5eef62ba","ios":"levelo://app?vid=17f05454-fe0c-4f79-ba2d-aa3c5eef62ba"},"vehicle_type_id":"4","last_reported":1743790409,"current_range_meters":0,"station_id":"ce4bgj12rcd13ifvqbc0","pricing_plan_id":"cebpf4jnsgd1na2vs0mg"},{"bike_id":"aa75a080-15ce-4630-a2f1-2c5c1fe2b7bb","system_id":"levelo_inurba_marseille","lat":43.28297,"lon":5.35079,"is_reserved":false,"is_disabled":true,"rental_uris":{"android":"levelo://app?vid=aa75a080-15ce-4630-a2f1-2c5c1fe2b7bb","ios":"levelo://app?vid=aa75a080-15ce-4630-a2f1-2c5c1fe2b7bb"},"vehicle_type_id":"4","last_reported":1743790409,"current_range_meters":2800,"station_id":"ce4bhbp2rcd13ifvqerg","pricing_plan_id":"cebpf4jnsgd1na2vs0mg"},{"bike_id":"6c42d693-582f-43fb-b3da-a1e4be63b9d7","system_id":"levelo_inurba_marseille","lat":43.29252,"lon":5.38436,"is_reserved":false,"is_disabled":false,"rental_uris":{"android":"levelo://app?vid=6c42d693-582f-43fb-b3da-a1e4be63b9d7","ios":"levelo://app?vid=6c42d693-582f-43fb-b3da-a1e4be63b9d7"},"vehicle_type_id":"4","last_reported":1743790409,"current_range_meters":2800,"station_id":"ce4bh692rcd13ifvqea0","pricing_plan_id":"cebpf4jnsgd1na2vs0mg"},{"bike_id":"b5a7532b-5c77-4c4d-bb1a-21933be57c57","system_id":"levelo_inurba_marseille","lat":43.31191,"lon":5.37883,"is_reserved":false,"is_disabled":false,"rental_uris":{"android":"levelo://app?vid=b5a7532b-5c77-4c4d-bb1a-21933be57c57","ios":"levelo://app?vid=b5a7532b-5c77-4c4d-bb1a-21933be57c57"},"vehicle_type_id":"4","last_reported":1743790409,"current_range_meters":2800,"station_id":"","pricing_plan_id":"cebpf4jnsgd1na2vs0mg"},{"bike_id":"9451a575-2190-41d5-b662-e0225a496446","system_id":"levelo_inurba_marseille","lat":43.23167,"lon":5.43712,"is_reserved":false,"is_disabled":false,"rental_uris":{"android":"levelo://app?vid=9451a575-2190-41d5-b662-e0225a496446","ios":"levelo://app?vid=9451a575-2190-41d5-b662-e0225a496446"},"vehicle_type_id":"4","last_reported":1743790409,"current_range_meters":3200,"station_id":"ce4bhmp2rcd13ifvqgog","pricing_plan_id":"cebpf4jnsgd1na2vs0mg"},{"bike_id":"d606062c-5fb7-4387-bc36-8ab002a93840","system_id":"levelo_inurba_marseille","lat":43.28875,"lon":5.35846,"is_reserved":false,"is_disabled":false,"rental_uris":{"android":"levelo://app?vid=d606062c-5fb7-4387-bc36-8ab002a93840","ios":"levelo://app?vid=d606062c-5fb7-4387-bc36-8ab002a93840"},"vehicle_type_id":"4","last_reported":1743790409,"current_range_meters":3200,"station_id":"ce4bhb12rcd13ifvqem0","pricing_plan_id":"cebpf4jnsgd1na2vs0mg"},{"bike_id":"45ce27ce-569d-4e9d-b478-5bcb37a4c185","system_id":"levelo_inurba_marseille","lat":43.30554,"lon":5.38439,"is_reserved":false,"is_disabled":false,"rental_uris":{"android":"levelo://app?vid=45ce27ce-569d-4e9d-b478-5bcb37a4c185","ios":"levelo://app?vid=45ce27ce-569d-4e9d-b478-5bcb37a4c185"},"vehicle_type_id":"4","last_reported":1743790409,"current_range_meters":3200,"station_id":"ce4bgg92rcd13ifvqb30","pricing_plan_id":"cebpf4jnsgd1na2vs0mg"},{"bike_id":"0bdb00ae-03b5-4f63-8f02-86f0fa81528b","system_id":"levelo_inurba_marseille","lat":43.28266,"lon":5.35073,"is_reserved":false,"is_disabled":false,"rental_uris":{"android":"levelo://app?vid=0bdb00ae-03b5-4f63-8f02-86f0fa81528b","ios":"levelo://app?vid=0bdb00ae-03b5-4f63-8f02-86f0fa81528b"},"vehicle_type_id":"4","last_reported":1743790409,"current_range_meters":3200,"station_id":"ce4bhbp2rcd13ifvqerg","pricing_plan_id":"cebpf4jnsgd1na2vs0mg"},{"bike_id":"085aeeac-6e3c-4e71-810f-dbe38406f9d3","system_id":"levelo_inurba_marseille","lat":43.27208,"lon":5.39181,"is_reserved":false,"is_disabled":false,"rental_uris":{"android":"levelo://app?vid=085aeeac-6e3c-4e71-810f-dbe38406f9d3","ios":"levelo://app?vid=085aeeac-6e3c-4e71-810f-dbe38406f9d3"},"vehicle_type_id":"4","last_reported":1743790409,"current_range_meters":3200,"station_id":"ce4bhhp2rcd13ifvqfm0","pricing_plan_id":"cebpf4jnsgd1na2vs0mg"},{"bike_id":"91227471-25b2-4219-a256-9fdb6f527d29","system_id":"levelo_inurba_marseille","lat":43.30803,"lon":5.435267,"is_reserved":false,"is_disabled":false,"rental_uris":{"android":"levelo://app?vid=91227471-25b2-4219-a256-9fdb6f527d29","ios":"levelo://app?vid=91227471-25b2-4219-a256-9fdb6f527d29"},"vehicle_type_id":"4","last_reported":1743790409,"current_range_meters":3600,"station_id":"ce4bhph2rcd13ifvqheg","pricing_plan_id":"cebpf4jnsgd1na2vs0mg"},{"bike_id":"f59763b4-0e95-4f11-9b2c-dda86065d84d","system_id":"levelo_inurba_marseille","lat":43.27319,"lon":5.391,"is_reserved":false,"is_disabled":false,"rental_uris":{"android":"levelo://app?vid=f59763b4-0e95-4f11-9b2c-dda86065d84d","ios":"levelo://app?vid=f59763b4-0e95-4f11-9b2c-dda86065d84d"},"vehicle_type_id":"4","last_reported":1743790409,"current_range_meters":3600,"station_id":"ce4bhgp2rcd13ifvqfe0","pricing_plan_id":"cebpf4jnsgd1na2vs0mg"},{"bike_id":"5cface0a-50e7-491f-9092-88d6249f88c5","system_id":"levelo_inurba_marseille","lat":43.26559,"lon":5.37294,"is_reserved":false,"is_disabled":false,"rental_uris":{"android":"levelo://app?vid=5cface0a-50e7-491f-9092-88d6249f88c5","ios":"levelo://app?vid=5cface0a-50e7-491f-9092-88d6249f88c5"},"vehicle_type_id":"4","last_reported":1743790409,"current_range_meters":4000,"station_id":"ce4bhg12rcd13ifvqf70","pricing_plan_id":"cebpf4jnsgd1na2vs0mg"},{"bike_id":"cd83c8ac-ed09-4369-9279-b6f36f2bbd3c","system_id":"levelo_inurba_marseille","lat":43.30819,"lon":5.3818,"is_reserved":false,"is_disabled":false,"rental_uris":{"android":"levelo://app?vid=cd83c8ac-ed09-4369-9279-b6f36f2bbd3c","ios":"levelo://app?vid=cd83c8ac-ed09-4369-9279-b6f36f2bbd3c"},"vehicle_type_id":"4","last_reported":1743790409,"current_range_meters":4000,"station_id":"ce4bgt12rcd13ifvqce0","pricing_plan_id":"cebpf4jnsgd1na2vs0mg"},{"bike_id":"8afe74a1-1709-4bd8-99c1-c8f06a815594","system_id":"levelo_inurba_marseille","lat":43.29298,"lon":5.37459,"is_reserved":false,"is_disabled":false,"rental_uris":{"android":"levelo://app?vid=8afe74a1-1709-4bd8-99c1-c8f06a815594","ios":"levelo://app?vid=8afe74a1-1709-4bd8-99c1-c8f06a815594"},"vehicle_type_id":"4","last_reported":1743790409,"current_range_meters":4000,"station_id":"ce4bgi12rcd13ifvqb70","pricing_plan_id":"cebpf4jnsgd1na2vs0mg"},{"bike_id":"3c450639-fc20-4de6-9293-f58ccd653b5d","system_id":"levelo_inurba_marseille","lat":43.279199,"lon":5.379994,"is_reserved":false,"is_disabled":false,"rental_uris":{"android":"levelo://app?vid=3c450639-fc20-4de6-9293-f58ccd653b5d","ios":"levelo://app?vid=3c450639-fc20-4de6-9293-f58ccd653b5d"},"vehicle_type_id":"4","last_reported":1743790409,"current_range_meters":3600,"station_id":"ce4bha12rcd13ifvqef0","pricing_plan_id":"cebpf4jnsgd1na2vs0mg"},{"bike_id":"010da739-2aa2-4f13-bc01-37ee668aae26","system_id":"levelo_inurba_marseille","lat":43.28165,"lon":5.42648,"is_reserved":false,"is_disabled":true,"rental_uris":{"android":"levelo://app?vid=010da739-2aa2-4f13-bc01-37ee668aae26","ios":"levelo://app?vid=010da739-2aa2-4f13-bc01-37ee668aae26"},"vehicle_type_id":"4","last_reported":1743790409,"current_range_meters":4000,"station_id":"ce4bhnh2rcd13ifvqgug","pricing_plan_id":"cebpf4jnsgd1na2vs0mg"},{"bike_id":"28122322-cfa0-44d1-8284-d34b791c8a5e","system_id":"levelo_inurba_marseille","lat":43.30732,"lon":5.42447,"is_reserved":false,"is_disabled":false,"rental_uris":{"android":"levelo://app?vid=28122322-cfa0-44d1-8284-d34b791c8a5e","ios":"levelo://app?vid=28122322-cfa0-44d1-8284-d34b791c8a5e"},"vehicle_type_id":"4","last_reported":1743790409,"current_range_meters":4000,"station_id":"st_cvj6ca6bvosntc0bfgr0","pricing_plan_id":"cebpf4jnsgd1na2vs0mg"},{"bike_id":"c093bf5e-9272-426b-bea2-5d7ab2349b51","system_id":"levelo_inurba_marseille","lat":43.29974,"lon":5.37188,"is_reserved":false,"is_disabled":false,"rental_uris":{"android":"levelo://app?vid=c093bf5e-9272-426b-bea2-5d7ab2349b51","ios":"levelo://app?vid=c093bf5e-9272-426b-bea2-5d7ab2349b51"},"vehicle_type_id":"4","last_reported":1743790409,"current_range_meters":4400,"station_id":"ce4bgr92rcd13ifvqc7g","pricing_plan_id":"cebpf4jnsgd1na2vs0mg"},{"bike_id":"7b09d510-5a62-477a-9f4a-40cceecd56b8","system_id":"levelo_inurba_marseille","lat":43.28862,"lon":5.3587,"is_reserved":false,"is_disabled":false,"rental_uris":{"android":"levelo://app?vid=7b09d510-5a62-477a-9f4a-40cceecd56b8","ios":"levelo://app?vid=7b09d510-5a62-477a-9f4a-40cceecd56b8"},"vehicle_type_id":"4","last_reported":1743790409,"current_range_meters":4400,"station_id":"ce4bhb12rcd13ifvqem0","pricing_plan_id":"cebpf4jnsgd1na2vs0mg"},{"bike_id":"21b64c49-5b67-4aa6-9633-cfbd7967f548","system_id":"levelo_inurba_marseille","lat":43.27315,"lon":5.39088,"is_reserved":false,"is_disabled":false,"rental_uris":{"android":"levelo://app?vid=21b64c49-5b67-4aa6-9633-cfbd7967f548","ios":"levelo://app?vid=21b64c49-5b67-4aa6-9633-cfbd7967f548"},"vehicle_type_id":"4","last_reported":1743790409,"current_range_meters":4400,"station_id":"ce4bhgp2rcd13ifvqfe0","pricing_plan_id":"cebpf4jnsgd1na2vs0mg"},{"bike_id":"d1226a5b-9d10-4a93-9c71-be28e8a66bce","system_id":"levelo_inurba_marseille","lat":43.29907,"lon":5.3814,"is_reserved":false,"is_disabled":false,"rental_uris":{"android":"levelo://app?vid=d1226a5b-9d10-4a93-9c71-be28e8a66bce","ios":"levelo://app?vid=d1226a5b-9d10-4a93-9c71-be28e8a66bce"},"vehicle_type_id":"4","last_reported":1743790409,"current_range_meters":4400,"station_id":"ce4bgj12rcd13ifvqbc0","pricing_plan_id":"cebpf4jnsgd1na2vs0mg"},{"bike_id":"7c9dc5fa-a96e-4673-8e2d-254e095f4784","system_id":"levelo_inurba_marseille","lat":43.31374,"lon":5.38496,"is_reserved":false,"is_disabled":false,"rental_uris":{"android":"levelo://app?vid=7c9dc5fa-a96e-4673-8e2d-254e095f4784","ios":"levelo://app?vid=7c9dc5fa-a96e-4673-8e2d-254e095f4784"},"vehicle_type_id":"4","last_reported":1743790409,"current_range_meters":4800,"station_id":"ce4bgt92rcd13ifvqcf0","pricing_plan_id":"cebpf4jnsgd1na2vs0mg"},{"bike_id":"d5548c5d-f0ef-4821-91bd-bad6139c9bec","system_id":"levelo_inurba_marseille","lat":43.29264,"lon":5.37633,"is_reserved":false,"is_disabled":false,"rental_uris":{"android":"levelo://app?vid=d5548c5d-f0ef-4821-91bd-bad6139c9bec","ios":"levelo://app?vid=d5548c5d-f0ef-4821-91bd-bad6139c9bec"},"vehicle_type_id":"4","last_reported":1743790409,"current_range_meters":4800,"station_id":"ce4bgi12rcd13ifvqb80","pricing_plan_id":"cebpf4jnsgd1na2vs0mg"},{"bike_id":"d3c4663c-1ed0-47bc-9c47-85d0c98da020","system_id":"levelo_inurba_marseille","lat":43.31692,"lon":5.40477,"is_reserved":false,"is_disabled":false,"rental_uris":{"android":"levelo://app?vid=d3c4663c-1ed0-47bc-9c47-85d0c98da020","ios":"levelo://app?vid=d3c4663c-1ed0-47bc-9c47-85d0c98da020"},"vehicle_type_id":"4","last_reported":1743790409,"current_range_meters":4800,"station_id":"ce4bh012rcd13ifvqd00","pricing_plan_id":"cebpf4jnsgd1na2vs0mg"},{"bike_id":"aee9f2ea-7ad7-48ed-810a-dd8edf5c98c0","system_id":"levelo_inurba_marseille","lat":43.29795,"lon":5.38112,"is_reserved":false,"is_disabled":false,"rental_uris":{"android":"levelo://app?vid=aee9f2ea-7ad7-48ed-810a-dd8edf5c98c0","ios":"levelo://app?vid=aee9f2ea-7ad7-48ed-810a-dd8edf5c98c0"},"vehicle_type_id":"4","last_reported":1743790409,"current_range_meters":4800,"station_id":"ce4bgip2rcd13ifvqbb0","pricing_plan_id":"cebpf4jnsgd1na2vs0mg"},{"bike_id":"384698f5-a5af-4151-9f87-a2267fb38939","system_id":"levelo_inurba_marseille","lat":43.3199,"lon":5.38149,"is_reserved":false,"is_disabled":false,"rental_uris":{"android":"levelo://app?vid=384698f5-a5af-4151-9f87-a2267fb38939","ios":"levelo://app?vid=384698f5-a5af-4151-9f87-a2267fb38939"},"vehicle_type_id":"4","last_reported":1743790409,"current_range_meters":4800,"station_id":"ce4bhr12rcd13ifvqhpg","pricing_plan_id":"cebpf4jnsgd1na2vs0mg"},{"bike_id":"2b6d2339-6fa0-424d-8430-79afc4778ef2","system_id":"levelo_inurba_marseille","lat":43.23156,"lon":5.43711,"is_reserved":false,"is_disabled":false,"rental_uris":{"android":"levelo://app?vid=2b6d2339-6fa0-424d-8430-79afc4778ef2","ios":"levelo://app?vid=2b6d2339-6fa0-424d-8430-79afc4778ef2"},"vehicle_type_id":"4","last_reported":1743790409,"current_range_meters":4800,"station_id":"ce4bhmp2rcd13ifvqgog","pricing_plan_id":"cebpf4jnsgd1na2vs0mg"},{"bike_id":"a47dc9aa-5064-452c-9734-e0f40f5fc239","system_id":"levelo_inurba_marseille","lat":43.291416,"lon":5.379396,"is_reserved":false,"is_disabled":false,"rental_uris":{"android":"levelo://app?vid=a47dc9aa-5064-452c-9734-e0f40f5fc239","ios":"levelo://app?vid=a47dc9aa-5064-452c-9734-e0f40f5fc239"},"vehicle_type_id":"4","last_reported":1743790409,"current_range_meters":6400,"station_id":"ce4bh9p2rcd13ifvqed0","pricing_plan_id":"cebpf4jnsgd1na2vs0mg"},{"bike_id":"df8f2f80-b2d8-45f4-97ee-7cb4feacaa74","system_id":"levelo_inurba_marseille","lat":43.25575,"lon":5.38226,"is_reserved":false,"is_disabled":false,"rental_uris":{"android":"levelo://app?vid=df8f2f80-b2d8-45f4-97ee-7cb4feacaa74","ios":"levelo://app?vid=df8f2f80-b2d8-45f4-97ee-7cb4feacaa74"},"vehicle_type_id":"4","last_reported":1743790409,"current_range_meters":5600,"station_id":"ce4bhih2rcd13ifvqfs0","pricing_plan_id":"cebpf4jnsgd1na2vs0mg"},{"bike_id":"33d000d3-31fe-4430-9fe9-c2ea66dabf55","system_id":"levelo_inurba_marseille","lat":43.289503,"lon":5.364076,"is_reserved":false,"is_disabled":false,"rental_uris":{"android":"levelo://app?vid=33d000d3-31fe-4430-9fe9-c2ea66dabf55","ios":"levelo://app?vid=33d000d3-31fe-4430-9fe9-c2ea66dabf55"},"vehicle_type_id":"4","last_reported":1743790409,"current_range_meters":5600,"station_id":"ce4bhc92rcd13ifvqetg","pricing_plan_id":"cebpf4jnsgd1na2vs0mg"},{"bike_id":"9b33541f-e853-4f9d-bbc2-c1f6b0a10edc","system_id":"levelo_inurba_marseille","lat":43.32107,"lon":5.36772,"is_reserved":false,"is_disabled":false,"rental_uris":{"android":"levelo://app?vid=9b33541f-e853-4f9d-bbc2-c1f6b0a10edc","ios":"levelo://app?vid=9b33541f-e853-4f9d-bbc2-c1f6b0a10edc"},"vehicle_type_id":"4","last_reported":1743790409,"current_range_meters":5600,"station_id":"","pricing_plan_id":"cebpf4jnsgd1na2vs0mg"},{"bike_id":"943c4935-26ee-4787-8ecd-715b613024f5","system_id":"levelo_inurba_marseille","lat":43.29041,"lon":5.38638,"is_reserved":false,"is_disabled":false,"rental_uris":{"android":"levelo://app?vid=943c4935-26ee-4787-8ecd-715b613024f5","ios":"levelo://app?vid=943c4935-26ee-4787-8ecd-715b613024f5"},"vehicle_type_id":"4","last_reported":1743790409,"current_range_meters":5600,"station_id":"ce4bh4p2rcd13ifvqe0g","pricing_plan_id":"cebpf4jnsgd1na2vs0mg"},{"bike_id":"a1f2b5ad-45ac-4048-b81e-226b07352f55","system_id":"levelo_inurba_marseille","lat":43.2994,"lon":5.36554,"is_reserved":false,"is_disabled":false,"rental_uris":{"android":"levelo://app?vid=a1f2b5ad-45ac-4048-b81e-226b07352f55","ios":"levelo://app?vid=a1f2b5ad-45ac-4048-b81e-226b07352f55"},"vehicle_type_id":"4","last_reported":1743790409,"current_range_meters":5600,"station_id":"ce4bgm92rcd13ifvqbr0","pricing_plan_id":"cebpf4jnsgd1na2vs0mg"},{"bike_id":"13caca3e-5399-4247-bf62-c3563cea6a48","system_id":"levelo_inurba_marseille","lat":43.29035,"lon":5.37569,"is_reserved":false,"is_disabled":false,"rental_uris":{"android":"levelo://app?vid=13caca3e-5399-4247-bf62-c3563cea6a48","ios":"levelo://app?vid=13caca3e-5399-4247-bf62-c3563cea6a48"},"vehicle_type_id":"4","last_reported":1743790409,"current_range_meters":5600,"station_id":"ce4bh692rcd13ifvqe90","pricing_plan_id":"cebpf4jnsgd1na2vs0mg"},{"bike_id":"c13336a2-47ce-488c-b5b6-77c01a3ac1d1","system_id":"levelo_inurba_marseille","lat":43.318964,"lon":5.407412,"is_reserved":false,"is_disabled":true,"rental_uris":{"android":"levelo://app?vid=c13336a2-47ce-488c-b5b6-77c01a3ac1d1","ios":"levelo://app?vid=c13336a2-47ce-488c-b5b6-77c01a3ac1d1"},"vehicle_type_id":"4","last_reported":1743790409,"current_range_meters":5600,"station_id":"ce4bhq12rcd13ifvqhig","pricing_plan_id":"cebpf4jnsgd1na2vs0mg"},{"bike_id":"7814a0d0-0200-46c6-be3c-56fadeee175c","system_id":"levelo_inurba_marseille","lat":43.28459,"lon":5.35876,"is_reserved":false,"is_disabled":false,"rental_uris":{"android":"levelo://app?vid=7814a0d0-0200-46c6-be3c-56fadeee175c","ios":"levelo://app?vid=7814a0d0-0200-46c6-be3c-56fadeee175c"},"vehicle_type_id":"4","last_reported":1743790409,"current_range_meters":6000,"station_id":"ce4bhah2rcd13ifvqei0","pricing_plan_id":"cebpf4jnsgd1na2vs0mg"},{"bike_id":"3828d0e2-10dd-41b8-b2bb-b6cc54199dd8","system_id":"levelo_inurba_marseille","lat":43.28154,"lon":5.42644,"is_reserved":false,"is_disabled":false,"rental_uris":{"android":"levelo://app?vid=3828d0e2-10dd-41b8-b2bb-b6cc54199dd8","ios":"levelo://app?vid=3828d0e2-10dd-41b8-b2bb-b6cc54199dd8"},"vehicle_type_id":"4","last_reported":1743790409,"current_range_meters":6000,"station_id":"ce4bhnh2rcd13ifvqgug","pricing_plan_id":"cebpf4jnsgd1na2vs0mg"},{"bike_id":"21dd5713-7393-4b23-ad03-5e4fdc16b205","system_id":"levelo_inurba_marseille","lat":43.24076,"lon":5.37765,"is_reserved":false,"is_disabled":false,"rental_uris":{"android":"levelo://app?vid=21dd5713-7393-4b23-ad03-5e4fdc16b205","ios":"levelo://app?vid=21dd5713-7393-4b23-ad03-5e4fdc16b205"},"vehicle_type_id":"4","last_reported":1743790409,"current_range_meters":6000,"station_id":"ce4bhnp2rcd13ifvqgvg","pricing_plan_id":"cebpf4jnsgd1na2vs0mg"},{"bike_id":"c0bcf618-04b3-4639-b069-e45bdb0bd655","system_id":"levelo_inurba_marseille","lat":43.29204,"lon":5.39327,"is_reserved":false,"is_disabled":false,"rental_uris":{"android":"levelo://app?vid=c0bcf618-04b3-4639-b069-e45bdb0bd655","ios":"levelo://app?vid=c0bcf618-04b3-4639-b069-e45bdb0bd655"},"vehicle_type_id":"4","last_reported":1743790409,"current_range_meters":5600,"station_id":"ce4bh192rcd13ifvqdd0","pricing_plan_id":"cebpf4jnsgd1na2vs0mg"},{"bike_id":"337af1ab-0704-4339-bfae-feecc7dad752","system_id":"levelo_inurba_marseille","lat":43.28426,"lon":5.34999,"is_reserved":false,"is_disabled":false,"rental_uris":{"android":"levelo://app?vid=337af1ab-0704-4339-bfae-feecc7dad752","ios":"levelo://app?vid=337af1ab-0704-4339-bfae-feecc7dad752"},"vehicle_type_id":"4","last_reported":1743790409,"current_range_meters":6400,"station_id":"ce4bhbh2rcd13ifvqepg","pricing_plan_id":"cebpf4jnsgd1na2vs0mg"},{"bike_id":"14662e24-a3a8-4eb9-a4fd-039d8e11f0df","system_id":"levelo_inurba_marseille","lat":43.29013,"lon":5.35617,"is_reserved":false,"is_disabled":false,"rental_uris":{"android":"levelo://app?vid=14662e24-a3a8-4eb9-a4fd-039d8e11f0df","ios":"levelo://app?vid=14662e24-a3a8-4eb9-a4fd-039d8e11f0df"},"vehicle_type_id":"4","last_reported":1743790409,"current_range_meters":6000,"station_id":"ce4bhb92rcd13ifvqen0","pricing_plan_id":"cebpf4jnsgd1na2vs0mg"},{"bike_id":"e3a29d38-a611-4b12-87ef-2fb8a21c41d5","system_id":"levelo_inurba_marseille","lat":43.2297,"lon":5.35432,"is_reserved":false,"is_disabled":false,"rental_uris":{"android":"levelo://app?vid=e3a29d38-a611-4b12-87ef-2fb8a21c41d5","ios":"levelo://app?vid=e3a29d38-a611-4b12-87ef-2fb8a21c41d5"},"vehicle_type_id":"4","last_reported":1743790409,"current_range_meters":6400,"station_id":"cpo3532slgdg3j2ikp40","pricing_plan_id":"cebpf4jnsgd1na2vs0mg"},{"bike_id":"efddeda7-6eb2-4c14-868d-fa0ce0b35ef3","system_id":"levelo_inurba_marseille","lat":43.31294,"lon":5.38279,"is_reserved":false,"is_disabled":false,"rental_uris":{"android":"levelo://app?vid=efddeda7-6eb2-4c14-868d-fa0ce0b35ef3","ios":"levelo://app?vid=efddeda7-6eb2-4c14-868d-fa0ce0b35ef3"},"vehicle_type_id":"4","last_reported":1743790409,"current_range_meters":6400,"station_id":"","pricing_plan_id":"cebpf4jnsgd1na2vs0mg"},{"bike_id":"158b1cb2-62c8-4c2f-b789-46f0a8c24fe4","system_id":"levelo_inurba_marseille","lat":43.2836,"lon":5.38098,"is_reserved":false,"is_disabled":false,"rental_uris":{"android":"levelo://app?vid=158b1cb2-62c8-4c2f-b789-46f0a8c24fe4","ios":"levelo://app?vid=158b1cb2-62c8-4c2f-b789-46f0a8c24fe4"},"vehicle_type_id":"4","last_reported":1743790409,"current_range_meters":6000,"station_id":"ce4bh412rcd13ifvqdr0","pricing_plan_id":"cebpf4jnsgd1na2vs0mg"},{"bike_id":"6c40547f-5dc0-48cf-8b1d-78c39207a78b","system_id":"levelo_inurba_marseille","lat":43.28156,"lon":5.42641,"is_reserved":false,"is_disabled":false,"rental_uris":{"android":"levelo://app?vid=6c40547f-5dc0-48cf-8b1d-78c39207a78b","ios":"levelo://app?vid=6c40547f-5dc0-48cf-8b1d-78c39207a78b"},"vehicle_type_id":"4","last_reported":1743790409,"current_range_meters":6400,"station_id":"ce4bhnh2rcd13ifvqgug","pricing_plan_id":"cebpf4jnsgd1na2vs0mg"},{"bike_id":"6356cdc5-d1ca-4103-a174-a9558dd259da","system_id":"levelo_inurba_marseille","lat":43.28718,"lon":5.36091,"is_reserved":false,"is_disabled":false,"rental_uris":{"android":"levelo://app?vid=6356cdc5-d1ca-4103-a174-a9558dd259da","ios":"levelo://app?vid=6356cdc5-d1ca-4103-a174-a9558dd259da"},"vehicle_type_id":"4","last_reported":1743790409,"current_range_meters":6400,"station_id":"cki0cbj6b192h4jlfktg","pricing_plan_id":"cebpf4jnsgd1na2vs0mg"},{"bike_id":"1c386ae7-b34b-4cc0-870f-daa144f1d5d3","system_id":"levelo_inurba_marseille","lat":43.320507,"lon":5.415436,"is_reserved":false,"is_disabled":false,"rental_uris":{"android":"levelo://app?vid=1c386ae7-b34b-4cc0-870f-daa144f1d5d3","ios":"levelo://app?vid=1c386ae7-b34b-4cc0-870f-daa144f1d5d3"},"vehicle_type_id":"4","last_reported":1743790409,"current_range_meters":6000,"station_id":"ce4bhq92rcd13ifvqhkg","pricing_plan_id":"cebpf4jnsgd1na2vs0mg"},{"bike_id":"715eff50-001a-413a-8e2d-3344911b1ca7","system_id":"levelo_inurba_marseille","lat":43.33331,"lon":5.39879,"is_reserved":false,"is_disabled":false,"rental_uris":{"android":"levelo://app?vid=715eff50-001a-413a-8e2d-3344911b1ca7","ios":"levelo://app?vid=715eff50-001a-413a-8e2d-3344911b1ca7"},"vehicle_type_id":"4","last_reported":1743790409,"current_range_meters":6400,"station_id":"","pricing_plan_id":"cebpf4jnsgd1na2vs0mg"},{"bike_id":"4c7ebdcc-718c-404e-a856-dd0d12b36448","system_id":"levelo_inurba_marseille","lat":43.29032,"lon":5.35614,"is_reserved":false,"is_disabled":false,"rental_uris":{"android":"levelo://app?vid=4c7ebdcc-718c-404e-a856-dd0d12b36448","ios":"levelo://app?vid=4c7ebdcc-718c-404e-a856-dd0d12b36448"},"vehicle_type_id":"4","last_reported":1743790409,"current_range_meters":6800,"station_id":"ce4bhb92rcd13ifvqen0","pricing_plan_id":"cebpf4jnsgd1na2vs0mg"},{"bike_id":"f4a62322-153b-48f9-8368-9183aeb9c107","system_id":"levelo_inurba_marseille","lat":43.290517,"lon":5.365271,"is_reserved":false,"is_disabled":false,"rental_uris":{"android":"levelo://app?vid=f4a62322-153b-48f9-8368-9183aeb9c107","ios":"levelo://app?vid=f4a62322-153b-48f9-8368-9183aeb9c107"},"vehicle_type_id":"4","last_reported":1743790409,"current_range_meters":6400,"station_id":"ce4bhc92rcd13ifvqetg","pricing_plan_id":"cebpf4jnsgd1na2vs0mg"},{"bike_id":"3c6709e5-6940-40f5-bd79-957c342920d9","system_id":"levelo_inurba_marseille","lat":43.26938,"lon":5.3891,"is_reserved":false,"is_disabled":false,"rental_uris":{"android":"levelo://app?vid=3c6709e5-6940-40f5-bd79-957c342920d9","ios":"levelo://app?vid=3c6709e5-6940-40f5-bd79-957c342920d9"},"vehicle_type_id":"4","last_reported":1743790409,"current_range_meters":6800,"station_id":"ce4bhhh2rcd13ifvqfl0","pricing_plan_id":"cebpf4jnsgd1na2vs0mg"},{"bike_id":"37e6ad12-e31e-462f-a1e3-a48aeba8866a","system_id":"levelo_inurba_marseille","lat":43.29787,"lon":5.38115,"is_reserved":false,"is_disabled":false,"rental_uris":{"android":"levelo://app?vid=37e6ad12-e31e-462f-a1e3-a48aeba8866a","ios":"levelo://app?vid=37e6ad12-e31e-462f-a1e3-a48aeba8866a"},"vehicle_type_id":"4","last_reported":1743790409,"current_range_meters":6800,"station_id":"ce4bgip2rcd13ifvqbb0","pricing_plan_id":"cebpf4jnsgd1na2vs0mg"},{"bike_id":"3f20750b-29f7-4952-a3c8-478c3d53be44","system_id":"levelo_inurba_marseille","lat":43.24078,"lon":5.37757,"is_reserved":false,"is_disabled":false,"rental_uris":{"android":"levelo://app?vid=3f20750b-29f7-4952-a3c8-478c3d53be44","ios":"levelo://app?vid=3f20750b-29f7-4952-a3c8-478c3d53be44"},"vehicle_type_id":"4","last_reported":1743790409,"current_range_meters":6400,"station_id":"ce4bhnp2rcd13ifvqgvg","pricing_plan_id":"cebpf4jnsgd1na2vs0mg"},{"bike_id":"ebe64349-70d8-4a01-bd24-6fbc2d87dd97","system_id":"levelo_inurba_marseille","lat":43.292015,"lon":5.357915,"is_reserved":false,"is_disabled":false,"rental_uris":{"android":"levelo://app?vid=ebe64349-70d8-4a01-bd24-6fbc2d87dd97","ios":"levelo://app?vid=ebe64349-70d8-4a01-bd24-6fbc2d87dd97"},"vehicle_type_id":"4","last_reported":1743790409,"current_range_meters":6800,"station_id":"ce4bhb12rcd13ifvqel0","pricing_plan_id":"cebpf4jnsgd1na2vs0mg"},{"bike_id":"491cd58d-f760-4174-9a59-9752b5ec32f9","system_id":"levelo_inurba_marseille","lat":43.29023,"lon":5.38541,"is_reserved":false,"is_disabled":false,"rental_uris":{"android":"levelo://app?vid=491cd58d-f760-4174-9a59-9752b5ec32f9","ios":"levelo://app?vid=491cd58d-f760-4174-9a59-9752b5ec32f9"},"vehicle_type_id":"4","last_reported":1743790409,"current_range_meters":6800,"station_id":"ce4bh4p2rcd13ifvqe0g","pricing_plan_id":"cebpf4jnsgd1na2vs0mg"},{"bike_id":"db081ceb-7e7c-4783-9a9a-28e51c62123c","system_id":"levelo_inurba_marseille","lat":43.30381,"lon":5.42485,"is_reserved":false,"is_disabled":false,"rental_uris":{"android":"levelo://app?vid=db081ceb-7e7c-4783-9a9a-28e51c62123c","ios":"levelo://app?vid=db081ceb-7e7c-4783-9a9a-28e51c62123c"},"vehicle_type_id":"4","last_reported":1743790409,"current_range_meters":6800,"station_id":"ce4bhoh2rcd13ifvqh6g","pricing_plan_id":"cebpf4jnsgd1na2vs0mg"},{"bike_id":"40b91145-684a-463c-8bea-8aa6f5931702","system_id":"levelo_inurba_marseille","lat":43.294159,"lon":5.386138,"is_reserved":false,"is_disabled":false,"rental_uris":{"android":"levelo://app?vid=40b91145-684a-463c-8bea-8aa6f5931702","ios":"levelo://app?vid=40b91145-684a-463c-8bea-8aa6f5931702"},"vehicle_type_id":"4","last_reported":1743790409,"current_range_meters":6800,"station_id":"ce4bh2h2rcd13ifvqdh0","pricing_plan_id":"cebpf4jnsgd1na2vs0mg"},{"bike_id":"87504117-eba9-48dc-8898-7b4b92727352","system_id":"levelo_inurba_marseille","lat":43.3041,"lon":5.41273,"is_reserved":false,"is_disabled":false,"rental_uris":{"android":"levelo://app?vid=87504117-eba9-48dc-8898-7b4b92727352","ios":"levelo://app?vid=87504117-eba9-48dc-8898-7b4b92727352"},"vehicle_type_id":"4","last_reported":1743790409,"current_range_meters":7200,"station_id":"ce4bhop2rcd13ifvqh8g","pricing_plan_id":"cebpf4jnsgd1na2vs0mg"},{"bike_id":"d046b439-98e0-4e6e-8fe0-7c0053028340","system_id":"levelo_inurba_marseille","lat":43.26799,"lon":5.40264,"is_reserved":false,"is_disabled":false,"rental_uris":{"android":"levelo://app?vid=d046b439-98e0-4e6e-8fe0-7c0053028340","ios":"levelo://app?vid=d046b439-98e0-4e6e-8fe0-7c0053028340"},"vehicle_type_id":"4","last_reported":1743790409,"current_range_meters":7200,"station_id":"ce501612rcd8frsf0b60","pricing_plan_id":"cebpf4jnsgd1na2vs0mg"},{"bike_id":"0e88f134-2423-4b08-bc3c-5f7a38937552","system_id":"levelo_inurba_marseille","lat":43.23193,"lon":5.39973,"is_reserved":false,"is_disabled":false,"rental_uris":{"android":"levelo://app?vid=0e88f134-2423-4b08-bc3c-5f7a38937552","ios":"levelo://app?vid=0e88f134-2423-4b08-bc3c-5f7a38937552"},"vehicle_type_id":"4","last_reported":1743790409,"current_range_meters":7200,"station_id":"ce4bhn12rcd13ifvqgqg","pricing_plan_id":"cebpf4jnsgd1na2vs0mg"},{"bike_id":"37000ff4-d53e-4a44-9c69-a80dbca70e68","system_id":"levelo_inurba_marseille","lat":43.28156,"lon":5.42642,"is_reserved":false,"is_disabled":false,"rental_uris":{"android":"levelo://app?vid=37000ff4-d53e-4a44-9c69-a80dbca70e68","ios":"levelo://app?vid=37000ff4-d53e-4a44-9c69-a80dbca70e68"},"vehicle_type_id":"4","last_reported":1743790409,"current_range_meters":7200,"station_id":"ce4bhnh2rcd13ifvqgug","pricing_plan_id":"cebpf4jnsgd1na2vs0mg"},{"bike_id":"7dc7f57b-ef8d-4720-8fe3-06462fcd1761","system_id":"levelo_inurba_marseille","lat":43.22948,"lon":5.35408,"is_reserved":false,"is_disabled":false,"rental_uris":{"android":"levelo://app?vid=7dc7f57b-ef8d-4720-8fe3-06462fcd1761","ios":"levelo://app?vid=7dc7f57b-ef8d-4720-8fe3-06462fcd1761"},"vehicle_type_id":"4","last_reported":1743790409,"current_range_meters":7200,"station_id":"cpo3532slgdg3j2ikp40","pricing_plan_id":"cebpf4jnsgd1na2vs0mg"},{"bike_id":"c55a0c46-58c0-4499-b21b-ecc280024e5d","system_id":"levelo_inurba_marseille","lat":43.241705,"lon":5.364127,"is_reserved":false,"is_disabled":false,"rental_uris":{"android":"levelo://app?vid=c55a0c46-58c0-4499-b21b-ecc280024e5d","ios":"levelo://app?vid=c55a0c46-58c0-4499-b21b-ecc280024e5d"},"vehicle_type_id":"4","last_reported":1743790409,"current_range_meters":7200,"station_id":"cpo36qri1sfpv3e86is0","pricing_plan_id":"cebpf4jnsgd1na2vs0mg"},{"bike_id":"1803b0ca-bad1-4dd5-aa36-17113f89440f","system_id":"levelo_inurba_marseille","lat":43.308894,"lon":5.396519,"is_reserved":false,"is_disabled":false,"rental_uris":{"android":"levelo://app?vid=1803b0ca-bad1-4dd5-aa36-17113f89440f","ios":"levelo://app?vid=1803b0ca-bad1-4dd5-aa36-17113f89440f"},"vehicle_type_id":"4","last_reported":1743790409,"current_range_meters":7200,"station_id":"ce4bgqh2rcd13ifvqc4g","pricing_plan_id":"cebpf4jnsgd1na2vs0mg"},{"bike_id":"d76832c4-3604-4de9-b7a5-182f7c6e995c","system_id":"levelo_inurba_marseille","lat":43.31391,"lon":5.38527,"is_reserved":false,"is_disabled":true,"rental_uris":{"android":"levelo://app?vid=d76832c4-3604-4de9-b7a5-182f7c6e995c","ios":"levelo://app?vid=d76832c4-3604-4de9-b7a5-182f7c6e995c"},"vehicle_type_id":"4","last_reported":1743790409,"current_range_meters":7200,"station_id":"","pricing_plan_id":"cebpf4jnsgd1na2vs0mg"},{"bike_id":"efc9ea2c-1f58-40b7-816b-87ac4becd308","system_id":"levelo_inurba_marseille","lat":43.28851,"lon":5.35852,"is_reserved":false,"is_disabled":false,"rental_uris":{"android":"levelo://app?vid=efc9ea2c-1f58-40b7-816b-87ac4becd308","ios":"levelo://app?vid=efc9ea2c-1f58-40b7-816b-87ac4becd308"},"vehicle_type_id":"4","last_reported":1743790409,"current_range_meters":7200,"station_id":"ce4bhb12rcd13ifvqem0","pricing_plan_id":"cebpf4jnsgd1na2vs0mg"},{"bike_id":"01cc16d5-1393-4176-aa5e-28c64ab3d770","system_id":"levelo_inurba_marseille","lat":43.29257,"lon":5.38438,"is_reserved":false,"is_disabled":false,"rental_uris":{"android":"levelo://app?vid=01cc16d5-1393-4176-aa5e-28c64ab3d770","ios":"levelo://app?vid=01cc16d5-1393-4176-aa5e-28c64ab3d770"},"vehicle_type_id":"4","last_reported":1743790409,"current_range_meters":7200,"station_id":"ce4bh692rcd13ifvqea0","pricing_plan_id":"cebpf4jnsgd1na2vs0mg"},{"bike_id":"0e2409c3-9dd4-4e84-818d-c492ae4f1d03","system_id":"levelo_inurba_marseille","lat":43.25582,"lon":5.38242,"is_reserved":false,"is_disabled":false,"rental_uris":{"android":"levelo://app?vid=0e2409c3-9dd4-4e84-818d-c492ae4f1d03","ios":"levelo://app?vid=0e2409c3-9dd4-4e84-818d-c492ae4f1d03"},"vehicle_type_id":"4","last_reported":1743790409,"current_range_meters":7200,"station_id":"ce4bhih2rcd13ifvqfs0","pricing_plan_id":"cebpf4jnsgd1na2vs0mg"},{"bike_id":"eccc109c-1b47-4172-8205-51114089adb5","system_id":"levelo_inurba_marseille","lat":43.27982,"lon":5.41666,"is_reserved":false,"is_disabled":false,"rental_uris":{"android":"levelo://app?vid=eccc109c-1b47-4172-8205-51114089adb5","ios":"levelo://app?vid=eccc109c-1b47-4172-8205-51114089adb5"},"vehicle_type_id":"4","last_reported":1743790409,"current_range_meters":7200,"station_id":"ce4bho12rcd13ifvqh1g","pricing_plan_id":"cebpf4jnsgd1na2vs0mg"},{"bike_id":"6e7e8bd0-971a-4bf5-a521-0d1053f36753","system_id":"levelo_inurba_marseille","lat":43.31091,"lon":5.42447,"is_reserved":false,"is_disabled":true,"rental_uris":{"android":"levelo://app?vid=6e7e8bd0-971a-4bf5-a521-0d1053f36753","ios":"levelo://app?vid=6e7e8bd0-971a-4bf5-a521-0d1053f36753"},"vehicle_type_id":"4","last_reported":1743790409,"current_range_meters":7200,"station_id":"ce4bhp92rcd13ifvqhag","pricing_plan_id":"cebpf4jnsgd1na2vs0mg"},{"bike_id":"8a10fca2-82f1-42f5-af65-4cfe92118937","system_id":"levelo_inurba_marseille","lat":43.31114,"lon":5.37777,"is_reserved":false,"is_disabled":false,"rental_uris":{"android":"levelo://app?vid=8a10fca2-82f1-42f5-af65-4cfe92118937","ios":"levelo://app?vid=8a10fca2-82f1-42f5-af65-4cfe92118937"},"vehicle_type_id":"4","last_reported":1743790409,"current_range_meters":7200,"station_id":"ce4bgt92rcd13ifvqcg0","pricing_plan_id":"cebpf4jnsgd1na2vs0mg"},{"bike_id":"40951c38-e4ee-4902-8fd3-4cd14bf105ff","system_id":"levelo_inurba_marseille","lat":43.29599,"lon":5.38108,"is_reserved":false,"is_disabled":false,"rental_uris":{"android":"levelo://app?vid=40951c38-e4ee-4902-8fd3-4cd14bf105ff","ios":"levelo://app?vid=40951c38-e4ee-4902-8fd3-4cd14bf105ff"},"vehicle_type_id":"4","last_reported":1743790409,"current_range_meters":8000,"station_id":"ce4bgl12rcd13ifvqbo0","pricing_plan_id":"cebpf4jnsgd1na2vs0mg"},{"bike_id":"54b0e3cd-498d-46c6-bfb7-66b4219805cd","system_id":"levelo_inurba_marseille","lat":43.31331,"lon":5.39694,"is_reserved":false,"is_disabled":false,"rental_uris":{"android":"levelo://app?vid=54b0e3cd-498d-46c6-bfb7-66b4219805cd","ios":"levelo://app?vid=54b0e3cd-498d-46c6-bfb7-66b4219805cd"},"vehicle_type_id":"4","last_reported":1743790409,"current_range_meters":8000,"station_id":"ce4bgvp2rcd13ifvqcu0","pricing_plan_id":"cebpf4jnsgd1na2vs0mg"},{"bike_id":"26a9400e-71cd-45c6-9211-9781e64f8fa6","system_id":"levelo_inurba_marseille","lat":43.28609,"lon":5.37066,"is_reserved":false,"is_disabled":false,"rental_uris":{"android":"levelo://app?vid=26a9400e-71cd-45c6-9211-9781e64f8fa6","ios":"levelo://app?vid=26a9400e-71cd-45c6-9211-9781e64f8fa6"},"vehicle_type_id":"4","last_reported":1743790409,"current_range_meters":8000,"station_id":"ce4bht12rcd13ifvqi60","pricing_plan_id":"cebpf4jnsgd1na2vs0mg"},{"bike_id":"1049ba71-fb41-4dc5-8c5a-67fbc6fe8421","system_id":"levelo_inurba_marseille","lat":43.2551,"lon":5.37666,"is_reserved":false,"is_disabled":true,"rental_uris":{"android":"levelo://app?vid=1049ba71-fb41-4dc5-8c5a-67fbc6fe8421","ios":"levelo://app?vid=1049ba71-fb41-4dc5-8c5a-67fbc6fe8421"},"vehicle_type_id":"4","last_reported":1743790409,"current_range_meters":8000,"station_id":"ce4bhh12rcd13ifvqff0","pricing_plan_id":"cebpf4jnsgd1na2vs0mg"},{"bike_id":"fd65bd0d-b7ce-4f5a-a73e-9657d5d75f8f","system_id":"levelo_inurba_marseille","lat":43.28995,"lon":5.35614,"is_reserved":false,"is_disabled":false,"rental_uris":{"android":"levelo://app?vid=fd65bd0d-b7ce-4f5a-a73e-9657d5d75f8f","ios":"levelo://app?vid=fd65bd0d-b7ce-4f5a-a73e-9657d5d75f8f"},"vehicle_type_id":"4","last_reported":1743790409,"current_range_meters":8000,"station_id":"ce4bhb92rcd13ifvqen0","pricing_plan_id":"cebpf4jnsgd1na2vs0mg"},{"bike_id":"229a4587-a3df-4a83-ac7c-2d538a878c52","system_id":"levelo_inurba_marseille","lat":43.32107,"lon":5.36781,"is_reserved":false,"is_disabled":false,"rental_uris":{"android":"levelo://app?vid=229a4587-a3df-4a83-ac7c-2d538a878c52","ios":"levelo://app?vid=229a4587-a3df-4a83-ac7c-2d538a878c52"},"vehicle_type_id":"4","last_reported":1743790409,"current_range_meters":8000,"station_id":"ce4bhrh2rcd13ifvqhug","pricing_plan_id":"cebpf4jnsgd1na2vs0mg"},{"bike_id":"b8340f15-f090-408d-9429-c777abc23d50","system_id":"levelo_inurba_marseille","lat":43.27318,"lon":5.39086,"is_reserved":false,"is_disabled":false,"rental_uris":{"android":"levelo://app?vid=b8340f15-f090-408d-9429-c777abc23d50","ios":"levelo://app?vid=b8340f15-f090-408d-9429-c777abc23d50"},"vehicle_type_id":"4","last_reported":1743790409,"current_range_meters":7200,"station_id":"ce4bhgp2rcd13ifvqfe0","pricing_plan_id":"cebpf4jnsgd1na2vs0mg"},{"bike_id":"836ef210-eb47-4c73-a7aa-3e815cf0e177","system_id":"levelo_inurba_marseille","lat":43.26065,"lon":5.39397,"is_reserved":false,"is_disabled":false,"rental_uris":{"android":"levelo://app?vid=836ef210-eb47-4c73-a7aa-3e815cf0e177","ios":"levelo://app?vid=836ef210-eb47-4c73-a7aa-3e815cf0e177"},"vehicle_type_id":"4","last_reported":1743790409,"current_range_meters":8000,"station_id":"ce4bhh92rcd13ifvqfj0","pricing_plan_id":"cebpf4jnsgd1na2vs0mg"},{"bike_id":"5f46717b-05d1-4f34-a220-8087932d755b","system_id":"levelo_inurba_marseille","lat":43.30125,"lon":5.36941,"is_reserved":false,"is_disabled":false,"rental_uris":{"android":"levelo://app?vid=5f46717b-05d1-4f34-a220-8087932d755b","ios":"levelo://app?vid=5f46717b-05d1-4f34-a220-8087932d755b"},"vehicle_type_id":"4","last_reported":1743790409,"current_range_meters":8000,"station_id":"","pricing_plan_id":"cebpf4jnsgd1na2vs0mg"},{"bike_id":"29a98844-b725-4c6a-a274-77ae67afb5fc","system_id":"levelo_inurba_marseille","lat":43.30908,"lon":5.36828,"is_reserved":false,"is_disabled":false,"rental_uris":{"android":"levelo://app?vid=29a98844-b725-4c6a-a274-77ae67afb5fc","ios":"levelo://app?vid=29a98844-b725-4c6a-a274-77ae67afb5fc"},"vehicle_type_id":"4","last_reported":1743790409,"current_range_meters":8000,"station_id":"ce4bgn92rcd13ifvqbvg","pricing_plan_id":"cebpf4jnsgd1na2vs0mg"},{"bike_id":"aec7620d-7b4d-45ae-9307-348c991636c5","system_id":"levelo_inurba_marseille","lat":43.27189,"lon":5.40995,"is_reserved":false,"is_disabled":false,"rental_uris":{"android":"levelo://app?vid=aec7620d-7b4d-45ae-9307-348c991636c5","ios":"levelo://app?vid=aec7620d-7b4d-45ae-9307-348c991636c5"},"vehicle_type_id":"4","last_reported":1743790409,"current_range_meters":8400,"station_id":"ce4bhl12rcd13ifvqgf0","pricing_plan_id":"cebpf4jnsgd1na2vs0mg"},{"bike_id":"0244810c-2a7a-4b98-895e-5d7ddf12ff9b","system_id":"levelo_inurba_marseille","lat":43.30293,"lon":5.39214,"is_reserved":false,"is_disabled":false,"rental_uris":{"android":"levelo://app?vid=0244810c-2a7a-4b98-895e-5d7ddf12ff9b","ios":"levelo://app?vid=0244810c-2a7a-4b98-895e-5d7ddf12ff9b"},"vehicle_type_id":"4","last_reported":1743790409,"current_range_meters":8400,"station_id":"ce4bgkh2rcd13ifvqbk0","pricing_plan_id":"cebpf4jnsgd1na2vs0mg"},{"bike_id":"ef006985-459a-4efa-8762-cdbb79b05f2a","system_id":"levelo_inurba_marseille","lat":43.2738,"lon":5.36257,"is_reserved":false,"is_disabled":false,"rental_uris":{"android":"levelo://app?vid=ef006985-459a-4efa-8762-cdbb79b05f2a","ios":"levelo://app?vid=ef006985-459a-4efa-8762-cdbb79b05f2a"},"vehicle_type_id":"4","last_reported":1743790409,"current_range_meters":8400,"station_id":"ce4bhbh2rcd13ifvqeo0","pricing_plan_id":"cebpf4jnsgd1na2vs0mg"},{"bike_id":"9ba6c7ff-ab47-443f-aba4-1299a9baa14b","system_id":"levelo_inurba_marseille","lat":43.293251,"lon":5.374363,"is_reserved":false,"is_disabled":false,"rental_uris":{"android":"levelo://app?vid=9ba6c7ff-ab47-443f-aba4-1299a9baa14b","ios":"levelo://app?vid=9ba6c7ff-ab47-443f-aba4-1299a9baa14b"},"vehicle_type_id":"4","last_reported":1743790409,"current_range_meters":8400,"station_id":"ce4bgi12rcd13ifvqb70","pricing_plan_id":"cebpf4jnsgd1na2vs0mg"},{"bike_id":"87914e98-04f3-4812-a988-56771a88e1fe","system_id":"levelo_inurba_marseille","lat":43.31696,"lon":5.40476,"is_reserved":false,"is_disabled":false,"rental_uris":{"android":"levelo://app?vid=87914e98-04f3-4812-a988-56771a88e1fe","ios":"levelo://app?vid=87914e98-04f3-4812-a988-56771a88e1fe"},"vehicle_type_id":"4","last_reported":1743790409,"current_range_meters":8400,"station_id":"ce4bh012rcd13ifvqd00","pricing_plan_id":"cebpf4jnsgd1na2vs0mg"},{"bike_id":"820c1965-ecb8-4574-8ddb-2df09330c1da","system_id":"levelo_inurba_marseille","lat":43.2706,"lon":5.39017,"is_reserved":false,"is_disabled":false,"rental_uris":{"android":"levelo://app?vid=820c1965-ecb8-4574-8ddb-2df09330c1da","ios":"levelo://app?vid=820c1965-ecb8-4574-8ddb-2df09330c1da"},"vehicle_type_id":"4","last_reported":1743790409,"current_range_meters":8400,"station_id":"","pricing_plan_id":"cebpf4jnsgd1na2vs0mg"},{"bike_id":"69c0db05-6ded-4dc6-9720-2452c83c1020","system_id":"levelo_inurba_marseille","lat":43.22946,"lon":5.35392,"is_reserved":false,"is_disabled":false,"rental_uris":{"android":"levelo://app?vid=69c0db05-6ded-4dc6-9720-2452c83c1020","ios":"levelo://app?vid=69c0db05-6ded-4dc6-9720-2452c83c1020"},"vehicle_type_id":"4","last_reported":1743790409,"current_range_meters":8400,"station_id":"cpo3532slgdg3j2ikp40","pricing_plan_id":"cebpf4jnsgd1na2vs0mg"},{"bike_id":"75718454-6f81-4e6b-89a3-d01df9afe6b6","system_id":"levelo_inurba_marseille","lat":43.27059,"lon":5.40265,"is_reserved":false,"is_disabled":false,"rental_uris":{"android":"levelo://app?vid=75718454-6f81-4e6b-89a3-d01df9afe6b6","ios":"levelo://app?vid=75718454-6f81-4e6b-89a3-d01df9afe6b6"},"vehicle_type_id":"4","last_reported":1743790409,"current_range_meters":8800,"station_id":"ce4bhk92rcd13ifvqgc0","pricing_plan_id":"cebpf4jnsgd1na2vs0mg"},{"bike_id":"36d996d1-147d-4367-84e7-9ff54765b37a","system_id":"levelo_inurba_marseille","lat":43.23201,"lon":5.35585,"is_reserved":false,"is_disabled":false,"rental_uris":{"android":"levelo://app?vid=36d996d1-147d-4367-84e7-9ff54765b37a","ios":"levelo://app?vid=36d996d1-147d-4367-84e7-9ff54765b37a"},"vehicle_type_id":"4","last_reported":1743790409,"current_range_meters":8800,"station_id":"ce4bhu92rcd13ifvqi70","pricing_plan_id":"cebpf4jnsgd1na2vs0mg"},{"bike_id":"87ca66c5-bfc3-4032-9d32-dbbe840a2d24","system_id":"levelo_inurba_marseille","lat":43.28615,"lon":5.35096,"is_reserved":false,"is_disabled":false,"rental_uris":{"android":"levelo://app?vid=87ca66c5-bfc3-4032-9d32-dbbe840a2d24","ios":"levelo://app?vid=87ca66c5-bfc3-4032-9d32-dbbe840a2d24"},"vehicle_type_id":"4","last_reported":1743790409,"current_range_meters":8800,"station_id":"ce4bhch2rcd13ifvqeug","pricing_plan_id":"cebpf4jnsgd1na2vs0mg"},{"bike_id":"6feafeb7-c9db-43eb-82da-b0a704970e0a","system_id":"levelo_inurba_marseille","lat":43.27814,"lon":5.40696,"is_reserved":false,"is_disabled":false,"rental_uris":{"android":"levelo://app?vid=6feafeb7-c9db-43eb-82da-b0a704970e0a","ios":"levelo://app?vid=6feafeb7-c9db-43eb-82da-b0a704970e0a"},"vehicle_type_id":"4","last_reported":1743790409,"current_range_meters":8800,"station_id":"ce4bhnh2rcd13ifvqgtg","pricing_plan_id":"cebpf4jnsgd1na2vs0mg"},{"bike_id":"8d438d14-66d3-4cd6-b833-44c6d80615f4","system_id":"levelo_inurba_marseille","lat":43.292836,"lon":5.401261,"is_reserved":false,"is_disabled":false,"rental_uris":{"android":"levelo://app?vid=8d438d14-66d3-4cd6-b833-44c6d80615f4","ios":"levelo://app?vid=8d438d14-66d3-4cd6-b833-44c6d80615f4"},"vehicle_type_id":"4","last_reported":1743790409,"current_range_meters":13600,"station_id":"ce4bh312rcd13ifvqdk0","pricing_plan_id":"cebpf4jnsgd1na2vs0mg"},{"bike_id":"b64666e5-d672-4e25-abbd-b941fa1d4057","system_id":"levelo_inurba_marseille","lat":43.30317,"lon":5.39224,"is_reserved":false,"is_disabled":false,"rental_uris":{"android":"levelo://app?vid=b64666e5-d672-4e25-abbd-b941fa1d4057","ios":"levelo://app?vid=b64666e5-d672-4e25-abbd-b941fa1d4057"},"vehicle_type_id":"4","last_reported":1743790409,"current_range_meters":8800,"station_id":"ce4bgkh2rcd13ifvqbk0","pricing_plan_id":"cebpf4jnsgd1na2vs0mg"},{"bike_id":"cdb7e4b1-8ea1-4a1d-91f3-73a8b3b493a5","system_id":"levelo_inurba_marseille","lat":43.31085,"lon":5.42439,"is_reserved":false,"is_disabled":false,"rental_uris":{"android":"levelo://app?vid=cdb7e4b1-8ea1-4a1d-91f3-73a8b3b493a5","ios":"levelo://app?vid=cdb7e4b1-8ea1-4a1d-91f3-73a8b3b493a5"},"vehicle_type_id":"4","last_reported":1743790409,"current_range_meters":8800,"station_id":"ce4bhp92rcd13ifvqhag","pricing_plan_id":"cebpf4jnsgd1na2vs0mg"},{"bike_id":"05505314-b2b7-49ba-b9b0-90b89e44ca61","system_id":"levelo_inurba_marseille","lat":43.29254,"lon":5.38451,"is_reserved":false,"is_disabled":false,"rental_uris":{"android":"levelo://app?vid=05505314-b2b7-49ba-b9b0-90b89e44ca61","ios":"levelo://app?vid=05505314-b2b7-49ba-b9b0-90b89e44ca61"},"vehicle_type_id":"4","last_reported":1743790409,"current_range_meters":9200,"station_id":"ce4bh692rcd13ifvqea0","pricing_plan_id":"cebpf4jnsgd1na2vs0mg"},{"bike_id":"21faa151-da4d-4ec3-ad6f-44fa6dfa0053","system_id":"levelo_inurba_marseille","lat":43.24073,"lon":5.37769,"is_reserved":false,"is_disabled":false,"rental_uris":{"android":"levelo://app?vid=21faa151-da4d-4ec3-ad6f-44fa6dfa0053","ios":"levelo://app?vid=21faa151-da4d-4ec3-ad6f-44fa6dfa0053"},"vehicle_type_id":"4","last_reported":1743790409,"current_range_meters":9200,"station_id":"ce4bhnp2rcd13ifvqgvg","pricing_plan_id":"cebpf4jnsgd1na2vs0mg"},{"bike_id":"e96084ca-be96-4a25-95a5-8534af60297e","system_id":"levelo_inurba_marseille","lat":43.29257,"lon":5.38448,"is_reserved":false,"is_disabled":false,"rental_uris":{"android":"levelo://app?vid=e96084ca-be96-4a25-95a5-8534af60297e","ios":"levelo://app?vid=e96084ca-be96-4a25-95a5-8534af60297e"},"vehicle_type_id":"4","last_reported":1743790409,"current_range_meters":9200,"station_id":"ce4bh692rcd13ifvqea0","pricing_plan_id":"cebpf4jnsgd1na2vs0mg"},{"bike_id":"bc99e5f5-06a4-4389-9982-e740c8cc7aaa","system_id":"levelo_inurba_marseille","lat":43.2927,"lon":5.38447,"is_reserved":false,"is_disabled":false,"rental_uris":{"android":"levelo://app?vid=bc99e5f5-06a4-4389-9982-e740c8cc7aaa","ios":"levelo://app?vid=bc99e5f5-06a4-4389-9982-e740c8cc7aaa"},"vehicle_type_id":"4","last_reported":1743790409,"current_range_meters":9200,"station_id":"ce4bh692rcd13ifvqea0","pricing_plan_id":"cebpf4jnsgd1na2vs0mg"},{"bike_id":"cf7ac1e4-8798-4d89-bff6-220c7572ffb0","system_id":"levelo_inurba_marseille","lat":43.30801,"lon":5.37655,"is_reserved":false,"is_disabled":false,"rental_uris":{"android":"levelo://app?vid=cf7ac1e4-8798-4d89-bff6-220c7572ffb0","ios":"levelo://app?vid=cf7ac1e4-8798-4d89-bff6-220c7572ffb0"},"vehicle_type_id":"4","last_reported":1743790409,"current_range_meters":9200,"station_id":"ce4bgv92rcd13ifvqcq0","pricing_plan_id":"cebpf4jnsgd1na2vs0mg"},{"bike_id":"dfcc407c-2648-41ad-9579-d4ce4a201249","system_id":"levelo_inurba_marseille","lat":43.31993,"lon":5.38167,"is_reserved":false,"is_disabled":false,"rental_uris":{"android":"levelo://app?vid=dfcc407c-2648-41ad-9579-d4ce4a201249","ios":"levelo://app?vid=dfcc407c-2648-41ad-9579-d4ce4a201249"},"vehicle_type_id":"4","last_reported":1743790409,"current_range_meters":9200,"station_id":"ce4bhr12rcd13ifvqhpg","pricing_plan_id":"cebpf4jnsgd1na2vs0mg"},{"bike_id":"758c2355-846a-4f3d-bcd8-eac4b3145cd6","system_id":"levelo_inurba_marseille","lat":43.231955,"lon":5.355541,"is_reserved":false,"is_disabled":false,"rental_uris":{"android":"levelo://app?vid=758c2355-846a-4f3d-bcd8-eac4b3145cd6","ios":"levelo://app?vid=758c2355-846a-4f3d-bcd8-eac4b3145cd6"},"vehicle_type_id":"4","last_reported":1743790409,"current_range_meters":9200,"station_id":"ce4bhu92rcd13ifvqi70","pricing_plan_id":"cebpf4jnsgd1na2vs0mg"},{"bike_id":"ed034283-1492-4da7-9409-35bdead80f30","system_id":"levelo_inurba_marseille","lat":43.30141,"lon":5.38801,"is_reserved":false,"is_disabled":true,"rental_uris":{"android":"levelo://app?vid=ed034283-1492-4da7-9409-35bdead80f30","ios":"levelo://app?vid=ed034283-1492-4da7-9409-35bdead80f30"},"vehicle_type_id":"4","last_reported":1743790409,"current_range_meters":9200,"station_id":"ce4bghh2rcd13ifvqb60","pricing_plan_id":"cebpf4jnsgd1na2vs0mg"},{"bike_id":"50297066-959d-45c5-a71e-b062cc3724ec","system_id":"levelo_inurba_marseille","lat":43.30915,"lon":5.37386,"is_reserved":false,"is_disabled":false,"rental_uris":{"android":"levelo://app?vid=50297066-959d-45c5-a71e-b062cc3724ec","ios":"levelo://app?vid=50297066-959d-45c5-a71e-b062cc3724ec"},"vehicle_type_id":"4","last_reported":1743790409,"current_range_meters":9200,"station_id":"","pricing_plan_id":"cebpf4jnsgd1na2vs0mg"},{"bike_id":"61b5a2a4-f0f4-4692-8709-a9a716578b90","system_id":"levelo_inurba_marseille","lat":43.288671,"lon":5.358369,"is_reserved":false,"is_disabled":false,"rental_uris":{"android":"levelo://app?vid=61b5a2a4-f0f4-4692-8709-a9a716578b90","ios":"levelo://app?vid=61b5a2a4-f0f4-4692-8709-a9a716578b90"},"vehicle_type_id":"4","last_reported":1743790409,"current_range_meters":9200,"station_id":"ce4bhb12rcd13ifvqem0","pricing_plan_id":"cebpf4jnsgd1na2vs0mg"},{"bike_id":"b3f21b40-86c9-42b2-93a4-f184ba4fdd4b","system_id":"levelo_inurba_marseille","lat":43.279394,"lon":5.387696,"is_reserved":false,"is_disabled":false,"rental_uris":{"android":"levelo://app?vid=b3f21b40-86c9-42b2-93a4-f184ba4fdd4b","ios":"levelo://app?vid=b3f21b40-86c9-42b2-93a4-f184ba4fdd4b"},"vehicle_type_id":"4","last_reported":1743790409,"current_range_meters":9200,"station_id":"ce4bhg12rcd13ifvqf80","pricing_plan_id":"cebpf4jnsgd1na2vs0mg"},{"bike_id":"fcf2a752-a4d3-4692-942a-03ffa7e56efe","system_id":"levelo_inurba_marseille","lat":43.28664,"lon":5.38655,"is_reserved":false,"is_disabled":false,"rental_uris":{"android":"levelo://app?vid=fcf2a752-a4d3-4692-942a-03ffa7e56efe","ios":"levelo://app?vid=fcf2a752-a4d3-4692-942a-03ffa7e56efe"},"vehicle_type_id":"4","last_reported":1743790409,"current_range_meters":9200,"station_id":"ce4bh492rcd13ifvqdug","pricing_plan_id":"cebpf4jnsgd1na2vs0mg"},{"bike_id":"74a13a18-430a-4f50-ba26-e7dfbad23482","system_id":"levelo_inurba_marseille","lat":43.230651,"lon":5.354926,"is_reserved":false,"is_disabled":false,"rental_uris":{"android":"levelo://app?vid=74a13a18-430a-4f50-ba26-e7dfbad23482","ios":"levelo://app?vid=74a13a18-430a-4f50-ba26-e7dfbad23482"},"vehicle_type_id":"4","last_reported":1743790409,"current_range_meters":9200,"station_id":"cpo3342slgdg3j2ifvpg","pricing_plan_id":"cebpf4jnsgd1na2vs0mg"},{"bike_id":"9cacf06c-547e-4680-9f29-2c8204246f1b","system_id":"levelo_inurba_marseille","lat":43.2894,"lon":5.36631,"is_reserved":false,"is_disabled":false,"rental_uris":{"android":"levelo://app?vid=9cacf06c-547e-4680-9f29-2c8204246f1b","ios":"levelo://app?vid=9cacf06c-547e-4680-9f29-2c8204246f1b"},"vehicle_type_id":"4","last_reported":1743790409,"current_range_meters":9200,"station_id":"ce4bhap2rcd13ifvqek0","pricing_plan_id":"cebpf4jnsgd1na2vs0mg"},{"bike_id":"2ba69920-a890-40bd-af20-0d1d415822a8","system_id":"levelo_inurba_marseille","lat":43.288424,"lon":5.384338,"is_reserved":false,"is_disabled":false,"rental_uris":{"android":"levelo://app?vid=2ba69920-a890-40bd-af20-0d1d415822a8","ios":"levelo://app?vid=2ba69920-a890-40bd-af20-0d1d415822a8"},"vehicle_type_id":"4","last_reported":1743790409,"current_range_meters":9200,"station_id":"ce4bgj92rcd13ifvqbd0","pricing_plan_id":"cebpf4jnsgd1na2vs0mg"},{"bike_id":"b060c06d-f254-492e-a5a5-1a7c71964e8e","system_id":"levelo_inurba_marseille","lat":43.3234,"lon":5.40617,"is_reserved":false,"is_disabled":false,"rental_uris":{"android":"levelo://app?vid=b060c06d-f254-492e-a5a5-1a7c71964e8e","ios":"levelo://app?vid=b060c06d-f254-492e-a5a5-1a7c71964e8e"},"vehicle_type_id":"4","last_reported":1743790409,"current_range_meters":9600,"station_id":"ce4bhq92rcd13ifvqhjg","pricing_plan_id":"cebpf4jnsgd1na2vs0mg"},{"bike_id":"d5a3cef5-472c-4e1e-8fc2-f818276798de","system_id":"levelo_inurba_marseille","lat":43.2558,"lon":5.38239,"is_reserved":false,"is_disabled":false,"rental_uris":{"android":"levelo://app?vid=d5a3cef5-472c-4e1e-8fc2-f818276798de","ios":"levelo://app?vid=d5a3cef5-472c-4e1e-8fc2-f818276798de"},"vehicle_type_id":"4","last_reported":1743790409,"current_range_meters":8800,"station_id":"ce4bhih2rcd13ifvqfs0","pricing_plan_id":"cebpf4jnsgd1na2vs0mg"},{"bike_id":"4a5c0ad3-6912-468e-aba9-9a9c961522c9","system_id":"levelo_inurba_marseille","lat":43.24077,"lon":5.37757,"is_reserved":false,"is_disabled":false,"rental_uris":{"android":"levelo://app?vid=4a5c0ad3-6912-468e-aba9-9a9c961522c9","ios":"levelo://app?vid=4a5c0ad3-6912-468e-aba9-9a9c961522c9"},"vehicle_type_id":"4","last_reported":1743790409,"current_range_meters":9200,"station_id":"ce4bhnp2rcd13ifvqgvg","pricing_plan_id":"cebpf4jnsgd1na2vs0mg"},{"bike_id":"0e25d205-69d4-4cd8-9999-c01e72852306","system_id":"levelo_inurba_marseille","lat":43.26814,"lon":5.40279,"is_reserved":false,"is_disabled":false,"rental_uris":{"android":"levelo://app?vid=0e25d205-69d4-4cd8-9999-c01e72852306","ios":"levelo://app?vid=0e25d205-69d4-4cd8-9999-c01e72852306"},"vehicle_type_id":"4","last_reported":1743790409,"current_range_meters":9600,"station_id":"ce501612rcd8frsf0b60","pricing_plan_id":"cebpf4jnsgd1na2vs0mg"},{"bike_id":"92e0cecd-95b2-4ee5-b7d7-77d61edf6008","system_id":"levelo_inurba_marseille","lat":43.29197,"lon":5.3581,"is_reserved":false,"is_disabled":false,"rental_uris":{"android":"levelo://app?vid=92e0cecd-95b2-4ee5-b7d7-77d61edf6008","ios":"levelo://app?vid=92e0cecd-95b2-4ee5-b7d7-77d61edf6008"},"vehicle_type_id":"4","last_reported":1743790409,"current_range_meters":9600,"station_id":"ce4bhb12rcd13ifvqel0","pricing_plan_id":"cebpf4jnsgd1na2vs0mg"},{"bike_id":"58d24f42-17aa-40a2-ac62-60f84e384385","system_id":"levelo_inurba_marseille","lat":43.24814,"lon":5.37476,"is_reserved":false,"is_disabled":false,"rental_uris":{"android":"levelo://app?vid=58d24f42-17aa-40a2-ac62-60f84e384385","ios":"levelo://app?vid=58d24f42-17aa-40a2-ac62-60f84e384385"},"vehicle_type_id":"4","last_reported":1743790409,"current_range_meters":9600,"station_id":"ce4bhgh2rcd13ifvqfb0","pricing_plan_id":"cebpf4jnsgd1na2vs0mg"},{"bike_id":"1f82dff0-171d-4721-8a64-b6334379fb4b","system_id":"levelo_inurba_marseille","lat":43.32336,"lon":5.40618,"is_reserved":false,"is_disabled":false,"rental_uris":{"android":"levelo://app?vid=1f82dff0-171d-4721-8a64-b6334379fb4b","ios":"levelo://app?vid=1f82dff0-171d-4721-8a64-b6334379fb4b"},"vehicle_type_id":"4","last_reported":1743790409,"current_range_meters":9600,"station_id":"ce4bhq92rcd13ifvqhjg","pricing_plan_id":"cebpf4jnsgd1na2vs0mg"},{"bike_id":"9b02f742-f038-4739-9c1b-418a3e5904eb","system_id":"levelo_inurba_marseille","lat":43.31359,"lon":5.366283,"is_reserved":false,"is_disabled":true,"rental_uris":{"android":"levelo://app?vid=9b02f742-f038-4739-9c1b-418a3e5904eb","ios":"levelo://app?vid=9b02f742-f038-4739-9c1b-418a3e5904eb"},"vehicle_type_id":"4","last_reported":1743790409,"current_range_meters":9600,"station_id":"","pricing_plan_id":"cebpf4jnsgd1na2vs0mg"},{"bike_id":"8b6d9248-9a5a-4eee-b808-a24ffb5b4d76","system_id":"levelo_inurba_marseille","lat":43.31211,"lon":5.36855,"is_reserved":false,"is_disabled":false,"rental_uris":{"android":"levelo://app?vid=8b6d9248-9a5a-4eee-b808-a24ffb5b4d76","ios":"levelo://app?vid=8b6d9248-9a5a-4eee-b808-a24ffb5b4d76"},"vehicle_type_id":"4","last_reported":1743790409,"current_range_meters":9200,"station_id":"ce4bgl92rcd13ifvqbq0","pricing_plan_id":"cebpf4jnsgd1na2vs0mg"},{"bike_id":"1251c226-7466-4a2d-adb1-16c2eab6cc32","system_id":"levelo_inurba_marseille","lat":43.30919,"lon":5.36849,"is_reserved":false,"is_disabled":false,"rental_uris":{"android":"levelo://app?vid=1251c226-7466-4a2d-adb1-16c2eab6cc32","ios":"levelo://app?vid=1251c226-7466-4a2d-adb1-16c2eab6cc32"},"vehicle_type_id":"4","last_reported":1743790409,"current_range_meters":9200,"station_id":"ce4bgn92rcd13ifvqbvg","pricing_plan_id":"cebpf4jnsgd1na2vs0mg"},{"bike_id":"8b5a92be-802d-4ad0-b149-37ee846631fe","system_id":"levelo_inurba_marseille","lat":43.27374,"lon":5.3626,"is_reserved":false,"is_disabled":false,"rental_uris":{"android":"levelo://app?vid=8b5a92be-802d-4ad0-b149-37ee846631fe","ios":"levelo://app?vid=8b5a92be-802d-4ad0-b149-37ee846631fe"},"vehicle_type_id":"4","last_reported":1743790409,"current_range_meters":9600,"station_id":"ce4bhbh2rcd13ifvqeo0","pricing_plan_id":"cebpf4jnsgd1na2vs0mg"},{"bike_id":"a3e064bd-1aaf-4d54-92eb-d8e44bad6ecc","system_id":"levelo_inurba_marseille","lat":43.299194,"lon":5.381452,"is_reserved":false,"is_disabled":false,"rental_uris":{"android":"levelo://app?vid=a3e064bd-1aaf-4d54-92eb-d8e44bad6ecc","ios":"levelo://app?vid=a3e064bd-1aaf-4d54-92eb-d8e44bad6ecc"},"vehicle_type_id":"4","last_reported":1743790409,"current_range_meters":9600,"station_id":"ce4bhch2rcd13ifvqeug","pricing_plan_id":"cebpf4jnsgd1na2vs0mg"},{"bike_id":"a926e3ac-6d26-4e31-8125-edb37151cc95","system_id":"levelo_inurba_marseille","lat":43.25006,"lon":5.38927,"is_reserved":false,"is_disabled":false,"rental_uris":{"android":"levelo://app?vid=a926e3ac-6d26-4e31-8125-edb37151cc95","ios":"levelo://app?vid=a926e3ac-6d26-4e31-8125-edb37151cc95"},"vehicle_type_id":"4","last_reported":1743790409,"current_range_meters":9600,"station_id":"ce4bhgp2rcd13ifvqfd0","pricing_plan_id":"cebpf4jnsgd1na2vs0mg"},{"bike_id":"60b1ae6c-a57f-4787-b274-70290cc4c095","system_id":"levelo_inurba_marseille","lat":43.30153,"lon":5.3742,"is_reserved":false,"is_disabled":false,"rental_uris":{"android":"levelo://app?vid=60b1ae6c-a57f-4787-b274-70290cc4c095","ios":"levelo://app?vid=60b1ae6c-a57f-4787-b274-70290cc4c095"},"vehicle_type_id":"4","last_reported":1743790409,"current_range_meters":9200,"station_id":"ce4bgs92rcd13ifvqcc0","pricing_plan_id":"cebpf4jnsgd1na2vs0mg"},{"bike_id":"3a673a01-13fc-4ed6-b9b1-08a0faf2fd75","system_id":"levelo_inurba_marseille","lat":43.23194,"lon":5.39968,"is_reserved":false,"is_disabled":false,"rental_uris":{"android":"levelo://app?vid=3a673a01-13fc-4ed6-b9b1-08a0faf2fd75","ios":"levelo://app?vid=3a673a01-13fc-4ed6-b9b1-08a0faf2fd75"},"vehicle_type_id":"4","last_reported":1743790409,"current_range_meters":9600,"station_id":"ce4bhn12rcd13ifvqgqg","pricing_plan_id":"cebpf4jnsgd1na2vs0mg"},{"bike_id":"fb348b09-6abb-47a4-a266-91f2eeaee291","system_id":"levelo_inurba_marseille","lat":43.32091,"lon":5.36769,"is_reserved":false,"is_disabled":false,"rental_uris":{"android":"levelo://app?vid=fb348b09-6abb-47a4-a266-91f2eeaee291","ios":"levelo://app?vid=fb348b09-6abb-47a4-a266-91f2eeaee291"},"vehicle_type_id":"4","last_reported":1743790409,"current_range_meters":10000,"station_id":"ce4bhrh2rcd13ifvqhug","pricing_plan_id":"cebpf4jnsgd1na2vs0mg"},{"bike_id":"2b9f6a1c-f91f-4d3f-a31a-99b26cb75bb3","system_id":"levelo_inurba_marseille","lat":43.22936,"lon":5.35375,"is_reserved":false,"is_disabled":false,"rental_uris":{"android":"levelo://app?vid=2b9f6a1c-f91f-4d3f-a31a-99b26cb75bb3","ios":"levelo://app?vid=2b9f6a1c-f91f-4d3f-a31a-99b26cb75bb3"},"vehicle_type_id":"4","last_reported":1743790409,"current_range_meters":11200,"station_id":"cpo3532slgdg3j2ikp40","pricing_plan_id":"cebpf4jnsgd1na2vs0mg"},{"bike_id":"32b3fe46-2673-42ef-b07c-a57bff3421b3","system_id":"levelo_inurba_marseille","lat":43.31338,"lon":5.39708,"is_reserved":false,"is_disabled":false,"rental_uris":{"android":"levelo://app?vid=32b3fe46-2673-42ef-b07c-a57bff3421b3","ios":"levelo://app?vid=32b3fe46-2673-42ef-b07c-a57bff3421b3"},"vehicle_type_id":"4","last_reported":1743790409,"current_range_meters":10000,"station_id":"ce4bgvp2rcd13ifvqcu0","pricing_plan_id":"cebpf4jnsgd1na2vs0mg"},{"bike_id":"00c37ec6-2e92-45d3-86f1-cfcc4d23d4b9","system_id":"levelo_inurba_marseille","lat":43.33036,"lon":5.38992,"is_reserved":false,"is_disabled":false,"rental_uris":{"android":"levelo://app?vid=00c37ec6-2e92-45d3-86f1-cfcc4d23d4b9","ios":"levelo://app?vid=00c37ec6-2e92-45d3-86f1-cfcc4d23d4b9"},"vehicle_type_id":"4","last_reported":1743790409,"current_range_meters":10000,"station_id":"ce4bhr92rcd13ifvqhrg","pricing_plan_id":"cebpf4jnsgd1na2vs0mg"},{"bike_id":"d1ec518c-cd7d-470e-99e0-1ad7bd66e7c5","system_id":"levelo_inurba_marseille","lat":43.29029,"lon":5.35648,"is_reserved":false,"is_disabled":false,"rental_uris":{"android":"levelo://app?vid=d1ec518c-cd7d-470e-99e0-1ad7bd66e7c5","ios":"levelo://app?vid=d1ec518c-cd7d-470e-99e0-1ad7bd66e7c5"},"vehicle_type_id":"4","last_reported":1743790409,"current_range_meters":10000,"station_id":"ce4bhb92rcd13ifvqen0","pricing_plan_id":"cebpf4jnsgd1na2vs0mg"},{"bike_id":"0a21aa20-0c21-4088-b21b-d881f94fe3dc","system_id":"levelo_inurba_marseille","lat":43.29227,"lon":5.36074,"is_reserved":false,"is_disabled":false,"rental_uris":{"android":"levelo://app?vid=0a21aa20-0c21-4088-b21b-d881f94fe3dc","ios":"levelo://app?vid=0a21aa20-0c21-4088-b21b-d881f94fe3dc"},"vehicle_type_id":"4","last_reported":1743790409,"current_range_meters":10000,"station_id":"ce4bhbh2rcd13ifvqeqg","pricing_plan_id":"cebpf4jnsgd1na2vs0mg"},{"bike_id":"d9623a09-0194-4d91-b0bf-2a9cead8c84d","system_id":"levelo_inurba_marseille","lat":43.29025,"lon":5.35633,"is_reserved":false,"is_disabled":false,"rental_uris":{"android":"levelo://app?vid=d9623a09-0194-4d91-b0bf-2a9cead8c84d","ios":"levelo://app?vid=d9623a09-0194-4d91-b0bf-2a9cead8c84d"},"vehicle_type_id":"4","last_reported":1743790409,"current_range_meters":10000,"station_id":"ce4bhb92rcd13ifvqen0","pricing_plan_id":"cebpf4jnsgd1na2vs0mg"},{"bike_id":"908c0033-ebf3-400a-acb3-0a621b83539f","system_id":"levelo_inurba_marseille","lat":43.23185,"lon":5.39976,"is_reserved":false,"is_disabled":false,"rental_uris":{"android":"levelo://app?vid=908c0033-ebf3-400a-acb3-0a621b83539f","ios":"levelo://app?vid=908c0033-ebf3-400a-acb3-0a621b83539f"},"vehicle_type_id":"4","last_reported":1743790409,"current_range_meters":10000,"station_id":"ce4bhn12rcd13ifvqgqg","pricing_plan_id":"cebpf4jnsgd1na2vs0mg"},{"bike_id":"d0338b06-6511-4cdf-9e81-f4aac2093dfc","system_id":"levelo_inurba_marseille","lat":43.30613,"lon":5.37239,"is_reserved":false,"is_disabled":false,"rental_uris":{"android":"levelo://app?vid=d0338b06-6511-4cdf-9e81-f4aac2093dfc","ios":"levelo://app?vid=d0338b06-6511-4cdf-9e81-f4aac2093dfc"},"vehicle_type_id":"4","last_reported":1743790409,"current_range_meters":9600,"station_id":"ce4bgqh2rcd13ifvqc4g","pricing_plan_id":"cebpf4jnsgd1na2vs0mg"},{"bike_id":"7c8eb8b7-521f-4652-a51d-2c8817b6bc2e","system_id":"levelo_inurba_marseille","lat":43.31712,"lon":5.43711,"is_reserved":false,"is_disabled":false,"rental_uris":{"android":"levelo://app?vid=7c8eb8b7-521f-4652-a51d-2c8817b6bc2e","ios":"levelo://app?vid=7c8eb8b7-521f-4652-a51d-2c8817b6bc2e"},"vehicle_type_id":"4","last_reported":1743790409,"current_range_meters":10000,"station_id":"ce4bhp92rcd13ifvqhcg","pricing_plan_id":"cebpf4jnsgd1na2vs0mg"},{"bike_id":"cc019844-4292-4830-a99e-3c9a719e6306","system_id":"levelo_inurba_marseille","lat":43.29227,"lon":5.36057,"is_reserved":false,"is_disabled":false,"rental_uris":{"android":"levelo://app?vid=cc019844-4292-4830-a99e-3c9a719e6306","ios":"levelo://app?vid=cc019844-4292-4830-a99e-3c9a719e6306"},"vehicle_type_id":"4","last_reported":1743790409,"current_range_meters":10000,"station_id":"ce4bhbh2rcd13ifvqeqg","pricing_plan_id":"cebpf4jnsgd1na2vs0mg"},{"bike_id":"a3b67760-c34e-4f51-9798-e75c30e4b907","system_id":"levelo_inurba_marseille","lat":43.26928,"lon":5.38918,"is_reserved":false,"is_disabled":false,"rental_uris":{"android":"levelo://app?vid=a3b67760-c34e-4f51-9798-e75c30e4b907","ios":"levelo://app?vid=a3b67760-c34e-4f51-9798-e75c30e4b907"},"vehicle_type_id":"4","last_reported":1743790409,"current_range_meters":9600,"station_id":"ce4bhhh2rcd13ifvqfl0","pricing_plan_id":"cebpf4jnsgd1na2vs0mg"},{"bike_id":"d0aae37b-8c71-4ebe-bb22-7bc9174bb75d","system_id":"levelo_inurba_marseille","lat":43.28933,"lon":5.36636,"is_reserved":false,"is_disabled":false,"rental_uris":{"android":"levelo://app?vid=d0aae37b-8c71-4ebe-bb22-7bc9174bb75d","ios":"levelo://app?vid=d0aae37b-8c71-4ebe-bb22-7bc9174bb75d"},"vehicle_type_id":"4","last_reported":1743790409,"current_range_meters":10000,"station_id":"ce4bhap2rcd13ifvqek0","pricing_plan_id":"cebpf4jnsgd1na2vs0mg"},{"bike_id":"eea13127-61fc-4122-93d9-4e50617f1ae8","system_id":"levelo_inurba_marseille","lat":43.28855,"lon":5.35856,"is_reserved":false,"is_disabled":false,"rental_uris":{"android":"levelo://app?vid=eea13127-61fc-4122-93d9-4e50617f1ae8","ios":"levelo://app?vid=eea13127-61fc-4122-93d9-4e50617f1ae8"},"vehicle_type_id":"4","last_reported":1743790409,"current_range_meters":10000,"station_id":"ce4bhb12rcd13ifvqem0","pricing_plan_id":"cebpf4jnsgd1na2vs0mg"},{"bike_id":"db526bca-5447-4ac0-922d-45ecb017eb78","system_id":"levelo_inurba_marseille","lat":43.30803,"lon":5.4354,"is_reserved":false,"is_disabled":false,"rental_uris":{"android":"levelo://app?vid=db526bca-5447-4ac0-922d-45ecb017eb78","ios":"levelo://app?vid=db526bca-5447-4ac0-922d-45ecb017eb78"},"vehicle_type_id":"4","last_reported":1743790409,"current_range_meters":10000,"station_id":"ce4bhph2rcd13ifvqheg","pricing_plan_id":"cebpf4jnsgd1na2vs0mg"},{"bike_id":"ad707a01-b942-4cbb-8387-1610aa262357","system_id":"levelo_inurba_marseille","lat":43.2481,"lon":5.37456,"is_reserved":false,"is_disabled":false,"rental_uris":{"android":"levelo://app?vid=ad707a01-b942-4cbb-8387-1610aa262357","ios":"levelo://app?vid=ad707a01-b942-4cbb-8387-1610aa262357"},"vehicle_type_id":"4","last_reported":1743790409,"current_range_meters":10800,"station_id":"ce4bhgh2rcd13ifvqfb0","pricing_plan_id":"cebpf4jnsgd1na2vs0mg"},{"bike_id":"b1cb7cba-5dfd-4ecb-ab06-5dbd752283ea","system_id":"levelo_inurba_marseille","lat":43.24181,"lon":5.39726,"is_reserved":false,"is_disabled":false,"rental_uris":{"android":"levelo://app?vid=b1cb7cba-5dfd-4ecb-ab06-5dbd752283ea","ios":"levelo://app?vid=b1cb7cba-5dfd-4ecb-ab06-5dbd752283ea"},"vehicle_type_id":"4","last_reported":1743790409,"current_range_meters":10800,"station_id":"ce4bhn12rcd13ifvqgpg","pricing_plan_id":"cebpf4jnsgd1na2vs0mg"},{"bike_id":"ca920b35-f8d5-4a8e-a76c-22bf4b777080","system_id":"levelo_inurba_marseille","lat":43.3043,"lon":5.38889,"is_reserved":false,"is_disabled":false,"rental_uris":{"android":"levelo://app?vid=ca920b35-f8d5-4a8e-a76c-22bf4b777080","ios":"levelo://app?vid=ca920b35-f8d5-4a8e-a76c-22bf4b777080"},"vehicle_type_id":"4","last_reported":1743790409,"current_range_meters":10800,"station_id":"ce4bgk12rcd13ifvqbi0","pricing_plan_id":"cebpf4jnsgd1na2vs0mg"},{"bike_id":"92090c2b-f053-4261-b27d-6ca6be7a1ee1","system_id":"levelo_inurba_marseille","lat":43.29898,"lon":5.38146,"is_reserved":false,"is_disabled":false,"rental_uris":{"android":"levelo://app?vid=92090c2b-f053-4261-b27d-6ca6be7a1ee1","ios":"levelo://app?vid=92090c2b-f053-4261-b27d-6ca6be7a1ee1"},"vehicle_type_id":"4","last_reported":1743790409,"current_range_meters":10800,"station_id":"ce4bgj12rcd13ifvqbc0","pricing_plan_id":"cebpf4jnsgd1na2vs0mg"},{"bike_id":"b789b004-8419-4e4f-91df-b16344a40784","system_id":"levelo_inurba_marseille","lat":43.28615,"lon":5.35104,"is_reserved":false,"is_disabled":false,"rental_uris":{"android":"levelo://app?vid=b789b004-8419-4e4f-91df-b16344a40784","ios":"levelo://app?vid=b789b004-8419-4e4f-91df-b16344a40784"},"vehicle_type_id":"4","last_reported":1743790409,"current_range_meters":10800,"station_id":"ce4bhch2rcd13ifvqeug","pricing_plan_id":"cebpf4jnsgd1na2vs0mg"},{"bike_id":"406f7828-2fa1-40a1-b113-24045c4af58f","system_id":"levelo_inurba_marseille","lat":43.32051,"lon":5.41545,"is_reserved":false,"is_disabled":false,"rental_uris":{"android":"levelo://app?vid=406f7828-2fa1-40a1-b113-24045c4af58f","ios":"levelo://app?vid=406f7828-2fa1-40a1-b113-24045c4af58f"},"vehicle_type_id":"4","last_reported":1743790409,"current_range_meters":10800,"station_id":"ce4bhq92rcd13ifvqhkg","pricing_plan_id":"cebpf4jnsgd1na2vs0mg"},{"bike_id":"b3091190-24a0-43e2-8bea-f96ec2c8b5de","system_id":"levelo_inurba_marseille","lat":43.29259,"lon":5.37612,"is_reserved":false,"is_disabled":false,"rental_uris":{"android":"levelo://app?vid=b3091190-24a0-43e2-8bea-f96ec2c8b5de","ios":"levelo://app?vid=b3091190-24a0-43e2-8bea-f96ec2c8b5de"},"vehicle_type_id":"4","last_reported":1743790409,"current_range_meters":10800,"station_id":"ce4bgi12rcd13ifvqb80","pricing_plan_id":"cebpf4jnsgd1na2vs0mg"},{"bike_id":"10d1a2b2-6e90-4cff-aa60-397cfa13ad19","system_id":"levelo_inurba_marseille","lat":43.28044,"lon":5.36955,"is_reserved":false,"is_disabled":false,"rental_uris":{"android":"levelo://app?vid=10d1a2b2-6e90-4cff-aa60-397cfa13ad19","ios":"levelo://app?vid=10d1a2b2-6e90-4cff-aa60-397cfa13ad19"},"vehicle_type_id":"4","last_reported":1743790409,"current_range_meters":10800,"station_id":"ce4bha12rcd13ifvqef0","pricing_plan_id":"cebpf4jnsgd1na2vs0mg"},{"bike_id":"c91a6301-d46d-458e-a0a6-5762e813d6dd","system_id":"levelo_inurba_marseille","lat":43.29528,"lon":5.38548,"is_reserved":false,"is_disabled":true,"rental_uris":{"android":"levelo://app?vid=c91a6301-d46d-458e-a0a6-5762e813d6dd","ios":"levelo://app?vid=c91a6301-d46d-458e-a0a6-5762e813d6dd"},"vehicle_type_id":"4","last_reported":1743790409,"current_range_meters":11200,"station_id":"ce4bgih2rcd13ifvqba0","pricing_plan_id":"cebpf4jnsgd1na2vs0mg"},{"bike_id":"c9ab5bfd-fa91-4b45-8fa2-52813c43fa45","system_id":"levelo_inurba_marseille","lat":43.23091,"lon":5.35479,"is_reserved":false,"is_disabled":false,"rental_uris":{"android":"levelo://app?vid=c9ab5bfd-fa91-4b45-8fa2-52813c43fa45","ios":"levelo://app?vid=c9ab5bfd-fa91-4b45-8fa2-52813c43fa45"},"vehicle_type_id":"4","last_reported":1743790409,"current_range_meters":11200,"station_id":"cpo3342slgdg3j2ifvpg","pricing_plan_id":"cebpf4jnsgd1na2vs0mg"},{"bike_id":"812a78ee-1457-4eb3-a1b3-d6f73e25b94f","system_id":"levelo_inurba_marseille","lat":43.29302,"lon":5.37462,"is_reserved":false,"is_disabled":false,"rental_uris":{"android":"levelo://app?vid=812a78ee-1457-4eb3-a1b3-d6f73e25b94f","ios":"levelo://app?vid=812a78ee-1457-4eb3-a1b3-d6f73e25b94f"},"vehicle_type_id":"4","last_reported":1743790409,"current_range_meters":11200,"station_id":"ce4bgi12rcd13ifvqb70","pricing_plan_id":"cebpf4jnsgd1na2vs0mg"},{"bike_id":"5ffbc8f2-3573-4204-aaba-ba242b8b1586","system_id":"levelo_inurba_marseille","lat":43.28961,"lon":5.36646,"is_reserved":false,"is_disabled":false,"rental_uris":{"android":"levelo://app?vid=5ffbc8f2-3573-4204-aaba-ba242b8b1586","ios":"levelo://app?vid=5ffbc8f2-3573-4204-aaba-ba242b8b1586"},"vehicle_type_id":"4","last_reported":1743790409,"current_range_meters":11200,"station_id":"ce4bhap2rcd13ifvqek0","pricing_plan_id":"cebpf4jnsgd1na2vs0mg"},{"bike_id":"b2dd4286-e2a1-4bf6-9558-757f944c9aeb","system_id":"levelo_inurba_marseille","lat":43.29252,"lon":5.38444,"is_reserved":false,"is_disabled":false,"rental_uris":{"android":"levelo://app?vid=b2dd4286-e2a1-4bf6-9558-757f944c9aeb","ios":"levelo://app?vid=b2dd4286-e2a1-4bf6-9558-757f944c9aeb"},"vehicle_type_id":"4","last_reported":1743790409,"current_range_meters":11200,"station_id":"ce4bh692rcd13ifvqea0","pricing_plan_id":"cebpf4jnsgd1na2vs0mg"},{"bike_id":"495a5936-22f2-451e-ab15-52e9d0402042","system_id":"levelo_inurba_marseille","lat":43.29423,"lon":5.38663,"is_reserved":false,"is_disabled":false,"rental_uris":{"android":"levelo://app?vid=495a5936-22f2-451e-ab15-52e9d0402042","ios":"levelo://app?vid=495a5936-22f2-451e-ab15-52e9d0402042"},"vehicle_type_id":"4","last_reported":1743790409,"current_range_meters":11200,"station_id":"ce4bh2h2rcd13ifvqdh0","pricing_plan_id":"cebpf4jnsgd1na2vs0mg"},{"bike_id":"263cca8c-d8ac-477f-aee0-c3b6027341a5","system_id":"levelo_inurba_marseille","lat":43.27496,"lon":5.42455,"is_reserved":false,"is_disabled":false,"rental_uris":{"android":"levelo://app?vid=263cca8c-d8ac-477f-aee0-c3b6027341a5","ios":"levelo://app?vid=263cca8c-d8ac-477f-aee0-c3b6027341a5"},"vehicle_type_id":"4","last_reported":1743790409,"current_range_meters":11200,"station_id":"ce4bhn92rcd13ifvqgrg","pricing_plan_id":"cebpf4jnsgd1na2vs0mg"},{"bike_id":"718ff677-b939-4f06-9fd2-9c5081e7eb34","system_id":"levelo_inurba_marseille","lat":43.31361,"lon":5.38495,"is_reserved":false,"is_disabled":false,"rental_uris":{"android":"levelo://app?vid=718ff677-b939-4f06-9fd2-9c5081e7eb34","ios":"levelo://app?vid=718ff677-b939-4f06-9fd2-9c5081e7eb34"},"vehicle_type_id":"4","last_reported":1743790409,"current_range_meters":11200,"station_id":"ce4bgt92rcd13ifvqcf0","pricing_plan_id":"cebpf4jnsgd1na2vs0mg"},{"bike_id":"9acd8593-7de6-48f1-b31d-99a1cf23cb69","system_id":"levelo_inurba_marseille","lat":43.24074,"lon":5.37765,"is_reserved":false,"is_disabled":false,"rental_uris":{"android":"levelo://app?vid=9acd8593-7de6-48f1-b31d-99a1cf23cb69","ios":"levelo://app?vid=9acd8593-7de6-48f1-b31d-99a1cf23cb69"},"vehicle_type_id":"4","last_reported":1743790409,"current_range_meters":11200,"station_id":"ce4bhnp2rcd13ifvqgvg","pricing_plan_id":"cebpf4jnsgd1na2vs0mg"},{"bike_id":"69765911-a657-4873-ab71-1b6674378393","system_id":"levelo_inurba_marseille","lat":43.29308,"lon":5.374636,"is_reserved":false,"is_disabled":true,"rental_uris":{"android":"levelo://app?vid=69765911-a657-4873-ab71-1b6674378393","ios":"levelo://app?vid=69765911-a657-4873-ab71-1b6674378393"},"vehicle_type_id":"4","last_reported":1743790409,"current_range_meters":11600,"station_id":"ce4bgi12rcd13ifvqb70","pricing_plan_id":"cebpf4jnsgd1na2vs0mg"},{"bike_id":"b5a88808-888b-4609-b0c8-f153b51d1dd2","system_id":"levelo_inurba_marseille","lat":43.292545,"lon":5.384427,"is_reserved":false,"is_disabled":false,"rental_uris":{"android":"levelo://app?vid=b5a88808-888b-4609-b0c8-f153b51d1dd2","ios":"levelo://app?vid=b5a88808-888b-4609-b0c8-f153b51d1dd2"},"vehicle_type_id":"4","last_reported":1743790409,"current_range_meters":11600,"station_id":"ce4bh692rcd13ifvqea0","pricing_plan_id":"cebpf4jnsgd1na2vs0mg"},{"bike_id":"f40fc4e8-cfdd-40aa-8507-3bd8857476a8","system_id":"levelo_inurba_marseille","lat":43.30222,"lon":5.40111,"is_reserved":false,"is_disabled":true,"rental_uris":{"android":"levelo://app?vid=f40fc4e8-cfdd-40aa-8507-3bd8857476a8","ios":"levelo://app?vid=f40fc4e8-cfdd-40aa-8507-3bd8857476a8"},"vehicle_type_id":"4","last_reported":1743790409,"current_range_meters":11600,"station_id":"","pricing_plan_id":"cebpf4jnsgd1na2vs0mg"},{"bike_id":"2616520a-b2ec-4d3e-9f21-8090fec95f77","system_id":"levelo_inurba_marseille","lat":43.29911,"lon":5.3748,"is_reserved":false,"is_disabled":false,"rental_uris":{"android":"levelo://app?vid=2616520a-b2ec-4d3e-9f21-8090fec95f77","ios":"levelo://app?vid=2616520a-b2ec-4d3e-9f21-8090fec95f77"},"vehicle_type_id":"4","last_reported":1743790409,"current_range_meters":11200,"station_id":"ce4bgjh2rcd13ifvqbg0","pricing_plan_id":"cebpf4jnsgd1na2vs0mg"},{"bike_id":"829acafc-221e-41d2-b87e-1eaa511b3313","system_id":"levelo_inurba_marseille","lat":43.29044,"lon":5.39929,"is_reserved":false,"is_disabled":true,"rental_uris":{"android":"levelo://app?vid=829acafc-221e-41d2-b87e-1eaa511b3313","ios":"levelo://app?vid=829acafc-221e-41d2-b87e-1eaa511b3313"},"vehicle_type_id":"4","last_reported":1743790409,"current_range_meters":11600,"station_id":"ce4bh392rcd13ifvqdm0","pricing_plan_id":"cebpf4jnsgd1na2vs0mg"},{"bike_id":"58b45c94-6494-4b48-819a-613740c792c1","system_id":"levelo_inurba_marseille","lat":43.2757,"lon":5.3842,"is_reserved":false,"is_disabled":false,"rental_uris":{"android":"levelo://app?vid=58b45c94-6494-4b48-819a-613740c792c1","ios":"levelo://app?vid=58b45c94-6494-4b48-819a-613740c792c1"},"vehicle_type_id":"4","last_reported":1743790409,"current_range_meters":11200,"station_id":"ce4bhh92rcd13ifvqfi0","pricing_plan_id":"cebpf4jnsgd1na2vs0mg"},{"bike_id":"ccbaad60-ee1e-4837-a1f8-1af8e79dfa40","system_id":"levelo_inurba_marseille","lat":43.306147,"lon":5.393332,"is_reserved":false,"is_disabled":true,"rental_uris":{"android":"levelo://app?vid=ccbaad60-ee1e-4837-a1f8-1af8e79dfa40","ios":"levelo://app?vid=ccbaad60-ee1e-4837-a1f8-1af8e79dfa40"},"vehicle_type_id":"4","last_reported":1743790409,"current_range_meters":11600,"station_id":"ce4bh0p2rcd13ifvqd80","pricing_plan_id":"cebpf4jnsgd1na2vs0mg"},{"bike_id":"aec9b970-7c57-4ab4-a2fc-6b40e45492d4","system_id":"levelo_inurba_marseille","lat":43.31687,"lon":5.43672,"is_reserved":false,"is_disabled":false,"rental_uris":{"android":"levelo://app?vid=aec9b970-7c57-4ab4-a2fc-6b40e45492d4","ios":"levelo://app?vid=aec9b970-7c57-4ab4-a2fc-6b40e45492d4"},"vehicle_type_id":"4","last_reported":1743790409,"current_range_meters":11600,"station_id":"ce4bhp92rcd13ifvqhcg","pricing_plan_id":"cebpf4jnsgd1na2vs0mg"},{"bike_id":"706fc506-2aa0-4db5-833c-3cdac573bb9a","system_id":"levelo_inurba_marseille","lat":43.29012,"lon":5.38636,"is_reserved":false,"is_disabled":true,"rental_uris":{"android":"levelo://app?vid=706fc506-2aa0-4db5-833c-3cdac573bb9a","ios":"levelo://app?vid=706fc506-2aa0-4db5-833c-3cdac573bb9a"},"vehicle_type_id":"4","last_reported":1743790409,"current_range_meters":11600,"station_id":"ce4bh4p2rcd13ifvqe0g","pricing_plan_id":"cebpf4jnsgd1na2vs0mg"},{"bike_id":"5f8179b4-92a3-4be3-9c24-0cb78758954d","system_id":"levelo_inurba_marseille","lat":43.29529,"lon":5.38551,"is_reserved":false,"is_disabled":false,"rental_uris":{"android":"levelo://app?vid=5f8179b4-92a3-4be3-9c24-0cb78758954d","ios":"levelo://app?vid=5f8179b4-92a3-4be3-9c24-0cb78758954d"},"vehicle_type_id":"4","last_reported":1743790409,"current_range_meters":11600,"station_id":"ce4bgih2rcd13ifvqba0","pricing_plan_id":"cebpf4jnsgd1na2vs0mg"},{"bike_id":"f96caa8f-5847-4ac3-8e9e-0a2ea6250f90","system_id":"levelo_inurba_marseille","lat":43.304262,"lon":5.388939,"is_reserved":false,"is_disabled":false,"rental_uris":{"android":"levelo://app?vid=f96caa8f-5847-4ac3-8e9e-0a2ea6250f90","ios":"levelo://app?vid=f96caa8f-5847-4ac3-8e9e-0a2ea6250f90"},"vehicle_type_id":"4","last_reported":1743790409,"current_range_meters":11600,"station_id":"ce4bgk12rcd13ifvqbi0","pricing_plan_id":"cebpf4jnsgd1na2vs0mg"},{"bike_id":"87f42bd0-b338-4841-925f-65fe6af01b0b","system_id":"levelo_inurba_marseille","lat":43.2319,"lon":5.39989,"is_reserved":false,"is_disabled":false,"rental_uris":{"android":"levelo://app?vid=87f42bd0-b338-4841-925f-65fe6af01b0b","ios":"levelo://app?vid=87f42bd0-b338-4841-925f-65fe6af01b0b"},"vehicle_type_id":"4","last_reported":1743790409,"current_range_meters":11600,"station_id":"ce4bhn12rcd13ifvqgqg","pricing_plan_id":"cebpf4jnsgd1na2vs0mg"},{"bike_id":"3b4ad8c6-6244-4378-90d7-dac703d1508d","system_id":"levelo_inurba_marseille","lat":43.23207,"lon":5.35615,"is_reserved":false,"is_disabled":false,"rental_uris":{"android":"levelo://app?vid=3b4ad8c6-6244-4378-90d7-dac703d1508d","ios":"levelo://app?vid=3b4ad8c6-6244-4378-90d7-dac703d1508d"},"vehicle_type_id":"4","last_reported":1743790409,"current_range_meters":12000,"station_id":"ce4bhu92rcd13ifvqi70","pricing_plan_id":"cebpf4jnsgd1na2vs0mg"},{"bike_id":"203176fb-52f7-45ec-88b4-caa4115f7b7b","system_id":"levelo_inurba_marseille","lat":43.29626,"lon":5.39981,"is_reserved":false,"is_disabled":false,"rental_uris":{"android":"levelo://app?vid=203176fb-52f7-45ec-88b4-caa4115f7b7b","ios":"levelo://app?vid=203176fb-52f7-45ec-88b4-caa4115f7b7b"},"vehicle_type_id":"4","last_reported":1743790409,"current_range_meters":12000,"station_id":"","pricing_plan_id":"cebpf4jnsgd1na2vs0mg"},{"bike_id":"783ef245-163c-4c81-b038-df23059b7c57","system_id":"levelo_inurba_marseille","lat":43.310755,"lon":5.383546,"is_reserved":false,"is_disabled":false,"rental_uris":{"android":"levelo://app?vid=783ef245-163c-4c81-b038-df23059b7c57","ios":"levelo://app?vid=783ef245-163c-4c81-b038-df23059b7c57"},"vehicle_type_id":"4","last_reported":1743790409,"current_range_meters":12000,"station_id":"","pricing_plan_id":"cebpf4jnsgd1na2vs0mg"},{"bike_id":"2d586f0e-5888-4ee0-8491-65b33585f7e2","system_id":"levelo_inurba_marseille","lat":43.29892,"lon":5.39747,"is_reserved":false,"is_disabled":false,"rental_uris":{"android":"levelo://app?vid=2d586f0e-5888-4ee0-8491-65b33585f7e2","ios":"levelo://app?vid=2d586f0e-5888-4ee0-8491-65b33585f7e2"},"vehicle_type_id":"4","last_reported":1743790409,"current_range_meters":12000,"station_id":"ce4bh0h2rcd13ifvqd50","pricing_plan_id":"cebpf4jnsgd1na2vs0mg"},{"bike_id":"dadd5df3-692b-4884-b94c-e68d8f040eec","system_id":"levelo_inurba_marseille","lat":43.28154,"lon":5.4265,"is_reserved":false,"is_disabled":false,"rental_uris":{"android":"levelo://app?vid=dadd5df3-692b-4884-b94c-e68d8f040eec","ios":"levelo://app?vid=dadd5df3-692b-4884-b94c-e68d8f040eec"},"vehicle_type_id":"4","last_reported":1743790409,"current_range_meters":12000,"station_id":"ce4bhnh2rcd13ifvqgug","pricing_plan_id":"cebpf4jnsgd1na2vs0mg"},{"bike_id":"82094fca-82b5-45b4-81a5-df2e6ffd6728","system_id":"levelo_inurba_marseille","lat":43.32335,"lon":5.40616,"is_reserved":false,"is_disabled":false,"rental_uris":{"android":"levelo://app?vid=82094fca-82b5-45b4-81a5-df2e6ffd6728","ios":"levelo://app?vid=82094fca-82b5-45b4-81a5-df2e6ffd6728"},"vehicle_type_id":"4","last_reported":1743790409,"current_range_meters":12000,"station_id":"ce4bhq92rcd13ifvqhjg","pricing_plan_id":"cebpf4jnsgd1na2vs0mg"},{"bike_id":"72d227e5-515d-4f12-9bc4-b4123556188a","system_id":"levelo_inurba_marseille","lat":43.3136,"lon":5.38493,"is_reserved":false,"is_disabled":false,"rental_uris":{"android":"levelo://app?vid=72d227e5-515d-4f12-9bc4-b4123556188a","ios":"levelo://app?vid=72d227e5-515d-4f12-9bc4-b4123556188a"},"vehicle_type_id":"4","last_reported":1743790409,"current_range_meters":12000,"station_id":"ce4bgt92rcd13ifvqcf0","pricing_plan_id":"cebpf4jnsgd1na2vs0mg"},{"bike_id":"f34546ba-bbe3-4f1a-9318-e2256d18e3ce","system_id":"levelo_inurba_marseille","lat":43.28422,"lon":5.35001,"is_reserved":false,"is_disabled":false,"rental_uris":{"android":"levelo://app?vid=f34546ba-bbe3-4f1a-9318-e2256d18e3ce","ios":"levelo://app?vid=f34546ba-bbe3-4f1a-9318-e2256d18e3ce"},"vehicle_type_id":"4","last_reported":1743790409,"current_range_meters":12000,"station_id":"ce4bhbh2rcd13ifvqepg","pricing_plan_id":"cebpf4jnsgd1na2vs0mg"},{"bike_id":"4d880c88-ce0f-4225-bed5-9f2e92c1925d","system_id":"levelo_inurba_marseille","lat":43.23196,"lon":5.35553,"is_reserved":false,"is_disabled":false,"rental_uris":{"android":"levelo://app?vid=4d880c88-ce0f-4225-bed5-9f2e92c1925d","ios":"levelo://app?vid=4d880c88-ce0f-4225-bed5-9f2e92c1925d"},"vehicle_type_id":"4","last_reported":1743790409,"current_range_meters":12000,"station_id":"ce4bhu92rcd13ifvqi70","pricing_plan_id":"cebpf4jnsgd1na2vs0mg"},{"bike_id":"0eb30f16-826e-404e-9494-cbd59d704ab7","system_id":"levelo_inurba_marseille","lat":43.2907,"lon":5.38627,"is_reserved":false,"is_disabled":true,"rental_uris":{"android":"levelo://app?vid=0eb30f16-826e-404e-9494-cbd59d704ab7","ios":"levelo://app?vid=0eb30f16-826e-404e-9494-cbd59d704ab7"},"vehicle_type_id":"4","last_reported":1743790409,"current_range_meters":12000,"station_id":"ce4bh4p2rcd13ifvqe0g","pricing_plan_id":"cebpf4jnsgd1na2vs0mg"},{"bike_id":"6e5fe51e-80c9-4aab-a956-b3ff36d8e604","system_id":"levelo_inurba_marseille","lat":43.2901,"lon":5.3559,"is_reserved":false,"is_disabled":false,"rental_uris":{"android":"levelo://app?vid=6e5fe51e-80c9-4aab-a956-b3ff36d8e604","ios":"levelo://app?vid=6e5fe51e-80c9-4aab-a956-b3ff36d8e604"},"vehicle_type_id":"4","last_reported":1743790409,"current_range_meters":12000,"station_id":"ce4bhb92rcd13ifvqen0","pricing_plan_id":"cebpf4jnsgd1na2vs0mg"},{"bike_id":"ae85a7a4-7c38-4e25-9e50-a9a925b58789","system_id":"levelo_inurba_marseille","lat":43.31084,"lon":5.42443,"is_reserved":false,"is_disabled":false,"rental_uris":{"android":"levelo://app?vid=ae85a7a4-7c38-4e25-9e50-a9a925b58789","ios":"levelo://app?vid=ae85a7a4-7c38-4e25-9e50-a9a925b58789"},"vehicle_type_id":"4","last_reported":1743790409,"current_range_meters":12000,"station_id":"ce4bhp92rcd13ifvqhag","pricing_plan_id":"cebpf4jnsgd1na2vs0mg"},{"bike_id":"a07480da-f5a9-4597-b3e6-cc405effeae7","system_id":"levelo_inurba_marseille","lat":43.2897,"lon":5.39661,"is_reserved":false,"is_disabled":true,"rental_uris":{"android":"levelo://app?vid=a07480da-f5a9-4597-b3e6-cc405effeae7","ios":"levelo://app?vid=a07480da-f5a9-4597-b3e6-cc405effeae7"},"vehicle_type_id":"4","last_reported":1743790409,"current_range_meters":12400,"station_id":"ce4bh3h2rcd13ifvqdn0","pricing_plan_id":"cebpf4jnsgd1na2vs0mg"},{"bike_id":"9df2e517-b618-4d6d-ae3a-3b20dba81f15","system_id":"levelo_inurba_marseille","lat":43.28946,"lon":5.36658,"is_reserved":false,"is_disabled":false,"rental_uris":{"android":"levelo://app?vid=9df2e517-b618-4d6d-ae3a-3b20dba81f15","ios":"levelo://app?vid=9df2e517-b618-4d6d-ae3a-3b20dba81f15"},"vehicle_type_id":"4","last_reported":1743790409,"current_range_meters":12400,"station_id":"ce4bhap2rcd13ifvqek0","pricing_plan_id":"cebpf4jnsgd1na2vs0mg"},{"bike_id":"c6c6c5c5-5f15-4679-b4d0-5fe3d6b4d094","system_id":"levelo_inurba_marseille","lat":43.30874,"lon":5.37197,"is_reserved":false,"is_disabled":false,"rental_uris":{"android":"levelo://app?vid=c6c6c5c5-5f15-4679-b4d0-5fe3d6b4d094","ios":"levelo://app?vid=c6c6c5c5-5f15-4679-b4d0-5fe3d6b4d094"},"vehicle_type_id":"4","last_reported":1743790409,"current_range_meters":12000,"station_id":"ce4bguh2rcd13ifvqckg","pricing_plan_id":"cebpf4jnsgd1na2vs0mg"},{"bike_id":"30b728c0-dc32-4248-9b2a-bfb605f5ab55","system_id":"levelo_inurba_marseille","lat":43.29412,"lon":5.38581,"is_reserved":false,"is_disabled":false,"rental_uris":{"android":"levelo://app?vid=30b728c0-dc32-4248-9b2a-bfb605f5ab55","ios":"levelo://app?vid=30b728c0-dc32-4248-9b2a-bfb605f5ab55"},"vehicle_type_id":"4","last_reported":1743790409,"current_range_meters":12400,"station_id":"ce4bh2h2rcd13ifvqdh0","pricing_plan_id":"cebpf4jnsgd1na2vs0mg"},{"bike_id":"6b8df6c6-e69f-416d-869f-6c58b572d426","system_id":"levelo_inurba_marseille","lat":43.2318,"lon":5.399847,"is_reserved":false,"is_disabled":false,"rental_uris":{"android":"levelo://app?vid=6b8df6c6-e69f-416d-869f-6c58b572d426","ios":"levelo://app?vid=6b8df6c6-e69f-416d-869f-6c58b572d426"},"vehicle_type_id":"4","last_reported":1743790409,"current_range_meters":12400,"station_id":"ce4bhn12rcd13ifvqgqg","pricing_plan_id":"cebpf4jnsgd1na2vs0mg"},{"bike_id":"a6303451-5b45-435c-bf0e-748f94cc010d","system_id":"levelo_inurba_marseille","lat":43.23207,"lon":5.35538,"is_reserved":false,"is_disabled":false,"rental_uris":{"android":"levelo://app?vid=a6303451-5b45-435c-bf0e-748f94cc010d","ios":"levelo://app?vid=a6303451-5b45-435c-bf0e-748f94cc010d"},"vehicle_type_id":"4","last_reported":1743790409,"current_range_meters":12400,"station_id":"ce4bhu92rcd13ifvqi70","pricing_plan_id":"cebpf4jnsgd1na2vs0mg"},{"bike_id":"fb0d4993-67fa-4314-9525-ef2ba9197c72","system_id":"levelo_inurba_marseille","lat":43.30264,"lon":5.4063,"is_reserved":false,"is_disabled":false,"rental_uris":{"android":"levelo://app?vid=fb0d4993-67fa-4314-9525-ef2ba9197c72","ios":"levelo://app?vid=fb0d4993-67fa-4314-9525-ef2ba9197c72"},"vehicle_type_id":"4","last_reported":1743790409,"current_range_meters":12400,"station_id":"","pricing_plan_id":"cebpf4jnsgd1na2vs0mg"},{"bike_id":"c4bdc4b4-43b4-4e76-804d-1cf96f7bc46b","system_id":"levelo_inurba_marseille","lat":43.29409,"lon":5.38643,"is_reserved":false,"is_disabled":false,"rental_uris":{"android":"levelo://app?vid=c4bdc4b4-43b4-4e76-804d-1cf96f7bc46b","ios":"levelo://app?vid=c4bdc4b4-43b4-4e76-804d-1cf96f7bc46b"},"vehicle_type_id":"4","last_reported":1743790409,"current_range_meters":12400,"station_id":"ce4bh2h2rcd13ifvqdh0","pricing_plan_id":"cebpf4jnsgd1na2vs0mg"},{"bike_id":"6e1c9c66-c456-4a0c-9f32-8624123a9ee0","system_id":"levelo_inurba_marseille","lat":43.30808,"lon":5.43527,"is_reserved":false,"is_disabled":false,"rental_uris":{"android":"levelo://app?vid=6e1c9c66-c456-4a0c-9f32-8624123a9ee0","ios":"levelo://app?vid=6e1c9c66-c456-4a0c-9f32-8624123a9ee0"},"vehicle_type_id":"4","last_reported":1743790409,"current_range_meters":12400,"station_id":"ce4bhph2rcd13ifvqheg","pricing_plan_id":"cebpf4jnsgd1na2vs0mg"},{"bike_id":"c2055a2a-1cff-4f19-a52d-9b52baeaa63f","system_id":"levelo_inurba_marseille","lat":43.32026,"lon":5.381279,"is_reserved":false,"is_disabled":true,"rental_uris":{"android":"levelo://app?vid=c2055a2a-1cff-4f19-a52d-9b52baeaa63f","ios":"levelo://app?vid=c2055a2a-1cff-4f19-a52d-9b52baeaa63f"},"vehicle_type_id":"4","last_reported":1743790409,"current_range_meters":12400,"station_id":"","pricing_plan_id":"cebpf4jnsgd1na2vs0mg"},{"bike_id":"1d5ef6d0-a413-45b3-8100-7222d11689f2","system_id":"levelo_inurba_marseille","lat":43.28921,"lon":5.38402,"is_reserved":false,"is_disabled":true,"rental_uris":{"android":"levelo://app?vid=1d5ef6d0-a413-45b3-8100-7222d11689f2","ios":"levelo://app?vid=1d5ef6d0-a413-45b3-8100-7222d11689f2"},"vehicle_type_id":"4","last_reported":1743790409,"current_range_meters":12400,"station_id":"ce4bh612rcd13ifvqe6g","pricing_plan_id":"cebpf4jnsgd1na2vs0mg"},{"bike_id":"260c57e4-9fe8-4656-ac3b-57d2fcd3e098","system_id":"levelo_inurba_marseille","lat":43.2953,"lon":5.38542,"is_reserved":false,"is_disabled":false,"rental_uris":{"android":"levelo://app?vid=260c57e4-9fe8-4656-ac3b-57d2fcd3e098","ios":"levelo://app?vid=260c57e4-9fe8-4656-ac3b-57d2fcd3e098"},"vehicle_type_id":"4","last_reported":1743790409,"current_range_meters":12800,"station_id":"ce4bgih2rcd13ifvqba0","pricing_plan_id":"cebpf4jnsgd1na2vs0mg"},{"bike_id":"8322d305-6db6-4039-a9e0-ea07ac5525c7","system_id":"levelo_inurba_marseille","lat":43.30595,"lon":5.37229,"is_reserved":false,"is_disabled":false,"rental_uris":{"android":"levelo://app?vid=8322d305-6db6-4039-a9e0-ea07ac5525c7","ios":"levelo://app?vid=8322d305-6db6-4039-a9e0-ea07ac5525c7"},"vehicle_type_id":"4","last_reported":1743790409,"current_range_meters":12800,"station_id":"ce4bgqh2rcd13ifvqc4g","pricing_plan_id":"cebpf4jnsgd1na2vs0mg"},{"bike_id":"48ec1fe3-fdf4-49a5-977a-526829b4e2e3","system_id":"levelo_inurba_marseille","lat":43.23084,"lon":5.3553,"is_reserved":false,"is_disabled":false,"rental_uris":{"android":"levelo://app?vid=48ec1fe3-fdf4-49a5-977a-526829b4e2e3","ios":"levelo://app?vid=48ec1fe3-fdf4-49a5-977a-526829b4e2e3"},"vehicle_type_id":"4","last_reported":1743790409,"current_range_meters":12800,"station_id":"cpo3342slgdg3j2ifvpg","pricing_plan_id":"cebpf4jnsgd1na2vs0mg"},{"bike_id":"e03ca984-8714-4757-9d0f-ec70303f80a0","system_id":"levelo_inurba_marseille","lat":43.25082,"lon":5.39525,"is_reserved":false,"is_disabled":false,"rental_uris":{"android":"levelo://app?vid=e03ca984-8714-4757-9d0f-ec70303f80a0","ios":"levelo://app?vid=e03ca984-8714-4757-9d0f-ec70303f80a0"},"vehicle_type_id":"4","last_reported":1743790409,"current_range_meters":12800,"station_id":"ce4bhm12rcd13ifvqgkg","pricing_plan_id":"cebpf4jnsgd1na2vs0mg"},{"bike_id":"fdad6e5e-1467-4616-9d72-68b29d343e00","system_id":"levelo_inurba_marseille","lat":43.32291,"lon":5.38282,"is_reserved":false,"is_disabled":false,"rental_uris":{"android":"levelo://app?vid=fdad6e5e-1467-4616-9d72-68b29d343e00","ios":"levelo://app?vid=fdad6e5e-1467-4616-9d72-68b29d343e00"},"vehicle_type_id":"4","last_reported":1743790409,"current_range_meters":12800,"station_id":"ce4bhr12rcd13ifvqhqg","pricing_plan_id":"cebpf4jnsgd1na2vs0mg"},{"bike_id":"c46be2de-c4b7-4c4e-9f9c-2b0f57e3ba4d","system_id":"levelo_inurba_marseille","lat":43.302225,"lon":5.394674,"is_reserved":false,"is_disabled":false,"rental_uris":{"android":"levelo://app?vid=c46be2de-c4b7-4c4e-9f9c-2b0f57e3ba4d","ios":"levelo://app?vid=c46be2de-c4b7-4c4e-9f9c-2b0f57e3ba4d"},"vehicle_type_id":"4","last_reported":1743790409,"current_range_meters":12800,"station_id":"ce4bh692rcd13ifvqe90","pricing_plan_id":"cebpf4jnsgd1na2vs0mg"},{"bike_id":"41296888-352e-4ce3-b582-026d48019870","system_id":"levelo_inurba_marseille","lat":43.29138,"lon":5.37947,"is_reserved":false,"is_disabled":false,"rental_uris":{"android":"levelo://app?vid=41296888-352e-4ce3-b582-026d48019870","ios":"levelo://app?vid=41296888-352e-4ce3-b582-026d48019870"},"vehicle_type_id":"4","last_reported":1743790409,"current_range_meters":12800,"station_id":"","pricing_plan_id":"cebpf4jnsgd1na2vs0mg"},{"bike_id":"2cb207f8-e604-4a79-8561-b424e366982d","system_id":"levelo_inurba_marseille","lat":43.27381,"lon":5.36258,"is_reserved":false,"is_disabled":false,"rental_uris":{"android":"levelo://app?vid=2cb207f8-e604-4a79-8561-b424e366982d","ios":"levelo://app?vid=2cb207f8-e604-4a79-8561-b424e366982d"},"vehicle_type_id":"4","last_reported":1743790409,"current_range_meters":12800,"station_id":"ce4bhbh2rcd13ifvqeo0","pricing_plan_id":"cebpf4jnsgd1na2vs0mg"},{"bike_id":"cccce150-77a7-4565-8ca1-36858ce9e6b0","system_id":"levelo_inurba_marseille","lat":43.32112,"lon":5.36817,"is_reserved":false,"is_disabled":false,"rental_uris":{"android":"levelo://app?vid=cccce150-77a7-4565-8ca1-36858ce9e6b0","ios":"levelo://app?vid=cccce150-77a7-4565-8ca1-36858ce9e6b0"},"vehicle_type_id":"4","last_reported":1743790409,"current_range_meters":12800,"station_id":"ce4bhrh2rcd13ifvqhug","pricing_plan_id":"cebpf4jnsgd1na2vs0mg"},{"bike_id":"d9b59da4-2202-4be7-8211-6e96568b3cb8","system_id":"levelo_inurba_marseille","lat":43.30506,"lon":5.3652,"is_reserved":false,"is_disabled":true,"rental_uris":{"android":"levelo://app?vid=d9b59da4-2202-4be7-8211-6e96568b3cb8","ios":"levelo://app?vid=d9b59da4-2202-4be7-8211-6e96568b3cb8"},"vehicle_type_id":"4","last_reported":1743790409,"current_range_meters":12800,"station_id":"ce4bgs12rcd13ifvqcag","pricing_plan_id":"cebpf4jnsgd1na2vs0mg"},{"bike_id":"44ac6bc0-66a4-4501-af28-17e8526c476f","system_id":"levelo_inurba_marseille","lat":43.24152,"lon":5.36426,"is_reserved":false,"is_disabled":false,"rental_uris":{"android":"levelo://app?vid=44ac6bc0-66a4-4501-af28-17e8526c476f","ios":"levelo://app?vid=44ac6bc0-66a4-4501-af28-17e8526c476f"},"vehicle_type_id":"4","last_reported":1743790409,"current_range_meters":13600,"station_id":"cpo36qri1sfpv3e86is0","pricing_plan_id":"cebpf4jnsgd1na2vs0mg"},{"bike_id":"52877f2f-d8d0-41a4-8c35-5d8d36c67381","system_id":"levelo_inurba_marseille","lat":43.29028,"lon":5.38135,"is_reserved":false,"is_disabled":false,"rental_uris":{"android":"levelo://app?vid=52877f2f-d8d0-41a4-8c35-5d8d36c67381","ios":"levelo://app?vid=52877f2f-d8d0-41a4-8c35-5d8d36c67381"},"vehicle_type_id":"4","last_reported":1743790409,"current_range_meters":14000,"station_id":"ce4bh4p2rcd13ifvqe1g","pricing_plan_id":"cebpf4jnsgd1na2vs0mg"},{"bike_id":"32dbe70c-c8ad-4db5-84e9-a7abf68df6dd","system_id":"levelo_inurba_marseille","lat":43.27913,"lon":5.3801,"is_reserved":false,"is_disabled":false,"rental_uris":{"android":"levelo://app?vid=32dbe70c-c8ad-4db5-84e9-a7abf68df6dd","ios":"levelo://app?vid=32dbe70c-c8ad-4db5-84e9-a7abf68df6dd"},"vehicle_type_id":"4","last_reported":1743790409,"current_range_meters":13600,"station_id":"ce4bhf92rcd13ifvqf50","pricing_plan_id":"cebpf4jnsgd1na2vs0mg"},{"bike_id":"8b07ebe3-c476-4b69-aa40-ae6590bce8ff","system_id":"levelo_inurba_marseille","lat":43.29912,"lon":5.38153,"is_reserved":false,"is_disabled":false,"rental_uris":{"android":"levelo://app?vid=8b07ebe3-c476-4b69-aa40-ae6590bce8ff","ios":"levelo://app?vid=8b07ebe3-c476-4b69-aa40-ae6590bce8ff"},"vehicle_type_id":"4","last_reported":1743790409,"current_range_meters":13600,"station_id":"ce4bgj12rcd13ifvqbc0","pricing_plan_id":"cebpf4jnsgd1na2vs0mg"},{"bike_id":"2f9de47d-5d8b-434f-a349-907871768984","system_id":"levelo_inurba_marseille","lat":43.29268,"lon":5.38427,"is_reserved":false,"is_disabled":false,"rental_uris":{"android":"levelo://app?vid=2f9de47d-5d8b-434f-a349-907871768984","ios":"levelo://app?vid=2f9de47d-5d8b-434f-a349-907871768984"},"vehicle_type_id":"4","last_reported":1743790409,"current_range_meters":13600,"station_id":"ce4bh692rcd13ifvqea0","pricing_plan_id":"cebpf4jnsgd1na2vs0mg"},{"bike_id":"d7a517f1-3e43-4714-a602-4fc74d3e1dab","system_id":"levelo_inurba_marseille","lat":43.29167,"lon":5.35802,"is_reserved":false,"is_disabled":false,"rental_uris":{"android":"levelo://app?vid=d7a517f1-3e43-4714-a602-4fc74d3e1dab","ios":"levelo://app?vid=d7a517f1-3e43-4714-a602-4fc74d3e1dab"},"vehicle_type_id":"4","last_reported":1743790409,"current_range_meters":13600,"station_id":"ce4bhb12rcd13ifvqel0","pricing_plan_id":"cebpf4jnsgd1na2vs0mg"},{"bike_id":"95bd97ed-f6ea-49ba-9391-23e359d1df00","system_id":"levelo_inurba_marseille","lat":43.30433,"lon":5.38891,"is_reserved":false,"is_disabled":false,"rental_uris":{"android":"levelo://app?vid=95bd97ed-f6ea-49ba-9391-23e359d1df00","ios":"levelo://app?vid=95bd97ed-f6ea-49ba-9391-23e359d1df00"},"vehicle_type_id":"4","last_reported":1743790409,"current_range_meters":13600,"station_id":"ce4bgk12rcd13ifvqbi0","pricing_plan_id":"cebpf4jnsgd1na2vs0mg"},{"bike_id":"6d9715e6-045f-417b-844a-144b6e5c1132","system_id":"levelo_inurba_marseille","lat":43.29248,"lon":5.35746,"is_reserved":false,"is_disabled":false,"rental_uris":{"android":"levelo://app?vid=6d9715e6-045f-417b-844a-144b6e5c1132","ios":"levelo://app?vid=6d9715e6-045f-417b-844a-144b6e5c1132"},"vehicle_type_id":"4","last_reported":1743790409,"current_range_meters":13600,"station_id":"","pricing_plan_id":"cebpf4jnsgd1na2vs0mg"},{"bike_id":"92b5e1e1-e2a4-40ec-9a8c-5a8e328080f2","system_id":"levelo_inurba_marseille","lat":43.30998,"lon":5.37949,"is_reserved":false,"is_disabled":false,"rental_uris":{"android":"levelo://app?vid=92b5e1e1-e2a4-40ec-9a8c-5a8e328080f2","ios":"levelo://app?vid=92b5e1e1-e2a4-40ec-9a8c-5a8e328080f2"},"vehicle_type_id":"4","last_reported":1743790409,"current_range_meters":13600,"station_id":"","pricing_plan_id":"cebpf4jnsgd1na2vs0mg"},{"bike_id":"eb79d1f9-7c91-4ea2-b5f8-796189743e1a","system_id":"levelo_inurba_marseille","lat":43.33749,"lon":5.39206,"is_reserved":false,"is_disabled":false,"rental_uris":{"android":"levelo://app?vid=eb79d1f9-7c91-4ea2-b5f8-796189743e1a","ios":"levelo://app?vid=eb79d1f9-7c91-4ea2-b5f8-796189743e1a"},"vehicle_type_id":"4","last_reported":1743790409,"current_range_meters":14000,"station_id":"ce4bhr92rcd13ifvqhsg","pricing_plan_id":"cebpf4jnsgd1na2vs0mg"},{"bike_id":"3e1a5406-0c94-4860-95a9-29e5fd479fa9","system_id":"levelo_inurba_marseille","lat":43.29779,"lon":5.38111,"is_reserved":false,"is_disabled":false,"rental_uris":{"android":"levelo://app?vid=3e1a5406-0c94-4860-95a9-29e5fd479fa9","ios":"levelo://app?vid=3e1a5406-0c94-4860-95a9-29e5fd479fa9"},"vehicle_type_id":"4","last_reported":1743790409,"current_range_meters":14000,"station_id":"ce4bgip2rcd13ifvqbb0","pricing_plan_id":"cebpf4jnsgd1na2vs0mg"},{"bike_id":"b198c9bd-4ff2-4406-92b4-2ba1d2d27cf0","system_id":"levelo_inurba_marseille","lat":43.29174,"lon":5.37161,"is_reserved":false,"is_disabled":false,"rental_uris":{"android":"levelo://app?vid=b198c9bd-4ff2-4406-92b4-2ba1d2d27cf0","ios":"levelo://app?vid=b198c9bd-4ff2-4406-92b4-2ba1d2d27cf0"},"vehicle_type_id":"4","last_reported":1743790409,"current_range_meters":13600,"station_id":"ce4bha92rcd13ifvqeh0","pricing_plan_id":"cebpf4jnsgd1na2vs0mg"},{"bike_id":"2279568d-06b5-4a43-acd6-8717b94947b2","system_id":"levelo_inurba_marseille","lat":43.30221,"lon":5.39469,"is_reserved":false,"is_disabled":false,"rental_uris":{"android":"levelo://app?vid=2279568d-06b5-4a43-acd6-8717b94947b2","ios":"levelo://app?vid=2279568d-06b5-4a43-acd6-8717b94947b2"},"vehicle_type_id":"4","last_reported":1743790409,"current_range_meters":14000,"station_id":"ce4bh0p2rcd13ifvqd70","pricing_plan_id":"cebpf4jnsgd1na2vs0mg"},{"bike_id":"edf50280-a5f1-431a-9546-ccd1201684cc","system_id":"levelo_inurba_marseille","lat":43.30908,"lon":5.39643,"is_reserved":false,"is_disabled":false,"rental_uris":{"android":"levelo://app?vid=edf50280-a5f1-431a-9546-ccd1201684cc","ios":"levelo://app?vid=edf50280-a5f1-431a-9546-ccd1201684cc"},"vehicle_type_id":"4","last_reported":1743790409,"current_range_meters":13600,"station_id":"ce4bh012rcd13ifvqcv0","pricing_plan_id":"cebpf4jnsgd1na2vs0mg"},{"bike_id":"20efa32f-04e3-4009-b6b1-2bfa805748a8","system_id":"levelo_inurba_marseille","lat":43.29101,"lon":5.38133,"is_reserved":false,"is_disabled":false,"rental_uris":{"android":"levelo://app?vid=20efa32f-04e3-4009-b6b1-2bfa805748a8","ios":"levelo://app?vid=20efa32f-04e3-4009-b6b1-2bfa805748a8"},"vehicle_type_id":"4","last_reported":1743790409,"current_range_meters":13600,"station_id":"ce4bh512rcd13ifvqe2g","pricing_plan_id":"cebpf4jnsgd1na2vs0mg"},{"bike_id":"2d3102e2-01b5-4973-af31-423385b14c3d","system_id":"levelo_inurba_marseille","lat":43.2606,"lon":5.39399,"is_reserved":false,"is_disabled":false,"rental_uris":{"android":"levelo://app?vid=2d3102e2-01b5-4973-af31-423385b14c3d","ios":"levelo://app?vid=2d3102e2-01b5-4973-af31-423385b14c3d"},"vehicle_type_id":"4","last_reported":1743790409,"current_range_meters":13600,"station_id":"ce4bhh92rcd13ifvqfj0","pricing_plan_id":"cebpf4jnsgd1na2vs0mg"},{"bike_id":"951e760c-ea87-40a7-9f38-8c64641ce860","system_id":"levelo_inurba_marseille","lat":43.298885,"lon":5.397393,"is_reserved":false,"is_disabled":false,"rental_uris":{"android":"levelo://app?vid=951e760c-ea87-40a7-9f38-8c64641ce860","ios":"levelo://app?vid=951e760c-ea87-40a7-9f38-8c64641ce860"},"vehicle_type_id":"4","last_reported":1743790409,"current_range_meters":14000,"station_id":"ce4bh0h2rcd13ifvqd50","pricing_plan_id":"cebpf4jnsgd1na2vs0mg"},{"bike_id":"3bb117bf-b02a-46f8-964d-80f760618f2d","system_id":"levelo_inurba_marseille","lat":43.31714,"lon":5.40475,"is_reserved":false,"is_disabled":false,"rental_uris":{"android":"levelo://app?vid=3bb117bf-b02a-46f8-964d-80f760618f2d","ios":"levelo://app?vid=3bb117bf-b02a-46f8-964d-80f760618f2d"},