{"last_updated":1730279415,"ttl":60,"version":"2.2","data":{"bikes":[{"bike_id":"e0594c9b-1912-4f09-958a-91f8a4561c29","system_id":"levelo_inurba_marseille","lat":43.24389,"lon":5.37045,"is_reserved":false,"is_disabled":false,"rental_uris":{"android":"levelo://app?vid=e0594c9b-1912-4f09-958a-91f8a4561c29","ios":"levelo://app?vid=e0594c9b-1912-4f09-958a-91f8a4561c29"},"vehicle_type_id":"4","last_reported":1730279415,"current_range_meters":39200,"station_id":"ce4bhhh2rcd13ifvqfk0","pricing_plan_id":"cebpf4jnsgd1na2vs0mg"},{"bike_id":"7fc3871f-1dad-489f-9349-910a64295c70","system_id":"levelo_inurba_marseille","lat":43.30192,"lon":5.36619,"is_reserved":false,"is_disabled":false,"rental_uris":{"android":"levelo://app?vid=7fc3871f-1dad-489f-9349-910a64295c70","ios":"levelo://app?vid=7fc3871f-1dad-489f-9349-910a64295c70"},"vehicle_type_id":"4","last_reported":1730279415,"current_range_meters":18000,"station_id":"ce4bgrh2rcd13ifvqc8g","pricing_plan_id":"cebpf4jnsgd1na2vs0mg"},{"bike_id":"9932cb1a-63a4-4e1c-a11b-c6a6ee00d266","system_id":"levelo_inurba_marseille","lat":43.31225,"lon":5.36865,"is_reserved":false,"is_disabled":false,"rental_uris":{"android":"levelo://app?vid=9932cb1a-63a4-4e1c-a11b-c6a6ee00d266","ios":"levelo://app?vid=9932cb1a-63a4-4e1c-a11b-c6a6ee00d266"},"vehicle_type_id":"4","last_reported":1730279415,"current_range_meters":11600,"station_id":"ce4bgl92rcd13ifvqbq0","pricing_plan_id":"cebpf4jnsgd1na2vs0mg"},{"bike_id":"6daefb7d-890b-4927-bca4-1e9b57c2727d","system_id":"levelo_inurba_marseille","lat":43.27194,"lon":5.40993,"is_reserved":false,"is_disabled":false,"rental_uris":{"android":"levelo://app?vid=6daefb7d-890b-4927-bca4-1e9b57c2727d","ios":"levelo://app?vid=6daefb7d-890b-4927-bca4-1e9b57c2727d"},"vehicle_type_id":"4","last_reported":1730279415,"current_range_meters":36800,"station_id":"ce4bhl12rcd13ifvqgf0","pricing_plan_id":"cebpf4jnsgd1na2vs0mg"},{"bike_id":"e1d18b81-986d-4e87-b61a-22535be9c7fe","system_id":"levelo_inurba_marseille","lat":43.27067,"lon":5.42276,"is_reserved":false,"is_disabled":false,"rental_uris":{"android":"levelo://app?vid=e1d18b81-986d-4e87-b61a-22535be9c7fe","ios":"levelo://app?vid=e1d18b81-986d-4e87-b61a-22535be9c7fe"},"vehicle_type_id":"4","last_reported":1730279415,"current_range_meters":39200,"station_id":"ce4bhk92rcd13ifvqgb0","pricing_plan_id":"cebpf4jnsgd1na2vs0mg"},{"bike_id":"389a0521-41ae-44e7-b647-f0e587e1b12f","system_id":"levelo_inurba_marseille","lat":43.24174,"lon":5.39734,"is_reserved":false,"is_disabled":false,"rental_uris":{"android":"levelo://app?vid=389a0521-41ae-44e7-b647-f0e587e1b12f","ios":"levelo://app?vid=389a0521-41ae-44e7-b647-f0e587e1b12f"},"vehicle_type_id":"4","last_reported":1730279415,"current_range_meters":10000,"station_id":"ce4bhn12rcd13ifvqgpg","pricing_plan_id":"cebpf4jnsgd1na2vs0mg"},{"bike_id":"1a5154eb-f122-438b-b30e-b16adba008c7","system_id":"levelo_inurba_marseille","lat":43.31518,"lon":5.37279,"is_reserved":false,"is_disabled":false,"rental_uris":{"android":"levelo://app?vid=1a5154eb-f122-438b-b30e-b16adba008c7","ios":"levelo://app?vid=1a5154eb-f122-438b-b30e-b16adba008c7"},"vehicle_type_id":"4","last_reported":1730279415,"current_range_meters":6400,"station_id":"ce4bgt12rcd13ifvqcd0","pricing_plan_id":"cebpf4jnsgd1na2vs0mg"},{"bike_id":"e69003c5-61d9-410c-8600-03d60dc443c9","system_id":"levelo_inurba_marseille","lat":43.32922,"lon":5.36607,"is_reserved":false,"is_disabled":false,"rental_uris":{"android":"levelo://app?vid=e69003c5-61d9-410c-8600-03d60dc443c9","ios":"levelo://app?vid=e69003c5-61d9-410c-8600-03d60dc443c9"},"vehicle_type_id":"4","last_reported":1730279415,"current_range_meters":30000,"station_id":"","pricing_plan_id":"cebpf4jnsgd1na2vs0mg"},{"bike_id":"9cd28ed1-51d4-469f-80b1-db1aa7224fd9","system_id":"levelo_inurba_marseille","lat":43.31884,"lon":5.40749,"is_reserved":false,"is_disabled":false,"rental_uris":{"android":"levelo://app?vid=9cd28ed1-51d4-469f-80b1-db1aa7224fd9","ios":"levelo://app?vid=9cd28ed1-51d4-469f-80b1-db1aa7224fd9"},"vehicle_type_id":"4","last_reported":1730279415,"current_range_meters":30000,"station_id":"ce4bhq12rcd13ifvqhig","pricing_plan_id":"cebpf4jnsgd1na2vs0mg"},{"bike_id":"515e3cda-ebf4-4224-a67b-bc5f9d833f60","system_id":"levelo_inurba_marseille","lat":43.24547,"lon":5.39527,"is_reserved":false,"is_disabled":false,"rental_uris":{"android":"levelo://app?vid=515e3cda-ebf4-4224-a67b-bc5f9d833f60","ios":"levelo://app?vid=515e3cda-ebf4-4224-a67b-bc5f9d833f60"},"vehicle_type_id":"4","last_reported":1730279415,"current_range_meters":30400,"station_id":"ce4bhlp2rcd13ifvqgjg","pricing_plan_id":"cebpf4jnsgd1na2vs0mg"},{"bike_id":"a0f5d9ec-bdca-49ed-9410-eea9bb121fec","system_id":"levelo_inurba_marseille","lat":43.32659,"lon":5.40988,"is_reserved":false,"is_disabled":false,"rental_uris":{"android":"levelo://app?vid=a0f5d9ec-bdca-49ed-9410-eea9bb121fec","ios":"levelo://app?vid=a0f5d9ec-bdca-49ed-9410-eea9bb121fec"},"vehicle_type_id":"4","last_reported":1730279415,"current_range_meters":38000,"station_id":"ce4bhpp2rcd13ifvqhgg","pricing_plan_id":"cebpf4jnsgd1na2vs0mg"},{"bike_id":"e8d85e8e-18a6-4ab4-ac32-ba9abb50d129","system_id":"levelo_inurba_marseille","lat":43.29167,"lon":5.3716,"is_reserved":false,"is_disabled":false,"rental_uris":{"android":"levelo://app?vid=e8d85e8e-18a6-4ab4-ac32-ba9abb50d129","ios":"levelo://app?vid=e8d85e8e-18a6-4ab4-ac32-ba9abb50d129"},"vehicle_type_id":"4","last_reported":1730279415,"current_range_meters":26800,"station_id":"ce4bha92rcd13ifvqeh0","pricing_plan_id":"cebpf4jnsgd1na2vs0mg"},{"bike_id":"b240039e-c50d-4884-bbaf-45c1fe416cf2","system_id":"levelo_inurba_marseille","lat":43.24166,"lon":5.36385,"is_reserved":false,"is_disabled":false,"rental_uris":{"android":"levelo://app?vid=b240039e-c50d-4884-bbaf-45c1fe416cf2","ios":"levelo://app?vid=b240039e-c50d-4884-bbaf-45c1fe416cf2"},"vehicle_type_id":"4","last_reported":1730279415,"current_range_meters":32800,"station_id":"cpo36qri1sfpv3e86is0","pricing_plan_id":"cebpf4jnsgd1na2vs0mg"},{"bike_id":"0f237200-9f2c-4569-b096-745ca33d76d3","system_id":"levelo_inurba_marseille","lat":43.30557,"lon":5.36542,"is_reserved":false,"is_disabled":false,"rental_uris":{"android":"levelo://app?vid=0f237200-9f2c-4569-b096-745ca33d76d3","ios":"levelo://app?vid=0f237200-9f2c-4569-b096-745ca33d76d3"},"vehicle_type_id":"4","last_reported":1730279415,"current_range_meters":30800,"station_id":"ce4bgs12rcd13ifvqcag","pricing_plan_id":"cebpf4jnsgd1na2vs0mg"},{"bike_id":"98af7aaf-680f-4013-9acb-3127feae2bb0","system_id":"levelo_inurba_marseille","lat":43.33018,"lon":5.39039,"is_reserved":false,"is_disabled":false,"rental_uris":{"android":"levelo://app?vid=98af7aaf-680f-4013-9acb-3127feae2bb0","ios":"levelo://app?vid=98af7aaf-680f-4013-9acb-3127feae2bb0"},"vehicle_type_id":"4","last_reported":1730279415,"current_range_meters":39200,"station_id":"ce4bhr92rcd13ifvqhrg","pricing_plan_id":"cebpf4jnsgd1na2vs0mg"},{"bike_id":"ba28085d-65a7-410a-b3d0-1466c1e502ea","system_id":"levelo_inurba_marseille","lat":43.30942,"lon":5.39045,"is_reserved":false,"is_disabled":false,"rental_uris":{"android":"levelo://app?vid=ba28085d-65a7-410a-b3d0-1466c1e502ea","ios":"levelo://app?vid=ba28085d-65a7-410a-b3d0-1466c1e502ea"},"vehicle_type_id":"4","last_reported":1730279415,"current_range_meters":14800,"station_id":"ce4bgup2rcd13ifvqco0","pricing_plan_id":"cebpf4jnsgd1na2vs0mg"},{"bike_id":"5607110e-580f-48db-ba88-212c55d8989d","system_id":"levelo_inurba_marseille","lat":43.23176,"lon":5.39984,"is_reserved":false,"is_disabled":false,"rental_uris":{"android":"levelo://app?vid=5607110e-580f-48db-ba88-212c55d8989d","ios":"levelo://app?vid=5607110e-580f-48db-ba88-212c55d8989d"},"vehicle_type_id":"4","last_reported":1730279415,"current_range_meters":7200,"station_id":"ce4bhn12rcd13ifvqgqg","pricing_plan_id":"cebpf4jnsgd1na2vs0mg"},{"bike_id":"a374ab18-c8cc-4f7a-810c-cb9e611a50df","system_id":"levelo_inurba_marseille","lat":43.26811,"lon":5.40268,"is_reserved":false,"is_disabled":false,"rental_uris":{"android":"levelo://app?vid=a374ab18-c8cc-4f7a-810c-cb9e611a50df","ios":"levelo://app?vid=a374ab18-c8cc-4f7a-810c-cb9e611a50df"},"vehicle_type_id":"4","last_reported":1730279415,"current_range_meters":26800,"station_id":"ce501612rcd8frsf0b60","pricing_plan_id":"cebpf4jnsgd1na2vs0mg"},{"bike_id":"17dedbe8-c1d7-4797-9330-67ab3daf7c0b","system_id":"levelo_inurba_marseille","lat":43.33719,"lon":5.39184,"is_reserved":false,"is_disabled":false,"rental_uris":{"android":"levelo://app?vid=17dedbe8-c1d7-4797-9330-67ab3daf7c0b","ios":"levelo://app?vid=17dedbe8-c1d7-4797-9330-67ab3daf7c0b"},"vehicle_type_id":"4","last_reported":1730279415,"current_range_meters":3600,"station_id":"ce4bhr92rcd13ifvqhsg","pricing_plan_id":"cebpf4jnsgd1na2vs0mg"},{"bike_id":"8538f113-9a4e-4ce6-988d-63e1dd59f486","system_id":"levelo_inurba_marseille","lat":43.29192,"lon":5.35804,"is_reserved":false,"is_disabled":false,"rental_uris":{"android":"levelo://app?vid=8538f113-9a4e-4ce6-988d-63e1dd59f486","ios":"levelo://app?vid=8538f113-9a4e-4ce6-988d-63e1dd59f486"},"vehicle_type_id":"4","last_reported":1730279415,"current_range_meters":30000,"station_id":"ce4bhb12rcd13ifvqel0","pricing_plan_id":"cebpf4jnsgd1na2vs0mg"},{"bike_id":"0c074560-8ac3-46f4-bbf6-3d47e9833728","system_id":"levelo_inurba_marseille","lat":43.24999,"lon":5.3892,"is_reserved":false,"is_disabled":false,"rental_uris":{"android":"levelo://app?vid=0c074560-8ac3-46f4-bbf6-3d47e9833728","ios":"levelo://app?vid=0c074560-8ac3-46f4-bbf6-3d47e9833728"},"vehicle_type_id":"4","last_reported":1730279415,"current_range_meters":38000,"station_id":"ce4bhgp2rcd13ifvqfd0","pricing_plan_id":"cebpf4jnsgd1na2vs0mg"},{"bike_id":"67799606-9ba3-467d-91c8-85de6cad15fb","system_id":"levelo_inurba_marseille","lat":43.29967,"lon":5.37179,"is_reserved":false,"is_disabled":false,"rental_uris":{"android":"levelo://app?vid=67799606-9ba3-467d-91c8-85de6cad15fb","ios":"levelo://app?vid=67799606-9ba3-467d-91c8-85de6cad15fb"},"vehicle_type_id":"4","last_reported":1730279415,"current_range_meters":37600,"station_id":"ce4bgr92rcd13ifvqc7g","pricing_plan_id":"cebpf4jnsgd1na2vs0mg"},{"bike_id":"23cfbedb-6938-4c37-9302-249be55a0302","system_id":"levelo_inurba_marseille","lat":43.30548,"lon":5.36698,"is_reserved":false,"is_disabled":false,"rental_uris":{"android":"levelo://app?vid=23cfbedb-6938-4c37-9302-249be55a0302","ios":"levelo://app?vid=23cfbedb-6938-4c37-9302-249be55a0302"},"vehicle_type_id":"4","last_reported":1730279415,"current_range_meters":14400,"station_id":"ce4bgrp2rcd13ifvqc9g","pricing_plan_id":"cebpf4jnsgd1na2vs0mg"},{"bike_id":"1cd8d7e3-0ce1-40bb-812b-9a4e1822ff6c","system_id":"levelo_inurba_marseille","lat":43.32473,"lon":5.36564,"is_reserved":false,"is_disabled":false,"rental_uris":{"android":"levelo://app?vid=1cd8d7e3-0ce1-40bb-812b-9a4e1822ff6c","ios":"levelo://app?vid=1cd8d7e3-0ce1-40bb-812b-9a4e1822ff6c"},"vehicle_type_id":"4","last_reported":1730279415,"current_range_meters":34800,"station_id":"ce4bhs12rcd13ifvqhvg","pricing_plan_id":"cebpf4jnsgd1na2vs0mg"},{"bike_id":"f6572077-93fc-435f-9911-97eaf2c82e29","system_id":"levelo_inurba_marseille","lat":43.29614,"lon":5.3772,"is_reserved":false,"is_disabled":false,"rental_uris":{"android":"levelo://app?vid=f6572077-93fc-435f-9911-97eaf2c82e29","ios":"levelo://app?vid=f6572077-93fc-435f-9911-97eaf2c82e29"},"vehicle_type_id":"4","last_reported":1730279415,"current_range_meters":38800,"station_id":"ce4bgi92rcd13ifvqb90","pricing_plan_id":"cebpf4jnsgd1na2vs0mg"},{"bike_id":"caf349c8-ed3b-4304-909b-160d602b00a5","system_id":"levelo_inurba_marseille","lat":43.317043,"lon":5.377535,"is_reserved":false,"is_disabled":false,"rental_uris":{"android":"levelo://app?vid=caf349c8-ed3b-4304-909b-160d602b00a5","ios":"levelo://app?vid=caf349c8-ed3b-4304-909b-160d602b00a5"},"vehicle_type_id":"4","last_reported":1730279415,"current_range_meters":5600,"station_id":"ce4bgth2rcd13ifvqch0","pricing_plan_id":"cebpf4jnsgd1na2vs0mg"},{"bike_id":"74df42bc-22c9-4384-8bbc-4904bc13c3d1","system_id":"levelo_inurba_marseille","lat":43.31441,"lon":5.37381,"is_reserved":false,"is_disabled":false,"rental_uris":{"android":"levelo://app?vid=74df42bc-22c9-4384-8bbc-4904bc13c3d1","ios":"levelo://app?vid=74df42bc-22c9-4384-8bbc-4904bc13c3d1"},"vehicle_type_id":"4","last_reported":1730279415,"current_range_meters":33600,"station_id":"","pricing_plan_id":"cebpf4jnsgd1na2vs0mg"},{"bike_id":"8d1620e7-e5ab-4df0-827f-1b7a5189e865","system_id":"levelo_inurba_marseille","lat":43.27998,"lon":5.40008,"is_reserved":false,"is_disabled":false,"rental_uris":{"android":"levelo://app?vid=8d1620e7-e5ab-4df0-827f-1b7a5189e865","ios":"levelo://app?vid=8d1620e7-e5ab-4df0-827f-1b7a5189e865"},"vehicle_type_id":"4","last_reported":1730279415,"current_range_meters":38400,"station_id":"ce4bho92rcd13ifvqh4g","pricing_plan_id":"cebpf4jnsgd1na2vs0mg"},{"bike_id":"82a16fa2-3542-4820-b609-018ed6790cc4","system_id":"levelo_inurba_marseille","lat":43.25572,"lon":5.38236,"is_reserved":false,"is_disabled":false,"rental_uris":{"android":"levelo://app?vid=82a16fa2-3542-4820-b609-018ed6790cc4","ios":"levelo://app?vid=82a16fa2-3542-4820-b609-018ed6790cc4"},"vehicle_type_id":"4","last_reported":1730279415,"current_range_meters":35200,"station_id":"ce4bhih2rcd13ifvqfs0","pricing_plan_id":"cebpf4jnsgd1na2vs0mg"},{"bike_id":"70de08c1-93f1-4655-a164-14607e7094d4","system_id":"levelo_inurba_marseille","lat":43.30147,"lon":5.37419,"is_reserved":false,"is_disabled":false,"rental_uris":{"android":"levelo://app?vid=70de08c1-93f1-4655-a164-14607e7094d4","ios":"levelo://app?vid=70de08c1-93f1-4655-a164-14607e7094d4"},"vehicle_type_id":"4","last_reported":1730279415,"current_range_meters":38800,"station_id":"ce4bgs92rcd13ifvqcc0","pricing_plan_id":"cebpf4jnsgd1na2vs0mg"},{"bike_id":"83e8370a-0578-402b-b179-be4cd80c393d","system_id":"levelo_inurba_marseille","lat":43.31362,"lon":5.38502,"is_reserved":false,"is_disabled":false,"rental_uris":{"android":"levelo://app?vid=83e8370a-0578-402b-b179-be4cd80c393d","ios":"levelo://app?vid=83e8370a-0578-402b-b179-be4cd80c393d"},"vehicle_type_id":"4","last_reported":1730279415,"current_range_meters":36000,"station_id":"ce4bgt92rcd13ifvqcf0","pricing_plan_id":"cebpf4jnsgd1na2vs0mg"},{"bike_id":"cdec57fc-4a46-44d5-88fb-805e706d005b","system_id":"levelo_inurba_marseille","lat":43.31081,"lon":5.42431,"is_reserved":false,"is_disabled":false,"rental_uris":{"android":"levelo://app?vid=cdec57fc-4a46-44d5-88fb-805e706d005b","ios":"levelo://app?vid=cdec57fc-4a46-44d5-88fb-805e706d005b"},"vehicle_type_id":"4","last_reported":1730279415,"current_range_meters":28000,"station_id":"ce4bhp92rcd13ifvqhag","pricing_plan_id":"cebpf4jnsgd1na2vs0mg"},{"bike_id":"f84f5bc1-6581-47d2-ab25-c5875cdac456","system_id":"levelo_inurba_marseille","lat":43.30467,"lon":5.37904,"is_reserved":false,"is_disabled":false,"rental_uris":{"android":"levelo://app?vid=f84f5bc1-6581-47d2-ab25-c5875cdac456","ios":"levelo://app?vid=f84f5bc1-6581-47d2-ab25-c5875cdac456"},"vehicle_type_id":"4","last_reported":1730279415,"current_range_meters":11600,"station_id":"ce4bgup2rcd13ifvqcn0","pricing_plan_id":"cebpf4jnsgd1na2vs0mg"},{"bike_id":"b064c4d6-367c-48e1-ba77-b9d395acae51","system_id":"levelo_inurba_marseille","lat":43.30464,"lon":5.37897,"is_reserved":false,"is_disabled":false,"rental_uris":{"android":"levelo://app?vid=b064c4d6-367c-48e1-ba77-b9d395acae51","ios":"levelo://app?vid=b064c4d6-367c-48e1-ba77-b9d395acae51"},"vehicle_type_id":"4","last_reported":1730279415,"current_range_meters":26800,"station_id":"ce4bgup2rcd13ifvqcn0","pricing_plan_id":"cebpf4jnsgd1na2vs0mg"},{"bike_id":"9aa03e55-bd49-4c1b-8b0a-4561f0a5d817","system_id":"levelo_inurba_marseille","lat":43.2884,"lon":5.35853,"is_reserved":false,"is_disabled":false,"rental_uris":{"android":"levelo://app?vid=9aa03e55-bd49-4c1b-8b0a-4561f0a5d817","ios":"levelo://app?vid=9aa03e55-bd49-4c1b-8b0a-4561f0a5d817"},"vehicle_type_id":"4","last_reported":1730279415,"current_range_meters":33600,"station_id":"ce4bhb12rcd13ifvqem0","pricing_plan_id":"cebpf4jnsgd1na2vs0mg"},{"bike_id":"e68ce33f-f1a1-4e57-9764-2f2b65f5c8c3","system_id":"levelo_inurba_marseille","lat":43.27183,"lon":5.40992,"is_reserved":false,"is_disabled":false,"rental_uris":{"android":"levelo://app?vid=e68ce33f-f1a1-4e57-9764-2f2b65f5c8c3","ios":"levelo://app?vid=e68ce33f-f1a1-4e57-9764-2f2b65f5c8c3"},"vehicle_type_id":"4","last_reported":1730279415,"current_range_meters":27600,"station_id":"ce4bhl12rcd13ifvqgf0","pricing_plan_id":"cebpf4jnsgd1na2vs0mg"},{"bike_id":"c2ca085f-b204-4824-8fac-269bf8983484","system_id":"levelo_inurba_marseille","lat":43.27612,"lon":5.36118,"is_reserved":false,"is_disabled":false,"rental_uris":{"android":"levelo://app?vid=c2ca085f-b204-4824-8fac-269bf8983484","ios":"levelo://app?vid=c2ca085f-b204-4824-8fac-269bf8983484"},"vehicle_type_id":"4","last_reported":1730279415,"current_range_meters":34000,"station_id":"ce4bgj92rcd13ifvqbe0","pricing_plan_id":"cebpf4jnsgd1na2vs0mg"},{"bike_id":"c2553efc-7e70-4c97-9521-c60d310dbf9e","system_id":"levelo_inurba_marseille","lat":43.26682,"lon":5.38266,"is_reserved":false,"is_disabled":false,"rental_uris":{"android":"levelo://app?vid=c2553efc-7e70-4c97-9521-c60d310dbf9e","ios":"levelo://app?vid=c2553efc-7e70-4c97-9521-c60d310dbf9e"},"vehicle_type_id":"4","last_reported":1730279415,"current_range_meters":31200,"station_id":"ce4bhg92rcd13ifvqf90","pricing_plan_id":"cebpf4jnsgd1na2vs0mg"},{"bike_id":"34630d18-75dd-4aec-9bb1-0ce7aab0afdf","system_id":"levelo_inurba_marseille","lat":43.24663,"lon":5.38163,"is_reserved":false,"is_disabled":false,"rental_uris":{"android":"levelo://app?vid=34630d18-75dd-4aec-9bb1-0ce7aab0afdf","ios":"levelo://app?vid=34630d18-75dd-4aec-9bb1-0ce7aab0afdf"},"vehicle_type_id":"4","last_reported":1730279415,"current_range_meters":39200,"station_id":"ce4bhih2rcd13ifvqfr0","pricing_plan_id":"cebpf4jnsgd1na2vs0mg"},{"bike_id":"fca70fb1-2c2b-46bb-a35c-c4971041e2df","system_id":"levelo_inurba_marseille","lat":43.231873,"lon":5.399769,"is_reserved":false,"is_disabled":false,"rental_uris":{"android":"levelo://app?vid=fca70fb1-2c2b-46bb-a35c-c4971041e2df","ios":"levelo://app?vid=fca70fb1-2c2b-46bb-a35c-c4971041e2df"},"vehicle_type_id":"4","last_reported":1730279415,"current_range_meters":22000,"station_id":"ce4bhn12rcd13ifvqgqg","pricing_plan_id":"cebpf4jnsgd1na2vs0mg"},{"bike_id":"94ddc1d2-b94e-412d-840b-da90f0ce712c","system_id":"levelo_inurba_marseille","lat":43.30537,"lon":5.3654,"is_reserved":false,"is_disabled":false,"rental_uris":{"android":"levelo://app?vid=94ddc1d2-b94e-412d-840b-da90f0ce712c","ios":"levelo://app?vid=94ddc1d2-b94e-412d-840b-da90f0ce712c"},"vehicle_type_id":"4","last_reported":1730279415,"current_range_meters":39200,"station_id":"ce4bgs12rcd13ifvqcag","pricing_plan_id":"cebpf4jnsgd1na2vs0mg"},{"bike_id":"c5ab8f86-3c93-447c-b767-f885bdebd2ff","system_id":"levelo_inurba_marseille","lat":43.27065,"lon":5.42274,"is_reserved":false,"is_disabled":false,"rental_uris":{"android":"levelo://app?vid=c5ab8f86-3c93-447c-b767-f885bdebd2ff","ios":"levelo://app?vid=c5ab8f86-3c93-447c-b767-f885bdebd2ff"},"vehicle_type_id":"4","last_reported":1730279415,"current_range_meters":39200,"station_id":"ce4bhk92rcd13ifvqgb0","pricing_plan_id":"cebpf4jnsgd1na2vs0mg"},{"bike_id":"420fd99a-631e-44cf-8b76-74506f7821ab","system_id":"levelo_inurba_marseille","lat":43.26433,"lon":5.40637,"is_reserved":false,"is_disabled":false,"rental_uris":{"android":"levelo://app?vid=420fd99a-631e-44cf-8b76-74506f7821ab","ios":"levelo://app?vid=420fd99a-631e-44cf-8b76-74506f7821ab"},"vehicle_type_id":"4","last_reported":1730279415,"current_range_meters":36000,"station_id":"ce501612rcd8frsf0b60","pricing_plan_id":"cebpf4jnsgd1na2vs0mg"},{"bike_id":"6bfb62a6-63c3-4bd5-8676-7b2f3dd6580d","system_id":"levelo_inurba_marseille","lat":43.28149,"lon":5.42639,"is_reserved":false,"is_disabled":false,"rental_uris":{"android":"levelo://app?vid=6bfb62a6-63c3-4bd5-8676-7b2f3dd6580d","ios":"levelo://app?vid=6bfb62a6-63c3-4bd5-8676-7b2f3dd6580d"},"vehicle_type_id":"4","last_reported":1730279415,"current_range_meters":14000,"station_id":"ce4bhnh2rcd13ifvqgug","pricing_plan_id":"cebpf4jnsgd1na2vs0mg"},{"bike_id":"70bb78fe-4bef-4d56-a833-affc0bdfc9f3","system_id":"levelo_inurba_marseille","lat":43.23193,"lon":5.35555,"is_reserved":false,"is_disabled":false,"rental_uris":{"android":"levelo://app?vid=70bb78fe-4bef-4d56-a833-affc0bdfc9f3","ios":"levelo://app?vid=70bb78fe-4bef-4d56-a833-affc0bdfc9f3"},"vehicle_type_id":"4","last_reported":1730279415,"current_range_meters":37600,"station_id":"ce4bhu92rcd13ifvqi70","pricing_plan_id":"cebpf4jnsgd1na2vs0mg"},{"bike_id":"7b48dd76-9cf8-430f-a07d-cd75cf7ca1bd","system_id":"levelo_inurba_marseille","lat":43.25002,"lon":5.3892,"is_reserved":false,"is_disabled":false,"rental_uris":{"android":"levelo://app?vid=7b48dd76-9cf8-430f-a07d-cd75cf7ca1bd","ios":"levelo://app?vid=7b48dd76-9cf8-430f-a07d-cd75cf7ca1bd"},"vehicle_type_id":"4","last_reported":1730279415,"current_range_meters":32000,"station_id":"ce4bhgp2rcd13ifvqfd0","pricing_plan_id":"cebpf4jnsgd1na2vs0mg"},{"bike_id":"d608461b-25f3-447e-b28f-b2914942a9ce","system_id":"levelo_inurba_marseille","lat":43.29014,"lon":5.38137,"is_reserved":false,"is_disabled":false,"rental_uris":{"android":"levelo://app?vid=d608461b-25f3-447e-b28f-b2914942a9ce","ios":"levelo://app?vid=d608461b-25f3-447e-b28f-b2914942a9ce"},"vehicle_type_id":"4","last_reported":1730279415,"current_range_meters":28800,"station_id":"ce4bh4p2rcd13ifvqe1g","pricing_plan_id":"cebpf4jnsgd1na2vs0mg"},{"bike_id":"9c4e8573-fe6e-4614-b7af-9a36717ed9b9","system_id":"levelo_inurba_marseille","lat":43.279103,"lon":5.3958,"is_reserved":false,"is_disabled":false,"rental_uris":{"android":"levelo://app?vid=9c4e8573-fe6e-4614-b7af-9a36717ed9b9","ios":"levelo://app?vid=9c4e8573-fe6e-4614-b7af-9a36717ed9b9"},"vehicle_type_id":"4","last_reported":1730279415,"current_range_meters":23200,"station_id":"ce4bhf92rcd13ifvqf40","pricing_plan_id":"cebpf4jnsgd1na2vs0mg"},{"bike_id":"5c244c3d-8fd7-4c95-b825-2f7fe2f15994","system_id":"levelo_inurba_marseille","lat":43.23193,"lon":5.35547,"is_reserved":false,"is_disabled":false,"rental_uris":{"android":"levelo://app?vid=5c244c3d-8fd7-4c95-b825-2f7fe2f15994","ios":"levelo://app?vid=5c244c3d-8fd7-4c95-b825-2f7fe2f15994"},"vehicle_type_id":"4","last_reported":1730279415,"current_range_meters":39200,"station_id":"ce4bhu92rcd13ifvqi70","pricing_plan_id":"cebpf4jnsgd1na2vs0mg"},{"bike_id":"5efd5148-f738-4c82-8164-c1739863b28d","system_id":"levelo_inurba_marseille","lat":43.26941,"lon":5.40241,"is_reserved":false,"is_disabled":false,"rental_uris":{"android":"levelo://app?vid=5efd5148-f738-4c82-8164-c1739863b28d","ios":"levelo://app?vid=5efd5148-f738-4c82-8164-c1739863b28d"},"vehicle_type_id":"4","last_reported":1730279415,"current_range_meters":16400,"station_id":"cjm6bp8fraef2m0cb0m0","pricing_plan_id":"cebpf4jnsgd1na2vs0mg"},{"bike_id":"e10ff328-93b2-4d6a-af26-12f189d78479","system_id":"levelo_inurba_marseille","lat":43.33723,"lon":5.39181,"is_reserved":false,"is_disabled":false,"rental_uris":{"android":"levelo://app?vid=e10ff328-93b2-4d6a-af26-12f189d78479","ios":"levelo://app?vid=e10ff328-93b2-4d6a-af26-12f189d78479"},"vehicle_type_id":"4","last_reported":1730279415,"current_range_meters":38800,"station_id":"ce4bhr92rcd13ifvqhsg","pricing_plan_id":"cebpf4jnsgd1na2vs0mg"},{"bike_id":"8fe952c7-d1f5-486e-a32b-0e7b70cce917","system_id":"levelo_inurba_marseille","lat":43.32358,"lon":5.38884,"is_reserved":false,"is_disabled":false,"rental_uris":{"android":"levelo://app?vid=8fe952c7-d1f5-486e-a32b-0e7b70cce917","ios":"levelo://app?vid=8fe952c7-d1f5-486e-a32b-0e7b70cce917"},"vehicle_type_id":"4","last_reported":1730279415,"current_range_meters":30800,"station_id":"ce4bhqp2rcd13ifvqhog","pricing_plan_id":"cebpf4jnsgd1na2vs0mg"},{"bike_id":"ee25898e-1a32-40b2-9b00-4218c7c2270d","system_id":"levelo_inurba_marseille","lat":43.34147,"lon":5.40896,"is_reserved":false,"is_disabled":false,"rental_uris":{"android":"levelo://app?vid=ee25898e-1a32-40b2-9b00-4218c7c2270d","ios":"levelo://app?vid=ee25898e-1a32-40b2-9b00-4218c7c2270d"},"vehicle_type_id":"4","last_reported":1730279415,"current_range_meters":35200,"station_id":"ce4bhqh2rcd13ifvqhlg","pricing_plan_id":"cebpf4jnsgd1na2vs0mg"},{"bike_id":"a89b106d-c548-4716-8a78-2f5707e266e5","system_id":"levelo_inurba_marseille","lat":43.29085,"lon":5.38169,"is_reserved":false,"is_disabled":false,"rental_uris":{"android":"levelo://app?vid=a89b106d-c548-4716-8a78-2f5707e266e5","ios":"levelo://app?vid=a89b106d-c548-4716-8a78-2f5707e266e5"},"vehicle_type_id":"4","last_reported":1730279415,"current_range_meters":20400,"station_id":"ce4bh512rcd13ifvqe2g","pricing_plan_id":"cebpf4jnsgd1na2vs0mg"},{"bike_id":"c6472a4b-15fb-475c-a800-9db188055ce2","system_id":"levelo_inurba_marseille","lat":43.25827,"lon":5.39436,"is_reserved":false,"is_disabled":false,"rental_uris":{"android":"levelo://app?vid=c6472a4b-15fb-475c-a800-9db188055ce2","ios":"levelo://app?vid=c6472a4b-15fb-475c-a800-9db188055ce2"},"vehicle_type_id":"4","last_reported":1730279415,"current_range_meters":13600,"station_id":"ce4bhip2rcd13ifvqft0","pricing_plan_id":"cebpf4jnsgd1na2vs0mg"},{"bike_id":"c3a8a830-bb26-4e00-a505-997ee2e5456f","system_id":"levelo_inurba_marseille","lat":43.305237,"lon":5.384229,"is_reserved":false,"is_disabled":false,"rental_uris":{"android":"levelo://app?vid=c3a8a830-bb26-4e00-a505-997ee2e5456f","ios":"levelo://app?vid=c3a8a830-bb26-4e00-a505-997ee2e5456f"},"vehicle_type_id":"4","last_reported":1730279415,"current_range_meters":37600,"station_id":"","pricing_plan_id":"cebpf4jnsgd1na2vs0mg"},{"bike_id":"7e9f2643-94b5-4caa-b369-25f6b421e15a","system_id":"levelo_inurba_marseille","lat":43.30545,"lon":5.36529,"is_reserved":false,"is_disabled":false,"rental_uris":{"android":"levelo://app?vid=7e9f2643-94b5-4caa-b369-25f6b421e15a","ios":"levelo://app?vid=7e9f2643-94b5-4caa-b369-25f6b421e15a"},"vehicle_type_id":"4","last_reported":1730279415,"current_range_meters":38800,"station_id":"ce4bgs12rcd13ifvqcag","pricing_plan_id":"cebpf4jnsgd1na2vs0mg"},{"bike_id":"5605e7e8-7b5f-4b34-8547-b7b667c952c4","system_id":"levelo_inurba_marseille","lat":43.24677,"lon":5.38153,"is_reserved":false,"is_disabled":false,"rental_uris":{"android":"levelo://app?vid=5605e7e8-7b5f-4b34-8547-b7b667c952c4","ios":"levelo://app?vid=5605e7e8-7b5f-4b34-8547-b7b667c952c4"},"vehicle_type_id":"4","last_reported":1730279415,"current_range_meters":27200,"station_id":"ce4bhih2rcd13ifvqfr0","pricing_plan_id":"cebpf4jnsgd1na2vs0mg"},{"bike_id":"56dc04b7-06b7-4e88-ac29-730a7abdd49b","system_id":"levelo_inurba_marseille","lat":43.31361,"lon":5.38492,"is_reserved":false,"is_disabled":false,"rental_uris":{"android":"levelo://app?vid=56dc04b7-06b7-4e88-ac29-730a7abdd49b","ios":"levelo://app?vid=56dc04b7-06b7-4e88-ac29-730a7abdd49b"},"vehicle_type_id":"4","last_reported":1730279415,"current_range_meters":38000,"station_id":"ce4bgt92rcd13ifvqcf0","pricing_plan_id":"cebpf4jnsgd1na2vs0mg"},{"bike_id":"ee9927da-db62-4b18-894c-b5fe829dc733","system_id":"levelo_inurba_marseille","lat":43.30904,"lon":5.36854,"is_reserved":false,"is_disabled":false,"rental_uris":{"android":"levelo://app?vid=ee9927da-db62-4b18-894c-b5fe829dc733","ios":"levelo://app?vid=ee9927da-db62-4b18-894c-b5fe829dc733"},"vehicle_type_id":"4","last_reported":1730279415,"current_range_meters":38800,"station_id":"ce4bgn92rcd13ifvqbvg","pricing_plan_id":"cebpf4jnsgd1na2vs0mg"},{"bike_id":"92adf987-4779-4b78-ad9c-8e29ab9175f3","system_id":"levelo_inurba_marseille","lat":43.23188,"lon":5.35557,"is_reserved":false,"is_disabled":false,"rental_uris":{"android":"levelo://app?vid=92adf987-4779-4b78-ad9c-8e29ab9175f3","ios":"levelo://app?vid=92adf987-4779-4b78-ad9c-8e29ab9175f3"},"vehicle_type_id":"4","last_reported":1730279415,"current_range_meters":14000,"station_id":"ce4bhu92rcd13ifvqi70","pricing_plan_id":"cebpf4jnsgd1na2vs0mg"},{"bike_id":"9bd1f4ea-9c55-4339-bfd3-d2b9bc835d01","system_id":"levelo_inurba_marseille","lat":43.28603,"lon":5.37069,"is_reserved":false,"is_disabled":false,"rental_uris":{"android":"levelo://app?vid=9bd1f4ea-9c55-4339-bfd3-d2b9bc835d01","ios":"levelo://app?vid=9bd1f4ea-9c55-4339-bfd3-d2b9bc835d01"},"vehicle_type_id":"4","last_reported":1730279415,"current_range_meters":30000,"station_id":"ce4bht12rcd13ifvqi60","pricing_plan_id":"cebpf4jnsgd1na2vs0mg"},{"bike_id":"e546b065-2350-4d25-89c1-48d33eb67c39","system_id":"levelo_inurba_marseille","lat":43.30149,"lon":5.37418,"is_reserved":false,"is_disabled":false,"rental_uris":{"android":"levelo://app?vid=e546b065-2350-4d25-89c1-48d33eb67c39","ios":"levelo://app?vid=e546b065-2350-4d25-89c1-48d33eb67c39"},"vehicle_type_id":"4","last_reported":1730279415,"current_range_meters":38800,"station_id":"ce4bgs92rcd13ifvqcc0","pricing_plan_id":"cebpf4jnsgd1na2vs0mg"},{"bike_id":"c03f3456-93bb-418a-8ce0-ca351e254b4e","system_id":"levelo_inurba_marseille","lat":43.31756,"lon":5.39014,"is_reserved":false,"is_disabled":false,"rental_uris":{"android":"levelo://app?vid=c03f3456-93bb-418a-8ce0-ca351e254b4e","ios":"levelo://app?vid=c03f3456-93bb-418a-8ce0-ca351e254b4e"},"vehicle_type_id":"4","last_reported":1730279415,"current_range_meters":38000,"station_id":"ce4bhqp2rcd13ifvqhng","pricing_plan_id":"cebpf4jnsgd1na2vs0mg"},{"bike_id":"3f42b5bf-2a79-45d5-b497-6ae8dd1c3625","system_id":"levelo_inurba_marseille","lat":43.27908,"lon":5.39585,"is_reserved":false,"is_disabled":false,"rental_uris":{"android":"levelo://app?vid=3f42b5bf-2a79-45d5-b497-6ae8dd1c3625","ios":"levelo://app?vid=3f42b5bf-2a79-45d5-b497-6ae8dd1c3625"},"vehicle_type_id":"4","last_reported":1730279415,"current_range_meters":38400,"station_id":"ce4bhf92rcd13ifvqf40","pricing_plan_id":"cebpf4jnsgd1na2vs0mg"},{"bike_id":"6084bb8b-15a8-4039-8d98-d9914b85d883","system_id":"levelo_inurba_marseille","lat":43.26203,"lon":5.37927,"is_reserved":false,"is_disabled":false,"rental_uris":{"android":"levelo://app?vid=6084bb8b-15a8-4039-8d98-d9914b85d883","ios":"levelo://app?vid=6084bb8b-15a8-4039-8d98-d9914b85d883"},"vehicle_type_id":"4","last_reported":1730279415,"current_range_meters":38800,"station_id":"ce4bhjp2rcd13ifvqg90","pricing_plan_id":"cebpf4jnsgd1na2vs0mg"},{"bike_id":"1b0e2bab-c76a-4b02-87ab-e2dcd0cfc1cd","system_id":"levelo_inurba_marseille","lat":43.25108,"lon":5.40324,"is_reserved":false,"is_disabled":false,"rental_uris":{"android":"levelo://app?vid=1b0e2bab-c76a-4b02-87ab-e2dcd0cfc1cd","ios":"levelo://app?vid=1b0e2bab-c76a-4b02-87ab-e2dcd0cfc1cd"},"vehicle_type_id":"4","last_reported":1730279415,"current_range_meters":10800,"station_id":"ce4bhlh2rcd13ifvqgig","pricing_plan_id":"cebpf4jnsgd1na2vs0mg"},{"bike_id":"269a4193-03a6-4fe1-93c0-2b8610ca1e7f","system_id":"levelo_inurba_marseille","lat":43.24384,"lon":5.37051,"is_reserved":false,"is_disabled":false,"rental_uris":{"android":"levelo://app?vid=269a4193-03a6-4fe1-93c0-2b8610ca1e7f","ios":"levelo://app?vid=269a4193-03a6-4fe1-93c0-2b8610ca1e7f"},"vehicle_type_id":"4","last_reported":1730279415,"current_range_meters":18800,"station_id":"ce4bhhh2rcd13ifvqfk0","pricing_plan_id":"cebpf4jnsgd1na2vs0mg"},{"bike_id":"5f36e21e-3fd0-47c8-ba59-6a4eedf4dbd2","system_id":"levelo_inurba_marseille","lat":43.28471,"lon":5.38412,"is_reserved":false,"is_disabled":false,"rental_uris":{"android":"levelo://app?vid=5f36e21e-3fd0-47c8-ba59-6a4eedf4dbd2","ios":"levelo://app?vid=5f36e21e-3fd0-47c8-ba59-6a4eedf4dbd2"},"vehicle_type_id":"4","last_reported":1730279415,"current_range_meters":31200,"station_id":"ce4bh512rcd13ifvqe3g","pricing_plan_id":"cebpf4jnsgd1na2vs0mg"},{"bike_id":"3928d2b2-5322-4bfc-935c-f02931565366","system_id":"levelo_inurba_marseille","lat":43.27992,"lon":5.41656,"is_reserved":false,"is_disabled":false,"rental_uris":{"android":"levelo://app?vid=3928d2b2-5322-4bfc-935c-f02931565366","ios":"levelo://app?vid=3928d2b2-5322-4bfc-935c-f02931565366"},"vehicle_type_id":"4","last_reported":1730279415,"current_range_meters":11200,"station_id":"ce4bho12rcd13ifvqh1g","pricing_plan_id":"cebpf4jnsgd1na2vs0mg"},{"bike_id":"1cac7801-6ba9-4831-9414-21a3ea12fbd0","system_id":"levelo_inurba_marseille","lat":43.30532,"lon":5.36704,"is_reserved":false,"is_disabled":false,"rental_uris":{"android":"levelo://app?vid=1cac7801-6ba9-4831-9414-21a3ea12fbd0","ios":"levelo://app?vid=1cac7801-6ba9-4831-9414-21a3ea12fbd0"},"vehicle_type_id":"4","last_reported":1730279415,"current_range_meters":36000,"station_id":"ce4bgrp2rcd13ifvqc9g","pricing_plan_id":"cebpf4jnsgd1na2vs0mg"},{"bike_id":"87d4cda7-2b7e-47cf-854a-98224e62b405","system_id":"levelo_inurba_marseille","lat":43.3122,"lon":5.36879,"is_reserved":false,"is_disabled":false,"rental_uris":{"android":"levelo://app?vid=87d4cda7-2b7e-47cf-854a-98224e62b405","ios":"levelo://app?vid=87d4cda7-2b7e-47cf-854a-98224e62b405"},"vehicle_type_id":"4","last_reported":1730279415,"current_range_meters":38400,"station_id":"ce4bgl92rcd13ifvqbq0","pricing_plan_id":"cebpf4jnsgd1na2vs0mg"},{"bike_id":"4f05da02-5206-4154-9bf8-586b78a2b501","system_id":"levelo_inurba_marseille","lat":43.30532,"lon":5.36701,"is_reserved":false,"is_disabled":false,"rental_uris":{"android":"levelo://app?vid=4f05da02-5206-4154-9bf8-586b78a2b501","ios":"levelo://app?vid=4f05da02-5206-4154-9bf8-586b78a2b501"},"vehicle_type_id":"4","last_reported":1730279415,"current_range_meters":38800,"station_id":"ce4bgrp2rcd13ifvqc9g","pricing_plan_id":"cebpf4jnsgd1na2vs0mg"},{"bike_id":"eab9993c-1eac-440c-a364-251a7aed1e47","system_id":"levelo_inurba_marseille","lat":43.30954,"lon":5.39034,"is_reserved":false,"is_disabled":false,"rental_uris":{"android":"levelo://app?vid=eab9993c-1eac-440c-a364-251a7aed1e47","ios":"levelo://app?vid=eab9993c-1eac-440c-a364-251a7aed1e47"},"vehicle_type_id":"4","last_reported":1730279415,"current_range_meters":28000,"station_id":"ce4bgup2rcd13ifvqco0","pricing_plan_id":"cebpf4jnsgd1na2vs0mg"},{"bike_id":"2c665996-2d2c-41d7-bfd5-5c7e8f4cfd7b","system_id":"levelo_inurba_marseille","lat":43.30955,"lon":5.39037,"is_reserved":false,"is_disabled":false,"rental_uris":{"android":"levelo://app?vid=2c665996-2d2c-41d7-bfd5-5c7e8f4cfd7b","ios":"levelo://app?vid=2c665996-2d2c-41d7-bfd5-5c7e8f4cfd7b"},"vehicle_type_id":"4","last_reported":1730279415,"current_range_meters":12400,"station_id":"ce4bgup2rcd13ifvqco0","pricing_plan_id":"cebpf4jnsgd1na2vs0mg"},{"bike_id":"defdda9f-a11b-4b2f-8fc8-580691ee0a13","system_id":"levelo_inurba_marseille","lat":43.30553,"lon":5.36534,"is_reserved":false,"is_disabled":false,"rental_uris":{"android":"levelo://app?vid=defdda9f-a11b-4b2f-8fc8-580691ee0a13","ios":"levelo://app?vid=defdda9f-a11b-4b2f-8fc8-580691ee0a13"},"vehicle_type_id":"4","last_reported":1730279415,"current_range_meters":38800,"station_id":"ce4bgs12rcd13ifvqcag","pricing_plan_id":"cebpf4jnsgd1na2vs0mg"},{"bike_id":"c1b9fa0c-e0b0-4d90-965f-49343b4b8c16","system_id":"levelo_inurba_marseille","lat":43.31227,"lon":5.36864,"is_reserved":false,"is_disabled":false,"rental_uris":{"android":"levelo://app?vid=c1b9fa0c-e0b0-4d90-965f-49343b4b8c16","ios":"levelo://app?vid=c1b9fa0c-e0b0-4d90-965f-49343b4b8c16"},"vehicle_type_id":"4","last_reported":1730279415,"current_range_meters":37600,"station_id":"ce4bgl92rcd13ifvqbq0","pricing_plan_id":"cebpf4jnsgd1na2vs0mg"},{"bike_id":"a499e673-4f57-4342-9063-be4db69af0ba","system_id":"levelo_inurba_marseille","lat":43.31494,"lon":5.37299,"is_reserved":false,"is_disabled":false,"rental_uris":{"android":"levelo://app?vid=a499e673-4f57-4342-9063-be4db69af0ba","ios":"levelo://app?vid=a499e673-4f57-4342-9063-be4db69af0ba"},"vehicle_type_id":"4","last_reported":1730279415,"current_range_meters":38400,"station_id":"ce4bgt12rcd13ifvqcd0","pricing_plan_id":"cebpf4jnsgd1na2vs0mg"},{"bike_id":"54454bef-56f4-4fd7-9cf7-c57a75a8c623","system_id":"levelo_inurba_marseille","lat":43.3171,"lon":5.37759,"is_reserved":false,"is_disabled":false,"rental_uris":{"android":"levelo://app?vid=54454bef-56f4-4fd7-9cf7-c57a75a8c623","ios":"levelo://app?vid=54454bef-56f4-4fd7-9cf7-c57a75a8c623"},"vehicle_type_id":"4","last_reported":1730279415,"current_range_meters":38800,"station_id":"ce4bgth2rcd13ifvqch0","pricing_plan_id":"cebpf4jnsgd1na2vs0mg"},{"bike_id":"229fe1cc-769d-4681-b148-482deb7df7c1","system_id":"levelo_inurba_marseille","lat":43.2794,"lon":5.41036,"is_reserved":false,"is_disabled":false,"rental_uris":{"android":"levelo://app?vid=229fe1cc-769d-4681-b148-482deb7df7c1","ios":"levelo://app?vid=229fe1cc-769d-4681-b148-482deb7df7c1"},"vehicle_type_id":"4","last_reported":1730279415,"current_range_meters":25600,"station_id":"ce4bhnp2rcd13ifvqh0g","pricing_plan_id":"cebpf4jnsgd1na2vs0mg"},{"bike_id":"0654c497-4be7-4675-a9e6-72a505c542ad","system_id":"levelo_inurba_marseille","lat":43.33725,"lon":5.39183,"is_reserved":false,"is_disabled":false,"rental_uris":{"android":"levelo://app?vid=0654c497-4be7-4675-a9e6-72a505c542ad","ios":"levelo://app?vid=0654c497-4be7-4675-a9e6-72a505c542ad"},"vehicle_type_id":"4","last_reported":1730279415,"current_range_meters":29600,"station_id":"ce4bhr92rcd13ifvqhsg","pricing_plan_id":"cebpf4jnsgd1na2vs0mg"},{"bike_id":"2370a04e-d358-4a29-b67a-890bf50b34fd","system_id":"levelo_inurba_marseille","lat":43.24168,"lon":5.36399,"is_reserved":false,"is_disabled":false,"rental_uris":{"android":"levelo://app?vid=2370a04e-d358-4a29-b67a-890bf50b34fd","ios":"levelo://app?vid=2370a04e-d358-4a29-b67a-890bf50b34fd"},"vehicle_type_id":"4","last_reported":1730279415,"current_range_meters":7200,"station_id":"cpo36qri1sfpv3e86is0","pricing_plan_id":"cebpf4jnsgd1na2vs0mg"},{"bike_id":"a229a8e4-b487-4ce6-880f-8ce6175737ff","system_id":"levelo_inurba_marseille","lat":43.27058,"lon":5.40256,"is_reserved":false,"is_disabled":false,"rental_uris":{"android":"levelo://app?vid=a229a8e4-b487-4ce6-880f-8ce6175737ff","ios":"levelo://app?vid=a229a8e4-b487-4ce6-880f-8ce6175737ff"},"vehicle_type_id":"4","last_reported":1730279415,"current_range_meters":38800,"station_id":"ce4bhk92rcd13ifvqgc0","pricing_plan_id":"cebpf4jnsgd1na2vs0mg"},{"bike_id":"15d8dcfc-68bd-4961-8f0c-139ae8a6663c","system_id":"levelo_inurba_marseille","lat":43.29302,"lon":5.37452,"is_reserved":false,"is_disabled":false,"rental_uris":{"android":"levelo://app?vid=15d8dcfc-68bd-4961-8f0c-139ae8a6663c","ios":"levelo://app?vid=15d8dcfc-68bd-4961-8f0c-139ae8a6663c"},"vehicle_type_id":"4","last_reported":1730279415,"current_range_meters":38800,"station_id":"ce4bgi12rcd13ifvqb70","pricing_plan_id":"cebpf4jnsgd1na2vs0mg"},{"bike_id":"767555bf-3af2-492a-8c45-114526287e8f","system_id":"levelo_inurba_marseille","lat":43.30542,"lon":5.36536,"is_reserved":false,"is_disabled":false,"rental_uris":{"android":"levelo://app?vid=767555bf-3af2-492a-8c45-114526287e8f","ios":"levelo://app?vid=767555bf-3af2-492a-8c45-114526287e8f"},"vehicle_type_id":"4","last_reported":1730279415,"current_range_meters":35200,"station_id":"ce4bgs12rcd13ifvqcag","pricing_plan_id":"cebpf4jnsgd1na2vs0mg"},{"bike_id":"538c6c97-8738-4e40-afde-1ced2fc6b778","system_id":"levelo_inurba_marseille","lat":43.33726,"lon":5.39179,"is_reserved":false,"is_disabled":false,"rental_uris":{"android":"levelo://app?vid=538c6c97-8738-4e40-afde-1ced2fc6b778","ios":"levelo://app?vid=538c6c97-8738-4e40-afde-1ced2fc6b778"},"vehicle_type_id":"4","last_reported":1730279415,"current_range_meters":36800,"station_id":"ce4bhr92rcd13ifvqhsg","pricing_plan_id":"cebpf4jnsgd1na2vs0mg"},{"bike_id":"80c747ae-f389-44d1-841e-e0ceb68cdb78","system_id":"levelo_inurba_marseille","lat":43.31119,"lon":5.37783,"is_reserved":false,"is_disabled":false,"rental_uris":{"android":"levelo://app?vid=80c747ae-f389-44d1-841e-e0ceb68cdb78","ios":"levelo://app?vid=80c747ae-f389-44d1-841e-e0ceb68cdb78"},"vehicle_type_id":"4","last_reported":1730279415,"current_range_meters":38800,"station_id":"ce4bgt92rcd13ifvqcg0","pricing_plan_id":"cebpf4jnsgd1na2vs0mg"},{"bike_id":"b27e5abe-5e97-4ddf-a6d1-ccce3b418d7d","system_id":"levelo_inurba_marseille","lat":43.29892,"lon":5.38153,"is_reserved":false,"is_disabled":false,"rental_uris":{"android":"levelo://app?vid=b27e5abe-5e97-4ddf-a6d1-ccce3b418d7d","ios":"levelo://app?vid=b27e5abe-5e97-4ddf-a6d1-ccce3b418d7d"},"vehicle_type_id":"4","last_reported":1730279415,"current_range_meters":11600,"station_id":"ce4bgj12rcd13ifvqbc0","pricing_plan_id":"cebpf4jnsgd1na2vs0mg"},{"bike_id":"03e26363-1adc-494c-8098-91070571fba5","system_id":"levelo_inurba_marseille","lat":43.23194,"lon":5.35541,"is_reserved":false,"is_disabled":false,"rental_uris":{"android":"levelo://app?vid=03e26363-1adc-494c-8098-91070571fba5","ios":"levelo://app?vid=03e26363-1adc-494c-8098-91070571fba5"},"vehicle_type_id":"4","last_reported":1730279415,"current_range_meters":32000,"station_id":"ce4bhu92rcd13ifvqi70","pricing_plan_id":"cebpf4jnsgd1na2vs0mg"},{"bike_id":"c497513d-9d1d-4320-a1e3-875a8b21d4c5","system_id":"levelo_inurba_marseille","lat":43.27173,"lon":5.41001,"is_reserved":false,"is_disabled":false,"rental_uris":{"android":"levelo://app?vid=c497513d-9d1d-4320-a1e3-875a8b21d4c5","ios":"levelo://app?vid=c497513d-9d1d-4320-a1e3-875a8b21d4c5"},"vehicle_type_id":"4","last_reported":1730279415,"current_range_meters":33200,"station_id":"ce4bhl12rcd13ifvqgf0","pricing_plan_id":"cebpf4jnsgd1na2vs0mg"},{"bike_id":"3f296890-19ce-46b6-884b-d2e34dba8783","system_id":"levelo_inurba_marseille","lat":43.24807,"lon":5.37455,"is_reserved":false,"is_disabled":false,"rental_uris":{"android":"levelo://app?vid=3f296890-19ce-46b6-884b-d2e34dba8783","ios":"levelo://app?vid=3f296890-19ce-46b6-884b-d2e34dba8783"},"vehicle_type_id":"4","last_reported":1730279415,"current_range_meters":38000,"station_id":"ce4bhgh2rcd13ifvqfb0","pricing_plan_id":"cebpf4jnsgd1na2vs0mg"},{"bike_id":"07db3fac-6e28-436c-af3e-dde1a581b97f","system_id":"levelo_inurba_marseille","lat":43.26954,"lon":5.38628,"is_reserved":false,"is_disabled":false,"rental_uris":{"android":"levelo://app?vid=07db3fac-6e28-436c-af3e-dde1a581b97f","ios":"levelo://app?vid=07db3fac-6e28-436c-af3e-dde1a581b97f"},"vehicle_type_id":"4","last_reported":1730279415,"current_range_meters":16000,"station_id":"ce4bhh92rcd13ifvqfh0","pricing_plan_id":"cebpf4jnsgd1na2vs0mg"},{"bike_id":"e9141b44-30ab-459c-94b2-99dbe6b7a845","system_id":"levelo_inurba_marseille","lat":43.2955,"lon":5.42284,"is_reserved":false,"is_disabled":false,"rental_uris":{"android":"levelo://app?vid=e9141b44-30ab-459c-94b2-99dbe6b7a845","ios":"levelo://app?vid=e9141b44-30ab-459c-94b2-99dbe6b7a845"},"vehicle_type_id":"4","last_reported":1730279415,"current_range_meters":36800,"station_id":"ce4bhph2rcd13ifvqhdg","pricing_plan_id":"cebpf4jnsgd1na2vs0mg"},{"bike_id":"36567586-751a-4289-8bdd-74ca9d46e3cd","system_id":"levelo_inurba_marseille","lat":43.26568,"lon":5.39014,"is_reserved":false,"is_disabled":false,"rental_uris":{"android":"levelo://app?vid=36567586-751a-4289-8bdd-74ca9d46e3cd","ios":"levelo://app?vid=36567586-751a-4289-8bdd-74ca9d46e3cd"},"vehicle_type_id":"4","last_reported":1730279415,"current_range_meters":26000,"station_id":"ce4bhe12rcd13ifvqf30","pricing_plan_id":"cebpf4jnsgd1na2vs0mg"},{"bike_id":"ceabe4bd-e47c-40f3-8a8d-3b7a103e7129","system_id":"levelo_inurba_marseille","lat":43.33594,"lon":5.41014,"is_reserved":false,"is_disabled":false,"rental_uris":{"android":"levelo://app?vid=ceabe4bd-e47c-40f3-8a8d-3b7a103e7129","ios":"levelo://app?vid=ceabe4bd-e47c-40f3-8a8d-3b7a103e7129"},"vehicle_type_id":"4","last_reported":1730279415,"current_range_meters":13600,"station_id":"ce4bhqh2rcd13ifvqhmg","pricing_plan_id":"cebpf4jnsgd1na2vs0mg"},{"bike_id":"8fc8f69f-228e-4754-8013-e3713d197b92","system_id":"levelo_inurba_marseille","lat":43.24668,"lon":5.38155,"is_reserved":false,"is_disabled":false,"rental_uris":{"android":"levelo://app?vid=8fc8f69f-228e-4754-8013-e3713d197b92","ios":"levelo://app?vid=8fc8f69f-228e-4754-8013-e3713d197b92"},"vehicle_type_id":"4","last_reported":1730279415,"current_range_meters":39200,"station_id":"ce4bhih2rcd13ifvqfr0","pricing_plan_id":"cebpf4jnsgd1na2vs0mg"},{"bike_id":"6b778970-7ca1-4912-8b3b-f071e3ca997e","system_id":"levelo_inurba_marseille","lat":43.31267,"lon":5.40164,"is_reserved":false,"is_disabled":false,"rental_uris":{"android":"levelo://app?vid=6b778970-7ca1-4912-8b3b-f071e3ca997e","ios":"levelo://app?vid=6b778970-7ca1-4912-8b3b-f071e3ca997e"},"vehicle_type_id":"4","last_reported":1730279415,"current_range_meters":36000,"station_id":"ce4bh092rcd13ifvqd30","pricing_plan_id":"cebpf4jnsgd1na2vs0mg"},{"bike_id":"a306c469-7544-4489-af82-e9fb1e9b4215","system_id":"levelo_inurba_marseille","lat":43.23179,"lon":5.39979,"is_reserved":false,"is_disabled":false,"rental_uris":{"android":"levelo://app?vid=a306c469-7544-4489-af82-e9fb1e9b4215","ios":"levelo://app?vid=a306c469-7544-4489-af82-e9fb1e9b4215"},"vehicle_type_id":"4","last_reported":1730279415,"current_range_meters":38800,"station_id":"ce4bhn12rcd13ifvqgqg","pricing_plan_id":"cebpf4jnsgd1na2vs0mg"},{"bike_id":"7a4d6c6c-3990-47c6-9c5b-9359b7b1ecd0","system_id":"levelo_inurba_marseille","lat":43.30305,"lon":5.36901,"is_reserved":false,"is_disabled":false,"rental_uris":{"android":"levelo://app?vid=7a4d6c6c-3990-47c6-9c5b-9359b7b1ecd0","ios":"levelo://app?vid=7a4d6c6c-3990-47c6-9c5b-9359b7b1ecd0"},"vehicle_type_id":"4","last_reported":1730279415,"current_range_meters":36000,"station_id":"ce4bgqh2rcd13ifvqc5g","pricing_plan_id":"cebpf4jnsgd1na2vs0mg"},{"bike_id":"e280b64d-61ba-4b14-995b-3373b2110504","system_id":"levelo_inurba_marseille","lat":43.27942,"lon":5.41051,"is_reserved":false,"is_disabled":false,"rental_uris":{"android":"levelo://app?vid=e280b64d-61ba-4b14-995b-3373b2110504","ios":"levelo://app?vid=e280b64d-61ba-4b14-995b-3373b2110504"},"vehicle_type_id":"4","last_reported":1730279415,"current_range_meters":27600,"station_id":"ce4bhnp2rcd13ifvqh0g","pricing_plan_id":"cebpf4jnsgd1na2vs0mg"},{"bike_id":"b72913b6-9d4a-45c6-9992-146504dc2537","system_id":"levelo_inurba_marseille","lat":43.31225,"lon":5.36868,"is_reserved":false,"is_disabled":false,"rental_uris":{"android":"levelo://app?vid=b72913b6-9d4a-45c6-9992-146504dc2537","ios":"levelo://app?vid=b72913b6-9d4a-45c6-9992-146504dc2537"},"vehicle_type_id":"4","last_reported":1730279415,"current_range_meters":28800,"station_id":"ce4bgl92rcd13ifvqbq0","pricing_plan_id":"cebpf4jnsgd1na2vs0mg"},{"bike_id":"0f3937a5-d38c-4c50-a9e9-36b7ab0a7b30","system_id":"levelo_inurba_marseille","lat":43.26678,"lon":5.38263,"is_reserved":false,"is_disabled":false,"rental_uris":{"android":"levelo://app?vid=0f3937a5-d38c-4c50-a9e9-36b7ab0a7b30","ios":"levelo://app?vid=0f3937a5-d38c-4c50-a9e9-36b7ab0a7b30"},"vehicle_type_id":"4","last_reported":1730279415,"current_range_meters":30400,"station_id":"ce4bhg92rcd13ifvqf90","pricing_plan_id":"cebpf4jnsgd1na2vs0mg"},{"bike_id":"28be2e90-3ac6-4686-ae54-ecfc500be0fc","system_id":"levelo_inurba_marseille","lat":43.24807,"lon":5.3745,"is_reserved":false,"is_disabled":false,"rental_uris":{"android":"levelo://app?vid=28be2e90-3ac6-4686-ae54-ecfc500be0fc","ios":"levelo://app?vid=28be2e90-3ac6-4686-ae54-ecfc500be0fc"},"vehicle_type_id":"4","last_reported":1730279415,"current_range_meters":38400,"station_id":"ce4bhgh2rcd13ifvqfb0","pricing_plan_id":"cebpf4jnsgd1na2vs0mg"},{"bike_id":"d8727bac-17ee-4f4a-ac67-5aef09323d56","system_id":"levelo_inurba_marseille","lat":43.31337,"lon":5.36731,"is_reserved":false,"is_disabled":false,"rental_uris":{"android":"levelo://app?vid=d8727bac-17ee-4f4a-ac67-5aef09323d56","ios":"levelo://app?vid=d8727bac-17ee-4f4a-ac67-5aef09323d56"},"vehicle_type_id":"4","last_reported":1730279415,"current_range_meters":6000,"station_id":"ce4bgr92rcd13ifvqc6g","pricing_plan_id":"cebpf4jnsgd1na2vs0mg"},{"bike_id":"929de853-39da-4334-9162-2620d5557b73","system_id":"levelo_inurba_marseille","lat":43.30848,"lon":5.38096,"is_reserved":false,"is_disabled":false,"rental_uris":{"android":"levelo://app?vid=929de853-39da-4334-9162-2620d5557b73","ios":"levelo://app?vid=929de853-39da-4334-9162-2620d5557b73"},"vehicle_type_id":"4","last_reported":1730279415,"current_range_meters":2000,"station_id":"","pricing_plan_id":"cebpf4jnsgd1na2vs0mg"},{"bike_id":"5a684be4-7c13-402d-b8cd-679b4ca5b676","system_id":"levelo_inurba_marseille","lat":43.31345,"lon":5.36718,"is_reserved":false,"is_disabled":false,"rental_uris":{"android":"levelo://app?vid=5a684be4-7c13-402d-b8cd-679b4ca5b676","ios":"levelo://app?vid=5a684be4-7c13-402d-b8cd-679b4ca5b676"},"vehicle_type_id":"4","last_reported":1730279415,"current_range_meters":39200,"station_id":"ce4bgr92rcd13ifvqc6g","pricing_plan_id":"cebpf4jnsgd1na2vs0mg"},{"bike_id":"16a6ed29-6269-4385-b276-78c51fa152d4","system_id":"levelo_inurba_marseille","lat":43.26555,"lon":5.37283,"is_reserved":false,"is_disabled":false,"rental_uris":{"android":"levelo://app?vid=16a6ed29-6269-4385-b276-78c51fa152d4","ios":"levelo://app?vid=16a6ed29-6269-4385-b276-78c51fa152d4"},"vehicle_type_id":"4","last_reported":1730279415,"current_range_meters":23200,"station_id":"ce4bhg12rcd13ifvqf70","pricing_plan_id":"cebpf4jnsgd1na2vs0mg"},{"bike_id":"1942125a-8d5e-468a-9ec2-3b25b1ef36a2","system_id":"levelo_inurba_marseille","lat":43.29881,"lon":5.38901,"is_reserved":false,"is_disabled":false,"rental_uris":{"android":"levelo://app?vid=1942125a-8d5e-468a-9ec2-3b25b1ef36a2","ios":"levelo://app?vid=1942125a-8d5e-468a-9ec2-3b25b1ef36a2"},"vehicle_type_id":"4","last_reported":1730279415,"current_range_meters":24000,"station_id":"ce4bh392rcd13ifvqdl0","pricing_plan_id":"cebpf4jnsgd1na2vs0mg"},{"bike_id":"7095b495-718a-4796-8fa3-b738528aec6e","system_id":"levelo_inurba_marseille","lat":43.32364,"lon":5.38882,"is_reserved":false,"is_disabled":false,"rental_uris":{"android":"levelo://app?vid=7095b495-718a-4796-8fa3-b738528aec6e","ios":"levelo://app?vid=7095b495-718a-4796-8fa3-b738528aec6e"},"vehicle_type_id":"4","last_reported":1730279415,"current_range_meters":31200,"station_id":"ce4bhqp2rcd13ifvqhog","pricing_plan_id":"cebpf4jnsgd1na2vs0mg"},{"bike_id":"02fae2a4-1121-44cb-af7e-2563d4abaaa4","system_id":"levelo_inurba_marseille","lat":43.27182,"lon":5.40988,"is_reserved":false,"is_disabled":false,"rental_uris":{"android":"levelo://app?vid=02fae2a4-1121-44cb-af7e-2563d4abaaa4","ios":"levelo://app?vid=02fae2a4-1121-44cb-af7e-2563d4abaaa4"},"vehicle_type_id":"4","last_reported":1730279415,"current_range_meters":39200,"station_id":"ce4bhl12rcd13ifvqgf0","pricing_plan_id":"cebpf4jnsgd1na2vs0mg"},{"bike_id":"259292b4-4820-4a1f-8d6e-6d988ce23247","system_id":"levelo_inurba_marseille","lat":43.3248,"lon":5.36574,"is_reserved":false,"is_disabled":false,"rental_uris":{"android":"levelo://app?vid=259292b4-4820-4a1f-8d6e-6d988ce23247","ios":"levelo://app?vid=259292b4-4820-4a1f-8d6e-6d988ce23247"},"vehicle_type_id":"4","last_reported":1730279415,"current_range_meters":25200,"station_id":"ce4bhs12rcd13ifvqhvg","pricing_plan_id":"cebpf4jnsgd1na2vs0mg"},{"bike_id":"dbfafde0-c582-408a-8e0f-30168d4bd53c","system_id":"levelo_inurba_marseille","lat":43.25572,"lon":5.38245,"is_reserved":false,"is_disabled":false,"rental_uris":{"android":"levelo://app?vid=dbfafde0-c582-408a-8e0f-30168d4bd53c","ios":"levelo://app?vid=dbfafde0-c582-408a-8e0f-30168d4bd53c"},"vehicle_type_id":"4","last_reported":1730279415,"current_range_meters":28400,"station_id":"ce4bhih2rcd13ifvqfs0","pricing_plan_id":"cebpf4jnsgd1na2vs0mg"},{"bike_id":"288f8dcf-45f6-4787-9211-21bf95dc6ebe","system_id":"levelo_inurba_marseille","lat":43.29966,"lon":5.41324,"is_reserved":false,"is_disabled":false,"rental_uris":{"android":"levelo://app?vid=288f8dcf-45f6-4787-9211-21bf95dc6ebe","ios":"levelo://app?vid=288f8dcf-45f6-4787-9211-21bf95dc6ebe"},"vehicle_type_id":"4","last_reported":1730279415,"current_range_meters":28400,"station_id":"ce4bhp12rcd13ifvqh9g","pricing_plan_id":"cebpf4jnsgd1na2vs0mg"},{"bike_id":"67c82576-6467-4908-923a-54ed28549ca5","system_id":"levelo_inurba_marseille","lat":43.32478,"lon":5.36562,"is_reserved":false,"is_disabled":false,"rental_uris":{"android":"levelo://app?vid=67c82576-6467-4908-923a-54ed28549ca5","ios":"levelo://app?vid=67c82576-6467-4908-923a-54ed28549ca5"},"vehicle_type_id":"4","last_reported":1730279415,"current_range_meters":38400,"station_id":"ce4bhs12rcd13ifvqhvg","pricing_plan_id":"cebpf4jnsgd1na2vs0mg"},{"bike_id":"d4bb1dc0-ee68-4e6e-861f-57bda3dcfac8","system_id":"levelo_inurba_marseille","lat":43.30945,"lon":5.39041,"is_reserved":false,"is_disabled":false,"rental_uris":{"android":"levelo://app?vid=d4bb1dc0-ee68-4e6e-861f-57bda3dcfac8","ios":"levelo://app?vid=d4bb1dc0-ee68-4e6e-861f-57bda3dcfac8"},"vehicle_type_id":"4","last_reported":1730279415,"current_range_meters":22000,"station_id":"ce4bgup2rcd13ifvqco0","pricing_plan_id":"cebpf4jnsgd1na2vs0mg"},{"bike_id":"caf2a2e3-7963-4175-8c1b-76ad261907eb","system_id":"levelo_inurba_marseille","lat":43.24802,"lon":5.37454,"is_reserved":false,"is_disabled":false,"rental_uris":{"android":"levelo://app?vid=caf2a2e3-7963-4175-8c1b-76ad261907eb","ios":"levelo://app?vid=caf2a2e3-7963-4175-8c1b-76ad261907eb"},"vehicle_type_id":"4","last_reported":1730279415,"current_range_meters":15200,"station_id":"ce4bhgh2rcd13ifvqfb0","pricing_plan_id":"cebpf4jnsgd1na2vs0mg"},{"bike_id":"85eb1623-cf0d-4000-9758-94265df58566","system_id":"levelo_inurba_marseille","lat":43.30532,"lon":5.36701,"is_reserved":false,"is_disabled":false,"rental_uris":{"android":"levelo://app?vid=85eb1623-cf0d-4000-9758-94265df58566","ios":"levelo://app?vid=85eb1623-cf0d-4000-9758-94265df58566"},"vehicle_type_id":"4","last_reported":1730279415,"current_range_meters":35200,"station_id":"ce4bgrp2rcd13ifvqc9g","pricing_plan_id":"cebpf4jnsgd1na2vs0mg"},{"bike_id":"25e90825-819c-494a-9a04-12bbb0c56b6b","system_id":"levelo_inurba_marseille","lat":43.3153,"lon":5.38035,"is_reserved":false,"is_disabled":false,"rental_uris":{"android":"levelo://app?vid=25e90825-819c-494a-9a04-12bbb0c56b6b","ios":"levelo://app?vid=25e90825-819c-494a-9a04-12bbb0c56b6b"},"vehicle_type_id":"4","last_reported":1730279415,"current_range_meters":28800,"station_id":"ce4bhsp2rcd13ifvqi50","pricing_plan_id":"cebpf4jnsgd1na2vs0mg"},{"bike_id":"2dc2e7aa-c9cc-457e-aadf-e56119f0ec59","system_id":"levelo_inurba_marseille","lat":43.23196,"lon":5.35546,"is_reserved":false,"is_disabled":false,"rental_uris":{"android":"levelo://app?vid=2dc2e7aa-c9cc-457e-aadf-e56119f0ec59","ios":"levelo://app?vid=2dc2e7aa-c9cc-457e-aadf-e56119f0ec59"},"vehicle_type_id":"4","last_reported":1730279415,"current_range_meters":27200,"station_id":"ce4bhu92rcd13ifvqi70","pricing_plan_id":"cebpf4jnsgd1na2vs0mg"},{"bike_id":"d9aa2ebc-afa1-438c-8b33-63d12a47bc38","system_id":"levelo_inurba_marseille","lat":43.26057,"lon":5.3939,"is_reserved":false,"is_disabled":false,"rental_uris":{"android":"levelo://app?vid=d9aa2ebc-afa1-438c-8b33-63d12a47bc38","ios":"levelo://app?vid=d9aa2ebc-afa1-438c-8b33-63d12a47bc38"},"vehicle_type_id":"4","last_reported":1730279415,"current_range_meters":24400,"station_id":"ce4bhh92rcd13ifvqfj0","pricing_plan_id":"cebpf4jnsgd1na2vs0mg"},{"bike_id":"c4f705f9-cb6e-4d01-b200-9f8930e5dd6b","system_id":"levelo_inurba_marseille","lat":43.24174,"lon":5.39728,"is_reserved":false,"is_disabled":false,"rental_uris":{"android":"levelo://app?vid=c4f705f9-cb6e-4d01-b200-9f8930e5dd6b","ios":"levelo://app?vid=c4f705f9-cb6e-4d01-b200-9f8930e5dd6b"},"vehicle_type_id":"4","last_reported":1730279415,"current_range_meters":38000,"station_id":"ce4bhn12rcd13ifvqgpg","pricing_plan_id":"cebpf4jnsgd1na2vs0mg"},{"bike_id":"32724ce4-79b3-4766-bd7f-1b32301ca45e","system_id":"levelo_inurba_marseille","lat":43.2558,"lon":5.38238,"is_reserved":false,"is_disabled":false,"rental_uris":{"android":"levelo://app?vid=32724ce4-79b3-4766-bd7f-1b32301ca45e","ios":"levelo://app?vid=32724ce4-79b3-4766-bd7f-1b32301ca45e"},"vehicle_type_id":"4","last_reported":1730279415,"current_range_meters":16400,"station_id":"ce4bhih2rcd13ifvqfs0","pricing_plan_id":"cebpf4jnsgd1na2vs0mg"},{"bike_id":"28cbcf23-5ad0-4746-be8b-7a028cbebf33","system_id":"levelo_inurba_marseille","lat":43.32647,"lon":5.38868,"is_reserved":false,"is_disabled":false,"rental_uris":{"android":"levelo://app?vid=28cbcf23-5ad0-4746-be8b-7a028cbebf33","ios":"levelo://app?vid=28cbcf23-5ad0-4746-be8b-7a028cbebf33"},"vehicle_type_id":"4","last_reported":1730279415,"current_range_meters":32800,"station_id":"","pricing_plan_id":"cebpf4jnsgd1na2vs0mg"},{"bike_id":"249f4139-b1bb-4fc2-87b9-dd8c4909e5b1","system_id":"levelo_inurba_marseille","lat":43.29552,"lon":5.4229,"is_reserved":false,"is_disabled":false,"rental_uris":{"android":"levelo://app?vid=249f4139-b1bb-4fc2-87b9-dd8c4909e5b1","ios":"levelo://app?vid=249f4139-b1bb-4fc2-87b9-dd8c4909e5b1"},"vehicle_type_id":"4","last_reported":1730279415,"current_range_meters":39200,"station_id":"ce4bhph2rcd13ifvqhdg","pricing_plan_id":"cebpf4jnsgd1na2vs0mg"},{"bike_id":"53eb6c66-b12c-466e-af32-042a668df35f","system_id":"levelo_inurba_marseille","lat":43.23183,"lon":5.39986,"is_reserved":false,"is_disabled":false,"rental_uris":{"android":"levelo://app?vid=53eb6c66-b12c-466e-af32-042a668df35f","ios":"levelo://app?vid=53eb6c66-b12c-466e-af32-042a668df35f"},"vehicle_type_id":"4","last_reported":1730279415,"current_range_meters":39200,"station_id":"ce4bhn12rcd13ifvqgqg","pricing_plan_id":"cebpf4jnsgd1na2vs0mg"},{"bike_id":"180e1165-30a3-4e1e-af9a-2e07229c1663","system_id":"levelo_inurba_marseille","lat":43.29855,"lon":5.36282,"is_reserved":false,"is_disabled":false,"rental_uris":{"android":"levelo://app?vid=180e1165-30a3-4e1e-af9a-2e07229c1663","ios":"levelo://app?vid=180e1165-30a3-4e1e-af9a-2e07229c1663"},"vehicle_type_id":"4","last_reported":1730279415,"current_range_meters":11600,"station_id":"ce4bgpp2rcd13ifvqc3g","pricing_plan_id":"cebpf4jnsgd1na2vs0mg"},{"bike_id":"15e517f1-ebec-47c6-9ffd-2a035f728a02","system_id":"levelo_inurba_marseille","lat":43.24812,"lon":5.37454,"is_reserved":false,"is_disabled":false,"rental_uris":{"android":"levelo://app?vid=15e517f1-ebec-47c6-9ffd-2a035f728a02","ios":"levelo://app?vid=15e517f1-ebec-47c6-9ffd-2a035f728a02"},"vehicle_type_id":"4","last_reported":1730279415,"current_range_meters":26800,"station_id":"ce4bhgh2rcd13ifvqfb0","pricing_plan_id":"cebpf4jnsgd1na2vs0mg"},{"bike_id":"e8d786e3-45ba-4196-b183-2019c9816d84","system_id":"levelo_inurba_marseille","lat":43.31112,"lon":5.37778,"is_reserved":false,"is_disabled":false,"rental_uris":{"android":"levelo://app?vid=e8d786e3-45ba-4196-b183-2019c9816d84","ios":"levelo://app?vid=e8d786e3-45ba-4196-b183-2019c9816d84"},"vehicle_type_id":"4","last_reported":1730279415,"current_range_meters":38800,"station_id":"ce4bgt92rcd13ifvqcg0","pricing_plan_id":"cebpf4jnsgd1na2vs0mg"},{"bike_id":"31b23ddf-11e5-4737-b737-7ed49100e135","system_id":"levelo_inurba_marseille","lat":43.2621,"lon":5.37445,"is_reserved":false,"is_disabled":false,"rental_uris":{"android":"levelo://app?vid=31b23ddf-11e5-4737-b737-7ed49100e135","ios":"levelo://app?vid=31b23ddf-11e5-4737-b737-7ed49100e135"},"vehicle_type_id":"4","last_reported":1730279415,"current_range_meters":24800,"station_id":"ce4bhgp2rcd13ifvqfc0","pricing_plan_id":"cebpf4jnsgd1na2vs0mg"},{"bike_id":"2d198377-2c19-4e5f-b7b9-5acc4795c543","system_id":"levelo_inurba_marseille","lat":43.31757,"lon":5.39021,"is_reserved":false,"is_disabled":false,"rental_uris":{"android":"levelo://app?vid=2d198377-2c19-4e5f-b7b9-5acc4795c543","ios":"levelo://app?vid=2d198377-2c19-4e5f-b7b9-5acc4795c543"},"vehicle_type_id":"4","last_reported":1730279415,"current_range_meters":9200,"station_id":"ce4bhqp2rcd13ifvqhng","pricing_plan_id":"cebpf4jnsgd1na2vs0mg"},{"bike_id":"c14c7f66-0e2c-436a-94dc-9cb9f4071e75","system_id":"levelo_inurba_marseille","lat":43.30163,"lon":5.38076,"is_reserved":false,"is_disabled":false,"rental_uris":{"android":"levelo://app?vid=c14c7f66-0e2c-436a-94dc-9cb9f4071e75","ios":"levelo://app?vid=c14c7f66-0e2c-436a-94dc-9cb9f4071e75"},"vehicle_type_id":"4","last_reported":1730279415,"current_range_meters":34000,"station_id":"ce4bgjp2rcd13ifvqbh0","pricing_plan_id":"cebpf4jnsgd1na2vs0mg"},{"bike_id":"fc9f95a3-8743-452e-a5e9-f50e54844cf6","system_id":"levelo_inurba_marseille","lat":43.30534,"lon":5.36533,"is_reserved":false,"is_disabled":false,"rental_uris":{"android":"levelo://app?vid=fc9f95a3-8743-452e-a5e9-f50e54844cf6","ios":"levelo://app?vid=fc9f95a3-8743-452e-a5e9-f50e54844cf6"},"vehicle_type_id":"4","last_reported":1730279415,"current_range_meters":30000,"station_id":"ce4bgs12rcd13ifvqcag","pricing_plan_id":"cebpf4jnsgd1na2vs0mg"},{"bike_id":"c1aa6d61-6c67-4a01-9f03-19f09151c29c","system_id":"levelo_inurba_marseille","lat":43.33606,"lon":5.41029,"is_reserved":false,"is_disabled":false,"rental_uris":{"android":"levelo://app?vid=c1aa6d61-6c67-4a01-9f03-19f09151c29c","ios":"levelo://app?vid=c1aa6d61-6c67-4a01-9f03-19f09151c29c"},"vehicle_type_id":"4","last_reported":1730279415,"current_range_meters":3600,"station_id":"ce4bhqh2rcd13ifvqhmg","pricing_plan_id":"cebpf4jnsgd1na2vs0mg"},{"bike_id":"9445a670-8cad-4552-a342-d1a968da3c5a","system_id":"levelo_inurba_marseille","lat":43.32056,"lon":5.41554,"is_reserved":false,"is_disabled":false,"rental_uris":{"android":"levelo://app?vid=9445a670-8cad-4552-a342-d1a968da3c5a","ios":"levelo://app?vid=9445a670-8cad-4552-a342-d1a968da3c5a"},"vehicle_type_id":"4","last_reported":1730279415,"current_range_meters":38800,"station_id":"ce4bhq92rcd13ifvqhkg","pricing_plan_id":"cebpf4jnsgd1na2vs0mg"},{"bike_id":"79a9d8a5-aae3-4086-95c4-4f56865306f1","system_id":"levelo_inurba_marseille","lat":43.29519,"lon":5.37506,"is_reserved":false,"is_disabled":false,"rental_uris":{"android":"levelo://app?vid=79a9d8a5-aae3-4086-95c4-4f56865306f1","ios":"levelo://app?vid=79a9d8a5-aae3-4086-95c4-4f56865306f1"},"vehicle_type_id":"4","last_reported":1730279415,"current_range_meters":36800,"station_id":"ce4bgkp2rcd13ifvqbmg","pricing_plan_id":"cebpf4jnsgd1na2vs0mg"},{"bike_id":"fc857e95-ca7f-4c06-b13e-5bb6b2b76a8b","system_id":"levelo_inurba_marseille","lat":43.23178,"lon":5.39993,"is_reserved":false,"is_disabled":false,"rental_uris":{"android":"levelo://app?vid=fc857e95-ca7f-4c06-b13e-5bb6b2b76a8b","ios":"levelo://app?vid=fc857e95-ca7f-4c06-b13e-5bb6b2b76a8b"},"vehicle_type_id":"4","last_reported":1730279415,"current_range_meters":39200,"station_id":"ce4bhn12rcd13ifvqgqg","pricing_plan_id":"cebpf4jnsgd1na2vs0mg"},{"bike_id":"a1f83bf3-eed6-45ed-a98a-d29a1a4fe512","system_id":"levelo_inurba_marseille","lat":43.29929,"lon":5.41306,"is_reserved":false,"is_disabled":false,"rental_uris":{"android":"levelo://app?vid=a1f83bf3-eed6-45ed-a98a-d29a1a4fe512","ios":"levelo://app?vid=a1f83bf3-eed6-45ed-a98a-d29a1a4fe512"},"vehicle_type_id":"4","last_reported":1730279415,"current_range_meters":24000,"station_id":"ce4bhp12rcd13ifvqh9g","pricing_plan_id":"cebpf4jnsgd1na2vs0mg"},{"bike_id":"198911f7-5775-413b-ac1c-fbdf1dd86b24","system_id":"levelo_inurba_marseille","lat":43.26568,"lon":5.39015,"is_reserved":false,"is_disabled":false,"rental_uris":{"android":"levelo://app?vid=198911f7-5775-413b-ac1c-fbdf1dd86b24","ios":"levelo://app?vid=198911f7-5775-413b-ac1c-fbdf1dd86b24"},"vehicle_type_id":"4","last_reported":1730279415,"current_range_meters":36800,"station_id":"ce4bhe12rcd13ifvqf30","pricing_plan_id":"cebpf4jnsgd1na2vs0mg"},{"bike_id":"057d04e7-8d2d-47a8-a7c8-9be284e5aed0","system_id":"levelo_inurba_marseille","lat":43.31357,"lon":5.38498,"is_reserved":false,"is_disabled":false,"rental_uris":{"android":"levelo://app?vid=057d04e7-8d2d-47a8-a7c8-9be284e5aed0","ios":"levelo://app?vid=057d04e7-8d2d-47a8-a7c8-9be284e5aed0"},"vehicle_type_id":"4","last_reported":1730279415,"current_range_meters":24800,"station_id":"ce4bgt92rcd13ifvqcf0","pricing_plan_id":"cebpf4jnsgd1na2vs0mg"},{"bike_id":"a3380b74-d7c1-4a05-98d2-dd31ab032453","system_id":"levelo_inurba_marseille","lat":43.24181,"lon":5.39723,"is_reserved":false,"is_disabled":false,"rental_uris":{"android":"levelo://app?vid=a3380b74-d7c1-4a05-98d2-dd31ab032453","ios":"levelo://app?vid=a3380b74-d7c1-4a05-98d2-dd31ab032453"},"vehicle_type_id":"4","last_reported":1730279415,"current_range_meters":30800,"station_id":"ce4bhn12rcd13ifvqgpg","pricing_plan_id":"cebpf4jnsgd1na2vs0mg"},{"bike_id":"e4ff3c52-73dc-458c-8024-1873c8f5875c","system_id":"levelo_inurba_marseille","lat":43.26783,"lon":5.39408,"is_reserved":false,"is_disabled":false,"rental_uris":{"android":"levelo://app?vid=e4ff3c52-73dc-458c-8024-1873c8f5875c","ios":"levelo://app?vid=e4ff3c52-73dc-458c-8024-1873c8f5875c"},"vehicle_type_id":"4","last_reported":1730279415,"current_range_meters":17200,"station_id":"ce4bhh12rcd13ifvqfg0","pricing_plan_id":"cebpf4jnsgd1na2vs0mg"},{"bike_id":"766801a5-7dbd-464a-bc56-398e14b9cf78","system_id":"levelo_inurba_marseille","lat":43.29805,"lon":5.37136,"is_reserved":false,"is_disabled":false,"rental_uris":{"android":"levelo://app?vid=766801a5-7dbd-464a-bc56-398e14b9cf78","ios":"levelo://app?vid=766801a5-7dbd-464a-bc56-398e14b9cf78"},"vehicle_type_id":"4","last_reported":1730279415,"current_range_meters":6800,"station_id":"","pricing_plan_id":"cebpf4jnsgd1na2vs0mg"},{"bike_id":"afc8a59e-718c-432c-b226-d6be0903e5fb","system_id":"levelo_inurba_marseille","lat":43.24388,"lon":5.3706,"is_reserved":false,"is_disabled":false,"rental_uris":{"android":"levelo://app?vid=afc8a59e-718c-432c-b226-d6be0903e5fb","ios":"levelo://app?vid=afc8a59e-718c-432c-b226-d6be0903e5fb"},"vehicle_type_id":"4","last_reported":1730279415,"current_range_meters":34000,"station_id":"ce4bhhh2rcd13ifvqfk0","pricing_plan_id":"cebpf4jnsgd1na2vs0mg"},{"bike_id":"72e37474-1bc8-4568-aec8-ce5464e6b828","system_id":"levelo_inurba_marseille","lat":43.23189,"lon":5.35545,"is_reserved":false,"is_disabled":false,"rental_uris":{"android":"levelo://app?vid=72e37474-1bc8-4568-aec8-ce5464e6b828","ios":"levelo://app?vid=72e37474-1bc8-4568-aec8-ce5464e6b828"},"vehicle_type_id":"4","last_reported":1730279415,"current_range_meters":30000,"station_id":"ce4bhu92rcd13ifvqi70","pricing_plan_id":"cebpf4jnsgd1na2vs0mg"},{"bike_id":"38ee520c-1b9b-4b67-a784-65bd4967f90d","system_id":"levelo_inurba_marseille","lat":43.29073,"lon":5.37184,"is_reserved":false,"is_disabled":false,"rental_uris":{"android":"levelo://app?vid=38ee520c-1b9b-4b67-a784-65bd4967f90d","ios":"levelo://app?vid=38ee520c-1b9b-4b67-a784-65bd4967f90d"},"vehicle_type_id":"4","last_reported":1730279415,"current_range_meters":29600,"station_id":"ce4bh5p2rcd13ifvqe4g","pricing_plan_id":"cebpf4jnsgd1na2vs0mg"},{"bike_id":"87bfafc4-0640-4ef7-8be0-b54cbb7f1415","system_id":"levelo_inurba_marseille","lat":43.29607,"lon":5.37725,"is_reserved":false,"is_disabled":false,"rental_uris":{"android":"levelo://app?vid=87bfafc4-0640-4ef7-8be0-b54cbb7f1415","ios":"levelo://app?vid=87bfafc4-0640-4ef7-8be0-b54cbb7f1415"},"vehicle_type_id":"4","last_reported":1730279415,"current_range_meters":22800,"station_id":"ce4bgi92rcd13ifvqb90","pricing_plan_id":"cebpf4jnsgd1na2vs0mg"},{"bike_id":"c2964dd9-86d7-477b-837f-6d5fbdb82788","system_id":"levelo_inurba_marseille","lat":43.24387,"lon":5.37056,"is_reserved":false,"is_disabled":false,"rental_uris":{"android":"levelo://app?vid=c2964dd9-86d7-477b-837f-6d5fbdb82788","ios":"levelo://app?vid=c2964dd9-86d7-477b-837f-6d5fbdb82788"},"vehicle_type_id":"4","last_reported":1730279415,"current_range_meters":16800,"station_id":"ce4bhhh2rcd13ifvqfk0","pricing_plan_id":"cebpf4jnsgd1na2vs0mg"},{"bike_id":"67a7d62e-e4fc-459c-a74a-3806203d1fd2","system_id":"levelo_inurba_marseille","lat":43.251,"lon":5.40332,"is_reserved":false,"is_disabled":false,"rental_uris":{"android":"levelo://app?vid=67a7d62e-e4fc-459c-a74a-3806203d1fd2","ios":"levelo://app?vid=67a7d62e-e4fc-459c-a74a-3806203d1fd2"},"vehicle_type_id":"4","last_reported":1730279415,"current_range_meters":9200,"station_id":"","pricing_plan_id":"cebpf4jnsgd1na2vs0mg"},{"bike_id":"4c8aa017-6d4b-4e37-821a-186202615f9d","system_id":"levelo_inurba_marseille","lat":43.31757,"lon":5.39014,"is_reserved":false,"is_disabled":false,"rental_uris":{"android":"levelo://app?vid=4c8aa017-6d4b-4e37-821a-186202615f9d","ios":"levelo://app?vid=4c8aa017-6d4b-4e37-821a-186202615f9d"},"vehicle_type_id":"4","last_reported":1730279415,"current_range_meters":33200,"station_id":"ce4bhqp2rcd13ifvqhng","pricing_plan_id":"cebpf4jnsgd1na2vs0mg"},{"bike_id":"32090ad6-4c79-46d0-8047-2d9a08fafcfd","system_id":"levelo_inurba_marseille","lat":43.27559,"lon":5.38428,"is_reserved":false,"is_disabled":false,"rental_uris":{"android":"levelo://app?vid=32090ad6-4c79-46d0-8047-2d9a08fafcfd","ios":"levelo://app?vid=32090ad6-4c79-46d0-8047-2d9a08fafcfd"},"vehicle_type_id":"4","last_reported":1730279415,"current_range_meters":22000,"station_id":"ce4bhh92rcd13ifvqfi0","pricing_plan_id":"cebpf4jnsgd1na2vs0mg"},{"bike_id":"aa7363d2-24d1-4d4c-b9fd-273342b67c99","system_id":"levelo_inurba_marseille","lat":43.29504,"lon":5.37527,"is_reserved":false,"is_disabled":false,"rental_uris":{"android":"levelo://app?vid=aa7363d2-24d1-4d4c-b9fd-273342b67c99","ios":"levelo://app?vid=aa7363d2-24d1-4d4c-b9fd-273342b67c99"},"vehicle_type_id":"4","last_reported":1730279415,"current_range_meters":25200,"station_id":"ce4bgkp2rcd13ifvqbmg","pricing_plan_id":"cebpf4jnsgd1na2vs0mg"},{"bike_id":"cf1bf93e-b987-4f03-9549-b984bb838aa3","system_id":"levelo_inurba_marseille","lat":43.26774,"lon":5.39414,"is_reserved":false,"is_disabled":false,"rental_uris":{"android":"levelo://app?vid=cf1bf93e-b987-4f03-9549-b984bb838aa3","ios":"levelo://app?vid=cf1bf93e-b987-4f03-9549-b984bb838aa3"},"vehicle_type_id":"4","last_reported":1730279415,"current_range_meters":38000,"station_id":"ce4bhh12rcd13ifvqfg0","pricing_plan_id":"cebpf4jnsgd1na2vs0mg"},{"bike_id":"b76a38e9-45ec-4afc-b514-c5026792aa86","system_id":"levelo_inurba_marseille","lat":43.24077,"lon":5.37753,"is_reserved":false,"is_disabled":false,"rental_uris":{"android":"levelo://app?vid=b76a38e9-45ec-4afc-b514-c5026792aa86","ios":"levelo://app?vid=b76a38e9-45ec-4afc-b514-c5026792aa86"},"vehicle_type_id":"4","last_reported":1730279415,"current_range_meters":32800,"station_id":"ce4bhnp2rcd13ifvqgvg","pricing_plan_id":"cebpf4jnsgd1na2vs0mg"},{"bike_id":"2c7ac163-5d14-434f-b329-4cd81fa57c3b","system_id":"levelo_inurba_marseille","lat":43.28145,"lon":5.42642,"is_reserved":false,"is_disabled":false,"rental_uris":{"android":"levelo://app?vid=2c7ac163-5d14-434f-b329-4cd81fa57c3b","ios":"levelo://app?vid=2c7ac163-5d14-434f-b329-4cd81fa57c3b"},"vehicle_type_id":"4","last_reported":1730279415,"current_range_meters":38400,"station_id":"ce4bhnh2rcd13ifvqgug","pricing_plan_id":"cebpf4jnsgd1na2vs0mg"},{"bike_id":"3e7ccb55-c2c4-4413-99cd-f5ca3288a764","system_id":"levelo_inurba_marseille","lat":43.30137,"lon":5.37408,"is_reserved":false,"is_disabled":false,"rental_uris":{"android":"levelo://app?vid=3e7ccb55-c2c4-4413-99cd-f5ca3288a764","ios":"levelo://app?vid=3e7ccb55-c2c4-4413-99cd-f5ca3288a764"},"vehicle_type_id":"4","last_reported":1730279415,"current_range_meters":32000,"station_id":"ce4bgs92rcd13ifvqcc0","pricing_plan_id":"cebpf4jnsgd1na2vs0mg"},{"bike_id":"13e23d3b-df41-4a9f-9831-fc4f067d2a2c","system_id":"levelo_inurba_marseille","lat":43.30086,"lon":5.39088,"is_reserved":false,"is_disabled":false,"rental_uris":{"android":"levelo://app?vid=13e23d3b-df41-4a9f-9831-fc4f067d2a2c","ios":"levelo://app?vid=13e23d3b-df41-4a9f-9831-fc4f067d2a2c"},"vehicle_type_id":"4","last_reported":1730279415,"current_range_meters":38800,"station_id":"ce4bh192rcd13ifvqdb0","pricing_plan_id":"cebpf4jnsgd1na2vs0mg"},{"bike_id":"75645640-a347-4705-966c-cee9dcce09c4","system_id":"levelo_inurba_marseille","lat":43.26121,"lon":5.40077,"is_reserved":false,"is_disabled":false,"rental_uris":{"android":"levelo://app?vid=75645640-a347-4705-966c-cee9dcce09c4","ios":"levelo://app?vid=75645640-a347-4705-966c-cee9dcce09c4"},"vehicle_type_id":"4","last_reported":1730279415,"current_range_meters":7200,"station_id":"","pricing_plan_id":"cebpf4jnsgd1na2vs0mg"},{"bike_id":"ed4542ec-a766-43c5-bc78-9617bcbbe71c","system_id":"levelo_inurba_marseille","lat":43.2587,"lon":5.39899,"is_reserved":false,"is_disabled":false,"rental_uris":{"android":"levelo://app?vid=ed4542ec-a766-43c5-bc78-9617bcbbe71c","ios":"levelo://app?vid=ed4542ec-a766-43c5-bc78-9617bcbbe71c"},"vehicle_type_id":"4","last_reported":1730279415,"current_range_meters":9600,"station_id":"ce4bhl92rcd13ifvqghg","pricing_plan_id":"cebpf4jnsgd1na2vs0mg"},{"bike_id":"1f675603-396f-4c29-99b8-e658a198ceb9","system_id":"levelo_inurba_marseille","lat":43.30415,"lon":5.41283,"is_reserved":false,"is_disabled":false,"rental_uris":{"android":"levelo://app?vid=1f675603-396f-4c29-99b8-e658a198ceb9","ios":"levelo://app?vid=1f675603-396f-4c29-99b8-e658a198ceb9"},"vehicle_type_id":"4","last_reported":1730279415,"current_range_meters":38800,"station_id":"ce4bhop2rcd13ifvqh8g","pricing_plan_id":"cebpf4jnsgd1na2vs0mg"},{"bike_id":"679ee494-8130-4dc5-8952-6905dc172d52","system_id":"levelo_inurba_marseille","lat":43.29193,"lon":5.39304,"is_reserved":false,"is_disabled":false,"rental_uris":{"android":"levelo://app?vid=679ee494-8130-4dc5-8952-6905dc172d52","ios":"levelo://app?vid=679ee494-8130-4dc5-8952-6905dc172d52"},"vehicle_type_id":"4","last_reported":1730279415,"current_range_meters":38000,"station_id":"ce4bh192rcd13ifvqdd0","pricing_plan_id":"cebpf4jnsgd1na2vs0mg"},{"bike_id":"a06aaa3a-469c-4c08-9a71-0d7e5c362262","system_id":"levelo_inurba_marseille","lat":43.33718,"lon":5.39176,"is_reserved":false,"is_disabled":false,"rental_uris":{"android":"levelo://app?vid=a06aaa3a-469c-4c08-9a71-0d7e5c362262","ios":"levelo://app?vid=a06aaa3a-469c-4c08-9a71-0d7e5c362262"},"vehicle_type_id":"4","last_reported":1730279415,"current_range_meters":28000,"station_id":"ce4bhr92rcd13ifvqhsg","pricing_plan_id":"cebpf4jnsgd1na2vs0mg"},{"bike_id":"88ba3583-c8e5-450e-b225-1e7caeed896c","system_id":"levelo_inurba_marseille","lat":43.29609,"lon":5.37711,"is_reserved":false,"is_disabled":false,"rental_uris":{"android":"levelo://app?vid=88ba3583-c8e5-450e-b225-1e7caeed896c","ios":"levelo://app?vid=88ba3583-c8e5-450e-b225-1e7caeed896c"},"vehicle_type_id":"4","last_reported":1730279415,"current_range_meters":24400,"station_id":"ce4bgi92rcd13ifvqb90","pricing_plan_id":"cebpf4jnsgd1na2vs0mg"},{"bike_id":"61e2cb7f-4696-4309-9303-275d017ad742","system_id":"levelo_inurba_marseille","lat":43.30902,"lon":5.36856,"is_reserved":false,"is_disabled":false,"rental_uris":{"android":"levelo://app?vid=61e2cb7f-4696-4309-9303-275d017ad742","ios":"levelo://app?vid=61e2cb7f-4696-4309-9303-275d017ad742"},"vehicle_type_id":"4","last_reported":1730279415,"current_range_meters":24800,"station_id":"ce4bgn92rcd13ifvqbvg","pricing_plan_id":"cebpf4jnsgd1na2vs0mg"},{"bike_id":"ecc8c723-c8df-4892-afce-cb8537d90dbf","system_id":"levelo_inurba_marseille","lat":43.274275,"lon":5.394192,"is_reserved":false,"is_disabled":false,"rental_uris":{"android":"levelo://app?vid=ecc8c723-c8df-4892-afce-cb8537d90dbf","ios":"levelo://app?vid=ecc8c723-c8df-4892-afce-cb8537d90dbf"},"vehicle_type_id":"4","last_reported":1730279415,"current_range_meters":28000,"station_id":"ce4bhdp2rcd13ifvqf20","pricing_plan_id":"cebpf4jnsgd1na2vs0mg"},{"bike_id":"d3834406-5180-48ae-986e-7eca8f9a66e3","system_id":"levelo_inurba_marseille","lat":43.27065,"lon":5.42269,"is_reserved":false,"is_disabled":false,"rental_uris":{"android":"levelo://app?vid=d3834406-5180-48ae-986e-7eca8f9a66e3","ios":"levelo://app?vid=d3834406-5180-48ae-986e-7eca8f9a66e3"},"vehicle_type_id":"4","last_reported":1730279415,"current_range_meters":21600,"station_id":"ce4bhk92rcd13ifvqgb0","pricing_plan_id":"cebpf4jnsgd1na2vs0mg"},{"bike_id":"13c85d59-c7cb-409d-b7e2-9aa757f7035f","system_id":"levelo_inurba_marseille","lat":43.32655,"lon":5.40991,"is_reserved":false,"is_disabled":false,"rental_uris":{"android":"levelo://app?vid=13c85d59-c7cb-409d-b7e2-9aa757f7035f","ios":"levelo://app?vid=13c85d59-c7cb-409d-b7e2-9aa757f7035f"},"vehicle_type_id":"4","last_reported":1730279415,"current_range_meters":7200,"station_id":"ce4bhpp2rcd13ifvqhgg","pricing_plan_id":"cebpf4jnsgd1na2vs0mg"},{"bike_id":"99d2b6c3-4379-4a9a-933b-2d5a9480f4f1","system_id":"levelo_inurba_marseille","lat":43.31528,"lon":5.38033,"is_reserved":false,"is_disabled":false,"rental_uris":{"android":"levelo://app?vid=99d2b6c3-4379-4a9a-933b-2d5a9480f4f1","ios":"levelo://app?vid=99d2b6c3-4379-4a9a-933b-2d5a9480f4f1"},"vehicle_type_id":"4","last_reported":1730279415,"current_range_meters":37600,"station_id":"ce4bhsp2rcd13ifvqi50","pricing_plan_id":"cebpf4jnsgd1na2vs0mg"},{"bike_id":"b48eacfa-a4c4-4e90-acf3-6e3bbaaa5f6e","system_id":"levelo_inurba_marseille","lat":43.30929,"lon":5.40139,"is_reserved":false,"is_disabled":false,"rental_uris":{"android":"levelo://app?vid=b48eacfa-a4c4-4e90-acf3-6e3bbaaa5f6e","ios":"levelo://app?vid=b48eacfa-a4c4-4e90-acf3-6e3bbaaa5f6e"},"vehicle_type_id":"4","last_reported":1730279415,"current_range_meters":38800,"station_id":"ce4bgvp2rcd13ifvqct0","pricing_plan_id":"cebpf4jnsgd1na2vs0mg"},{"bike_id":"6496de7c-a611-41f5-be76-c2eee211d4ed","system_id":"levelo_inurba_marseille","lat":43.26201,"lon":5.37926,"is_reserved":false,"is_disabled":false,"rental_uris":{"android":"levelo://app?vid=6496de7c-a611-41f5-be76-c2eee211d4ed","ios":"levelo://app?vid=6496de7c-a611-41f5-be76-c2eee211d4ed"},"vehicle_type_id":"4","last_reported":1730279415,"current_range_meters":38000,"station_id":"ce4bhjp2rcd13ifvqg90","pricing_plan_id":"cebpf4jnsgd1na2vs0mg"},{"bike_id":"5ea475d8-fbf3-460f-872c-01c8b0273f69","system_id":"levelo_inurba_marseille","lat":43.2305,"lon":5.35491,"is_reserved":false,"is_disabled":false,"rental_uris":{"android":"levelo://app?vid=5ea475d8-fbf3-460f-872c-01c8b0273f69","ios":"levelo://app?vid=5ea475d8-fbf3-460f-872c-01c8b0273f69"},"vehicle_type_id":"4","last_reported":1730279415,"current_range_meters":9200,"station_id":"cpo3342slgdg3j2ifvpg","pricing_plan_id":"cebpf4jnsgd1na2vs0mg"},{"bike_id":"2be9bc22-5c5c-4737-9da1-744ca95ac8b4","system_id":"levelo_inurba_marseille","lat":43.32662,"lon":5.40992,"is_reserved":false,"is_disabled":false,"rental_uris":{"android":"levelo://app?vid=2be9bc22-5c5c-4737-9da1-744ca95ac8b4","ios":"levelo://app?vid=2be9bc22-5c5c-4737-9da1-744ca95ac8b4"},"vehicle_type_id":"4","last_reported":1730279415,"current_range_meters":6400,"station_id":"ce4bhpp2rcd13ifvqhgg","pricing_plan_id":"cebpf4jnsgd1na2vs0mg"},{"bike_id":"59c7403a-36af-4ab9-a8fb-4e8f180bdcbe","system_id":"levelo_inurba_marseille","lat":43.2408,"lon":5.37742,"is_reserved":false,"is_disabled":false,"rental_uris":{"android":"levelo://app?vid=59c7403a-36af-4ab9-a8fb-4e8f180bdcbe","ios":"levelo://app?vid=59c7403a-36af-4ab9-a8fb-4e8f180bdcbe"},"vehicle_type_id":"4","last_reported":1730279415,"current_range_meters":8000,"station_id":"ce4bhnp2rcd13ifvqgvg","pricing_plan_id":"cebpf4jnsgd1na2vs0mg"},{"bike_id":"319628af-6ed0-4c6b-85da-8e8cbc64e217","system_id":"levelo_inurba_marseille","lat":43.24388,"lon":5.37058,"is_reserved":false,"is_disabled":false,"rental_uris":{"android":"levelo://app?vid=319628af-6ed0-4c6b-85da-8e8cbc64e217","ios":"levelo://app?vid=319628af-6ed0-4c6b-85da-8e8cbc64e217"},"vehicle_type_id":"4","last_reported":1730279415,"current_range_meters":36800,"station_id":"ce4bhhh2rcd13ifvqfk0","pricing_plan_id":"cebpf4jnsgd1na2vs0mg"},{"bike_id":"96f1fe2b-27b3-45a5-8e58-f339dd6c49b1","system_id":"levelo_inurba_marseille","lat":43.30556,"lon":5.36535,"is_reserved":false,"is_disabled":false,"rental_uris":{"android":"levelo://app?vid=96f1fe2b-27b3-45a5-8e58-f339dd6c49b1","ios":"levelo://app?vid=96f1fe2b-27b3-45a5-8e58-f339dd6c49b1"},"vehicle_type_id":"4","last_reported":1730279415,"current_range_meters":32400,"station_id":"ce4bgs12rcd13ifvqcag","pricing_plan_id":"cebpf4jnsgd1na2vs0mg"},{"bike_id":"9093d695-bec2-4727-9c9c-01c6d9e2075a","system_id":"levelo_inurba_marseille","lat":43.25934,"lon":5.40898,"is_reserved":false,"is_disabled":false,"rental_uris":{"android":"levelo://app?vid=9093d695-bec2-4727-9c9c-01c6d9e2075a","ios":"levelo://app?vid=9093d695-bec2-4727-9c9c-01c6d9e2075a"},"vehicle_type_id":"4","last_reported":1730279415,"current_range_meters":29600,"station_id":"ce4bhm92rcd13ifvqglg","pricing_plan_id":"cebpf4jnsgd1na2vs0mg"},{"bike_id":"2a59e468-664b-4487-a13d-372ee2a99421","system_id":"levelo_inurba_marseille","lat":43.30279,"lon":5.37705,"is_reserved":false,"is_disabled":false,"rental_uris":{"android":"levelo://app?vid=2a59e468-664b-4487-a13d-372ee2a99421","ios":"levelo://app?vid=2a59e468-664b-4487-a13d-372ee2a99421"},"vehicle_type_id":"4","last_reported":1730279415,"current_range_meters":39200,"station_id":"ce4bguh2rcd13ifvqcj0","pricing_plan_id":"cebpf4jnsgd1na2vs0mg"},{"bike_id":"6d649922-92b7-4fcf-84bd-42a50e08c543","system_id":"levelo_inurba_marseille","lat":43.31349,"lon":5.38495,"is_reserved":false,"is_disabled":false,"rental_uris":{"android":"levelo://app?vid=6d649922-92b7-4fcf-84bd-42a50e08c543","ios":"levelo://app?vid=6d649922-92b7-4fcf-84bd-42a50e08c543"},"vehicle_type_id":"4","last_reported":1730279415,"current_range_meters":26800,"station_id":"ce4bgt92rcd13ifvqcf0","pricing_plan_id":"cebpf4jnsgd1na2vs0mg"},{"bike_id":"e366241d-c1fe-4644-873a-2224a9b75ef4","system_id":"levelo_inurba_marseille","lat":43.29928,"lon":5.36551,"is_reserved":false,"is_disabled":false,"rental_uris":{"android":"levelo://app?vid=e366241d-c1fe-4644-873a-2224a9b75ef4","ios":"levelo://app?vid=e366241d-c1fe-4644-873a-2224a9b75ef4"},"vehicle_type_id":"4","last_reported":1730279415,"current_range_meters":28400,"station_id":"ce4bgm92rcd13ifvqbr0","pricing_plan_id":"cebpf4jnsgd1na2vs0mg"},{"bike_id":"211fc61b-374e-419a-8f8b-cf7eb1fca45b","system_id":"levelo_inurba_marseille","lat":43.29605,"lon":5.37711,"is_reserved":false,"is_disabled":false,"rental_uris":{"android":"levelo://app?vid=211fc61b-374e-419a-8f8b-cf7eb1fca45b","ios":"levelo://app?vid=211fc61b-374e-419a-8f8b-cf7eb1fca45b"},"vehicle_type_id":"4","last_reported":1730279415,"current_range_meters":36800,"station_id":"ce4bgi92rcd13ifvqb90","pricing_plan_id":"cebpf4jnsgd1na2vs0mg"},{"bike_id":"9fe288c9-fe9f-4c89-b717-b20c89225f06","system_id":"levelo_inurba_marseille","lat":43.32912,"lon":5.3661,"is_reserved":false,"is_disabled":false,"rental_uris":{"android":"levelo://app?vid=9fe288c9-fe9f-4c89-b717-b20c89225f06","ios":"levelo://app?vid=9fe288c9-fe9f-4c89-b717-b20c89225f06"},"vehicle_type_id":"4","last_reported":1730279415,"current_range_meters":26000,"station_id":"","pricing_plan_id":"cebpf4jnsgd1na2vs0mg"},{"bike_id":"e57ec0cf-e8e2-4e64-a3ab-7fed01a88635","system_id":"levelo_inurba_marseille","lat":43.31333,"lon":5.36718,"is_reserved":false,"is_disabled":false,"rental_uris":{"android":"levelo://app?vid=e57ec0cf-e8e2-4e64-a3ab-7fed01a88635","ios":"levelo://app?vid=e57ec0cf-e8e2-4e64-a3ab-7fed01a88635"},"vehicle_type_id":"4","last_reported":1730279415,"current_range_meters":26000,"station_id":"ce4bgr92rcd13ifvqc6g","pricing_plan_id":"cebpf4jnsgd1na2vs0mg"},{"bike_id":"34294e45-0e27-4221-ad9a-96993664c40d","system_id":"levelo_inurba_marseille","lat":43.2418,"lon":5.39727,"is_reserved":false,"is_disabled":false,"rental_uris":{"android":"levelo://app?vid=34294e45-0e27-4221-ad9a-96993664c40d","ios":"levelo://app?vid=34294e45-0e27-4221-ad9a-96993664c40d"},"vehicle_type_id":"4","last_reported":1730279415,"current_range_meters":31200,"station_id":"ce4bhn12rcd13ifvqgpg","pricing_plan_id":"cebpf4jnsgd1na2vs0mg"},{"bike_id":"90d46870-9f40-4b4b-88a4-7acd7fb37a95","system_id":"levelo_inurba_marseille","lat":43.30536,"lon":5.36543,"is_reserved":false,"is_disabled":false,"rental_uris":{"android":"levelo://app?vid=90d46870-9f40-4b4b-88a4-7acd7fb37a95","ios":"levelo://app?vid=90d46870-9f40-4b4b-88a4-7acd7fb37a95"},"vehicle_type_id":"4","last_reported":1730279415,"current_range_meters":28000,"station_id":"ce4bgs12rcd13ifvqcag","pricing_plan_id":"cebpf4jnsgd1na2vs0mg"},{"bike_id":"d721ff6d-485d-48c6-84c6-b1a6b8d95c72","system_id":"levelo_inurba_marseille","lat":43.3054,"lon":5.36538,"is_reserved":false,"is_disabled":false,"rental_uris":{"android":"levelo://app?vid=d721ff6d-485d-48c6-84c6-b1a6b8d95c72","ios":"levelo://app?vid=d721ff6d-485d-48c6-84c6-b1a6b8d95c72"},"vehicle_type_id":"4","last_reported":1730279415,"current_range_meters":38800,"station_id":"ce4bgs12rcd13ifvqcag","pricing_plan_id":"cebpf4jnsgd1na2vs0mg"},{"bike_id":"77651b28-7240-49aa-9efe-a082cc337b36","system_id":"levelo_inurba_marseille","lat":43.30548,"lon":5.36699,"is_reserved":false,"is_disabled":false,"rental_uris":{"android":"levelo://app?vid=77651b28-7240-49aa-9efe-a082cc337b36","ios":"levelo://app?vid=77651b28-7240-49aa-9efe-a082cc337b36"},"vehicle_type_id":"4","last_reported":1730279415,"current_range_meters":18800,"station_id":"ce4bgrp2rcd13ifvqc9g","pricing_plan_id":"cebpf4jnsgd1na2vs0mg"},{"bike_id":"140e9036-5bb8-4aaa-a123-243fdf234154","system_id":"levelo_inurba_marseille","lat":43.27984,"lon":5.38726,"is_reserved":false,"is_disabled":false,"rental_uris":{"android":"levelo://app?vid=140e9036-5bb8-4aaa-a123-243fdf234154","ios":"levelo://app?vid=140e9036-5bb8-4aaa-a123-243fdf234154"},"vehicle_type_id":"4","last_reported":1730279415,"current_range_meters":16800,"station_id":"ce4bhg12rcd13ifvqf80","pricing_plan_id":"cebpf4jnsgd1na2vs0mg"},{"bike_id":"4a910a72-139a-4595-afeb-70f314b7bb5a","system_id":"levelo_inurba_marseille","lat":43.2998,"lon":5.37187,"is_reserved":false,"is_disabled":false,"rental_uris":{"android":"levelo://app?vid=4a910a72-139a-4595-afeb-70f314b7bb5a","ios":"levelo://app?vid=4a910a72-139a-4595-afeb-70f314b7bb5a"},"vehicle_type_id":"4","last_reported":1730279415,"current_range_meters":20000,"station_id":"ce4bgr92rcd13ifvqc7g","pricing_plan_id":"cebpf4jnsgd1na2vs0mg"},{"bike_id":"b61c7e2d-60bf-4f28-ab5a-9724e00e185c","system_id":"levelo_inurba_marseille","lat":43.23962,"lon":5.36629,"is_reserved":false,"is_disabled":false,"rental_uris":{"android":"levelo://app?vid=b61c7e2d-60bf-4f28-ab5a-9724e00e185c","ios":"levelo://app?vid=b61c7e2d-60bf-4f28-ab5a-9724e00e185c"},"vehicle_type_id":"4","last_reported":1730279415,"current_range_meters":14000,"station_id":"ce4bhi12rcd13ifvqfp0","pricing_plan_id":"cebpf4jnsgd1na2vs0mg"},{"bike_id":"ea848b0a-5785-4e5d-83d4-e4515f54c692","system_id":"levelo_inurba_marseille","lat":43.23183,"lon":5.39982,"is_reserved":false,"is_disabled":false,"rental_uris":{"android":"levelo://app?vid=ea848b0a-5785-4e5d-83d4-e4515f54c692","ios":"levelo://app?vid=ea848b0a-5785-4e5d-83d4-e4515f54c692"},"vehicle_type_id":"4","last_reported":1730279415,"current_range_meters":26800,"station_id":"ce4bhn12rcd13ifvqgqg","pricing_plan_id":"cebpf4jnsgd1na2vs0mg"},{"bike_id":"988e0a49-e802-42cf-abe7-99dd75b0a3dd","system_id":"levelo_inurba_marseille","lat":43.30145,"lon":5.37417,"is_reserved":false,"is_disabled":false,"rental_uris":{"android":"levelo://app?vid=988e0a49-e802-42cf-abe7-99dd75b0a3dd","ios":"levelo://app?vid=988e0a49-e802-42cf-abe7-99dd75b0a3dd"},"vehicle_type_id":"4","last_reported":1730279415,"current_range_meters":36000,"station_id":"ce4bgs92rcd13ifvqcc0","pricing_plan_id":"cebpf4jnsgd1na2vs0mg"},{"bike_id":"e8a1c3e1-9d3b-45e7-a671-c585320df52b","system_id":"levelo_inurba_marseille","lat":43.32474,"lon":5.36587,"is_reserved":false,"is_disabled":false,"rental_uris":{"android":"levelo://app?vid=e8a1c3e1-9d3b-45e7-a671-c585320df52b","ios":"levelo://app?vid=e8a1c3e1-9d3b-45e7-a671-c585320df52b"},"vehicle_type_id":"4","last_reported":1730279415,"current_range_meters":38800,"station_id":"ce4bhs12rcd13ifvqhvg","pricing_plan_id":"cebpf4jnsgd1na2vs0mg"},{"bike_id":"cba2a67d-6fda-44bd-86a3-7d37451102af","system_id":"levelo_inurba_marseille","lat":43.30153,"lon":5.38083,"is_reserved":false,"is_disabled":false,"rental_uris":{"android":"levelo://app?vid=cba2a67d-6fda-44bd-86a3-7d37451102af","ios":"levelo://app?vid=cba2a67d-6fda-44bd-86a3-7d37451102af"},"vehicle_type_id":"4","last_reported":1730279415,"current_range_meters":35200,"station_id":"ce4bgjp2rcd13ifvqbh0","pricing_plan_id":"cebpf4jnsgd1na2vs0mg"},{"bike_id":"1768b2ed-b293-42f5-a095-345317bb060b","system_id":"levelo_inurba_marseille","lat":43.30906,"lon":5.36856,"is_reserved":false,"is_disabled":false,"rental_uris":{"android":"levelo://app?vid=1768b2ed-b293-42f5-a095-345317bb060b","ios":"levelo://app?vid=1768b2ed-b293-42f5-a095-345317bb060b"},"vehicle_type_id":"4","last_reported":1730279415,"current_range_meters":24400,"station_id":"ce4bgn92rcd13ifvqbvg","pricing_plan_id":"cebpf4jnsgd1na2vs0mg"},{"bike_id":"e1d5344e-a6d4-4068-bf2e-e347a3432fb0","system_id":"levelo_inurba_marseille","lat":43.30274,"lon":5.37693,"is_reserved":false,"is_disabled":false,"rental_uris":{"android":"levelo://app?vid=e1d5344e-a6d4-4068-bf2e-e347a3432fb0","ios":"levelo://app?vid=e1d5344e-a6d4-4068-bf2e-e347a3432fb0"},"vehicle_type_id":"4","last_reported":1730279415,"current_range_meters":35600,"station_id":"ce4bguh2rcd13ifvqcj0","pricing_plan_id":"cebpf4jnsgd1na2vs0mg"},{"bike_id":"03f9e53e-7a03-4a95-9ef4-373c86c54ed6","system_id":"levelo_inurba_marseille","lat":43.25939,"lon":5.40902,"is_reserved":false,"is_disabled":false,"rental_uris":{"android":"levelo://app?vid=03f9e53e-7a03-4a95-9ef4-373c86c54ed6","ios":"levelo://app?vid=03f9e53e-7a03-4a95-9ef4-373c86c54ed6"},"vehicle_type_id":"4","last_reported":1730279415,"current_range_meters":36800,"station_id":"ce4bhm92rcd13ifvqglg","pricing_plan_id":"cebpf4jnsgd1na2vs0mg"},{"bike_id":"a0a2b278-3c52-4c26-9330-91fb0b590d02","system_id":"levelo_inurba_marseille","lat":43.30164,"lon":5.38083,"is_reserved":false,"is_disabled":false,"rental_uris":{"android":"levelo://app?vid=a0a2b278-3c52-4c26-9330-91fb0b590d02","ios":"levelo://app?vid=a0a2b278-3c52-4c26-9330-91fb0b590d02"},"vehicle_type_id":"4","last_reported":1730279415,"current_range_meters":32400,"station_id":"ce4bgjp2rcd13ifvqbh0","pricing_plan_id":"cebpf4jnsgd1na2vs0mg"},{"bike_id":"ca471b80-8d95-48df-88a2-5ea37fef7ad5","system_id":"levelo_inurba_marseille","lat":43.25108,"lon":5.40322,"is_reserved":false,"is_disabled":false,"rental_uris":{"android":"levelo://app?vid=ca471b80-8d95-48df-88a2-5ea37fef7ad5","ios":"levelo://app?vid=ca471b80-8d95-48df-88a2-5ea37fef7ad5"},"vehicle_type_id":"4","last_reported":1730279415,"current_range_meters":8000,"station_id":"ce4bhlh2rcd13ifvqgig","pricing_plan_id":"cebpf4jnsgd1na2vs0mg"},{"bike_id":"160c3125-d109-49e3-a687-ede78b99dea2","system_id":"levelo_inurba_marseille","lat":43.23196,"lon":5.35544,"is_reserved":false,"is_disabled":false,"rental_uris":{"android":"levelo://app?vid=160c3125-d109-49e3-a687-ede78b99dea2","ios":"levelo://app?vid=160c3125-d109-49e3-a687-ede78b99dea2"},"vehicle_type_id":"4","last_reported":1730279415,"current_range_meters":10800,"station_id":"ce4bhu92rcd13ifvqi70","pricing_plan_id":"cebpf4jnsgd1na2vs0mg"},{"bike_id":"b2bfaabe-82c9-4f94-93e8-e40201e6149b","system_id":"levelo_inurba_marseille","lat":43.292974,"lon":5.371527,"is_reserved":false,"is_disabled":false,"rental_uris":{"android":"levelo://app?vid=b2bfaabe-82c9-4f94-93e8-e40201e6149b","ios":"levelo://app?vid=b2bfaabe-82c9-4f94-93e8-e40201e6149b"},"vehicle_type_id":"4","last_reported":1730279415,"current_range_meters":25600,"station_id":"ce4bgh92rcd13ifvqb40","pricing_plan_id":"cebpf4jnsgd1na2vs0mg"},{"bike_id":"d15e5a3a-5812-42ae-8a22-b064b9e316b7","system_id":"levelo_inurba_marseille","lat":43.27994,"lon":5.40014,"is_reserved":false,"is_disabled":false,"rental_uris":{"android":"levelo://app?vid=d15e5a3a-5812-42ae-8a22-b064b9e316b7","ios":"levelo://app?vid=d15e5a3a-5812-42ae-8a22-b064b9e316b7"},"vehicle_type_id":"4","last_reported":1730279415,"current_range_meters":36800,"station_id":"ce4bho92rcd13ifvqh4g","pricing_plan_id":"cebpf4jnsgd1na2vs0mg"},{"bike_id":"3e4d4399-5d0e-4c51-8928-5f892ef8ec9d","system_id":"levelo_inurba_marseille","lat":43.29163,"lon":5.37163,"is_reserved":false,"is_disabled":false,"rental_uris":{"android":"levelo://app?vid=3e4d4399-5d0e-4c51-8928-5f892ef8ec9d","ios":"levelo://app?vid=3e4d4399-5d0e-4c51-8928-5f892ef8ec9d"},"vehicle_type_id":"4","last_reported":1730279415,"current_range_meters":31200,"station_id":"ce4bha92rcd13ifvqeh0","pricing_plan_id":"cebpf4jnsgd1na2vs0mg"},{"bike_id":"207cefb7-234a-4337-a797-6ee74e62a7af","system_id":"levelo_inurba_marseille","lat":43.30557,"lon":5.36554,"is_reserved":false,"is_disabled":false,"rental_uris":{"android":"levelo://app?vid=207cefb7-234a-4337-a797-6ee74e62a7af","ios":"levelo://app?vid=207cefb7-234a-4337-a797-6ee74e62a7af"},"vehicle_type_id":"4","last_reported":1730279415,"current_range_meters":38000,"station_id":"ce4bgs12rcd13ifvqcag","pricing_plan_id":"cebpf4jnsgd1na2vs0mg"},{"bike_id":"6baeb595-3699-4f73-ad2e-bef84e3a39f7","system_id":"levelo_inurba_marseille","lat":43.31351,"lon":5.36728,"is_reserved":false,"is_disabled":false,"rental_uris":{"android":"levelo://app?vid=6baeb595-3699-4f73-ad2e-bef84e3a39f7","ios":"levelo://app?vid=6baeb595-3699-4f73-ad2e-bef84e3a39f7"},"vehicle_type_id":"4","last_reported":1730279415,"current_range_meters":32400,"station_id":"ce4bgr92rcd13ifvqc6g","pricing_plan_id":"cebpf4jnsgd1na2vs0mg"},{"bike_id":"07e324bc-7357-4a50-a71d-ea19063c9374","system_id":"levelo_inurba_marseille","lat":43.272006,"lon":5.399911,"is_reserved":false,"is_disabled":false,"rental_uris":{"android":"levelo://app?vid=07e324bc-7357-4a50-a71d-ea19063c9374","ios":"levelo://app?vid=07e324bc-7357-4a50-a71d-ea19063c9374"},"vehicle_type_id":"4","last_reported":1730279415,"current_range_meters":14400,"station_id":"","pricing_plan_id":"cebpf4jnsgd1na2vs0mg"},{"bike_id":"15a93ee0-d889-4fc1-bc38-744b966c1b98","system_id":"levelo_inurba_marseille","lat":43.29711,"lon":5.37699,"is_reserved":false,"is_disabled":false,"rental_uris":{"android":"levelo://app?vid=15a93ee0-d889-4fc1-bc38-744b966c1b98","ios":"levelo://app?vid=15a93ee0-d889-4fc1-bc38-744b966c1b98"},"vehicle_type_id":"4","last_reported":1730279415,"current_range_meters":27200,"station_id":"ce4bgkh2rcd13ifvqbl0","pricing_plan_id":"cebpf4jnsgd1na2vs0mg"},{"bike_id":"94b430e5-c68e-47cf-a1a3-28bccb45829a","system_id":"levelo_inurba_marseille","lat":43.28018,"lon":5.36558,"is_reserved":false,"is_disabled":false,"rental_uris":{"android":"levelo://app?vid=94b430e5-c68e-47cf-a1a3-28bccb45829a","ios":"levelo://app?vid=94b430e5-c68e-47cf-a1a3-28bccb45829a"},"vehicle_type_id":"4","last_reported":1730279415,"current_range_meters":36000,"station_id":"ce4bhbh2rcd13ifvqeo0","pricing_plan_id":"cebpf4jnsgd1na2vs0mg"},{"bike_id":"ccdfd319-6908-4ad8-9315-50628bb4a478","system_id":"levelo_inurba_marseille","lat":43.27178,"lon":5.40986,"is_reserved":false,"is_disabled":false,"rental_uris":{"android":"levelo://app?vid=ccdfd319-6908-4ad8-9315-50628bb4a478","ios":"levelo://app?vid=ccdfd319-6908-4ad8-9315-50628bb4a478"},"vehicle_type_id":"4","last_reported":1730279415,"current_range_meters":39200,"station_id":"ce4bhl12rcd13ifvqgf0","pricing_plan_id":"cebpf4jnsgd1na2vs0mg"},{"bike_id":"7d7c7b0a-2e7f-435e-9a0b-9fedc54eb71b","system_id":"levelo_inurba_marseille","lat":43.32539,"lon":5.41446,"is_reserved":false,"is_disabled":false,"rental_uris":{"android":"levelo://app?vid=7d7c7b0a-2e7f-435e-9a0b-9fedc54eb71b","ios":"levelo://app?vid=7d7c7b0a-2e7f-435e-9a0b-9fedc54eb71b"},"vehicle_type_id":"4","last_reported":1730279415,"current_range_meters":20000,"station_id":"ce4bhq12rcd13ifvqhhg","pricing_plan_id":"cebpf4jnsgd1na2vs0mg"},{"bike_id":"72607bf4-bf02-4d9e-a724-b2a1cbfa169d","system_id":"levelo_inurba_marseille","lat":43.24074,"lon":5.37756,"is_reserved":false,"is_disabled":false,"rental_uris":{"android":"levelo://app?vid=72607bf4-bf02-4d9e-a724-b2a1cbfa169d","ios":"levelo://app?vid=72607bf4-bf02-4d9e-a724-b2a1cbfa169d"},"vehicle_type_id":"4","last_reported":1730279415,"current_range_meters":38800,"station_id":"ce4bhnp2rcd13ifvqgvg","pricing_plan_id":"cebpf4jnsgd1na2vs0mg"},{"bike_id":"b1a99226-ccc1-4db9-a7fd-eb25c9449489","system_id":"levelo_inurba_marseille","lat":43.32048,"lon":5.41545,"is_reserved":false,"is_disabled":false,"rental_uris":{"android":"levelo://app?vid=b1a99226-ccc1-4db9-a7fd-eb25c9449489","ios":"levelo://app?vid=b1a99226-ccc1-4db9-a7fd-eb25c9449489"},"vehicle_type_id":"4","last_reported":1730279415,"current_range_meters":32400,"station_id":"ce4bhq92rcd13ifvqhkg","pricing_plan_id":"cebpf4jnsgd1na2vs0mg"},{"bike_id":"0fa14306-354f-4dd4-a517-29422b1fd161","system_id":"levelo_inurba_marseille","lat":43.27993,"lon":5.40014,"is_reserved":false,"is_disabled":false,"rental_uris":{"android":"levelo://app?vid=0fa14306-354f-4dd4-a517-29422b1fd161","ios":"levelo://app?vid=0fa14306-354f-4dd4-a517-29422b1fd161"},"vehicle_type_id":"4","last_reported":1730279415,"current_range_meters":19600,"station_id":"ce4bho92rcd13ifvqh4g","pricing_plan_id":"cebpf4jnsgd1na2vs0mg"},{"bike_id":"1cdad1e0-5255-4c69-973d-12b025ca8c3e","system_id":"levelo_inurba_marseille","lat":43.26955,"lon":5.38624,"is_reserved":false,"is_disabled":false,"rental_uris":{"android":"levelo://app?vid=1cdad1e0-5255-4c69-973d-12b025ca8c3e","ios":"levelo://app?vid=1cdad1e0-5255-4c69-973d-12b025ca8c3e"},"vehicle_type_id":"4","last_reported":1730279415,"current_range_meters":32800,"station_id":"ce4bhh92rcd13ifvqfh0","pricing_plan_id":"cebpf4jnsgd1na2vs0mg"},{"bike_id":"f0fd9080-980d-4869-bed0-f3618cd0eee7","system_id":"levelo_inurba_marseille","lat":43.31346,"lon":5.36738,"is_reserved":false,"is_disabled":false,"rental_uris":{"android":"levelo://app?vid=f0fd9080-980d-4869-bed0-f3618cd0eee7","ios":"levelo://app?vid=f0fd9080-980d-4869-bed0-f3618cd0eee7"},"vehicle_type_id":"4","last_reported":1730279415,"current_range_meters":20800,"station_id":"ce4bgr92rcd13ifvqc6g","pricing_plan_id":"cebpf4jnsgd1na2vs0mg"},{"bike_id":"509c1a13-0b4f-4f63-aa2c-bd14ea6d8358","system_id":"levelo_inurba_marseille","lat":43.25941,"lon":5.40899,"is_reserved":false,"is_disabled":false,"rental_uris":{"android":"levelo://app?vid=509c1a13-0b4f-4f63-aa2c-bd14ea6d8358","ios":"levelo://app?vid=509c1a13-0b4f-4f63-aa2c-bd14ea6d8358"},"vehicle_type_id":"4","last_reported":1730279415,"current_range_meters":36800,"station_id":"ce4bhm92rcd13ifvqglg","pricing_plan_id":"cebpf4jnsgd1na2vs0mg"},{"bike_id":"25918f68-1b07-4021-b0da-9b665deaa236","system_id":"levelo_inurba_marseille","lat":43.290138,"lon":5.399338,"is_reserved":false,"is_disabled":false,"rental_uris":{"android":"levelo://app?vid=25918f68-1b07-4021-b0da-9b665deaa236","ios":"levelo://app?vid=25918f68-1b07-4021-b0da-9b665deaa236"},"vehicle_type_id":"4","last_reported":1730279415,"current_range_meters":22800,"station_id":"ce4bh392rcd13ifvqdm0","pricing_plan_id":"cebpf4jnsgd1na2vs0mg"},{"bike_id":"489fdfcd-53f5-49ba-99d0-a169935f9250","system_id":"levelo_inurba_marseille","lat":43.28849,"lon":5.393153,"is_reserved":false,"is_disabled":false,"rental_uris":{"android":"levelo://app?vid=489fdfcd-53f5-49ba-99d0-a169935f9250","ios":"levelo://app?vid=489fdfcd-53f5-49ba-99d0-a169935f9250"},"vehicle_type_id":"4","last_reported":1730279415,"current_range_meters":28800,"station_id":"ce4bh2p2rcd13ifvqdi0","pricing_plan_id":"cebpf4jnsgd1na2vs0mg"},{"bike_id":"005cd41e-1e6c-4966-bb34-05eb78bd0c22","system_id":"levelo_inurba_marseille","lat":43.29685,"lon":5.3728,"is_reserved":false,"is_disabled":false,"rental_uris":{"android":"levelo://app?vid=005cd41e-1e6c-4966-bb34-05eb78bd0c22","ios":"levelo://app?vid=005cd41e-1e6c-4966-bb34-05eb78bd0c22"},"vehicle_type_id":"4","last_reported":1730279415,"current_range_meters":27200,"station_id":"ce4bgk12rcd13ifvqbj0","pricing_plan_id":"cebpf4jnsgd1na2vs0mg"},{"bike_id":"75b3c671-49be-440f-a76b-7faabae27970","system_id":"levelo_inurba_marseille","lat":43.26786,"lon":5.39411,"is_reserved":false,"is_disabled":false,"rental_uris":{"android":"levelo://app?vid=75b3c671-49be-440f-a76b-7faabae27970","ios":"levelo://app?vid=75b3c671-49be-440f-a76b-7faabae27970"},"vehicle_type_id":"4","last_reported":1730279415,"current_range_meters":38800,"station_id":"ce4bhh12rcd13ifvqfg0","pricing_plan_id":"cebpf4jnsgd1na2vs0mg"},{"bike_id":"1fedc88c-c4fc-4b78-b422-596bb4e9e1f8","system_id":"levelo_inurba_marseille","lat":43.26776,"lon":5.39418,"is_reserved":false,"is_disabled":false,"rental_uris":{"android":"levelo://app?vid=1fedc88c-c4fc-4b78-b422-596bb4e9e1f8","ios":"levelo://app?vid=1fedc88c-c4fc-4b78-b422-596bb4e9e1f8"},"vehicle_type_id":"4","last_reported":1730279415,"current_range_meters":39200,"station_id":"ce4bhh12rcd13ifvqfg0","pricing_plan_id":"cebpf4jnsgd1na2vs0mg"},