{"last_updated":1703948758,"ttl":30,"version":"2.2","data":{"bikes":[{"bike_id":"7453e6cc-a927-4aee-b545-5d027ed52344","system_id":"levelo_inurba_marseille","lat":43.308784,"lon":5.371984,"is_reserved":false,"is_disabled":false,"rental_uris":{"android":"levelo://app?vid=7453e6cc-a927-4aee-b545-5d027ed52344","ios":"levelo://app?vid=7453e6cc-a927-4aee-b545-5d027ed52344"},"vehicle_type_id":"4","last_reported":1703948758,"current_range_meters":28000,"station_id":"ce4bguh2rcd13ifvqckg","pricing_plan_id":"free"},{"bike_id":"eb8d6764-79de-43b1-88e8-a8a1811697a3","system_id":"levelo_inurba_marseille","lat":43.309039,"lon":5.371797,"is_reserved":false,"is_disabled":false,"rental_uris":{"android":"levelo://app?vid=eb8d6764-79de-43b1-88e8-a8a1811697a3","ios":"levelo://app?vid=eb8d6764-79de-43b1-88e8-a8a1811697a3"},"vehicle_type_id":"4","last_reported":1703948758,"current_range_meters":13600,"station_id":"ce4bguh2rcd13ifvqckg","pricing_plan_id":"free"},{"bike_id":"64a93320-b6f7-4f00-82e1-5c71938933c4","system_id":"levelo_inurba_marseille","lat":43.316664,"lon":5.374405,"is_reserved":false,"is_disabled":false,"rental_uris":{"android":"levelo://app?vid=64a93320-b6f7-4f00-82e1-5c71938933c4","ios":"levelo://app?vid=64a93320-b6f7-4f00-82e1-5c71938933c4"},"vehicle_type_id":"4","last_reported":1703948758,"current_range_meters":22800,"station_id":"","pricing_plan_id":"free"},{"bike_id":"2bf1159c-4b34-4bc3-a8b5-156be571c011","system_id":"levelo_inurba_marseille","lat":43.307843,"lon":5.373431,"is_reserved":false,"is_disabled":false,"rental_uris":{"android":"levelo://app?vid=2bf1159c-4b34-4bc3-a8b5-156be571c011","ios":"levelo://app?vid=2bf1159c-4b34-4bc3-a8b5-156be571c011"},"vehicle_type_id":"4","last_reported":1703948758,"current_range_meters":27600,"station_id":"","pricing_plan_id":"free"},{"bike_id":"a3c8d623-a85c-45ca-8fac-8710ce7491da","system_id":"levelo_inurba_marseille","lat":43.30638,"lon":5.37188,"is_reserved":false,"is_disabled":false,"rental_uris":{"android":"levelo://app?vid=a3c8d623-a85c-45ca-8fac-8710ce7491da","ios":"levelo://app?vid=a3c8d623-a85c-45ca-8fac-8710ce7491da"},"vehicle_type_id":"4","last_reported":1703948758,"current_range_meters":8800,"station_id":"","pricing_plan_id":"free"},{"bike_id":"66daefdb-9679-454d-bffc-33fd9026f157","system_id":"levelo_inurba_marseille","lat":43.305712,"lon":5.365641,"is_reserved":false,"is_disabled":false,"rental_uris":{"android":"levelo://app?vid=66daefdb-9679-454d-bffc-33fd9026f157","ios":"levelo://app?vid=66daefdb-9679-454d-bffc-33fd9026f157"},"vehicle_type_id":"4","last_reported":1703948758,"current_range_meters":11600,"station_id":"ce4bgs12rcd13ifvqcag","pricing_plan_id":"free"},{"bike_id":"b93b289e-c0c7-4eb9-8eee-b7de44d77e9c","system_id":"levelo_inurba_marseille","lat":43.305706,"lon":5.365654,"is_reserved":false,"is_disabled":false,"rental_uris":{"android":"levelo://app?vid=b93b289e-c0c7-4eb9-8eee-b7de44d77e9c","ios":"levelo://app?vid=b93b289e-c0c7-4eb9-8eee-b7de44d77e9c"},"vehicle_type_id":"4","last_reported":1703948758,"current_range_meters":0,"station_id":"ce4bgs12rcd13ifvqcag","pricing_plan_id":"free"},{"bike_id":"83540322-7135-42bf-8d43-43e5b539d457","system_id":"levelo_inurba_marseille","lat":43.305989,"lon":5.37225,"is_reserved":false,"is_disabled":false,"rental_uris":{"android":"levelo://app?vid=83540322-7135-42bf-8d43-43e5b539d457","ios":"levelo://app?vid=83540322-7135-42bf-8d43-43e5b539d457"},"vehicle_type_id":"4","last_reported":1703948758,"current_range_meters":6800,"station_id":"ce4bgqh2rcd13ifvqc4g","pricing_plan_id":"free"},{"bike_id":"48a11a79-75e9-441c-8612-8784d24a7e3b","system_id":"levelo_inurba_marseille","lat":43.305989,"lon":5.37225,"is_reserved":false,"is_disabled":false,"rental_uris":{"android":"levelo://app?vid=48a11a79-75e9-441c-8612-8784d24a7e3b","ios":"levelo://app?vid=48a11a79-75e9-441c-8612-8784d24a7e3b"},"vehicle_type_id":"4","last_reported":1703948758,"current_range_meters":5200,"station_id":"ce4bgqh2rcd13ifvqc4g","pricing_plan_id":"free"},{"bike_id":"fb311015-0009-4f37-9e93-7bf4f9993aa5","system_id":"levelo_inurba_marseille","lat":43.311125,"lon":5.377624,"is_reserved":false,"is_disabled":false,"rental_uris":{"android":"levelo://app?vid=fb311015-0009-4f37-9e93-7bf4f9993aa5","ios":"levelo://app?vid=fb311015-0009-4f37-9e93-7bf4f9993aa5"},"vehicle_type_id":"4","last_reported":1703948758,"current_range_meters":14800,"station_id":"ce4bgt92rcd13ifvqcg0","pricing_plan_id":"free"},{"bike_id":"25af9e1c-886c-4f64-92f2-5ca68e46ae4a","system_id":"levelo_inurba_marseille","lat":43.31722,"lon":5.37668,"is_reserved":false,"is_disabled":false,"rental_uris":{"android":"levelo://app?vid=25af9e1c-886c-4f64-92f2-5ca68e46ae4a","ios":"levelo://app?vid=25af9e1c-886c-4f64-92f2-5ca68e46ae4a"},"vehicle_type_id":"4","last_reported":1703948758,"current_range_meters":25600,"station_id":"","pricing_plan_id":"free"},{"bike_id":"c1f1f223-53b1-4496-bff1-449bc46c91cc","system_id":"levelo_inurba_marseille","lat":43.317075,"lon":5.377367,"is_reserved":false,"is_disabled":false,"rental_uris":{"android":"levelo://app?vid=c1f1f223-53b1-4496-bff1-449bc46c91cc","ios":"levelo://app?vid=c1f1f223-53b1-4496-bff1-449bc46c91cc"},"vehicle_type_id":"4","last_reported":1703948758,"current_range_meters":28400,"station_id":"ce4bgth2rcd13ifvqch0","pricing_plan_id":"free"},{"bike_id":"84a0f21c-04f4-49d8-827f-8b623d658faf","system_id":"levelo_inurba_marseille","lat":43.30433,"lon":5.37328,"is_reserved":false,"is_disabled":false,"rental_uris":{"android":"levelo://app?vid=84a0f21c-04f4-49d8-827f-8b623d658faf","ios":"levelo://app?vid=84a0f21c-04f4-49d8-827f-8b623d658faf"},"vehicle_type_id":"4","last_reported":1703948758,"current_range_meters":17600,"station_id":"","pricing_plan_id":"free"},{"bike_id":"b96fa307-b231-4078-87a1-831ec749b752","system_id":"levelo_inurba_marseille","lat":43.30304,"lon":5.368987,"is_reserved":false,"is_disabled":false,"rental_uris":{"android":"levelo://app?vid=b96fa307-b231-4078-87a1-831ec749b752","ios":"levelo://app?vid=b96fa307-b231-4078-87a1-831ec749b752"},"vehicle_type_id":"4","last_reported":1703948758,"current_range_meters":27600,"station_id":"ce4bgqh2rcd13ifvqc5g","pricing_plan_id":"free"},{"bike_id":"fa42125a-2b48-4e78-9b49-e4925096e263","system_id":"levelo_inurba_marseille","lat":43.315293,"lon":5.380349,"is_reserved":false,"is_disabled":false,"rental_uris":{"android":"levelo://app?vid=fa42125a-2b48-4e78-9b49-e4925096e263","ios":"levelo://app?vid=fa42125a-2b48-4e78-9b49-e4925096e263"},"vehicle_type_id":"4","last_reported":1703948758,"current_range_meters":12000,"station_id":"ce4bhsp2rcd13ifvqi50","pricing_plan_id":"free"},{"bike_id":"ad830906-2780-4b40-93b1-f0fbec6fe84a","system_id":"levelo_inurba_marseille","lat":43.31546,"lon":5.3804,"is_reserved":false,"is_disabled":false,"rental_uris":{"android":"levelo://app?vid=ad830906-2780-4b40-93b1-f0fbec6fe84a","ios":"levelo://app?vid=ad830906-2780-4b40-93b1-f0fbec6fe84a"},"vehicle_type_id":"4","last_reported":1703948758,"current_range_meters":23600,"station_id":"ce4bhsp2rcd13ifvqi50","pricing_plan_id":"free"},{"bike_id":"604e1f97-b246-4253-bf9b-b4615a2ed569","system_id":"levelo_inurba_marseille","lat":43.308012,"lon":5.381511,"is_reserved":false,"is_disabled":false,"rental_uris":{"android":"levelo://app?vid=604e1f97-b246-4253-bf9b-b4615a2ed569","ios":"levelo://app?vid=604e1f97-b246-4253-bf9b-b4615a2ed569"},"vehicle_type_id":"4","last_reported":1703948758,"current_range_meters":20800,"station_id":"ce4bgt12rcd13ifvqce0","pricing_plan_id":"free"},{"bike_id":"dd3b71aa-b5e6-418e-8d63-82e5d67dece0","system_id":"levelo_inurba_marseille","lat":43.308012,"lon":5.381511,"is_reserved":false,"is_disabled":false,"rental_uris":{"android":"levelo://app?vid=dd3b71aa-b5e6-418e-8d63-82e5d67dece0","ios":"levelo://app?vid=dd3b71aa-b5e6-418e-8d63-82e5d67dece0"},"vehicle_type_id":"4","last_reported":1703948758,"current_range_meters":26800,"station_id":"ce4bgt12rcd13ifvqce0","pricing_plan_id":"free"},{"bike_id":"7734f670-e9a5-408d-88d9-d39286226888","system_id":"levelo_inurba_marseille","lat":43.308012,"lon":5.381511,"is_reserved":false,"is_disabled":false,"rental_uris":{"android":"levelo://app?vid=7734f670-e9a5-408d-88d9-d39286226888","ios":"levelo://app?vid=7734f670-e9a5-408d-88d9-d39286226888"},"vehicle_type_id":"4","last_reported":1703948758,"current_range_meters":21200,"station_id":"ce4bgt12rcd13ifvqce0","pricing_plan_id":"free"},{"bike_id":"e4dcb29d-6179-427e-822d-8621bcd08456","system_id":"levelo_inurba_marseille","lat":43.304708,"lon":5.379039,"is_reserved":false,"is_disabled":false,"rental_uris":{"android":"levelo://app?vid=e4dcb29d-6179-427e-822d-8621bcd08456","ios":"levelo://app?vid=e4dcb29d-6179-427e-822d-8621bcd08456"},"vehicle_type_id":"4","last_reported":1703948758,"current_range_meters":22000,"station_id":"","pricing_plan_id":"free"},{"bike_id":"7d5a5fe5-0b70-43bb-9224-59cfb24cc454","system_id":"levelo_inurba_marseille","lat":43.324771,"lon":5.36557,"is_reserved":false,"is_disabled":false,"rental_uris":{"android":"levelo://app?vid=7d5a5fe5-0b70-43bb-9224-59cfb24cc454","ios":"levelo://app?vid=7d5a5fe5-0b70-43bb-9224-59cfb24cc454"},"vehicle_type_id":"4","last_reported":1703948758,"current_range_meters":10800,"station_id":"ce4bhs12rcd13ifvqhvg","pricing_plan_id":"free"},{"bike_id":"ca341ae7-df28-456b-b1c2-455111f76789","system_id":"levelo_inurba_marseille","lat":43.324771,"lon":5.36557,"is_reserved":false,"is_disabled":false,"rental_uris":{"android":"levelo://app?vid=ca341ae7-df28-456b-b1c2-455111f76789","ios":"levelo://app?vid=ca341ae7-df28-456b-b1c2-455111f76789"},"vehicle_type_id":"4","last_reported":1703948758,"current_range_meters":22000,"station_id":"ce4bhs12rcd13ifvqhvg","pricing_plan_id":"free"},{"bike_id":"e255ffc9-56f2-419a-81be-8cce8edebcd4","system_id":"levelo_inurba_marseille","lat":43.313571,"lon":5.384829,"is_reserved":false,"is_disabled":false,"rental_uris":{"android":"levelo://app?vid=e255ffc9-56f2-419a-81be-8cce8edebcd4","ios":"levelo://app?vid=e255ffc9-56f2-419a-81be-8cce8edebcd4"},"vehicle_type_id":"4","last_reported":1703948758,"current_range_meters":3200,"station_id":"ce4bgt92rcd13ifvqcf0","pricing_plan_id":"free"},{"bike_id":"89e17b4a-c90f-45e4-aebd-26d7a6e65782","system_id":"levelo_inurba_marseille","lat":43.299724,"lon":5.371829,"is_reserved":false,"is_disabled":false,"rental_uris":{"android":"levelo://app?vid=89e17b4a-c90f-45e4-aebd-26d7a6e65782","ios":"levelo://app?vid=89e17b4a-c90f-45e4-aebd-26d7a6e65782"},"vehicle_type_id":"4","last_reported":1703948758,"current_range_meters":25600,"station_id":"ce4bgr92rcd13ifvqc7g","pricing_plan_id":"free"},{"bike_id":"2154e13a-10ef-4d79-b4f3-a92c055765e5","system_id":"levelo_inurba_marseille","lat":43.322872,"lon":5.382756,"is_reserved":false,"is_disabled":false,"rental_uris":{"android":"levelo://app?vid=2154e13a-10ef-4d79-b4f3-a92c055765e5","ios":"levelo://app?vid=2154e13a-10ef-4d79-b4f3-a92c055765e5"},"vehicle_type_id":"4","last_reported":1703948758,"current_range_meters":28000,"station_id":"ce4bhr12rcd13ifvqhqg","pricing_plan_id":"free"},{"bike_id":"accbbe6d-f8a2-4d0d-badc-393301aad27d","system_id":"levelo_inurba_marseille","lat":43.322872,"lon":5.382756,"is_reserved":false,"is_disabled":false,"rental_uris":{"android":"levelo://app?vid=accbbe6d-f8a2-4d0d-badc-393301aad27d","ios":"levelo://app?vid=accbbe6d-f8a2-4d0d-badc-393301aad27d"},"vehicle_type_id":"4","last_reported":1703948758,"current_range_meters":28000,"station_id":"ce4bhr12rcd13ifvqhqg","pricing_plan_id":"free"},{"bike_id":"b30b3d1b-ef61-4776-bd7b-61c34fd8cc81","system_id":"levelo_inurba_marseille","lat":43.32822,"lon":5.366795,"is_reserved":false,"is_disabled":false,"rental_uris":{"android":"levelo://app?vid=b30b3d1b-ef61-4776-bd7b-61c34fd8cc81","ios":"levelo://app?vid=b30b3d1b-ef61-4776-bd7b-61c34fd8cc81"},"vehicle_type_id":"4","last_reported":1703948758,"current_range_meters":6800,"station_id":"ce4bhs92rcd13ifvqi0g","pricing_plan_id":"free"},{"bike_id":"7d6d006d-1ffd-499a-b21c-af208ba00600","system_id":"levelo_inurba_marseille","lat":43.32822,"lon":5.36679,"is_reserved":false,"is_disabled":false,"rental_uris":{"android":"levelo://app?vid=7d6d006d-1ffd-499a-b21c-af208ba00600","ios":"levelo://app?vid=7d6d006d-1ffd-499a-b21c-af208ba00600"},"vehicle_type_id":"4","last_reported":1703948758,"current_range_meters":23600,"station_id":"ce4bhs92rcd13ifvqi0g","pricing_plan_id":"free"},{"bike_id":"a677cd10-a09b-4b2e-bffd-45b05d2c9229","system_id":"levelo_inurba_marseille","lat":43.32823,"lon":5.36681,"is_reserved":false,"is_disabled":false,"rental_uris":{"android":"levelo://app?vid=a677cd10-a09b-4b2e-bffd-45b05d2c9229","ios":"levelo://app?vid=a677cd10-a09b-4b2e-bffd-45b05d2c9229"},"vehicle_type_id":"4","last_reported":1703948758,"current_range_meters":18000,"station_id":"ce4bhs92rcd13ifvqi0g","pricing_plan_id":"free"},{"bike_id":"51714c4a-3132-4951-88ec-80e85fa125e8","system_id":"levelo_inurba_marseille","lat":43.328248,"lon":5.36678,"is_reserved":false,"is_disabled":false,"rental_uris":{"android":"levelo://app?vid=51714c4a-3132-4951-88ec-80e85fa125e8","ios":"levelo://app?vid=51714c4a-3132-4951-88ec-80e85fa125e8"},"vehicle_type_id":"4","last_reported":1703948758,"current_range_meters":9600,"station_id":"ce4bhs92rcd13ifvqi0g","pricing_plan_id":"free"},{"bike_id":"5c89eee7-6e83-42b4-bd81-efdcf68f6666","system_id":"levelo_inurba_marseille","lat":43.32826,"lon":5.36684,"is_reserved":false,"is_disabled":false,"rental_uris":{"android":"levelo://app?vid=5c89eee7-6e83-42b4-bd81-efdcf68f6666","ios":"levelo://app?vid=5c89eee7-6e83-42b4-bd81-efdcf68f6666"},"vehicle_type_id":"4","last_reported":1703948758,"current_range_meters":27600,"station_id":"ce4bhs92rcd13ifvqi0g","pricing_plan_id":"free"},{"bike_id":"3406ac08-144e-419c-8a8c-9c89910b5b78","system_id":"levelo_inurba_marseille","lat":43.32826,"lon":5.36675,"is_reserved":false,"is_disabled":false,"rental_uris":{"android":"levelo://app?vid=3406ac08-144e-419c-8a8c-9c89910b5b78","ios":"levelo://app?vid=3406ac08-144e-419c-8a8c-9c89910b5b78"},"vehicle_type_id":"4","last_reported":1703948758,"current_range_meters":10400,"station_id":"ce4bhs92rcd13ifvqi0g","pricing_plan_id":"free"},{"bike_id":"6eb75a18-acfd-4ffa-bf23-27c5e63a3c58","system_id":"levelo_inurba_marseille","lat":43.32827,"lon":5.36677,"is_reserved":false,"is_disabled":false,"rental_uris":{"android":"levelo://app?vid=6eb75a18-acfd-4ffa-bf23-27c5e63a3c58","ios":"levelo://app?vid=6eb75a18-acfd-4ffa-bf23-27c5e63a3c58"},"vehicle_type_id":"4","last_reported":1703948758,"current_range_meters":14000,"station_id":"ce4bhs92rcd13ifvqi0g","pricing_plan_id":"free"},{"bike_id":"43517afb-7930-42e8-a305-e900a3000a28","system_id":"levelo_inurba_marseille","lat":43.32827,"lon":5.36677,"is_reserved":false,"is_disabled":false,"rental_uris":{"android":"levelo://app?vid=43517afb-7930-42e8-a305-e900a3000a28","ios":"levelo://app?vid=43517afb-7930-42e8-a305-e900a3000a28"},"vehicle_type_id":"4","last_reported":1703948758,"current_range_meters":20000,"station_id":"ce4bhs92rcd13ifvqi0g","pricing_plan_id":"free"},{"bike_id":"74ff96ff-c851-4d57-8883-0d7347bd471f","system_id":"levelo_inurba_marseille","lat":43.328277,"lon":5.366863,"is_reserved":false,"is_disabled":false,"rental_uris":{"android":"levelo://app?vid=74ff96ff-c851-4d57-8883-0d7347bd471f","ios":"levelo://app?vid=74ff96ff-c851-4d57-8883-0d7347bd471f"},"vehicle_type_id":"4","last_reported":1703948758,"current_range_meters":30400,"station_id":"ce4bhs92rcd13ifvqi0g","pricing_plan_id":"free"},{"bike_id":"c99c1421-6c70-45e1-a99f-19afba82ca69","system_id":"levelo_inurba_marseille","lat":43.32828,"lon":5.36676,"is_reserved":false,"is_disabled":false,"rental_uris":{"android":"levelo://app?vid=c99c1421-6c70-45e1-a99f-19afba82ca69","ios":"levelo://app?vid=c99c1421-6c70-45e1-a99f-19afba82ca69"},"vehicle_type_id":"4","last_reported":1703948758,"current_range_meters":26000,"station_id":"ce4bhs92rcd13ifvqi0g","pricing_plan_id":"free"},{"bike_id":"7aa6a530-3ac6-4ec6-a447-a7bf4c489e07","system_id":"levelo_inurba_marseille","lat":43.32828,"lon":5.36675,"is_reserved":false,"is_disabled":false,"rental_uris":{"android":"levelo://app?vid=7aa6a530-3ac6-4ec6-a447-a7bf4c489e07","ios":"levelo://app?vid=7aa6a530-3ac6-4ec6-a447-a7bf4c489e07"},"vehicle_type_id":"4","last_reported":1703948758,"current_range_meters":19600,"station_id":"ce4bhs92rcd13ifvqi0g","pricing_plan_id":"free"},{"bike_id":"de708f00-7118-4d7c-9021-d7dcbd798473","system_id":"levelo_inurba_marseille","lat":43.328293,"lon":5.3668,"is_reserved":false,"is_disabled":false,"rental_uris":{"android":"levelo://app?vid=de708f00-7118-4d7c-9021-d7dcbd798473","ios":"levelo://app?vid=de708f00-7118-4d7c-9021-d7dcbd798473"},"vehicle_type_id":"4","last_reported":1703948758,"current_range_meters":30000,"station_id":"ce4bhs92rcd13ifvqi0g","pricing_plan_id":"free"},{"bike_id":"a448ca86-2b35-41e1-89c4-32a99bab0563","system_id":"levelo_inurba_marseille","lat":43.328371,"lon":5.366912,"is_reserved":false,"is_disabled":false,"rental_uris":{"android":"levelo://app?vid=a448ca86-2b35-41e1-89c4-32a99bab0563","ios":"levelo://app?vid=a448ca86-2b35-41e1-89c4-32a99bab0563"},"vehicle_type_id":"4","last_reported":1703948758,"current_range_meters":14800,"station_id":"ce4bhs92rcd13ifvqi0g","pricing_plan_id":"free"},{"bike_id":"b565874b-57a1-49e1-a225-9f36f0cca013","system_id":"levelo_inurba_marseille","lat":43.3283,"lon":5.3668,"is_reserved":false,"is_disabled":false,"rental_uris":{"android":"levelo://app?vid=b565874b-57a1-49e1-a225-9f36f0cca013","ios":"levelo://app?vid=b565874b-57a1-49e1-a225-9f36f0cca013"},"vehicle_type_id":"4","last_reported":1703948758,"current_range_meters":10400,"station_id":"ce4bhs92rcd13ifvqi0g","pricing_plan_id":"free"},{"bike_id":"70017d6e-6f1a-4af6-baf6-320a119b5691","system_id":"levelo_inurba_marseille","lat":43.32831,"lon":5.36677,"is_reserved":false,"is_disabled":false,"rental_uris":{"android":"levelo://app?vid=70017d6e-6f1a-4af6-baf6-320a119b5691","ios":"levelo://app?vid=70017d6e-6f1a-4af6-baf6-320a119b5691"},"vehicle_type_id":"4","last_reported":1703948758,"current_range_meters":28800,"station_id":"ce4bhs92rcd13ifvqi0g","pricing_plan_id":"free"},{"bike_id":"9d832f49-b330-492c-bca5-26b211dfab4e","system_id":"levelo_inurba_marseille","lat":43.328314,"lon":5.366816,"is_reserved":false,"is_disabled":false,"rental_uris":{"android":"levelo://app?vid=9d832f49-b330-492c-bca5-26b211dfab4e","ios":"levelo://app?vid=9d832f49-b330-492c-bca5-26b211dfab4e"},"vehicle_type_id":"4","last_reported":1703948758,"current_range_meters":20000,"station_id":"ce4bhs92rcd13ifvqi0g","pricing_plan_id":"free"},{"bike_id":"ea7074d7-b7c9-4941-82c2-dff391bae9cb","system_id":"levelo_inurba_marseille","lat":43.328316,"lon":5.366778,"is_reserved":false,"is_disabled":false,"rental_uris":{"android":"levelo://app?vid=ea7074d7-b7c9-4941-82c2-dff391bae9cb","ios":"levelo://app?vid=ea7074d7-b7c9-4941-82c2-dff391bae9cb"},"vehicle_type_id":"4","last_reported":1703948758,"current_range_meters":28800,"station_id":"ce4bhs92rcd13ifvqi0g","pricing_plan_id":"free"},{"bike_id":"b88d5555-cc1b-4d13-b74a-65fa516b599f","system_id":"levelo_inurba_marseille","lat":43.32832,"lon":5.36682,"is_reserved":false,"is_disabled":false,"rental_uris":{"android":"levelo://app?vid=b88d5555-cc1b-4d13-b74a-65fa516b599f","ios":"levelo://app?vid=b88d5555-cc1b-4d13-b74a-65fa516b599f"},"vehicle_type_id":"4","last_reported":1703948758,"current_range_meters":12400,"station_id":"ce4bhs92rcd13ifvqi0g","pricing_plan_id":"free"},{"bike_id":"904f83aa-e9ab-401d-84c1-9edfed82b884","system_id":"levelo_inurba_marseille","lat":43.328371,"lon":5.366912,"is_reserved":false,"is_disabled":false,"rental_uris":{"android":"levelo://app?vid=904f83aa-e9ab-401d-84c1-9edfed82b884","ios":"levelo://app?vid=904f83aa-e9ab-401d-84c1-9edfed82b884"},"vehicle_type_id":"4","last_reported":1703948758,"current_range_meters":26000,"station_id":"ce4bhs92rcd13ifvqi0g","pricing_plan_id":"free"},{"bike_id":"370cccf7-c9ba-46c2-819b-c8e8cacc4c21","system_id":"levelo_inurba_marseille","lat":43.3277,"lon":5.37458,"is_reserved":false,"is_disabled":false,"rental_uris":{"android":"levelo://app?vid=370cccf7-c9ba-46c2-819b-c8e8cacc4c21","ios":"levelo://app?vid=370cccf7-c9ba-46c2-819b-c8e8cacc4c21"},"vehicle_type_id":"4","last_reported":1703948758,"current_range_meters":14000,"station_id":"","pricing_plan_id":"free"},{"bike_id":"921b424d-ad0d-4c7a-9d74-66e3a49bfa19","system_id":"levelo_inurba_marseille","lat":43.32934,"lon":5.36612,"is_reserved":false,"is_disabled":false,"rental_uris":{"android":"levelo://app?vid=921b424d-ad0d-4c7a-9d74-66e3a49bfa19","ios":"levelo://app?vid=921b424d-ad0d-4c7a-9d74-66e3a49bfa19"},"vehicle_type_id":"4","last_reported":1703948758,"current_range_meters":5600,"station_id":"","pricing_plan_id":"free"},{"bike_id":"37a53580-282c-4375-b949-74e7c27037ff","system_id":"levelo_inurba_marseille","lat":43.2962,"lon":5.37153,"is_reserved":false,"is_disabled":false,"rental_uris":{"android":"levelo://app?vid=37a53580-282c-4375-b949-74e7c27037ff","ios":"levelo://app?vid=37a53580-282c-4375-b949-74e7c27037ff"},"vehicle_type_id":"4","last_reported":1703948758,"current_range_meters":400,"station_id":"ce4bgnh2rcd13ifvqc0g","pricing_plan_id":"free"},{"bike_id":"0e87f294-929a-499e-9af5-28335ed6c9d3","system_id":"levelo_inurba_marseille","lat":43.29573,"lon":5.367355,"is_reserved":false,"is_disabled":false,"rental_uris":{"android":"levelo://app?vid=0e87f294-929a-499e-9af5-28335ed6c9d3","ios":"levelo://app?vid=0e87f294-929a-499e-9af5-28335ed6c9d3"},"vehicle_type_id":"4","last_reported":1703948758,"current_range_meters":29600,"station_id":"ce4bgph2rcd13ifvqc2g","pricing_plan_id":"free"},{"bike_id":"b843e17c-1fe5-4293-9e1e-877ffe2e7945","system_id":"levelo_inurba_marseille","lat":43.298037,"lon":5.381066,"is_reserved":false,"is_disabled":false,"rental_uris":{"android":"levelo://app?vid=b843e17c-1fe5-4293-9e1e-877ffe2e7945","ios":"levelo://app?vid=b843e17c-1fe5-4293-9e1e-877ffe2e7945"},"vehicle_type_id":"4","last_reported":1703948758,"current_range_meters":6800,"station_id":"ce4bgip2rcd13ifvqbb0","pricing_plan_id":"free"},{"bike_id":"5ab8d9d0-b1b4-4c68-b2b8-731d32388823","system_id":"levelo_inurba_marseille","lat":43.304274,"lon":5.388873,"is_reserved":false,"is_disabled":false,"rental_uris":{"android":"levelo://app?vid=5ab8d9d0-b1b4-4c68-b2b8-731d32388823","ios":"levelo://app?vid=5ab8d9d0-b1b4-4c68-b2b8-731d32388823"},"vehicle_type_id":"4","last_reported":1703948758,"current_range_meters":24400,"station_id":"ce4bgk12rcd13ifvqbi0","pricing_plan_id":"free"},{"bike_id":"e75a1808-9c4c-47b1-b516-b89e6595717e","system_id":"levelo_inurba_marseille","lat":43.296263,"lon":5.377094,"is_reserved":false,"is_disabled":false,"rental_uris":{"android":"levelo://app?vid=e75a1808-9c4c-47b1-b516-b89e6595717e","ios":"levelo://app?vid=e75a1808-9c4c-47b1-b516-b89e6595717e"},"vehicle_type_id":"4","last_reported":1703948758,"current_range_meters":21200,"station_id":"ce4bgi92rcd13ifvqb90","pricing_plan_id":"free"},{"bike_id":"d60802d6-4f47-444a-b234-883690eec05b","system_id":"levelo_inurba_marseille","lat":43.33062,"lon":5.3627,"is_reserved":false,"is_disabled":false,"rental_uris":{"android":"levelo://app?vid=d60802d6-4f47-444a-b234-883690eec05b","ios":"levelo://app?vid=d60802d6-4f47-444a-b234-883690eec05b"},"vehicle_type_id":"4","last_reported":1703948758,"current_range_meters":26800,"station_id":"","pricing_plan_id":"free"},{"bike_id":"7119845d-00aa-4d9f-be8c-fc97d41f1380","system_id":"levelo_inurba_marseille","lat":43.297594,"lon":5.381134,"is_reserved":false,"is_disabled":false,"rental_uris":{"android":"levelo://app?vid=7119845d-00aa-4d9f-be8c-fc97d41f1380","ios":"levelo://app?vid=7119845d-00aa-4d9f-be8c-fc97d41f1380"},"vehicle_type_id":"4","last_reported":1703948758,"current_range_meters":15200,"station_id":"ce4bgip2rcd13ifvqbb0","pricing_plan_id":"free"},{"bike_id":"aef8c48d-2ef5-4eb5-b486-f06330b94ff9","system_id":"levelo_inurba_marseille","lat":43.29602,"lon":5.381084,"is_reserved":false,"is_disabled":false,"rental_uris":{"android":"levelo://app?vid=aef8c48d-2ef5-4eb5-b486-f06330b94ff9","ios":"levelo://app?vid=aef8c48d-2ef5-4eb5-b486-f06330b94ff9"},"vehicle_type_id":"4","last_reported":1703948758,"current_range_meters":20000,"station_id":"ce4bgl12rcd13ifvqbo0","pricing_plan_id":"free"},{"bike_id":"85eca402-84d8-4fe3-9c02-3baf2cc9267a","system_id":"levelo_inurba_marseille","lat":43.305994,"lon":5.393687,"is_reserved":false,"is_disabled":false,"rental_uris":{"android":"levelo://app?vid=85eca402-84d8-4fe3-9c02-3baf2cc9267a","ios":"levelo://app?vid=85eca402-84d8-4fe3-9c02-3baf2cc9267a"},"vehicle_type_id":"4","last_reported":1703948758,"current_range_meters":4800,"station_id":"ce4bh0p2rcd13ifvqd80","pricing_plan_id":"free"},{"bike_id":"1784358a-9a98-4b15-8085-7c530af4332e","system_id":"levelo_inurba_marseille","lat":43.300852,"lon":5.390859,"is_reserved":false,"is_disabled":false,"rental_uris":{"android":"levelo://app?vid=1784358a-9a98-4b15-8085-7c530af4332e","ios":"levelo://app?vid=1784358a-9a98-4b15-8085-7c530af4332e"},"vehicle_type_id":"4","last_reported":1703948758,"current_range_meters":18800,"station_id":"ce4bh192rcd13ifvqdb0","pricing_plan_id":"free"},{"bike_id":"ec4891dd-aa5c-4660-8a88-c7e7f2e472c7","system_id":"levelo_inurba_marseille","lat":43.300852,"lon":5.390859,"is_reserved":false,"is_disabled":false,"rental_uris":{"android":"levelo://app?vid=ec4891dd-aa5c-4660-8a88-c7e7f2e472c7","ios":"levelo://app?vid=ec4891dd-aa5c-4660-8a88-c7e7f2e472c7"},"vehicle_type_id":"4","last_reported":1703948758,"current_range_meters":26800,"station_id":"ce4bh192rcd13ifvqdb0","pricing_plan_id":"free"},{"bike_id":"3857db2c-0ba8-4238-8d2d-814b00184dd4","system_id":"levelo_inurba_marseille","lat":43.29529,"lon":5.385581,"is_reserved":false,"is_disabled":false,"rental_uris":{"android":"levelo://app?vid=3857db2c-0ba8-4238-8d2d-814b00184dd4","ios":"levelo://app?vid=3857db2c-0ba8-4238-8d2d-814b00184dd4"},"vehicle_type_id":"4","last_reported":1703948758,"current_range_meters":13200,"station_id":"ce4bgih2rcd13ifvqba0","pricing_plan_id":"free"},{"bike_id":"d9f5602b-0f2b-47ad-8212-e1f3a429e698","system_id":"levelo_inurba_marseille","lat":43.290327,"lon":5.375711,"is_reserved":false,"is_disabled":false,"rental_uris":{"android":"levelo://app?vid=d9f5602b-0f2b-47ad-8212-e1f3a429e698","ios":"levelo://app?vid=d9f5602b-0f2b-47ad-8212-e1f3a429e698"},"vehicle_type_id":"4","last_reported":1703948758,"current_range_meters":22000,"station_id":"ce4bh692rcd13ifvqe90","pricing_plan_id":"free"},{"bike_id":"2e7f153e-bf14-4be2-82cb-2b570360a583","system_id":"levelo_inurba_marseille","lat":43.294153,"lon":5.386305,"is_reserved":false,"is_disabled":false,"rental_uris":{"android":"levelo://app?vid=2e7f153e-bf14-4be2-82cb-2b570360a583","ios":"levelo://app?vid=2e7f153e-bf14-4be2-82cb-2b570360a583"},"vehicle_type_id":"4","last_reported":1703948758,"current_range_meters":3200,"station_id":"ce4bh2h2rcd13ifvqdh0","pricing_plan_id":"free"},{"bike_id":"09cb5ab3-3e8e-46ed-a192-3dc64a21ea1f","system_id":"levelo_inurba_marseille","lat":43.292642,"lon":5.384254,"is_reserved":false,"is_disabled":false,"rental_uris":{"android":"levelo://app?vid=09cb5ab3-3e8e-46ed-a192-3dc64a21ea1f","ios":"levelo://app?vid=09cb5ab3-3e8e-46ed-a192-3dc64a21ea1f"},"vehicle_type_id":"4","last_reported":1703948758,"current_range_meters":8400,"station_id":"ce4bh692rcd13ifvqea0","pricing_plan_id":"free"},{"bike_id":"fce02e2d-ae45-4839-b4e8-6bc7234fba3f","system_id":"levelo_inurba_marseille","lat":43.290995,"lon":5.381361,"is_reserved":false,"is_disabled":false,"rental_uris":{"android":"levelo://app?vid=fce02e2d-ae45-4839-b4e8-6bc7234fba3f","ios":"levelo://app?vid=fce02e2d-ae45-4839-b4e8-6bc7234fba3f"},"vehicle_type_id":"4","last_reported":1703948758,"current_range_meters":26800,"station_id":"ce4bh512rcd13ifvqe2g","pricing_plan_id":"free"},{"bike_id":"990267be-1eb3-41a2-8e52-345cb61c7e97","system_id":"levelo_inurba_marseille","lat":43.290995,"lon":5.381361,"is_reserved":false,"is_disabled":false,"rental_uris":{"android":"levelo://app?vid=990267be-1eb3-41a2-8e52-345cb61c7e97","ios":"levelo://app?vid=990267be-1eb3-41a2-8e52-345cb61c7e97"},"vehicle_type_id":"4","last_reported":1703948758,"current_range_meters":29600,"station_id":"ce4bh512rcd13ifvqe2g","pricing_plan_id":"free"},{"bike_id":"495faf64-a935-4c6e-b77f-2b296d14493a","system_id":"levelo_inurba_marseille","lat":43.331017,"lon":5.389194,"is_reserved":false,"is_disabled":false,"rental_uris":{"android":"levelo://app?vid=495faf64-a935-4c6e-b77f-2b296d14493a","ios":"levelo://app?vid=495faf64-a935-4c6e-b77f-2b296d14493a"},"vehicle_type_id":"4","last_reported":1703948758,"current_range_meters":2400,"station_id":"","pricing_plan_id":"free"},{"bike_id":"5ebecc02-786e-41f7-90d9-dd1704198778","system_id":"levelo_inurba_marseille","lat":43.295169,"lon":5.390426,"is_reserved":false,"is_disabled":false,"rental_uris":{"android":"levelo://app?vid=5ebecc02-786e-41f7-90d9-dd1704198778","ios":"levelo://app?vid=5ebecc02-786e-41f7-90d9-dd1704198778"},"vehicle_type_id":"4","last_reported":1703948758,"current_range_meters":23600,"station_id":"ce4bh3p2rcd13ifvqdp0","pricing_plan_id":"free"},{"bike_id":"2c2b885a-ede0-4d6b-a0fb-fce97600b729","system_id":"levelo_inurba_marseille","lat":43.290094,"lon":5.381264,"is_reserved":false,"is_disabled":false,"rental_uris":{"android":"levelo://app?vid=2c2b885a-ede0-4d6b-a0fb-fce97600b729","ios":"levelo://app?vid=2c2b885a-ede0-4d6b-a0fb-fce97600b729"},"vehicle_type_id":"4","last_reported":1703948758,"current_range_meters":0,"station_id":"ce4bh4p2rcd13ifvqe1g","pricing_plan_id":"free"},{"bike_id":"ed385534-ebb0-46d5-9790-6481e709b77a","system_id":"levelo_inurba_marseille","lat":43.28856,"lon":5.358371,"is_reserved":false,"is_disabled":false,"rental_uris":{"android":"levelo://app?vid=ed385534-ebb0-46d5-9790-6481e709b77a","ios":"levelo://app?vid=ed385534-ebb0-46d5-9790-6481e709b77a"},"vehicle_type_id":"4","last_reported":1703948758,"current_range_meters":0,"station_id":"ce4bhb12rcd13ifvqem0","pricing_plan_id":"free"},{"bike_id":"d29f7a6c-6eff-46b1-9d51-bbf08faabfa1","system_id":"levelo_inurba_marseille","lat":43.337477,"lon":5.374431,"is_reserved":false,"is_disabled":false,"rental_uris":{"android":"levelo://app?vid=d29f7a6c-6eff-46b1-9d51-bbf08faabfa1","ios":"levelo://app?vid=d29f7a6c-6eff-46b1-9d51-bbf08faabfa1"},"vehicle_type_id":"4","last_reported":1703948758,"current_range_meters":0,"station_id":"","pricing_plan_id":"free"},{"bike_id":"6dc8b67f-7677-4649-90b5-6c004787a94e","system_id":"levelo_inurba_marseille","lat":43.33773,"lon":5.37431,"is_reserved":false,"is_disabled":false,"rental_uris":{"android":"levelo://app?vid=6dc8b67f-7677-4649-90b5-6c004787a94e","ios":"levelo://app?vid=6dc8b67f-7677-4649-90b5-6c004787a94e"},"vehicle_type_id":"4","last_reported":1703948758,"current_range_meters":28800,"station_id":"","pricing_plan_id":"free"},{"bike_id":"c0a538ab-353e-4143-9ba3-568bd8a35f75","system_id":"levelo_inurba_marseille","lat":43.28727,"lon":5.36078,"is_reserved":false,"is_disabled":false,"rental_uris":{"android":"levelo://app?vid=c0a538ab-353e-4143-9ba3-568bd8a35f75","ios":"levelo://app?vid=c0a538ab-353e-4143-9ba3-568bd8a35f75"},"vehicle_type_id":"4","last_reported":1703948758,"current_range_meters":31600,"station_id":"cki0cbj6b192h4jlfktg","pricing_plan_id":"free"},{"bike_id":"3d676dc0-8146-45d3-b122-43484961298b","system_id":"levelo_inurba_marseille","lat":43.28727,"lon":5.36078,"is_reserved":false,"is_disabled":false,"rental_uris":{"android":"levelo://app?vid=3d676dc0-8146-45d3-b122-43484961298b","ios":"levelo://app?vid=3d676dc0-8146-45d3-b122-43484961298b"},"vehicle_type_id":"4","last_reported":1703948758,"current_range_meters":27200,"station_id":"cki0cbj6b192h4jlfktg","pricing_plan_id":"free"},{"bike_id":"a2d9dc72-de5f-4b19-b5bc-3fdf5add787b","system_id":"levelo_inurba_marseille","lat":43.298681,"lon":5.397225,"is_reserved":false,"is_disabled":false,"rental_uris":{"android":"levelo://app?vid=a2d9dc72-de5f-4b19-b5bc-3fdf5add787b","ios":"levelo://app?vid=a2d9dc72-de5f-4b19-b5bc-3fdf5add787b"},"vehicle_type_id":"4","last_reported":1703948758,"current_range_meters":26000,"station_id":"ce4bh0h2rcd13ifvqd50","pricing_plan_id":"free"},{"bike_id":"03db9e33-0f78-4b09-b578-980233aa356f","system_id":"levelo_inurba_marseille","lat":43.286591,"lon":5.363346,"is_reserved":false,"is_disabled":false,"rental_uris":{"android":"levelo://app?vid=03db9e33-0f78-4b09-b578-980233aa356f","ios":"levelo://app?vid=03db9e33-0f78-4b09-b578-980233aa356f"},"vehicle_type_id":"4","last_reported":1703948758,"current_range_meters":22800,"station_id":"ce4bhah2rcd13ifvqej0","pricing_plan_id":"free"},{"bike_id":"d489b15d-7a96-4a7f-a5d9-6b9f0b72dc13","system_id":"levelo_inurba_marseille","lat":43.295196,"lon":5.39397,"is_reserved":false,"is_disabled":false,"rental_uris":{"android":"levelo://app?vid=d489b15d-7a96-4a7f-a5d9-6b9f0b72dc13","ios":"levelo://app?vid=d489b15d-7a96-4a7f-a5d9-6b9f0b72dc13"},"vehicle_type_id":"4","last_reported":1703948758,"current_range_meters":18000,"station_id":"ce4bh292rcd13ifvqdf0","pricing_plan_id":"free"},{"bike_id":"9e700b91-e191-405b-b4bd-c0100030065b","system_id":"levelo_inurba_marseille","lat":43.290336,"lon":5.386425,"is_reserved":false,"is_disabled":false,"rental_uris":{"android":"levelo://app?vid=9e700b91-e191-405b-b4bd-c0100030065b","ios":"levelo://app?vid=9e700b91-e191-405b-b4bd-c0100030065b"},"vehicle_type_id":"4","last_reported":1703948758,"current_range_meters":0,"station_id":"ce4bh4p2rcd13ifvqe0g","pricing_plan_id":"free"},{"bike_id":"e2096e79-58a8-411c-86db-a0eed8aa4d69","system_id":"levelo_inurba_marseille","lat":43.302759,"lon":5.400793,"is_reserved":false,"is_disabled":false,"rental_uris":{"android":"levelo://app?vid=e2096e79-58a8-411c-86db-a0eed8aa4d69","ios":"levelo://app?vid=e2096e79-58a8-411c-86db-a0eed8aa4d69"},"vehicle_type_id":"4","last_reported":1703948758,"current_range_meters":7600,"station_id":"ce4bgvh2rcd13ifvqcs0","pricing_plan_id":"free"},{"bike_id":"dc2a6de8-3da0-43c9-88b9-b425457bdafd","system_id":"levelo_inurba_marseille","lat":43.287185,"lon":5.379373,"is_reserved":false,"is_disabled":false,"rental_uris":{"android":"levelo://app?vid=dc2a6de8-3da0-43c9-88b9-b425457bdafd","ios":"levelo://app?vid=dc2a6de8-3da0-43c9-88b9-b425457bdafd"},"vehicle_type_id":"4","last_reported":1703948758,"current_range_meters":27600,"station_id":"ce4bh9p2rcd13ifvqec0","pricing_plan_id":"free"},{"bike_id":"bdd32995-406e-4e19-a6be-b2d27a89ec4e","system_id":"levelo_inurba_marseille","lat":43.291994,"lon":5.392907,"is_reserved":false,"is_disabled":false,"rental_uris":{"android":"levelo://app?vid=bdd32995-406e-4e19-a6be-b2d27a89ec4e","ios":"levelo://app?vid=bdd32995-406e-4e19-a6be-b2d27a89ec4e"},"vehicle_type_id":"4","last_reported":1703948758,"current_range_meters":20400,"station_id":"ce4bh192rcd13ifvqdd0","pricing_plan_id":"free"},{"bike_id":"cc7423bf-27b9-4860-a825-928190b9dbb6","system_id":"levelo_inurba_marseille","lat":43.285848,"lon":5.350787,"is_reserved":false,"is_disabled":false,"rental_uris":{"android":"levelo://app?vid=cc7423bf-27b9-4860-a825-928190b9dbb6","ios":"levelo://app?vid=cc7423bf-27b9-4860-a825-928190b9dbb6"},"vehicle_type_id":"4","last_reported":1703948758,"current_range_meters":0,"station_id":"ce4bhch2rcd13ifvqeug","pricing_plan_id":"free"},{"bike_id":"5c883e51-4d54-4389-902b-4e0f32276e49","system_id":"levelo_inurba_marseille","lat":43.285848,"lon":5.350787,"is_reserved":false,"is_disabled":false,"rental_uris":{"android":"levelo://app?vid=5c883e51-4d54-4389-902b-4e0f32276e49","ios":"levelo://app?vid=5c883e51-4d54-4389-902b-4e0f32276e49"},"vehicle_type_id":"4","last_reported":1703948758,"current_range_meters":4800,"station_id":"ce4bhch2rcd13ifvqeug","pricing_plan_id":"free"},{"bike_id":"35aa085c-0150-4475-b132-df2fb91d9a12","system_id":"levelo_inurba_marseille","lat":43.285856,"lon":5.350771,"is_reserved":false,"is_disabled":false,"rental_uris":{"android":"levelo://app?vid=35aa085c-0150-4475-b132-df2fb91d9a12","ios":"levelo://app?vid=35aa085c-0150-4475-b132-df2fb91d9a12"},"vehicle_type_id":"4","last_reported":1703948758,"current_range_meters":19600,"station_id":"ce4bhch2rcd13ifvqeug","pricing_plan_id":"free"},{"bike_id":"4ad566ac-35d2-45f1-93b8-aa3abd61c433","system_id":"levelo_inurba_marseille","lat":43.30098,"lon":5.40474,"is_reserved":false,"is_disabled":false,"rental_uris":{"android":"levelo://app?vid=4ad566ac-35d2-45f1-93b8-aa3abd61c433","ios":"levelo://app?vid=4ad566ac-35d2-45f1-93b8-aa3abd61c433"},"vehicle_type_id":"4","last_reported":1703948758,"current_range_meters":0,"station_id":"","pricing_plan_id":"free"},{"bike_id":"2a34418a-68fc-4df0-a58c-b424089bf812","system_id":"levelo_inurba_marseille","lat":43.33717,"lon":5.391857,"is_reserved":false,"is_disabled":false,"rental_uris":{"android":"levelo://app?vid=2a34418a-68fc-4df0-a58c-b424089bf812","ios":"levelo://app?vid=2a34418a-68fc-4df0-a58c-b424089bf812"},"vehicle_type_id":"4","last_reported":1703948758,"current_range_meters":27200,"station_id":"ce4bhr92rcd13ifvqhsg","pricing_plan_id":"free"},{"bike_id":"c9cdc97e-3b4c-49e9-9424-721a32ba6fd6","system_id":"levelo_inurba_marseille","lat":43.337168,"lon":5.391825,"is_reserved":false,"is_disabled":false,"rental_uris":{"android":"levelo://app?vid=c9cdc97e-3b4c-49e9-9424-721a32ba6fd6","ios":"levelo://app?vid=c9cdc97e-3b4c-49e9-9424-721a32ba6fd6"},"vehicle_type_id":"4","last_reported":1703948758,"current_range_meters":28000,"station_id":"ce4bhr92rcd13ifvqhsg","pricing_plan_id":"free"},{"bike_id":"6d0d32e0-eaf6-4cda-a7d6-09ef510bb53e","system_id":"levelo_inurba_marseille","lat":43.284783,"lon":5.384123,"is_reserved":false,"is_disabled":false,"rental_uris":{"android":"levelo://app?vid=6d0d32e0-eaf6-4cda-a7d6-09ef510bb53e","ios":"levelo://app?vid=6d0d32e0-eaf6-4cda-a7d6-09ef510bb53e"},"vehicle_type_id":"4","last_reported":1703948758,"current_range_meters":0,"station_id":"ce4bh512rcd13ifvqe3g","pricing_plan_id":"free"},{"bike_id":"4e677db0-fa2e-4d26-8c37-c9935559d671","system_id":"levelo_inurba_marseille","lat":43.284793,"lon":5.384119,"is_reserved":false,"is_disabled":false,"rental_uris":{"android":"levelo://app?vid=4e677db0-fa2e-4d26-8c37-c9935559d671","ios":"levelo://app?vid=4e677db0-fa2e-4d26-8c37-c9935559d671"},"vehicle_type_id":"4","last_reported":1703948758,"current_range_meters":29200,"station_id":"ce4bh512rcd13ifvqe3g","pricing_plan_id":"free"},{"bike_id":"101ce69f-1bd0-48da-9834-5fd16377746e","system_id":"levelo_inurba_marseille","lat":43.283498,"lon":5.380948,"is_reserved":false,"is_disabled":false,"rental_uris":{"android":"levelo://app?vid=101ce69f-1bd0-48da-9834-5fd16377746e","ios":"levelo://app?vid=101ce69f-1bd0-48da-9834-5fd16377746e"},"vehicle_type_id":"4","last_reported":1703948758,"current_range_meters":22400,"station_id":"ce4bh412rcd13ifvqdr0","pricing_plan_id":"free"},{"bike_id":"e485450b-2736-4f4c-b94b-0da5a69b88aa","system_id":"levelo_inurba_marseille","lat":43.33385,"lon":5.39822,"is_reserved":false,"is_disabled":false,"rental_uris":{"android":"levelo://app?vid=e485450b-2736-4f4c-b94b-0da5a69b88aa","ios":"levelo://app?vid=e485450b-2736-4f4c-b94b-0da5a69b88aa"},"vehicle_type_id":"4","last_reported":1703948758,"current_range_meters":6800,"station_id":"","pricing_plan_id":"free"},{"bike_id":"cebaf2b3-83b2-4c4e-a305-225387c38ab9","system_id":"levelo_inurba_marseille","lat":43.284217,"lon":5.349697,"is_reserved":false,"is_disabled":false,"rental_uris":{"android":"levelo://app?vid=cebaf2b3-83b2-4c4e-a305-225387c38ab9","ios":"levelo://app?vid=cebaf2b3-83b2-4c4e-a305-225387c38ab9"},"vehicle_type_id":"4","last_reported":1703948758,"current_range_meters":21200,"station_id":"ce4bhbh2rcd13ifvqepg","pricing_plan_id":"free"},{"bike_id":"01392b15-d530-4db7-ab0e-742eee1470d2","system_id":"levelo_inurba_marseille","lat":43.282744,"lon":5.350533,"is_reserved":false,"is_disabled":false,"rental_uris":{"android":"levelo://app?vid=01392b15-d530-4db7-ab0e-742eee1470d2","ios":"levelo://app?vid=01392b15-d530-4db7-ab0e-742eee1470d2"},"vehicle_type_id":"4","last_reported":1703948758,"current_range_meters":17200,"station_id":"ce4bhbp2rcd13ifvqerg","pricing_plan_id":"free"},{"bike_id":"51e59980-08ac-45dc-9a55-e87c3fa654e0","system_id":"levelo_inurba_marseille","lat":43.280382,"lon":5.369291,"is_reserved":false,"is_disabled":false,"rental_uris":{"android":"levelo://app?vid=51e59980-08ac-45dc-9a55-e87c3fa654e0","ios":"levelo://app?vid=51e59980-08ac-45dc-9a55-e87c3fa654e0"},"vehicle_type_id":"4","last_reported":1703948758,"current_range_meters":25600,"station_id":"ce4bha12rcd13ifvqef0","pricing_plan_id":"free"},{"bike_id":"0ff61971-7a33-44ae-b5c4-8a4cb949c830","system_id":"levelo_inurba_marseille","lat":43.281044,"lon":5.378308,"is_reserved":false,"is_disabled":false,"rental_uris":{"android":"levelo://app?vid=0ff61971-7a33-44ae-b5c4-8a4cb949c830","ios":"levelo://app?vid=0ff61971-7a33-44ae-b5c4-8a4cb949c830"},"vehicle_type_id":"4","last_reported":1703948758,"current_range_meters":24400,"station_id":"ce4bha12rcd13ifvqee0","pricing_plan_id":"free"},{"bike_id":"71021d5c-8249-4628-a565-8d7283b8dbae","system_id":"levelo_inurba_marseille","lat":43.284462,"lon":5.392121,"is_reserved":false,"is_disabled":false,"rental_uris":{"android":"levelo://app?vid=71021d5c-8249-4628-a565-8d7283b8dbae","ios":"levelo://app?vid=71021d5c-8249-4628-a565-8d7283b8dbae"},"vehicle_type_id":"4","last_reported":1703948758,"current_range_meters":8400,"station_id":"ce4bhoh2rcd13ifvqh5g","pricing_plan_id":"free"},{"bike_id":"d9df2ba2-324c-45c1-ad01-7102a3d01b0f","system_id":"levelo_inurba_marseille","lat":43.326605,"lon":5.409903,"is_reserved":false,"is_disabled":false,"rental_uris":{"android":"levelo://app?vid=d9df2ba2-324c-45c1-ad01-7102a3d01b0f","ios":"levelo://app?vid=d9df2ba2-324c-45c1-ad01-7102a3d01b0f"},"vehicle_type_id":"4","last_reported":1703948758,"current_range_meters":26800,"station_id":"ce4bhpp2rcd13ifvqhgg","pricing_plan_id":"free"},{"bike_id":"a3a38964-61cd-4a02-acc1-cbd977f9fc77","system_id":"levelo_inurba_marseille","lat":43.279087,"lon":5.380114,"is_reserved":false,"is_disabled":false,"rental_uris":{"android":"levelo://app?vid=a3a38964-61cd-4a02-acc1-cbd977f9fc77","ios":"levelo://app?vid=a3a38964-61cd-4a02-acc1-cbd977f9fc77"},"vehicle_type_id":"4","last_reported":1703948758,"current_range_meters":19200,"station_id":"ce4bhf92rcd13ifvqf50","pricing_plan_id":"free"},{"bike_id":"4bb71fc7-61bd-4d8b-8784-a67db210f8cc","system_id":"levelo_inurba_marseille","lat":43.279742,"lon":5.38744,"is_reserved":false,"is_disabled":false,"rental_uris":{"android":"levelo://app?vid=4bb71fc7-61bd-4d8b-8784-a67db210f8cc","ios":"levelo://app?vid=4bb71fc7-61bd-4d8b-8784-a67db210f8cc"},"vehicle_type_id":"4","last_reported":1703948758,"current_range_meters":5600,"station_id":"ce4bhg12rcd13ifvqf80","pricing_plan_id":"free"},{"bike_id":"f7de6c7e-5ed1-40b0-a050-d084226abd7d","system_id":"levelo_inurba_marseille","lat":43.320045,"lon":5.415046,"is_reserved":false,"is_disabled":false,"rental_uris":{"android":"levelo://app?vid=f7de6c7e-5ed1-40b0-a050-d084226abd7d","ios":"levelo://app?vid=f7de6c7e-5ed1-40b0-a050-d084226abd7d"},"vehicle_type_id":"4","last_reported":1703948758,"current_range_meters":21600,"station_id":"ce4bhq92rcd13ifvqhkg","pricing_plan_id":"free"},{"bike_id":"71f895c6-c83f-439a-9529-f2de52295bff","system_id":"levelo_inurba_marseille","lat":43.27619,"lon":5.36111,"is_reserved":false,"is_disabled":false,"rental_uris":{"android":"levelo://app?vid=71f895c6-c83f-439a-9529-f2de52295bff","ios":"levelo://app?vid=71f895c6-c83f-439a-9529-f2de52295bff"},"vehicle_type_id":"4","last_reported":1703948758,"current_range_meters":17200,"station_id":"ce4bgj92rcd13ifvqbe0","pricing_plan_id":"free"},{"bike_id":"50ce31bf-2d76-4d87-b8ac-4c1bf1ef3a18","system_id":"levelo_inurba_marseille","lat":43.276179,"lon":5.361009,"is_reserved":false,"is_disabled":false,"rental_uris":{"android":"levelo://app?vid=50ce31bf-2d76-4d87-b8ac-4c1bf1ef3a18","ios":"levelo://app?vid=50ce31bf-2d76-4d87-b8ac-4c1bf1ef3a18"},"vehicle_type_id":"4","last_reported":1703948758,"current_range_meters":19600,"station_id":"ce4bgj92rcd13ifvqbe0","pricing_plan_id":"free"},{"bike_id":"6e08d877-8ce9-4f2a-9b8a-7e820f9f286a","system_id":"levelo_inurba_marseille","lat":43.27613,"lon":5.36116,"is_reserved":false,"is_disabled":false,"rental_uris":{"android":"levelo://app?vid=6e08d877-8ce9-4f2a-9b8a-7e820f9f286a","ios":"levelo://app?vid=6e08d877-8ce9-4f2a-9b8a-7e820f9f286a"},"vehicle_type_id":"4","last_reported":1703948758,"current_range_meters":28000,"station_id":"ce4bgj92rcd13ifvqbe0","pricing_plan_id":"free"},{"bike_id":"6647c5a6-4560-41c9-b15d-adfc5450d4a7","system_id":"levelo_inurba_marseille","lat":43.276179,"lon":5.361009,"is_reserved":false,"is_disabled":false,"rental_uris":{"android":"levelo://app?vid=6647c5a6-4560-41c9-b15d-adfc5450d4a7","ios":"levelo://app?vid=6647c5a6-4560-41c9-b15d-adfc5450d4a7"},"vehicle_type_id":"4","last_reported":1703948758,"current_range_meters":20000,"station_id":"ce4bgj92rcd13ifvqbe0","pricing_plan_id":"free"},{"bike_id":"442e34b6-92de-4f95-a8c2-8af72ec09669","system_id":"levelo_inurba_marseille","lat":43.280784,"lon":5.396622,"is_reserved":false,"is_disabled":false,"rental_uris":{"android":"levelo://app?vid=442e34b6-92de-4f95-a8c2-8af72ec09669","ios":"levelo://app?vid=442e34b6-92de-4f95-a8c2-8af72ec09669"},"vehicle_type_id":"4","last_reported":1703948758,"current_range_meters":30400,"station_id":"ce4bho12rcd13ifvqh2g","pricing_plan_id":"free"},{"bike_id":"4dc341a8-3c45-4134-99a0-7176bee05873","system_id":"levelo_inurba_marseille","lat":43.278399,"lon":5.392139,"is_reserved":false,"is_disabled":false,"rental_uris":{"android":"levelo://app?vid=4dc341a8-3c45-4134-99a0-7176bee05873","ios":"levelo://app?vid=4dc341a8-3c45-4134-99a0-7176bee05873"},"vehicle_type_id":"4","last_reported":1703948758,"current_range_meters":21200,"station_id":"ce4bhjp2rcd13ifvqga0","pricing_plan_id":"free"},{"bike_id":"11bdbd50-7a12-43bf-af21-91992af65ecf","system_id":"levelo_inurba_marseille","lat":43.273609,"lon":5.362708,"is_reserved":false,"is_disabled":false,"rental_uris":{"android":"levelo://app?vid=11bdbd50-7a12-43bf-af21-91992af65ecf","ios":"levelo://app?vid=11bdbd50-7a12-43bf-af21-91992af65ecf"},"vehicle_type_id":"4","last_reported":1703948758,"current_range_meters":14800,"station_id":"ce4bhbh2rcd13ifvqeo0","pricing_plan_id":"free"},{"bike_id":"e5486dd1-0c61-4d37-9032-b34907c09559","system_id":"levelo_inurba_marseille","lat":43.273609,"lon":5.362708,"is_reserved":false,"is_disabled":false,"rental_uris":{"android":"levelo://app?vid=e5486dd1-0c61-4d37-9032-b34907c09559","ios":"levelo://app?vid=e5486dd1-0c61-4d37-9032-b34907c09559"},"vehicle_type_id":"4","last_reported":1703948758,"current_range_meters":31200,"station_id":"ce4bhbh2rcd13ifvqeo0","pricing_plan_id":"free"},{"bike_id":"fe84fffd-898f-43cb-bfb1-c6e62623db8c","system_id":"levelo_inurba_marseille","lat":43.273609,"lon":5.362708,"is_reserved":false,"is_disabled":false,"rental_uris":{"android":"levelo://app?vid=fe84fffd-898f-43cb-bfb1-c6e62623db8c","ios":"levelo://app?vid=fe84fffd-898f-43cb-bfb1-c6e62623db8c"},"vehicle_type_id":"4","last_reported":1703948758,"current_range_meters":25200,"station_id":"ce4bhbh2rcd13ifvqeo0","pricing_plan_id":"free"},{"bike_id":"f20fb92c-4232-4a17-8f57-4c0abea3fcae","system_id":"levelo_inurba_marseille","lat":43.336134,"lon":5.410341,"is_reserved":false,"is_disabled":false,"rental_uris":{"android":"levelo://app?vid=f20fb92c-4232-4a17-8f57-4c0abea3fcae","ios":"levelo://app?vid=f20fb92c-4232-4a17-8f57-4c0abea3fcae"},"vehicle_type_id":"4","last_reported":1703948758,"current_range_meters":26000,"station_id":"ce4bhqh2rcd13ifvqhmg","pricing_plan_id":"free"},{"bike_id":"122c0eee-0ac3-4f2c-84d8-9a4ecfbaed12","system_id":"levelo_inurba_marseille","lat":43.31085,"lon":5.4243,"is_reserved":false,"is_disabled":false,"rental_uris":{"android":"levelo://app?vid=122c0eee-0ac3-4f2c-84d8-9a4ecfbaed12","ios":"levelo://app?vid=122c0eee-0ac3-4f2c-84d8-9a4ecfbaed12"},"vehicle_type_id":"4","last_reported":1703948758,"current_range_meters":20000,"station_id":"ce4bhp92rcd13ifvqhag","pricing_plan_id":"free"},{"bike_id":"5bd3fa04-db13-4bd3-86f8-4d9479b060dc","system_id":"levelo_inurba_marseille","lat":43.340804,"lon":5.410219,"is_reserved":false,"is_disabled":false,"rental_uris":{"android":"levelo://app?vid=5bd3fa04-db13-4bd3-86f8-4d9479b060dc","ios":"levelo://app?vid=5bd3fa04-db13-4bd3-86f8-4d9479b060dc"},"vehicle_type_id":"4","last_reported":1703948758,"current_range_meters":24800,"station_id":"ce4bhqh2rcd13ifvqhlg","pricing_plan_id":"free"},{"bike_id":"13e43e4d-c363-46b7-a272-4591d524257c","system_id":"levelo_inurba_marseille","lat":43.340804,"lon":5.410219,"is_reserved":false,"is_disabled":false,"rental_uris":{"android":"levelo://app?vid=13e43e4d-c363-46b7-a272-4591d524257c","ios":"levelo://app?vid=13e43e4d-c363-46b7-a272-4591d524257c"},"vehicle_type_id":"4","last_reported":1703948758,"current_range_meters":14000,"station_id":"ce4bhqh2rcd13ifvqhlg","pricing_plan_id":"free"},{"bike_id":"d9c8318c-3031-4f68-9885-19375abd858f","system_id":"levelo_inurba_marseille","lat":43.31471,"lon":5.42605,"is_reserved":false,"is_disabled":false,"rental_uris":{"android":"levelo://app?vid=d9c8318c-3031-4f68-9885-19375abd858f","ios":"levelo://app?vid=d9c8318c-3031-4f68-9885-19375abd858f"},"vehicle_type_id":"4","last_reported":1703948758,"current_range_meters":6400,"station_id":"","pricing_plan_id":"free"},{"bike_id":"999572ae-e8df-40de-ac07-bc10f4b95edb","system_id":"levelo_inurba_marseille","lat":43.295523,"lon":5.422926,"is_reserved":false,"is_disabled":false,"rental_uris":{"android":"levelo://app?vid=999572ae-e8df-40de-ac07-bc10f4b95edb","ios":"levelo://app?vid=999572ae-e8df-40de-ac07-bc10f4b95edb"},"vehicle_type_id":"4","last_reported":1703948758,"current_range_meters":27600,"station_id":"ce4bhph2rcd13ifvqhdg","pricing_plan_id":"free"},{"bike_id":"6ecee245-b66c-40b2-8923-3ca31f458b58","system_id":"levelo_inurba_marseille","lat":43.295523,"lon":5.422926,"is_reserved":false,"is_disabled":false,"rental_uris":{"android":"levelo://app?vid=6ecee245-b66c-40b2-8923-3ca31f458b58","ios":"levelo://app?vid=6ecee245-b66c-40b2-8923-3ca31f458b58"},"vehicle_type_id":"4","last_reported":1703948758,"current_range_meters":26000,"station_id":"ce4bhph2rcd13ifvqhdg","pricing_plan_id":"free"},{"bike_id":"d4620682-b37a-4798-967a-019acc221a72","system_id":"levelo_inurba_marseille","lat":43.295511,"lon":5.422926,"is_reserved":false,"is_disabled":false,"rental_uris":{"android":"levelo://app?vid=d4620682-b37a-4798-967a-019acc221a72","ios":"levelo://app?vid=d4620682-b37a-4798-967a-019acc221a72"},"vehicle_type_id":"4","last_reported":1703948758,"current_range_meters":28000,"station_id":"ce4bhph2rcd13ifvqhdg","pricing_plan_id":"free"},{"bike_id":"85ae9828-1099-4f6c-8f45-5373aa2b82fd","system_id":"levelo_inurba_marseille","lat":43.278128,"lon":5.407195,"is_reserved":false,"is_disabled":false,"rental_uris":{"android":"levelo://app?vid=85ae9828-1099-4f6c-8f45-5373aa2b82fd","ios":"levelo://app?vid=85ae9828-1099-4f6c-8f45-5373aa2b82fd"},"vehicle_type_id":"4","last_reported":1703948758,"current_range_meters":30000,"station_id":"ce4bhnh2rcd13ifvqgtg","pricing_plan_id":"free"},{"bike_id":"a21940f8-26ab-453c-9c88-37cf56bed549","system_id":"levelo_inurba_marseille","lat":43.278128,"lon":5.407195,"is_reserved":false,"is_disabled":false,"rental_uris":{"android":"levelo://app?vid=a21940f8-26ab-453c-9c88-37cf56bed549","ios":"levelo://app?vid=a21940f8-26ab-453c-9c88-37cf56bed549"},"vehicle_type_id":"4","last_reported":1703948758,"current_range_meters":14400,"station_id":"ce4bhnh2rcd13ifvqgtg","pricing_plan_id":"free"},{"bike_id":"5df597e2-dacf-42d4-a534-6ceba4d00bba","system_id":"levelo_inurba_marseille","lat":43.27808,"lon":5.40716,"is_reserved":false,"is_disabled":false,"rental_uris":{"android":"levelo://app?vid=5df597e2-dacf-42d4-a534-6ceba4d00bba","ios":"levelo://app?vid=5df597e2-dacf-42d4-a534-6ceba4d00bba"},"vehicle_type_id":"4","last_reported":1703948758,"current_range_meters":31200,"station_id":"ce4bhnh2rcd13ifvqgtg","pricing_plan_id":"free"},{"bike_id":"cf23f2cc-4268-4abd-a6e9-0837aba7699a","system_id":"levelo_inurba_marseille","lat":43.278128,"lon":5.407195,"is_reserved":false,"is_disabled":false,"rental_uris":{"android":"levelo://app?vid=cf23f2cc-4268-4abd-a6e9-0837aba7699a","ios":"levelo://app?vid=cf23f2cc-4268-4abd-a6e9-0837aba7699a"},"vehicle_type_id":"4","last_reported":1703948758,"current_range_meters":27200,"station_id":"ce4bhnh2rcd13ifvqgtg","pricing_plan_id":"free"},{"bike_id":"4ace0143-54eb-450f-874b-0d5359e906a6","system_id":"levelo_inurba_marseille","lat":43.31299,"lon":5.4309,"is_reserved":false,"is_disabled":false,"rental_uris":{"android":"levelo://app?vid=4ace0143-54eb-450f-874b-0d5359e906a6","ios":"levelo://app?vid=4ace0143-54eb-450f-874b-0d5359e906a6"},"vehicle_type_id":"4","last_reported":1703948758,"current_range_meters":30400,"station_id":"","pricing_plan_id":"free"},{"bike_id":"9e3d35c5-0c52-46c1-a753-12fe591f88a0","system_id":"levelo_inurba_marseille","lat":43.265714,"lon":5.372891,"is_reserved":false,"is_disabled":false,"rental_uris":{"android":"levelo://app?vid=9e3d35c5-0c52-46c1-a753-12fe591f88a0","ios":"levelo://app?vid=9e3d35c5-0c52-46c1-a753-12fe591f88a0"},"vehicle_type_id":"4","last_reported":1703948758,"current_range_meters":6000,"station_id":"ce4bhg12rcd13ifvqf70","pricing_plan_id":"free"},{"bike_id":"6360d5f3-4af1-46b3-b9af-6b80a26ce6ca","system_id":"levelo_inurba_marseille","lat":43.27996,"lon":5.416624,"is_reserved":false,"is_disabled":false,"rental_uris":{"android":"levelo://app?vid=6360d5f3-4af1-46b3-b9af-6b80a26ce6ca","ios":"levelo://app?vid=6360d5f3-4af1-46b3-b9af-6b80a26ce6ca"},"vehicle_type_id":"4","last_reported":1703948758,"current_range_meters":18400,"station_id":"ce4bho12rcd13ifvqh1g","pricing_plan_id":"free"},{"bike_id":"1eabf108-427d-4d36-bb7f-54ca37db2024","system_id":"levelo_inurba_marseille","lat":43.265569,"lon":5.390047,"is_reserved":false,"is_disabled":false,"rental_uris":{"android":"levelo://app?vid=1eabf108-427d-4d36-bb7f-54ca37db2024","ios":"levelo://app?vid=1eabf108-427d-4d36-bb7f-54ca37db2024"},"vehicle_type_id":"4","last_reported":1703948758,"current_range_meters":24000,"station_id":"ce4bhe12rcd13ifvqf30","pricing_plan_id":"free"},{"bike_id":"f7eca438-34c5-4667-ac1d-1eb86ac02a94","system_id":"levelo_inurba_marseille","lat":43.26949,"lon":5.40262,"is_reserved":false,"is_disabled":false,"rental_uris":{"android":"levelo://app?vid=f7eca438-34c5-4667-ac1d-1eb86ac02a94","ios":"levelo://app?vid=f7eca438-34c5-4667-ac1d-1eb86ac02a94"},"vehicle_type_id":"4","last_reported":1703948758,"current_range_meters":15600,"station_id":"cjm6bp8fraef2m0cb0m0","pricing_plan_id":"free"},{"bike_id":"dac5ea74-92f7-462e-b536-31f322bb01c0","system_id":"levelo_inurba_marseille","lat":43.331893,"lon":5.431791,"is_reserved":false,"is_disabled":false,"rental_uris":{"android":"levelo://app?vid=dac5ea74-92f7-462e-b536-31f322bb01c0","ios":"levelo://app?vid=dac5ea74-92f7-462e-b536-31f322bb01c0"},"vehicle_type_id":"4","last_reported":1703948758,"current_range_meters":14800,"station_id":"","pricing_plan_id":"free"},{"bike_id":"fc390ed4-acb3-4d7e-8a2d-edb980d9416a","system_id":"levelo_inurba_marseille","lat":43.317104,"lon":5.436818,"is_reserved":false,"is_disabled":false,"rental_uris":{"android":"levelo://app?vid=fc390ed4-acb3-4d7e-8a2d-edb980d9416a","ios":"levelo://app?vid=fc390ed4-acb3-4d7e-8a2d-edb980d9416a"},"vehicle_type_id":"4","last_reported":1703948758,"current_range_meters":26800,"station_id":"ce4bhp92rcd13ifvqhcg","pricing_plan_id":"free"},{"bike_id":"1809008e-3210-462f-8d12-de8b87564996","system_id":"levelo_inurba_marseille","lat":43.317104,"lon":5.436818,"is_reserved":false,"is_disabled":false,"rental_uris":{"android":"levelo://app?vid=1809008e-3210-462f-8d12-de8b87564996","ios":"levelo://app?vid=1809008e-3210-462f-8d12-de8b87564996"},"vehicle_type_id":"4","last_reported":1703948758,"current_range_meters":30800,"station_id":"ce4bhp92rcd13ifvqhcg","pricing_plan_id":"free"},{"bike_id":"86044eef-ec2b-4b5e-970d-338a7761c512","system_id":"levelo_inurba_marseille","lat":43.26202,"lon":5.379299,"is_reserved":false,"is_disabled":false,"rental_uris":{"android":"levelo://app?vid=86044eef-ec2b-4b5e-970d-338a7761c512","ios":"levelo://app?vid=86044eef-ec2b-4b5e-970d-338a7761c512"},"vehicle_type_id":"4","last_reported":1703948758,"current_range_meters":9200,"station_id":"ce4bhjp2rcd13ifvqg90","pricing_plan_id":"free"},{"bike_id":"17801e4f-5347-4bfa-9c75-5135e8f78336","system_id":"levelo_inurba_marseille","lat":43.271368,"lon":5.40928,"is_reserved":false,"is_disabled":false,"rental_uris":{"android":"levelo://app?vid=17801e4f-5347-4bfa-9c75-5135e8f78336","ios":"levelo://app?vid=17801e4f-5347-4bfa-9c75-5135e8f78336"},"vehicle_type_id":"4","last_reported":1703948758,"current_range_meters":31200,"station_id":"ce4bhl12rcd13ifvqgf0","pricing_plan_id":"free"},{"bike_id":"c775f181-c145-4087-bd1a-acd979b7aa3f","system_id":"levelo_inurba_marseille","lat":43.2651,"lon":5.39469,"is_reserved":false,"is_disabled":false,"rental_uris":{"android":"levelo://app?vid=c775f181-c145-4087-bd1a-acd979b7aa3f","ios":"levelo://app?vid=c775f181-c145-4087-bd1a-acd979b7aa3f"},"vehicle_type_id":"4","last_reported":1703948758,"current_range_meters":16800,"station_id":"ce4bhi12rcd13ifvqfq0","pricing_plan_id":"free"},{"bike_id":"048306d8-69df-4d21-99c9-8745e525e8de","system_id":"levelo_inurba_marseille","lat":43.298938,"lon":5.436591,"is_reserved":false,"is_disabled":false,"rental_uris":{"android":"levelo://app?vid=048306d8-69df-4d21-99c9-8745e525e8de","ios":"levelo://app?vid=048306d8-69df-4d21-99c9-8745e525e8de"},"vehicle_type_id":"4","last_reported":1703948758,"current_range_meters":7200,"station_id":"ce4bhpp2rcd13ifvqhfg","pricing_plan_id":"free"},{"bike_id":"812614fc-f43d-42cd-8379-6bce06a75358","system_id":"levelo_inurba_marseille","lat":43.298768,"lon":5.43643,"is_reserved":false,"is_disabled":false,"rental_uris":{"android":"levelo://app?vid=812614fc-f43d-42cd-8379-6bce06a75358","ios":"levelo://app?vid=812614fc-f43d-42cd-8379-6bce06a75358"},"vehicle_type_id":"4","last_reported":1703948758,"current_range_meters":31200,"station_id":"ce4bhpp2rcd13ifvqhfg","pricing_plan_id":"free"},{"bike_id":"4e011c37-f126-433b-a488-7ed2749557ae","system_id":"levelo_inurba_marseille","lat":43.298768,"lon":5.43643,"is_reserved":false,"is_disabled":false,"rental_uris":{"android":"levelo://app?vid=4e011c37-f126-433b-a488-7ed2749557ae","ios":"levelo://app?vid=4e011c37-f126-433b-a488-7ed2749557ae"},"vehicle_type_id":"4","last_reported":1703948758,"current_range_meters":22400,"station_id":"ce4bhpp2rcd13ifvqhfg","pricing_plan_id":"free"},{"bike_id":"c8715231-bbaa-4427-aa43-954e8c0775b7","system_id":"levelo_inurba_marseille","lat":43.260225,"lon":5.375455,"is_reserved":false,"is_disabled":false,"rental_uris":{"android":"levelo://app?vid=c8715231-bbaa-4427-aa43-954e8c0775b7","ios":"levelo://app?vid=c8715231-bbaa-4427-aa43-954e8c0775b7"},"vehicle_type_id":"4","last_reported":1703948758,"current_range_meters":13600,"station_id":"ce4bhgh2rcd13ifvqfa0","pricing_plan_id":"free"},{"bike_id":"504ec293-be18-4653-9260-9c6c6945baa0","system_id":"levelo_inurba_marseille","lat":43.260303,"lon":5.375491,"is_reserved":false,"is_disabled":false,"rental_uris":{"android":"levelo://app?vid=504ec293-be18-4653-9260-9c6c6945baa0","ios":"levelo://app?vid=504ec293-be18-4653-9260-9c6c6945baa0"},"vehicle_type_id":"4","last_reported":1703948758,"current_range_meters":20400,"station_id":"ce4bhgh2rcd13ifvqfa0","pricing_plan_id":"free"},{"bike_id":"0d574b27-0544-48a4-bf39-ede07ecbf8c3","system_id":"levelo_inurba_marseille","lat":43.281548,"lon":5.42643,"is_reserved":false,"is_disabled":false,"rental_uris":{"android":"levelo://app?vid=0d574b27-0544-48a4-bf39-ede07ecbf8c3","ios":"levelo://app?vid=0d574b27-0544-48a4-bf39-ede07ecbf8c3"},"vehicle_type_id":"4","last_reported":1703948758,"current_range_meters":12400,"station_id":"ce4bhnh2rcd13ifvqgug","pricing_plan_id":"free"},{"bike_id":"ae4d9165-e28e-4d9a-96b2-f52818c16b4e","system_id":"levelo_inurba_marseille","lat":43.281548,"lon":5.42643,"is_reserved":false,"is_disabled":false,"rental_uris":{"android":"levelo://app?vid=ae4d9165-e28e-4d9a-96b2-f52818c16b4e","ios":"levelo://app?vid=ae4d9165-e28e-4d9a-96b2-f52818c16b4e"},"vehicle_type_id":"4","last_reported":1703948758,"current_range_meters":18400,"station_id":"ce4bhnh2rcd13ifvqgug","pricing_plan_id":"free"},{"bike_id":"561caa75-0d81-42e6-a271-51900f4146c2","system_id":"levelo_inurba_marseille","lat":43.281548,"lon":5.42643,"is_reserved":false,"is_disabled":false,"rental_uris":{"android":"levelo://app?vid=561caa75-0d81-42e6-a271-51900f4146c2","ios":"levelo://app?vid=561caa75-0d81-42e6-a271-51900f4146c2"},"vehicle_type_id":"4","last_reported":1703948758,"current_range_meters":6800,"station_id":"ce4bhnh2rcd13ifvqgug","pricing_plan_id":"free"},{"bike_id":"c75538d5-d755-4926-9c21-3f6dd23b660c","system_id":"levelo_inurba_marseille","lat":43.281548,"lon":5.42643,"is_reserved":false,"is_disabled":false,"rental_uris":{"android":"levelo://app?vid=c75538d5-d755-4926-9c21-3f6dd23b660c","ios":"levelo://app?vid=c75538d5-d755-4926-9c21-3f6dd23b660c"},"vehicle_type_id":"4","last_reported":1703948758,"current_range_meters":31200,"station_id":"ce4bhnh2rcd13ifvqgug","pricing_plan_id":"free"},{"bike_id":"dba94adf-8631-4e52-b14e-ab5df234ae8e","system_id":"levelo_inurba_marseille","lat":43.281548,"lon":5.42643,"is_reserved":false,"is_disabled":false,"rental_uris":{"android":"levelo://app?vid=dba94adf-8631-4e52-b14e-ab5df234ae8e","ios":"levelo://app?vid=dba94adf-8631-4e52-b14e-ab5df234ae8e"},"vehicle_type_id":"4","last_reported":1703948758,"current_range_meters":31200,"station_id":"ce4bhnh2rcd13ifvqgug","pricing_plan_id":"free"},{"bike_id":"0c5cb810-16ed-4b8f-9df0-3ac1374db3bf","system_id":"levelo_inurba_marseille","lat":43.28152,"lon":5.42649,"is_reserved":false,"is_disabled":false,"rental_uris":{"android":"levelo://app?vid=0c5cb810-16ed-4b8f-9df0-3ac1374db3bf","ios":"levelo://app?vid=0c5cb810-16ed-4b8f-9df0-3ac1374db3bf"},"vehicle_type_id":"4","last_reported":1703948758,"current_range_meters":28000,"station_id":"ce4bhnh2rcd13ifvqgug","pricing_plan_id":"free"},{"bike_id":"512100d2-6ca0-4430-82d1-786761969427","system_id":"levelo_inurba_marseille","lat":43.28152,"lon":5.42651,"is_reserved":false,"is_disabled":false,"rental_uris":{"android":"levelo://app?vid=512100d2-6ca0-4430-82d1-786761969427","ios":"levelo://app?vid=512100d2-6ca0-4430-82d1-786761969427"},"vehicle_type_id":"4","last_reported":1703948758,"current_range_meters":18800,"station_id":"ce4bhnh2rcd13ifvqgug","pricing_plan_id":"free"},{"bike_id":"d1ddac62-6636-4841-9147-de199dd47aab","system_id":"levelo_inurba_marseille","lat":43.2607,"lon":5.393983,"is_reserved":false,"is_disabled":false,"rental_uris":{"android":"levelo://app?vid=d1ddac62-6636-4841-9147-de199dd47aab","ios":"levelo://app?vid=d1ddac62-6636-4841-9147-de199dd47aab"},"vehicle_type_id":"4","last_reported":1703948758,"current_range_meters":31600,"station_id":"ce4bhh92rcd13ifvqfj0","pricing_plan_id":"free"},{"bike_id":"9d52e96d-f67e-491d-bb98-203634da85bb","system_id":"levelo_inurba_marseille","lat":43.2607,"lon":5.393983,"is_reserved":false,"is_disabled":false,"rental_uris":{"android":"levelo://app?vid=9d52e96d-f67e-491d-bb98-203634da85bb","ios":"levelo://app?vid=9d52e96d-f67e-491d-bb98-203634da85bb"},"vehicle_type_id":"4","last_reported":1703948758,"current_range_meters":10400,"station_id":"ce4bhh92rcd13ifvqfj0","pricing_plan_id":"free"},{"bike_id":"f8f4f015-46ab-4f47-9865-f3c8cdf4f55b","system_id":"levelo_inurba_marseille","lat":43.2607,"lon":5.393983,"is_reserved":false,"is_disabled":false,"rental_uris":{"android":"levelo://app?vid=f8f4f015-46ab-4f47-9865-f3c8cdf4f55b","ios":"levelo://app?vid=f8f4f015-46ab-4f47-9865-f3c8cdf4f55b"},"vehicle_type_id":"4","last_reported":1703948758,"current_range_meters":18400,"station_id":"ce4bhh92rcd13ifvqfj0","pricing_plan_id":"free"},{"bike_id":"a030c8e8-c945-47bc-b4e3-d5e5b894f6f9","system_id":"levelo_inurba_marseille","lat":43.2607,"lon":5.393983,"is_reserved":false,"is_disabled":false,"rental_uris":{"android":"levelo://app?vid=a030c8e8-c945-47bc-b4e3-d5e5b894f6f9","ios":"levelo://app?vid=a030c8e8-c945-47bc-b4e3-d5e5b894f6f9"},"vehicle_type_id":"4","last_reported":1703948758,"current_range_meters":17600,"station_id":"ce4bhh92rcd13ifvqfj0","pricing_plan_id":"free"},{"bike_id":"89ad69b9-0b0a-42aa-867a-d735e5e5ea75","system_id":"levelo_inurba_marseille","lat":43.275028,"lon":5.424534,"is_reserved":false,"is_disabled":false,"rental_uris":{"android":"levelo://app?vid=89ad69b9-0b0a-42aa-867a-d735e5e5ea75","ios":"levelo://app?vid=89ad69b9-0b0a-42aa-867a-d735e5e5ea75"},"vehicle_type_id":"4","last_reported":1703948758,"current_range_meters":31200,"station_id":"ce4bhn92rcd13ifvqgrg","pricing_plan_id":"free"},{"bike_id":"8ddd4348-db10-4fc7-ae10-ae3c783085e9","system_id":"levelo_inurba_marseille","lat":43.275028,"lon":5.424534,"is_reserved":false,"is_disabled":false,"rental_uris":{"android":"levelo://app?vid=8ddd4348-db10-4fc7-ae10-ae3c783085e9","ios":"levelo://app?vid=8ddd4348-db10-4fc7-ae10-ae3c783085e9"},"vehicle_type_id":"4","last_reported":1703948758,"current_range_meters":26800,"station_id":"ce4bhn92rcd13ifvqgrg","pricing_plan_id":"free"},{"bike_id":"5f853402-cea6-4f0d-ab6c-f0eff1575dff","system_id":"levelo_inurba_marseille","lat":43.275028,"lon":5.424534,"is_reserved":false,"is_disabled":false,"rental_uris":{"android":"levelo://app?vid=5f853402-cea6-4f0d-ab6c-f0eff1575dff","ios":"levelo://app?vid=5f853402-cea6-4f0d-ab6c-f0eff1575dff"},"vehicle_type_id":"4","last_reported":1703948758,"current_range_meters":28000,"station_id":"ce4bhn92rcd13ifvqgrg","pricing_plan_id":"free"},{"bike_id":"a44dd3b3-8566-4261-a80e-16d24b31c939","system_id":"levelo_inurba_marseille","lat":43.275028,"lon":5.424534,"is_reserved":false,"is_disabled":false,"rental_uris":{"android":"levelo://app?vid=a44dd3b3-8566-4261-a80e-16d24b31c939","ios":"levelo://app?vid=a44dd3b3-8566-4261-a80e-16d24b31c939"},"vehicle_type_id":"4","last_reported":1703948758,"current_range_meters":13200,"station_id":"ce4bhn92rcd13ifvqgrg","pricing_plan_id":"free"},{"bike_id":"8c33f7cb-aa0e-408d-8274-7fb3ed986564","system_id":"levelo_inurba_marseille","lat":43.255756,"lon":5.382303,"is_reserved":false,"is_disabled":false,"rental_uris":{"android":"levelo://app?vid=8c33f7cb-aa0e-408d-8274-7fb3ed986564","ios":"levelo://app?vid=8c33f7cb-aa0e-408d-8274-7fb3ed986564"},"vehicle_type_id":"4","last_reported":1703948758,"current_range_meters":3600,"station_id":"ce4bhih2rcd13ifvqfs0","pricing_plan_id":"free"},{"bike_id":"bc90c04f-6296-400c-be3d-8c3efbd629d9","system_id":"levelo_inurba_marseille","lat":43.254947,"lon":5.376454,"is_reserved":false,"is_disabled":false,"rental_uris":{"android":"levelo://app?vid=bc90c04f-6296-400c-be3d-8c3efbd629d9","ios":"levelo://app?vid=bc90c04f-6296-400c-be3d-8c3efbd629d9"},"vehicle_type_id":"4","last_reported":1703948758,"current_range_meters":12400,"station_id":"ce4bhh12rcd13ifvqff0","pricing_plan_id":"free"},{"bike_id":"3d04cad6-8e55-4b7d-b6b1-3ba800e08c5e","system_id":"levelo_inurba_marseille","lat":43.270721,"lon":5.422764,"is_reserved":false,"is_disabled":false,"rental_uris":{"android":"levelo://app?vid=3d04cad6-8e55-4b7d-b6b1-3ba800e08c5e","ios":"levelo://app?vid=3d04cad6-8e55-4b7d-b6b1-3ba800e08c5e"},"vehicle_type_id":"4","last_reported":1703948758,"current_range_meters":31200,"station_id":"ce4bhk92rcd13ifvqgb0","pricing_plan_id":"free"},{"bike_id":"d7013018-aa77-4b78-b319-70da3c7071e3","system_id":"levelo_inurba_marseille","lat":43.270721,"lon":5.422764,"is_reserved":false,"is_disabled":false,"rental_uris":{"android":"levelo://app?vid=d7013018-aa77-4b78-b319-70da3c7071e3","ios":"levelo://app?vid=d7013018-aa77-4b78-b319-70da3c7071e3"},"vehicle_type_id":"4","last_reported":1703948758,"current_range_meters":15200,"station_id":"ce4bhk92rcd13ifvqgb0","pricing_plan_id":"free"},{"bike_id":"c61e6f1d-6aaa-4936-bac3-d0c9b1ef9c8c","system_id":"levelo_inurba_marseille","lat":43.250009,"lon":5.389195,"is_reserved":false,"is_disabled":false,"rental_uris":{"android":"levelo://app?vid=c61e6f1d-6aaa-4936-bac3-d0c9b1ef9c8c","ios":"levelo://app?vid=c61e6f1d-6aaa-4936-bac3-d0c9b1ef9c8c"},"vehicle_type_id":"4","last_reported":1703948758,"current_range_meters":16800,"station_id":"ce4bhgp2rcd13ifvqfd0","pricing_plan_id":"free"},{"bike_id":"88d50ebd-a932-4e11-8429-aa56e129fd7e","system_id":"levelo_inurba_marseille","lat":43.2479,"lon":5.374457,"is_reserved":false,"is_disabled":false,"rental_uris":{"android":"levelo://app?vid=88d50ebd-a932-4e11-8429-aa56e129fd7e","ios":"levelo://app?vid=88d50ebd-a932-4e11-8429-aa56e129fd7e"},"vehicle_type_id":"4","last_reported":1703948758,"current_range_meters":30000,"station_id":"ce4bhgh2rcd13ifvqfb0","pricing_plan_id":"free"},{"bike_id":"d8375dd4-fb8b-4014-80b9-952a27cf81d9","system_id":"levelo_inurba_marseille","lat":43.2479,"lon":5.374457,"is_reserved":false,"is_disabled":false,"rental_uris":{"android":"levelo://app?vid=d8375dd4-fb8b-4014-80b9-952a27cf81d9","ios":"levelo://app?vid=d8375dd4-fb8b-4014-80b9-952a27cf81d9"},"vehicle_type_id":"4","last_reported":1703948758,"current_range_meters":1200,"station_id":"ce4bhgh2rcd13ifvqfb0","pricing_plan_id":"free"},{"bike_id":"c8db5790-6413-4e4f-86ee-2b8a70c9641e","system_id":"levelo_inurba_marseille","lat":43.24807,"lon":5.37456,"is_reserved":false,"is_disabled":false,"rental_uris":{"android":"levelo://app?vid=c8db5790-6413-4e4f-86ee-2b8a70c9641e","ios":"levelo://app?vid=c8db5790-6413-4e4f-86ee-2b8a70c9641e"},"vehicle_type_id":"4","last_reported":1703948758,"current_range_meters":4800,"station_id":"ce4bhgh2rcd13ifvqfb0","pricing_plan_id":"free"},{"bike_id":"80c9dbd8-3775-4ea4-8af9-a8df3fe38ecb","system_id":"levelo_inurba_marseille","lat":43.2479,"lon":5.374457,"is_reserved":false,"is_disabled":false,"rental_uris":{"android":"levelo://app?vid=80c9dbd8-3775-4ea4-8af9-a8df3fe38ecb","ios":"levelo://app?vid=80c9dbd8-3775-4ea4-8af9-a8df3fe38ecb"},"vehicle_type_id":"4","last_reported":1703948758,"current_range_meters":24000,"station_id":"ce4bhgh2rcd13ifvqfb0","pricing_plan_id":"free"},{"bike_id":"eab70960-5e62-4afd-b4ee-14e981ad3142","system_id":"levelo_inurba_marseille","lat":43.25102,"lon":5.403214,"is_reserved":false,"is_disabled":false,"rental_uris":{"android":"levelo://app?vid=eab70960-5e62-4afd-b4ee-14e981ad3142","ios":"levelo://app?vid=eab70960-5e62-4afd-b4ee-14e981ad3142"},"vehicle_type_id":"4","last_reported":1703948758,"current_range_meters":9200,"station_id":"ce4bhlh2rcd13ifvqgig","pricing_plan_id":"free"},{"bike_id":"a0e4bcce-b67b-4057-9de9-07cbf6c98d38","system_id":"levelo_inurba_marseille","lat":43.246461,"lon":5.389014,"is_reserved":false,"is_disabled":false,"rental_uris":{"android":"levelo://app?vid=a0e4bcce-b67b-4057-9de9-07cbf6c98d38","ios":"levelo://app?vid=a0e4bcce-b67b-4057-9de9-07cbf6c98d38"},"vehicle_type_id":"4","last_reported":1703948758,"current_range_meters":30400,"station_id":"ce4bhg12rcd13ifvqf60","pricing_plan_id":"free"},{"bike_id":"6dcf6470-439b-4c8f-ba4e-fc8bd4002e28","system_id":"levelo_inurba_marseille","lat":43.24389,"lon":5.37058,"is_reserved":false,"is_disabled":false,"rental_uris":{"android":"levelo://app?vid=6dcf6470-439b-4c8f-ba4e-fc8bd4002e28","ios":"levelo://app?vid=6dcf6470-439b-4c8f-ba4e-fc8bd4002e28"},"vehicle_type_id":"4","last_reported":1703948758,"current_range_meters":31200,"station_id":"ce4bhhh2rcd13ifvqfk0","pricing_plan_id":"free"},{"bike_id":"b648bc62-32c8-4630-8fa2-e8b686b999c4","system_id":"levelo_inurba_marseille","lat":43.24388,"lon":5.37052,"is_reserved":false,"is_disabled":false,"rental_uris":{"android":"levelo://app?vid=b648bc62-32c8-4630-8fa2-e8b686b999c4","ios":"levelo://app?vid=b648bc62-32c8-4630-8fa2-e8b686b999c4"},"vehicle_type_id":"4","last_reported":1703948758,"current_range_meters":22000,"station_id":"ce4bhhh2rcd13ifvqfk0","pricing_plan_id":"free"},{"bike_id":"c7f2a65c-c33a-47fb-8f1b-28b8954e054a","system_id":"levelo_inurba_marseille","lat":43.24387,"lon":5.3706,"is_reserved":false,"is_disabled":false,"rental_uris":{"android":"levelo://app?vid=c7f2a65c-c33a-47fb-8f1b-28b8954e054a","ios":"levelo://app?vid=c7f2a65c-c33a-47fb-8f1b-28b8954e054a"},"vehicle_type_id":"4","last_reported":1703948758,"current_range_meters":23200,"station_id":"ce4bhhh2rcd13ifvqfk0","pricing_plan_id":"free"},{"bike_id":"a8082809-4ad3-4388-836e-c7ff9c5cd305","system_id":"levelo_inurba_marseille","lat":43.24387,"lon":5.37063,"is_reserved":false,"is_disabled":false,"rental_uris":{"android":"levelo://app?vid=a8082809-4ad3-4388-836e-c7ff9c5cd305","ios":"levelo://app?vid=a8082809-4ad3-4388-836e-c7ff9c5cd305"},"vehicle_type_id":"4","last_reported":1703948758,"current_range_meters":25600,"station_id":"ce4bhhh2rcd13ifvqfk0","pricing_plan_id":"free"},{"bike_id":"866cf827-bf45-4911-8614-f555e0d7ca7f","system_id":"levelo_inurba_marseille","lat":43.24386,"lon":5.37055,"is_reserved":false,"is_disabled":false,"rental_uris":{"android":"levelo://app?vid=866cf827-bf45-4911-8614-f555e0d7ca7f","ios":"levelo://app?vid=866cf827-bf45-4911-8614-f555e0d7ca7f"},"vehicle_type_id":"4","last_reported":1703948758,"current_range_meters":12800,"station_id":"ce4bhhh2rcd13ifvqfk0","pricing_plan_id":"free"},{"bike_id":"954ff064-e305-42c0-9595-d713139931ad","system_id":"levelo_inurba_marseille","lat":43.240623,"lon":5.377642,"is_reserved":false,"is_disabled":false,"rental_uris":{"android":"levelo://app?vid=954ff064-e305-42c0-9595-d713139931ad","ios":"levelo://app?vid=954ff064-e305-42c0-9595-d713139931ad"},"vehicle_type_id":"4","last_reported":1703948758,"current_range_meters":19600,"station_id":"ce4bhnp2rcd13ifvqgvg","pricing_plan_id":"free"},{"bike_id":"a348e6dc-5019-4c6c-997f-659bb8025bce","system_id":"levelo_inurba_marseille","lat":43.23967,"lon":5.36634,"is_reserved":false,"is_disabled":false,"rental_uris":{"android":"levelo://app?vid=a348e6dc-5019-4c6c-997f-659bb8025bce","ios":"levelo://app?vid=a348e6dc-5019-4c6c-997f-659bb8025bce"},"vehicle_type_id":"4","last_reported":1703948758,"current_range_meters":30400,"station_id":"ce4bhi12rcd13ifvqfp0","pricing_plan_id":"free"},{"bike_id":"1a828c05-ffde-424b-a2a8-cb76705bead6","system_id":"levelo_inurba_marseille","lat":43.23966,"lon":5.366335,"is_reserved":false,"is_disabled":false,"rental_uris":{"android":"levelo://app?vid=1a828c05-ffde-424b-a2a8-cb76705bead6","ios":"levelo://app?vid=1a828c05-ffde-424b-a2a8-cb76705bead6"},"vehicle_type_id":"4","last_reported":1703948758,"current_range_meters":27600,"station_id":"ce4bhi12rcd13ifvqfp0","pricing_plan_id":"free"},{"bike_id":"1b5096b1-7603-49bf-9cc0-dfa495334210","system_id":"levelo_inurba_marseille","lat":43.23966,"lon":5.36621,"is_reserved":false,"is_disabled":false,"rental_uris":{"android":"levelo://app?vid=1b5096b1-7603-49bf-9cc0-dfa495334210","ios":"levelo://app?vid=1b5096b1-7603-49bf-9cc0-dfa495334210"},"vehicle_type_id":"4","last_reported":1703948758,"current_range_meters":22000,"station_id":"ce4bhi12rcd13ifvqfp0","pricing_plan_id":"free"},{"bike_id":"0676f7f4-1513-4bf4-9204-8d3e55d08d9d","system_id":"levelo_inurba_marseille","lat":43.239588,"lon":5.366238,"is_reserved":false,"is_disabled":false,"rental_uris":{"android":"levelo://app?vid=0676f7f4-1513-4bf4-9204-8d3e55d08d9d","ios":"levelo://app?vid=0676f7f4-1513-4bf4-9204-8d3e55d08d9d"},"vehicle_type_id":"4","last_reported":1703948758,"current_range_meters":14000,"station_id":"ce4bhi12rcd13ifvqfp0","pricing_plan_id":"free"},{"bike_id":"40f70131-60cc-4e89-a1ab-5d9732fbf344","system_id":"levelo_inurba_marseille","lat":43.239642,"lon":5.366387,"is_reserved":false,"is_disabled":false,"rental_uris":{"android":"levelo://app?vid=40f70131-60cc-4e89-a1ab-5d9732fbf344","ios":"levelo://app?vid=40f70131-60cc-4e89-a1ab-5d9732fbf344"},"vehicle_type_id":"4","last_reported":1703948758,"current_range_meters":31200,"station_id":"ce4bhi12rcd13ifvqfp0","pricing_plan_id":"free"},{"bike_id":"369ff85d-1655-4d07-98c0-cb329bdf417f","system_id":"levelo_inurba_marseille","lat":43.239639,"lon":5.366279,"is_reserved":false,"is_disabled":false,"rental_uris":{"android":"levelo://app?vid=369ff85d-1655-4d07-98c0-cb329bdf417f","ios":"levelo://app?vid=369ff85d-1655-4d07-98c0-cb329bdf417f"},"vehicle_type_id":"4","last_reported":1703948758,"current_range_meters":11600,"station_id":"ce4bhi12rcd13ifvqfp0","pricing_plan_id":"free"},{"bike_id":"19fb2b43-8c2f-4395-b420-649d76071b80","system_id":"levelo_inurba_marseille","lat":43.239638,"lon":5.366238,"is_reserved":false,"is_disabled":false,"rental_uris":{"android":"levelo://app?vid=19fb2b43-8c2f-4395-b420-649d76071b80","ios":"levelo://app?vid=19fb2b43-8c2f-4395-b420-649d76071b80"},"vehicle_type_id":"4","last_reported":1703948758,"current_range_meters":27600,"station_id":"ce4bhi12rcd13ifvqfp0","pricing_plan_id":"free"},{"bike_id":"7ab7d011-f398-436e-8975-9c9ccd1eeffd","system_id":"levelo_inurba_marseille","lat":43.239621,"lon":5.366329,"is_reserved":false,"is_disabled":false,"rental_uris":{"android":"levelo://app?vid=7ab7d011-f398-436e-8975-9c9ccd1eeffd","ios":"levelo://app?vid=7ab7d011-f398-436e-8975-9c9ccd1eeffd"},"vehicle_type_id":"4","last_reported":1703948758,"current_range_meters":19600,"station_id":"ce4bhi12rcd13ifvqfp0","pricing_plan_id":"free"},{"bike_id":"48a48b0d-6623-42c7-990d-93bc5f0340c8","system_id":"levelo_inurba_marseille","lat":43.23962,"lon":5.36638,"is_reserved":false,"is_disabled":false,"rental_uris":{"android":"levelo://app?vid=48a48b0d-6623-42c7-990d-93bc5f0340c8","ios":"levelo://app?vid=48a48b0d-6623-42c7-990d-93bc5f0340c8"},"vehicle_type_id":"4","last_reported":1703948758,"current_range_meters":18000,"station_id":"ce4bhi12rcd13ifvqfp0","pricing_plan_id":"free"},{"bike_id":"f07a97bd-c53b-4fe1-8e4a-747562935b08","system_id":"levelo_inurba_marseille","lat":43.239618,"lon":5.366358,"is_reserved":false,"is_disabled":false,"rental_uris":{"android":"levelo://app?vid=f07a97bd-c53b-4fe1-8e4a-747562935b08","ios":"levelo://app?vid=f07a97bd-c53b-4fe1-8e4a-747562935b08"},"vehicle_type_id":"4","last_reported":1703948758,"current_range_meters":31200,"station_id":"ce4bhi12rcd13ifvqfp0","pricing_plan_id":"free"},{"bike_id":"fd6de154-b14e-4faf-8429-dee6c6cbfff0","system_id":"levelo_inurba_marseille","lat":43.239611,"lon":5.366368,"is_reserved":false,"is_disabled":false,"rental_uris":{"android":"levelo://app?vid=fd6de154-b14e-4faf-8429-dee6c6cbfff0","ios":"levelo://app?vid=fd6de154-b14e-4faf-8429-dee6c6cbfff0"},"vehicle_type_id":"4","last_reported":1703948758,"current_range_meters":21200,"station_id":"ce4bhi12rcd13ifvqfp0","pricing_plan_id":"free"},{"bike_id":"88529da0-168f-4d83-96c0-be310b30c829","system_id":"levelo_inurba_marseille","lat":43.23961,"lon":5.36625,"is_reserved":false,"is_disabled":false,"rental_uris":{"android":"levelo://app?vid=88529da0-168f-4d83-96c0-be310b30c829","ios":"levelo://app?vid=88529da0-168f-4d83-96c0-be310b30c829"},"vehicle_type_id":"4","last_reported":1703948758,"current_range_meters":14400,"station_id":"ce4bhi12rcd13ifvqfp0","pricing_plan_id":"free"},{"bike_id":"aebf2f57-ef59-41eb-ba09-48fe6652e0b7","system_id":"levelo_inurba_marseille","lat":43.239607,"lon":5.366289,"is_reserved":false,"is_disabled":false,"rental_uris":{"android":"levelo://app?vid=aebf2f57-ef59-41eb-ba09-48fe6652e0b7","ios":"levelo://app?vid=aebf2f57-ef59-41eb-ba09-48fe6652e0b7"},"vehicle_type_id":"4","last_reported":1703948758,"current_range_meters":20800,"station_id":"ce4bhi12rcd13ifvqfp0","pricing_plan_id":"free"},{"bike_id":"b4f1ba3d-4ff5-41da-9dee-867ccd74f7bd","system_id":"levelo_inurba_marseille","lat":43.2396,"lon":5.36636,"is_reserved":false,"is_disabled":false,"rental_uris":{"android":"levelo://app?vid=b4f1ba3d-4ff5-41da-9dee-867ccd74f7bd","ios":"levelo://app?vid=b4f1ba3d-4ff5-41da-9dee-867ccd74f7bd"},"vehicle_type_id":"4","last_reported":1703948758,"current_range_meters":13600,"station_id":"ce4bhi12rcd13ifvqfp0","pricing_plan_id":"free"},{"bike_id":"88de892e-6e8c-4997-9fff-440129dd3299","system_id":"levelo_inurba_marseille","lat":43.2396,"lon":5.366335,"is_reserved":false,"is_disabled":false,"rental_uris":{"android":"levelo://app?vid=88de892e-6e8c-4997-9fff-440129dd3299","ios":"levelo://app?vid=88de892e-6e8c-4997-9fff-440129dd3299"},"vehicle_type_id":"4","last_reported":1703948758,"current_range_meters":20800,"station_id":"ce4bhi12rcd13ifvqfp0","pricing_plan_id":"free"},{"bike_id":"88d4304e-2239-45c6-b296-29fd35d793af","system_id":"levelo_inurba_marseille","lat":43.239598,"lon":5.366286,"is_reserved":false,"is_disabled":false,"rental_uris":{"android":"levelo://app?vid=88d4304e-2239-45c6-b296-29fd35d793af","ios":"levelo://app?vid=88d4304e-2239-45c6-b296-29fd35d793af"},"vehicle_type_id":"4","last_reported":1703948758,"current_range_meters":18400,"station_id":"ce4bhi12rcd13ifvqfp0","pricing_plan_id":"free"},{"bike_id":"5e0a9ab6-0259-4bd7-bf9d-0a3e6d79fee8","system_id":"levelo_inurba_marseille","lat":43.23959,"lon":5.36634,"is_reserved":false,"is_disabled":false,"rental_uris":{"android":"levelo://app?vid=5e0a9ab6-0259-4bd7-bf9d-0a3e6d79fee8","ios":"levelo://app?vid=5e0a9ab6-0259-4bd7-bf9d-0a3e6d79fee8"},"vehicle_type_id":"4","last_reported":1703948758,"current_range_meters":20400,"station_id":"ce4bhi12rcd13ifvqfp0","pricing_plan_id":"free"},{"bike_id":"56ec463f-b8b9-4cfd-90ce-f872c4bc185d","system_id":"levelo_inurba_marseille","lat":43.23959,"lon":5.366325,"is_reserved":false,"is_disabled":false,"rental_uris":{"android":"levelo://app?vid=56ec463f-b8b9-4cfd-90ce-f872c4bc185d","ios":"levelo://app?vid=56ec463f-b8b9-4cfd-90ce-f872c4bc185d"},"vehicle_type_id":"4","last_reported":1703948758,"current_range_meters":29200,"station_id":"ce4bhi12rcd13ifvqfp0","pricing_plan_id":"free"},{"bike_id":"ed39a3d3-e5a9-480e-a720-eeaf72c1803c","system_id":"levelo_inurba_marseille","lat":43.23959,"lon":5.36626,"is_reserved":false,"is_disabled":false,"rental_uris":{"android":"levelo://app?vid=ed39a3d3-e5a9-480e-a720-eeaf72c1803c","ios":"levelo://app?vid=ed39a3d3-e5a9-480e-a720-eeaf72c1803c"},"vehicle_type_id":"4","last_reported":1703948758,"current_range_meters":17600,"station_id":"ce4bhi12rcd13ifvqfp0","pricing_plan_id":"free"},{"bike_id":"f19f70f5-3349-42c6-83af-b4cc59bd42cd","system_id":"levelo_inurba_marseille","lat":43.23959,"lon":5.36613,"is_reserved":false,"is_disabled":false,"rental_uris":{"android":"levelo://app?vid=f19f70f5-3349-42c6-83af-b4cc59bd42cd","ios":"levelo://app?vid=f19f70f5-3349-42c6-83af-b4cc59bd42cd"},"vehicle_type_id":"4","last_reported":1703948758,"current_range_meters":16400,"station_id":"ce4bhi12rcd13ifvqfp0","pricing_plan_id":"free"},{"bike_id":"cc8bd1fd-955d-4ec9-8400-a7079b33492a","system_id":"levelo_inurba_marseille","lat":43.239583,"lon":5.366342,"is_reserved":false,"is_disabled":false,"rental_uris":{"android":"levelo://app?vid=cc8bd1fd-955d-4ec9-8400-a7079b33492a","ios":"levelo://app?vid=cc8bd1fd-955d-4ec9-8400-a7079b33492a"},"vehicle_type_id":"4","last_reported":1703948758,"current_range_meters":28400,"station_id":"ce4bhi12rcd13ifvqfp0","pricing_plan_id":"free"},{"bike_id":"55390f0e-93c0-4fe2-ba1a-cd20343e006e","system_id":"levelo_inurba_marseille","lat":43.23958,"lon":5.36628,"is_reserved":false,"is_disabled":false,"rental_uris":{"android":"levelo://app?vid=55390f0e-93c0-4fe2-ba1a-cd20343e006e","ios":"levelo://app?vid=55390f0e-93c0-4fe2-ba1a-cd20343e006e"},"vehicle_type_id":"4","last_reported":1703948758,"current_range_meters":16800,"station_id":"ce4bhi12rcd13ifvqfp0","pricing_plan_id":"free"},{"bike_id":"4a49f438-956e-4386-a8ad-259e5e367823","system_id":"levelo_inurba_marseille","lat":43.23958,"lon":5.36626,"is_reserved":false,"is_disabled":false,"rental_uris":{"android":"levelo://app?vid=4a49f438-956e-4386-a8ad-259e5e367823","ios":"levelo://app?vid=4a49f438-956e-4386-a8ad-259e5e367823"},"vehicle_type_id":"4","last_reported":1703948758,"current_range_meters":17600,"station_id":"ce4bhi12rcd13ifvqfp0","pricing_plan_id":"free"},{"bike_id":"8e21f7d3-3d34-4251-b714-57e29f619b2b","system_id":"levelo_inurba_marseille","lat":43.23957,"lon":5.36629,"is_reserved":false,"is_disabled":false,"rental_uris":{"android":"levelo://app?vid=8e21f7d3-3d34-4251-b714-57e29f619b2b","ios":"levelo://app?vid=8e21f7d3-3d34-4251-b714-57e29f619b2b"},"vehicle_type_id":"4","last_reported":1703948758,"current_range_meters":17200,"station_id":"ce4bhi12rcd13ifvqfp0","pricing_plan_id":"free"},{"bike_id":"4a4f2858-12cd-4287-8df8-cc9f351c9260","system_id":"levelo_inurba_marseille","lat":43.23956,"lon":5.36633,"is_reserved":false,"is_disabled":false,"rental_uris":{"android":"levelo://app?vid=4a4f2858-12cd-4287-8df8-cc9f351c9260","ios":"levelo://app?vid=4a4f2858-12cd-4287-8df8-cc9f351c9260"},"vehicle_type_id":"4","last_reported":1703948758,"current_range_meters":20800,"station_id":"ce4bhi12rcd13ifvqfp0","pricing_plan_id":"free"},{"bike_id":"a0743887-161b-435f-bb94-1638b2e64566","system_id":"levelo_inurba_marseille","lat":43.23955,"lon":5.3663,"is_reserved":false,"is_disabled":false,"rental_uris":{"android":"levelo://app?vid=a0743887-161b-435f-bb94-1638b2e64566","ios":"levelo://app?vid=a0743887-161b-435f-bb94-1638b2e64566"},"vehicle_type_id":"4","last_reported":1703948758,"current_range_meters":26400,"station_id":"ce4bhi12rcd13ifvqfp0","pricing_plan_id":"free"},{"bike_id":"9151b49f-ef2b-4e0a-8a68-c2d706773275","system_id":"levelo_inurba_marseille","lat":43.23954,"lon":5.36634,"is_reserved":false,"is_disabled":false,"rental_uris":{"android":"levelo://app?vid=9151b49f-ef2b-4e0a-8a68-c2d706773275","ios":"levelo://app?vid=9151b49f-ef2b-4e0a-8a68-c2d706773275"},"vehicle_type_id":"4","last_reported":1703948758,"current_range_meters":22400,"station_id":"ce4bhi12rcd13ifvqfp0","pricing_plan_id":"free"},{"bike_id":"1414d86a-ae30-4e29-b8c1-b991b94d5c4e","system_id":"levelo_inurba_marseille","lat":43.23954,"lon":5.36624,"is_reserved":false,"is_disabled":false,"rental_uris":{"android":"levelo://app?vid=1414d86a-ae30-4e29-b8c1-b991b94d5c4e","ios":"levelo://app?vid=1414d86a-ae30-4e29-b8c1-b991b94d5c4e"},"vehicle_type_id":"4","last_reported":1703948758,"current_range_meters":16400,"station_id":"ce4bhi12rcd13ifvqfp0","pricing_plan_id":"free"},{"bike_id":"4ed7b0ac-dcea-4cb4-aff0-958b4af696bc","system_id":"levelo_inurba_marseille","lat":43.23952,"lon":5.36637,"is_reserved":false,"is_disabled":false,"rental_uris":{"android":"levelo://app?vid=4ed7b0ac-dcea-4cb4-aff0-958b4af696bc","ios":"levelo://app?vid=4ed7b0ac-dcea-4cb4-aff0-958b4af696bc"},"vehicle_type_id":"4","last_reported":1703948758,"current_range_meters":18000,"station_id":"ce4bhi12rcd13ifvqfp0","pricing_plan_id":"free"},{"bike_id":"9529e169-9135-4c66-a53a-589f9d6200aa","system_id":"levelo_inurba_marseille","lat":43.241782,"lon":5.397264,"is_reserved":false,"is_disabled":false,"rental_uris":{"android":"levelo://app?vid=9529e169-9135-4c66-a53a-589f9d6200aa","ios":"levelo://app?vid=9529e169-9135-4c66-a53a-589f9d6200aa"},"vehicle_type_id":"4","last_reported":1703948758,"current_range_meters":1600,"station_id":"ce4bhn12rcd13ifvqgpg","pricing_plan_id":"free"},{"bike_id":"645c44f9-084c-4eec-ad37-413fc1324c8f","system_id":"levelo_inurba_marseille","lat":43.241782,"lon":5.397261,"is_reserved":false,"is_disabled":false,"rental_uris":{"android":"levelo://app?vid=645c44f9-084c-4eec-ad37-413fc1324c8f","ios":"levelo://app?vid=645c44f9-084c-4eec-ad37-413fc1324c8f"},"vehicle_type_id":"4","last_reported":1703948758,"current_range_meters":21600,"station_id":"ce4bhn12rcd13ifvqgpg","pricing_plan_id":"free"},{"bike_id":"1665ff54-32cf-4318-aa79-3221127d4b30","system_id":"levelo_inurba_marseille","lat":43.23212,"lon":5.35558,"is_reserved":false,"is_disabled":false,"rental_uris":{"android":"levelo://app?vid=1665ff54-32cf-4318-aa79-3221127d4b30","ios":"levelo://app?vid=1665ff54-32cf-4318-aa79-3221127d4b30"},"vehicle_type_id":"4","last_reported":1703948758,"current_range_meters":30000,"station_id":"ce4bhu92rcd13ifvqi70","pricing_plan_id":"free"},{"bike_id":"0c78ba47-1efd-4384-9936-b4c37683f267","system_id":"levelo_inurba_marseille","lat":43.232018,"lon":5.355463,"is_reserved":false,"is_disabled":false,"rental_uris":{"android":"levelo://app?vid=0c78ba47-1efd-4384-9936-b4c37683f267","ios":"levelo://app?vid=0c78ba47-1efd-4384-9936-b4c37683f267"},"vehicle_type_id":"4","last_reported":1703948758,"current_range_meters":29600,"station_id":"ce4bhu92rcd13ifvqi70","pricing_plan_id":"free"},{"bike_id":"f05ee93d-9db4-4601-baca-1bd9d8e1003c","system_id":"levelo_inurba_marseille","lat":43.231923,"lon":5.355545,"is_reserved":false,"is_disabled":false,"rental_uris":{"android":"levelo://app?vid=f05ee93d-9db4-4601-baca-1bd9d8e1003c","ios":"levelo://app?vid=f05ee93d-9db4-4601-baca-1bd9d8e1003c"},"vehicle_type_id":"4","last_reported":1703948758,"current_range_meters":13600,"station_id":"ce4bhu92rcd13ifvqi70","pricing_plan_id":"free"},{"bike_id":"e44f87dd-058e-46df-8748-6ca696cbf7cd","system_id":"levelo_inurba_marseille","lat":43.232,"lon":5.35546,"is_reserved":false,"is_disabled":false,"rental_uris":{"android":"levelo://app?vid=e44f87dd-058e-46df-8748-6ca696cbf7cd","ios":"levelo://app?vid=e44f87dd-058e-46df-8748-6ca696cbf7cd"},"vehicle_type_id":"4","last_reported":1703948758,"current_range_meters":22400,"station_id":"ce4bhu92rcd13ifvqi70","pricing_plan_id":"free"},{"bike_id":"4e4f4619-e47d-4e81-9531-dc81a135f94e","system_id":"levelo_inurba_marseille","lat":43.231994,"lon":5.35548,"is_reserved":false,"is_disabled":false,"rental_uris":{"android":"levelo://app?vid=4e4f4619-e47d-4e81-9531-dc81a135f94e","ios":"levelo://app?vid=4e4f4619-e47d-4e81-9531-dc81a135f94e"},"vehicle_type_id":"4","last_reported":1703948758,"current_range_meters":26000,"station_id":"ce4bhu92rcd13ifvqi70","pricing_plan_id":"free"},{"bike_id":"d0b40753-21c1-4f5e-ad3a-2b90dfd72150","system_id":"levelo_inurba_marseille","lat":43.23198,"lon":5.35557,"is_reserved":false,"is_disabled":false,"rental_uris":{"android":"levelo://app?vid=d0b40753-21c1-4f5e-ad3a-2b90dfd72150","ios":"levelo://app?vid=d0b40753-21c1-4f5e-ad3a-2b90dfd72150"},"vehicle_type_id":"4","last_reported":1703948758,"current_range_meters":20800,"station_id":"ce4bhu92rcd13ifvqi70","pricing_plan_id":"free"},{"bike_id":"c35c6bbb-217b-4664-a557-9e4588c6292f","system_id":"levelo_inurba_marseille","lat":43.23198,"lon":5.35556,"is_reserved":false,"is_disabled":false,"rental_uris":{"android":"levelo://app?vid=c35c6bbb-217b-4664-a557-9e4588c6292f","ios":"levelo://app?vid=c35c6bbb-217b-4664-a557-9e4588c6292f"},"vehicle_type_id":"4","last_reported":1703948758,"current_range_meters":30000,"station_id":"ce4bhu92rcd13ifvqi70","pricing_plan_id":"free"},{"bike_id":"3867f22f-1cb9-4040-b112-cb60fc74122a","system_id":"levelo_inurba_marseille","lat":43.23198,"lon":5.35556,"is_reserved":false,"is_disabled":false,"rental_uris":{"android":"levelo://app?vid=3867f22f-1cb9-4040-b112-cb60fc74122a","ios":"levelo://app?vid=3867f22f-1cb9-4040-b112-cb60fc74122a"},"vehicle_type_id":"4","last_reported":1703948758,"current_range_meters":13200,"station_id":"ce4bhu92rcd13ifvqi70","pricing_plan_id":"free"},{"bike_id":"ddddd1d6-5769-45c4-975e-3976847490c6","system_id":"levelo_inurba_marseille","lat":43.23198,"lon":5.35549,"is_reserved":false,"is_disabled":false,"rental_uris":{"android":"levelo://app?vid=ddddd1d6-5769-45c4-975e-3976847490c6","ios":"levelo://app?vid=ddddd1d6-5769-45c4-975e-3976847490c6"},"vehicle_type_id":"4","last_reported":1703948758,"current_range_meters":14800,"station_id":"ce4bhu92rcd13ifvqi70","pricing_plan_id":"free"},{"bike_id":"d53181a2-afd3-4246-bd48-e1fb5fd69d96","system_id":"levelo_inurba_marseille","lat":43.23198,"lon":5.35545,"is_reserved":false,"is_disabled":false,"rental_uris":{"android":"levelo://app?vid=d53181a2-afd3-4246-bd48-e1fb5fd69d96","ios":"levelo://app?vid=d53181a2-afd3-4246-bd48-e1fb5fd69d96"},"vehicle_type_id":"4","last_reported":1703948758,"current_range_meters":28800,"station_id":"ce4bhu92rcd13ifvqi70","pricing_plan_id":"free"},{"bike_id":"90ca3ed1-9687-4665-82d1-0ae3259b0bce","system_id":"levelo_inurba_marseille","lat":43.23197,"lon":5.35552,"is_reserved":false,"is_disabled":false,"rental_uris":{"android":"levelo://app?vid=90ca3ed1-9687-4665-82d1-0ae3259b0bce","ios":"levelo://app?vid=90ca3ed1-9687-4665-82d1-0ae3259b0bce"},"vehicle_type_id":"4","last_reported":1703948758,"current_range_meters":21600,"station_id":"ce4bhu92rcd13ifvqi70","pricing_plan_id":"free"},{"bike_id":"035efe66-4ac0-42d9-81b8-846691ff73fd","system_id":"levelo_inurba_marseille","lat":43.23197,"lon":5.35552,"is_reserved":false,"is_disabled":false,"rental_uris":{"android":"levelo://app?vid=035efe66-4ac0-42d9-81b8-846691ff73fd","ios":"levelo://app?vid=035efe66-4ac0-42d9-81b8-846691ff73fd"},"vehicle_type_id":"4","last_reported":1703948758,"current_range_meters":28000,"station_id":"ce4bhu92rcd13ifvqi70","pricing_plan_id":"free"},{"bike_id":"41a110ce-5341-4fc1-867e-3b6c6c376a8b","system_id":"levelo_inurba_marseille","lat":43.23196,"lon":5.35557,"is_reserved":false,"is_disabled":false,"rental_uris":{"android":"levelo://app?vid=41a110ce-5341-4fc1-867e-3b6c6c376a8b","ios":"levelo://app?vid=41a110ce-5341-4fc1-867e-3b6c6c376a8b"},"vehicle_type_id":"4","last_reported":1703948758,"current_range_meters":24000,"station_id":"ce4bhu92rcd13ifvqi70","pricing_plan_id":"free"},{"bike_id":"77a19eaf-a4f0-41b7-ac5f-f3dee1ae7ef3","system_id":"levelo_inurba_marseille","lat":43.23196,"lon":5.35555,"is_reserved":false,"is_disabled":false,"rental_uris":{"android":"levelo://app?vid=77a19eaf-a4f0-41b7-ac5f-f3dee1ae7ef3","ios":"levelo://app?vid=77a19eaf-a4f0-41b7-ac5f-f3dee1ae7ef3"},"vehicle_type_id":"4","last_reported":1703948758,"current_range_meters":23200,"station_id":"ce4bhu92rcd13ifvqi70","pricing_plan_id":"free"},{"bike_id":"7adb7d6b-4e4e-4c04-a28d-dee8717fc140","system_id":"levelo_inurba_marseille","lat":43.23196,"lon":5.35547,"is_reserved":false,"is_disabled":false,"rental_uris":{"android":"levelo://app?vid=7adb7d6b-4e4e-4c04-a28d-dee8717fc140","ios":"levelo://app?vid=7adb7d6b-4e4e-4c04-a28d-dee8717fc140"},"vehicle_type_id":"4","last_reported":1703948758,"current_range_meters":19200,"station_id":"ce4bhu92rcd13ifvqi70","pricing_plan_id":"free"},{"bike_id":"4f561ec5-3bb4-4ee7-870f-aea50e2e510c","system_id":"levelo_inurba_marseille","lat":43.23195,"lon":5.35559,"is_reserved":false,"is_disabled":false,"rental_uris":{"android":"levelo://app?vid=4f561ec5-3bb4-4ee7-870f-aea50e2e510c","ios":"levelo://app?vid=4f561ec5-3bb4-4ee7-870f-aea50e2e510c"},"vehicle_type_id":"4","last_reported":1703948758,"current_range_meters":12400,"station_id":"ce4bhu92rcd13ifvqi70","pricing_plan_id":"free"},{"bike_id":"64a4398b-6c74-4f3f-980a-f4fa3aa3e2ac","system_id":"levelo_inurba_marseille","lat":43.23196,"lon":5.35545,"is_reserved":false,"is_disabled":false,"rental_uris":{"android":"levelo://app?vid=64a4398b-6c74-4f3f-980a-f4fa3aa3e2ac","ios":"levelo://app?vid=64a4398b-6c74-4f3f-980a-f4fa3aa3e2ac"},"vehicle_type_id":"4","last_reported":1703948758,"current_range_meters":24800,"station_id":"ce4bhu92rcd13ifvqi70","pricing_plan_id":"free"},{"bike_id":"0d0c8b2b-818e-4bc4-8150-64618090103a","system_id":"levelo_inurba_marseille","lat":43.23195,"lon":5.35557,"is_reserved":false,"is_disabled":false,"rental_uris":{"android":"levelo://app?vid=0d0c8b2b-818e-4bc4-8150-64618090103a","ios":"levelo://app?vid=0d0c8b2b-818e-4bc4-8150-64618090103a"},"vehicle_type_id":"4","last_reported":1703948758,"current_range_meters":14800,"station_id":"ce4bhu92rcd13ifvqi70","pricing_plan_id":"free"},{"bike_id":"d2d46721-af5b-4412-be4e-673c3fb3ef95","system_id":"levelo_inurba_marseille","lat":43.23195,"lon":5.35556,"is_reserved":false,"is_disabled":false,"rental_uris":{"android":"levelo://app?vid=d2d46721-af5b-4412-be4e-673c3fb3ef95","ios":"levelo://app?vid=d2d46721-af5b-4412-be4e-673c3fb3ef95"},"vehicle_type_id":"4","last_reported":1703948758,"current_range_meters":18000,"station_id":"ce4bhu92rcd13ifvqi70","pricing_plan_id":"free"},{"bike_id":"0ceb0729-e373-4985-84ce-4d2f1d9ca0f9","system_id":"levelo_inurba_marseille","lat":43.23195,"lon":5.35555,"is_reserved":false,"is_disabled":false,"rental_uris":{"android":"levelo://app?vid=0ceb0729-e373-4985-84ce-4d2f1d9ca0f9","ios":"levelo://app?vid=0ceb0729-e373-4985-84ce-4d2f1d9ca0f9"},"vehicle_type_id":"4","last_reported":1703948758,"current_range_meters":15200,"station_id":"ce4bhu92rcd13ifvqi70","pricing_plan_id":"free"},{"bike_id":"acbefbf4-8c59-4436-96b4-6140ed100732","system_id":"levelo_inurba_marseille","lat":43.23195,"lon":5.35555,"is_reserved":false,"is_disabled":false,"rental_uris":{"android":"levelo://app?vid=acbefbf4-8c59-4436-96b4-6140ed100732","ios":"levelo://app?vid=acbefbf4-8c59-4436-96b4-6140ed100732"},"vehicle_type_id":"4","last_reported":1703948758,"current_range_meters":12000,"station_id":"ce4bhu92rcd13ifvqi70","pricing_plan_id":"free"},{"bike_id":"3fcdae00-dffe-4806-8fb4-00d6b30764d3","system_id":"levelo_inurba_marseille","lat":43.231923,"lon":5.355545,"is_reserved":false,"is_disabled":false,"rental_uris":{"android":"levelo://app?vid=3fcdae00-dffe-4806-8fb4-00d6b30764d3","ios":"levelo://app?vid=3fcdae00-dffe-4806-8fb4-00d6b30764d3"},"vehicle_type_id":"4","last_reported":1703948758,"current_range_meters":28800,"station_id":"ce4bhu92rcd13ifvqi70","pricing_plan_id":"free"},{"bike_id":"cdfac4d3-6dfa-43ee-879e-41a158a5b4d1","system_id":"levelo_inurba_marseille","lat":43.231923,"lon":5.355545,"is_reserved":false,"is_disabled":false,"rental_uris":{"android":"levelo://app?vid=cdfac4d3-6dfa-43ee-879e-41a158a5b4d1","ios":"levelo://app?vid=cdfac4d3-6dfa-43ee-879e-41a158a5b4d1"},"vehicle_type_id":"4","last_reported":1703948758,"current_range_meters":19600,"station_id":"ce4bhu92rcd13ifvqi70","pricing_plan_id":"free"},{"bike_id":"2ea7094a-e57d-4299-b5ee-0fe604626b24","system_id":"levelo_inurba_marseille","lat":43.231928,"lon":5.355651,"is_reserved":false,"is_disabled":false,"rental_uris":{"android":"levelo://app?vid=2ea7094a-e57d-4299-b5ee-0fe604626b24","ios":"levelo://app?vid=2ea7094a-e57d-4299-b5ee-0fe604626b24"},"vehicle_type_id":"4","last_reported":1703948758,"current_range_meters":29200,"station_id":"ce4bhu92rcd13ifvqi70","pricing_plan_id":"free"},{"bike_id":"0dc2ba68-7ba1-45d1-97dc-c48e70a43dc3","system_id":"levelo_inurba_marseille","lat":43.231923,"lon":5.355545,"is_reserved":false,"is_disabled":false,"rental_uris":{"android":"levelo://app?vid=0dc2ba68-7ba1-45d1-97dc-c48e70a43dc3","ios":"levelo://app?vid=0dc2ba68-7ba1-45d1-97dc-c48e70a43dc3"},"vehicle_type_id":"4","last_reported":1703948758,"current_range_meters":10000,"station_id":"ce4bhu92rcd13ifvqi70","pricing_plan_id":"free"},{"bike_id":"327ed7dd-3f4a-4f85-b2ad-c12b11c83fcc","system_id":"levelo_inurba_marseille","lat":43.23193,"lon":5.35558,"is_reserved":false,"is_disabled":false,"rental_uris":{"android":"levelo://app?vid=327ed7dd-3f4a-4f85-b2ad-c12b11c83fcc","ios":"levelo://app?vid=327ed7dd-3f4a-4f85-b2ad-c12b11c83fcc"},"vehicle_type_id":"4","last_reported":1703948758,"current_range_meters":26800,"station_id":"ce4bhu92rcd13ifvqi70","pricing_plan_id":"free"},{"bike_id":"9e3ccf57-9205-4202-accc-1eacf4354189","system_id":"levelo_inurba_marseille","lat":43.23193,"lon":5.35558,"is_reserved":false,"is_disabled":false,"rental_uris":{"android":"levelo://app?vid=9e3ccf57-9205-4202-accc-1eacf4354189","ios":"levelo://app?vid=9e3ccf57-9205-4202-accc-1eacf4354189"},"vehicle_type_id":"4","last_reported":1703948758,"current_range_meters":22000,"station_id":"ce4bhu92rcd13ifvqi70","pricing_plan_id":"free"},{"bike_id":"e551b186-e64d-482c-bd1e-872880c056d3","system_id":"levelo_inurba_marseille","lat":43.23193,"lon":5.35548,"is_reserved":false,"is_disabled":false,"rental_uris":{"android":"levelo://app?vid=e551b186-e64d-482c-bd1e-872880c056d3","ios":"levelo://app?vid=e551b186-e64d-482c-bd1e-872880c056d3"},"vehicle_type_id":"4","last_reported":1703948758,"current_range_meters":29200,"station_id":"ce4bhu92rcd13ifvqi70","pricing_plan_id":"free"},{"bike_id":"51ec8882-57df-40d1-a604-a2db6171f2d1","system_id":"levelo_inurba_marseille","lat":43.23193,"lon":5.35548,"is_reserved":false,"is_disabled":false,"rental_uris":{"android":"levelo://app?vid=51ec8882-57df-40d1-a604-a2db6171f2d1","ios":"levelo://app?vid=51ec8882-57df-40d1-a604-a2db6171f2d1"},