{"last_updated":1727687467,"ttl":60,"version":"2.2","data":{"bikes":[{"bike_id":"716c8f52-0857-4e53-a4f7-6d35bfbc6cd4","system_id":"levelo_inurba_marseille","lat":43.28273,"lon":5.35064,"is_reserved":false,"is_disabled":false,"rental_uris":{"android":"levelo://app?vid=716c8f52-0857-4e53-a4f7-6d35bfbc6cd4","ios":"levelo://app?vid=716c8f52-0857-4e53-a4f7-6d35bfbc6cd4"},"vehicle_type_id":"4","last_reported":1727687467,"current_range_meters":30400,"station_id":"ce4bhbp2rcd13ifvqerg","pricing_plan_id":"cebpf4jnsgd1na2vs0mg"},{"bike_id":"4067104f-3fac-42e4-b026-8a0677ab8bf8","system_id":"levelo_inurba_marseille","lat":43.24546,"lon":5.39525,"is_reserved":false,"is_disabled":false,"rental_uris":{"android":"levelo://app?vid=4067104f-3fac-42e4-b026-8a0677ab8bf8","ios":"levelo://app?vid=4067104f-3fac-42e4-b026-8a0677ab8bf8"},"vehicle_type_id":"4","last_reported":1727687467,"current_range_meters":6000,"station_id":"ce4bhlp2rcd13ifvqgjg","pricing_plan_id":"cebpf4jnsgd1na2vs0mg"},{"bike_id":"0e51365b-cf0b-46d0-8466-97525d6636ae","system_id":"levelo_inurba_marseille","lat":43.32489,"lon":5.36561,"is_reserved":false,"is_disabled":false,"rental_uris":{"android":"levelo://app?vid=0e51365b-cf0b-46d0-8466-97525d6636ae","ios":"levelo://app?vid=0e51365b-cf0b-46d0-8466-97525d6636ae"},"vehicle_type_id":"4","last_reported":1727687467,"current_range_meters":30400,"station_id":"ce4bhs12rcd13ifvqhvg","pricing_plan_id":"cebpf4jnsgd1na2vs0mg"},{"bike_id":"a64d2604-8992-49e7-bfbe-4c73da1546c0","system_id":"levelo_inurba_marseille","lat":43.30533,"lon":5.36549,"is_reserved":false,"is_disabled":false,"rental_uris":{"android":"levelo://app?vid=a64d2604-8992-49e7-bfbe-4c73da1546c0","ios":"levelo://app?vid=a64d2604-8992-49e7-bfbe-4c73da1546c0"},"vehicle_type_id":"4","last_reported":1727687467,"current_range_meters":25600,"station_id":"ce4bgs12rcd13ifvqcag","pricing_plan_id":"cebpf4jnsgd1na2vs0mg"},{"bike_id":"8cb8c9a2-4c13-448b-95a2-a51fc6afb97b","system_id":"levelo_inurba_marseille","lat":43.29172,"lon":5.37153,"is_reserved":false,"is_disabled":false,"rental_uris":{"android":"levelo://app?vid=8cb8c9a2-4c13-448b-95a2-a51fc6afb97b","ios":"levelo://app?vid=8cb8c9a2-4c13-448b-95a2-a51fc6afb97b"},"vehicle_type_id":"4","last_reported":1727687467,"current_range_meters":18800,"station_id":"ce4bha92rcd13ifvqeh0","pricing_plan_id":"cebpf4jnsgd1na2vs0mg"},{"bike_id":"653363e3-7d15-401c-bdb9-226d1631149e","system_id":"levelo_inurba_marseille","lat":43.28092,"lon":5.37854,"is_reserved":false,"is_disabled":false,"rental_uris":{"android":"levelo://app?vid=653363e3-7d15-401c-bdb9-226d1631149e","ios":"levelo://app?vid=653363e3-7d15-401c-bdb9-226d1631149e"},"vehicle_type_id":"4","last_reported":1727687467,"current_range_meters":38400,"station_id":"ce4bha12rcd13ifvqee0","pricing_plan_id":"cebpf4jnsgd1na2vs0mg"},{"bike_id":"2a99ee04-649b-4400-9ade-8518d0de4e41","system_id":"levelo_inurba_marseille","lat":43.29004,"lon":5.3561,"is_reserved":false,"is_disabled":false,"rental_uris":{"android":"levelo://app?vid=2a99ee04-649b-4400-9ade-8518d0de4e41","ios":"levelo://app?vid=2a99ee04-649b-4400-9ade-8518d0de4e41"},"vehicle_type_id":"4","last_reported":1727687467,"current_range_meters":38800,"station_id":"ce4bhb92rcd13ifvqen0","pricing_plan_id":"cebpf4jnsgd1na2vs0mg"},{"bike_id":"78cdf4a8-1db0-4099-ad00-439df1a664a7","system_id":"levelo_inurba_marseille","lat":43.25822,"lon":5.39437,"is_reserved":false,"is_disabled":false,"rental_uris":{"android":"levelo://app?vid=78cdf4a8-1db0-4099-ad00-439df1a664a7","ios":"levelo://app?vid=78cdf4a8-1db0-4099-ad00-439df1a664a7"},"vehicle_type_id":"4","last_reported":1727687467,"current_range_meters":25200,"station_id":"ce4bhip2rcd13ifvqft0","pricing_plan_id":"cebpf4jnsgd1na2vs0mg"},{"bike_id":"43defcf7-27fa-4722-b56f-e45a1dfc2de3","system_id":"levelo_inurba_marseille","lat":43.32191,"lon":5.38769,"is_reserved":false,"is_disabled":false,"rental_uris":{"android":"levelo://app?vid=43defcf7-27fa-4722-b56f-e45a1dfc2de3","ios":"levelo://app?vid=43defcf7-27fa-4722-b56f-e45a1dfc2de3"},"vehicle_type_id":"4","last_reported":1727687467,"current_range_meters":22000,"station_id":"","pricing_plan_id":"cebpf4jnsgd1na2vs0mg"},{"bike_id":"df2b664d-5bac-465f-88e7-ae06dcb5ed98","system_id":"levelo_inurba_marseille","lat":43.24171,"lon":5.36405,"is_reserved":false,"is_disabled":false,"rental_uris":{"android":"levelo://app?vid=df2b664d-5bac-465f-88e7-ae06dcb5ed98","ios":"levelo://app?vid=df2b664d-5bac-465f-88e7-ae06dcb5ed98"},"vehicle_type_id":"4","last_reported":1727687467,"current_range_meters":22000,"station_id":"cpo36qri1sfpv3e86is0","pricing_plan_id":"cebpf4jnsgd1na2vs0mg"},{"bike_id":"b4b45ec5-28c4-4e2c-9ac2-fc598eed97ab","system_id":"levelo_inurba_marseille","lat":43.32483,"lon":5.36569,"is_reserved":false,"is_disabled":false,"rental_uris":{"android":"levelo://app?vid=b4b45ec5-28c4-4e2c-9ac2-fc598eed97ab","ios":"levelo://app?vid=b4b45ec5-28c4-4e2c-9ac2-fc598eed97ab"},"vehicle_type_id":"4","last_reported":1727687467,"current_range_meters":6400,"station_id":"ce4bhs12rcd13ifvqhvg","pricing_plan_id":"cebpf4jnsgd1na2vs0mg"},{"bike_id":"7c7310d8-0ff7-4710-8fc2-acd5e5e9e782","system_id":"levelo_inurba_marseille","lat":43.23143,"lon":5.43715,"is_reserved":false,"is_disabled":false,"rental_uris":{"android":"levelo://app?vid=7c7310d8-0ff7-4710-8fc2-acd5e5e9e782","ios":"levelo://app?vid=7c7310d8-0ff7-4710-8fc2-acd5e5e9e782"},"vehicle_type_id":"4","last_reported":1727687467,"current_range_meters":39200,"station_id":"ce4bhmp2rcd13ifvqgog","pricing_plan_id":"cebpf4jnsgd1na2vs0mg"},{"bike_id":"3bf0a32a-7e32-422e-bdd4-82164e871c17","system_id":"levelo_inurba_marseille","lat":43.31221,"lon":5.36868,"is_reserved":false,"is_disabled":false,"rental_uris":{"android":"levelo://app?vid=3bf0a32a-7e32-422e-bdd4-82164e871c17","ios":"levelo://app?vid=3bf0a32a-7e32-422e-bdd4-82164e871c17"},"vehicle_type_id":"4","last_reported":1727687467,"current_range_meters":39200,"station_id":"ce4bgl92rcd13ifvqbq0","pricing_plan_id":"cebpf4jnsgd1na2vs0mg"},{"bike_id":"365dfba5-918f-44ac-8c71-9138dda11f13","system_id":"levelo_inurba_marseille","lat":43.28274,"lon":5.35082,"is_reserved":false,"is_disabled":false,"rental_uris":{"android":"levelo://app?vid=365dfba5-918f-44ac-8c71-9138dda11f13","ios":"levelo://app?vid=365dfba5-918f-44ac-8c71-9138dda11f13"},"vehicle_type_id":"4","last_reported":1727687467,"current_range_meters":19200,"station_id":"ce4bhbp2rcd13ifvqerg","pricing_plan_id":"cebpf4jnsgd1na2vs0mg"},{"bike_id":"4798dc33-18d1-48f3-be17-43706c2021fe","system_id":"levelo_inurba_marseille","lat":43.30909,"lon":5.3686,"is_reserved":false,"is_disabled":false,"rental_uris":{"android":"levelo://app?vid=4798dc33-18d1-48f3-be17-43706c2021fe","ios":"levelo://app?vid=4798dc33-18d1-48f3-be17-43706c2021fe"},"vehicle_type_id":"4","last_reported":1727687467,"current_range_meters":38800,"station_id":"ce4bgn92rcd13ifvqbvg","pricing_plan_id":"cebpf4jnsgd1na2vs0mg"},{"bike_id":"4de859a6-9250-4050-9a09-013a7afcb720","system_id":"levelo_inurba_marseille","lat":43.30547,"lon":5.36537,"is_reserved":false,"is_disabled":false,"rental_uris":{"android":"levelo://app?vid=4de859a6-9250-4050-9a09-013a7afcb720","ios":"levelo://app?vid=4de859a6-9250-4050-9a09-013a7afcb720"},"vehicle_type_id":"4","last_reported":1727687467,"current_range_meters":33200,"station_id":"ce4bgs12rcd13ifvqcag","pricing_plan_id":"cebpf4jnsgd1na2vs0mg"},{"bike_id":"950f0ed1-e694-4a3a-b1c7-4108814836c9","system_id":"levelo_inurba_marseille","lat":43.2668,"lon":5.38265,"is_reserved":false,"is_disabled":false,"rental_uris":{"android":"levelo://app?vid=950f0ed1-e694-4a3a-b1c7-4108814836c9","ios":"levelo://app?vid=950f0ed1-e694-4a3a-b1c7-4108814836c9"},"vehicle_type_id":"4","last_reported":1727687467,"current_range_meters":30400,"station_id":"ce4bhg92rcd13ifvqf90","pricing_plan_id":"cebpf4jnsgd1na2vs0mg"},{"bike_id":"5789d26f-c54c-4c9c-81e1-1be4cef1ff6b","system_id":"levelo_inurba_marseille","lat":43.29838,"lon":5.36261,"is_reserved":false,"is_disabled":false,"rental_uris":{"android":"levelo://app?vid=5789d26f-c54c-4c9c-81e1-1be4cef1ff6b","ios":"levelo://app?vid=5789d26f-c54c-4c9c-81e1-1be4cef1ff6b"},"vehicle_type_id":"4","last_reported":1727687467,"current_range_meters":20400,"station_id":"ce4bgpp2rcd13ifvqc3g","pricing_plan_id":"cebpf4jnsgd1na2vs0mg"},{"bike_id":"f653a747-56f7-492f-a1e7-1437903a01d4","system_id":"levelo_inurba_marseille","lat":43.29366,"lon":5.37846,"is_reserved":false,"is_disabled":false,"rental_uris":{"android":"levelo://app?vid=f653a747-56f7-492f-a1e7-1437903a01d4","ios":"levelo://app?vid=f653a747-56f7-492f-a1e7-1437903a01d4"},"vehicle_type_id":"4","last_reported":1727687467,"current_range_meters":34000,"station_id":"ce4bgjh2rcd13ifvqbf0","pricing_plan_id":"cebpf4jnsgd1na2vs0mg"},{"bike_id":"d034dda5-a9b5-4448-8d8b-85e2dfe80aa7","system_id":"levelo_inurba_marseille","lat":43.269337,"lon":5.389277,"is_reserved":false,"is_disabled":false,"rental_uris":{"android":"levelo://app?vid=d034dda5-a9b5-4448-8d8b-85e2dfe80aa7","ios":"levelo://app?vid=d034dda5-a9b5-4448-8d8b-85e2dfe80aa7"},"vehicle_type_id":"4","last_reported":1727687467,"current_range_meters":14800,"station_id":"ce4bhhh2rcd13ifvqfl0","pricing_plan_id":"cebpf4jnsgd1na2vs0mg"},{"bike_id":"380892d5-0c07-4382-989e-ba79e6cba25e","system_id":"levelo_inurba_marseille","lat":43.28021,"lon":5.36084,"is_reserved":false,"is_disabled":false,"rental_uris":{"android":"levelo://app?vid=380892d5-0c07-4382-989e-ba79e6cba25e","ios":"levelo://app?vid=380892d5-0c07-4382-989e-ba79e6cba25e"},"vehicle_type_id":"4","last_reported":1727687467,"current_range_meters":19200,"station_id":"","pricing_plan_id":"cebpf4jnsgd1na2vs0mg"},{"bike_id":"45da1849-0857-40ab-a2c8-41c304481630","system_id":"levelo_inurba_marseille","lat":43.26678,"lon":5.38264,"is_reserved":false,"is_disabled":false,"rental_uris":{"android":"levelo://app?vid=45da1849-0857-40ab-a2c8-41c304481630","ios":"levelo://app?vid=45da1849-0857-40ab-a2c8-41c304481630"},"vehicle_type_id":"4","last_reported":1727687467,"current_range_meters":24800,"station_id":"ce4bhg92rcd13ifvqf90","pricing_plan_id":"cebpf4jnsgd1na2vs0mg"},{"bike_id":"cb4680ca-fb6d-4a5b-8b53-3251988e8ae8","system_id":"levelo_inurba_marseille","lat":43.27495,"lon":5.42448,"is_reserved":false,"is_disabled":false,"rental_uris":{"android":"levelo://app?vid=cb4680ca-fb6d-4a5b-8b53-3251988e8ae8","ios":"levelo://app?vid=cb4680ca-fb6d-4a5b-8b53-3251988e8ae8"},"vehicle_type_id":"4","last_reported":1727687467,"current_range_meters":32800,"station_id":"ce4bhn92rcd13ifvqgrg","pricing_plan_id":"cebpf4jnsgd1na2vs0mg"},{"bike_id":"01963af6-4af8-448e-9473-5feca8b7d30b","system_id":"levelo_inurba_marseille","lat":43.27487,"lon":5.42458,"is_reserved":false,"is_disabled":false,"rental_uris":{"android":"levelo://app?vid=01963af6-4af8-448e-9473-5feca8b7d30b","ios":"levelo://app?vid=01963af6-4af8-448e-9473-5feca8b7d30b"},"vehicle_type_id":"4","last_reported":1727687467,"current_range_meters":11200,"station_id":"ce4bhn92rcd13ifvqgrg","pricing_plan_id":"cebpf4jnsgd1na2vs0mg"},{"bike_id":"21986cb2-abd1-4472-b46c-8751ecc77084","system_id":"levelo_inurba_marseille","lat":43.32486,"lon":5.36574,"is_reserved":false,"is_disabled":false,"rental_uris":{"android":"levelo://app?vid=21986cb2-abd1-4472-b46c-8751ecc77084","ios":"levelo://app?vid=21986cb2-abd1-4472-b46c-8751ecc77084"},"vehicle_type_id":"4","last_reported":1727687467,"current_range_meters":29600,"station_id":"ce4bhs12rcd13ifvqhvg","pricing_plan_id":"cebpf4jnsgd1na2vs0mg"},{"bike_id":"2781c9d5-86e8-43d9-a819-20df714453ba","system_id":"levelo_inurba_marseille","lat":43.25716,"lon":5.41109,"is_reserved":false,"is_disabled":false,"rental_uris":{"android":"levelo://app?vid=2781c9d5-86e8-43d9-a819-20df714453ba","ios":"levelo://app?vid=2781c9d5-86e8-43d9-a819-20df714453ba"},"vehicle_type_id":"4","last_reported":1727687467,"current_range_meters":36000,"station_id":"ce4bhkp2rcd13ifvqgd0","pricing_plan_id":"cebpf4jnsgd1na2vs0mg"},{"bike_id":"0b1732c2-1d4b-4fc6-be29-4367e88cf7db","system_id":"levelo_inurba_marseille","lat":43.30459,"lon":5.37906,"is_reserved":false,"is_disabled":false,"rental_uris":{"android":"levelo://app?vid=0b1732c2-1d4b-4fc6-be29-4367e88cf7db","ios":"levelo://app?vid=0b1732c2-1d4b-4fc6-be29-4367e88cf7db"},"vehicle_type_id":"4","last_reported":1727687467,"current_range_meters":16400,"station_id":"ce4bgup2rcd13ifvqcn0","pricing_plan_id":"cebpf4jnsgd1na2vs0mg"},{"bike_id":"7161c18d-67a9-4bab-b666-3ecf5b688154","system_id":"levelo_inurba_marseille","lat":43.33608,"lon":5.41035,"is_reserved":false,"is_disabled":false,"rental_uris":{"android":"levelo://app?vid=7161c18d-67a9-4bab-b666-3ecf5b688154","ios":"levelo://app?vid=7161c18d-67a9-4bab-b666-3ecf5b688154"},"vehicle_type_id":"4","last_reported":1727687467,"current_range_meters":38800,"station_id":"ce4bhqh2rcd13ifvqhmg","pricing_plan_id":"cebpf4jnsgd1na2vs0mg"},{"bike_id":"90adb807-cf88-4a6b-8ae7-e8654cedc618","system_id":"levelo_inurba_marseille","lat":43.2893,"lon":5.36392,"is_reserved":false,"is_disabled":false,"rental_uris":{"android":"levelo://app?vid=90adb807-cf88-4a6b-8ae7-e8654cedc618","ios":"levelo://app?vid=90adb807-cf88-4a6b-8ae7-e8654cedc618"},"vehicle_type_id":"4","last_reported":1727687467,"current_range_meters":38800,"station_id":"ce4bhc92rcd13ifvqetg","pricing_plan_id":"cebpf4jnsgd1na2vs0mg"},{"bike_id":"06c365e2-ada5-4784-b552-01f94928c737","system_id":"levelo_inurba_marseille","lat":43.337444,"lon":5.374475,"is_reserved":false,"is_disabled":false,"rental_uris":{"android":"levelo://app?vid=06c365e2-ada5-4784-b552-01f94928c737","ios":"levelo://app?vid=06c365e2-ada5-4784-b552-01f94928c737"},"vehicle_type_id":"4","last_reported":1727687467,"current_range_meters":28800,"station_id":"","pricing_plan_id":"cebpf4jnsgd1na2vs0mg"},{"bike_id":"a6521d38-fb59-4188-8c6c-d41dca2fa2ad","system_id":"levelo_inurba_marseille","lat":43.317212,"lon":5.436378,"is_reserved":false,"is_disabled":false,"rental_uris":{"android":"levelo://app?vid=a6521d38-fb59-4188-8c6c-d41dca2fa2ad","ios":"levelo://app?vid=a6521d38-fb59-4188-8c6c-d41dca2fa2ad"},"vehicle_type_id":"4","last_reported":1727687467,"current_range_meters":14000,"station_id":"","pricing_plan_id":"cebpf4jnsgd1na2vs0mg"},{"bike_id":"dd440440-b674-4ffa-97f3-0ea5b4d3433e","system_id":"levelo_inurba_marseille","lat":43.2674,"lon":5.39677,"is_reserved":false,"is_disabled":false,"rental_uris":{"android":"levelo://app?vid=dd440440-b674-4ffa-97f3-0ea5b4d3433e","ios":"levelo://app?vid=dd440440-b674-4ffa-97f3-0ea5b4d3433e"},"vehicle_type_id":"4","last_reported":1727687467,"current_range_meters":35200,"station_id":"ce501612rcd8frsf0b60","pricing_plan_id":"cebpf4jnsgd1na2vs0mg"},{"bike_id":"f803bb21-9fbd-4567-8750-299c9317fe82","system_id":"levelo_inurba_marseille","lat":43.27484,"lon":5.42464,"is_reserved":false,"is_disabled":false,"rental_uris":{"android":"levelo://app?vid=f803bb21-9fbd-4567-8750-299c9317fe82","ios":"levelo://app?vid=f803bb21-9fbd-4567-8750-299c9317fe82"},"vehicle_type_id":"4","last_reported":1727687467,"current_range_meters":8800,"station_id":"ce4bhn92rcd13ifvqgrg","pricing_plan_id":"cebpf4jnsgd1na2vs0mg"},{"bike_id":"7db5084c-c401-4da6-b3cc-9794f41df83c","system_id":"levelo_inurba_marseille","lat":43.29299,"lon":5.37459,"is_reserved":false,"is_disabled":false,"rental_uris":{"android":"levelo://app?vid=7db5084c-c401-4da6-b3cc-9794f41df83c","ios":"levelo://app?vid=7db5084c-c401-4da6-b3cc-9794f41df83c"},"vehicle_type_id":"4","last_reported":1727687467,"current_range_meters":30800,"station_id":"ce4bgi12rcd13ifvqb70","pricing_plan_id":"cebpf4jnsgd1na2vs0mg"},{"bike_id":"8ed4c341-6332-4ad0-8cfa-70edafc99da1","system_id":"levelo_inurba_marseille","lat":43.30557,"lon":5.3655,"is_reserved":false,"is_disabled":false,"rental_uris":{"android":"levelo://app?vid=8ed4c341-6332-4ad0-8cfa-70edafc99da1","ios":"levelo://app?vid=8ed4c341-6332-4ad0-8cfa-70edafc99da1"},"vehicle_type_id":"4","last_reported":1727687467,"current_range_meters":23200,"station_id":"ce4bgs12rcd13ifvqcag","pricing_plan_id":"cebpf4jnsgd1na2vs0mg"},{"bike_id":"7f65494c-bb0c-463b-b3a3-c11c60597589","system_id":"levelo_inurba_marseille","lat":43.24386,"lon":5.37067,"is_reserved":false,"is_disabled":false,"rental_uris":{"android":"levelo://app?vid=7f65494c-bb0c-463b-b3a3-c11c60597589","ios":"levelo://app?vid=7f65494c-bb0c-463b-b3a3-c11c60597589"},"vehicle_type_id":"4","last_reported":1727687467,"current_range_meters":38000,"station_id":"ce4bhhh2rcd13ifvqfk0","pricing_plan_id":"cebpf4jnsgd1na2vs0mg"},{"bike_id":"918a76fa-3501-4977-94c9-aac2efae816d","system_id":"levelo_inurba_marseille","lat":43.32476,"lon":5.36554,"is_reserved":false,"is_disabled":false,"rental_uris":{"android":"levelo://app?vid=918a76fa-3501-4977-94c9-aac2efae816d","ios":"levelo://app?vid=918a76fa-3501-4977-94c9-aac2efae816d"},"vehicle_type_id":"4","last_reported":1727687467,"current_range_meters":22000,"station_id":"ce4bhs12rcd13ifvqhvg","pricing_plan_id":"cebpf4jnsgd1na2vs0mg"},{"bike_id":"cb8cf734-671c-4f47-b0f4-d393479ca476","system_id":"levelo_inurba_marseille","lat":43.29554,"lon":5.42288,"is_reserved":false,"is_disabled":false,"rental_uris":{"android":"levelo://app?vid=cb8cf734-671c-4f47-b0f4-d393479ca476","ios":"levelo://app?vid=cb8cf734-671c-4f47-b0f4-d393479ca476"},"vehicle_type_id":"4","last_reported":1727687467,"current_range_meters":4000,"station_id":"ce4bhph2rcd13ifvqhdg","pricing_plan_id":"cebpf4jnsgd1na2vs0mg"},{"bike_id":"77dcd204-9297-4933-8d3d-72c875323770","system_id":"levelo_inurba_marseille","lat":43.27485,"lon":5.42464,"is_reserved":false,"is_disabled":false,"rental_uris":{"android":"levelo://app?vid=77dcd204-9297-4933-8d3d-72c875323770","ios":"levelo://app?vid=77dcd204-9297-4933-8d3d-72c875323770"},"vehicle_type_id":"4","last_reported":1727687467,"current_range_meters":18000,"station_id":"ce4bhn92rcd13ifvqgrg","pricing_plan_id":"cebpf4jnsgd1na2vs0mg"},{"bike_id":"d4423948-1c9a-4a77-b10b-23626792efef","system_id":"levelo_inurba_marseille","lat":43.31714,"lon":5.37724,"is_reserved":false,"is_disabled":false,"rental_uris":{"android":"levelo://app?vid=d4423948-1c9a-4a77-b10b-23626792efef","ios":"levelo://app?vid=d4423948-1c9a-4a77-b10b-23626792efef"},"vehicle_type_id":"4","last_reported":1727687467,"current_range_meters":11600,"station_id":"ce4bgth2rcd13ifvqch0","pricing_plan_id":"cebpf4jnsgd1na2vs0mg"},{"bike_id":"136c7014-ba30-4c97-9047-e44ae4501841","system_id":"levelo_inurba_marseille","lat":43.272,"lon":5.3919,"is_reserved":false,"is_disabled":false,"rental_uris":{"android":"levelo://app?vid=136c7014-ba30-4c97-9047-e44ae4501841","ios":"levelo://app?vid=136c7014-ba30-4c97-9047-e44ae4501841"},"vehicle_type_id":"4","last_reported":1727687467,"current_range_meters":9200,"station_id":"ce4bhhp2rcd13ifvqfm0","pricing_plan_id":"cebpf4jnsgd1na2vs0mg"},{"bike_id":"bbedd42f-678a-418e-a219-dd9a0e1e65d4","system_id":"levelo_inurba_marseille","lat":43.29736,"lon":5.37675,"is_reserved":false,"is_disabled":false,"rental_uris":{"android":"levelo://app?vid=bbedd42f-678a-418e-a219-dd9a0e1e65d4","ios":"levelo://app?vid=bbedd42f-678a-418e-a219-dd9a0e1e65d4"},"vehicle_type_id":"4","last_reported":1727687467,"current_range_meters":20400,"station_id":"ce4bgkh2rcd13ifvqbl0","pricing_plan_id":"cebpf4jnsgd1na2vs0mg"},{"bike_id":"7a550194-ce9c-4cb5-bc1b-55aad3449840","system_id":"levelo_inurba_marseille","lat":43.27989,"lon":5.41662,"is_reserved":false,"is_disabled":false,"rental_uris":{"android":"levelo://app?vid=7a550194-ce9c-4cb5-bc1b-55aad3449840","ios":"levelo://app?vid=7a550194-ce9c-4cb5-bc1b-55aad3449840"},"vehicle_type_id":"4","last_reported":1727687467,"current_range_meters":12800,"station_id":"ce4bho12rcd13ifvqh1g","pricing_plan_id":"cebpf4jnsgd1na2vs0mg"},{"bike_id":"85a2b123-b4c7-4702-9893-f369c3a5517b","system_id":"levelo_inurba_marseille","lat":43.23148,"lon":5.43719,"is_reserved":false,"is_disabled":false,"rental_uris":{"android":"levelo://app?vid=85a2b123-b4c7-4702-9893-f369c3a5517b","ios":"levelo://app?vid=85a2b123-b4c7-4702-9893-f369c3a5517b"},"vehicle_type_id":"4","last_reported":1727687467,"current_range_meters":12800,"station_id":"ce4bhmp2rcd13ifvqgog","pricing_plan_id":"cebpf4jnsgd1na2vs0mg"},{"bike_id":"191882fc-303d-46ae-8785-d4b6fccb7be2","system_id":"levelo_inurba_marseille","lat":43.30145,"lon":5.39856,"is_reserved":false,"is_disabled":false,"rental_uris":{"android":"levelo://app?vid=191882fc-303d-46ae-8785-d4b6fccb7be2","ios":"levelo://app?vid=191882fc-303d-46ae-8785-d4b6fccb7be2"},"vehicle_type_id":"4","last_reported":1727687467,"current_range_meters":10000,"station_id":"ce4bh0h2rcd13ifvqd40","pricing_plan_id":"cebpf4jnsgd1na2vs0mg"},{"bike_id":"022fb7df-9d6c-4f59-a769-671bca151c63","system_id":"levelo_inurba_marseille","lat":43.30467,"lon":5.37901,"is_reserved":false,"is_disabled":false,"rental_uris":{"android":"levelo://app?vid=022fb7df-9d6c-4f59-a769-671bca151c63","ios":"levelo://app?vid=022fb7df-9d6c-4f59-a769-671bca151c63"},"vehicle_type_id":"4","last_reported":1727687467,"current_range_meters":23200,"station_id":"ce4bgup2rcd13ifvqcn0","pricing_plan_id":"cebpf4jnsgd1na2vs0mg"},{"bike_id":"680f5edc-c922-43cc-ade0-414e3a347732","system_id":"levelo_inurba_marseille","lat":43.2408,"lon":5.37741,"is_reserved":false,"is_disabled":false,"rental_uris":{"android":"levelo://app?vid=680f5edc-c922-43cc-ade0-414e3a347732","ios":"levelo://app?vid=680f5edc-c922-43cc-ade0-414e3a347732"},"vehicle_type_id":"4","last_reported":1727687467,"current_range_meters":24000,"station_id":"ce4bhnp2rcd13ifvqgvg","pricing_plan_id":"cebpf4jnsgd1na2vs0mg"},{"bike_id":"22a6dd6c-cdc2-42fd-a858-2880e940b450","system_id":"levelo_inurba_marseille","lat":43.29692,"lon":5.3728,"is_reserved":false,"is_disabled":false,"rental_uris":{"android":"levelo://app?vid=22a6dd6c-cdc2-42fd-a858-2880e940b450","ios":"levelo://app?vid=22a6dd6c-cdc2-42fd-a858-2880e940b450"},"vehicle_type_id":"4","last_reported":1727687467,"current_range_meters":6800,"station_id":"ce4bgk12rcd13ifvqbj0","pricing_plan_id":"cebpf4jnsgd1na2vs0mg"},{"bike_id":"e58477ce-0bb8-4b31-bdbd-3bef0c277e8b","system_id":"levelo_inurba_marseille","lat":43.27495,"lon":5.42454,"is_reserved":false,"is_disabled":false,"rental_uris":{"android":"levelo://app?vid=e58477ce-0bb8-4b31-bdbd-3bef0c277e8b","ios":"levelo://app?vid=e58477ce-0bb8-4b31-bdbd-3bef0c277e8b"},"vehicle_type_id":"4","last_reported":1727687467,"current_range_meters":32400,"station_id":"ce4bhn92rcd13ifvqgrg","pricing_plan_id":"cebpf4jnsgd1na2vs0mg"},{"bike_id":"95f864cd-3d33-4a22-9e76-46c0e49460f2","system_id":"levelo_inurba_marseille","lat":43.30537,"lon":5.36544,"is_reserved":false,"is_disabled":false,"rental_uris":{"android":"levelo://app?vid=95f864cd-3d33-4a22-9e76-46c0e49460f2","ios":"levelo://app?vid=95f864cd-3d33-4a22-9e76-46c0e49460f2"},"vehicle_type_id":"4","last_reported":1727687467,"current_range_meters":8400,"station_id":"ce4bgs12rcd13ifvqcag","pricing_plan_id":"cebpf4jnsgd1na2vs0mg"},{"bike_id":"65b81cad-d8c4-4688-a851-db55e68aac95","system_id":"levelo_inurba_marseille","lat":43.31366,"lon":5.36696,"is_reserved":false,"is_disabled":false,"rental_uris":{"android":"levelo://app?vid=65b81cad-d8c4-4688-a851-db55e68aac95","ios":"levelo://app?vid=65b81cad-d8c4-4688-a851-db55e68aac95"},"vehicle_type_id":"4","last_reported":1727687467,"current_range_meters":28400,"station_id":"ce4bgr92rcd13ifvqc6g","pricing_plan_id":"cebpf4jnsgd1na2vs0mg"},{"bike_id":"43c06965-23b9-4d30-b7e8-7a5ba49ffbec","system_id":"levelo_inurba_marseille","lat":43.32313,"lon":5.38295,"is_reserved":false,"is_disabled":false,"rental_uris":{"android":"levelo://app?vid=43c06965-23b9-4d30-b7e8-7a5ba49ffbec","ios":"levelo://app?vid=43c06965-23b9-4d30-b7e8-7a5ba49ffbec"},"vehicle_type_id":"4","last_reported":1727687467,"current_range_meters":33600,"station_id":"ce4bhr12rcd13ifvqhqg","pricing_plan_id":"cebpf4jnsgd1na2vs0mg"},{"bike_id":"e75cb3a6-6837-4f38-aef8-3c66ad5de77c","system_id":"levelo_inurba_marseille","lat":43.29839,"lon":5.36267,"is_reserved":false,"is_disabled":false,"rental_uris":{"android":"levelo://app?vid=e75cb3a6-6837-4f38-aef8-3c66ad5de77c","ios":"levelo://app?vid=e75cb3a6-6837-4f38-aef8-3c66ad5de77c"},"vehicle_type_id":"4","last_reported":1727687467,"current_range_meters":19200,"station_id":"ce4bgpp2rcd13ifvqc3g","pricing_plan_id":"cebpf4jnsgd1na2vs0mg"},{"bike_id":"91123185-5ba8-42da-ace4-6cb8343dcf0b","system_id":"levelo_inurba_marseille","lat":43.33604,"lon":5.41024,"is_reserved":false,"is_disabled":false,"rental_uris":{"android":"levelo://app?vid=91123185-5ba8-42da-ace4-6cb8343dcf0b","ios":"levelo://app?vid=91123185-5ba8-42da-ace4-6cb8343dcf0b"},"vehicle_type_id":"4","last_reported":1727687467,"current_range_meters":33600,"station_id":"ce4bhqh2rcd13ifvqhmg","pricing_plan_id":"cebpf4jnsgd1na2vs0mg"},{"bike_id":"44a2b85b-105a-455b-906a-32404fba9bd2","system_id":"levelo_inurba_marseille","lat":43.295624,"lon":5.374216,"is_reserved":false,"is_disabled":false,"rental_uris":{"android":"levelo://app?vid=44a2b85b-105a-455b-906a-32404fba9bd2","ios":"levelo://app?vid=44a2b85b-105a-455b-906a-32404fba9bd2"},"vehicle_type_id":"4","last_reported":1727687467,"current_range_meters":36800,"station_id":"ce4bgkp2rcd13ifvqbmg","pricing_plan_id":"cebpf4jnsgd1na2vs0mg"},{"bike_id":"1b019db2-ef06-4c36-bae6-d19a82dfd8bc","system_id":"levelo_inurba_marseille","lat":43.24077,"lon":5.37746,"is_reserved":false,"is_disabled":false,"rental_uris":{"android":"levelo://app?vid=1b019db2-ef06-4c36-bae6-d19a82dfd8bc","ios":"levelo://app?vid=1b019db2-ef06-4c36-bae6-d19a82dfd8bc"},"vehicle_type_id":"4","last_reported":1727687467,"current_range_meters":12000,"station_id":"ce4bhnp2rcd13ifvqgvg","pricing_plan_id":"cebpf4jnsgd1na2vs0mg"},{"bike_id":"59898a93-511b-4941-8d74-572baede1626","system_id":"levelo_inurba_marseille","lat":43.27484,"lon":5.42471,"is_reserved":false,"is_disabled":false,"rental_uris":{"android":"levelo://app?vid=59898a93-511b-4941-8d74-572baede1626","ios":"levelo://app?vid=59898a93-511b-4941-8d74-572baede1626"},"vehicle_type_id":"4","last_reported":1727687467,"current_range_meters":19600,"station_id":"ce4bhn92rcd13ifvqgrg","pricing_plan_id":"cebpf4jnsgd1na2vs0mg"},{"bike_id":"281ffd61-2171-4337-8f56-d46071374e16","system_id":"levelo_inurba_marseille","lat":43.28445,"lon":5.39202,"is_reserved":false,"is_disabled":false,"rental_uris":{"android":"levelo://app?vid=281ffd61-2171-4337-8f56-d46071374e16","ios":"levelo://app?vid=281ffd61-2171-4337-8f56-d46071374e16"},"vehicle_type_id":"4","last_reported":1727687467,"current_range_meters":31200,"station_id":"ce4bhoh2rcd13ifvqh5g","pricing_plan_id":"cebpf4jnsgd1na2vs0mg"},{"bike_id":"6ee2de4a-ddd1-4839-a49f-27e11835bf3d","system_id":"levelo_inurba_marseille","lat":43.30214,"lon":5.36616,"is_reserved":false,"is_disabled":false,"rental_uris":{"android":"levelo://app?vid=6ee2de4a-ddd1-4839-a49f-27e11835bf3d","ios":"levelo://app?vid=6ee2de4a-ddd1-4839-a49f-27e11835bf3d"},"vehicle_type_id":"4","last_reported":1727687467,"current_range_meters":26000,"station_id":"ce4bgrh2rcd13ifvqc8g","pricing_plan_id":"cebpf4jnsgd1na2vs0mg"},{"bike_id":"d92fe329-1b7a-4a72-8903-90fd5b1d7408","system_id":"levelo_inurba_marseille","lat":43.2694,"lon":5.40254,"is_reserved":false,"is_disabled":false,"rental_uris":{"android":"levelo://app?vid=d92fe329-1b7a-4a72-8903-90fd5b1d7408","ios":"levelo://app?vid=d92fe329-1b7a-4a72-8903-90fd5b1d7408"},"vehicle_type_id":"4","last_reported":1727687467,"current_range_meters":30800,"station_id":"cjm6bp8fraef2m0cb0m0","pricing_plan_id":"cebpf4jnsgd1na2vs0mg"},{"bike_id":"af8726ce-1f41-4136-ae0b-14a0449a0611","system_id":"levelo_inurba_marseille","lat":43.23962,"lon":5.36638,"is_reserved":false,"is_disabled":false,"rental_uris":{"android":"levelo://app?vid=af8726ce-1f41-4136-ae0b-14a0449a0611","ios":"levelo://app?vid=af8726ce-1f41-4136-ae0b-14a0449a0611"},"vehicle_type_id":"4","last_reported":1727687467,"current_range_meters":28400,"station_id":"ce4bhi12rcd13ifvqfp0","pricing_plan_id":"cebpf4jnsgd1na2vs0mg"},{"bike_id":"3b4f47f9-4482-4020-a84e-ebc8a9e781e9","system_id":"levelo_inurba_marseille","lat":43.28932,"lon":5.36376,"is_reserved":false,"is_disabled":false,"rental_uris":{"android":"levelo://app?vid=3b4f47f9-4482-4020-a84e-ebc8a9e781e9","ios":"levelo://app?vid=3b4f47f9-4482-4020-a84e-ebc8a9e781e9"},"vehicle_type_id":"4","last_reported":1727687467,"current_range_meters":3600,"station_id":"ce4bhc92rcd13ifvqetg","pricing_plan_id":"cebpf4jnsgd1na2vs0mg"},{"bike_id":"60d73211-b666-4552-9e1d-28ba387ef158","system_id":"levelo_inurba_marseille","lat":43.29005,"lon":5.35613,"is_reserved":false,"is_disabled":false,"rental_uris":{"android":"levelo://app?vid=60d73211-b666-4552-9e1d-28ba387ef158","ios":"levelo://app?vid=60d73211-b666-4552-9e1d-28ba387ef158"},"vehicle_type_id":"4","last_reported":1727687467,"current_range_meters":34000,"station_id":"ce4bhb92rcd13ifvqen0","pricing_plan_id":"cebpf4jnsgd1na2vs0mg"},{"bike_id":"d42cd528-5e38-4ecd-8a58-0232649066d4","system_id":"levelo_inurba_marseille","lat":43.29895,"lon":5.4366,"is_reserved":false,"is_disabled":false,"rental_uris":{"android":"levelo://app?vid=d42cd528-5e38-4ecd-8a58-0232649066d4","ios":"levelo://app?vid=d42cd528-5e38-4ecd-8a58-0232649066d4"},"vehicle_type_id":"4","last_reported":1727687467,"current_range_meters":38800,"station_id":"ce4bhpp2rcd13ifvqhfg","pricing_plan_id":"cebpf4jnsgd1na2vs0mg"},{"bike_id":"2193aeef-ae85-454e-ba4f-49b3e75f7d68","system_id":"levelo_inurba_marseille","lat":43.30911,"lon":5.36857,"is_reserved":false,"is_disabled":false,"rental_uris":{"android":"levelo://app?vid=2193aeef-ae85-454e-ba4f-49b3e75f7d68","ios":"levelo://app?vid=2193aeef-ae85-454e-ba4f-49b3e75f7d68"},"vehicle_type_id":"4","last_reported":1727687467,"current_range_meters":20800,"station_id":"ce4bgn92rcd13ifvqbvg","pricing_plan_id":"cebpf4jnsgd1na2vs0mg"},{"bike_id":"1052fae9-61f1-45e7-a1f2-50a127c3595f","system_id":"levelo_inurba_marseille","lat":43.3055,"lon":5.36545,"is_reserved":false,"is_disabled":false,"rental_uris":{"android":"levelo://app?vid=1052fae9-61f1-45e7-a1f2-50a127c3595f","ios":"levelo://app?vid=1052fae9-61f1-45e7-a1f2-50a127c3595f"},"vehicle_type_id":"4","last_reported":1727687467,"current_range_meters":27600,"station_id":"ce4bgs12rcd13ifvqcag","pricing_plan_id":"cebpf4jnsgd1na2vs0mg"},{"bike_id":"74374d7d-7533-4be8-8f66-05dc0f5e80f5","system_id":"levelo_inurba_marseille","lat":43.33023,"lon":5.39041,"is_reserved":false,"is_disabled":false,"rental_uris":{"android":"levelo://app?vid=74374d7d-7533-4be8-8f66-05dc0f5e80f5","ios":"levelo://app?vid=74374d7d-7533-4be8-8f66-05dc0f5e80f5"},"vehicle_type_id":"4","last_reported":1727687467,"current_range_meters":16400,"station_id":"ce4bhr92rcd13ifvqhrg","pricing_plan_id":"cebpf4jnsgd1na2vs0mg"},{"bike_id":"301c6860-bae6-4723-a4ff-2c7c5b17e249","system_id":"levelo_inurba_marseille","lat":43.26685,"lon":5.38275,"is_reserved":false,"is_disabled":false,"rental_uris":{"android":"levelo://app?vid=301c6860-bae6-4723-a4ff-2c7c5b17e249","ios":"levelo://app?vid=301c6860-bae6-4723-a4ff-2c7c5b17e249"},"vehicle_type_id":"4","last_reported":1727687467,"current_range_meters":34800,"station_id":"ce4bhg92rcd13ifvqf90","pricing_plan_id":"cebpf4jnsgd1na2vs0mg"},{"bike_id":"3a33c1e5-b6f7-4bbd-9ce1-22eee2b2cf77","system_id":"levelo_inurba_marseille","lat":43.30152,"lon":5.38077,"is_reserved":false,"is_disabled":false,"rental_uris":{"android":"levelo://app?vid=3a33c1e5-b6f7-4bbd-9ce1-22eee2b2cf77","ios":"levelo://app?vid=3a33c1e5-b6f7-4bbd-9ce1-22eee2b2cf77"},"vehicle_type_id":"4","last_reported":1727687467,"current_range_meters":16000,"station_id":"ce4bgjp2rcd13ifvqbh0","pricing_plan_id":"cebpf4jnsgd1na2vs0mg"},{"bike_id":"62110c18-ba6e-4a54-8b88-fbfbaf57e32e","system_id":"levelo_inurba_marseille","lat":43.32548,"lon":5.41431,"is_reserved":false,"is_disabled":false,"rental_uris":{"android":"levelo://app?vid=62110c18-ba6e-4a54-8b88-fbfbaf57e32e","ios":"levelo://app?vid=62110c18-ba6e-4a54-8b88-fbfbaf57e32e"},"vehicle_type_id":"4","last_reported":1727687467,"current_range_meters":38800,"station_id":"ce4bhq12rcd13ifvqhhg","pricing_plan_id":"cebpf4jnsgd1na2vs0mg"},{"bike_id":"0d06f1ce-02bd-4d5e-9aa9-76287c2abf2c","system_id":"levelo_inurba_marseille","lat":43.30148,"lon":5.3809,"is_reserved":false,"is_disabled":false,"rental_uris":{"android":"levelo://app?vid=0d06f1ce-02bd-4d5e-9aa9-76287c2abf2c","ios":"levelo://app?vid=0d06f1ce-02bd-4d5e-9aa9-76287c2abf2c"},"vehicle_type_id":"4","last_reported":1727687467,"current_range_meters":37600,"station_id":"ce4bgjp2rcd13ifvqbh0","pricing_plan_id":"cebpf4jnsgd1na2vs0mg"},{"bike_id":"1cb00729-e73a-4378-bd9f-765c26294470","system_id":"levelo_inurba_marseille","lat":43.29299,"lon":5.37456,"is_reserved":false,"is_disabled":false,"rental_uris":{"android":"levelo://app?vid=1cb00729-e73a-4378-bd9f-765c26294470","ios":"levelo://app?vid=1cb00729-e73a-4378-bd9f-765c26294470"},"vehicle_type_id":"4","last_reported":1727687467,"current_range_meters":32000,"station_id":"ce4bgi12rcd13ifvqb70","pricing_plan_id":"cebpf4jnsgd1na2vs0mg"},{"bike_id":"d7b424d0-4372-4e4b-b71f-73399dd7267c","system_id":"levelo_inurba_marseille","lat":43.293,"lon":5.37449,"is_reserved":false,"is_disabled":false,"rental_uris":{"android":"levelo://app?vid=d7b424d0-4372-4e4b-b71f-73399dd7267c","ios":"levelo://app?vid=d7b424d0-4372-4e4b-b71f-73399dd7267c"},"vehicle_type_id":"4","last_reported":1727687467,"current_range_meters":36000,"station_id":"ce4bgi12rcd13ifvqb70","pricing_plan_id":"cebpf4jnsgd1na2vs0mg"},{"bike_id":"bfe235fa-bde0-49d4-88fb-26e1108e639d","system_id":"levelo_inurba_marseille","lat":43.25005,"lon":5.38918,"is_reserved":false,"is_disabled":false,"rental_uris":{"android":"levelo://app?vid=bfe235fa-bde0-49d4-88fb-26e1108e639d","ios":"levelo://app?vid=bfe235fa-bde0-49d4-88fb-26e1108e639d"},"vehicle_type_id":"4","last_reported":1727687467,"current_range_meters":18800,"station_id":"ce4bhgp2rcd13ifvqfd0","pricing_plan_id":"cebpf4jnsgd1na2vs0mg"},{"bike_id":"1515e722-ccb9-459a-9de8-08d306755839","system_id":"levelo_inurba_marseille","lat":43.29236,"lon":5.42688,"is_reserved":false,"is_disabled":false,"rental_uris":{"android":"levelo://app?vid=1515e722-ccb9-459a-9de8-08d306755839","ios":"levelo://app?vid=1515e722-ccb9-459a-9de8-08d306755839"},"vehicle_type_id":"4","last_reported":1727687467,"current_range_meters":13600,"station_id":"ce4bhnh2rcd13ifvqgug","pricing_plan_id":"cebpf4jnsgd1na2vs0mg"},{"bike_id":"5a247751-1ec0-4c24-b089-3bdacfb50d69","system_id":"levelo_inurba_marseille","lat":43.30458,"lon":5.379,"is_reserved":false,"is_disabled":false,"rental_uris":{"android":"levelo://app?vid=5a247751-1ec0-4c24-b089-3bdacfb50d69","ios":"levelo://app?vid=5a247751-1ec0-4c24-b089-3bdacfb50d69"},"vehicle_type_id":"4","last_reported":1727687467,"current_range_meters":37600,"station_id":"ce4bgup2rcd13ifvqcn0","pricing_plan_id":"cebpf4jnsgd1na2vs0mg"},{"bike_id":"343fb00b-ba83-40bd-adf1-7950bcbf9cd6","system_id":"levelo_inurba_marseille","lat":43.2952,"lon":5.3904,"is_reserved":false,"is_disabled":false,"rental_uris":{"android":"levelo://app?vid=343fb00b-ba83-40bd-adf1-7950bcbf9cd6","ios":"levelo://app?vid=343fb00b-ba83-40bd-adf1-7950bcbf9cd6"},"vehicle_type_id":"4","last_reported":1727687467,"current_range_meters":4800,"station_id":"ce4bh3p2rcd13ifvqdp0","pricing_plan_id":"cebpf4jnsgd1na2vs0mg"},{"bike_id":"0293b28b-0849-4afb-b2eb-e4d53883deb7","system_id":"levelo_inurba_marseille","lat":43.289368,"lon":5.366379,"is_reserved":false,"is_disabled":false,"rental_uris":{"android":"levelo://app?vid=0293b28b-0849-4afb-b2eb-e4d53883deb7","ios":"levelo://app?vid=0293b28b-0849-4afb-b2eb-e4d53883deb7"},"vehicle_type_id":"4","last_reported":1727687467,"current_range_meters":6400,"station_id":"ce4bgj92rcd13ifvqbd0","pricing_plan_id":"cebpf4jnsgd1na2vs0mg"},{"bike_id":"1c7cfea4-01de-4597-bfee-2a76d6b5feb2","system_id":"levelo_inurba_marseille","lat":43.25937,"lon":5.40906,"is_reserved":false,"is_disabled":false,"rental_uris":{"android":"levelo://app?vid=1c7cfea4-01de-4597-bfee-2a76d6b5feb2","ios":"levelo://app?vid=1c7cfea4-01de-4597-bfee-2a76d6b5feb2"},"vehicle_type_id":"4","last_reported":1727687467,"current_range_meters":26800,"station_id":"ce4bhm92rcd13ifvqglg","pricing_plan_id":"cebpf4jnsgd1na2vs0mg"},{"bike_id":"44b3be37-5f9e-498a-a752-7653734d4ef1","system_id":"levelo_inurba_marseille","lat":43.24545,"lon":5.3953,"is_reserved":false,"is_disabled":false,"rental_uris":{"android":"levelo://app?vid=44b3be37-5f9e-498a-a752-7653734d4ef1","ios":"levelo://app?vid=44b3be37-5f9e-498a-a752-7653734d4ef1"},"vehicle_type_id":"4","last_reported":1727687467,"current_range_meters":24000,"station_id":"ce4bhlp2rcd13ifvqgjg","pricing_plan_id":"cebpf4jnsgd1na2vs0mg"},{"bike_id":"7478e1b6-72eb-4458-8dce-d7159b897d4c","system_id":"levelo_inurba_marseille","lat":43.27495,"lon":5.42455,"is_reserved":false,"is_disabled":false,"rental_uris":{"android":"levelo://app?vid=7478e1b6-72eb-4458-8dce-d7159b897d4c","ios":"levelo://app?vid=7478e1b6-72eb-4458-8dce-d7159b897d4c"},"vehicle_type_id":"4","last_reported":1727687467,"current_range_meters":18000,"station_id":"ce4bhn92rcd13ifvqgrg","pricing_plan_id":"cebpf4jnsgd1na2vs0mg"},{"bike_id":"d97790a5-7828-4553-a790-f0576409763c","system_id":"levelo_inurba_marseille","lat":43.2594,"lon":5.40902,"is_reserved":false,"is_disabled":false,"rental_uris":{"android":"levelo://app?vid=d97790a5-7828-4553-a790-f0576409763c","ios":"levelo://app?vid=d97790a5-7828-4553-a790-f0576409763c"},"vehicle_type_id":"4","last_reported":1727687467,"current_range_meters":19200,"station_id":"ce4bhm92rcd13ifvqglg","pricing_plan_id":"cebpf4jnsgd1na2vs0mg"},{"bike_id":"708eebd6-eea6-4bc4-9103-e62327bd8f11","system_id":"levelo_inurba_marseille","lat":43.32135,"lon":5.4148,"is_reserved":false,"is_disabled":false,"rental_uris":{"android":"levelo://app?vid=708eebd6-eea6-4bc4-9103-e62327bd8f11","ios":"levelo://app?vid=708eebd6-eea6-4bc4-9103-e62327bd8f11"},"vehicle_type_id":"4","last_reported":1727687467,"current_range_meters":20800,"station_id":"ce4bhq92rcd13ifvqhkg","pricing_plan_id":"cebpf4jnsgd1na2vs0mg"},{"bike_id":"560eec86-d20e-4632-be2b-0f04c3e3f7f0","system_id":"levelo_inurba_marseille","lat":43.27067,"lon":5.42278,"is_reserved":false,"is_disabled":false,"rental_uris":{"android":"levelo://app?vid=560eec86-d20e-4632-be2b-0f04c3e3f7f0","ios":"levelo://app?vid=560eec86-d20e-4632-be2b-0f04c3e3f7f0"},"vehicle_type_id":"4","last_reported":1727687467,"current_range_meters":30000,"station_id":"ce4bhk92rcd13ifvqgb0","pricing_plan_id":"cebpf4jnsgd1na2vs0mg"},{"bike_id":"791778cb-b9b1-46da-80e8-ce0940cdd61d","system_id":"levelo_inurba_marseille","lat":43.23192,"lon":5.35539,"is_reserved":false,"is_disabled":false,"rental_uris":{"android":"levelo://app?vid=791778cb-b9b1-46da-80e8-ce0940cdd61d","ios":"levelo://app?vid=791778cb-b9b1-46da-80e8-ce0940cdd61d"},"vehicle_type_id":"4","last_reported":1727687467,"current_range_meters":10800,"station_id":"ce4bhu92rcd13ifvqi70","pricing_plan_id":"cebpf4jnsgd1na2vs0mg"},{"bike_id":"07178768-a8fd-479e-a1c5-be1a5c20c0b0","system_id":"levelo_inurba_marseille","lat":43.29956,"lon":5.41313,"is_reserved":false,"is_disabled":false,"rental_uris":{"android":"levelo://app?vid=07178768-a8fd-479e-a1c5-be1a5c20c0b0","ios":"levelo://app?vid=07178768-a8fd-479e-a1c5-be1a5c20c0b0"},"vehicle_type_id":"4","last_reported":1727687467,"current_range_meters":30400,"station_id":"ce4bhp12rcd13ifvqh9g","pricing_plan_id":"cebpf4jnsgd1na2vs0mg"},{"bike_id":"0569ffd9-5d73-439a-979a-a1c88b9a1061","system_id":"levelo_inurba_marseille","lat":43.32918,"lon":5.39062,"is_reserved":false,"is_disabled":false,"rental_uris":{"android":"levelo://app?vid=0569ffd9-5d73-439a-979a-a1c88b9a1061","ios":"levelo://app?vid=0569ffd9-5d73-439a-979a-a1c88b9a1061"},"vehicle_type_id":"4","last_reported":1727687467,"current_range_meters":33600,"station_id":"","pricing_plan_id":"cebpf4jnsgd1na2vs0mg"},{"bike_id":"54166c9f-d1c3-47f5-af7b-867b4bd0b786","system_id":"levelo_inurba_marseille","lat":43.30211,"lon":5.39465,"is_reserved":false,"is_disabled":false,"rental_uris":{"android":"levelo://app?vid=54166c9f-d1c3-47f5-af7b-867b4bd0b786","ios":"levelo://app?vid=54166c9f-d1c3-47f5-af7b-867b4bd0b786"},"vehicle_type_id":"4","last_reported":1727687467,"current_range_meters":28400,"station_id":"ce4bh0p2rcd13ifvqd70","pricing_plan_id":"cebpf4jnsgd1na2vs0mg"},{"bike_id":"69b2e18e-fd83-4b7f-ad81-9184801096a7","system_id":"levelo_inurba_marseille","lat":43.28276,"lon":5.35054,"is_reserved":false,"is_disabled":false,"rental_uris":{"android":"levelo://app?vid=69b2e18e-fd83-4b7f-ad81-9184801096a7","ios":"levelo://app?vid=69b2e18e-fd83-4b7f-ad81-9184801096a7"},"vehicle_type_id":"4","last_reported":1727687467,"current_range_meters":20800,"station_id":"ce4bhbp2rcd13ifvqerg","pricing_plan_id":"cebpf4jnsgd1na2vs0mg"},{"bike_id":"b0efd21d-292c-4a88-9703-7fe4cc78f046","system_id":"levelo_inurba_marseille","lat":43.26496,"lon":5.39542,"is_reserved":false,"is_disabled":false,"rental_uris":{"android":"levelo://app?vid=b0efd21d-292c-4a88-9703-7fe4cc78f046","ios":"levelo://app?vid=b0efd21d-292c-4a88-9703-7fe4cc78f046"},"vehicle_type_id":"4","last_reported":1727687467,"current_range_meters":21600,"station_id":"ce4bhi12rcd13ifvqfq0","pricing_plan_id":"cebpf4jnsgd1na2vs0mg"},{"bike_id":"29d1f9f5-4709-42b4-b9a9-6ed7717f8124","system_id":"levelo_inurba_marseille","lat":43.29579,"lon":5.37525,"is_reserved":false,"is_disabled":false,"rental_uris":{"android":"levelo://app?vid=29d1f9f5-4709-42b4-b9a9-6ed7717f8124","ios":"levelo://app?vid=29d1f9f5-4709-42b4-b9a9-6ed7717f8124"},"vehicle_type_id":"4","last_reported":1727687467,"current_range_meters":38800,"station_id":"","pricing_plan_id":"cebpf4jnsgd1na2vs0mg"},{"bike_id":"29cd1976-89d1-43cb-84d2-80e4439db4b1","system_id":"levelo_inurba_marseille","lat":43.31219,"lon":5.36877,"is_reserved":false,"is_disabled":false,"rental_uris":{"android":"levelo://app?vid=29cd1976-89d1-43cb-84d2-80e4439db4b1","ios":"levelo://app?vid=29cd1976-89d1-43cb-84d2-80e4439db4b1"},"vehicle_type_id":"4","last_reported":1727687467,"current_range_meters":39200,"station_id":"ce4bgl92rcd13ifvqbq0","pricing_plan_id":"cebpf4jnsgd1na2vs0mg"},{"bike_id":"8642a6ab-ca1b-4748-aad4-e0879f8a1734","system_id":"levelo_inurba_marseille","lat":43.2407,"lon":5.37755,"is_reserved":false,"is_disabled":false,"rental_uris":{"android":"levelo://app?vid=8642a6ab-ca1b-4748-aad4-e0879f8a1734","ios":"levelo://app?vid=8642a6ab-ca1b-4748-aad4-e0879f8a1734"},"vehicle_type_id":"4","last_reported":1727687467,"current_range_meters":7200,"station_id":"ce4bhnp2rcd13ifvqgvg","pricing_plan_id":"cebpf4jnsgd1na2vs0mg"},{"bike_id":"d044e20f-a831-4795-bd1f-b931acf962b4","system_id":"levelo_inurba_marseille","lat":43.26786,"lon":5.39421,"is_reserved":false,"is_disabled":false,"rental_uris":{"android":"levelo://app?vid=d044e20f-a831-4795-bd1f-b931acf962b4","ios":"levelo://app?vid=d044e20f-a831-4795-bd1f-b931acf962b4"},"vehicle_type_id":"4","last_reported":1727687467,"current_range_meters":35200,"station_id":"ce4bhh12rcd13ifvqfg0","pricing_plan_id":"cebpf4jnsgd1na2vs0mg"},{"bike_id":"2d53187e-f260-4f84-b560-2fb5f2fbd05b","system_id":"levelo_inurba_marseille","lat":43.2408,"lon":5.3775,"is_reserved":false,"is_disabled":false,"rental_uris":{"android":"levelo://app?vid=2d53187e-f260-4f84-b560-2fb5f2fbd05b","ios":"levelo://app?vid=2d53187e-f260-4f84-b560-2fb5f2fbd05b"},"vehicle_type_id":"4","last_reported":1727687467,"current_range_meters":27600,"station_id":"ce4bhnp2rcd13ifvqgvg","pricing_plan_id":"cebpf4jnsgd1na2vs0mg"},{"bike_id":"bd86acbb-18ff-4457-8d99-e11793cb14a0","system_id":"levelo_inurba_marseille","lat":43.27069,"lon":5.42278,"is_reserved":false,"is_disabled":false,"rental_uris":{"android":"levelo://app?vid=bd86acbb-18ff-4457-8d99-e11793cb14a0","ios":"levelo://app?vid=bd86acbb-18ff-4457-8d99-e11793cb14a0"},"vehicle_type_id":"4","last_reported":1727687467,"current_range_meters":32400,"station_id":"ce4bhk92rcd13ifvqgb0","pricing_plan_id":"cebpf4jnsgd1na2vs0mg"},{"bike_id":"53b8b279-3e36-4185-b3b0-4688e1a414fb","system_id":"levelo_inurba_marseille","lat":43.28424,"lon":5.35,"is_reserved":false,"is_disabled":false,"rental_uris":{"android":"levelo://app?vid=53b8b279-3e36-4185-b3b0-4688e1a414fb","ios":"levelo://app?vid=53b8b279-3e36-4185-b3b0-4688e1a414fb"},"vehicle_type_id":"4","last_reported":1727687467,"current_range_meters":36800,"station_id":"ce4bhbh2rcd13ifvqepg","pricing_plan_id":"cebpf4jnsgd1na2vs0mg"},{"bike_id":"7f8747d4-f77f-4f12-93cc-2bc661c4579f","system_id":"levelo_inurba_marseille","lat":43.29094,"lon":5.38151,"is_reserved":false,"is_disabled":false,"rental_uris":{"android":"levelo://app?vid=7f8747d4-f77f-4f12-93cc-2bc661c4579f","ios":"levelo://app?vid=7f8747d4-f77f-4f12-93cc-2bc661c4579f"},"vehicle_type_id":"4","last_reported":1727687467,"current_range_meters":22800,"station_id":"ce4bh512rcd13ifvqe2g","pricing_plan_id":"cebpf4jnsgd1na2vs0mg"},{"bike_id":"3ea05e8b-dcf6-4f60-a396-3d9a74f783ed","system_id":"levelo_inurba_marseille","lat":43.23149,"lon":5.43722,"is_reserved":false,"is_disabled":false,"rental_uris":{"android":"levelo://app?vid=3ea05e8b-dcf6-4f60-a396-3d9a74f783ed","ios":"levelo://app?vid=3ea05e8b-dcf6-4f60-a396-3d9a74f783ed"},"vehicle_type_id":"4","last_reported":1727687467,"current_range_meters":24800,"station_id":"ce4bhmp2rcd13ifvqgog","pricing_plan_id":"cebpf4jnsgd1na2vs0mg"},{"bike_id":"12db6ca1-efb1-4e4c-b73a-5e6760968fa9","system_id":"levelo_inurba_marseille","lat":43.31219,"lon":5.36873,"is_reserved":false,"is_disabled":false,"rental_uris":{"android":"levelo://app?vid=12db6ca1-efb1-4e4c-b73a-5e6760968fa9","ios":"levelo://app?vid=12db6ca1-efb1-4e4c-b73a-5e6760968fa9"},"vehicle_type_id":"4","last_reported":1727687467,"current_range_meters":18000,"station_id":"ce4bgl92rcd13ifvqbq0","pricing_plan_id":"cebpf4jnsgd1na2vs0mg"},{"bike_id":"ff4ab032-b736-4dcb-aaae-7074ae538479","system_id":"levelo_inurba_marseille","lat":43.30549,"lon":5.36712,"is_reserved":false,"is_disabled":false,"rental_uris":{"android":"levelo://app?vid=ff4ab032-b736-4dcb-aaae-7074ae538479","ios":"levelo://app?vid=ff4ab032-b736-4dcb-aaae-7074ae538479"},"vehicle_type_id":"4","last_reported":1727687467,"current_range_meters":16400,"station_id":"ce4bgrp2rcd13ifvqc9g","pricing_plan_id":"cebpf4jnsgd1na2vs0mg"},{"bike_id":"ef142429-d76e-4da8-99fe-bb416033c5f1","system_id":"levelo_inurba_marseille","lat":43.30554,"lon":5.36539,"is_reserved":false,"is_disabled":false,"rental_uris":{"android":"levelo://app?vid=ef142429-d76e-4da8-99fe-bb416033c5f1","ios":"levelo://app?vid=ef142429-d76e-4da8-99fe-bb416033c5f1"},"vehicle_type_id":"4","last_reported":1727687467,"current_range_meters":38800,"station_id":"ce4bgs12rcd13ifvqcag","pricing_plan_id":"cebpf4jnsgd1na2vs0mg"},{"bike_id":"dd763d22-7fdc-41de-8fa7-a1d65d9eb29d","system_id":"levelo_inurba_marseille","lat":43.309082,"lon":5.372105,"is_reserved":false,"is_disabled":false,"rental_uris":{"android":"levelo://app?vid=dd763d22-7fdc-41de-8fa7-a1d65d9eb29d","ios":"levelo://app?vid=dd763d22-7fdc-41de-8fa7-a1d65d9eb29d"},"vehicle_type_id":"4","last_reported":1727687467,"current_range_meters":32800,"station_id":"ce4bguh2rcd13ifvqckg","pricing_plan_id":"cebpf4jnsgd1na2vs0mg"},{"bike_id":"4275e87e-859e-42db-b18d-2c9f93efd837","system_id":"levelo_inurba_marseille","lat":43.31266,"lon":5.4018,"is_reserved":false,"is_disabled":false,"rental_uris":{"android":"levelo://app?vid=4275e87e-859e-42db-b18d-2c9f93efd837","ios":"levelo://app?vid=4275e87e-859e-42db-b18d-2c9f93efd837"},"vehicle_type_id":"4","last_reported":1727687467,"current_range_meters":36800,"station_id":"ce4bh092rcd13ifvqd30","pricing_plan_id":"cebpf4jnsgd1na2vs0mg"},{"bike_id":"133fb6b7-5e38-4c3d-aafc-569467201556","system_id":"levelo_inurba_marseille","lat":43.23154,"lon":5.43709,"is_reserved":false,"is_disabled":false,"rental_uris":{"android":"levelo://app?vid=133fb6b7-5e38-4c3d-aafc-569467201556","ios":"levelo://app?vid=133fb6b7-5e38-4c3d-aafc-569467201556"},"vehicle_type_id":"4","last_reported":1727687467,"current_range_meters":17600,"station_id":"ce4bhmp2rcd13ifvqgog","pricing_plan_id":"cebpf4jnsgd1na2vs0mg"},{"bike_id":"63d0b035-159c-4701-a0c6-56542fc7fa9b","system_id":"levelo_inurba_marseille","lat":43.30471,"lon":5.37906,"is_reserved":false,"is_disabled":false,"rental_uris":{"android":"levelo://app?vid=63d0b035-159c-4701-a0c6-56542fc7fa9b","ios":"levelo://app?vid=63d0b035-159c-4701-a0c6-56542fc7fa9b"},"vehicle_type_id":"4","last_reported":1727687467,"current_range_meters":17200,"station_id":"ce4bgup2rcd13ifvqcn0","pricing_plan_id":"cebpf4jnsgd1na2vs0mg"},{"bike_id":"93f84cc6-a1ef-413c-961f-b2cf606aba81","system_id":"levelo_inurba_marseille","lat":43.24072,"lon":5.37768,"is_reserved":false,"is_disabled":false,"rental_uris":{"android":"levelo://app?vid=93f84cc6-a1ef-413c-961f-b2cf606aba81","ios":"levelo://app?vid=93f84cc6-a1ef-413c-961f-b2cf606aba81"},"vehicle_type_id":"4","last_reported":1727687467,"current_range_meters":22800,"station_id":"ce4bhnp2rcd13ifvqgvg","pricing_plan_id":"cebpf4jnsgd1na2vs0mg"},{"bike_id":"e20f59d4-4a2f-45f5-8f55-b006519a7083","system_id":"levelo_inurba_marseille","lat":43.23962,"lon":5.36628,"is_reserved":false,"is_disabled":false,"rental_uris":{"android":"levelo://app?vid=e20f59d4-4a2f-45f5-8f55-b006519a7083","ios":"levelo://app?vid=e20f59d4-4a2f-45f5-8f55-b006519a7083"},"vehicle_type_id":"4","last_reported":1727687467,"current_range_meters":9200,"station_id":"ce4bhi12rcd13ifvqfp0","pricing_plan_id":"cebpf4jnsgd1na2vs0mg"},{"bike_id":"ffc0bde0-8df0-4099-9996-7fe6b9f1baaf","system_id":"levelo_inurba_marseille","lat":43.24542,"lon":5.39531,"is_reserved":false,"is_disabled":false,"rental_uris":{"android":"levelo://app?vid=ffc0bde0-8df0-4099-9996-7fe6b9f1baaf","ios":"levelo://app?vid=ffc0bde0-8df0-4099-9996-7fe6b9f1baaf"},"vehicle_type_id":"4","last_reported":1727687467,"current_range_meters":22800,"station_id":"ce4bhlp2rcd13ifvqgjg","pricing_plan_id":"cebpf4jnsgd1na2vs0mg"},{"bike_id":"82938b1a-17d9-415a-a06e-2bc87d35d274","system_id":"levelo_inurba_marseille","lat":43.23152,"lon":5.43706,"is_reserved":false,"is_disabled":false,"rental_uris":{"android":"levelo://app?vid=82938b1a-17d9-415a-a06e-2bc87d35d274","ios":"levelo://app?vid=82938b1a-17d9-415a-a06e-2bc87d35d274"},"vehicle_type_id":"4","last_reported":1727687467,"current_range_meters":27600,"station_id":"ce4bhmp2rcd13ifvqgog","pricing_plan_id":"cebpf4jnsgd1na2vs0mg"},{"bike_id":"964c933d-383d-438c-9fca-57d6998ca35e","system_id":"levelo_inurba_marseille","lat":43.30773,"lon":5.37655,"is_reserved":false,"is_disabled":false,"rental_uris":{"android":"levelo://app?vid=964c933d-383d-438c-9fca-57d6998ca35e","ios":"levelo://app?vid=964c933d-383d-438c-9fca-57d6998ca35e"},"vehicle_type_id":"4","last_reported":1727687467,"current_range_meters":36800,"station_id":"ce4bgv92rcd13ifvqcq0","pricing_plan_id":"cebpf4jnsgd1na2vs0mg"},{"bike_id":"b15b29ee-729e-463b-bc4d-8134af5b81b6","system_id":"levelo_inurba_marseille","lat":43.24075,"lon":5.37759,"is_reserved":false,"is_disabled":false,"rental_uris":{"android":"levelo://app?vid=b15b29ee-729e-463b-bc4d-8134af5b81b6","ios":"levelo://app?vid=b15b29ee-729e-463b-bc4d-8134af5b81b6"},"vehicle_type_id":"4","last_reported":1727687467,"current_range_meters":23200,"station_id":"ce4bhnp2rcd13ifvqgvg","pricing_plan_id":"cebpf4jnsgd1na2vs0mg"},{"bike_id":"e254f4aa-e734-49b4-b53e-66b568232443","system_id":"levelo_inurba_marseille","lat":43.29902,"lon":5.43662,"is_reserved":false,"is_disabled":false,"rental_uris":{"android":"levelo://app?vid=e254f4aa-e734-49b4-b53e-66b568232443","ios":"levelo://app?vid=e254f4aa-e734-49b4-b53e-66b568232443"},"vehicle_type_id":"4","last_reported":1727687467,"current_range_meters":20000,"station_id":"ce4bhpp2rcd13ifvqhfg","pricing_plan_id":"cebpf4jnsgd1na2vs0mg"},{"bike_id":"a402e127-a7f1-443f-b76e-1652ca4fd85b","system_id":"levelo_inurba_marseille","lat":43.30153,"lon":5.38074,"is_reserved":false,"is_disabled":false,"rental_uris":{"android":"levelo://app?vid=a402e127-a7f1-443f-b76e-1652ca4fd85b","ios":"levelo://app?vid=a402e127-a7f1-443f-b76e-1652ca4fd85b"},"vehicle_type_id":"4","last_reported":1727687467,"current_range_meters":32800,"station_id":"ce4bgjp2rcd13ifvqbh0","pricing_plan_id":"cebpf4jnsgd1na2vs0mg"},{"bike_id":"6a1508a5-12f9-44e0-b42f-e833399196c9","system_id":"levelo_inurba_marseille","lat":43.26939,"lon":5.38621,"is_reserved":false,"is_disabled":false,"rental_uris":{"android":"levelo://app?vid=6a1508a5-12f9-44e0-b42f-e833399196c9","ios":"levelo://app?vid=6a1508a5-12f9-44e0-b42f-e833399196c9"},"vehicle_type_id":"4","last_reported":1727687467,"current_range_meters":36000,"station_id":"ce4bhh92rcd13ifvqfh0","pricing_plan_id":"cebpf4jnsgd1na2vs0mg"},{"bike_id":"59e24958-b2d8-467b-a70f-e534d8add310","system_id":"levelo_inurba_marseille","lat":43.30323,"lon":5.3689,"is_reserved":false,"is_disabled":false,"rental_uris":{"android":"levelo://app?vid=59e24958-b2d8-467b-a70f-e534d8add310","ios":"levelo://app?vid=59e24958-b2d8-467b-a70f-e534d8add310"},"vehicle_type_id":"4","last_reported":1727687467,"current_range_meters":38800,"station_id":"ce4bgqh2rcd13ifvqc5g","pricing_plan_id":"cebpf4jnsgd1na2vs0mg"},{"bike_id":"137d478a-69d8-4b77-ad5f-e7af690c0925","system_id":"levelo_inurba_marseille","lat":43.24082,"lon":5.37744,"is_reserved":false,"is_disabled":false,"rental_uris":{"android":"levelo://app?vid=137d478a-69d8-4b77-ad5f-e7af690c0925","ios":"levelo://app?vid=137d478a-69d8-4b77-ad5f-e7af690c0925"},"vehicle_type_id":"4","last_reported":1727687467,"current_range_meters":8400,"station_id":"ce4bhnp2rcd13ifvqgvg","pricing_plan_id":"cebpf4jnsgd1na2vs0mg"},{"bike_id":"318262dc-85f7-4629-9884-6167fafac465","system_id":"levelo_inurba_marseille","lat":43.23155,"lon":5.43699,"is_reserved":false,"is_disabled":false,"rental_uris":{"android":"levelo://app?vid=318262dc-85f7-4629-9884-6167fafac465","ios":"levelo://app?vid=318262dc-85f7-4629-9884-6167fafac465"},"vehicle_type_id":"4","last_reported":1727687467,"current_range_meters":37600,"station_id":"ce4bhmp2rcd13ifvqgog","pricing_plan_id":"cebpf4jnsgd1na2vs0mg"},{"bike_id":"02060d19-1707-4676-95ca-18502fbfa97d","system_id":"levelo_inurba_marseille","lat":43.30776,"lon":5.3766,"is_reserved":false,"is_disabled":false,"rental_uris":{"android":"levelo://app?vid=02060d19-1707-4676-95ca-18502fbfa97d","ios":"levelo://app?vid=02060d19-1707-4676-95ca-18502fbfa97d"},"vehicle_type_id":"4","last_reported":1727687467,"current_range_meters":31200,"station_id":"ce4bgv92rcd13ifvqcq0","pricing_plan_id":"cebpf4jnsgd1na2vs0mg"},{"bike_id":"7977a9c9-5512-4fa7-9026-3e7c33952b44","system_id":"levelo_inurba_marseille","lat":43.25932,"lon":5.40905,"is_reserved":false,"is_disabled":false,"rental_uris":{"android":"levelo://app?vid=7977a9c9-5512-4fa7-9026-3e7c33952b44","ios":"levelo://app?vid=7977a9c9-5512-4fa7-9026-3e7c33952b44"},"vehicle_type_id":"4","last_reported":1727687467,"current_range_meters":19200,"station_id":"ce4bhm92rcd13ifvqglg","pricing_plan_id":"cebpf4jnsgd1na2vs0mg"},{"bike_id":"25a3371f-2f6a-436a-9934-217f2666092f","system_id":"levelo_inurba_marseille","lat":43.24536,"lon":5.39529,"is_reserved":false,"is_disabled":false,"rental_uris":{"android":"levelo://app?vid=25a3371f-2f6a-436a-9934-217f2666092f","ios":"levelo://app?vid=25a3371f-2f6a-436a-9934-217f2666092f"},"vehicle_type_id":"4","last_reported":1727687467,"current_range_meters":20400,"station_id":"ce4bhlp2rcd13ifvqgjg","pricing_plan_id":"cebpf4jnsgd1na2vs0mg"},{"bike_id":"3943ac4d-2db8-4759-b4ae-2af84634e42d","system_id":"levelo_inurba_marseille","lat":43.26489,"lon":5.39555,"is_reserved":false,"is_disabled":false,"rental_uris":{"android":"levelo://app?vid=3943ac4d-2db8-4759-b4ae-2af84634e42d","ios":"levelo://app?vid=3943ac4d-2db8-4759-b4ae-2af84634e42d"},"vehicle_type_id":"4","last_reported":1727687467,"current_range_meters":38000,"station_id":"ce4bhi12rcd13ifvqfq0","pricing_plan_id":"cebpf4jnsgd1na2vs0mg"},{"bike_id":"a46feec0-773b-42c7-a261-509ccbf7a879","system_id":"levelo_inurba_marseille","lat":43.25857,"lon":5.39906,"is_reserved":false,"is_disabled":false,"rental_uris":{"android":"levelo://app?vid=a46feec0-773b-42c7-a261-509ccbf7a879","ios":"levelo://app?vid=a46feec0-773b-42c7-a261-509ccbf7a879"},"vehicle_type_id":"4","last_reported":1727687467,"current_range_meters":28000,"station_id":"ce4bhl92rcd13ifvqghg","pricing_plan_id":"cebpf4jnsgd1na2vs0mg"},{"bike_id":"59d7c099-2641-469c-b2fb-66137a95865d","system_id":"levelo_inurba_marseille","lat":43.30298,"lon":5.3922,"is_reserved":false,"is_disabled":false,"rental_uris":{"android":"levelo://app?vid=59d7c099-2641-469c-b2fb-66137a95865d","ios":"levelo://app?vid=59d7c099-2641-469c-b2fb-66137a95865d"},"vehicle_type_id":"4","last_reported":1727687467,"current_range_meters":23200,"station_id":"ce4bgkh2rcd13ifvqbk0","pricing_plan_id":"cebpf4jnsgd1na2vs0mg"},{"bike_id":"f9c0005c-c5d0-442f-92b1-0348c6a34305","system_id":"levelo_inurba_marseille","lat":43.30142,"lon":5.39856,"is_reserved":false,"is_disabled":false,"rental_uris":{"android":"levelo://app?vid=f9c0005c-c5d0-442f-92b1-0348c6a34305","ios":"levelo://app?vid=f9c0005c-c5d0-442f-92b1-0348c6a34305"},"vehicle_type_id":"4","last_reported":1727687467,"current_range_meters":38800,"station_id":"ce4bh0h2rcd13ifvqd40","pricing_plan_id":"cebpf4jnsgd1na2vs0mg"},{"bike_id":"64773acf-2ec7-4206-8fba-0532a5a266ea","system_id":"levelo_inurba_marseille","lat":43.33722,"lon":5.39175,"is_reserved":false,"is_disabled":false,"rental_uris":{"android":"levelo://app?vid=64773acf-2ec7-4206-8fba-0532a5a266ea","ios":"levelo://app?vid=64773acf-2ec7-4206-8fba-0532a5a266ea"},"vehicle_type_id":"4","last_reported":1727687467,"current_range_meters":26000,"station_id":"ce4bhr92rcd13ifvqhsg","pricing_plan_id":"cebpf4jnsgd1na2vs0mg"},{"bike_id":"908021a4-c1b6-4d63-8e7a-87eb8947eb54","system_id":"levelo_inurba_marseille","lat":43.24083,"lon":5.37749,"is_reserved":false,"is_disabled":false,"rental_uris":{"android":"levelo://app?vid=908021a4-c1b6-4d63-8e7a-87eb8947eb54","ios":"levelo://app?vid=908021a4-c1b6-4d63-8e7a-87eb8947eb54"},"vehicle_type_id":"4","last_reported":1727687467,"current_range_meters":6400,"station_id":"ce4bhnp2rcd13ifvqgvg","pricing_plan_id":"cebpf4jnsgd1na2vs0mg"},{"bike_id":"6d1bfb20-b5f6-4267-87b9-8db5aaae3b42","system_id":"levelo_inurba_marseille","lat":43.29026,"lon":5.37569,"is_reserved":false,"is_disabled":false,"rental_uris":{"android":"levelo://app?vid=6d1bfb20-b5f6-4267-87b9-8db5aaae3b42","ios":"levelo://app?vid=6d1bfb20-b5f6-4267-87b9-8db5aaae3b42"},"vehicle_type_id":"4","last_reported":1727687467,"current_range_meters":38800,"station_id":"ce4bh692rcd13ifvqe90","pricing_plan_id":"cebpf4jnsgd1na2vs0mg"},{"bike_id":"c46e8f26-c64f-4b04-9e82-aa86f7d940b0","system_id":"levelo_inurba_marseille","lat":43.293692,"lon":5.378471,"is_reserved":false,"is_disabled":false,"rental_uris":{"android":"levelo://app?vid=c46e8f26-c64f-4b04-9e82-aa86f7d940b0","ios":"levelo://app?vid=c46e8f26-c64f-4b04-9e82-aa86f7d940b0"},"vehicle_type_id":"4","last_reported":1727687467,"current_range_meters":37600,"station_id":"ce4bgjh2rcd13ifvqbf0","pricing_plan_id":"cebpf4jnsgd1na2vs0mg"},{"bike_id":"69babfae-6e74-434e-a1ef-5453f297bb30","system_id":"levelo_inurba_marseille","lat":43.29006,"lon":5.35613,"is_reserved":false,"is_disabled":false,"rental_uris":{"android":"levelo://app?vid=69babfae-6e74-434e-a1ef-5453f297bb30","ios":"levelo://app?vid=69babfae-6e74-434e-a1ef-5453f297bb30"},"vehicle_type_id":"4","last_reported":1727687467,"current_range_meters":38800,"station_id":"ce4bhb92rcd13ifvqen0","pricing_plan_id":"cebpf4jnsgd1na2vs0mg"},{"bike_id":"b795d4dd-86fd-46c1-9e35-aa1bb843c076","system_id":"levelo_inurba_marseille","lat":43.24539,"lon":5.3953,"is_reserved":false,"is_disabled":false,"rental_uris":{"android":"levelo://app?vid=b795d4dd-86fd-46c1-9e35-aa1bb843c076","ios":"levelo://app?vid=b795d4dd-86fd-46c1-9e35-aa1bb843c076"},"vehicle_type_id":"4","last_reported":1727687467,"current_range_meters":10800,"station_id":"ce4bhlp2rcd13ifvqgjg","pricing_plan_id":"cebpf4jnsgd1na2vs0mg"},{"bike_id":"2a4f744d-4171-42a9-b0cb-dfb324aae8c3","system_id":"levelo_inurba_marseille","lat":43.23143,"lon":5.43727,"is_reserved":false,"is_disabled":false,"rental_uris":{"android":"levelo://app?vid=2a4f744d-4171-42a9-b0cb-dfb324aae8c3","ios":"levelo://app?vid=2a4f744d-4171-42a9-b0cb-dfb324aae8c3"},"vehicle_type_id":"4","last_reported":1727687467,"current_range_meters":26000,"station_id":"ce4bhmp2rcd13ifvqgog","pricing_plan_id":"cebpf4jnsgd1na2vs0mg"},{"bike_id":"908f7f69-cdfb-4e17-8d14-2368d3709128","system_id":"levelo_inurba_marseille","lat":43.32287,"lon":5.38265,"is_reserved":false,"is_disabled":false,"rental_uris":{"android":"levelo://app?vid=908f7f69-cdfb-4e17-8d14-2368d3709128","ios":"levelo://app?vid=908f7f69-cdfb-4e17-8d14-2368d3709128"},"vehicle_type_id":"4","last_reported":1727687467,"current_range_meters":38800,"station_id":"ce4bhr12rcd13ifvqhqg","pricing_plan_id":"cebpf4jnsgd1na2vs0mg"},{"bike_id":"4dad2771-1910-445b-9c15-6c0267ca4c97","system_id":"levelo_inurba_marseille","lat":43.30153,"lon":5.38087,"is_reserved":false,"is_disabled":false,"rental_uris":{"android":"levelo://app?vid=4dad2771-1910-445b-9c15-6c0267ca4c97","ios":"levelo://app?vid=4dad2771-1910-445b-9c15-6c0267ca4c97"},"vehicle_type_id":"4","last_reported":1727687467,"current_range_meters":27200,"station_id":"ce4bgjp2rcd13ifvqbh0","pricing_plan_id":"cebpf4jnsgd1na2vs0mg"},{"bike_id":"9b80db1f-3fc2-436e-afcd-b58a18c1123b","system_id":"levelo_inurba_marseille","lat":43.2974,"lon":5.37653,"is_reserved":false,"is_disabled":false,"rental_uris":{"android":"levelo://app?vid=9b80db1f-3fc2-436e-afcd-b58a18c1123b","ios":"levelo://app?vid=9b80db1f-3fc2-436e-afcd-b58a18c1123b"},"vehicle_type_id":"4","last_reported":1727687467,"current_range_meters":20000,"station_id":"ce4bgkh2rcd13ifvqbl0","pricing_plan_id":"cebpf4jnsgd1na2vs0mg"},{"bike_id":"079952ff-67cc-431e-a33f-51e2172effba","system_id":"levelo_inurba_marseille","lat":43.30771,"lon":5.37651,"is_reserved":false,"is_disabled":false,"rental_uris":{"android":"levelo://app?vid=079952ff-67cc-431e-a33f-51e2172effba","ios":"levelo://app?vid=079952ff-67cc-431e-a33f-51e2172effba"},"vehicle_type_id":"4","last_reported":1727687467,"current_range_meters":38400,"station_id":"ce4bgv92rcd13ifvqcq0","pricing_plan_id":"cebpf4jnsgd1na2vs0mg"},{"bike_id":"4f20751e-fae9-4ee3-b2f5-2515c2dd6e24","system_id":"levelo_inurba_marseille","lat":43.24647,"lon":5.38892,"is_reserved":false,"is_disabled":false,"rental_uris":{"android":"levelo://app?vid=4f20751e-fae9-4ee3-b2f5-2515c2dd6e24","ios":"levelo://app?vid=4f20751e-fae9-4ee3-b2f5-2515c2dd6e24"},"vehicle_type_id":"4","last_reported":1727687467,"current_range_meters":16800,"station_id":"ce4bhg12rcd13ifvqf60","pricing_plan_id":"cebpf4jnsgd1na2vs0mg"},{"bike_id":"e87a1725-8344-4e98-bd8e-0e9915d5fdea","system_id":"levelo_inurba_marseille","lat":43.24072,"lon":5.37761,"is_reserved":false,"is_disabled":false,"rental_uris":{"android":"levelo://app?vid=e87a1725-8344-4e98-bd8e-0e9915d5fdea","ios":"levelo://app?vid=e87a1725-8344-4e98-bd8e-0e9915d5fdea"},"vehicle_type_id":"4","last_reported":1727687467,"current_range_meters":34800,"station_id":"ce4bhnp2rcd13ifvqgvg","pricing_plan_id":"cebpf4jnsgd1na2vs0mg"},{"bike_id":"3ccef2c3-34ca-4350-8733-bdef0b66f68d","system_id":"levelo_inurba_marseille","lat":43.26685,"lon":5.38274,"is_reserved":false,"is_disabled":false,"rental_uris":{"android":"levelo://app?vid=3ccef2c3-34ca-4350-8733-bdef0b66f68d","ios":"levelo://app?vid=3ccef2c3-34ca-4350-8733-bdef0b66f68d"},"vehicle_type_id":"4","last_reported":1727687467,"current_range_meters":35200,"station_id":"ce4bhg92rcd13ifvqf90","pricing_plan_id":"cebpf4jnsgd1na2vs0mg"},{"bike_id":"757306db-bc8b-4147-85a6-62da2b338c0f","system_id":"levelo_inurba_marseille","lat":43.25725,"lon":5.41111,"is_reserved":false,"is_disabled":false,"rental_uris":{"android":"levelo://app?vid=757306db-bc8b-4147-85a6-62da2b338c0f","ios":"levelo://app?vid=757306db-bc8b-4147-85a6-62da2b338c0f"},"vehicle_type_id":"4","last_reported":1727687467,"current_range_meters":24800,"station_id":"ce4bhkp2rcd13ifvqgd0","pricing_plan_id":"cebpf4jnsgd1na2vs0mg"},{"bike_id":"cf467179-4c1e-4ae7-862b-f7031c39dfb6","system_id":"levelo_inurba_marseille","lat":43.29952,"lon":5.36535,"is_reserved":false,"is_disabled":false,"rental_uris":{"android":"levelo://app?vid=cf467179-4c1e-4ae7-862b-f7031c39dfb6","ios":"levelo://app?vid=cf467179-4c1e-4ae7-862b-f7031c39dfb6"},"vehicle_type_id":"4","last_reported":1727687467,"current_range_meters":38800,"station_id":"ce4bgm92rcd13ifvqbr0","pricing_plan_id":"cebpf4jnsgd1na2vs0mg"},{"bike_id":"69a81038-63fd-4104-a0e3-f8914334cc61","system_id":"levelo_inurba_marseille","lat":43.3091,"lon":5.36858,"is_reserved":false,"is_disabled":false,"rental_uris":{"android":"levelo://app?vid=69a81038-63fd-4104-a0e3-f8914334cc61","ios":"levelo://app?vid=69a81038-63fd-4104-a0e3-f8914334cc61"},"vehicle_type_id":"4","last_reported":1727687467,"current_range_meters":26000,"station_id":"ce4bgn92rcd13ifvqbvg","pricing_plan_id":"cebpf4jnsgd1na2vs0mg"},{"bike_id":"186a9167-78f8-4664-bc42-2d502a3f0832","system_id":"levelo_inurba_marseille","lat":43.31357,"lon":5.3671,"is_reserved":false,"is_disabled":false,"rental_uris":{"android":"levelo://app?vid=186a9167-78f8-4664-bc42-2d502a3f0832","ios":"levelo://app?vid=186a9167-78f8-4664-bc42-2d502a3f0832"},"vehicle_type_id":"4","last_reported":1727687467,"current_range_meters":31200,"station_id":"","pricing_plan_id":"cebpf4jnsgd1na2vs0mg"},{"bike_id":"d35014a8-6d8c-4cac-83b4-bdc23f9c8db1","system_id":"levelo_inurba_marseille","lat":43.34142,"lon":5.40906,"is_reserved":false,"is_disabled":false,"rental_uris":{"android":"levelo://app?vid=d35014a8-6d8c-4cac-83b4-bdc23f9c8db1","ios":"levelo://app?vid=d35014a8-6d8c-4cac-83b4-bdc23f9c8db1"},"vehicle_type_id":"4","last_reported":1727687467,"current_range_meters":37600,"station_id":"ce4bhqh2rcd13ifvqhlg","pricing_plan_id":"cebpf4jnsgd1na2vs0mg"},{"bike_id":"04c574aa-144c-414a-9314-3a6d905312f0","system_id":"levelo_inurba_marseille","lat":43.29965,"lon":5.41315,"is_reserved":false,"is_disabled":false,"rental_uris":{"android":"levelo://app?vid=04c574aa-144c-414a-9314-3a6d905312f0","ios":"levelo://app?vid=04c574aa-144c-414a-9314-3a6d905312f0"},"vehicle_type_id":"4","last_reported":1727687467,"current_range_meters":39200,"station_id":"ce4bhp12rcd13ifvqh9g","pricing_plan_id":"cebpf4jnsgd1na2vs0mg"},{"bike_id":"cf33b555-cac1-43f8-89f7-e84b64897cfd","system_id":"levelo_inurba_marseille","lat":43.28381,"lon":5.3729,"is_reserved":false,"is_disabled":false,"rental_uris":{"android":"levelo://app?vid=cf33b555-cac1-43f8-89f7-e84b64897cfd","ios":"levelo://app?vid=cf33b555-cac1-43f8-89f7-e84b64897cfd"},"vehicle_type_id":"4","last_reported":1727687467,"current_range_meters":6000,"station_id":"","pricing_plan_id":"cebpf4jnsgd1na2vs0mg"},{"bike_id":"2b182953-1131-41e7-8c86-2a216912af4e","system_id":"levelo_inurba_marseille","lat":43.243896,"lon":5.370752,"is_reserved":false,"is_disabled":false,"rental_uris":{"android":"levelo://app?vid=2b182953-1131-41e7-8c86-2a216912af4e","ios":"levelo://app?vid=2b182953-1131-41e7-8c86-2a216912af4e"},"vehicle_type_id":"4","last_reported":1727687467,"current_range_meters":5600,"station_id":"ce4bhhh2rcd13ifvqfk0","pricing_plan_id":"cebpf4jnsgd1na2vs0mg"},{"bike_id":"5904ebb0-88ad-4f5d-bf06-b69d1be417fe","system_id":"levelo_inurba_marseille","lat":43.30461,"lon":5.37903,"is_reserved":false,"is_disabled":false,"rental_uris":{"android":"levelo://app?vid=5904ebb0-88ad-4f5d-bf06-b69d1be417fe","ios":"levelo://app?vid=5904ebb0-88ad-4f5d-bf06-b69d1be417fe"},"vehicle_type_id":"4","last_reported":1727687467,"current_range_meters":30800,"station_id":"ce4bgup2rcd13ifvqcn0","pricing_plan_id":"cebpf4jnsgd1na2vs0mg"},{"bike_id":"72e2b14d-d512-42a0-8892-c93a5dfa0b19","system_id":"levelo_inurba_marseille","lat":43.30138,"lon":5.3742,"is_reserved":false,"is_disabled":false,"rental_uris":{"android":"levelo://app?vid=72e2b14d-d512-42a0-8892-c93a5dfa0b19","ios":"levelo://app?vid=72e2b14d-d512-42a0-8892-c93a5dfa0b19"},"vehicle_type_id":"4","last_reported":1727687467,"current_range_meters":38800,"station_id":"ce4bgs92rcd13ifvqcc0","pricing_plan_id":"cebpf4jnsgd1na2vs0mg"},{"bike_id":"f41e6ac7-d39b-432c-a205-b5e52984b1b4","system_id":"levelo_inurba_marseille","lat":43.33027,"lon":5.39371,"is_reserved":false,"is_disabled":false,"rental_uris":{"android":"levelo://app?vid=f41e6ac7-d39b-432c-a205-b5e52984b1b4","ios":"levelo://app?vid=f41e6ac7-d39b-432c-a205-b5e52984b1b4"},"vehicle_type_id":"4","last_reported":1727687467,"current_range_meters":36800,"station_id":"","pricing_plan_id":"cebpf4jnsgd1na2vs0mg"},{"bike_id":"bd4818fc-c3a3-49ae-88f0-5543b2bac4d1","system_id":"levelo_inurba_marseille","lat":43.2396,"lon":5.36633,"is_reserved":false,"is_disabled":false,"rental_uris":{"android":"levelo://app?vid=bd4818fc-c3a3-49ae-88f0-5543b2bac4d1","ios":"levelo://app?vid=bd4818fc-c3a3-49ae-88f0-5543b2bac4d1"},"vehicle_type_id":"4","last_reported":1727687467,"current_range_meters":39200,"station_id":"ce4bhi12rcd13ifvqfp0","pricing_plan_id":"cebpf4jnsgd1na2vs0mg"},{"bike_id":"00f0b66a-d353-42d6-8637-0269f36b3ef1","system_id":"levelo_inurba_marseille","lat":43.32542,"lon":5.41446,"is_reserved":false,"is_disabled":false,"rental_uris":{"android":"levelo://app?vid=00f0b66a-d353-42d6-8637-0269f36b3ef1","ios":"levelo://app?vid=00f0b66a-d353-42d6-8637-0269f36b3ef1"},"vehicle_type_id":"4","last_reported":1727687467,"current_range_meters":27600,"station_id":"ce4bhq12rcd13ifvqhhg","pricing_plan_id":"cebpf4jnsgd1na2vs0mg"},{"bike_id":"269ac999-dad6-460a-aa43-d5c4c71dd1a3","system_id":"levelo_inurba_marseille","lat":43.23139,"lon":5.43716,"is_reserved":false,"is_disabled":false,"rental_uris":{"android":"levelo://app?vid=269ac999-dad6-460a-aa43-d5c4c71dd1a3","ios":"levelo://app?vid=269ac999-dad6-460a-aa43-d5c4c71dd1a3"},"vehicle_type_id":"4","last_reported":1727687467,"current_range_meters":16800,"station_id":"ce4bhmp2rcd13ifvqgog","pricing_plan_id":"cebpf4jnsgd1na2vs0mg"},{"bike_id":"e2d96cbd-5057-4d2f-9436-03670229e573","system_id":"levelo_inurba_marseille","lat":43.23153,"lon":5.43711,"is_reserved":false,"is_disabled":false,"rental_uris":{"android":"levelo://app?vid=e2d96cbd-5057-4d2f-9436-03670229e573","ios":"levelo://app?vid=e2d96cbd-5057-4d2f-9436-03670229e573"},"vehicle_type_id":"4","last_reported":1727687467,"current_range_meters":16000,"station_id":"ce4bhmp2rcd13ifvqgog","pricing_plan_id":"cebpf4jnsgd1na2vs0mg"},{"bike_id":"dd403d5f-b9d8-40ef-b9f6-8f2b51a4f16f","system_id":"levelo_inurba_marseille","lat":43.26196,"lon":5.37448,"is_reserved":false,"is_disabled":false,"rental_uris":{"android":"levelo://app?vid=dd403d5f-b9d8-40ef-b9f6-8f2b51a4f16f","ios":"levelo://app?vid=dd403d5f-b9d8-40ef-b9f6-8f2b51a4f16f"},"vehicle_type_id":"4","last_reported":1727687467,"current_range_meters":20000,"station_id":"ce4bhgp2rcd13ifvqfc0","pricing_plan_id":"cebpf4jnsgd1na2vs0mg"},{"bike_id":"643f0fff-e0cc-4b48-9922-6a4d5b83a6e1","system_id":"levelo_inurba_marseille","lat":43.27994,"lon":5.40013,"is_reserved":false,"is_disabled":false,"rental_uris":{"android":"levelo://app?vid=643f0fff-e0cc-4b48-9922-6a4d5b83a6e1","ios":"levelo://app?vid=643f0fff-e0cc-4b48-9922-6a4d5b83a6e1"},"vehicle_type_id":"4","last_reported":1727687467,"current_range_meters":38800,"station_id":"ce4bho92rcd13ifvqh4g","pricing_plan_id":"cebpf4jnsgd1na2vs0mg"},{"bike_id":"15eda207-0a01-479d-a2c7-73f7e615ddd7","system_id":"levelo_inurba_marseille","lat":43.30558,"lon":5.36536,"is_reserved":false,"is_disabled":false,"rental_uris":{"android":"levelo://app?vid=15eda207-0a01-479d-a2c7-73f7e615ddd7","ios":"levelo://app?vid=15eda207-0a01-479d-a2c7-73f7e615ddd7"},"vehicle_type_id":"4","last_reported":1727687467,"current_range_meters":22000,"station_id":"ce4bgs12rcd13ifvqcag","pricing_plan_id":"cebpf4jnsgd1na2vs0mg"},{"bike_id":"5bc1c1fa-d108-4ca9-92c6-52234bc518f7","system_id":"levelo_inurba_marseille","lat":43.25115,"lon":5.40326,"is_reserved":false,"is_disabled":false,"rental_uris":{"android":"levelo://app?vid=5bc1c1fa-d108-4ca9-92c6-52234bc518f7","ios":"levelo://app?vid=5bc1c1fa-d108-4ca9-92c6-52234bc518f7"},"vehicle_type_id":"4","last_reported":1727687467,"current_range_meters":11200,"station_id":"ce4bhlh2rcd13ifvqgig","pricing_plan_id":"cebpf4jnsgd1na2vs0mg"},{"bike_id":"d1a4e3ee-6415-46fb-989a-8ab06e589b76","system_id":"levelo_inurba_marseille","lat":43.30909,"lon":5.36862,"is_reserved":false,"is_disabled":false,"rental_uris":{"android":"levelo://app?vid=d1a4e3ee-6415-46fb-989a-8ab06e589b76","ios":"levelo://app?vid=d1a4e3ee-6415-46fb-989a-8ab06e589b76"},"vehicle_type_id":"4","last_reported":1727687467,"current_range_meters":38800,"station_id":"ce4bgn92rcd13ifvqbvg","pricing_plan_id":"cebpf4jnsgd1na2vs0mg"},{"bike_id":"f99216ca-8c27-4c7a-b825-facccb34ab27","system_id":"levelo_inurba_marseille","lat":43.33611,"lon":5.41031,"is_reserved":false,"is_disabled":false,"rental_uris":{"android":"levelo://app?vid=f99216ca-8c27-4c7a-b825-facccb34ab27","ios":"levelo://app?vid=f99216ca-8c27-4c7a-b825-facccb34ab27"},"vehicle_type_id":"4","last_reported":1727687467,"current_range_meters":30400,"station_id":"ce4bhqh2rcd13ifvqhmg","pricing_plan_id":"cebpf4jnsgd1na2vs0mg"},{"bike_id":"2b65f501-0efb-46d7-a95c-02a18c297410","system_id":"levelo_inurba_marseille","lat":43.24082,"lon":5.37753,"is_reserved":false,"is_disabled":false,"rental_uris":{"android":"levelo://app?vid=2b65f501-0efb-46d7-a95c-02a18c297410","ios":"levelo://app?vid=2b65f501-0efb-46d7-a95c-02a18c297410"},"vehicle_type_id":"4","last_reported":1727687467,"current_range_meters":12000,"station_id":"ce4bhnp2rcd13ifvqgvg","pricing_plan_id":"cebpf4jnsgd1na2vs0mg"},{"bike_id":"e438835a-154f-40d0-ba6c-14839692515a","system_id":"levelo_inurba_marseille","lat":43.31711,"lon":5.37731,"is_reserved":false,"is_disabled":false,"rental_uris":{"android":"levelo://app?vid=e438835a-154f-40d0-ba6c-14839692515a","ios":"levelo://app?vid=e438835a-154f-40d0-ba6c-14839692515a"},"vehicle_type_id":"4","last_reported":1727687467,"current_range_meters":4000,"station_id":"ce4bgth2rcd13ifvqch0","pricing_plan_id":"cebpf4jnsgd1na2vs0mg"},{"bike_id":"dc774c3e-6ef5-41be-a10c-e3b3b3592d61","system_id":"levelo_inurba_marseille","lat":43.30947,"lon":5.3903,"is_reserved":false,"is_disabled":false,"rental_uris":{"android":"levelo://app?vid=dc774c3e-6ef5-41be-a10c-e3b3b3592d61","ios":"levelo://app?vid=dc774c3e-6ef5-41be-a10c-e3b3b3592d61"},"vehicle_type_id":"4","last_reported":1727687467,"current_range_meters":32000,"station_id":"ce4bgup2rcd13ifvqco0","pricing_plan_id":"cebpf4jnsgd1na2vs0mg"},{"bike_id":"f71b7f63-17f8-4803-ba81-e0aaab220a33","system_id":"levelo_inurba_marseille","lat":43.30548,"lon":5.36536,"is_reserved":false,"is_disabled":false,"rental_uris":{"android":"levelo://app?vid=f71b7f63-17f8-4803-ba81-e0aaab220a33","ios":"levelo://app?vid=f71b7f63-17f8-4803-ba81-e0aaab220a33"},"vehicle_type_id":"4","last_reported":1727687467,"current_range_meters":39200,"station_id":"ce4bgs12rcd13ifvqcag","pricing_plan_id":"cebpf4jnsgd1na2vs0mg"},{"bike_id":"c40bd985-ee1c-4b6e-8bdb-afd6f273ee43","system_id":"levelo_inurba_marseille","lat":43.32099,"lon":5.39005,"is_reserved":false,"is_disabled":false,"rental_uris":{"android":"levelo://app?vid=c40bd985-ee1c-4b6e-8bdb-afd6f273ee43","ios":"levelo://app?vid=c40bd985-ee1c-4b6e-8bdb-afd6f273ee43"},"vehicle_type_id":"4","last_reported":1727687467,"current_range_meters":33600,"station_id":"ce4bhqp2rcd13ifvqhng","pricing_plan_id":"cebpf4jnsgd1na2vs0mg"},{"bike_id":"efafcf64-8eeb-4d07-99ee-7b626f843946","system_id":"levelo_inurba_marseille","lat":43.30904,"lon":5.36852,"is_reserved":false,"is_disabled":false,"rental_uris":{"android":"levelo://app?vid=efafcf64-8eeb-4d07-99ee-7b626f843946","ios":"levelo://app?vid=efafcf64-8eeb-4d07-99ee-7b626f843946"},"vehicle_type_id":"4","last_reported":1727687467,"current_range_meters":25200,"station_id":"ce4bgn92rcd13ifvqbvg","pricing_plan_id":"cebpf4jnsgd1na2vs0mg"},{"bike_id":"92a377c1-c83e-4ce0-8033-a37f64060b32","system_id":"levelo_inurba_marseille","lat":43.299,"lon":5.43677,"is_reserved":false,"is_disabled":false,"rental_uris":{"android":"levelo://app?vid=92a377c1-c83e-4ce0-8033-a37f64060b32","ios":"levelo://app?vid=92a377c1-c83e-4ce0-8033-a37f64060b32"},"vehicle_type_id":"4","last_reported":1727687467,"current_range_meters":24000,"station_id":"ce4bhpp2rcd13ifvqhfg","pricing_plan_id":"cebpf4jnsgd1na2vs0mg"},{"bike_id":"94a5039e-9ff6-465a-909f-52e8a347eb6f","system_id":"levelo_inurba_marseille","lat":43.27493,"lon":5.42445,"is_reserved":false,"is_disabled":false,"rental_uris":{"android":"levelo://app?vid=94a5039e-9ff6-465a-909f-52e8a347eb6f","ios":"levelo://app?vid=94a5039e-9ff6-465a-909f-52e8a347eb6f"},"vehicle_type_id":"4","last_reported":1727687467,"current_range_meters":24400,"station_id":"ce4bhn92rcd13ifvqgrg","pricing_plan_id":"cebpf4jnsgd1na2vs0mg"},{"bike_id":"66c626da-c5b2-4c5c-abb5-549a9ee9c938","system_id":"levelo_inurba_marseille","lat":43.27492,"lon":5.42453,"is_reserved":false,"is_disabled":false,"rental_uris":{"android":"levelo://app?vid=66c626da-c5b2-4c5c-abb5-549a9ee9c938","ios":"levelo://app?vid=66c626da-c5b2-4c5c-abb5-549a9ee9c938"},"vehicle_type_id":"4","last_reported":1727687467,"current_range_meters":23200,"station_id":"ce4bhn92rcd13ifvqgrg","pricing_plan_id":"cebpf4jnsgd1na2vs0mg"},{"bike_id":"0ff8e607-814c-471e-8103-36bb7b960e01","system_id":"levelo_inurba_marseille","lat":43.32542,"lon":5.41437,"is_reserved":false,"is_disabled":false,"rental_uris":{"android":"levelo://app?vid=0ff8e607-814c-471e-8103-36bb7b960e01","ios":"levelo://app?vid=0ff8e607-814c-471e-8103-36bb7b960e01"},"vehicle_type_id":"4","last_reported":1727687467,"current_range_meters":38800,"station_id":"ce4bhq12rcd13ifvqhhg","pricing_plan_id":"cebpf4jnsgd1na2vs0mg"},{"bike_id":"a3c774c4-fd72-4b56-9ae2-8a187c6aa284","system_id":"levelo_inurba_marseille","lat":43.32286,"lon":5.38279,"is_reserved":false,"is_disabled":false,"rental_uris":{"android":"levelo://app?vid=a3c774c4-fd72-4b56-9ae2-8a187c6aa284","ios":"levelo://app?vid=a3c774c4-fd72-4b56-9ae2-8a187c6aa284"},"vehicle_type_id":"4","last_reported":1727687467,"current_range_meters":38800,"station_id":"ce4bhr12rcd13ifvqhqg","pricing_plan_id":"cebpf4jnsgd1na2vs0mg"},{"bike_id":"6dc7b44d-9d0d-42f9-bc6f-4dff416c688a","system_id":"levelo_inurba_marseille","lat":43.31349,"lon":5.36707,"is_reserved":false,"is_disabled":false,"rental_uris":{"android":"levelo://app?vid=6dc7b44d-9d0d-42f9-bc6f-4dff416c688a","ios":"levelo://app?vid=6dc7b44d-9d0d-42f9-bc6f-4dff416c688a"},"vehicle_type_id":"4","last_reported":1727687467,"current_range_meters":18000,"station_id":"ce4bgr92rcd13ifvqc6g","pricing_plan_id":"cebpf4jnsgd1na2vs0mg"},{"bike_id":"a3aaac64-fffa-4c76-8ee4-bfceec847ce6","system_id":"levelo_inurba_marseille","lat":43.23153,"lon":5.43711,"is_reserved":false,"is_disabled":false,"rental_uris":{"android":"levelo://app?vid=a3aaac64-fffa-4c76-8ee4-bfceec847ce6","ios":"levelo://app?vid=a3aaac64-fffa-4c76-8ee4-bfceec847ce6"},"vehicle_type_id":"4","last_reported":1727687467,"current_range_meters":20800,"station_id":"ce4bhmp2rcd13ifvqgog","pricing_plan_id":"cebpf4jnsgd1na2vs0mg"},{"bike_id":"bf02c8f9-3c51-4120-96af-e608b0ffbbf7","system_id":"levelo_inurba_marseille","lat":43.308,"lon":5.3816,"is_reserved":false,"is_disabled":false,"rental_uris":{"android":"levelo://app?vid=bf02c8f9-3c51-4120-96af-e608b0ffbbf7","ios":"levelo://app?vid=bf02c8f9-3c51-4120-96af-e608b0ffbbf7"},"vehicle_type_id":"4","last_reported":1727687467,"current_range_meters":38800,"station_id":"ce4bgt12rcd13ifvqce0","pricing_plan_id":"cebpf4jnsgd1na2vs0mg"},{"bike_id":"cd69a4a1-3151-4440-8350-fdc3290e54f9","system_id":"levelo_inurba_marseille","lat":43.30887,"lon":5.37209,"is_reserved":false,"is_disabled":false,"rental_uris":{"android":"levelo://app?vid=cd69a4a1-3151-4440-8350-fdc3290e54f9","ios":"levelo://app?vid=cd69a4a1-3151-4440-8350-fdc3290e54f9"},"vehicle_type_id":"4","last_reported":1727687467,"current_range_meters":38800,"station_id":"ce4bguh2rcd13ifvqckg","pricing_plan_id":"cebpf4jnsgd1na2vs0mg"},{"bike_id":"fdf58fcf-f044-4315-a660-7104fcf9428a","system_id":"levelo_inurba_marseille","lat":43.29274,"lon":5.4012,"is_reserved":false,"is_disabled":false,"rental_uris":{"android":"levelo://app?vid=fdf58fcf-f044-4315-a660-7104fcf9428a","ios":"levelo://app?vid=fdf58fcf-f044-4315-a660-7104fcf9428a"},"vehicle_type_id":"4","last_reported":1727687467,"current_range_meters":33200,"station_id":"ce4bh312rcd13ifvqdk0","pricing_plan_id":"cebpf4jnsgd1na2vs0mg"},{"bike_id":"e881c4f7-44b5-4401-b3e9-c7a41d7ce25f","system_id":"levelo_inurba_marseille","lat":43.31362,"lon":5.367,"is_reserved":false,"is_disabled":false,"rental_uris":{"android":"levelo://app?vid=e881c4f7-44b5-4401-b3e9-c7a41d7ce25f","ios":"levelo://app?vid=e881c4f7-44b5-4401-b3e9-c7a41d7ce25f"},"vehicle_type_id":"4","last_reported":1727687467,"current_range_meters":15200,"station_id":"ce4bgr92rcd13ifvqc6g","pricing_plan_id":"cebpf4jnsgd1na2vs0mg"},{"bike_id":"91c313de-faa0-4015-a828-af2fab7c16fc","system_id":"levelo_inurba_marseille","lat":43.27497,"lon":5.42449,"is_reserved":false,"is_disabled":false,"rental_uris":{"android":"levelo://app?vid=91c313de-faa0-4015-a828-af2fab7c16fc","ios":"levelo://app?vid=91c313de-faa0-4015-a828-af2fab7c16fc"},"vehicle_type_id":"4","last_reported":1727687467,"current_range_meters":30800,"station_id":"ce4bhn92rcd13ifvqgrg","pricing_plan_id":"cebpf4jnsgd1na2vs0mg"},{"bike_id":"8899af5b-9f62-4731-b7cd-121df8ac8752","system_id":"levelo_inurba_marseille","lat":43.30909,"lon":5.36861,"is_reserved":false,"is_disabled":false,"rental_uris":{"android":"levelo://app?vid=8899af5b-9f62-4731-b7cd-121df8ac8752","ios":"levelo://app?vid=8899af5b-9f62-4731-b7cd-121df8ac8752"},"vehicle_type_id":"4","last_reported":1727687467,"current_range_meters":27200,"station_id":"ce4bgn92rcd13ifvqbvg","pricing_plan_id":"cebpf4jnsgd1na2vs0mg"},{"bike_id":"bbfa4e14-7fa4-4aa7-91bf-e112b9082e51","system_id":"levelo_inurba_marseille","lat":43.23155,"lon":5.43711,"is_reserved":false,"is_disabled":false,"rental_uris":{"android":"levelo://app?vid=bbfa4e14-7fa4-4aa7-91bf-e112b9082e51","ios":"levelo://app?vid=bbfa4e14-7fa4-4aa7-91bf-e112b9082e51"},"vehicle_type_id":"4","last_reported":1727687467,"current_range_meters":24800,"station_id":"ce4bhmp2rcd13ifvqgog","pricing_plan_id":"cebpf4jnsgd1na2vs0mg"},{"bike_id":"ba21b44f-58a4-4670-a628-38986151cdce","system_id":"levelo_inurba_marseille","lat":43.32286,"lon":5.38277,"is_reserved":false,"is_disabled":false,"rental_uris":{"android":"levelo://app?vid=ba21b44f-58a4-4670-a628-38986151cdce","ios":"levelo://app?vid=ba21b44f-58a4-4670-a628-38986151cdce"},"vehicle_type_id":"4","last_reported":1727687467,"current_range_meters":30000,"station_id":"ce4bhr12rcd13ifvqhqg","pricing_plan_id":"cebpf4jnsgd1na2vs0mg"},{"bike_id":"8490e44e-0aff-4d7e-8a96-481d57cd3987","system_id":"levelo_inurba_marseille","lat":43.28518,"lon":5.39121,"is_reserved":false,"is_disabled":false,"rental_uris":{"android":"levelo://app?vid=8490e44e-0aff-4d7e-8a96-481d57cd3987","ios":"levelo://app?vid=8490e44e-0aff-4d7e-8a96-481d57cd3987"},"vehicle_type_id":"4","last_reported":1727687467,"current_range_meters":24400,"station_id":"ce4bh3p2rcd13ifvqdp0","pricing_plan_id":"cebpf4jnsgd1na2vs0mg"},{"bike_id":"3b337b3a-c414-4f20-8fcb-8ca13ff3b77d","system_id":"levelo_inurba_marseille","lat":43.26784,"lon":5.39421,"is_reserved":false,"is_disabled":false,"rental_uris":{"android":"levelo://app?vid=3b337b3a-c414-4f20-8fcb-8ca13ff3b77d","ios":"levelo://app?vid=3b337b3a-c414-4f20-8fcb-8ca13ff3b77d"},"vehicle_type_id":"4","last_reported":1727687467,"current_range_meters":12400,"station_id":"ce4bhh12rcd13ifvqfg0","pricing_plan_id":"cebpf4jnsgd1na2vs0mg"},{"bike_id":"d928b198-7f47-42e5-881f-d09bc72a3cb1","system_id":"levelo_inurba_marseille","lat":43.27313,"lon":5.39101,"is_reserved":false,"is_disabled":false,"rental_uris":{"android":"levelo://app?vid=d928b198-7f47-42e5-881f-d09bc72a3cb1","ios":"levelo://app?vid=d928b198-7f47-42e5-881f-d09bc72a3cb1"},"vehicle_type_id":"4","last_reported":1727687467,"current_range_meters":28800,"station_id":"ce4bhgp2rcd13ifvqfe0","pricing_plan_id":"cebpf4jnsgd1na2vs0mg"},{"bike_id":"81766707-7478-4563-b73b-833a28b5fc00","system_id":"levelo_inurba_marseille","lat":43.28699,"lon":5.37386,"is_reserved":false,"is_disabled":false,"rental_uris":{"android":"levelo://app?vid=81766707-7478-4563-b73b-833a28b5fc00","ios":"levelo://app?vid=81766707-7478-4563-b73b-833a28b5fc00"},"vehicle_type_id":"4","last_reported":1727687467,"current_range_meters":38800,"station_id":"ce4bh3p2rcd13ifvqdq0","pricing_plan_id":"cebpf4jnsgd1na2vs0mg"},{"bike_id":"0693e012-a30e-4292-ae6f-97057d3df14d","system_id":"levelo_inurba_marseille","lat":43.304275,"lon":5.397386,"is_reserved":false,"is_disabled":false,"rental_uris":{"android":"levelo://app?vid=0693e012-a30e-4292-ae6f-97057d3df14d","ios":"levelo://app?vid=0693e012-a30e-4292-ae6f-97057d3df14d"},"vehicle_type_id":"4","last_reported":1727687467,"current_range_meters":6800,"station_id":"ce4bh092rcd13ifvqd20","pricing_plan_id":"cebpf4jnsgd1na2vs0mg"},{"bike_id":"8fb6bf64-8807-43c2-9de9-c819ad9a1803","system_id":"levelo_inurba_marseille","lat":43.27306,"lon":5.39092,"is_reserved":false,"is_disabled":false,"rental_uris":{"android":"levelo://app?vid=8fb6bf64-8807-43c2-9de9-c819ad9a1803","ios":"levelo://app?vid=8fb6bf64-8807-43c2-9de9-c819ad9a1803"},"vehicle_type_id":"4","last_reported":1727687467,"current_range_meters":30800,"station_id":"ce4bhgp2rcd13ifvqfe0","pricing_plan_id":"cebpf4jnsgd1na2vs0mg"},{"bike_id":"4b2049e4-6660-4826-95a1-9ee705924c44","system_id":"levelo_inurba_marseille","lat":43.31224,"lon":5.36888,"is_reserved":false,"is_disabled":false,"rental_uris":{"android":"levelo://app?vid=4b2049e4-6660-4826-95a1-9ee705924c44","ios":"levelo://app?vid=4b2049e4-6660-4826-95a1-9ee705924c44"},"vehicle_type_id":"4","last_reported":1727687467,"current_range_meters":26000,"station_id":"ce4bgl92rcd13ifvqbq0","pricing_plan_id":"cebpf4jnsgd1na2vs0mg"},{"bike_id":"0137379c-2954-4f1f-88c1-7e1154557e93","system_id":"levelo_inurba_marseille","lat":43.30473,"lon":5.37901,"is_reserved":false,"is_disabled":false,"rental_uris":{"android":"levelo://app?vid=0137379c-2954-4f1f-88c1-7e1154557e93","ios":"levelo://app?vid=0137379c-2954-4f1f-88c1-7e1154557e93"},"vehicle_type_id":"4","last_reported":1727687467,"current_range_meters":10800,"station_id":"ce4bgup2rcd13ifvqcn0","pricing_plan_id":"cebpf4jnsgd1na2vs0mg"},{"bike_id":"efe910ee-caf8-4121-9528-1b5b4d0ae123","system_id":"levelo_inurba_marseille","lat":43.33018,"lon":5.39034,"is_reserved":false,"is_disabled":false,"rental_uris":{"android":"levelo://app?vid=efe910ee-caf8-4121-9528-1b5b4d0ae123","ios":"levelo://app?vid=efe910ee-caf8-4121-9528-1b5b4d0ae123"},"vehicle_type_id":"4","last_reported":1727687467,"current_range_meters":33600,"station_id":"ce4bhr92rcd13ifvqhrg","pricing_plan_id":"cebpf4jnsgd1na2vs0mg"},{"bike_id":"f54334eb-2195-4db5-889a-3481da52f9df","system_id":"levelo_inurba_marseille","lat":43.3229,"lon":5.38277,"is_reserved":false,"is_disabled":false,"rental_uris":{"android":"levelo://app?vid=f54334eb-2195-4db5-889a-3481da52f9df","ios":"levelo://app?vid=f54334eb-2195-4db5-889a-3481da52f9df"},"vehicle_type_id":"4","last_reported":1727687467,"current_range_meters":38800,"station_id":"ce4bhr12rcd13ifvqhqg","pricing_plan_id":"cebpf4jnsgd1na2vs0mg"},{"bike_id":"5b8f26ab-6b51-4c9d-ac3e-b872a6071183","system_id":"levelo_inurba_marseille","lat":43.312305,"lon":5.36885,"is_reserved":false,"is_disabled":false,"rental_uris":{"android":"levelo://app?vid=5b8f26ab-6b51-4c9d-ac3e-b872a6071183","ios":"levelo://app?vid=5b8f26ab-6b51-4c9d-ac3e-b872a6071183"},"vehicle_type_id":"4","last_reported":1727687467,"current_range_meters":23200,"station_id":"ce4bgl92rcd13ifvqbq0","pricing_plan_id":"cebpf4jnsgd1na2vs0mg"},{"bike_id":"b33f1dd9-2e0f-40c6-a5a3-06d78477d445","system_id":"levelo_inurba_marseille","lat":43.337444,"lon":5.374475,"is_reserved":false,"is_disabled":false,"rental_uris":{"android":"levelo://app?vid=b33f1dd9-2e0f-40c6-a5a3-06d78477d445","ios":"levelo://app?vid=b33f1dd9-2e0f-40c6-a5a3-06d78477d445"},"vehicle_type_id":"4","last_reported":1727687467,"current_range_meters":36800,"station_id":"","pricing_plan_id":"cebpf4jnsgd1na2vs0mg"},{"bike_id":"c1385bc4-3442-4ce3-baed-9bed2e4260e1","system_id":"levelo_inurba_marseille","lat":43.27484,"lon":5.42463,"is_reserved":false,"is_disabled":false,"rental_uris":{"android":"levelo://app?vid=c1385bc4-3442-4ce3-baed-9bed2e4260e1","ios":"levelo://app?vid=c1385bc4-3442-4ce3-baed-9bed2e4260e1"},"vehicle_type_id":"4","last_reported":1727687467,"current_range_meters":2800,"station_id":"ce4bhn92rcd13ifvqgrg","pricing_plan_id":"cebpf4jnsgd1na2vs0mg"},{"bike_id":"f1cd1477-7fb7-49ca-b6c1-94afa7dd6e57","system_id":"levelo_inurba_marseille","lat":43.27485,"lon":5.42466,"is_reserved":false,"is_disabled":false,"rental_uris":{"android":"levelo://app?vid=f1cd1477-7fb7-49ca-b6c1-94afa7dd6e57","ios":"levelo://app?vid=f1cd1477-7fb7-49ca-b6c1-94afa7dd6e57"},"vehicle_type_id":"4","last_reported":1727687467,"current_range_meters":29600,"station_id":"ce4bhn92rcd13ifvqgrg","pricing_plan_id":"cebpf4jnsgd1na2vs0mg"},{"bike_id":"5dfd9658-fa7f-46fc-b68f-ea8f76487a17","system_id":"levelo_inurba_marseille","lat":43.337444,"lon":5.374475,"is_reserved":false,"is_disabled":false,"rental_uris":{"android":"levelo://app?vid=5dfd9658-fa7f-46fc-b68f-ea8f76487a17","ios":"levelo://app?vid=5dfd9658-fa7f-46fc-b68f-ea8f76487a17"},"vehicle_type_id":"4","last_reported":1727687467,"current_range_meters":22400,"station_id":"","pricing_plan_id":"cebpf4jnsgd1na2vs0mg"},{"bike_id":"fed4f50b-6774-42e2-b203-0a1f14c6c96c","system_id":"levelo_inurba_marseille","lat":43.31355,"lon":5.36708,"is_reserved":false,"is_disabled":false,"rental_uris":{"android":"levelo://app?vid=fed4f50b-6774-42e2-b203-0a1f14c6c96c","ios":"levelo://app?vid=fed4f50b-6774-42e2-b203-0a1f14c6c96c"},"vehicle_type_id":"4","last_reported":1727687467,"current_range_meters":34000,"station_id":"","pricing_plan_id":"cebpf4jnsgd1na2vs0mg"},{"bike_id":"eab30390-0c07-449c-a891-cba8bee1096b","system_id":"levelo_inurba_marseille","lat":43.32315,"lon":5.38309,"is_reserved":false,"is_disabled":false,"rental_uris":{"android":"levelo://app?vid=eab30390-0c07-449c-a891-cba8bee1096b","ios":"levelo://app?vid=eab30390-0c07-449c-a891-cba8bee1096b"},"vehicle_type_id":"4","last_reported":1727687467,"current_range_meters":37600,"station_id":"ce4bhr12rcd13ifvqhqg","pricing_plan_id":"cebpf4jnsgd1na2vs0mg"},{"bike_id":"fdef7ae9-ba96-44b0-b95b-7baf90afc649","system_id":"levelo_inurba_marseille","lat":43.23957,"lon":5.36641,"is_reserved":false,"is_disabled":false,"rental_uris":{"android":"levelo://app?vid=fdef7ae9-ba96-44b0-b95b-7baf90afc649","ios":"levelo://app?vid=fdef7ae9-ba96-44b0-b95b-7baf90afc649"},"vehicle_type_id":"4","last_reported":1727687467,"current_range_meters":25200,"station_id":"ce4bhi12rcd13ifvqfp0","pricing_plan_id":"cebpf4jnsgd1na2vs0mg"},{"bike_id":"12b38438-2bf6-4cca-8ed2-a190ea38d96c","system_id":"levelo_inurba_marseille","lat":43.30772,"lon":5.37649,"is_reserved":false,"is_disabled":false,"rental_uris":{"android":"levelo://app?vid=12b38438-2bf6-4cca-8ed2-a190ea38d96c","ios":"levelo://app?vid=12b38438-2bf6-4cca-8ed2-a190ea38d96c"},"vehicle_type_id":"4","last_reported":1727687467,"current_range_meters":39200,"station_id":"ce4bgv92rcd13ifvqcq0","pricing_plan_id":"cebpf4jnsgd1na2vs0mg"},{"bike_id":"4738d962-55df-4319-86cb-804612b5415a","system_id":"levelo_inurba_marseille","lat":43.3055,"lon":5.36707,"is_reserved":false,"is_disabled":false,"rental_uris":{"android":"levelo://app?vid=4738d962-55df-4319-86cb-804612b5415a","ios":"levelo://app?vid=4738d962-55df-4319-86cb-804612b5415a"},"vehicle_type_id":"4","last_reported":1727687467,"current_range_meters":27600,"station_id":"ce4bgrp2rcd13ifvqc9g","pricing_plan_id":"cebpf4jnsgd1na2vs0mg"},{"bike_id":"98672799-3a98-4224-b245-c620e59aba63","system_id":"levelo_inurba_marseille","lat":43.27209,"lon":5.39184,"is_reserved":false,"is_disabled":false,"rental_uris":{"android":"levelo://app?vid=98672799-3a98-4224-b245-c620e59aba63","ios":"levelo://app?vid=98672799-3a98-4224-b245-c620e59aba63"},"vehicle_type_id":"4","last_reported":1727687467,"current_range_meters":19600,"station_id":"ce4bhhp2rcd13ifvqfm0","pricing_plan_id":"cebpf4jnsgd1na2vs0mg"},{"bike_id":"5e69d1c8-83c0-4dd2-a9d2-679137d369c8","system_id":"levelo_inurba_marseille","lat":43.32377,"lon":5.3892,"is_reserved":false,"is_disabled":false,"rental_uris":{"android":"levelo://app?vid=5e69d1c8-83c0-4dd2-a9d2-679137d369c8","ios":"levelo://app?vid=5e69d1c8-83c0-4dd2-a9d2-679137d369c8"},"vehicle_type_id":"4","last_reported":1727687467,"current_range_meters":26000,"station_id":"ce4bhqp2rcd13ifvqhog","pricing_plan_id":"cebpf4jnsgd1na2vs0mg"},{"bike_id":"87cff573-76d5-4906-a521-290887c376bc","system_id":"levelo_inurba_marseille","lat":43.29412,"lon":5.38637,"is_reserved":false,"is_disabled":false,"rental_uris":{"android":"levelo://app?vid=87cff573-76d5-4906-a521-290887c376bc","ios":"levelo://app?vid=87cff573-76d5-4906-a521-290887c376bc"},"vehicle_type_id":"4","last_reported":1727687467,"current_range_meters":24800,"station_id":"ce4bh492rcd13ifvqdug","pricing_plan_id":"cebpf4jnsgd1na2vs0mg"},{"bike_id":"23778a06-d156-4187-9007-0beadfd0bde7","system_id":"levelo_inurba_marseille","lat":43.23729,"lon":5.36349,"is_reserved":false,"is_disabled":false,"rental_uris":{"android":"levelo://app?vid=23778a06-d156-4187-9007-0beadfd0bde7","ios":"levelo://app?vid=23778a06-d156-4187-9007-0beadfd0bde7"},"vehicle_type_id":"4","last_reported":1727687467,"current_range_meters":36800,"station_id":"","pricing_plan_id":"cebpf4jnsgd1na2vs0mg"},{"bike_id":"c7694d65-6a44-48b3-994f-ca951d541d15","system_id":"levelo_inurba_marseille","lat":43.24808,"lon":5.37457,"is_reserved":false,"is_disabled":false,"rental_uris":{"android":"levelo://app?vid=c7694d65-6a44-48b3-994f-ca951d541d15","ios":"levelo://app?vid=c7694d65-6a44-48b3-994f-ca951d541d15"},"vehicle_type_id":"4","last_reported":1727687467,"current_range_meters":38000,"station_id":"ce4bhgh2rcd13ifvqfb0","pricing_plan_id":"cebpf4jnsgd1na2vs0mg"},{"bike_id":"3e55ba01-0a53-432a-b932-1fdd7fd1663d","system_id":"levelo_inurba_marseille","lat":43.29573,"lon":5.37513,"is_reserved":false,"is_disabled":false,"rental_uris":{"android":"levelo://app?vid=3e55ba01-0a53-432a-b932-1fdd7fd1663d","ios":"levelo://app?vid=3e55ba01-0a53-432a-b932-1fdd7fd1663d"},"vehicle_type_id":"4","last_reported":1727687467,"current_range_meters":38800,"station_id":"ce4bgh92rcd13ifvqb50","pricing_plan_id":"cebpf4jnsgd1na2vs0mg"},{"bike_id":"8eb43689-bce4-47ce-9c75-503086434bb0","system_id":"levelo_inurba_marseille","lat":43.30797,"lon":5.38159,"is_reserved":false,"is_disabled":false,"rental_uris":{"android":"levelo://app?vid=8eb43689-bce4-47ce-9c75-503086434bb0","ios":"levelo://app?vid=8eb43689-bce4-47ce-9c75-503086434bb0"},"vehicle_type_id":"4","last_reported":1727687467,"current_range_meters":32400,"station_id":"ce4bgt12rcd13ifvqce0","pricing_plan_id":"cebpf4jnsgd1na2vs0mg"},{"bike_id":"6f2d35b1-0278-43da-99ef-8d608ea1f489","system_id":"levelo_inurba_marseille","lat":43.23151,"lon":5.43711,"is_reserved":false,"is_disabled":false,"rental_uris":{"android":"levelo://app?vid=6f2d35b1-0278-43da-99ef-8d608ea1f489","ios":"levelo://app?vid=6f2d35b1-0278-43da-99ef-8d608ea1f489"},"vehicle_type_id":"4","last_reported":1727687467,"current_range_meters":22800,"station_id":"ce4bhmp2rcd13ifvqgog","pricing_plan_id":"cebpf4jnsgd1na2vs0mg"},{"bike_id":"e754d1df-23cf-4d30-bd34-21b6d47d20cf","system_id":"levelo_inurba_marseille","lat":43.30138,"lon":5.37419,"is_reserved":false,"is_disabled":false,"rental_uris":{"android":"levelo://app?vid=e754d1df-23cf-4d30-bd34-21b6d47d20cf","ios":"levelo://app?vid=e754d1df-23cf-4d30-bd34-21b6d47d20cf"},"vehicle_type_id":"4","last_reported":1727687467,"current_range_meters":38800,"station_id":"ce4bgs92rcd13ifvqcc0","pricing_plan_id":"cebpf4jnsgd1na2vs0mg"},{"bike_id":"eb055b23-4f17-4633-8a2c-044659cf713a","system_id":"levelo_inurba_marseille","lat":43.29896,"lon":5.4367,"is_reserved":false,"is_disabled":false,"rental_uris":{"android":"levelo://app?vid=eb055b23-4f17-4633-8a2c-044659cf713a","ios":"levelo://app?vid=eb055b23-4f17-4633-8a2c-044659cf713a"},"vehicle_type_id":"4","last_reported":1727687467,"current_range_meters":38800,"station_id":"ce4bhpp2rcd13ifvqhfg","pricing_plan_id":"cebpf4jnsgd1na2vs0mg"},{"bike_id":"f83e9b06-2cf6-4c59-953f-b1c85b67b203","system_id":"levelo_inurba_marseille","lat":43.2668,"lon":5.38269,"is_reserved":false,"is_disabled":false,"rental_uris":{"android":"levelo://app?vid=f83e9b06-2cf6-4c59-953f-b1c85b67b203","ios":"levelo://app?vid=f83e9b06-2cf6-4c59-953f-b1c85b67b203"},"vehicle_type_id":"4","last_reported":1727687467,"current_range_meters":19600,"station_id":"ce4bhg92rcd13ifvqf90","pricing_plan_id":"cebpf4jnsgd1na2vs0mg"},{"bike_id":"512bb4ed-c2e7-473f-aa47-7ed3f92d1436","system_id":"levelo_inurba_marseille","lat":43.27488,"lon":5.42461,"is_reserved":false,"is_disabled":false,"rental_uris":{"android":"levelo://app?vid=512bb4ed-c2e7-473f-aa47-7ed3f92d1436","ios":"levelo://app?vid=512bb4ed-c2e7-473f-aa47-7ed3f92d1436"},"vehicle_type_id":"4","last_reported":1727687467,"current_range_meters":35200,"station_id":"ce4bhn92rcd13ifvqgrg","pricing_plan_id":"cebpf4jnsgd1na2vs0mg"},{"bike_id":"3d4a77d3-467a-4481-ae96-87f59aa9d985","system_id":"levelo_inurba_marseille","lat":43.241757,"lon":5.397367,"is_reserved":false,"is_disabled":false,"rental_uris":{"android":"levelo://app?vid=3d4a77d3-467a-4481-ae96-87f59aa9d985","ios":"levelo://app?vid=3d4a77d3-467a-4481-ae96-87f59aa9d985"},"vehicle_type_id":"4","last_reported":1727687467,"current_range_meters":27200,"station_id":"ce4bhn12rcd13ifvqgpg","pricing_plan_id":"cebpf4jnsgd1na2vs0mg"},{"bike_id":"746ed673-5074-4937-8aad-1f54c9896744","system_id":"levelo_inurba_marseille","lat":43.31081,"lon":5.42441,"is_reserved":false,"is_disabled":false,"rental_uris":{"android":"levelo://app?vid=746ed673-5074-4937-8aad-1f54c9896744","ios":"levelo://app?vid=746ed673-5074-4937-8aad-1f54c9896744"},"vehicle_type_id":"4","last_reported":1727687467,"current_range_meters":36400,"station_id":"ce4bhp92rcd13ifvqhag","pricing_plan_id":"cebpf4jnsgd1na2vs0mg"},{"bike_id":"304bfe0c-c0f3-401c-95dc-d023af22de40","system_id":"levelo_inurba_marseille","lat":43.26059,"lon":5.39392,"is_reserved":false,"is_disabled":false,"rental_uris":{"android":"levelo://app?vid=304bfe0c-c0f3-401c-95dc-d023af22de40","ios":"levelo://app?vid=304bfe0c-c0f3-401c-95dc-d023af22de40"},"vehicle_type_id":"4","last_reported":1727687467,"current_range_meters":38400,"station_id":"ce4bhh92rcd13ifvqfj0","pricing_plan_id":"cebpf4jnsgd1na2vs0mg"},{"bike_id":"6447c06d-b492-4728-825a-47cb8653b50f","system_id":"levelo_inurba_marseille","lat":43.27369,"lon":5.3626,"is_reserved":false,"is_disabled":false,"rental_uris":{"android":"levelo://app?vid=6447c06d-b492-4728-825a-47cb8653b50f","ios":"levelo://app?vid=6447c06d-b492-4728-825a-47cb8653b50f"},"vehicle_type_id":"4","last_reported":1727687467,"current_range_meters":2800,"station_id":"ce4bhbh2rcd13ifvqeo0","pricing_plan_id":"cebpf4jnsgd1na2vs0mg"},{"bike_id":"a14f3211-c1c5-415e-a33e-ce956b7508e7","system_id":"levelo_inurba_marseille","lat":43.27491,"lon":5.42458,"is_reserved":false,"is_disabled":false,"rental_uris":{"android":"levelo://app?vid=a14f3211-c1c5-415e-a33e-ce956b7508e7","ios":"levelo://app?vid=a14f3211-c1c5-415e-a33e-ce956b7508e7"},"vehicle_type_id":"4","last_reported":1727687467,"current_range_meters":28400,"station_id":"ce4bhn92rcd13ifvqgrg","pricing_plan_id":"cebpf4jnsgd1na2vs0mg"},{"bike_id":"a6409f39-b477-4801-848d-7195b46675a8","system_id":"levelo_inurba_marseille","lat":43.30145,"lon":5.37427,"is_reserved":false,"is_disabled":false,"rental_uris":{"android":"levelo://app?vid=a6409f39-b477-4801-848d-7195b46675a8","ios":"levelo://app?vid=a6409f39-b477-4801-848d-7195b46675a8"},"vehicle_type_id":"4","last_reported":1727687467,"current_range_meters":38800,"station_id":"ce4bgs92rcd13ifvqcc0","pricing_plan_id":"cebpf4jnsgd1na2vs0mg"},