{"last_updated":1687540110,"ttl":30,"version":"2.2","data":{"bikes":[{"bike_id":"432e353f-5294-475f-9eb5-e939a20eeb97","system_id":"levelo_inurba_marseille","lat":43.31191,"lon":5.36784,"is_reserved":false,"is_disabled":false,"rental_uris":{"android":"levelo://app?vid=432e353f-5294-475f-9eb5-e939a20eeb97","ios":"levelo://app?vid=432e353f-5294-475f-9eb5-e939a20eeb97"},"vehicle_type_id":"4","last_reported":1687540112,"current_range_meters":8400,"station_id":"","pricing_plan_id":"free"},{"bike_id":"3fde5538-4c1c-4644-b684-8c9df275d62a","system_id":"levelo_inurba_marseille","lat":43.314811,"lon":5.373103,"is_reserved":false,"is_disabled":false,"rental_uris":{"android":"levelo://app?vid=3fde5538-4c1c-4644-b684-8c9df275d62a","ios":"levelo://app?vid=3fde5538-4c1c-4644-b684-8c9df275d62a"},"vehicle_type_id":"4","last_reported":1687540112,"current_range_meters":4000,"station_id":"ce4bgt12rcd13ifvqcd0","pricing_plan_id":"free"},{"bike_id":"baf91b27-dbfa-49bd-8992-2211be88f9a8","system_id":"levelo_inurba_marseille","lat":43.314811,"lon":5.373103,"is_reserved":false,"is_disabled":false,"rental_uris":{"android":"levelo://app?vid=baf91b27-dbfa-49bd-8992-2211be88f9a8","ios":"levelo://app?vid=baf91b27-dbfa-49bd-8992-2211be88f9a8"},"vehicle_type_id":"4","last_reported":1687540112,"current_range_meters":22000,"station_id":"ce4bgt12rcd13ifvqcd0","pricing_plan_id":"free"},{"bike_id":"37c432a5-d97d-4508-b050-c621e46bcc6e","system_id":"levelo_inurba_marseille","lat":43.30938,"lon":5.37261,"is_reserved":false,"is_disabled":false,"rental_uris":{"android":"levelo://app?vid=37c432a5-d97d-4508-b050-c621e46bcc6e","ios":"levelo://app?vid=37c432a5-d97d-4508-b050-c621e46bcc6e"},"vehicle_type_id":"4","last_reported":1687540112,"current_range_meters":30000,"station_id":"","pricing_plan_id":"free"},{"bike_id":"1b26d491-1947-4ef5-9dc1-9d36d4cc48ad","system_id":"levelo_inurba_marseille","lat":43.31114,"lon":5.37771,"is_reserved":false,"is_disabled":false,"rental_uris":{"android":"levelo://app?vid=1b26d491-1947-4ef5-9dc1-9d36d4cc48ad","ios":"levelo://app?vid=1b26d491-1947-4ef5-9dc1-9d36d4cc48ad"},"vehicle_type_id":"4","last_reported":1687540112,"current_range_meters":12800,"station_id":"ce4bgt92rcd13ifvqcg0","pricing_plan_id":"free"},{"bike_id":"45db12a5-c90f-41d0-93f3-fee842b673ec","system_id":"levelo_inurba_marseille","lat":43.31092,"lon":5.37785,"is_reserved":false,"is_disabled":false,"rental_uris":{"android":"levelo://app?vid=45db12a5-c90f-41d0-93f3-fee842b673ec","ios":"levelo://app?vid=45db12a5-c90f-41d0-93f3-fee842b673ec"},"vehicle_type_id":"4","last_reported":1687540112,"current_range_meters":12800,"station_id":"","pricing_plan_id":"free"},{"bike_id":"90eea548-d8f5-4f4d-9a7a-59d5c6b60123","system_id":"levelo_inurba_marseille","lat":43.30304,"lon":5.368987,"is_reserved":false,"is_disabled":false,"rental_uris":{"android":"levelo://app?vid=90eea548-d8f5-4f4d-9a7a-59d5c6b60123","ios":"levelo://app?vid=90eea548-d8f5-4f4d-9a7a-59d5c6b60123"},"vehicle_type_id":"4","last_reported":1687540112,"current_range_meters":0,"station_id":"ce4bgqh2rcd13ifvqc5g","pricing_plan_id":"free"},{"bike_id":"a02f9ac6-2a32-462b-8a65-d60c34a98f82","system_id":"levelo_inurba_marseille","lat":43.301939,"lon":5.366286,"is_reserved":false,"is_disabled":false,"rental_uris":{"android":"levelo://app?vid=a02f9ac6-2a32-462b-8a65-d60c34a98f82","ios":"levelo://app?vid=a02f9ac6-2a32-462b-8a65-d60c34a98f82"},"vehicle_type_id":"4","last_reported":1687540112,"current_range_meters":21600,"station_id":"ce4bgrh2rcd13ifvqc8g","pricing_plan_id":"free"},{"bike_id":"c4a7be82-1cf9-4a8b-adf1-edc4dfc0cdda","system_id":"levelo_inurba_marseille","lat":43.30792,"lon":5.3816,"is_reserved":false,"is_disabled":false,"rental_uris":{"android":"levelo://app?vid=c4a7be82-1cf9-4a8b-adf1-edc4dfc0cdda","ios":"levelo://app?vid=c4a7be82-1cf9-4a8b-adf1-edc4dfc0cdda"},"vehicle_type_id":"4","last_reported":1687540112,"current_range_meters":9200,"station_id":"ce4bgt12rcd13ifvqce0","pricing_plan_id":"free"},{"bike_id":"b36af94d-89da-45c0-b959-34c45167ee4f","system_id":"levelo_inurba_marseille","lat":43.30459,"lon":5.37899,"is_reserved":false,"is_disabled":false,"rental_uris":{"android":"levelo://app?vid=b36af94d-89da-45c0-b959-34c45167ee4f","ios":"levelo://app?vid=b36af94d-89da-45c0-b959-34c45167ee4f"},"vehicle_type_id":"4","last_reported":1687540112,"current_range_meters":0,"station_id":"ce4bgup2rcd13ifvqcn0","pricing_plan_id":"free"},{"bike_id":"4095bf88-1b6f-4111-96cd-56d8b16cdbae","system_id":"levelo_inurba_marseille","lat":43.31418,"lon":5.38453,"is_reserved":false,"is_disabled":false,"rental_uris":{"android":"levelo://app?vid=4095bf88-1b6f-4111-96cd-56d8b16cdbae","ios":"levelo://app?vid=4095bf88-1b6f-4111-96cd-56d8b16cdbae"},"vehicle_type_id":"4","last_reported":1687540112,"current_range_meters":8400,"station_id":"","pricing_plan_id":"free"},{"bike_id":"b06c1f65-d960-4631-90d6-abd895972aa7","system_id":"levelo_inurba_marseille","lat":43.313571,"lon":5.384829,"is_reserved":false,"is_disabled":false,"rental_uris":{"android":"levelo://app?vid=b06c1f65-d960-4631-90d6-abd895972aa7","ios":"levelo://app?vid=b06c1f65-d960-4631-90d6-abd895972aa7"},"vehicle_type_id":"4","last_reported":1687540112,"current_range_meters":31200,"station_id":"ce4bgt92rcd13ifvqcf0","pricing_plan_id":"free"},{"bike_id":"52b2f393-226b-4a07-ad2f-27532e7e2259","system_id":"levelo_inurba_marseille","lat":43.299222,"lon":5.365554,"is_reserved":false,"is_disabled":false,"rental_uris":{"android":"levelo://app?vid=52b2f393-226b-4a07-ad2f-27532e7e2259","ios":"levelo://app?vid=52b2f393-226b-4a07-ad2f-27532e7e2259"},"vehicle_type_id":"4","last_reported":1687540112,"current_range_meters":12800,"station_id":"ce4bgm92rcd13ifvqbr0","pricing_plan_id":"free"},{"bike_id":"da1461d5-7130-4b84-b91c-dde7d83c3215","system_id":"levelo_inurba_marseille","lat":43.298433,"lon":5.362774,"is_reserved":false,"is_disabled":false,"rental_uris":{"android":"levelo://app?vid=da1461d5-7130-4b84-b91c-dde7d83c3215","ios":"levelo://app?vid=da1461d5-7130-4b84-b91c-dde7d83c3215"},"vehicle_type_id":"4","last_reported":1687540112,"current_range_meters":7200,"station_id":"ce4bgpp2rcd13ifvqc3g","pricing_plan_id":"free"},{"bike_id":"5686642d-a0fb-445e-b06c-7a4eb4575857","system_id":"levelo_inurba_marseille","lat":43.298433,"lon":5.362774,"is_reserved":false,"is_disabled":false,"rental_uris":{"android":"levelo://app?vid=5686642d-a0fb-445e-b06c-7a4eb4575857","ios":"levelo://app?vid=5686642d-a0fb-445e-b06c-7a4eb4575857"},"vehicle_type_id":"4","last_reported":1687540112,"current_range_meters":6400,"station_id":"ce4bgpp2rcd13ifvqc3g","pricing_plan_id":"free"},{"bike_id":"197b55c2-0df2-4c96-aa67-1dc40b11fd3f","system_id":"levelo_inurba_marseille","lat":43.299243,"lon":5.374807,"is_reserved":false,"is_disabled":false,"rental_uris":{"android":"levelo://app?vid=197b55c2-0df2-4c96-aa67-1dc40b11fd3f","ios":"levelo://app?vid=197b55c2-0df2-4c96-aa67-1dc40b11fd3f"},"vehicle_type_id":"4","last_reported":1687540112,"current_range_meters":800,"station_id":"ce4bgjh2rcd13ifvqbg0","pricing_plan_id":"free"},{"bike_id":"40736e77-dc09-4bc0-8098-4f59c22f3029","system_id":"levelo_inurba_marseille","lat":43.311722,"lon":5.387247,"is_reserved":false,"is_disabled":false,"rental_uris":{"android":"levelo://app?vid=40736e77-dc09-4bc0-8098-4f59c22f3029","ios":"levelo://app?vid=40736e77-dc09-4bc0-8098-4f59c22f3029"},"vehicle_type_id":"4","last_reported":1687540112,"current_range_meters":4800,"station_id":"ce4bgv12rcd13ifvqcp0","pricing_plan_id":"free"},{"bike_id":"4fec0bb0-e70f-4f70-b1c6-9cc7f2889857","system_id":"levelo_inurba_marseille","lat":43.311722,"lon":5.387247,"is_reserved":false,"is_disabled":false,"rental_uris":{"android":"levelo://app?vid=4fec0bb0-e70f-4f70-b1c6-9cc7f2889857","ios":"levelo://app?vid=4fec0bb0-e70f-4f70-b1c6-9cc7f2889857"},"vehicle_type_id":"4","last_reported":1687540112,"current_range_meters":23600,"station_id":"ce4bgv12rcd13ifvqcp0","pricing_plan_id":"free"},{"bike_id":"975b6ecf-aa92-496a-b59c-a3f236c711a9","system_id":"levelo_inurba_marseille","lat":43.311722,"lon":5.387247,"is_reserved":false,"is_disabled":false,"rental_uris":{"android":"levelo://app?vid=975b6ecf-aa92-496a-b59c-a3f236c711a9","ios":"levelo://app?vid=975b6ecf-aa92-496a-b59c-a3f236c711a9"},"vehicle_type_id":"4","last_reported":1687540112,"current_range_meters":6400,"station_id":"ce4bgv12rcd13ifvqcp0","pricing_plan_id":"free"},{"bike_id":"28318da3-f8f9-4068-a3d7-231dc72145e2","system_id":"levelo_inurba_marseille","lat":43.311722,"lon":5.387247,"is_reserved":false,"is_disabled":false,"rental_uris":{"android":"levelo://app?vid=28318da3-f8f9-4068-a3d7-231dc72145e2","ios":"levelo://app?vid=28318da3-f8f9-4068-a3d7-231dc72145e2"},"vehicle_type_id":"4","last_reported":1687540112,"current_range_meters":16800,"station_id":"ce4bgv12rcd13ifvqcp0","pricing_plan_id":"free"},{"bike_id":"ec9f1dae-6f42-4551-a72f-1ec8d8a00aa8","system_id":"levelo_inurba_marseille","lat":43.311722,"lon":5.387247,"is_reserved":false,"is_disabled":false,"rental_uris":{"android":"levelo://app?vid=ec9f1dae-6f42-4551-a72f-1ec8d8a00aa8","ios":"levelo://app?vid=ec9f1dae-6f42-4551-a72f-1ec8d8a00aa8"},"vehicle_type_id":"4","last_reported":1687540112,"current_range_meters":13200,"station_id":"ce4bgv12rcd13ifvqcp0","pricing_plan_id":"free"},{"bike_id":"24571607-b4c9-4f06-b3ab-6ba22784ab1f","system_id":"levelo_inurba_marseille","lat":43.29782,"lon":5.37109,"is_reserved":false,"is_disabled":false,"rental_uris":{"android":"levelo://app?vid=24571607-b4c9-4f06-b3ab-6ba22784ab1f","ios":"levelo://app?vid=24571607-b4c9-4f06-b3ab-6ba22784ab1f"},"vehicle_type_id":"4","last_reported":1687540112,"current_range_meters":10400,"station_id":"ce4bgop2rcd13ifvqc1g","pricing_plan_id":"free"},{"bike_id":"47753670-1acc-4fd6-b054-0b5f0c4d3243","system_id":"levelo_inurba_marseille","lat":43.297794,"lon":5.370888,"is_reserved":false,"is_disabled":false,"rental_uris":{"android":"levelo://app?vid=47753670-1acc-4fd6-b054-0b5f0c4d3243","ios":"levelo://app?vid=47753670-1acc-4fd6-b054-0b5f0c4d3243"},"vehicle_type_id":"4","last_reported":1687540112,"current_range_meters":9600,"station_id":"ce4bgop2rcd13ifvqc1g","pricing_plan_id":"free"},{"bike_id":"2a2ca886-9a5c-4676-8676-cbac43887c13","system_id":"levelo_inurba_marseille","lat":43.297794,"lon":5.370888,"is_reserved":false,"is_disabled":false,"rental_uris":{"android":"levelo://app?vid=2a2ca886-9a5c-4676-8676-cbac43887c13","ios":"levelo://app?vid=2a2ca886-9a5c-4676-8676-cbac43887c13"},"vehicle_type_id":"4","last_reported":1687540112,"current_range_meters":15200,"station_id":"ce4bgop2rcd13ifvqc1g","pricing_plan_id":"free"},{"bike_id":"68c8ed7f-e7f6-4fcf-a77c-20f24840740b","system_id":"levelo_inurba_marseille","lat":43.32828,"lon":5.36693,"is_reserved":false,"is_disabled":false,"rental_uris":{"android":"levelo://app?vid=68c8ed7f-e7f6-4fcf-a77c-20f24840740b","ios":"levelo://app?vid=68c8ed7f-e7f6-4fcf-a77c-20f24840740b"},"vehicle_type_id":"4","last_reported":1687540112,"current_range_meters":22800,"station_id":"ce4bhs92rcd13ifvqi0g","pricing_plan_id":"free"},{"bike_id":"aff5785a-0749-4c8c-a156-fc8e790e775f","system_id":"levelo_inurba_marseille","lat":43.32831,"lon":5.3669,"is_reserved":false,"is_disabled":false,"rental_uris":{"android":"levelo://app?vid=aff5785a-0749-4c8c-a156-fc8e790e775f","ios":"levelo://app?vid=aff5785a-0749-4c8c-a156-fc8e790e775f"},"vehicle_type_id":"4","last_reported":1687540112,"current_range_meters":0,"station_id":"ce4bhs92rcd13ifvqi0g","pricing_plan_id":"free"},{"bike_id":"d6aa4b8f-0fbd-492f-a726-f1b64033634e","system_id":"levelo_inurba_marseille","lat":43.297,"lon":5.36442,"is_reserved":false,"is_disabled":false,"rental_uris":{"android":"levelo://app?vid=d6aa4b8f-0fbd-492f-a726-f1b64033634e","ios":"levelo://app?vid=d6aa4b8f-0fbd-492f-a726-f1b64033634e"},"vehicle_type_id":"4","last_reported":1687540112,"current_range_meters":10400,"station_id":"","pricing_plan_id":"free"},{"bike_id":"83044bd1-7ab1-48af-a368-71a7dc1ff575","system_id":"levelo_inurba_marseille","lat":43.296129,"lon":5.370777,"is_reserved":false,"is_disabled":false,"rental_uris":{"android":"levelo://app?vid=83044bd1-7ab1-48af-a368-71a7dc1ff575","ios":"levelo://app?vid=83044bd1-7ab1-48af-a368-71a7dc1ff575"},"vehicle_type_id":"4","last_reported":1687540112,"current_range_meters":31200,"station_id":"ce4bgnh2rcd13ifvqc0g","pricing_plan_id":"free"},{"bike_id":"041bc147-ef2f-419b-bb81-deca3bdf89e2","system_id":"levelo_inurba_marseille","lat":43.29611,"lon":5.36046,"is_reserved":false,"is_disabled":false,"rental_uris":{"android":"levelo://app?vid=041bc147-ef2f-419b-bb81-deca3bdf89e2","ios":"levelo://app?vid=041bc147-ef2f-419b-bb81-deca3bdf89e2"},"vehicle_type_id":"4","last_reported":1687540112,"current_range_meters":10000,"station_id":"","pricing_plan_id":"free"},{"bike_id":"8b47ecbb-fecb-4978-a6ad-6bf56da73f4f","system_id":"levelo_inurba_marseille","lat":43.309589,"lon":5.390258,"is_reserved":false,"is_disabled":false,"rental_uris":{"android":"levelo://app?vid=8b47ecbb-fecb-4978-a6ad-6bf56da73f4f","ios":"levelo://app?vid=8b47ecbb-fecb-4978-a6ad-6bf56da73f4f"},"vehicle_type_id":"4","last_reported":1687540112,"current_range_meters":9200,"station_id":"ce4bgup2rcd13ifvqco0","pricing_plan_id":"free"},{"bike_id":"039e2417-326e-48e9-87cd-8895cb0620b8","system_id":"levelo_inurba_marseille","lat":43.31759,"lon":5.39014,"is_reserved":false,"is_disabled":false,"rental_uris":{"android":"levelo://app?vid=039e2417-326e-48e9-87cd-8895cb0620b8","ios":"levelo://app?vid=039e2417-326e-48e9-87cd-8895cb0620b8"},"vehicle_type_id":"4","last_reported":1687540112,"current_range_meters":17200,"station_id":"ce4bhqp2rcd13ifvqhng","pricing_plan_id":"free"},{"bike_id":"a26b3693-5eee-4958-8ca8-8a69361289e6","system_id":"levelo_inurba_marseille","lat":43.317557,"lon":5.390173,"is_reserved":false,"is_disabled":false,"rental_uris":{"android":"levelo://app?vid=a26b3693-5eee-4958-8ca8-8a69361289e6","ios":"levelo://app?vid=a26b3693-5eee-4958-8ca8-8a69361289e6"},"vehicle_type_id":"4","last_reported":1687540112,"current_range_meters":31200,"station_id":"ce4bhqp2rcd13ifvqhng","pricing_plan_id":"free"},{"bike_id":"694d84e1-b24e-42d2-8d16-576479114e55","system_id":"levelo_inurba_marseille","lat":43.31759,"lon":5.39018,"is_reserved":false,"is_disabled":false,"rental_uris":{"android":"levelo://app?vid=694d84e1-b24e-42d2-8d16-576479114e55","ios":"levelo://app?vid=694d84e1-b24e-42d2-8d16-576479114e55"},"vehicle_type_id":"4","last_reported":1687540112,"current_range_meters":17600,"station_id":"ce4bhqp2rcd13ifvqhng","pricing_plan_id":"free"},{"bike_id":"9c46eda4-ce28-4132-a992-9b4bc94941ea","system_id":"levelo_inurba_marseille","lat":43.3176,"lon":5.39021,"is_reserved":false,"is_disabled":false,"rental_uris":{"android":"levelo://app?vid=9c46eda4-ce28-4132-a992-9b4bc94941ea","ios":"levelo://app?vid=9c46eda4-ce28-4132-a992-9b4bc94941ea"},"vehicle_type_id":"4","last_reported":1687540112,"current_range_meters":21600,"station_id":"ce4bhqp2rcd13ifvqhng","pricing_plan_id":"free"},{"bike_id":"c6302fff-6a1d-4a7e-a94a-fded06b72bcf","system_id":"levelo_inurba_marseille","lat":43.31758,"lon":5.39023,"is_reserved":false,"is_disabled":false,"rental_uris":{"android":"levelo://app?vid=c6302fff-6a1d-4a7e-a94a-fded06b72bcf","ios":"levelo://app?vid=c6302fff-6a1d-4a7e-a94a-fded06b72bcf"},"vehicle_type_id":"4","last_reported":1687540112,"current_range_meters":22800,"station_id":"ce4bhqp2rcd13ifvqhng","pricing_plan_id":"free"},{"bike_id":"db02bbbe-80ee-4906-99dc-50d65299a63b","system_id":"levelo_inurba_marseille","lat":43.298037,"lon":5.381066,"is_reserved":false,"is_disabled":false,"rental_uris":{"android":"levelo://app?vid=db02bbbe-80ee-4906-99dc-50d65299a63b","ios":"levelo://app?vid=db02bbbe-80ee-4906-99dc-50d65299a63b"},"vehicle_type_id":"4","last_reported":1687540112,"current_range_meters":6400,"station_id":"ce4bgip2rcd13ifvqbb0","pricing_plan_id":"free"},{"bike_id":"f9c4c0cf-b443-439e-a5a7-087fdb1eef87","system_id":"levelo_inurba_marseille","lat":43.30431,"lon":5.38896,"is_reserved":false,"is_disabled":false,"rental_uris":{"android":"levelo://app?vid=f9c4c0cf-b443-439e-a5a7-087fdb1eef87","ios":"levelo://app?vid=f9c4c0cf-b443-439e-a5a7-087fdb1eef87"},"vehicle_type_id":"4","last_reported":1687540112,"current_range_meters":15200,"station_id":"ce4bgk12rcd13ifvqbi0","pricing_plan_id":"free"},{"bike_id":"7df1ce26-e73c-428c-a035-cda2653eafd3","system_id":"levelo_inurba_marseille","lat":43.295279,"lon":5.375048,"is_reserved":false,"is_disabled":false,"rental_uris":{"android":"levelo://app?vid=7df1ce26-e73c-428c-a035-cda2653eafd3","ios":"levelo://app?vid=7df1ce26-e73c-428c-a035-cda2653eafd3"},"vehicle_type_id":"4","last_reported":1687540112,"current_range_meters":11600,"station_id":"ce4bgkp2rcd13ifvqbmg","pricing_plan_id":"free"},{"bike_id":"7df49e35-b6cc-49a6-bf53-8916b527b653","system_id":"levelo_inurba_marseille","lat":43.299717,"lon":5.384845,"is_reserved":false,"is_disabled":false,"rental_uris":{"android":"levelo://app?vid=7df49e35-b6cc-49a6-bf53-8916b527b653","ios":"levelo://app?vid=7df49e35-b6cc-49a6-bf53-8916b527b653"},"vehicle_type_id":"4","last_reported":1687540112,"current_range_meters":5600,"station_id":"ce4bgj92rcd13ifvqbd0","pricing_plan_id":"free"},{"bike_id":"f0de8da8-412d-4057-abd7-2175b1204aef","system_id":"levelo_inurba_marseille","lat":43.299717,"lon":5.384845,"is_reserved":false,"is_disabled":false,"rental_uris":{"android":"levelo://app?vid=f0de8da8-412d-4057-abd7-2175b1204aef","ios":"levelo://app?vid=f0de8da8-412d-4057-abd7-2175b1204aef"},"vehicle_type_id":"4","last_reported":1687540112,"current_range_meters":16000,"station_id":"ce4bgj92rcd13ifvqbd0","pricing_plan_id":"free"},{"bike_id":"4a949068-4713-4576-9f94-25e54ff56166","system_id":"levelo_inurba_marseille","lat":43.32367,"lon":5.388836,"is_reserved":false,"is_disabled":false,"rental_uris":{"android":"levelo://app?vid=4a949068-4713-4576-9f94-25e54ff56166","ios":"levelo://app?vid=4a949068-4713-4576-9f94-25e54ff56166"},"vehicle_type_id":"4","last_reported":1687540112,"current_range_meters":17600,"station_id":"ce4bhqp2rcd13ifvqhog","pricing_plan_id":"free"},{"bike_id":"9303733e-74b0-4808-9e80-d0e6302adde5","system_id":"levelo_inurba_marseille","lat":43.32367,"lon":5.388836,"is_reserved":false,"is_disabled":false,"rental_uris":{"android":"levelo://app?vid=9303733e-74b0-4808-9e80-d0e6302adde5","ios":"levelo://app?vid=9303733e-74b0-4808-9e80-d0e6302adde5"},"vehicle_type_id":"4","last_reported":1687540112,"current_range_meters":800,"station_id":"ce4bhqp2rcd13ifvqhog","pricing_plan_id":"free"},{"bike_id":"8f7066d4-0cd5-40f5-b39b-9a7219e69cdc","system_id":"levelo_inurba_marseille","lat":43.32367,"lon":5.388836,"is_reserved":false,"is_disabled":false,"rental_uris":{"android":"levelo://app?vid=8f7066d4-0cd5-40f5-b39b-9a7219e69cdc","ios":"levelo://app?vid=8f7066d4-0cd5-40f5-b39b-9a7219e69cdc"},"vehicle_type_id":"4","last_reported":1687540112,"current_range_meters":25600,"station_id":"ce4bhqp2rcd13ifvqhog","pricing_plan_id":"free"},{"bike_id":"3b934c1a-8db9-446c-8882-0ec02c26c5d5","system_id":"levelo_inurba_marseille","lat":43.305994,"lon":5.393687,"is_reserved":false,"is_disabled":false,"rental_uris":{"android":"levelo://app?vid=3b934c1a-8db9-446c-8882-0ec02c26c5d5","ios":"levelo://app?vid=3b934c1a-8db9-446c-8882-0ec02c26c5d5"},"vehicle_type_id":"4","last_reported":1687540112,"current_range_meters":8400,"station_id":"ce4bh0p2rcd13ifvqd80","pricing_plan_id":"free"},{"bike_id":"2cc88f70-5fcf-4b32-9698-dedf3e5d5864","system_id":"levelo_inurba_marseille","lat":43.30591,"lon":5.39358,"is_reserved":false,"is_disabled":false,"rental_uris":{"android":"levelo://app?vid=2cc88f70-5fcf-4b32-9698-dedf3e5d5864","ios":"levelo://app?vid=2cc88f70-5fcf-4b32-9698-dedf3e5d5864"},"vehicle_type_id":"4","last_reported":1687540112,"current_range_meters":14000,"station_id":"ce4bh0p2rcd13ifvqd80","pricing_plan_id":"free"},{"bike_id":"53e58073-519b-4f8d-96ad-f7b95459428f","system_id":"levelo_inurba_marseille","lat":43.29266,"lon":5.35959,"is_reserved":false,"is_disabled":false,"rental_uris":{"android":"levelo://app?vid=53e58073-519b-4f8d-96ad-f7b95459428f","ios":"levelo://app?vid=53e58073-519b-4f8d-96ad-f7b95459428f"},"vehicle_type_id":"4","last_reported":1687540112,"current_range_meters":8400,"station_id":"","pricing_plan_id":"free"},{"bike_id":"da253266-9e5a-4f33-8392-8cac9c0f2279","system_id":"levelo_inurba_marseille","lat":43.30296,"lon":5.39215,"is_reserved":false,"is_disabled":false,"rental_uris":{"android":"levelo://app?vid=da253266-9e5a-4f33-8392-8cac9c0f2279","ios":"levelo://app?vid=da253266-9e5a-4f33-8392-8cac9c0f2279"},"vehicle_type_id":"4","last_reported":1687540112,"current_range_meters":12800,"station_id":"ce4bgkh2rcd13ifvqbk0","pricing_plan_id":"free"},{"bike_id":"71a0b58c-ceca-4998-b401-ca8be752f50d","system_id":"levelo_inurba_marseille","lat":43.29538,"lon":5.38327,"is_reserved":false,"is_disabled":false,"rental_uris":{"android":"levelo://app?vid=71a0b58c-ceca-4998-b401-ca8be752f50d","ios":"levelo://app?vid=71a0b58c-ceca-4998-b401-ca8be752f50d"},"vehicle_type_id":"4","last_reported":1687540112,"current_range_meters":3600,"station_id":"","pricing_plan_id":"free"},{"bike_id":"bf3cf0f1-8608-4310-bd14-b8df252fe9a8","system_id":"levelo_inurba_marseille","lat":43.298764,"lon":5.388973,"is_reserved":false,"is_disabled":false,"rental_uris":{"android":"levelo://app?vid=bf3cf0f1-8608-4310-bd14-b8df252fe9a8","ios":"levelo://app?vid=bf3cf0f1-8608-4310-bd14-b8df252fe9a8"},"vehicle_type_id":"4","last_reported":1687540112,"current_range_meters":8000,"station_id":"ce4bh392rcd13ifvqdl0","pricing_plan_id":"free"},{"bike_id":"54fda2f9-7b1a-4838-9b70-087d4101d0ae","system_id":"levelo_inurba_marseille","lat":43.33256,"lon":5.37931,"is_reserved":false,"is_disabled":false,"rental_uris":{"android":"levelo://app?vid=54fda2f9-7b1a-4838-9b70-087d4101d0ae","ios":"levelo://app?vid=54fda2f9-7b1a-4838-9b70-087d4101d0ae"},"vehicle_type_id":"4","last_reported":1687540112,"current_range_meters":2400,"station_id":"","pricing_plan_id":"free"},{"bike_id":"37351a85-7d8e-4e5e-b0e2-e074cb495527","system_id":"levelo_inurba_marseille","lat":43.29195,"lon":5.358,"is_reserved":false,"is_disabled":false,"rental_uris":{"android":"levelo://app?vid=37351a85-7d8e-4e5e-b0e2-e074cb495527","ios":"levelo://app?vid=37351a85-7d8e-4e5e-b0e2-e074cb495527"},"vehicle_type_id":"4","last_reported":1687540112,"current_range_meters":800,"station_id":"ce4bhb12rcd13ifvqel0","pricing_plan_id":"free"},{"bike_id":"a3ebd195-73e3-433b-bb02-2e65944071a6","system_id":"levelo_inurba_marseille","lat":43.313291,"lon":5.396838,"is_reserved":false,"is_disabled":false,"rental_uris":{"android":"levelo://app?vid=a3ebd195-73e3-433b-bb02-2e65944071a6","ios":"levelo://app?vid=a3ebd195-73e3-433b-bb02-2e65944071a6"},"vehicle_type_id":"4","last_reported":1687540112,"current_range_meters":6400,"station_id":"ce4bgvp2rcd13ifvqcu0","pricing_plan_id":"free"},{"bike_id":"1b283d52-af4a-4ab8-9ab6-8833c81eeefe","system_id":"levelo_inurba_marseille","lat":43.29529,"lon":5.385581,"is_reserved":false,"is_disabled":false,"rental_uris":{"android":"levelo://app?vid=1b283d52-af4a-4ab8-9ab6-8833c81eeefe","ios":"levelo://app?vid=1b283d52-af4a-4ab8-9ab6-8833c81eeefe"},"vehicle_type_id":"4","last_reported":1687540112,"current_range_meters":7200,"station_id":"ce4bgih2rcd13ifvqba0","pricing_plan_id":"free"},{"bike_id":"3348da5b-af20-437a-b331-3c21219198e6","system_id":"levelo_inurba_marseille","lat":43.29529,"lon":5.385581,"is_reserved":false,"is_disabled":false,"rental_uris":{"android":"levelo://app?vid=3348da5b-af20-437a-b331-3c21219198e6","ios":"levelo://app?vid=3348da5b-af20-437a-b331-3c21219198e6"},"vehicle_type_id":"4","last_reported":1687540112,"current_range_meters":14000,"station_id":"ce4bgih2rcd13ifvqba0","pricing_plan_id":"free"},{"bike_id":"d5556a4c-39f1-4f49-a7d5-635e4b2c4a69","system_id":"levelo_inurba_marseille","lat":43.29529,"lon":5.385581,"is_reserved":false,"is_disabled":false,"rental_uris":{"android":"levelo://app?vid=d5556a4c-39f1-4f49-a7d5-635e4b2c4a69","ios":"levelo://app?vid=d5556a4c-39f1-4f49-a7d5-635e4b2c4a69"},"vehicle_type_id":"4","last_reported":1687540112,"current_range_meters":31200,"station_id":"ce4bgih2rcd13ifvqba0","pricing_plan_id":"free"},{"bike_id":"d17518b3-1bdb-415d-a8be-386b274a71f3","system_id":"levelo_inurba_marseille","lat":43.29529,"lon":5.385581,"is_reserved":false,"is_disabled":false,"rental_uris":{"android":"levelo://app?vid=d17518b3-1bdb-415d-a8be-386b274a71f3","ios":"levelo://app?vid=d17518b3-1bdb-415d-a8be-386b274a71f3"},"vehicle_type_id":"4","last_reported":1687540112,"current_range_meters":30000,"station_id":"ce4bgih2rcd13ifvqba0","pricing_plan_id":"free"},{"bike_id":"14e8eeec-4ec6-4069-8ff5-df8b10aa535d","system_id":"levelo_inurba_marseille","lat":43.29529,"lon":5.385581,"is_reserved":false,"is_disabled":false,"rental_uris":{"android":"levelo://app?vid=14e8eeec-4ec6-4069-8ff5-df8b10aa535d","ios":"levelo://app?vid=14e8eeec-4ec6-4069-8ff5-df8b10aa535d"},"vehicle_type_id":"4","last_reported":1687540112,"current_range_meters":18400,"station_id":"ce4bgih2rcd13ifvqba0","pricing_plan_id":"free"},{"bike_id":"3a7b32f7-d58e-4c92-9f05-795438cf6032","system_id":"levelo_inurba_marseille","lat":43.29529,"lon":5.385581,"is_reserved":false,"is_disabled":false,"rental_uris":{"android":"levelo://app?vid=3a7b32f7-d58e-4c92-9f05-795438cf6032","ios":"levelo://app?vid=3a7b32f7-d58e-4c92-9f05-795438cf6032"},"vehicle_type_id":"4","last_reported":1687540112,"current_range_meters":13200,"station_id":"ce4bgih2rcd13ifvqba0","pricing_plan_id":"free"},{"bike_id":"0ea92be0-24a9-48c2-a359-da3a07e31cd3","system_id":"levelo_inurba_marseille","lat":43.29529,"lon":5.385581,"is_reserved":false,"is_disabled":false,"rental_uris":{"android":"levelo://app?vid=0ea92be0-24a9-48c2-a359-da3a07e31cd3","ios":"levelo://app?vid=0ea92be0-24a9-48c2-a359-da3a07e31cd3"},"vehicle_type_id":"4","last_reported":1687540112,"current_range_meters":22400,"station_id":"ce4bgih2rcd13ifvqba0","pricing_plan_id":"free"},{"bike_id":"61d3a859-3ba2-4988-9ad6-bfa9016aa94b","system_id":"levelo_inurba_marseille","lat":43.29067,"lon":5.37121,"is_reserved":false,"is_disabled":false,"rental_uris":{"android":"levelo://app?vid=61d3a859-3ba2-4988-9ad6-bfa9016aa94b","ios":"levelo://app?vid=61d3a859-3ba2-4988-9ad6-bfa9016aa94b"},"vehicle_type_id":"4","last_reported":1687540112,"current_range_meters":21600,"station_id":"","pricing_plan_id":"free"},{"bike_id":"deb35387-4c57-458e-bea5-18713003df88","system_id":"levelo_inurba_marseille","lat":43.302008,"lon":5.394694,"is_reserved":false,"is_disabled":false,"rental_uris":{"android":"levelo://app?vid=deb35387-4c57-458e-bea5-18713003df88","ios":"levelo://app?vid=deb35387-4c57-458e-bea5-18713003df88"},"vehicle_type_id":"4","last_reported":1687540112,"current_range_meters":2800,"station_id":"ce4bh0p2rcd13ifvqd70","pricing_plan_id":"free"},{"bike_id":"445c36fe-15e0-4d91-a17f-185a86bd0a03","system_id":"levelo_inurba_marseille","lat":43.302008,"lon":5.394694,"is_reserved":false,"is_disabled":false,"rental_uris":{"android":"levelo://app?vid=445c36fe-15e0-4d91-a17f-185a86bd0a03","ios":"levelo://app?vid=445c36fe-15e0-4d91-a17f-185a86bd0a03"},"vehicle_type_id":"4","last_reported":1687540112,"current_range_meters":23600,"station_id":"ce4bh0p2rcd13ifvqd70","pricing_plan_id":"free"},{"bike_id":"8702b51b-0525-4b21-8c30-8de877d95dfe","system_id":"levelo_inurba_marseille","lat":43.290631,"lon":5.359244,"is_reserved":false,"is_disabled":false,"rental_uris":{"android":"levelo://app?vid=8702b51b-0525-4b21-8c30-8de877d95dfe","ios":"levelo://app?vid=8702b51b-0525-4b21-8c30-8de877d95dfe"},"vehicle_type_id":"4","last_reported":1687540112,"current_range_meters":19600,"station_id":"ce4bha92rcd13ifvqeg0","pricing_plan_id":"free"},{"bike_id":"119de36f-bfbb-4999-b2d8-39eb0e51efee","system_id":"levelo_inurba_marseille","lat":43.294162,"lon":5.386292,"is_reserved":false,"is_disabled":false,"rental_uris":{"android":"levelo://app?vid=119de36f-bfbb-4999-b2d8-39eb0e51efee","ios":"levelo://app?vid=119de36f-bfbb-4999-b2d8-39eb0e51efee"},"vehicle_type_id":"4","last_reported":1687540112,"current_range_meters":3200,"station_id":"ce4bh2h2rcd13ifvqdh0","pricing_plan_id":"free"},{"bike_id":"fcb189cd-2be2-4178-bbfa-aff6f0234132","system_id":"levelo_inurba_marseille","lat":43.28945,"lon":5.36637,"is_reserved":false,"is_disabled":false,"rental_uris":{"android":"levelo://app?vid=fcb189cd-2be2-4178-bbfa-aff6f0234132","ios":"levelo://app?vid=fcb189cd-2be2-4178-bbfa-aff6f0234132"},"vehicle_type_id":"4","last_reported":1687540112,"current_range_meters":22400,"station_id":"","pricing_plan_id":"free"},{"bike_id":"20b2702a-2cf1-439f-b7da-41f192fa1a0a","system_id":"levelo_inurba_marseille","lat":43.29411,"lon":5.38614,"is_reserved":false,"is_disabled":false,"rental_uris":{"android":"levelo://app?vid=20b2702a-2cf1-439f-b7da-41f192fa1a0a","ios":"levelo://app?vid=20b2702a-2cf1-439f-b7da-41f192fa1a0a"},"vehicle_type_id":"4","last_reported":1687540112,"current_range_meters":22400,"station_id":"","pricing_plan_id":"free"},{"bike_id":"f26a0a4c-0b7e-45f6-a55f-665b1917ddc7","system_id":"levelo_inurba_marseille","lat":43.294162,"lon":5.386292,"is_reserved":false,"is_disabled":false,"rental_uris":{"android":"levelo://app?vid=f26a0a4c-0b7e-45f6-a55f-665b1917ddc7","ios":"levelo://app?vid=f26a0a4c-0b7e-45f6-a55f-665b1917ddc7"},"vehicle_type_id":"4","last_reported":1687540112,"current_range_meters":14000,"station_id":"ce4bh2h2rcd13ifvqdh0","pricing_plan_id":"free"},{"bike_id":"7be5755e-a0ad-4239-92f0-5917d2e709b8","system_id":"levelo_inurba_marseille","lat":43.294162,"lon":5.386292,"is_reserved":false,"is_disabled":false,"rental_uris":{"android":"levelo://app?vid=7be5755e-a0ad-4239-92f0-5917d2e709b8","ios":"levelo://app?vid=7be5755e-a0ad-4239-92f0-5917d2e709b8"},"vehicle_type_id":"4","last_reported":1687540112,"current_range_meters":4400,"station_id":"ce4bh2h2rcd13ifvqdh0","pricing_plan_id":"free"},{"bike_id":"4c04be63-d481-4151-8998-25d09411fe54","system_id":"levelo_inurba_marseille","lat":43.289184,"lon":5.366408,"is_reserved":false,"is_disabled":false,"rental_uris":{"android":"levelo://app?vid=4c04be63-d481-4151-8998-25d09411fe54","ios":"levelo://app?vid=4c04be63-d481-4151-8998-25d09411fe54"},"vehicle_type_id":"4","last_reported":1687540112,"current_range_meters":7600,"station_id":"ce4bhap2rcd13ifvqek0","pricing_plan_id":"free"},{"bike_id":"d94723bf-3dfe-467a-bc89-d8e40abb148f","system_id":"levelo_inurba_marseille","lat":43.28937,"lon":5.3664,"is_reserved":false,"is_disabled":false,"rental_uris":{"android":"levelo://app?vid=d94723bf-3dfe-467a-bc89-d8e40abb148f","ios":"levelo://app?vid=d94723bf-3dfe-467a-bc89-d8e40abb148f"},"vehicle_type_id":"4","last_reported":1687540112,"current_range_meters":6400,"station_id":"ce4bhap2rcd13ifvqek0","pricing_plan_id":"free"},{"bike_id":"9b82476a-ec68-42d9-9082-d12704d8d15e","system_id":"levelo_inurba_marseille","lat":43.28935,"lon":5.36641,"is_reserved":false,"is_disabled":false,"rental_uris":{"android":"levelo://app?vid=9b82476a-ec68-42d9-9082-d12704d8d15e","ios":"levelo://app?vid=9b82476a-ec68-42d9-9082-d12704d8d15e"},"vehicle_type_id":"4","last_reported":1687540112,"current_range_meters":23200,"station_id":"ce4bhap2rcd13ifvqek0","pricing_plan_id":"free"},{"bike_id":"5ecbf9dc-5759-4f94-ad2f-292fb3b2f7e7","system_id":"levelo_inurba_marseille","lat":43.289184,"lon":5.366408,"is_reserved":false,"is_disabled":false,"rental_uris":{"android":"levelo://app?vid=5ecbf9dc-5759-4f94-ad2f-292fb3b2f7e7","ios":"levelo://app?vid=5ecbf9dc-5759-4f94-ad2f-292fb3b2f7e7"},"vehicle_type_id":"4","last_reported":1687540112,"current_range_meters":400,"station_id":"ce4bhap2rcd13ifvqek0","pricing_plan_id":"free"},{"bike_id":"552a7e88-ef24-4a55-902a-e91cbddf7d1e","system_id":"levelo_inurba_marseille","lat":43.289184,"lon":5.366408,"is_reserved":false,"is_disabled":false,"rental_uris":{"android":"levelo://app?vid=552a7e88-ef24-4a55-902a-e91cbddf7d1e","ios":"levelo://app?vid=552a7e88-ef24-4a55-902a-e91cbddf7d1e"},"vehicle_type_id":"4","last_reported":1687540112,"current_range_meters":0,"station_id":"ce4bhap2rcd13ifvqek0","pricing_plan_id":"free"},{"bike_id":"e36874dc-7135-4ebc-b4cd-8f7cd3793fb7","system_id":"levelo_inurba_marseille","lat":43.30362,"lon":5.39713,"is_reserved":false,"is_disabled":false,"rental_uris":{"android":"levelo://app?vid=e36874dc-7135-4ebc-b4cd-8f7cd3793fb7","ios":"levelo://app?vid=e36874dc-7135-4ebc-b4cd-8f7cd3793fb7"},"vehicle_type_id":"4","last_reported":1687540112,"current_range_meters":25600,"station_id":"","pricing_plan_id":"free"},{"bike_id":"ba4b7252-9d53-453d-aaab-6aa371f63916","system_id":"levelo_inurba_marseille","lat":43.290103,"lon":5.356114,"is_reserved":false,"is_disabled":false,"rental_uris":{"android":"levelo://app?vid=ba4b7252-9d53-453d-aaab-6aa371f63916","ios":"levelo://app?vid=ba4b7252-9d53-453d-aaab-6aa371f63916"},"vehicle_type_id":"4","last_reported":1687540112,"current_range_meters":15600,"station_id":"ce4bhb92rcd13ifvqen0","pricing_plan_id":"free"},{"bike_id":"004e2ad8-f1fe-4ea5-94f0-e52d5abecfca","system_id":"levelo_inurba_marseille","lat":43.290104,"lon":5.356111,"is_reserved":false,"is_disabled":false,"rental_uris":{"android":"levelo://app?vid=004e2ad8-f1fe-4ea5-94f0-e52d5abecfca","ios":"levelo://app?vid=004e2ad8-f1fe-4ea5-94f0-e52d5abecfca"},"vehicle_type_id":"4","last_reported":1687540112,"current_range_meters":5600,"station_id":"ce4bhb92rcd13ifvqen0","pricing_plan_id":"free"},{"bike_id":"90cc02a4-8c31-451d-a671-7e7abf36b006","system_id":"levelo_inurba_marseille","lat":43.290104,"lon":5.356111,"is_reserved":false,"is_disabled":false,"rental_uris":{"android":"levelo://app?vid=90cc02a4-8c31-451d-a671-7e7abf36b006","ios":"levelo://app?vid=90cc02a4-8c31-451d-a671-7e7abf36b006"},"vehicle_type_id":"4","last_reported":1687540112,"current_range_meters":31200,"station_id":"ce4bhb92rcd13ifvqen0","pricing_plan_id":"free"},{"bike_id":"9976b2cd-b85b-424a-8870-bc3e13b17ab4","system_id":"levelo_inurba_marseille","lat":43.29096,"lon":5.3813,"is_reserved":false,"is_disabled":false,"rental_uris":{"android":"levelo://app?vid=9976b2cd-b85b-424a-8870-bc3e13b17ab4","ios":"levelo://app?vid=9976b2cd-b85b-424a-8870-bc3e13b17ab4"},"vehicle_type_id":"4","last_reported":1687540112,"current_range_meters":22000,"station_id":"ce4bh512rcd13ifvqe2g","pricing_plan_id":"free"},{"bike_id":"4967d961-6dbd-4d84-8a1c-60186f3ea30e","system_id":"levelo_inurba_marseille","lat":43.29791,"lon":5.39347,"is_reserved":false,"is_disabled":false,"rental_uris":{"android":"levelo://app?vid=4967d961-6dbd-4d84-8a1c-60186f3ea30e","ios":"levelo://app?vid=4967d961-6dbd-4d84-8a1c-60186f3ea30e"},"vehicle_type_id":"4","last_reported":1687540112,"current_range_meters":5600,"station_id":"chh1huq6cuj3fo74tm60","pricing_plan_id":"free"},{"bike_id":"b48aecf2-b542-44dc-ab04-1e20568d6739","system_id":"levelo_inurba_marseille","lat":43.290995,"lon":5.381361,"is_reserved":false,"is_disabled":false,"rental_uris":{"android":"levelo://app?vid=b48aecf2-b542-44dc-ab04-1e20568d6739","ios":"levelo://app?vid=b48aecf2-b542-44dc-ab04-1e20568d6739"},"vehicle_type_id":"4","last_reported":1687540112,"current_range_meters":22800,"station_id":"ce4bh512rcd13ifvqe2g","pricing_plan_id":"free"},{"bike_id":"ecb0999e-c9e9-414c-a196-2b23f9ff9bdb","system_id":"levelo_inurba_marseille","lat":43.29339,"lon":5.38832,"is_reserved":false,"is_disabled":false,"rental_uris":{"android":"levelo://app?vid=ecb0999e-c9e9-414c-a196-2b23f9ff9bdb","ios":"levelo://app?vid=ecb0999e-c9e9-414c-a196-2b23f9ff9bdb"},"vehicle_type_id":"4","last_reported":1687540112,"current_range_meters":22800,"station_id":"","pricing_plan_id":"free"},{"bike_id":"cc84d90f-73b8-45fc-97f7-696d0855e51d","system_id":"levelo_inurba_marseille","lat":43.2901,"lon":5.381269,"is_reserved":false,"is_disabled":false,"rental_uris":{"android":"levelo://app?vid=cc84d90f-73b8-45fc-97f7-696d0855e51d","ios":"levelo://app?vid=cc84d90f-73b8-45fc-97f7-696d0855e51d"},"vehicle_type_id":"4","last_reported":1687540112,"current_range_meters":23200,"station_id":"ce4bh4p2rcd13ifvqe1g","pricing_plan_id":"free"},{"bike_id":"0e89053f-a5a3-4e7f-ab65-5896732af8a7","system_id":"levelo_inurba_marseille","lat":43.29139,"lon":5.38466,"is_reserved":false,"is_disabled":false,"rental_uris":{"android":"levelo://app?vid=0e89053f-a5a3-4e7f-ab65-5896732af8a7","ios":"levelo://app?vid=0e89053f-a5a3-4e7f-ab65-5896732af8a7"},"vehicle_type_id":"4","last_reported":1687540112,"current_range_meters":14800,"station_id":"ce4bh4p2rcd13ifvqe0g","pricing_plan_id":"free"},{"bike_id":"3f8a925a-6a54-4259-a38f-9cf091aab246","system_id":"levelo_inurba_marseille","lat":43.29264,"lon":5.38754,"is_reserved":false,"is_disabled":false,"rental_uris":{"android":"levelo://app?vid=3f8a925a-6a54-4259-a38f-9cf091aab246","ios":"levelo://app?vid=3f8a925a-6a54-4259-a38f-9cf091aab246"},"vehicle_type_id":"4","last_reported":1687540112,"current_range_meters":24400,"station_id":"","pricing_plan_id":"free"},{"bike_id":"c180ae38-f769-441f-8a55-5a6e4930e6ad","system_id":"levelo_inurba_marseille","lat":43.3375,"lon":5.37439,"is_reserved":false,"is_disabled":false,"rental_uris":{"android":"levelo://app?vid=c180ae38-f769-441f-8a55-5a6e4930e6ad","ios":"levelo://app?vid=c180ae38-f769-441f-8a55-5a6e4930e6ad"},"vehicle_type_id":"4","last_reported":1687540112,"current_range_meters":28000,"station_id":"","pricing_plan_id":"free"},{"bike_id":"6eb416ce-b40f-4ce1-91ff-5d3672018c05","system_id":"levelo_inurba_marseille","lat":43.309371,"lon":5.401449,"is_reserved":false,"is_disabled":false,"rental_uris":{"android":"levelo://app?vid=6eb416ce-b40f-4ce1-91ff-5d3672018c05","ios":"levelo://app?vid=6eb416ce-b40f-4ce1-91ff-5d3672018c05"},"vehicle_type_id":"4","last_reported":1687540112,"current_range_meters":14400,"station_id":"ce4bgvp2rcd13ifvqct0","pricing_plan_id":"free"},{"bike_id":"b683b4dc-b9e5-400d-aa45-5592b717f092","system_id":"levelo_inurba_marseille","lat":43.336134,"lon":5.410341,"is_reserved":false,"is_disabled":false,"rental_uris":{"android":"levelo://app?vid=b683b4dc-b9e5-400d-aa45-5592b717f092","ios":"levelo://app?vid=b683b4dc-b9e5-400d-aa45-5592b717f092"},"vehicle_type_id":"4","last_reported":1687540112,"current_range_meters":31200,"station_id":"ce4bhqh2rcd13ifvqhmg","pricing_plan_id":"free"},{"bike_id":"dda50222-43cd-4144-8d31-56c6d09a137a","system_id":"levelo_inurba_marseille","lat":43.33753,"lon":5.37478,"is_reserved":false,"is_disabled":false,"rental_uris":{"android":"levelo://app?vid=dda50222-43cd-4144-8d31-56c6d09a137a","ios":"levelo://app?vid=dda50222-43cd-4144-8d31-56c6d09a137a"},"vehicle_type_id":"4","last_reported":1687540112,"current_range_meters":25600,"station_id":"","pricing_plan_id":"free"},{"bike_id":"676bc7df-90ac-4bb9-98c2-7eb4af7f3519","system_id":"levelo_inurba_marseille","lat":43.301117,"lon":5.398795,"is_reserved":false,"is_disabled":false,"rental_uris":{"android":"levelo://app?vid=676bc7df-90ac-4bb9-98c2-7eb4af7f3519","ios":"levelo://app?vid=676bc7df-90ac-4bb9-98c2-7eb4af7f3519"},"vehicle_type_id":"4","last_reported":1687540112,"current_range_meters":4400,"station_id":"ce4bh0h2rcd13ifvqd40","pricing_plan_id":"free"},{"bike_id":"275cede5-43d4-4f4b-88c5-886ee71c1aa6","system_id":"levelo_inurba_marseille","lat":43.301117,"lon":5.398795,"is_reserved":false,"is_disabled":false,"rental_uris":{"android":"levelo://app?vid=275cede5-43d4-4f4b-88c5-886ee71c1aa6","ios":"levelo://app?vid=275cede5-43d4-4f4b-88c5-886ee71c1aa6"},"vehicle_type_id":"4","last_reported":1687540112,"current_range_meters":18000,"station_id":"ce4bh0h2rcd13ifvqd40","pricing_plan_id":"free"},{"bike_id":"49207e52-2cf9-4673-a81d-e49117dc7a48","system_id":"levelo_inurba_marseille","lat":43.301117,"lon":5.398795,"is_reserved":false,"is_disabled":false,"rental_uris":{"android":"levelo://app?vid=49207e52-2cf9-4673-a81d-e49117dc7a48","ios":"levelo://app?vid=49207e52-2cf9-4673-a81d-e49117dc7a48"},"vehicle_type_id":"4","last_reported":1687540112,"current_range_meters":18400,"station_id":"ce4bh0h2rcd13ifvqd40","pricing_plan_id":"free"},{"bike_id":"3079a2f3-b284-4e5f-a7f0-6784752fd624","system_id":"levelo_inurba_marseille","lat":43.298681,"lon":5.397225,"is_reserved":false,"is_disabled":false,"rental_uris":{"android":"levelo://app?vid=3079a2f3-b284-4e5f-a7f0-6784752fd624","ios":"levelo://app?vid=3079a2f3-b284-4e5f-a7f0-6784752fd624"},"vehicle_type_id":"4","last_reported":1687540112,"current_range_meters":14000,"station_id":"ce4bh0h2rcd13ifvqd50","pricing_plan_id":"free"},{"bike_id":"33ef276f-9846-49a9-acf7-926b15da8268","system_id":"levelo_inurba_marseille","lat":43.286591,"lon":5.363346,"is_reserved":false,"is_disabled":false,"rental_uris":{"android":"levelo://app?vid=33ef276f-9846-49a9-acf7-926b15da8268","ios":"levelo://app?vid=33ef276f-9846-49a9-acf7-926b15da8268"},"vehicle_type_id":"4","last_reported":1687540112,"current_range_meters":30000,"station_id":"ce4bhah2rcd13ifvqej0","pricing_plan_id":"free"},{"bike_id":"bf0c0412-c268-401e-9d90-b329cff94c3e","system_id":"levelo_inurba_marseille","lat":43.29038,"lon":5.38657,"is_reserved":false,"is_disabled":false,"rental_uris":{"android":"levelo://app?vid=bf0c0412-c268-401e-9d90-b329cff94c3e","ios":"levelo://app?vid=bf0c0412-c268-401e-9d90-b329cff94c3e"},"vehicle_type_id":"4","last_reported":1687540112,"current_range_meters":0,"station_id":"ce4bh4p2rcd13ifvqe0g","pricing_plan_id":"free"},{"bike_id":"62d5d07d-af68-401a-91c9-1edc7d7c4ba7","system_id":"levelo_inurba_marseille","lat":43.29039,"lon":5.38661,"is_reserved":false,"is_disabled":false,"rental_uris":{"android":"levelo://app?vid=62d5d07d-af68-401a-91c9-1edc7d7c4ba7","ios":"levelo://app?vid=62d5d07d-af68-401a-91c9-1edc7d7c4ba7"},"vehicle_type_id":"4","last_reported":1687540112,"current_range_meters":5200,"station_id":"ce4bh4p2rcd13ifvqe0g","pricing_plan_id":"free"},{"bike_id":"82caaf8a-670e-4967-a8d9-d4dd39f01431","system_id":"levelo_inurba_marseille","lat":43.290345,"lon":5.38646,"is_reserved":false,"is_disabled":false,"rental_uris":{"android":"levelo://app?vid=82caaf8a-670e-4967-a8d9-d4dd39f01431","ios":"levelo://app?vid=82caaf8a-670e-4967-a8d9-d4dd39f01431"},"vehicle_type_id":"4","last_reported":1687540112,"current_range_meters":4800,"station_id":"ce4bh4p2rcd13ifvqe0g","pricing_plan_id":"free"},{"bike_id":"965f1117-f690-41b9-904e-d66b9240f98e","system_id":"levelo_inurba_marseille","lat":43.302759,"lon":5.400793,"is_reserved":false,"is_disabled":false,"rental_uris":{"android":"levelo://app?vid=965f1117-f690-41b9-904e-d66b9240f98e","ios":"levelo://app?vid=965f1117-f690-41b9-904e-d66b9240f98e"},"vehicle_type_id":"4","last_reported":1687540112,"current_range_meters":7200,"station_id":"ce4bgvh2rcd13ifvqcs0","pricing_plan_id":"free"},{"bike_id":"343d261c-ba5f-44ca-9780-b786d86a6347","system_id":"levelo_inurba_marseille","lat":43.302759,"lon":5.400793,"is_reserved":false,"is_disabled":false,"rental_uris":{"android":"levelo://app?vid=343d261c-ba5f-44ca-9780-b786d86a6347","ios":"levelo://app?vid=343d261c-ba5f-44ca-9780-b786d86a6347"},"vehicle_type_id":"4","last_reported":1687540112,"current_range_meters":29600,"station_id":"ce4bgvh2rcd13ifvqcs0","pricing_plan_id":"free"},{"bike_id":"c21ab19f-fcfb-467b-83f8-3bc663f3295b","system_id":"levelo_inurba_marseille","lat":43.290336,"lon":5.386425,"is_reserved":false,"is_disabled":false,"rental_uris":{"android":"levelo://app?vid=c21ab19f-fcfb-467b-83f8-3bc663f3295b","ios":"levelo://app?vid=c21ab19f-fcfb-467b-83f8-3bc663f3295b"},"vehicle_type_id":"4","last_reported":1687540112,"current_range_meters":5600,"station_id":"ce4bh4p2rcd13ifvqe0g","pricing_plan_id":"free"},{"bike_id":"629969b8-c17a-419e-941e-22c8dd9a29a1","system_id":"levelo_inurba_marseille","lat":43.302759,"lon":5.400793,"is_reserved":false,"is_disabled":false,"rental_uris":{"android":"levelo://app?vid=629969b8-c17a-419e-941e-22c8dd9a29a1","ios":"levelo://app?vid=629969b8-c17a-419e-941e-22c8dd9a29a1"},"vehicle_type_id":"4","last_reported":1687540112,"current_range_meters":2400,"station_id":"ce4bgvh2rcd13ifvqcs0","pricing_plan_id":"free"},{"bike_id":"c6c74f35-1d4f-41b4-ae09-50d7f5c805db","system_id":"levelo_inurba_marseille","lat":43.302759,"lon":5.400793,"is_reserved":false,"is_disabled":false,"rental_uris":{"android":"levelo://app?vid=c6c74f35-1d4f-41b4-ae09-50d7f5c805db","ios":"levelo://app?vid=c6c74f35-1d4f-41b4-ae09-50d7f5c805db"},"vehicle_type_id":"4","last_reported":1687540112,"current_range_meters":5600,"station_id":"ce4bgvh2rcd13ifvqcs0","pricing_plan_id":"free"},{"bike_id":"e4255430-e5b6-4e97-86b0-7c43e5b269ae","system_id":"levelo_inurba_marseille","lat":43.302759,"lon":5.400793,"is_reserved":false,"is_disabled":false,"rental_uris":{"android":"levelo://app?vid=e4255430-e5b6-4e97-86b0-7c43e5b269ae","ios":"levelo://app?vid=e4255430-e5b6-4e97-86b0-7c43e5b269ae"},"vehicle_type_id":"4","last_reported":1687540112,"current_range_meters":22800,"station_id":"ce4bgvh2rcd13ifvqcs0","pricing_plan_id":"free"},{"bike_id":"5aaf98d7-885b-471e-b0af-60192baaac55","system_id":"levelo_inurba_marseille","lat":43.286039,"lon":5.370679,"is_reserved":false,"is_disabled":false,"rental_uris":{"android":"levelo://app?vid=5aaf98d7-885b-471e-b0af-60192baaac55","ios":"levelo://app?vid=5aaf98d7-885b-471e-b0af-60192baaac55"},"vehicle_type_id":"4","last_reported":1687540112,"current_range_meters":17600,"station_id":"ce4bht12rcd13ifvqi60","pricing_plan_id":"free"},{"bike_id":"6437ae31-b1f1-400e-a329-b31c1cac2937","system_id":"levelo_inurba_marseille","lat":43.286039,"lon":5.370679,"is_reserved":false,"is_disabled":false,"rental_uris":{"android":"levelo://app?vid=6437ae31-b1f1-400e-a329-b31c1cac2937","ios":"levelo://app?vid=6437ae31-b1f1-400e-a329-b31c1cac2937"},"vehicle_type_id":"4","last_reported":1687540112,"current_range_meters":13600,"station_id":"ce4bht12rcd13ifvqi60","pricing_plan_id":"free"},{"bike_id":"4ed7a509-806a-470c-ab27-e8f2db8bc575","system_id":"levelo_inurba_marseille","lat":43.287184,"lon":5.37937,"is_reserved":false,"is_disabled":false,"rental_uris":{"android":"levelo://app?vid=4ed7a509-806a-470c-ab27-e8f2db8bc575","ios":"levelo://app?vid=4ed7a509-806a-470c-ab27-e8f2db8bc575"},"vehicle_type_id":"4","last_reported":1687540112,"current_range_meters":14800,"station_id":"ce4bh9p2rcd13ifvqec0","pricing_plan_id":"free"},{"bike_id":"b26d06bf-9d39-4808-880c-82bb529df2c0","system_id":"levelo_inurba_marseille","lat":43.287184,"lon":5.37937,"is_reserved":false,"is_disabled":false,"rental_uris":{"android":"levelo://app?vid=b26d06bf-9d39-4808-880c-82bb529df2c0","ios":"levelo://app?vid=b26d06bf-9d39-4808-880c-82bb529df2c0"},"vehicle_type_id":"4","last_reported":1687540112,"current_range_meters":8000,"station_id":"ce4bh9p2rcd13ifvqec0","pricing_plan_id":"free"},{"bike_id":"4d7cf6ca-3156-4aee-8e16-95526cab9208","system_id":"levelo_inurba_marseille","lat":43.287184,"lon":5.37937,"is_reserved":false,"is_disabled":false,"rental_uris":{"android":"levelo://app?vid=4d7cf6ca-3156-4aee-8e16-95526cab9208","ios":"levelo://app?vid=4d7cf6ca-3156-4aee-8e16-95526cab9208"},"vehicle_type_id":"4","last_reported":1687540112,"current_range_meters":1200,"station_id":"ce4bh9p2rcd13ifvqec0","pricing_plan_id":"free"},{"bike_id":"4db56c02-520c-44f0-9539-6217d3019d73","system_id":"levelo_inurba_marseille","lat":43.287185,"lon":5.379373,"is_reserved":false,"is_disabled":false,"rental_uris":{"android":"levelo://app?vid=4db56c02-520c-44f0-9539-6217d3019d73","ios":"levelo://app?vid=4db56c02-520c-44f0-9539-6217d3019d73"},"vehicle_type_id":"4","last_reported":1687540112,"current_range_meters":0,"station_id":"ce4bh9p2rcd13ifvqec0","pricing_plan_id":"free"},{"bike_id":"71d7f5fe-ae0d-4cad-bb6e-02112d70ca09","system_id":"levelo_inurba_marseille","lat":43.316517,"lon":5.404375,"is_reserved":false,"is_disabled":false,"rental_uris":{"android":"levelo://app?vid=71d7f5fe-ae0d-4cad-bb6e-02112d70ca09","ios":"levelo://app?vid=71d7f5fe-ae0d-4cad-bb6e-02112d70ca09"},"vehicle_type_id":"4","last_reported":1687540112,"current_range_meters":22800,"station_id":"ce4bh012rcd13ifvqd00","pricing_plan_id":"free"},{"bike_id":"8cf9f46c-c725-4095-a5af-e9456982c1d3","system_id":"levelo_inurba_marseille","lat":43.291994,"lon":5.392907,"is_reserved":false,"is_disabled":false,"rental_uris":{"android":"levelo://app?vid=8cf9f46c-c725-4095-a5af-e9456982c1d3","ios":"levelo://app?vid=8cf9f46c-c725-4095-a5af-e9456982c1d3"},"vehicle_type_id":"4","last_reported":1687540112,"current_range_meters":18400,"station_id":"ce4bh192rcd13ifvqdd0","pricing_plan_id":"free"},{"bike_id":"a5785004-430e-40b1-a865-26f959075501","system_id":"levelo_inurba_marseille","lat":43.29203,"lon":5.39323,"is_reserved":false,"is_disabled":false,"rental_uris":{"android":"levelo://app?vid=a5785004-430e-40b1-a865-26f959075501","ios":"levelo://app?vid=a5785004-430e-40b1-a865-26f959075501"},"vehicle_type_id":"4","last_reported":1687540112,"current_range_meters":0,"station_id":"","pricing_plan_id":"free"},{"bike_id":"81bdd815-fd4a-4113-bbde-ea6f09e1f8b9","system_id":"levelo_inurba_marseille","lat":43.284534,"lon":5.358662,"is_reserved":false,"is_disabled":false,"rental_uris":{"android":"levelo://app?vid=81bdd815-fd4a-4113-bbde-ea6f09e1f8b9","ios":"levelo://app?vid=81bdd815-fd4a-4113-bbde-ea6f09e1f8b9"},"vehicle_type_id":"4","last_reported":1687540112,"current_range_meters":22800,"station_id":"ce4bhah2rcd13ifvqei0","pricing_plan_id":"free"},{"bike_id":"8b82ab1c-d2c1-45b0-b3a5-82d097046759","system_id":"levelo_inurba_marseille","lat":43.284534,"lon":5.358662,"is_reserved":false,"is_disabled":false,"rental_uris":{"android":"levelo://app?vid=8b82ab1c-d2c1-45b0-b3a5-82d097046759","ios":"levelo://app?vid=8b82ab1c-d2c1-45b0-b3a5-82d097046759"},"vehicle_type_id":"4","last_reported":1687540112,"current_range_meters":2000,"station_id":"ce4bhah2rcd13ifvqei0","pricing_plan_id":"free"},{"bike_id":"70c8eef7-0a9e-40d9-a383-1c68d13f6d5f","system_id":"levelo_inurba_marseille","lat":43.284534,"lon":5.358662,"is_reserved":false,"is_disabled":false,"rental_uris":{"android":"levelo://app?vid=70c8eef7-0a9e-40d9-a383-1c68d13f6d5f","ios":"levelo://app?vid=70c8eef7-0a9e-40d9-a383-1c68d13f6d5f"},"vehicle_type_id":"4","last_reported":1687540112,"current_range_meters":16400,"station_id":"ce4bhah2rcd13ifvqei0","pricing_plan_id":"free"},{"bike_id":"920b008b-c36a-48a6-83c6-182a1ecf14f1","system_id":"levelo_inurba_marseille","lat":43.284534,"lon":5.358662,"is_reserved":false,"is_disabled":false,"rental_uris":{"android":"levelo://app?vid=920b008b-c36a-48a6-83c6-182a1ecf14f1","ios":"levelo://app?vid=920b008b-c36a-48a6-83c6-182a1ecf14f1"},"vehicle_type_id":"4","last_reported":1687540112,"current_range_meters":2800,"station_id":"ce4bhah2rcd13ifvqei0","pricing_plan_id":"free"},{"bike_id":"6002bd66-9e61-4529-a7ae-f0b163cc527b","system_id":"levelo_inurba_marseille","lat":43.285848,"lon":5.350787,"is_reserved":false,"is_disabled":false,"rental_uris":{"android":"levelo://app?vid=6002bd66-9e61-4529-a7ae-f0b163cc527b","ios":"levelo://app?vid=6002bd66-9e61-4529-a7ae-f0b163cc527b"},"vehicle_type_id":"4","last_reported":1687540112,"current_range_meters":12400,"station_id":"ce4bhch2rcd13ifvqeug","pricing_plan_id":"free"},{"bike_id":"45ced484-5ec1-4ed2-a8c8-c1d9e096793e","system_id":"levelo_inurba_marseille","lat":43.285848,"lon":5.350787,"is_reserved":false,"is_disabled":false,"rental_uris":{"android":"levelo://app?vid=45ced484-5ec1-4ed2-a8c8-c1d9e096793e","ios":"levelo://app?vid=45ced484-5ec1-4ed2-a8c8-c1d9e096793e"},"vehicle_type_id":"4","last_reported":1687540112,"current_range_meters":12000,"station_id":"ce4bhch2rcd13ifvqeug","pricing_plan_id":"free"},{"bike_id":"894e389e-2d3b-4aaf-b62e-8e8d0a432324","system_id":"levelo_inurba_marseille","lat":43.285848,"lon":5.350787,"is_reserved":false,"is_disabled":false,"rental_uris":{"android":"levelo://app?vid=894e389e-2d3b-4aaf-b62e-8e8d0a432324","ios":"levelo://app?vid=894e389e-2d3b-4aaf-b62e-8e8d0a432324"},"vehicle_type_id":"4","last_reported":1687540112,"current_range_meters":31200,"station_id":"ce4bhch2rcd13ifvqeug","pricing_plan_id":"free"},{"bike_id":"8ee86926-876f-488f-9f61-022885e1ef37","system_id":"levelo_inurba_marseille","lat":43.285856,"lon":5.350771,"is_reserved":false,"is_disabled":false,"rental_uris":{"android":"levelo://app?vid=8ee86926-876f-488f-9f61-022885e1ef37","ios":"levelo://app?vid=8ee86926-876f-488f-9f61-022885e1ef37"},"vehicle_type_id":"4","last_reported":1687540112,"current_range_meters":0,"station_id":"ce4bhch2rcd13ifvqeug","pricing_plan_id":"free"},{"bike_id":"09684049-7c83-4210-a432-90bdfe712547","system_id":"levelo_inurba_marseille","lat":43.285848,"lon":5.350787,"is_reserved":false,"is_disabled":false,"rental_uris":{"android":"levelo://app?vid=09684049-7c83-4210-a432-90bdfe712547","ios":"levelo://app?vid=09684049-7c83-4210-a432-90bdfe712547"},"vehicle_type_id":"4","last_reported":1687540112,"current_range_meters":15600,"station_id":"ce4bhch2rcd13ifvqeug","pricing_plan_id":"free"},{"bike_id":"4b47a2a6-2884-46e2-995a-3310e553f770","system_id":"levelo_inurba_marseille","lat":43.285856,"lon":5.350771,"is_reserved":false,"is_disabled":false,"rental_uris":{"android":"levelo://app?vid=4b47a2a6-2884-46e2-995a-3310e553f770","ios":"levelo://app?vid=4b47a2a6-2884-46e2-995a-3310e553f770"},"vehicle_type_id":"4","last_reported":1687540112,"current_range_meters":0,"station_id":"ce4bhch2rcd13ifvqeug","pricing_plan_id":"free"},{"bike_id":"dcb5b0c1-4e99-44b2-8740-7b0fa191f26a","system_id":"levelo_inurba_marseille","lat":43.295713,"lon":5.399639,"is_reserved":false,"is_disabled":false,"rental_uris":{"android":"levelo://app?vid=dcb5b0c1-4e99-44b2-8740-7b0fa191f26a","ios":"levelo://app?vid=dcb5b0c1-4e99-44b2-8740-7b0fa191f26a"},"vehicle_type_id":"4","last_reported":1687540112,"current_range_meters":21600,"station_id":"ce4bh312rcd13ifvqdj0","pricing_plan_id":"free"},{"bike_id":"b3cd20ce-f8e9-488b-8305-d737af254d30","system_id":"levelo_inurba_marseille","lat":43.295713,"lon":5.399639,"is_reserved":false,"is_disabled":false,"rental_uris":{"android":"levelo://app?vid=b3cd20ce-f8e9-488b-8305-d737af254d30","ios":"levelo://app?vid=b3cd20ce-f8e9-488b-8305-d737af254d30"},"vehicle_type_id":"4","last_reported":1687540112,"current_range_meters":28400,"station_id":"ce4bh312rcd13ifvqdj0","pricing_plan_id":"free"},{"bike_id":"9cae825f-ce49-4976-9212-5608954cbbcd","system_id":"levelo_inurba_marseille","lat":43.3234,"lon":5.40613,"is_reserved":false,"is_disabled":false,"rental_uris":{"android":"levelo://app?vid=9cae825f-ce49-4976-9212-5608954cbbcd","ios":"levelo://app?vid=9cae825f-ce49-4976-9212-5608954cbbcd"},"vehicle_type_id":"4","last_reported":1687540112,"current_range_meters":11600,"station_id":"ce4bhq92rcd13ifvqhjg","pricing_plan_id":"free"},{"bike_id":"a54c5183-d12c-4b5d-b1a7-e6c2a62eb9b5","system_id":"levelo_inurba_marseille","lat":43.3235,"lon":5.40615,"is_reserved":false,"is_disabled":false,"rental_uris":{"android":"levelo://app?vid=a54c5183-d12c-4b5d-b1a7-e6c2a62eb9b5","ios":"levelo://app?vid=a54c5183-d12c-4b5d-b1a7-e6c2a62eb9b5"},"vehicle_type_id":"4","last_reported":1687540112,"current_range_meters":22400,"station_id":"ce4bhq92rcd13ifvqhjg","pricing_plan_id":"free"},{"bike_id":"7ca6b6ee-4fe7-4251-97ac-cf2dcca093d0","system_id":"levelo_inurba_marseille","lat":43.284793,"lon":5.384113,"is_reserved":false,"is_disabled":false,"rental_uris":{"android":"levelo://app?vid=7ca6b6ee-4fe7-4251-97ac-cf2dcca093d0","ios":"levelo://app?vid=7ca6b6ee-4fe7-4251-97ac-cf2dcca093d0"},"vehicle_type_id":"4","last_reported":1687540112,"current_range_meters":0,"station_id":"ce4bh512rcd13ifvqe3g","pricing_plan_id":"free"},{"bike_id":"b4c950db-352f-4a1a-8e3c-c05101a6dad0","system_id":"levelo_inurba_marseille","lat":43.28866,"lon":5.39315,"is_reserved":false,"is_disabled":false,"rental_uris":{"android":"levelo://app?vid=b4c950db-352f-4a1a-8e3c-c05101a6dad0","ios":"levelo://app?vid=b4c950db-352f-4a1a-8e3c-c05101a6dad0"},"vehicle_type_id":"4","last_reported":1687540112,"current_range_meters":31200,"station_id":"ce4bh2p2rcd13ifvqdi0","pricing_plan_id":"free"},{"bike_id":"ce2a37f6-be63-4ef4-8725-db43e3728050","system_id":"levelo_inurba_marseille","lat":43.284793,"lon":5.384119,"is_reserved":false,"is_disabled":false,"rental_uris":{"android":"levelo://app?vid=ce2a37f6-be63-4ef4-8725-db43e3728050","ios":"levelo://app?vid=ce2a37f6-be63-4ef4-8725-db43e3728050"},"vehicle_type_id":"4","last_reported":1687540112,"current_range_meters":10400,"station_id":"ce4bh512rcd13ifvqe3g","pricing_plan_id":"free"},{"bike_id":"e9bb34fa-f29b-4419-a7d6-dd07a0c9a7bf","system_id":"levelo_inurba_marseille","lat":43.3068,"lon":5.40848,"is_reserved":false,"is_disabled":false,"rental_uris":{"android":"levelo://app?vid=e9bb34fa-f29b-4419-a7d6-dd07a0c9a7bf","ios":"levelo://app?vid=e9bb34fa-f29b-4419-a7d6-dd07a0c9a7bf"},"vehicle_type_id":"4","last_reported":1687540112,"current_range_meters":2000,"station_id":"","pricing_plan_id":"free"},{"bike_id":"e1ed8c54-07d3-4bd7-980f-bdadf04eca23","system_id":"levelo_inurba_marseille","lat":43.28424,"lon":5.34997,"is_reserved":false,"is_disabled":false,"rental_uris":{"android":"levelo://app?vid=e1ed8c54-07d3-4bd7-980f-bdadf04eca23","ios":"levelo://app?vid=e1ed8c54-07d3-4bd7-980f-bdadf04eca23"},"vehicle_type_id":"4","last_reported":1687540112,"current_range_meters":0,"station_id":"ce4bhbh2rcd13ifvqepg","pricing_plan_id":"free"},{"bike_id":"432d1a29-2416-4449-90f3-743bcb1e9d62","system_id":"levelo_inurba_marseille","lat":43.284217,"lon":5.349697,"is_reserved":false,"is_disabled":false,"rental_uris":{"android":"levelo://app?vid=432d1a29-2416-4449-90f3-743bcb1e9d62","ios":"levelo://app?vid=432d1a29-2416-4449-90f3-743bcb1e9d62"},"vehicle_type_id":"4","last_reported":1687540112,"current_range_meters":1600,"station_id":"ce4bhbh2rcd13ifvqepg","pricing_plan_id":"free"},{"bike_id":"4f2ee2ec-795f-4bee-bd06-e02f19591192","system_id":"levelo_inurba_marseille","lat":43.284219,"lon":5.3497,"is_reserved":false,"is_disabled":false,"rental_uris":{"android":"levelo://app?vid=4f2ee2ec-795f-4bee-bd06-e02f19591192","ios":"levelo://app?vid=4f2ee2ec-795f-4bee-bd06-e02f19591192"},"vehicle_type_id":"4","last_reported":1687540112,"current_range_meters":21600,"station_id":"ce4bhbh2rcd13ifvqepg","pricing_plan_id":"free"},{"bike_id":"75cff38d-3467-4b1a-a276-6a37160484b8","system_id":"levelo_inurba_marseille","lat":43.284219,"lon":5.3497,"is_reserved":false,"is_disabled":false,"rental_uris":{"android":"levelo://app?vid=75cff38d-3467-4b1a-a276-6a37160484b8","ios":"levelo://app?vid=75cff38d-3467-4b1a-a276-6a37160484b8"},"vehicle_type_id":"4","last_reported":1687540112,"current_range_meters":2800,"station_id":"ce4bhbh2rcd13ifvqepg","pricing_plan_id":"free"},{"bike_id":"35da3c67-280e-491c-9b2a-2de2444d1d48","system_id":"levelo_inurba_marseille","lat":43.284217,"lon":5.349697,"is_reserved":false,"is_disabled":false,"rental_uris":{"android":"levelo://app?vid=35da3c67-280e-491c-9b2a-2de2444d1d48","ios":"levelo://app?vid=35da3c67-280e-491c-9b2a-2de2444d1d48"},"vehicle_type_id":"4","last_reported":1687540112,"current_range_meters":31200,"station_id":"ce4bhbh2rcd13ifvqepg","pricing_plan_id":"free"},{"bike_id":"664dfe09-65f7-4528-ac70-94b19953f38c","system_id":"levelo_inurba_marseille","lat":43.284217,"lon":5.349697,"is_reserved":false,"is_disabled":false,"rental_uris":{"android":"levelo://app?vid=664dfe09-65f7-4528-ac70-94b19953f38c","ios":"levelo://app?vid=664dfe09-65f7-4528-ac70-94b19953f38c"},"vehicle_type_id":"4","last_reported":1687540112,"current_range_meters":9600,"station_id":"ce4bhbh2rcd13ifvqepg","pricing_plan_id":"free"},{"bike_id":"f838902e-21c4-4a50-88e5-af36dce5105e","system_id":"levelo_inurba_marseille","lat":43.284217,"lon":5.349697,"is_reserved":false,"is_disabled":false,"rental_uris":{"android":"levelo://app?vid=f838902e-21c4-4a50-88e5-af36dce5105e","ios":"levelo://app?vid=f838902e-21c4-4a50-88e5-af36dce5105e"},"vehicle_type_id":"4","last_reported":1687540112,"current_range_meters":2000,"station_id":"ce4bhbh2rcd13ifvqepg","pricing_plan_id":"free"},{"bike_id":"e2cde5b6-59b9-4126-b66e-e1f2318dcbf2","system_id":"levelo_inurba_marseille","lat":43.28268,"lon":5.35069,"is_reserved":false,"is_disabled":false,"rental_uris":{"android":"levelo://app?vid=e2cde5b6-59b9-4126-b66e-e1f2318dcbf2","ios":"levelo://app?vid=e2cde5b6-59b9-4126-b66e-e1f2318dcbf2"},"vehicle_type_id":"4","last_reported":1687540112,"current_range_meters":25600,"station_id":"ce4bhbp2rcd13ifvqerg","pricing_plan_id":"free"},{"bike_id":"77b1138e-1c2a-46a5-b93a-1b2dff7d5d72","system_id":"levelo_inurba_marseille","lat":43.282754,"lon":5.350519,"is_reserved":false,"is_disabled":false,"rental_uris":{"android":"levelo://app?vid=77b1138e-1c2a-46a5-b93a-1b2dff7d5d72","ios":"levelo://app?vid=77b1138e-1c2a-46a5-b93a-1b2dff7d5d72"},"vehicle_type_id":"4","last_reported":1687540112,"current_range_meters":20400,"station_id":"ce4bhbp2rcd13ifvqerg","pricing_plan_id":"free"},{"bike_id":"97b2b888-8068-488a-89a1-07dc8b05e3d0","system_id":"levelo_inurba_marseille","lat":43.2827,"lon":5.35056,"is_reserved":false,"is_disabled":false,"rental_uris":{"android":"levelo://app?vid=97b2b888-8068-488a-89a1-07dc8b05e3d0","ios":"levelo://app?vid=97b2b888-8068-488a-89a1-07dc8b05e3d0"},"vehicle_type_id":"4","last_reported":1687540112,"current_range_meters":24000,"station_id":"ce4bhbp2rcd13ifvqerg","pricing_plan_id":"free"},{"bike_id":"842fc580-dc46-4903-9047-8fb494950860","system_id":"levelo_inurba_marseille","lat":43.283502,"lon":5.386471,"is_reserved":false,"is_disabled":false,"rental_uris":{"android":"levelo://app?vid=842fc580-dc46-4903-9047-8fb494950860","ios":"levelo://app?vid=842fc580-dc46-4903-9047-8fb494950860"},"vehicle_type_id":"4","last_reported":1687540112,"current_range_meters":27600,"station_id":"ce4bh492rcd13ifvqdvg","pricing_plan_id":"free"},{"bike_id":"c3fdbc88-21dd-46f9-bc26-302434135c38","system_id":"levelo_inurba_marseille","lat":43.283502,"lon":5.386471,"is_reserved":false,"is_disabled":false,"rental_uris":{"android":"levelo://app?vid=c3fdbc88-21dd-46f9-bc26-302434135c38","ios":"levelo://app?vid=c3fdbc88-21dd-46f9-bc26-302434135c38"},"vehicle_type_id":"4","last_reported":1687540112,"current_range_meters":3200,"station_id":"ce4bh492rcd13ifvqdvg","pricing_plan_id":"free"},{"bike_id":"c22bfb52-007e-44eb-9682-6c7baca4f7dd","system_id":"levelo_inurba_marseille","lat":43.28038,"lon":5.36937,"is_reserved":false,"is_disabled":false,"rental_uris":{"android":"levelo://app?vid=c22bfb52-007e-44eb-9682-6c7baca4f7dd","ios":"levelo://app?vid=c22bfb52-007e-44eb-9682-6c7baca4f7dd"},"vehicle_type_id":"4","last_reported":1687540112,"current_range_meters":22000,"station_id":"ce4bha12rcd13ifvqef0","pricing_plan_id":"free"},{"bike_id":"248b38ed-f7f8-4ecb-9c01-2751bfe42e90","system_id":"levelo_inurba_marseille","lat":43.283502,"lon":5.386471,"is_reserved":false,"is_disabled":false,"rental_uris":{"android":"levelo://app?vid=248b38ed-f7f8-4ecb-9c01-2751bfe42e90","ios":"levelo://app?vid=248b38ed-f7f8-4ecb-9c01-2751bfe42e90"},"vehicle_type_id":"4","last_reported":1687540112,"current_range_meters":26000,"station_id":"ce4bh492rcd13ifvqdvg","pricing_plan_id":"free"},{"bike_id":"b3439e49-489c-418a-b3ff-73e8a42a3ab4","system_id":"levelo_inurba_marseille","lat":43.28037,"lon":5.36946,"is_reserved":false,"is_disabled":false,"rental_uris":{"android":"levelo://app?vid=b3439e49-489c-418a-b3ff-73e8a42a3ab4","ios":"levelo://app?vid=b3439e49-489c-418a-b3ff-73e8a42a3ab4"},"vehicle_type_id":"4","last_reported":1687540112,"current_range_meters":18400,"station_id":"ce4bha12rcd13ifvqef0","pricing_plan_id":"free"},{"bike_id":"77c7565e-0a45-4c38-8534-0f39320a71ec","system_id":"levelo_inurba_marseille","lat":43.28031,"lon":5.36944,"is_reserved":false,"is_disabled":false,"rental_uris":{"android":"levelo://app?vid=77c7565e-0a45-4c38-8534-0f39320a71ec","ios":"levelo://app?vid=77c7565e-0a45-4c38-8534-0f39320a71ec"},"vehicle_type_id":"4","last_reported":1687540112,"current_range_meters":18000,"station_id":"ce4bha12rcd13ifvqef0","pricing_plan_id":"free"},{"bike_id":"6a60813b-2d37-4fb6-bfa5-cdd11331b619","system_id":"levelo_inurba_marseille","lat":43.28025,"lon":5.36938,"is_reserved":false,"is_disabled":false,"rental_uris":{"android":"levelo://app?vid=6a60813b-2d37-4fb6-bfa5-cdd11331b619","ios":"levelo://app?vid=6a60813b-2d37-4fb6-bfa5-cdd11331b619"},"vehicle_type_id":"4","last_reported":1687540112,"current_range_meters":31200,"station_id":"ce4bha12rcd13ifvqef0","pricing_plan_id":"free"},{"bike_id":"50f3a798-ec79-4fe0-b285-1326ae52c348","system_id":"levelo_inurba_marseille","lat":43.290394,"lon":5.399781,"is_reserved":false,"is_disabled":false,"rental_uris":{"android":"levelo://app?vid=50f3a798-ec79-4fe0-b285-1326ae52c348","ios":"levelo://app?vid=50f3a798-ec79-4fe0-b285-1326ae52c348"},"vehicle_type_id":"4","last_reported":1687540112,"current_range_meters":0,"station_id":"","pricing_plan_id":"free"},{"bike_id":"67f2787f-ed22-4656-b6a0-67526791faef","system_id":"levelo_inurba_marseille","lat":43.29033,"lon":5.3997,"is_reserved":false,"is_disabled":false,"rental_uris":{"android":"levelo://app?vid=67f2787f-ed22-4656-b6a0-67526791faef","ios":"levelo://app?vid=67f2787f-ed22-4656-b6a0-67526791faef"},"vehicle_type_id":"4","last_reported":1687540112,"current_range_meters":30400,"station_id":"","pricing_plan_id":"free"},{"bike_id":"5ce87a72-1b22-4b78-ab62-01be8ed1b43e","system_id":"levelo_inurba_marseille","lat":43.296263,"lon":5.40601,"is_reserved":false,"is_disabled":false,"rental_uris":{"android":"levelo://app?vid=5ce87a72-1b22-4b78-ab62-01be8ed1b43e","ios":"levelo://app?vid=5ce87a72-1b22-4b78-ab62-01be8ed1b43e"},"vehicle_type_id":"4","last_reported":1687540112,"current_range_meters":12400,"station_id":"ce4bh0h2rcd13ifvqd60","pricing_plan_id":"free"},{"bike_id":"8f0c5724-e83a-4a7e-93c7-443b163573aa","system_id":"levelo_inurba_marseille","lat":43.296263,"lon":5.40601,"is_reserved":false,"is_disabled":false,"rental_uris":{"android":"levelo://app?vid=8f0c5724-e83a-4a7e-93c7-443b163573aa","ios":"levelo://app?vid=8f0c5724-e83a-4a7e-93c7-443b163573aa"},"vehicle_type_id":"4","last_reported":1687540112,"current_range_meters":0,"station_id":"ce4bh0h2rcd13ifvqd60","pricing_plan_id":"free"},{"bike_id":"ff60adae-f71a-4e2f-9c03-c28e9ecc3c45","system_id":"levelo_inurba_marseille","lat":43.32765,"lon":5.40743,"is_reserved":false,"is_disabled":false,"rental_uris":{"android":"levelo://app?vid=ff60adae-f71a-4e2f-9c03-c28e9ecc3c45","ios":"levelo://app?vid=ff60adae-f71a-4e2f-9c03-c28e9ecc3c45"},"vehicle_type_id":"4","last_reported":1687540112,"current_range_meters":9600,"station_id":"","pricing_plan_id":"free"},{"bike_id":"3cd10ad7-a316-4ed6-a3d9-f31d3f3622ac","system_id":"levelo_inurba_marseille","lat":43.34473,"lon":5.37832,"is_reserved":false,"is_disabled":false,"rental_uris":{"android":"levelo://app?vid=3cd10ad7-a316-4ed6-a3d9-f31d3f3622ac","ios":"levelo://app?vid=3cd10ad7-a316-4ed6-a3d9-f31d3f3622ac"},"vehicle_type_id":"4","last_reported":1687540112,"current_range_meters":0,"station_id":"","pricing_plan_id":"free"},{"bike_id":"e6a808a4-8f04-49a4-bd0e-59dd64c08f31","system_id":"levelo_inurba_marseille","lat":43.28573,"lon":5.394992,"is_reserved":false,"is_disabled":false,"rental_uris":{"android":"levelo://app?vid=e6a808a4-8f04-49a4-bd0e-59dd64c08f31","ios":"levelo://app?vid=e6a808a4-8f04-49a4-bd0e-59dd64c08f31"},"vehicle_type_id":"4","last_reported":1687540112,"current_range_meters":4400,"station_id":"ce4bh292rcd13ifvqdg0","pricing_plan_id":"free"},{"bike_id":"679183a5-b138-4e69-baae-2b6d77e8e244","system_id":"levelo_inurba_marseille","lat":43.285742,"lon":5.395004,"is_reserved":false,"is_disabled":false,"rental_uris":{"android":"levelo://app?vid=679183a5-b138-4e69-baae-2b6d77e8e244","ios":"levelo://app?vid=679183a5-b138-4e69-baae-2b6d77e8e244"},"vehicle_type_id":"4","last_reported":1687540112,"current_range_meters":14000,"station_id":"ce4bh292rcd13ifvqdg0","pricing_plan_id":"free"},{"bike_id":"514e4d9d-f74c-4bd1-8d07-610055ad8743","system_id":"levelo_inurba_marseille","lat":43.326605,"lon":5.409903,"is_reserved":false,"is_disabled":false,"rental_uris":{"android":"levelo://app?vid=514e4d9d-f74c-4bd1-8d07-610055ad8743","ios":"levelo://app?vid=514e4d9d-f74c-4bd1-8d07-610055ad8743"},"vehicle_type_id":"4","last_reported":1687540112,"current_range_meters":400,"station_id":"ce4bhpp2rcd13ifvqhgg","pricing_plan_id":"free"},{"bike_id":"396b44d2-0222-401b-ad95-29df0edcef80","system_id":"levelo_inurba_marseille","lat":43.32655,"lon":5.40991,"is_reserved":false,"is_disabled":false,"rental_uris":{"android":"levelo://app?vid=396b44d2-0222-401b-ad95-29df0edcef80","ios":"levelo://app?vid=396b44d2-0222-401b-ad95-29df0edcef80"},"vehicle_type_id":"4","last_reported":1687540112,"current_range_meters":20800,"station_id":"ce4bhpp2rcd13ifvqhgg","pricing_plan_id":"free"},{"bike_id":"fc2a51fe-3bf8-46f3-9fe8-f24612d4a02a","system_id":"levelo_inurba_marseille","lat":43.326565,"lon":5.409975,"is_reserved":false,"is_disabled":false,"rental_uris":{"android":"levelo://app?vid=fc2a51fe-3bf8-46f3-9fe8-f24612d4a02a","ios":"levelo://app?vid=fc2a51fe-3bf8-46f3-9fe8-f24612d4a02a"},"vehicle_type_id":"4","last_reported":1687540112,"current_range_meters":6800,"station_id":"ce4bhpp2rcd13ifvqhgg","pricing_plan_id":"free"},{"bike_id":"f47d889e-f3a7-4cf7-b89b-498d12032e77","system_id":"levelo_inurba_marseille","lat":43.29298,"lon":5.40656,"is_reserved":false,"is_disabled":false,"rental_uris":{"android":"levelo://app?vid=f47d889e-f3a7-4cf7-b89b-498d12032e77","ios":"levelo://app?vid=f47d889e-f3a7-4cf7-b89b-498d12032e77"},"vehicle_type_id":"4","last_reported":1687540112,"current_range_meters":7600,"station_id":"","pricing_plan_id":"free"},{"bike_id":"0b2f77fa-e3d3-47e4-92d9-93394be74712","system_id":"levelo_inurba_marseille","lat":43.27902,"lon":5.38015,"is_reserved":false,"is_disabled":false,"rental_uris":{"android":"levelo://app?vid=0b2f77fa-e3d3-47e4-92d9-93394be74712","ios":"levelo://app?vid=0b2f77fa-e3d3-47e4-92d9-93394be74712"},"vehicle_type_id":"4","last_reported":1687540112,"current_range_meters":19600,"station_id":"ce4bhf92rcd13ifvqf50","pricing_plan_id":"free"},{"bike_id":"50fd953c-9754-45f4-aec7-ae52bb9eb6fe","system_id":"levelo_inurba_marseille","lat":43.287154,"lon":5.399979,"is_reserved":false,"is_disabled":false,"rental_uris":{"android":"levelo://app?vid=50fd953c-9754-45f4-aec7-ae52bb9eb6fe","ios":"levelo://app?vid=50fd953c-9754-45f4-aec7-ae52bb9eb6fe"},"vehicle_type_id":"4","last_reported":1687540112,"current_range_meters":31200,"station_id":"ce4bho92rcd13ifvqh3g","pricing_plan_id":"free"},{"bike_id":"328e5069-f0af-4c27-919e-273c192f13c7","system_id":"levelo_inurba_marseille","lat":43.287154,"lon":5.399979,"is_reserved":false,"is_disabled":false,"rental_uris":{"android":"levelo://app?vid=328e5069-f0af-4c27-919e-273c192f13c7","ios":"levelo://app?vid=328e5069-f0af-4c27-919e-273c192f13c7"},"vehicle_type_id":"4","last_reported":1687540112,"current_range_meters":28800,"station_id":"ce4bho92rcd13ifvqh3g","pricing_plan_id":"free"},{"bike_id":"37533b06-10eb-4273-819c-511c77f1d800","system_id":"levelo_inurba_marseille","lat":43.29162,"lon":5.40651,"is_reserved":false,"is_disabled":false,"rental_uris":{"android":"levelo://app?vid=37533b06-10eb-4273-819c-511c77f1d800","ios":"levelo://app?vid=37533b06-10eb-4273-819c-511c77f1d800"},"vehicle_type_id":"4","last_reported":1687540112,"current_range_meters":31200,"station_id":"","pricing_plan_id":"free"},{"bike_id":"714f269e-4d43-4c5b-8193-104ba4db3c70","system_id":"levelo_inurba_marseille","lat":43.320045,"lon":5.415048,"is_reserved":false,"is_disabled":false,"rental_uris":{"android":"levelo://app?vid=714f269e-4d43-4c5b-8193-104ba4db3c70","ios":"levelo://app?vid=714f269e-4d43-4c5b-8193-104ba4db3c70"},"vehicle_type_id":"4","last_reported":1687540112,"current_range_meters":31200,"station_id":"ce4bhq92rcd13ifvqhkg","pricing_plan_id":"free"},{"bike_id":"d3a8fd20-8ad5-4478-a119-0a8854d87289","system_id":"levelo_inurba_marseille","lat":43.320045,"lon":5.415046,"is_reserved":false,"is_disabled":false,"rental_uris":{"android":"levelo://app?vid=d3a8fd20-8ad5-4478-a119-0a8854d87289","ios":"levelo://app?vid=d3a8fd20-8ad5-4478-a119-0a8854d87289"},"vehicle_type_id":"4","last_reported":1687540112,"current_range_meters":30000,"station_id":"ce4bhq92rcd13ifvqhkg","pricing_plan_id":"free"},{"bike_id":"c5b3ed0c-2c7e-41d5-b4c8-e9c413c2916b","system_id":"levelo_inurba_marseille","lat":43.320045,"lon":5.415046,"is_reserved":false,"is_disabled":false,"rental_uris":{"android":"levelo://app?vid=c5b3ed0c-2c7e-41d5-b4c8-e9c413c2916b","ios":"levelo://app?vid=c5b3ed0c-2c7e-41d5-b4c8-e9c413c2916b"},"vehicle_type_id":"4","last_reported":1687540112,"current_range_meters":28800,"station_id":"ce4bhq92rcd13ifvqhkg","pricing_plan_id":"free"},{"bike_id":"c03c8146-32df-4423-bf91-0d514d7f16e7","system_id":"levelo_inurba_marseille","lat":43.320045,"lon":5.415046,"is_reserved":false,"is_disabled":false,"rental_uris":{"android":"levelo://app?vid=c03c8146-32df-4423-bf91-0d514d7f16e7","ios":"levelo://app?vid=c03c8146-32df-4423-bf91-0d514d7f16e7"},"vehicle_type_id":"4","last_reported":1687540112,"current_range_meters":31200,"station_id":"ce4bhq92rcd13ifvqhkg","pricing_plan_id":"free"},{"bike_id":"eb0b2921-e409-4f3b-a8a9-e49ed772bedc","system_id":"levelo_inurba_marseille","lat":43.320045,"lon":5.415046,"is_reserved":false,"is_disabled":false,"rental_uris":{"android":"levelo://app?vid=eb0b2921-e409-4f3b-a8a9-e49ed772bedc","ios":"levelo://app?vid=eb0b2921-e409-4f3b-a8a9-e49ed772bedc"},"vehicle_type_id":"4","last_reported":1687540112,"current_range_meters":30800,"station_id":"ce4bhq92rcd13ifvqhkg","pricing_plan_id":"free"},{"bike_id":"1db4ebe4-77d1-4b67-ab16-92d1c480f6ce","system_id":"levelo_inurba_marseille","lat":43.320045,"lon":5.415046,"is_reserved":false,"is_disabled":false,"rental_uris":{"android":"levelo://app?vid=1db4ebe4-77d1-4b67-ab16-92d1c480f6ce","ios":"levelo://app?vid=1db4ebe4-77d1-4b67-ab16-92d1c480f6ce"},"vehicle_type_id":"4","last_reported":1687540112,"current_range_meters":30400,"station_id":"ce4bhq92rcd13ifvqhkg","pricing_plan_id":"free"},{"bike_id":"4a151ca1-0ec0-4c6b-a6b7-f5ddddc1b47d","system_id":"levelo_inurba_marseille","lat":43.320045,"lon":5.415046,"is_reserved":false,"is_disabled":false,"rental_uris":{"android":"levelo://app?vid=4a151ca1-0ec0-4c6b-a6b7-f5ddddc1b47d","ios":"levelo://app?vid=4a151ca1-0ec0-4c6b-a6b7-f5ddddc1b47d"},"vehicle_type_id":"4","last_reported":1687540112,"current_range_meters":29200,"station_id":"ce4bhq92rcd13ifvqhkg","pricing_plan_id":"free"},{"bike_id":"59ce8f1b-7e7c-4e06-9e4d-1455e5acbf59","system_id":"levelo_inurba_marseille","lat":43.320045,"lon":5.415046,"is_reserved":false,"is_disabled":false,"rental_uris":{"android":"levelo://app?vid=59ce8f1b-7e7c-4e06-9e4d-1455e5acbf59","ios":"levelo://app?vid=59ce8f1b-7e7c-4e06-9e4d-1455e5acbf59"},"vehicle_type_id":"4","last_reported":1687540112,"current_range_meters":29600,"station_id":"ce4bhq92rcd13ifvqhkg","pricing_plan_id":"free"},{"bike_id":"4c9ec7c0-7f36-4341-9174-e3139e3799c6","system_id":"levelo_inurba_marseille","lat":43.320045,"lon":5.415046,"is_reserved":false,"is_disabled":false,"rental_uris":{"android":"levelo://app?vid=4c9ec7c0-7f36-4341-9174-e3139e3799c6","ios":"levelo://app?vid=4c9ec7c0-7f36-4341-9174-e3139e3799c6"},"vehicle_type_id":"4","last_reported":1687540112,"current_range_meters":30400,"station_id":"ce4bhq92rcd13ifvqhkg","pricing_plan_id":"free"},{"bike_id":"b73baaaf-eefa-465f-a8bd-4b96b80f55ee","system_id":"levelo_inurba_marseille","lat":43.32042,"lon":5.41546,"is_reserved":false,"is_disabled":false,"rental_uris":{"android":"levelo://app?vid=b73baaaf-eefa-465f-a8bd-4b96b80f55ee","ios":"levelo://app?vid=b73baaaf-eefa-465f-a8bd-4b96b80f55ee"},"vehicle_type_id":"4","last_reported":1687540112,"current_range_meters":4400,"station_id":"ce4bhq92rcd13ifvqhkg","pricing_plan_id":"free"},{"bike_id":"ae238f72-c904-4dee-8e98-cfc5eeabd38c","system_id":"levelo_inurba_marseille","lat":43.320045,"lon":5.415046,"is_reserved":false,"is_disabled":false,"rental_uris":{"android":"levelo://app?vid=ae238f72-c904-4dee-8e98-cfc5eeabd38c","ios":"levelo://app?vid=ae238f72-c904-4dee-8e98-cfc5eeabd38c"},"vehicle_type_id":"4","last_reported":1687540112,"current_range_meters":29200,"station_id":"ce4bhq92rcd13ifvqhkg","pricing_plan_id":"free"},{"bike_id":"4d3c6f00-8ce8-4d26-b641-164888ab9284","system_id":"levelo_inurba_marseille","lat":43.320045,"lon":5.415046,"is_reserved":false,"is_disabled":false,"rental_uris":{"android":"levelo://app?vid=4d3c6f00-8ce8-4d26-b641-164888ab9284","ios":"levelo://app?vid=4d3c6f00-8ce8-4d26-b641-164888ab9284"},"vehicle_type_id":"4","last_reported":1687540112,"current_range_meters":0,"station_id":"ce4bhq92rcd13ifvqhkg","pricing_plan_id":"free"},{"bike_id":"31c27652-44e1-4319-bb84-bc5ebdf38f1f","system_id":"levelo_inurba_marseille","lat":43.320045,"lon":5.415046,"is_reserved":false,"is_disabled":false,"rental_uris":{"android":"levelo://app?vid=31c27652-44e1-4319-bb84-bc5ebdf38f1f","ios":"levelo://app?vid=31c27652-44e1-4319-bb84-bc5ebdf38f1f"},"vehicle_type_id":"4","last_reported":1687540112,"current_range_meters":9600,"station_id":"ce4bhq92rcd13ifvqhkg","pricing_plan_id":"free"},{"bike_id":"f81b3510-4141-4ab7-a052-0b576aff0a16","system_id":"levelo_inurba_marseille","lat":43.320045,"lon":5.415048,"is_reserved":false,"is_disabled":false,"rental_uris":{"android":"levelo://app?vid=f81b3510-4141-4ab7-a052-0b576aff0a16","ios":"levelo://app?vid=f81b3510-4141-4ab7-a052-0b576aff0a16"},"vehicle_type_id":"4","last_reported":1687540112,"current_range_meters":31200,"station_id":"ce4bhq92rcd13ifvqhkg","pricing_plan_id":"free"},{"bike_id":"9dc1c352-f1bb-4dd8-89ab-8b52e35659df","system_id":"levelo_inurba_marseille","lat":43.320045,"lon":5.415046,"is_reserved":false,"is_disabled":false,"rental_uris":{"android":"levelo://app?vid=9dc1c352-f1bb-4dd8-89ab-8b52e35659df","ios":"levelo://app?vid=9dc1c352-f1bb-4dd8-89ab-8b52e35659df"},"vehicle_type_id":"4","last_reported":1687540112,"current_range_meters":30800,"station_id":"ce4bhq92rcd13ifvqhkg","pricing_plan_id":"free"},{"bike_id":"0ec26e66-f8d8-4683-89a5-4552b4397057","system_id":"levelo_inurba_marseille","lat":43.29261,"lon":5.40899,"is_reserved":false,"is_disabled":false,"rental_uris":{"android":"levelo://app?vid=0ec26e66-f8d8-4683-89a5-4552b4397057","ios":"levelo://app?vid=0ec26e66-f8d8-4683-89a5-4552b4397057"},"vehicle_type_id":"4","last_reported":1687540112,"current_range_meters":19600,"station_id":"ce4bh192rcd13ifvqdc0","pricing_plan_id":"free"},{"bike_id":"2aac7f29-8288-493c-ba15-cab5d01852d1","system_id":"levelo_inurba_marseille","lat":43.27618,"lon":5.361009,"is_reserved":false,"is_disabled":false,"rental_uris":{"android":"levelo://app?vid=2aac7f29-8288-493c-ba15-cab5d01852d1","ios":"levelo://app?vid=2aac7f29-8288-493c-ba15-cab5d01852d1"},"vehicle_type_id":"4","last_reported":1687540112,"current_range_meters":31200,"station_id":"ce4bgj92rcd13ifvqbe0","pricing_plan_id":"free"},{"bike_id":"c0feb2e0-a511-480b-b459-def5efc814d1","system_id":"levelo_inurba_marseille","lat":43.303837,"lon":5.418724,"is_reserved":false,"is_disabled":false,"rental_uris":{"android":"levelo://app?vid=c0feb2e0-a511-480b-b459-def5efc814d1","ios":"levelo://app?vid=c0feb2e0-a511-480b-b459-def5efc814d1"},"vehicle_type_id":"4","last_reported":1687540112,"current_range_meters":5200,"station_id":"ce4bhop2rcd13ifvqh7g","pricing_plan_id":"free"},{"bike_id":"79cc00e8-1e43-47e9-8674-c576036f728e","system_id":"levelo_inurba_marseille","lat":43.27618,"lon":5.361009,"is_reserved":false,"is_disabled":false,"rental_uris":{"android":"levelo://app?vid=79cc00e8-1e43-47e9-8674-c576036f728e","ios":"levelo://app?vid=79cc00e8-1e43-47e9-8674-c576036f728e"},"vehicle_type_id":"4","last_reported":1687540112,"current_range_meters":31200,"station_id":"ce4bgj92rcd13ifvqbe0","pricing_plan_id":"free"},{"bike_id":"db9306c1-8421-4cc5-bcc5-bc532d34ca2e","system_id":"levelo_inurba_marseille","lat":43.3254,"lon":5.41439,"is_reserved":false,"is_disabled":false,"rental_uris":{"android":"levelo://app?vid=db9306c1-8421-4cc5-bcc5-bc532d34ca2e","ios":"levelo://app?vid=db9306c1-8421-4cc5-bcc5-bc532d34ca2e"},"vehicle_type_id":"4","last_reported":1687540112,"current_range_meters":31600,"station_id":"ce4bhq12rcd13ifvqhhg","pricing_plan_id":"free"},{"bike_id":"aa6fede0-b5be-4741-8aa3-0b0e81d7effc","system_id":"levelo_inurba_marseille","lat":43.27618,"lon":5.361009,"is_reserved":false,"is_disabled":false,"rental_uris":{"android":"levelo://app?vid=aa6fede0-b5be-4741-8aa3-0b0e81d7effc","ios":"levelo://app?vid=aa6fede0-b5be-4741-8aa3-0b0e81d7effc"},"vehicle_type_id":"4","last_reported":1687540112,"current_range_meters":29200,"station_id":"ce4bgj92rcd13ifvqbe0","pricing_plan_id":"free"},{"bike_id":"92d6ac23-1b36-4fef-bc14-78ba58d8e429","system_id":"levelo_inurba_marseille","lat":43.32531,"lon":5.41457,"is_reserved":false,"is_disabled":false,"rental_uris":{"android":"levelo://app?vid=92d6ac23-1b36-4fef-bc14-78ba58d8e429","ios":"levelo://app?vid=92d6ac23-1b36-4fef-bc14-78ba58d8e429"},"vehicle_type_id":"4","last_reported":1687540112,"current_range_meters":31600,"station_id":"ce4bhq12rcd13ifvqhhg","pricing_plan_id":"free"},{"bike_id":"690bec34-7f0e-48bd-bb02-4bb9a41a6e38","system_id":"levelo_inurba_marseille","lat":43.336134,"lon":5.410341,"is_reserved":false,"is_disabled":false,"rental_uris":{"android":"levelo://app?vid=690bec34-7f0e-48bd-bb02-4bb9a41a6e38","ios":"levelo://app?vid=690bec34-7f0e-48bd-bb02-4bb9a41a6e38"},"vehicle_type_id":"4","last_reported":1687540112,"current_range_meters":27600,"station_id":"ce4bhqh2rcd13ifvqhmg","pricing_plan_id":"free"},{"bike_id":"64615182-991e-45fd-b031-ab2494522d50","system_id":"levelo_inurba_marseille","lat":43.280784,"lon":5.396622,"is_reserved":false,"is_disabled":false,"rental_uris":{"android":"levelo://app?vid=64615182-991e-45fd-b031-ab2494522d50","ios":"levelo://app?vid=64615182-991e-45fd-b031-ab2494522d50"},"vehicle_type_id":"4","last_reported":1687540112,"current_range_meters":400,"station_id":"ce4bho12rcd13ifvqh2g","pricing_plan_id":"free"},{"bike_id":"72e7bc03-e234-4515-b6d8-7f510adbe886","system_id":"levelo_inurba_marseille","lat":43.27389,"lon":5.36258,"is_reserved":false,"is_disabled":false,"rental_uris":{"android":"levelo://app?vid=72e7bc03-e234-4515-b6d8-7f510adbe886","ios":"levelo://app?vid=72e7bc03-e234-4515-b6d8-7f510adbe886"},"vehicle_type_id":"4","last_reported":1687540112,"current_range_meters":31200,"station_id":"ce4bhbh2rcd13ifvqeo0","pricing_plan_id":"free"},{"bike_id":"bb1996ae-a15f-4dac-988e-dc6006c98c1d","system_id":"levelo_inurba_marseille","lat":43.27831,"lon":5.39208,"is_reserved":false,"is_disabled":false,"rental_uris":{"android":"levelo://app?vid=bb1996ae-a15f-4dac-988e-dc6006c98c1d","ios":"levelo://app?vid=bb1996ae-a15f-4dac-988e-dc6006c98c1d"},"vehicle_type_id":"4","last_reported":1687540112,"current_range_meters":18000,"station_id":"ce4bhjp2rcd13ifvqga0","pricing_plan_id":"free"},{"bike_id":"580aa20f-99ca-48a6-b4c1-67b5389d6513","system_id":"levelo_inurba_marseille","lat":43.275625,"lon":5.384392,"is_reserved":false,"is_disabled":false,"rental_uris":{"android":"levelo://app?vid=580aa20f-99ca-48a6-b4c1-67b5389d6513","ios":"levelo://app?vid=580aa20f-99ca-48a6-b4c1-67b5389d6513"},"vehicle_type_id":"4","last_reported":1687540112,"current_range_meters":8000,"station_id":"ce4bhh92rcd13ifvqfi0","pricing_plan_id":"free"},{"bike_id":"90412c43-c844-4bc0-abbf-d6cce66ccbd0","system_id":"levelo_inurba_marseille","lat":43.275625,"lon":5.384392,"is_reserved":false,"is_disabled":false,"rental_uris":{"android":"levelo://app?vid=90412c43-c844-4bc0-abbf-d6cce66ccbd0","ios":"levelo://app?vid=90412c43-c844-4bc0-abbf-d6cce66ccbd0"},"vehicle_type_id":"4","last_reported":1687540112,"current_range_meters":13200,"station_id":"ce4bhh92rcd13ifvqfi0","pricing_plan_id":"free"},{"bike_id":"9e39ac95-535c-487c-97b8-e422b4c49b87","system_id":"levelo_inurba_marseille","lat":43.275625,"lon":5.384392,"is_reserved":false,"is_disabled":false,"rental_uris":{"android":"levelo://app?vid=9e39ac95-535c-487c-97b8-e422b4c49b87","ios":"levelo://app?vid=9e39ac95-535c-487c-97b8-e422b4c49b87"},"vehicle_type_id":"4","last_reported":1687540112,"current_range_meters":27600,"station_id":"ce4bhh92rcd13ifvqfi0","pricing_plan_id":"free"},{"bike_id":"6a9213a0-804d-480f-8646-d3629e1ddb10","system_id":"levelo_inurba_marseille","lat":43.275625,"lon":5.384392,"is_reserved":false,"is_disabled":false,"rental_uris":{"android":"levelo://app?vid=6a9213a0-804d-480f-8646-d3629e1ddb10","ios":"levelo://app?vid=6a9213a0-804d-480f-8646-d3629e1ddb10"},"vehicle_type_id":"4","last_reported":1687540112,"current_range_meters":15600,"station_id":"ce4bhh92rcd13ifvqfi0","pricing_plan_id":"free"},{"bike_id":"9ec10e1b-04f0-4001-a113-b9bc5600c0b4","system_id":"levelo_inurba_marseille","lat":43.33612,"lon":5.410321,"is_reserved":false,"is_disabled":false,"rental_uris":{"android":"levelo://app?vid=9ec10e1b-04f0-4001-a113-b9bc5600c0b4","ios":"levelo://app?vid=9ec10e1b-04f0-4001-a113-b9bc5600c0b4"},"vehicle_type_id":"4","last_reported":1687540112,"current_range_meters":28000,"station_id":"ce4bhqh2rcd13ifvqhmg","pricing_plan_id":"free"},{"bike_id":"c981e510-1bf9-4522-a6c1-bcba48ec701f","system_id":"levelo_inurba_marseille","lat":43.275625,"lon":5.384392,"is_reserved":false,"is_disabled":false,"rental_uris":{"android":"levelo://app?vid=c981e510-1bf9-4522-a6c1-bcba48ec701f","ios":"levelo://app?vid=c981e510-1bf9-4522-a6c1-bcba48ec701f"},"vehicle_type_id":"4","last_reported":1687540112,"current_range_meters":6400,"station_id":"ce4bhh92rcd13ifvqfi0","pricing_plan_id":"free"},{"bike_id":"b02f6ca8-6049-4ee8-a6e4-b91b1aaba674","system_id":"levelo_inurba_marseille","lat":43.275625,"lon":5.384392,"is_reserved":false,"is_disabled":false,"rental_uris":{"android":"levelo://app?vid=b02f6ca8-6049-4ee8-a6e4-b91b1aaba674","ios":"levelo://app?vid=b02f6ca8-6049-4ee8-a6e4-b91b1aaba674"},"vehicle_type_id":"4","last_reported":1687540112,"current_range_meters":16800,"station_id":"ce4bhh92rcd13ifvqfi0","pricing_plan_id":"free"},{"bike_id":"36b40011-df6b-4719-ab33-90653fe54093","system_id":"levelo_inurba_marseille","lat":43.275625,"lon":5.384392,"is_reserved":false,"is_disabled":false,"rental_uris":{"android":"levelo://app?vid=36b40011-df6b-4719-ab33-90653fe54093","ios":"levelo://app?vid=36b40011-df6b-4719-ab33-90653fe54093"},"vehicle_type_id":"4","last_reported":1687540112,"current_range_meters":1600,"station_id":"ce4bhh92rcd13ifvqfi0","pricing_plan_id":"free"},{"bike_id":"3de91478-419f-4f8b-9e75-b58b4bca1a26","system_id":"levelo_inurba_marseille","lat":43.336134,"lon":5.410341,"is_reserved":false,"is_disabled":false,"rental_uris":{"android":"levelo://app?vid=3de91478-419f-4f8b-9e75-b58b4bca1a26","ios":"levelo://app?vid=3de91478-419f-4f8b-9e75-b58b4bca1a26"},"vehicle_type_id":"4","last_reported":1687540112,"current_range_meters":31200,"station_id":"ce4bhqh2rcd13ifvqhmg","pricing_plan_id":"free"},{"bike_id":"75626c86-13a4-49d4-b625-56404a3007f6","system_id":"levelo_inurba_marseille","lat":43.27677,"lon":5.38857,"is_reserved":false,"is_disabled":false,"rental_uris":{"android":"levelo://app?vid=75626c86-13a4-49d4-b625-56404a3007f6","ios":"levelo://app?vid=75626c86-13a4-49d4-b625-56404a3007f6"},"vehicle_type_id":"4","last_reported":1687540112,"current_range_meters":9600,"station_id":"ce4bhi12rcd13ifvqfo0","pricing_plan_id":"free"},{"bike_id":"ff88b75d-e5fd-4107-9c65-36af7659d09b","system_id":"levelo_inurba_marseille","lat":43.33612,"lon":5.410321,"is_reserved":false,"is_disabled":false,"rental_uris":{"android":"levelo://app?vid=ff88b75d-e5fd-4107-9c65-36af7659d09b","ios":"levelo://app?vid=ff88b75d-e5fd-4107-9c65-36af7659d09b"},"vehicle_type_id":"4","last_reported":1687540112,"current_range_meters":31200,"station_id":"ce4bhqh2rcd13ifvqhmg","pricing_plan_id":"free"},{"bike_id":"7cfbf53d-887e-42e6-bdcf-a1040971b7d1","system_id":"levelo_inurba_marseille","lat":43.336134,"lon":5.410341,"is_reserved":false,"is_disabled":false,"rental_uris":{"android":"levelo://app?vid=7cfbf53d-887e-42e6-bdcf-a1040971b7d1","ios":"levelo://app?vid=7cfbf53d-887e-42e6-bdcf-a1040971b7d1"},"vehicle_type_id":"4","last_reported":1687540112,"current_range_meters":28800,"station_id":"ce4bhqh2rcd13ifvqhmg","pricing_plan_id":"free"},{"bike_id":"6247eebd-3a8f-44ae-bdeb-20ec321836a6","system_id":"levelo_inurba_marseille","lat":43.33612,"lon":5.410321,"is_reserved":false,"is_disabled":false,"rental_uris":{"android":"levelo://app?vid=6247eebd-3a8f-44ae-bdeb-20ec321836a6","ios":"levelo://app?vid=6247eebd-3a8f-44ae-bdeb-20ec321836a6"},"vehicle_type_id":"4","last_reported":1687540112,"current_range_meters":31200,"station_id":"ce4bhqh2rcd13ifvqhmg","pricing_plan_id":"free"},{"bike_id":"7588618b-2464-44d1-8853-2036d6815669","system_id":"levelo_inurba_marseille","lat":43.276771,"lon":5.388799,"is_reserved":false,"is_disabled":false,"rental_uris":{"android":"levelo://app?vid=7588618b-2464-44d1-8853-2036d6815669","ios":"levelo://app?vid=7588618b-2464-44d1-8853-2036d6815669"},"vehicle_type_id":"4","last_reported":1687540112,"current_range_meters":26800,"station_id":"ce4bhi12rcd13ifvqfo0","pricing_plan_id":"free"},{"bike_id":"9dfa5fbf-addf-4748-813d-695fd9d8058b","system_id":"levelo_inurba_marseille","lat":43.317121,"lon":5.423936,"is_reserved":false,"is_disabled":false,"rental_uris":{"android":"levelo://app?vid=9dfa5fbf-addf-4748-813d-695fd9d8058b","ios":"levelo://app?vid=9dfa5fbf-addf-4748-813d-695fd9d8058b"},"vehicle_type_id":"4","last_reported":1687540112,"current_range_meters":20000,"station_id":"ce4bhp92rcd13ifvqhbg","pricing_plan_id":"free"},{"bike_id":"01208fbe-9431-4ed6-ac1f-e90329c35bdb","system_id":"levelo_inurba_marseille","lat":43.26955,"lon":5.36633,"is_reserved":false,"is_disabled":false,"rental_uris":{"android":"levelo://app?vid=01208fbe-9431-4ed6-ac1f-e90329c35bdb","ios":"levelo://app?vid=01208fbe-9431-4ed6-ac1f-e90329c35bdb"},"vehicle_type_id":"4","last_reported":1687540112,"current_range_meters":6800,"station_id":"","pricing_plan_id":"free"},{"bike_id":"25875eb4-b804-490c-95ca-51f14d8497a3","system_id":"levelo_inurba_marseille","lat":43.272116,"lon":5.391747,"is_reserved":false,"is_disabled":false,"rental_uris":{"android":"levelo://app?vid=25875eb4-b804-490c-95ca-51f14d8497a3","ios":"levelo://app?vid=25875eb4-b804-490c-95ca-51f14d8497a3"},"vehicle_type_id":"4","last_reported":1687540112,"current_range_meters":400,"station_id":"ce4bhhp2rcd13ifvqfm0","pricing_plan_id":"free"},{"bike_id":"d69fed3a-efe9-46fb-b1dc-1240b8978d3e","system_id":"levelo_inurba_marseille","lat":43.272116,"lon":5.391763,"is_reserved":false,"is_disabled":false,"rental_uris":{"android":"levelo://app?vid=d69fed3a-efe9-46fb-b1dc-1240b8978d3e","ios":"levelo://app?vid=d69fed3a-efe9-46fb-b1dc-1240b8978d3e"},"vehicle_type_id":"4","last_reported":1687540112,"current_range_meters":29600,"station_id":"ce4bhhp2rcd13ifvqfm0","pricing_plan_id":"free"},{"bike_id":"0f9a4df9-b1a3-4863-8d8d-63769586ebd9","system_id":"levelo_inurba_marseille","lat":43.272116,"lon":5.391747,"is_reserved":false,"is_disabled":false,"rental_uris":{"android":"levelo://app?vid=0f9a4df9-b1a3-4863-8d8d-63769586ebd9","ios":"levelo://app?vid=0f9a4df9-b1a3-4863-8d8d-63769586ebd9"},"vehicle_type_id":"4","last_reported":1687540112,"current_range_meters":26800,"station_id":"ce4bhhp2rcd13ifvqfm0","pricing_plan_id":"free"},{"bike_id":"4fa21102-9c5c-4785-8da0-3d7f957b0c31","system_id":"levelo_inurba_marseille","lat":43.272118,"lon":5.391758,"is_reserved":false,"is_disabled":false,"rental_uris":{"android":"levelo://app?vid=4fa21102-9c5c-4785-8da0-3d7f957b0c31","ios":"levelo://app?vid=4fa21102-9c5c-4785-8da0-3d7f957b0c31"},"vehicle_type_id":"4","last_reported":1687540112,"current_range_meters":28400,"station_id":"ce4bhhp2rcd13ifvqfm0","pricing_plan_id":"free"},{"bike_id":"a5d758dc-87cb-4141-8674-a04b187df2b1","system_id":"levelo_inurba_marseille","lat":43.27203,"lon":5.39191,"is_reserved":false,"is_disabled":false,"rental_uris":{"android":"levelo://app?vid=a5d758dc-87cb-4141-8674-a04b187df2b1","ios":"levelo://app?vid=a5d758dc-87cb-4141-8674-a04b187df2b1"},"vehicle_type_id":"4","last_reported":1687540112,"current_range_meters":23200,"station_id":"ce4bhhp2rcd13ifvqfm0","pricing_plan_id":"free"},{"bike_id":"49ab409f-fa57-4046-ba0e-1a34adf52115","system_id":"levelo_inurba_marseille","lat":43.26937,"lon":5.38149,"is_reserved":false,"is_disabled":false,"rental_uris":{"android":"levelo://app?vid=49ab409f-fa57-4046-ba0e-1a34adf52115","ios":"levelo://app?vid=49ab409f-fa57-4046-ba0e-1a34adf52115"},"vehicle_type_id":"4","last_reported":1687540112,"current_range_meters":3200,"station_id":"","pricing_plan_id":"free"},{"bike_id":"291b0e9a-8d3a-415f-9bdd-6882e3b2e470","system_id":"levelo_inurba_marseille","lat":43.278128,"lon":5.407195,"is_reserved":false,"is_disabled":false,"rental_uris":{"android":"levelo://app?vid=291b0e9a-8d3a-415f-9bdd-6882e3b2e470","ios":"levelo://app?vid=291b0e9a-8d3a-415f-9bdd-6882e3b2e470"},"vehicle_type_id":"4","last_reported":1687540112,"current_range_meters":25600,"station_id":"ce4bhnh2rcd13ifvqgtg","pricing_plan_id":"free"},{"bike_id":"c35fd08a-d40f-43d5-833b-d4fd444d248f","system_id":"levelo_inurba_marseille","lat":43.278128,"lon":5.407195,"is_reserved":false,"is_disabled":false,"rental_uris":{"android":"levelo://app?vid=c35fd08a-d40f-43d5-833b-d4fd444d248f","ios":"levelo://app?vid=c35fd08a-d40f-43d5-833b-d4fd444d248f"},"vehicle_type_id":"4","last_reported":1687540112,"current_range_meters":5600,"station_id":"ce4bhnh2rcd13ifvqgtg","pricing_plan_id":"free"},{"bike_id":"37ef78a2-a765-4188-a995-b5801220134d","system_id":"levelo_inurba_marseille","lat":43.27809,"lon":5.40711,"is_reserved":false,"is_disabled":false,"rental_uris":{"android":"levelo://app?vid=37ef78a2-a765-4188-a995-b5801220134d","ios":"levelo://app?vid=37ef78a2-a765-4188-a995-b5801220134d"},"vehicle_type_id":"4","last_reported":1687540112,"current_range_meters":7200,"station_id":"ce4bhnh2rcd13ifvqgtg","pricing_plan_id":"free"},{"bike_id":"8895a59f-b97a-4cdf-8869-04261d5517ed","system_id":"levelo_inurba_marseille","lat":43.278128,"lon":5.407195,"is_reserved":false,"is_disabled":false,"rental_uris":{"android":"levelo://app?vid=8895a59f-b97a-4cdf-8869-04261d5517ed","ios":"levelo://app?vid=8895a59f-b97a-4cdf-8869-04261d5517ed"},"vehicle_type_id":"4","last_reported":1687540112,"current_range_meters":23200,"station_id":"ce4bhnh2rcd13ifvqgtg","pricing_plan_id":"free"},{"bike_id":"6319e1f0-274c-4926-833a-6e1d889b66fb","system_id":"levelo_inurba_marseille","lat":43.278128,"lon":5.407195,"is_reserved":false,"is_disabled":false,"rental_uris":{"android":"levelo://app?vid=6319e1f0-274c-4926-833a-6e1d889b66fb","ios":"levelo://app?vid=6319e1f0-274c-4926-833a-6e1d889b66fb"},"vehicle_type_id":"4","last_reported":1687540112,"current_range_meters":4000,"station_id":"ce4bhnh2rcd13ifvqgtg","pricing_plan_id":"free"},{"bike_id":"1ec0d070-5d14-4e51-8678-5619e90f3f19","system_id":"levelo_inurba_marseille","lat":43.27985,"lon":5.41626,"is_reserved":false,"is_disabled":false,"rental_uris":{"android":"levelo://app?vid=1ec0d070-5d14-4e51-8678-5619e90f3f19","ios":"levelo://app?vid=1ec0d070-5d14-4e51-8678-5619e90f3f19"},"vehicle_type_id":"4","last_reported":1687540112,"current_range_meters":18000,"station_id":"","pricing_plan_id":"free"},{"bike_id":"281665f0-aa31-423e-a545-e2257e0bb75f","system_id":"levelo_inurba_marseille","lat":43.267966,"lon":5.393976,"is_reserved":false,"is_disabled":false,"rental_uris":{"android":"levelo://app?vid=281665f0-aa31-423e-a545-e2257e0bb75f","ios":"levelo://app?vid=281665f0-aa31-423e-a545-e2257e0bb75f"},"vehicle_type_id":"4","last_reported":1687540112,"current_range_meters":400,"station_id":"ce4bhh12rcd13ifvqfg0","pricing_plan_id":"free"},{"bike_id":"bd1ffbd1-7dbe-43d5-901a-3cac78ad5b18","system_id":"levelo_inurba_marseille","lat":43.27996,"lon":5.416624,"is_reserved":false,"is_disabled":false,"rental_uris":{"android":"levelo://app?vid=bd1ffbd1-7dbe-43d5-901a-3cac78ad5b18","ios":"levelo://app?vid=bd1ffbd1-7dbe-43d5-901a-3cac78ad5b18"},"vehicle_type_id":"4","last_reported":1687540112,"current_range_meters":14000,"station_id":"ce4bho12rcd13ifvqh1g","pricing_plan_id":"free"},{"bike_id":"8772c769-48b6-4f0e-a0b9-3067c3d525b6","system_id":"levelo_inurba_marseille","lat":43.27996,"lon":5.416624,"is_reserved":false,"is_disabled":false,"rental_uris":{"android":"levelo://app?vid=8772c769-48b6-4f0e-a0b9-3067c3d525b6","ios":"levelo://app?vid=8772c769-48b6-4f0e-a0b9-3067c3d525b6"},"vehicle_type_id":"4","last_reported":1687540112,"current_range_meters":30800,"station_id":"ce4bho12rcd13ifvqh1g","pricing_plan_id":"free"},{"bike_id":"92e1bf6f-6a95-4b32-94d4-3e28058f6885","system_id":"levelo_inurba_marseille","lat":43.267966,"lon":5.393976,"is_reserved":false,"is_disabled":false,"rental_uris":{"android":"levelo://app?vid=92e1bf6f-6a95-4b32-94d4-3e28058f6885","ios":"levelo://app?vid=92e1bf6f-6a95-4b32-94d4-3e28058f6885"},"vehicle_type_id":"4","last_reported":1687540112,"current_range_meters":400,"station_id":"ce4bhh12rcd13ifvqfg0","pricing_plan_id":"free"},{"bike_id":"58fe60ad-411d-4bb6-a31a-73e065f5216f","system_id":"levelo_inurba_marseille","lat":43.267966,"lon":5.393976,"is_reserved":false,"is_disabled":false,"rental_uris":{"android":"levelo://app?vid=58fe60ad-411d-4bb6-a31a-73e065f5216f","ios":"levelo://app?vid=58fe60ad-411d-4bb6-a31a-73e065f5216f"},"vehicle_type_id":"4","last_reported":1687540112,"current_range_meters":24400,"station_id":"ce4bhh12rcd13ifvqfg0","pricing_plan_id":"free"},{"bike_id":"396212f2-023f-4849-a07e-01add9ac8c5b","system_id":"levelo_inurba_marseille","lat":43.267966,"lon":5.393976,"is_reserved":false,"is_disabled":false,"rental_uris":{"android":"levelo://app?vid=396212f2-023f-4849-a07e-01add9ac8c5b","ios":"levelo://app?vid=396212f2-023f-4849-a07e-01add9ac8c5b"},"vehicle_type_id":"4","last_reported":1687540112,"current_range_meters":31200,"station_id":"ce4bhh12rcd13ifvqfg0","pricing_plan_id":"free"},{"bike_id":"58fbb0a8-a2d8-4f7f-9922-25f2f10fb5d3","system_id":"levelo_inurba_marseille","lat":43.267966,"lon":5.393976,"is_reserved":false,"is_disabled":false,"rental_uris":{"android":"levelo://app?vid=58fbb0a8-a2d8-4f7f-9922-25f2f10fb5d3","ios":"levelo://app?vid=58fbb0a8-a2d8-4f7f-9922-25f2f10fb5d3"},"vehicle_type_id":"4","last_reported":1687540112,"current_range_meters":4800,"station_id":"ce4bhh12rcd13ifvqfg0","pricing_plan_id":"free"},{"bike_id":"06fe3fe2-b715-4292-a6ae-f7fff55e2127","system_id":"levelo_inurba_marseille","lat":43.267966,"lon":5.393976,"is_reserved":false,"is_disabled":false,"rental_uris":{"android":"levelo://app?vid=06fe3fe2-b715-4292-a6ae-f7fff55e2127","ios":"levelo://app?vid=06fe3fe2-b715-4292-a6ae-f7fff55e2127"},"vehicle_type_id":"4","last_reported":1687540112,"current_range_meters":8000,"station_id":"ce4bhh12rcd13ifvqfg0","pricing_plan_id":"free"},{"bike_id":"a70b938d-acc7-41e1-a3dd-d424a4704a18","system_id":"levelo_inurba_marseille","lat":43.267966,"lon":5.393976,"is_reserved":false,"is_disabled":false,"rental_uris":{"android":"levelo://app?vid=a70b938d-acc7-41e1-a3dd-d424a4704a18","ios":"levelo://app?vid=a70b938d-acc7-41e1-a3dd-d424a4704a18"},"vehicle_type_id":"4","last_reported":1687540112,"current_range_meters":27200,"station_id":"ce4bhh12rcd13ifvqfg0","pricing_plan_id":"free"},{"bike_id":"a3cff6b8-127b-4050-a959-8f8c1e89e54a","system_id":"levelo_inurba_marseille","lat":43.30763,"lon":5.43524,"is_reserved":false,"is_disabled":false,"rental_uris":{"android":"levelo://app?vid=a3cff6b8-127b-4050-a959-8f8c1e89e54a","ios":"levelo://app?vid=a3cff6b8-127b-4050-a959-8f8c1e89e54a"},"vehicle_type_id":"4","last_reported":1687540112,"current_range_meters":23600,"station_id":"ce4bhph2rcd13ifvqheg","pricing_plan_id":"free"},{"bike_id":"0454f065-f655-441a-b62f-6e9faa87f9cb","system_id":"levelo_inurba_marseille","lat":43.26565,"lon":5.39016,"is_reserved":false,"is_disabled":false,"rental_uris":{"android":"levelo://app?vid=0454f065-f655-441a-b62f-6e9faa87f9cb","ios":"levelo://app?vid=0454f065-f655-441a-b62f-6e9faa87f9cb"},"vehicle_type_id":"4","last_reported":1687540112,"current_range_meters":12000,"station_id":"ce4bhe12rcd13ifvqf30","pricing_plan_id":"free"},