{"last_updated":1700518040,"ttl":30,"version":"2.2","data":{"bikes":[{"bike_id":"6f4ebff2-0655-41fb-aa8b-3892f2611707","system_id":"levelo_inurba_marseille","lat":43.312239,"lon":5.368562,"is_reserved":false,"is_disabled":false,"rental_uris":{"android":"levelo://app?vid=6f4ebff2-0655-41fb-aa8b-3892f2611707","ios":"levelo://app?vid=6f4ebff2-0655-41fb-aa8b-3892f2611707"},"vehicle_type_id":"4","last_reported":1700518040,"current_range_meters":28000,"station_id":"ce4bgl92rcd13ifvqbq0","pricing_plan_id":"free"},{"bike_id":"44b5db7f-dc4a-4af8-a293-4d20bcb50425","system_id":"levelo_inurba_marseille","lat":43.312239,"lon":5.368562,"is_reserved":false,"is_disabled":false,"rental_uris":{"android":"levelo://app?vid=44b5db7f-dc4a-4af8-a293-4d20bcb50425","ios":"levelo://app?vid=44b5db7f-dc4a-4af8-a293-4d20bcb50425"},"vehicle_type_id":"4","last_reported":1700518040,"current_range_meters":14400,"station_id":"ce4bgl92rcd13ifvqbq0","pricing_plan_id":"free"},{"bike_id":"f874da3e-b17e-47f0-a499-90fd16b42a65","system_id":"levelo_inurba_marseille","lat":43.3115,"lon":5.368882,"is_reserved":false,"is_disabled":false,"rental_uris":{"android":"levelo://app?vid=f874da3e-b17e-47f0-a499-90fd16b42a65","ios":"levelo://app?vid=f874da3e-b17e-47f0-a499-90fd16b42a65"},"vehicle_type_id":"4","last_reported":1700518040,"current_range_meters":0,"station_id":"","pricing_plan_id":"free"},{"bike_id":"fc17d1df-19ec-4a9c-acf7-fdc43b73a0bc","system_id":"levelo_inurba_marseille","lat":43.308445,"lon":5.368902,"is_reserved":false,"is_disabled":false,"rental_uris":{"android":"levelo://app?vid=fc17d1df-19ec-4a9c-acf7-fdc43b73a0bc","ios":"levelo://app?vid=fc17d1df-19ec-4a9c-acf7-fdc43b73a0bc"},"vehicle_type_id":"4","last_reported":1700518040,"current_range_meters":20400,"station_id":"","pricing_plan_id":"free"},{"bike_id":"c5bbb731-8ee9-4500-a243-8c0a24e929cf","system_id":"levelo_inurba_marseille","lat":43.314811,"lon":5.373104,"is_reserved":false,"is_disabled":false,"rental_uris":{"android":"levelo://app?vid=c5bbb731-8ee9-4500-a243-8c0a24e929cf","ios":"levelo://app?vid=c5bbb731-8ee9-4500-a243-8c0a24e929cf"},"vehicle_type_id":"4","last_reported":1700518040,"current_range_meters":0,"station_id":"ce4bgt12rcd13ifvqcd0","pricing_plan_id":"free"},{"bike_id":"f398eddb-44a4-484b-acf1-6f8766e94a46","system_id":"levelo_inurba_marseille","lat":43.315734,"lon":5.372501,"is_reserved":false,"is_disabled":false,"rental_uris":{"android":"levelo://app?vid=f398eddb-44a4-484b-acf1-6f8766e94a46","ios":"levelo://app?vid=f398eddb-44a4-484b-acf1-6f8766e94a46"},"vehicle_type_id":"4","last_reported":1700518040,"current_range_meters":15200,"station_id":"","pricing_plan_id":"free"},{"bike_id":"29cd9e3f-1a4c-4e51-ac49-0834ea45324c","system_id":"levelo_inurba_marseille","lat":43.309039,"lon":5.371797,"is_reserved":false,"is_disabled":false,"rental_uris":{"android":"levelo://app?vid=29cd9e3f-1a4c-4e51-ac49-0834ea45324c","ios":"levelo://app?vid=29cd9e3f-1a4c-4e51-ac49-0834ea45324c"},"vehicle_type_id":"4","last_reported":1700518040,"current_range_meters":15600,"station_id":"ce4bguh2rcd13ifvqckg","pricing_plan_id":"free"},{"bike_id":"c111ac6e-75f2-4026-9cd8-e6dacb5f45e4","system_id":"levelo_inurba_marseille","lat":43.309039,"lon":5.371797,"is_reserved":false,"is_disabled":false,"rental_uris":{"android":"levelo://app?vid=c111ac6e-75f2-4026-9cd8-e6dacb5f45e4","ios":"levelo://app?vid=c111ac6e-75f2-4026-9cd8-e6dacb5f45e4"},"vehicle_type_id":"4","last_reported":1700518040,"current_range_meters":0,"station_id":"ce4bguh2rcd13ifvqckg","pricing_plan_id":"free"},{"bike_id":"a8c0b2fb-17b2-42c5-8138-261010767915","system_id":"levelo_inurba_marseille","lat":43.309039,"lon":5.371797,"is_reserved":false,"is_disabled":false,"rental_uris":{"android":"levelo://app?vid=a8c0b2fb-17b2-42c5-8138-261010767915","ios":"levelo://app?vid=a8c0b2fb-17b2-42c5-8138-261010767915"},"vehicle_type_id":"4","last_reported":1700518040,"current_range_meters":0,"station_id":"ce4bguh2rcd13ifvqckg","pricing_plan_id":"free"},{"bike_id":"3475d204-43b6-43d9-b615-ca1d0d58200e","system_id":"levelo_inurba_marseille","lat":43.30679,"lon":5.3679,"is_reserved":false,"is_disabled":false,"rental_uris":{"android":"levelo://app?vid=3475d204-43b6-43d9-b615-ca1d0d58200e","ios":"levelo://app?vid=3475d204-43b6-43d9-b615-ca1d0d58200e"},"vehicle_type_id":"4","last_reported":1700518040,"current_range_meters":5600,"station_id":"","pricing_plan_id":"free"},{"bike_id":"d4cfd729-7112-42be-87c7-aa0590cdffea","system_id":"levelo_inurba_marseille","lat":43.31181,"lon":5.37635,"is_reserved":false,"is_disabled":false,"rental_uris":{"android":"levelo://app?vid=d4cfd729-7112-42be-87c7-aa0590cdffea","ios":"levelo://app?vid=d4cfd729-7112-42be-87c7-aa0590cdffea"},"vehicle_type_id":"4","last_reported":1700518040,"current_range_meters":0,"station_id":"","pricing_plan_id":"free"},{"bike_id":"880bec92-8011-4a0a-80cd-50ef09c021f7","system_id":"levelo_inurba_marseille","lat":43.307945,"lon":5.376487,"is_reserved":false,"is_disabled":false,"rental_uris":{"android":"levelo://app?vid=880bec92-8011-4a0a-80cd-50ef09c021f7","ios":"levelo://app?vid=880bec92-8011-4a0a-80cd-50ef09c021f7"},"vehicle_type_id":"4","last_reported":1700518040,"current_range_meters":21200,"station_id":"ce4bgv92rcd13ifvqcq0","pricing_plan_id":"free"},{"bike_id":"c34cebaa-7cb9-43b9-a9b1-dcbf13b3c760","system_id":"levelo_inurba_marseille","lat":43.307945,"lon":5.376487,"is_reserved":false,"is_disabled":false,"rental_uris":{"android":"levelo://app?vid=c34cebaa-7cb9-43b9-a9b1-dcbf13b3c760","ios":"levelo://app?vid=c34cebaa-7cb9-43b9-a9b1-dcbf13b3c760"},"vehicle_type_id":"4","last_reported":1700518040,"current_range_meters":21200,"station_id":"ce4bgv92rcd13ifvqcq0","pricing_plan_id":"free"},{"bike_id":"f3abf5e3-3ad7-4c17-bcce-424899b16963","system_id":"levelo_inurba_marseille","lat":43.31534,"lon":5.38028,"is_reserved":false,"is_disabled":false,"rental_uris":{"android":"levelo://app?vid=f3abf5e3-3ad7-4c17-bcce-424899b16963","ios":"levelo://app?vid=f3abf5e3-3ad7-4c17-bcce-424899b16963"},"vehicle_type_id":"4","last_reported":1700518040,"current_range_meters":21200,"station_id":"ce4bhsp2rcd13ifvqi50","pricing_plan_id":"free"},{"bike_id":"3b6d6bb4-c74b-45d6-a179-86884ae46556","system_id":"levelo_inurba_marseille","lat":43.3019,"lon":5.36629,"is_reserved":false,"is_disabled":false,"rental_uris":{"android":"levelo://app?vid=3b6d6bb4-c74b-45d6-a179-86884ae46556","ios":"levelo://app?vid=3b6d6bb4-c74b-45d6-a179-86884ae46556"},"vehicle_type_id":"4","last_reported":1700518040,"current_range_meters":0,"station_id":"ce4bgrh2rcd13ifvqc8g","pricing_plan_id":"free"},{"bike_id":"90584fe7-811a-4127-bdb1-39d715f8ca6c","system_id":"levelo_inurba_marseille","lat":43.30802,"lon":5.381525,"is_reserved":false,"is_disabled":false,"rental_uris":{"android":"levelo://app?vid=90584fe7-811a-4127-bdb1-39d715f8ca6c","ios":"levelo://app?vid=90584fe7-811a-4127-bdb1-39d715f8ca6c"},"vehicle_type_id":"4","last_reported":1700518040,"current_range_meters":7200,"station_id":"ce4bgt12rcd13ifvqce0","pricing_plan_id":"free"},{"bike_id":"d1f6f9e1-aaa0-44db-a224-3e1018def05f","system_id":"levelo_inurba_marseille","lat":43.308012,"lon":5.381511,"is_reserved":false,"is_disabled":false,"rental_uris":{"android":"levelo://app?vid=d1f6f9e1-aaa0-44db-a224-3e1018def05f","ios":"levelo://app?vid=d1f6f9e1-aaa0-44db-a224-3e1018def05f"},"vehicle_type_id":"4","last_reported":1700518040,"current_range_meters":2400,"station_id":"ce4bgt12rcd13ifvqce0","pricing_plan_id":"free"},{"bike_id":"012bf452-12e0-4e7e-b021-4282dca4217b","system_id":"levelo_inurba_marseille","lat":43.30792,"lon":5.38168,"is_reserved":false,"is_disabled":false,"rental_uris":{"android":"levelo://app?vid=012bf452-12e0-4e7e-b021-4282dca4217b","ios":"levelo://app?vid=012bf452-12e0-4e7e-b021-4282dca4217b"},"vehicle_type_id":"4","last_reported":1700518040,"current_range_meters":22400,"station_id":"ce4bgt12rcd13ifvqce0","pricing_plan_id":"free"},{"bike_id":"a3fcc0b8-9ee1-4103-a3ea-07fab5ed4163","system_id":"levelo_inurba_marseille","lat":43.319935,"lon":5.381699,"is_reserved":false,"is_disabled":false,"rental_uris":{"android":"levelo://app?vid=a3fcc0b8-9ee1-4103-a3ea-07fab5ed4163","ios":"levelo://app?vid=a3fcc0b8-9ee1-4103-a3ea-07fab5ed4163"},"vehicle_type_id":"4","last_reported":1700518040,"current_range_meters":19600,"station_id":"ce4bhr12rcd13ifvqhpg","pricing_plan_id":"free"},{"bike_id":"1c41d00c-0020-44fa-a381-0cae9a595e39","system_id":"levelo_inurba_marseille","lat":43.313571,"lon":5.384829,"is_reserved":false,"is_disabled":false,"rental_uris":{"android":"levelo://app?vid=1c41d00c-0020-44fa-a381-0cae9a595e39","ios":"levelo://app?vid=1c41d00c-0020-44fa-a381-0cae9a595e39"},"vehicle_type_id":"4","last_reported":1700518040,"current_range_meters":27600,"station_id":"ce4bgt92rcd13ifvqcf0","pricing_plan_id":"free"},{"bike_id":"c249e564-6e7f-4bf2-bf87-3c91f83049ec","system_id":"levelo_inurba_marseille","lat":43.313571,"lon":5.384829,"is_reserved":false,"is_disabled":false,"rental_uris":{"android":"levelo://app?vid=c249e564-6e7f-4bf2-bf87-3c91f83049ec","ios":"levelo://app?vid=c249e564-6e7f-4bf2-bf87-3c91f83049ec"},"vehicle_type_id":"4","last_reported":1700518040,"current_range_meters":13200,"station_id":"ce4bgt92rcd13ifvqcf0","pricing_plan_id":"free"},{"bike_id":"ea490f5d-fbda-4b1e-a357-8b6b0757a435","system_id":"levelo_inurba_marseille","lat":43.313571,"lon":5.384829,"is_reserved":false,"is_disabled":false,"rental_uris":{"android":"levelo://app?vid=ea490f5d-fbda-4b1e-a357-8b6b0757a435","ios":"levelo://app?vid=ea490f5d-fbda-4b1e-a357-8b6b0757a435"},"vehicle_type_id":"4","last_reported":1700518040,"current_range_meters":24400,"station_id":"ce4bgt92rcd13ifvqcf0","pricing_plan_id":"free"},{"bike_id":"25163c93-e64f-4096-8b92-075571551091","system_id":"levelo_inurba_marseille","lat":43.305364,"lon":5.384119,"is_reserved":false,"is_disabled":false,"rental_uris":{"android":"levelo://app?vid=25163c93-e64f-4096-8b92-075571551091","ios":"levelo://app?vid=25163c93-e64f-4096-8b92-075571551091"},"vehicle_type_id":"4","last_reported":1700518040,"current_range_meters":21200,"station_id":"ce4bgg92rcd13ifvqb30","pricing_plan_id":"free"},{"bike_id":"bc669a6b-6dd7-475b-ab5d-53ecab206603","system_id":"levelo_inurba_marseille","lat":43.311722,"lon":5.387247,"is_reserved":false,"is_disabled":false,"rental_uris":{"android":"levelo://app?vid=bc669a6b-6dd7-475b-ab5d-53ecab206603","ios":"levelo://app?vid=bc669a6b-6dd7-475b-ab5d-53ecab206603"},"vehicle_type_id":"4","last_reported":1700518040,"current_range_meters":18800,"station_id":"ce4bgv12rcd13ifvqcp0","pricing_plan_id":"free"},{"bike_id":"0d303a6d-b0eb-4f6b-86e6-4062168d0eaf","system_id":"levelo_inurba_marseille","lat":43.311722,"lon":5.387247,"is_reserved":false,"is_disabled":false,"rental_uris":{"android":"levelo://app?vid=0d303a6d-b0eb-4f6b-86e6-4062168d0eaf","ios":"levelo://app?vid=0d303a6d-b0eb-4f6b-86e6-4062168d0eaf"},"vehicle_type_id":"4","last_reported":1700518040,"current_range_meters":10000,"station_id":"ce4bgv12rcd13ifvqcp0","pricing_plan_id":"free"},{"bike_id":"8d1d06f2-9bae-4e26-afd1-7cce45e158db","system_id":"levelo_inurba_marseille","lat":43.311722,"lon":5.387247,"is_reserved":false,"is_disabled":false,"rental_uris":{"android":"levelo://app?vid=8d1d06f2-9bae-4e26-afd1-7cce45e158db","ios":"levelo://app?vid=8d1d06f2-9bae-4e26-afd1-7cce45e158db"},"vehicle_type_id":"4","last_reported":1700518040,"current_range_meters":25600,"station_id":"ce4bgv12rcd13ifvqcp0","pricing_plan_id":"free"},{"bike_id":"a091ef21-7434-4308-96d7-78321920700a","system_id":"levelo_inurba_marseille","lat":43.311722,"lon":5.387247,"is_reserved":false,"is_disabled":false,"rental_uris":{"android":"levelo://app?vid=a091ef21-7434-4308-96d7-78321920700a","ios":"levelo://app?vid=a091ef21-7434-4308-96d7-78321920700a"},"vehicle_type_id":"4","last_reported":1700518040,"current_range_meters":14800,"station_id":"ce4bgv12rcd13ifvqcp0","pricing_plan_id":"free"},{"bike_id":"f08b0271-ae73-492f-9a89-b8d51dfdbf59","system_id":"levelo_inurba_marseille","lat":43.29811,"lon":5.37099,"is_reserved":false,"is_disabled":false,"rental_uris":{"android":"levelo://app?vid=f08b0271-ae73-492f-9a89-b8d51dfdbf59","ios":"levelo://app?vid=f08b0271-ae73-492f-9a89-b8d51dfdbf59"},"vehicle_type_id":"4","last_reported":1700518040,"current_range_meters":18800,"station_id":"ce4bgop2rcd13ifvqc1g","pricing_plan_id":"free"},{"bike_id":"d0bc7e41-7a3e-477d-b945-5ee5efadf134","system_id":"levelo_inurba_marseille","lat":43.297794,"lon":5.370888,"is_reserved":false,"is_disabled":false,"rental_uris":{"android":"levelo://app?vid=d0bc7e41-7a3e-477d-b945-5ee5efadf134","ios":"levelo://app?vid=d0bc7e41-7a3e-477d-b945-5ee5efadf134"},"vehicle_type_id":"4","last_reported":1700518040,"current_range_meters":2400,"station_id":"ce4bgop2rcd13ifvqc1g","pricing_plan_id":"free"},{"bike_id":"163157fd-493b-4747-9dab-79c0b8fa118e","system_id":"levelo_inurba_marseille","lat":43.322872,"lon":5.382756,"is_reserved":false,"is_disabled":false,"rental_uris":{"android":"levelo://app?vid=163157fd-493b-4747-9dab-79c0b8fa118e","ios":"levelo://app?vid=163157fd-493b-4747-9dab-79c0b8fa118e"},"vehicle_type_id":"4","last_reported":1700518040,"current_range_meters":4400,"station_id":"ce4bhr12rcd13ifvqhqg","pricing_plan_id":"free"},{"bike_id":"95f7a8be-3dc6-4b12-8685-93dc23878d16","system_id":"levelo_inurba_marseille","lat":43.322872,"lon":5.382756,"is_reserved":false,"is_disabled":false,"rental_uris":{"android":"levelo://app?vid=95f7a8be-3dc6-4b12-8685-93dc23878d16","ios":"levelo://app?vid=95f7a8be-3dc6-4b12-8685-93dc23878d16"},"vehicle_type_id":"4","last_reported":1700518040,"current_range_meters":31600,"station_id":"ce4bhr12rcd13ifvqhqg","pricing_plan_id":"free"},{"bike_id":"4877c1bd-6c5b-4748-a29f-20d769f45293","system_id":"levelo_inurba_marseille","lat":43.322872,"lon":5.382756,"is_reserved":false,"is_disabled":false,"rental_uris":{"android":"levelo://app?vid=4877c1bd-6c5b-4748-a29f-20d769f45293","ios":"levelo://app?vid=4877c1bd-6c5b-4748-a29f-20d769f45293"},"vehicle_type_id":"4","last_reported":1700518040,"current_range_meters":6800,"station_id":"ce4bhr12rcd13ifvqhqg","pricing_plan_id":"free"},{"bike_id":"6c6dce5a-78f3-469c-864f-8c1b6c20ed29","system_id":"levelo_inurba_marseille","lat":43.322872,"lon":5.382756,"is_reserved":false,"is_disabled":false,"rental_uris":{"android":"levelo://app?vid=6c6dce5a-78f3-469c-864f-8c1b6c20ed29","ios":"levelo://app?vid=6c6dce5a-78f3-469c-864f-8c1b6c20ed29"},"vehicle_type_id":"4","last_reported":1700518040,"current_range_meters":11600,"station_id":"ce4bhr12rcd13ifvqhqg","pricing_plan_id":"free"},{"bike_id":"af1d5b43-c1f3-4f49-a6bc-4e530f32c442","system_id":"levelo_inurba_marseille","lat":43.322872,"lon":5.382756,"is_reserved":false,"is_disabled":false,"rental_uris":{"android":"levelo://app?vid=af1d5b43-c1f3-4f49-a6bc-4e530f32c442","ios":"levelo://app?vid=af1d5b43-c1f3-4f49-a6bc-4e530f32c442"},"vehicle_type_id":"4","last_reported":1700518040,"current_range_meters":24400,"station_id":"ce4bhr12rcd13ifvqhqg","pricing_plan_id":"free"},{"bike_id":"b6746ac0-97bf-4241-baae-a4025bb8df9c","system_id":"levelo_inurba_marseille","lat":43.29957,"lon":5.37921,"is_reserved":false,"is_disabled":false,"rental_uris":{"android":"levelo://app?vid=b6746ac0-97bf-4241-baae-a4025bb8df9c","ios":"levelo://app?vid=b6746ac0-97bf-4241-baae-a4025bb8df9c"},"vehicle_type_id":"4","last_reported":1700518040,"current_range_meters":1200,"station_id":"","pricing_plan_id":"free"},{"bike_id":"1e97dadf-9a0d-413f-8f4a-a109af84b3ad","system_id":"levelo_inurba_marseille","lat":43.29685,"lon":5.37298,"is_reserved":false,"is_disabled":false,"rental_uris":{"android":"levelo://app?vid=1e97dadf-9a0d-413f-8f4a-a109af84b3ad","ios":"levelo://app?vid=1e97dadf-9a0d-413f-8f4a-a109af84b3ad"},"vehicle_type_id":"4","last_reported":1700518040,"current_range_meters":21200,"station_id":"ce4bgk12rcd13ifvqbj0","pricing_plan_id":"free"},{"bike_id":"31250600-9882-4a30-9751-07f6b2c79013","system_id":"levelo_inurba_marseille","lat":43.2968,"lon":5.37291,"is_reserved":false,"is_disabled":false,"rental_uris":{"android":"levelo://app?vid=31250600-9882-4a30-9751-07f6b2c79013","ios":"levelo://app?vid=31250600-9882-4a30-9751-07f6b2c79013"},"vehicle_type_id":"4","last_reported":1700518040,"current_range_meters":15600,"station_id":"ce4bgk12rcd13ifvqbj0","pricing_plan_id":"free"},{"bike_id":"fdd82719-f106-4483-883f-415c233e6d37","system_id":"levelo_inurba_marseille","lat":43.29591,"lon":5.36774,"is_reserved":false,"is_disabled":false,"rental_uris":{"android":"levelo://app?vid=fdd82719-f106-4483-883f-415c233e6d37","ios":"levelo://app?vid=fdd82719-f106-4483-883f-415c233e6d37"},"vehicle_type_id":"4","last_reported":1700518040,"current_range_meters":22000,"station_id":"ce4bgph2rcd13ifvqc2g","pricing_plan_id":"free"},{"bike_id":"a4fc4f1f-b4cb-4447-9650-54a96ed51e29","system_id":"levelo_inurba_marseille","lat":43.321467,"lon":5.38687,"is_reserved":false,"is_disabled":false,"rental_uris":{"android":"levelo://app?vid=a4fc4f1f-b4cb-4447-9650-54a96ed51e29","ios":"levelo://app?vid=a4fc4f1f-b4cb-4447-9650-54a96ed51e29"},"vehicle_type_id":"4","last_reported":1700518040,"current_range_meters":0,"station_id":"","pricing_plan_id":"free"},{"bike_id":"d63ba5fb-f0f0-49ad-b4f1-7d5fb240b54b","system_id":"levelo_inurba_marseille","lat":43.299028,"lon":5.381509,"is_reserved":false,"is_disabled":false,"rental_uris":{"android":"levelo://app?vid=d63ba5fb-f0f0-49ad-b4f1-7d5fb240b54b","ios":"levelo://app?vid=d63ba5fb-f0f0-49ad-b4f1-7d5fb240b54b"},"vehicle_type_id":"4","last_reported":1700518040,"current_range_meters":15200,"station_id":"ce4bgj12rcd13ifvqbc0","pricing_plan_id":"free"},{"bike_id":"f73e4b62-db53-41c8-9427-31b1dc519812","system_id":"levelo_inurba_marseille","lat":43.296935,"lon":5.376544,"is_reserved":false,"is_disabled":false,"rental_uris":{"android":"levelo://app?vid=f73e4b62-db53-41c8-9427-31b1dc519812","ios":"levelo://app?vid=f73e4b62-db53-41c8-9427-31b1dc519812"},"vehicle_type_id":"4","last_reported":1700518040,"current_range_meters":23600,"station_id":"ce4bgkh2rcd13ifvqbl0","pricing_plan_id":"free"},{"bike_id":"59e6e6d3-fe45-46d6-a0b6-acc54a14158a","system_id":"levelo_inurba_marseille","lat":43.3146,"lon":5.390858,"is_reserved":false,"is_disabled":false,"rental_uris":{"android":"levelo://app?vid=59e6e6d3-fe45-46d6-a0b6-acc54a14158a","ios":"levelo://app?vid=59e6e6d3-fe45-46d6-a0b6-acc54a14158a"},"vehicle_type_id":"4","last_reported":1700518040,"current_range_meters":13600,"station_id":"","pricing_plan_id":"free"},{"bike_id":"7aef619e-8146-4037-a56f-a2b533225db7","system_id":"levelo_inurba_marseille","lat":43.31762,"lon":5.39017,"is_reserved":false,"is_disabled":false,"rental_uris":{"android":"levelo://app?vid=7aef619e-8146-4037-a56f-a2b533225db7","ios":"levelo://app?vid=7aef619e-8146-4037-a56f-a2b533225db7"},"vehicle_type_id":"4","last_reported":1700518040,"current_range_meters":0,"station_id":"ce4bhqp2rcd13ifvqhng","pricing_plan_id":"free"},{"bike_id":"d7d2ac25-1b4e-476e-ad5b-511dba957b25","system_id":"levelo_inurba_marseille","lat":43.298037,"lon":5.381066,"is_reserved":false,"is_disabled":false,"rental_uris":{"android":"levelo://app?vid=d7d2ac25-1b4e-476e-ad5b-511dba957b25","ios":"levelo://app?vid=d7d2ac25-1b4e-476e-ad5b-511dba957b25"},"vehicle_type_id":"4","last_reported":1700518040,"current_range_meters":24000,"station_id":"ce4bgip2rcd13ifvqbb0","pricing_plan_id":"free"},{"bike_id":"67ffd28a-0325-489b-a10f-d90500122751","system_id":"levelo_inurba_marseille","lat":43.295748,"lon":5.37522,"is_reserved":false,"is_disabled":false,"rental_uris":{"android":"levelo://app?vid=67ffd28a-0325-489b-a10f-d90500122751","ios":"levelo://app?vid=67ffd28a-0325-489b-a10f-d90500122751"},"vehicle_type_id":"4","last_reported":1700518040,"current_range_meters":31200,"station_id":"ce4bgh92rcd13ifvqb50","pricing_plan_id":"free"},{"bike_id":"3e3e92fe-39b7-4933-99ff-3747b28b5d69","system_id":"levelo_inurba_marseille","lat":43.328154,"lon":5.380034,"is_reserved":false,"is_disabled":false,"rental_uris":{"android":"levelo://app?vid=3e3e92fe-39b7-4933-99ff-3747b28b5d69","ios":"levelo://app?vid=3e3e92fe-39b7-4933-99ff-3747b28b5d69"},"vehicle_type_id":"4","last_reported":1700518040,"current_range_meters":800,"station_id":"","pricing_plan_id":"free"},{"bike_id":"426e0672-d568-4451-907b-fad1ec18cfc1","system_id":"levelo_inurba_marseille","lat":43.29603,"lon":5.37723,"is_reserved":false,"is_disabled":false,"rental_uris":{"android":"levelo://app?vid=426e0672-d568-4451-907b-fad1ec18cfc1","ios":"levelo://app?vid=426e0672-d568-4451-907b-fad1ec18cfc1"},"vehicle_type_id":"4","last_reported":1700518040,"current_range_meters":400,"station_id":"ce4bgi92rcd13ifvqb90","pricing_plan_id":"free"},{"bike_id":"e145a3f7-00ac-4f8f-bfe5-435bc38ccaf7","system_id":"levelo_inurba_marseille","lat":43.293801,"lon":5.363066,"is_reserved":false,"is_disabled":false,"rental_uris":{"android":"levelo://app?vid=e145a3f7-00ac-4f8f-bfe5-435bc38ccaf7","ios":"levelo://app?vid=e145a3f7-00ac-4f8f-bfe5-435bc38ccaf7"},"vehicle_type_id":"4","last_reported":1700518040,"current_range_meters":18400,"station_id":"","pricing_plan_id":"free"},{"bike_id":"6b2b7a07-e129-44bc-97c2-4948a203b3d7","system_id":"levelo_inurba_marseille","lat":43.32362,"lon":5.388805,"is_reserved":false,"is_disabled":false,"rental_uris":{"android":"levelo://app?vid=6b2b7a07-e129-44bc-97c2-4948a203b3d7","ios":"levelo://app?vid=6b2b7a07-e129-44bc-97c2-4948a203b3d7"},"vehicle_type_id":"4","last_reported":1700518040,"current_range_meters":3200,"station_id":"ce4bhqp2rcd13ifvqhog","pricing_plan_id":"free"},{"bike_id":"ab549bba-fb39-4218-8e2c-2bd7cdd666ce","system_id":"levelo_inurba_marseille","lat":43.32368,"lon":5.38878,"is_reserved":false,"is_disabled":false,"rental_uris":{"android":"levelo://app?vid=ab549bba-fb39-4218-8e2c-2bd7cdd666ce","ios":"levelo://app?vid=ab549bba-fb39-4218-8e2c-2bd7cdd666ce"},"vehicle_type_id":"4","last_reported":1700518040,"current_range_meters":4000,"station_id":"ce4bhqp2rcd13ifvqhog","pricing_plan_id":"free"},{"bike_id":"457267b3-9390-4309-8307-42319d1e300c","system_id":"levelo_inurba_marseille","lat":43.32367,"lon":5.3888,"is_reserved":false,"is_disabled":false,"rental_uris":{"android":"levelo://app?vid=457267b3-9390-4309-8307-42319d1e300c","ios":"levelo://app?vid=457267b3-9390-4309-8307-42319d1e300c"},"vehicle_type_id":"4","last_reported":1700518040,"current_range_meters":18400,"station_id":"ce4bhqp2rcd13ifvqhog","pricing_plan_id":"free"},{"bike_id":"67a2f223-fc60-4c6e-8c47-59f68792d500","system_id":"levelo_inurba_marseille","lat":43.32367,"lon":5.388836,"is_reserved":false,"is_disabled":false,"rental_uris":{"android":"levelo://app?vid=67a2f223-fc60-4c6e-8c47-59f68792d500","ios":"levelo://app?vid=67a2f223-fc60-4c6e-8c47-59f68792d500"},"vehicle_type_id":"4","last_reported":1700518040,"current_range_meters":10800,"station_id":"ce4bhqp2rcd13ifvqhog","pricing_plan_id":"free"},{"bike_id":"3cb8c185-c31b-4eef-a7c6-7f786fc47019","system_id":"levelo_inurba_marseille","lat":43.32369,"lon":5.38885,"is_reserved":false,"is_disabled":false,"rental_uris":{"android":"levelo://app?vid=3cb8c185-c31b-4eef-a7c6-7f786fc47019","ios":"levelo://app?vid=3cb8c185-c31b-4eef-a7c6-7f786fc47019"},"vehicle_type_id":"4","last_reported":1700518040,"current_range_meters":9600,"station_id":"ce4bhqp2rcd13ifvqhog","pricing_plan_id":"free"},{"bike_id":"04c62577-f6f4-42bf-a2cb-49840fad24d9","system_id":"levelo_inurba_marseille","lat":43.330543,"lon":5.378928,"is_reserved":false,"is_disabled":false,"rental_uris":{"android":"levelo://app?vid=04c62577-f6f4-42bf-a2cb-49840fad24d9","ios":"levelo://app?vid=04c62577-f6f4-42bf-a2cb-49840fad24d9"},"vehicle_type_id":"4","last_reported":1700518040,"current_range_meters":4400,"station_id":"","pricing_plan_id":"free"},{"bike_id":"788cf035-7a6a-46fb-a329-89c3915a13f4","system_id":"levelo_inurba_marseille","lat":43.293259,"lon":5.371586,"is_reserved":false,"is_disabled":false,"rental_uris":{"android":"levelo://app?vid=788cf035-7a6a-46fb-a329-89c3915a13f4","ios":"levelo://app?vid=788cf035-7a6a-46fb-a329-89c3915a13f4"},"vehicle_type_id":"4","last_reported":1700518040,"current_range_meters":0,"station_id":"ce4bgh92rcd13ifvqb40","pricing_plan_id":"free"},{"bike_id":"5b57ecab-0834-473c-ab8b-927ef69116dc","system_id":"levelo_inurba_marseille","lat":43.293009,"lon":5.374584,"is_reserved":false,"is_disabled":false,"rental_uris":{"android":"levelo://app?vid=5b57ecab-0834-473c-ab8b-927ef69116dc","ios":"levelo://app?vid=5b57ecab-0834-473c-ab8b-927ef69116dc"},"vehicle_type_id":"4","last_reported":1700518040,"current_range_meters":27200,"station_id":"ce4bgi12rcd13ifvqb70","pricing_plan_id":"free"},{"bike_id":"6f4b630e-793e-4cb8-81ef-34b1cd0b5ef9","system_id":"levelo_inurba_marseille","lat":43.306577,"lon":5.394041,"is_reserved":false,"is_disabled":false,"rental_uris":{"android":"levelo://app?vid=6f4b630e-793e-4cb8-81ef-34b1cd0b5ef9","ios":"levelo://app?vid=6f4b630e-793e-4cb8-81ef-34b1cd0b5ef9"},"vehicle_type_id":"4","last_reported":1700518040,"current_range_meters":25600,"station_id":"","pricing_plan_id":"free"},{"bike_id":"2099eaba-7dc2-4b33-83f9-952c5875fece","system_id":"levelo_inurba_marseille","lat":43.309038,"lon":5.396546,"is_reserved":false,"is_disabled":false,"rental_uris":{"android":"levelo://app?vid=2099eaba-7dc2-4b33-83f9-952c5875fece","ios":"levelo://app?vid=2099eaba-7dc2-4b33-83f9-952c5875fece"},"vehicle_type_id":"4","last_reported":1700518040,"current_range_meters":21600,"station_id":"ce4bh012rcd13ifvqcv0","pricing_plan_id":"free"},{"bike_id":"ba228543-063e-4567-bbc4-9933dfb7332e","system_id":"levelo_inurba_marseille","lat":43.313291,"lon":5.396838,"is_reserved":false,"is_disabled":false,"rental_uris":{"android":"levelo://app?vid=ba228543-063e-4567-bbc4-9933dfb7332e","ios":"levelo://app?vid=ba228543-063e-4567-bbc4-9933dfb7332e"},"vehicle_type_id":"4","last_reported":1700518040,"current_range_meters":10800,"station_id":"ce4bgvp2rcd13ifvqcu0","pricing_plan_id":"free"},{"bike_id":"3c3b8a77-f77d-4deb-9aa4-869565c72625","system_id":"levelo_inurba_marseille","lat":43.309038,"lon":5.396546,"is_reserved":false,"is_disabled":false,"rental_uris":{"android":"levelo://app?vid=3c3b8a77-f77d-4deb-9aa4-869565c72625","ios":"levelo://app?vid=3c3b8a77-f77d-4deb-9aa4-869565c72625"},"vehicle_type_id":"4","last_reported":1700518040,"current_range_meters":19200,"station_id":"ce4bh012rcd13ifvqcv0","pricing_plan_id":"free"},{"bike_id":"78727411-dbed-47b1-ba11-24257a8076b0","system_id":"levelo_inurba_marseille","lat":43.313291,"lon":5.396838,"is_reserved":false,"is_disabled":false,"rental_uris":{"android":"levelo://app?vid=78727411-dbed-47b1-ba11-24257a8076b0","ios":"levelo://app?vid=78727411-dbed-47b1-ba11-24257a8076b0"},"vehicle_type_id":"4","last_reported":1700518040,"current_range_meters":0,"station_id":"ce4bgvp2rcd13ifvqcu0","pricing_plan_id":"free"},{"bike_id":"9efc6cfe-ba86-4c0e-9109-65e2a434ce4f","system_id":"levelo_inurba_marseille","lat":43.309047,"lon":5.396551,"is_reserved":false,"is_disabled":false,"rental_uris":{"android":"levelo://app?vid=9efc6cfe-ba86-4c0e-9109-65e2a434ce4f","ios":"levelo://app?vid=9efc6cfe-ba86-4c0e-9109-65e2a434ce4f"},"vehicle_type_id":"4","last_reported":1700518040,"current_range_meters":31600,"station_id":"ce4bh012rcd13ifvqcv0","pricing_plan_id":"free"},{"bike_id":"b3b94c7a-1e70-46f1-9014-b0093c17c8e9","system_id":"levelo_inurba_marseille","lat":43.31334,"lon":5.39692,"is_reserved":false,"is_disabled":false,"rental_uris":{"android":"levelo://app?vid=b3b94c7a-1e70-46f1-9014-b0093c17c8e9","ios":"levelo://app?vid=b3b94c7a-1e70-46f1-9014-b0093c17c8e9"},"vehicle_type_id":"4","last_reported":1700518040,"current_range_meters":0,"station_id":"ce4bgvp2rcd13ifvqcu0","pricing_plan_id":"free"},{"bike_id":"bc66c312-4885-4e17-9fca-091e8861da7c","system_id":"levelo_inurba_marseille","lat":43.309047,"lon":5.396551,"is_reserved":false,"is_disabled":false,"rental_uris":{"android":"levelo://app?vid=bc66c312-4885-4e17-9fca-091e8861da7c","ios":"levelo://app?vid=bc66c312-4885-4e17-9fca-091e8861da7c"},"vehicle_type_id":"4","last_reported":1700518040,"current_range_meters":4400,"station_id":"ce4bh012rcd13ifvqcv0","pricing_plan_id":"free"},{"bike_id":"57b3a308-ada7-4381-8f83-941c6ce0a062","system_id":"levelo_inurba_marseille","lat":43.313312,"lon":5.396927,"is_reserved":false,"is_disabled":false,"rental_uris":{"android":"levelo://app?vid=57b3a308-ada7-4381-8f83-941c6ce0a062","ios":"levelo://app?vid=57b3a308-ada7-4381-8f83-941c6ce0a062"},"vehicle_type_id":"4","last_reported":1700518040,"current_range_meters":14000,"station_id":"ce4bgvp2rcd13ifvqcu0","pricing_plan_id":"free"},{"bike_id":"2db30064-9c16-4686-9d5d-eaa6b759e6d3","system_id":"levelo_inurba_marseille","lat":43.313291,"lon":5.396838,"is_reserved":false,"is_disabled":false,"rental_uris":{"android":"levelo://app?vid=2db30064-9c16-4686-9d5d-eaa6b759e6d3","ios":"levelo://app?vid=2db30064-9c16-4686-9d5d-eaa6b759e6d3"},"vehicle_type_id":"4","last_reported":1700518040,"current_range_meters":24000,"station_id":"ce4bgvp2rcd13ifvqcu0","pricing_plan_id":"free"},{"bike_id":"207bf48a-8d17-4c37-ba4d-03768cf570cc","system_id":"levelo_inurba_marseille","lat":43.309047,"lon":5.396551,"is_reserved":false,"is_disabled":false,"rental_uris":{"android":"levelo://app?vid=207bf48a-8d17-4c37-ba4d-03768cf570cc","ios":"levelo://app?vid=207bf48a-8d17-4c37-ba4d-03768cf570cc"},"vehicle_type_id":"4","last_reported":1700518040,"current_range_meters":16800,"station_id":"ce4bh012rcd13ifvqcv0","pricing_plan_id":"free"},{"bike_id":"5e2df123-d933-4169-a934-01acce82c9f3","system_id":"levelo_inurba_marseille","lat":43.313291,"lon":5.396838,"is_reserved":false,"is_disabled":false,"rental_uris":{"android":"levelo://app?vid=5e2df123-d933-4169-a934-01acce82c9f3","ios":"levelo://app?vid=5e2df123-d933-4169-a934-01acce82c9f3"},"vehicle_type_id":"4","last_reported":1700518040,"current_range_meters":22400,"station_id":"ce4bgvp2rcd13ifvqcu0","pricing_plan_id":"free"},{"bike_id":"3502b4db-c4e2-46b1-8c06-3036bdcc80a1","system_id":"levelo_inurba_marseille","lat":43.309038,"lon":5.396546,"is_reserved":false,"is_disabled":false,"rental_uris":{"android":"levelo://app?vid=3502b4db-c4e2-46b1-8c06-3036bdcc80a1","ios":"levelo://app?vid=3502b4db-c4e2-46b1-8c06-3036bdcc80a1"},"vehicle_type_id":"4","last_reported":1700518040,"current_range_meters":11600,"station_id":"ce4bh012rcd13ifvqcv0","pricing_plan_id":"free"},{"bike_id":"98aa03dc-e2da-495e-8e32-de58a61e91d2","system_id":"levelo_inurba_marseille","lat":43.31327,"lon":5.39698,"is_reserved":false,"is_disabled":false,"rental_uris":{"android":"levelo://app?vid=98aa03dc-e2da-495e-8e32-de58a61e91d2","ios":"levelo://app?vid=98aa03dc-e2da-495e-8e32-de58a61e91d2"},"vehicle_type_id":"4","last_reported":1700518040,"current_range_meters":28000,"station_id":"ce4bgvp2rcd13ifvqcu0","pricing_plan_id":"free"},{"bike_id":"bb4777d5-2911-4c46-8eb4-9a88158cfe2c","system_id":"levelo_inurba_marseille","lat":43.309038,"lon":5.396546,"is_reserved":false,"is_disabled":false,"rental_uris":{"android":"levelo://app?vid=bb4777d5-2911-4c46-8eb4-9a88158cfe2c","ios":"levelo://app?vid=bb4777d5-2911-4c46-8eb4-9a88158cfe2c"},"vehicle_type_id":"4","last_reported":1700518040,"current_range_meters":24400,"station_id":"ce4bh012rcd13ifvqcv0","pricing_plan_id":"free"},{"bike_id":"fcaabb97-dd07-4c7b-9d67-e5721281011f","system_id":"levelo_inurba_marseille","lat":43.29034,"lon":5.35914,"is_reserved":false,"is_disabled":false,"rental_uris":{"android":"levelo://app?vid=fcaabb97-dd07-4c7b-9d67-e5721281011f","ios":"levelo://app?vid=fcaabb97-dd07-4c7b-9d67-e5721281011f"},"vehicle_type_id":"4","last_reported":1700518040,"current_range_meters":31200,"station_id":"","pricing_plan_id":"free"},{"bike_id":"1a4e73a8-508d-4b1e-96f2-eec2565cb966","system_id":"levelo_inurba_marseille","lat":43.28949,"lon":5.36409,"is_reserved":false,"is_disabled":false,"rental_uris":{"android":"levelo://app?vid=1a4e73a8-508d-4b1e-96f2-eec2565cb966","ios":"levelo://app?vid=1a4e73a8-508d-4b1e-96f2-eec2565cb966"},"vehicle_type_id":"4","last_reported":1700518040,"current_range_meters":7600,"station_id":"ce4bhc92rcd13ifvqetg","pricing_plan_id":"free"},{"bike_id":"12b7cda1-6506-40f0-8a7f-52a493c15e79","system_id":"levelo_inurba_marseille","lat":43.28947,"lon":5.36404,"is_reserved":false,"is_disabled":false,"rental_uris":{"android":"levelo://app?vid=12b7cda1-6506-40f0-8a7f-52a493c15e79","ios":"levelo://app?vid=12b7cda1-6506-40f0-8a7f-52a493c15e79"},"vehicle_type_id":"4","last_reported":1700518040,"current_range_meters":31200,"station_id":"ce4bhc92rcd13ifvqetg","pricing_plan_id":"free"},{"bike_id":"132aba4c-5ae8-40e1-8742-2e82508abc6e","system_id":"levelo_inurba_marseille","lat":43.289423,"lon":5.363922,"is_reserved":false,"is_disabled":false,"rental_uris":{"android":"levelo://app?vid=132aba4c-5ae8-40e1-8742-2e82508abc6e","ios":"levelo://app?vid=132aba4c-5ae8-40e1-8742-2e82508abc6e"},"vehicle_type_id":"4","last_reported":1700518040,"current_range_meters":31600,"station_id":"ce4bhc92rcd13ifvqetg","pricing_plan_id":"free"},{"bike_id":"eb006d20-b5c9-49f9-aeb4-8a9d13762dd5","system_id":"levelo_inurba_marseille","lat":43.28942,"lon":5.36393,"is_reserved":false,"is_disabled":false,"rental_uris":{"android":"levelo://app?vid=eb006d20-b5c9-49f9-aeb4-8a9d13762dd5","ios":"levelo://app?vid=eb006d20-b5c9-49f9-aeb4-8a9d13762dd5"},"vehicle_type_id":"4","last_reported":1700518040,"current_range_meters":29200,"station_id":"ce4bhc92rcd13ifvqetg","pricing_plan_id":"free"},{"bike_id":"58180374-f06e-4b90-834d-fae491697cd0","system_id":"levelo_inurba_marseille","lat":43.33045,"lon":5.38916,"is_reserved":false,"is_disabled":false,"rental_uris":{"android":"levelo://app?vid=58180374-f06e-4b90-834d-fae491697cd0","ios":"levelo://app?vid=58180374-f06e-4b90-834d-fae491697cd0"},"vehicle_type_id":"4","last_reported":1700518040,"current_range_meters":0,"station_id":"ce4bhr92rcd13ifvqhrg","pricing_plan_id":"free"},{"bike_id":"e0dd0bf3-51d1-4a03-9b01-085aa748cd22","system_id":"levelo_inurba_marseille","lat":43.330437,"lon":5.389205,"is_reserved":false,"is_disabled":false,"rental_uris":{"android":"levelo://app?vid=e0dd0bf3-51d1-4a03-9b01-085aa748cd22","ios":"levelo://app?vid=e0dd0bf3-51d1-4a03-9b01-085aa748cd22"},"vehicle_type_id":"4","last_reported":1700518040,"current_range_meters":14800,"station_id":"ce4bhr92rcd13ifvqhrg","pricing_plan_id":"free"},{"bike_id":"b04804cf-5e01-4a00-a221-33ce71eafa30","system_id":"levelo_inurba_marseille","lat":43.330442,"lon":5.389148,"is_reserved":false,"is_disabled":false,"rental_uris":{"android":"levelo://app?vid=b04804cf-5e01-4a00-a221-33ce71eafa30","ios":"levelo://app?vid=b04804cf-5e01-4a00-a221-33ce71eafa30"},"vehicle_type_id":"4","last_reported":1700518040,"current_range_meters":12000,"station_id":"ce4bhr92rcd13ifvqhrg","pricing_plan_id":"free"},{"bike_id":"25f2f82c-eb04-4b79-ba19-5ef0e6134874","system_id":"levelo_inurba_marseille","lat":43.330442,"lon":5.389148,"is_reserved":false,"is_disabled":false,"rental_uris":{"android":"levelo://app?vid=25f2f82c-eb04-4b79-ba19-5ef0e6134874","ios":"levelo://app?vid=25f2f82c-eb04-4b79-ba19-5ef0e6134874"},"vehicle_type_id":"4","last_reported":1700518040,"current_range_meters":22000,"station_id":"ce4bhr92rcd13ifvqhrg","pricing_plan_id":"free"},{"bike_id":"6c3f86c9-9c97-4389-947e-4acabddb9d98","system_id":"levelo_inurba_marseille","lat":43.330491,"lon":5.38925,"is_reserved":false,"is_disabled":false,"rental_uris":{"android":"levelo://app?vid=6c3f86c9-9c97-4389-947e-4acabddb9d98","ios":"levelo://app?vid=6c3f86c9-9c97-4389-947e-4acabddb9d98"},"vehicle_type_id":"4","last_reported":1700518040,"current_range_meters":21600,"station_id":"ce4bhr92rcd13ifvqhrg","pricing_plan_id":"free"},{"bike_id":"24edf582-9678-43b9-bdef-467d8cbf50aa","system_id":"levelo_inurba_marseille","lat":43.29789,"lon":5.39331,"is_reserved":false,"is_disabled":false,"rental_uris":{"android":"levelo://app?vid=24edf582-9678-43b9-bdef-467d8cbf50aa","ios":"levelo://app?vid=24edf582-9678-43b9-bdef-467d8cbf50aa"},"vehicle_type_id":"4","last_reported":1700518040,"current_range_meters":28000,"station_id":"chh1huq6cuj3fo74tm60","pricing_plan_id":"free"},{"bike_id":"3a4e4fd7-d2ec-407c-b8e7-f0ba8faa1325","system_id":"levelo_inurba_marseille","lat":43.297899,"lon":5.393356,"is_reserved":false,"is_disabled":false,"rental_uris":{"android":"levelo://app?vid=3a4e4fd7-d2ec-407c-b8e7-f0ba8faa1325","ios":"levelo://app?vid=3a4e4fd7-d2ec-407c-b8e7-f0ba8faa1325"},"vehicle_type_id":"4","last_reported":1700518040,"current_range_meters":27600,"station_id":"chh1huq6cuj3fo74tm60","pricing_plan_id":"free"},{"bike_id":"30bcd6ab-b965-4f19-bd97-07f6075f0402","system_id":"levelo_inurba_marseille","lat":43.2952,"lon":5.39039,"is_reserved":false,"is_disabled":false,"rental_uris":{"android":"levelo://app?vid=30bcd6ab-b965-4f19-bd97-07f6075f0402","ios":"levelo://app?vid=30bcd6ab-b965-4f19-bd97-07f6075f0402"},"vehicle_type_id":"4","last_reported":1700518040,"current_range_meters":0,"station_id":"ce4bh3p2rcd13ifvqdp0","pricing_plan_id":"free"},{"bike_id":"efdc6bbe-efd0-4a6e-9f37-a0e86efef286","system_id":"levelo_inurba_marseille","lat":43.289743,"lon":5.378304,"is_reserved":false,"is_disabled":false,"rental_uris":{"android":"levelo://app?vid=efdc6bbe-efd0-4a6e-9f37-a0e86efef286","ios":"levelo://app?vid=efdc6bbe-efd0-4a6e-9f37-a0e86efef286"},"vehicle_type_id":"4","last_reported":1700518040,"current_range_meters":24000,"station_id":"ce4bh9p2rcd13ifvqed0","pricing_plan_id":"free"},{"bike_id":"07202f70-50d7-46f0-a5bd-59712659d6a0","system_id":"levelo_inurba_marseille","lat":43.31251,"lon":5.40162,"is_reserved":false,"is_disabled":false,"rental_uris":{"android":"levelo://app?vid=07202f70-50d7-46f0-a5bd-59712659d6a0","ios":"levelo://app?vid=07202f70-50d7-46f0-a5bd-59712659d6a0"},"vehicle_type_id":"4","last_reported":1700518040,"current_range_meters":5600,"station_id":"","pricing_plan_id":"free"},{"bike_id":"31fb31a7-3c45-4439-b24c-3efa0559a453","system_id":"levelo_inurba_marseille","lat":43.33743,"lon":5.37451,"is_reserved":false,"is_disabled":false,"rental_uris":{"android":"levelo://app?vid=31fb31a7-3c45-4439-b24c-3efa0559a453","ios":"levelo://app?vid=31fb31a7-3c45-4439-b24c-3efa0559a453"},"vehicle_type_id":"4","last_reported":1700518040,"current_range_meters":28800,"station_id":"","pricing_plan_id":"free"},{"bike_id":"c6c00728-5434-474c-b5b8-2d4116c5017d","system_id":"levelo_inurba_marseille","lat":43.30939,"lon":5.4014,"is_reserved":false,"is_disabled":false,"rental_uris":{"android":"levelo://app?vid=c6c00728-5434-474c-b5b8-2d4116c5017d","ios":"levelo://app?vid=c6c00728-5434-474c-b5b8-2d4116c5017d"},"vehicle_type_id":"4","last_reported":1700518040,"current_range_meters":25600,"station_id":"ce4bgvp2rcd13ifvqct0","pricing_plan_id":"free"},{"bike_id":"9d76eca6-e85e-49d7-809a-4e0ac58db9fa","system_id":"levelo_inurba_marseille","lat":43.312816,"lon":5.401739,"is_reserved":false,"is_disabled":false,"rental_uris":{"android":"levelo://app?vid=9d76eca6-e85e-49d7-809a-4e0ac58db9fa","ios":"levelo://app?vid=9d76eca6-e85e-49d7-809a-4e0ac58db9fa"},"vehicle_type_id":"4","last_reported":1700518040,"current_range_meters":30400,"station_id":"ce4bh092rcd13ifvqd30","pricing_plan_id":"free"},{"bike_id":"d3d4029f-7356-44de-87b9-855e062a4c7f","system_id":"levelo_inurba_marseille","lat":43.30926,"lon":5.40142,"is_reserved":false,"is_disabled":false,"rental_uris":{"android":"levelo://app?vid=d3d4029f-7356-44de-87b9-855e062a4c7f","ios":"levelo://app?vid=d3d4029f-7356-44de-87b9-855e062a4c7f"},"vehicle_type_id":"4","last_reported":1700518040,"current_range_meters":0,"station_id":"ce4bgvp2rcd13ifvqct0","pricing_plan_id":"free"},{"bike_id":"1d8efbac-cdba-42e5-bd33-18d5b1532753","system_id":"levelo_inurba_marseille","lat":43.33755,"lon":5.3745,"is_reserved":false,"is_disabled":false,"rental_uris":{"android":"levelo://app?vid=1d8efbac-cdba-42e5-bd33-18d5b1532753","ios":"levelo://app?vid=1d8efbac-cdba-42e5-bd33-18d5b1532753"},"vehicle_type_id":"4","last_reported":1700518040,"current_range_meters":27600,"station_id":"","pricing_plan_id":"free"},{"bike_id":"8b886d5e-a5b7-4885-93a9-86b8fb60103f","system_id":"levelo_inurba_marseille","lat":43.33753,"lon":5.37466,"is_reserved":false,"is_disabled":false,"rental_uris":{"android":"levelo://app?vid=8b886d5e-a5b7-4885-93a9-86b8fb60103f","ios":"levelo://app?vid=8b886d5e-a5b7-4885-93a9-86b8fb60103f"},"vehicle_type_id":"4","last_reported":1700518040,"current_range_meters":20000,"station_id":"","pricing_plan_id":"free"},{"bike_id":"3d342f3c-6911-4fb9-9cad-e3afe51194f9","system_id":"levelo_inurba_marseille","lat":43.33756,"lon":5.37459,"is_reserved":false,"is_disabled":false,"rental_uris":{"android":"levelo://app?vid=3d342f3c-6911-4fb9-9cad-e3afe51194f9","ios":"levelo://app?vid=3d342f3c-6911-4fb9-9cad-e3afe51194f9"},"vehicle_type_id":"4","last_reported":1700518040,"current_range_meters":18400,"station_id":"","pricing_plan_id":"free"},{"bike_id":"32c3052d-6284-4959-86ad-ab46f267ce26","system_id":"levelo_inurba_marseille","lat":43.33759,"lon":5.37448,"is_reserved":false,"is_disabled":false,"rental_uris":{"android":"levelo://app?vid=32c3052d-6284-4959-86ad-ab46f267ce26","ios":"levelo://app?vid=32c3052d-6284-4959-86ad-ab46f267ce26"},"vehicle_type_id":"4","last_reported":1700518040,"current_range_meters":22800,"station_id":"","pricing_plan_id":"free"},{"bike_id":"84b9d05f-3d7e-4742-8deb-25bbb4b79fa5","system_id":"levelo_inurba_marseille","lat":43.30641,"lon":5.40087,"is_reserved":false,"is_disabled":false,"rental_uris":{"android":"levelo://app?vid=84b9d05f-3d7e-4742-8deb-25bbb4b79fa5","ios":"levelo://app?vid=84b9d05f-3d7e-4742-8deb-25bbb4b79fa5"},"vehicle_type_id":"4","last_reported":1700518040,"current_range_meters":10800,"station_id":"ce4bh112rcd13ifvqda0","pricing_plan_id":"free"},{"bike_id":"7d1b648a-c616-4e16-9ce5-054be0c1527d","system_id":"levelo_inurba_marseille","lat":43.33758,"lon":5.37493,"is_reserved":false,"is_disabled":false,"rental_uris":{"android":"levelo://app?vid=7d1b648a-c616-4e16-9ce5-054be0c1527d","ios":"levelo://app?vid=7d1b648a-c616-4e16-9ce5-054be0c1527d"},"vehicle_type_id":"4","last_reported":1700518040,"current_range_meters":29200,"station_id":"","pricing_plan_id":"free"},{"bike_id":"72172355-570f-4907-8ac6-f1a5b3ff0ca3","system_id":"levelo_inurba_marseille","lat":43.30642,"lon":5.40093,"is_reserved":false,"is_disabled":false,"rental_uris":{"android":"levelo://app?vid=72172355-570f-4907-8ac6-f1a5b3ff0ca3","ios":"levelo://app?vid=72172355-570f-4907-8ac6-f1a5b3ff0ca3"},"vehicle_type_id":"4","last_reported":1700518040,"current_range_meters":10800,"station_id":"ce4bh112rcd13ifvqda0","pricing_plan_id":"free"},{"bike_id":"5aed5767-3112-421b-9a3b-3ff319a6bb2b","system_id":"levelo_inurba_marseille","lat":43.28707,"lon":5.36458,"is_reserved":false,"is_disabled":false,"rental_uris":{"android":"levelo://app?vid=5aed5767-3112-421b-9a3b-3ff319a6bb2b","ios":"levelo://app?vid=5aed5767-3112-421b-9a3b-3ff319a6bb2b"},"vehicle_type_id":"4","last_reported":1700518040,"current_range_meters":22000,"station_id":"ce4bhah2rcd13ifvqei0","pricing_plan_id":"free"},{"bike_id":"37a9f564-d28d-40aa-af60-8a05c406bbaf","system_id":"levelo_inurba_marseille","lat":43.28727,"lon":5.36078,"is_reserved":false,"is_disabled":false,"rental_uris":{"android":"levelo://app?vid=37a9f564-d28d-40aa-af60-8a05c406bbaf","ios":"levelo://app?vid=37a9f564-d28d-40aa-af60-8a05c406bbaf"},"vehicle_type_id":"4","last_reported":1700518040,"current_range_meters":2400,"station_id":"cki0cbj6b192h4jlfktg","pricing_plan_id":"free"},{"bike_id":"2400a2d1-1f01-4fc5-8c2b-199596767b2d","system_id":"levelo_inurba_marseille","lat":43.28727,"lon":5.36078,"is_reserved":false,"is_disabled":false,"rental_uris":{"android":"levelo://app?vid=2400a2d1-1f01-4fc5-8c2b-199596767b2d","ios":"levelo://app?vid=2400a2d1-1f01-4fc5-8c2b-199596767b2d"},"vehicle_type_id":"4","last_reported":1700518040,"current_range_meters":29200,"station_id":"cki0cbj6b192h4jlfktg","pricing_plan_id":"free"},{"bike_id":"6996037b-a616-4f65-8299-0ffd885315f4","system_id":"levelo_inurba_marseille","lat":43.28727,"lon":5.36078,"is_reserved":false,"is_disabled":false,"rental_uris":{"android":"levelo://app?vid=6996037b-a616-4f65-8299-0ffd885315f4","ios":"levelo://app?vid=6996037b-a616-4f65-8299-0ffd885315f4"},"vehicle_type_id":"4","last_reported":1700518040,"current_range_meters":25200,"station_id":"cki0cbj6b192h4jlfktg","pricing_plan_id":"free"},{"bike_id":"fbbfb7de-c6f3-442e-b997-562ae2d572be","system_id":"levelo_inurba_marseille","lat":43.28727,"lon":5.36078,"is_reserved":false,"is_disabled":false,"rental_uris":{"android":"levelo://app?vid=fbbfb7de-c6f3-442e-b997-562ae2d572be","ios":"levelo://app?vid=fbbfb7de-c6f3-442e-b997-562ae2d572be"},"vehicle_type_id":"4","last_reported":1700518040,"current_range_meters":400,"station_id":"cki0cbj6b192h4jlfktg","pricing_plan_id":"free"},{"bike_id":"1b8120c1-e38f-4da9-b932-a710eafc6aa8","system_id":"levelo_inurba_marseille","lat":43.28727,"lon":5.36078,"is_reserved":false,"is_disabled":false,"rental_uris":{"android":"levelo://app?vid=1b8120c1-e38f-4da9-b932-a710eafc6aa8","ios":"levelo://app?vid=1b8120c1-e38f-4da9-b932-a710eafc6aa8"},"vehicle_type_id":"4","last_reported":1700518040,"current_range_meters":31600,"station_id":"cki0cbj6b192h4jlfktg","pricing_plan_id":"free"},{"bike_id":"9e7d0baf-987e-47b4-b51b-0dc305406150","system_id":"levelo_inurba_marseille","lat":43.286593,"lon":5.363346,"is_reserved":false,"is_disabled":false,"rental_uris":{"android":"levelo://app?vid=9e7d0baf-987e-47b4-b51b-0dc305406150","ios":"levelo://app?vid=9e7d0baf-987e-47b4-b51b-0dc305406150"},"vehicle_type_id":"4","last_reported":1700518040,"current_range_meters":26800,"station_id":"ce4bhah2rcd13ifvqej0","pricing_plan_id":"free"},{"bike_id":"fd071807-5630-4e68-8c3a-d3d2ec739fe5","system_id":"levelo_inurba_marseille","lat":43.286961,"lon":5.373785,"is_reserved":false,"is_disabled":false,"rental_uris":{"android":"levelo://app?vid=fd071807-5630-4e68-8c3a-d3d2ec739fe5","ios":"levelo://app?vid=fd071807-5630-4e68-8c3a-d3d2ec739fe5"},"vehicle_type_id":"4","last_reported":1700518040,"current_range_meters":29600,"station_id":"ce4bh3p2rcd13ifvqdq0","pricing_plan_id":"free"},{"bike_id":"f3d184cf-3568-4e5b-b716-fa51b21e219c","system_id":"levelo_inurba_marseille","lat":43.286593,"lon":5.363346,"is_reserved":false,"is_disabled":false,"rental_uris":{"android":"levelo://app?vid=f3d184cf-3568-4e5b-b716-fa51b21e219c","ios":"levelo://app?vid=f3d184cf-3568-4e5b-b716-fa51b21e219c"},"vehicle_type_id":"4","last_reported":1700518040,"current_range_meters":28800,"station_id":"ce4bhah2rcd13ifvqej0","pricing_plan_id":"free"},{"bike_id":"3360c542-89a2-45db-86e9-3d9771fdd490","system_id":"levelo_inurba_marseille","lat":43.286961,"lon":5.373785,"is_reserved":false,"is_disabled":false,"rental_uris":{"android":"levelo://app?vid=3360c542-89a2-45db-86e9-3d9771fdd490","ios":"levelo://app?vid=3360c542-89a2-45db-86e9-3d9771fdd490"},"vehicle_type_id":"4","last_reported":1700518040,"current_range_meters":15600,"station_id":"ce4bh3p2rcd13ifvqdq0","pricing_plan_id":"free"},{"bike_id":"ce661d97-7f6b-42b6-9b91-ff7cce1095a5","system_id":"levelo_inurba_marseille","lat":43.286591,"lon":5.363346,"is_reserved":false,"is_disabled":false,"rental_uris":{"android":"levelo://app?vid=ce661d97-7f6b-42b6-9b91-ff7cce1095a5","ios":"levelo://app?vid=ce661d97-7f6b-42b6-9b91-ff7cce1095a5"},"vehicle_type_id":"4","last_reported":1700518040,"current_range_meters":30400,"station_id":"ce4bhah2rcd13ifvqej0","pricing_plan_id":"free"},{"bike_id":"d13fd0d5-d61d-4998-8f65-1f621265ba2a","system_id":"levelo_inurba_marseille","lat":43.295194,"lon":5.39397,"is_reserved":false,"is_disabled":false,"rental_uris":{"android":"levelo://app?vid=d13fd0d5-d61d-4998-8f65-1f621265ba2a","ios":"levelo://app?vid=d13fd0d5-d61d-4998-8f65-1f621265ba2a"},"vehicle_type_id":"4","last_reported":1700518040,"current_range_meters":22400,"station_id":"ce4bh292rcd13ifvqdf0","pricing_plan_id":"free"},{"bike_id":"fe10b4bb-ebcb-4f7b-bafc-eb07de016cb5","system_id":"levelo_inurba_marseille","lat":43.295194,"lon":5.39397,"is_reserved":false,"is_disabled":false,"rental_uris":{"android":"levelo://app?vid=fe10b4bb-ebcb-4f7b-bafc-eb07de016cb5","ios":"levelo://app?vid=fe10b4bb-ebcb-4f7b-bafc-eb07de016cb5"},"vehicle_type_id":"4","last_reported":1700518040,"current_range_meters":2400,"station_id":"ce4bh292rcd13ifvqdf0","pricing_plan_id":"free"},{"bike_id":"8d66ce2f-efb5-44e2-bb94-e9b14d98abcd","system_id":"levelo_inurba_marseille","lat":43.295194,"lon":5.39397,"is_reserved":false,"is_disabled":false,"rental_uris":{"android":"levelo://app?vid=8d66ce2f-efb5-44e2-bb94-e9b14d98abcd","ios":"levelo://app?vid=8d66ce2f-efb5-44e2-bb94-e9b14d98abcd"},"vehicle_type_id":"4","last_reported":1700518040,"current_range_meters":1200,"station_id":"ce4bh292rcd13ifvqdf0","pricing_plan_id":"free"},{"bike_id":"09c8c684-a180-4ec9-ab62-7c368786bd9c","system_id":"levelo_inurba_marseille","lat":43.29036,"lon":5.38649,"is_reserved":false,"is_disabled":false,"rental_uris":{"android":"levelo://app?vid=09c8c684-a180-4ec9-ab62-7c368786bd9c","ios":"levelo://app?vid=09c8c684-a180-4ec9-ab62-7c368786bd9c"},"vehicle_type_id":"4","last_reported":1700518040,"current_range_meters":17600,"station_id":"ce4bh4p2rcd13ifvqe0g","pricing_plan_id":"free"},{"bike_id":"4876f8e7-38e9-40f8-ac24-20811fc30e5e","system_id":"levelo_inurba_marseille","lat":43.289307,"lon":5.38406,"is_reserved":false,"is_disabled":false,"rental_uris":{"android":"levelo://app?vid=4876f8e7-38e9-40f8-ac24-20811fc30e5e","ios":"levelo://app?vid=4876f8e7-38e9-40f8-ac24-20811fc30e5e"},"vehicle_type_id":"4","last_reported":1700518040,"current_range_meters":29200,"station_id":"ce4bh612rcd13ifvqe6g","pricing_plan_id":"free"},{"bike_id":"a5f92315-9848-4c57-aad9-55e8aa04d517","system_id":"levelo_inurba_marseille","lat":43.290332,"lon":5.386465,"is_reserved":false,"is_disabled":false,"rental_uris":{"android":"levelo://app?vid=a5f92315-9848-4c57-aad9-55e8aa04d517","ios":"levelo://app?vid=a5f92315-9848-4c57-aad9-55e8aa04d517"},"vehicle_type_id":"4","last_reported":1700518040,"current_range_meters":20800,"station_id":"ce4bh4p2rcd13ifvqe0g","pricing_plan_id":"free"},{"bike_id":"ee9424ba-547b-4eb8-9f9f-3b1f2a4a918e","system_id":"levelo_inurba_marseille","lat":43.28926,"lon":5.38398,"is_reserved":false,"is_disabled":false,"rental_uris":{"android":"levelo://app?vid=ee9424ba-547b-4eb8-9f9f-3b1f2a4a918e","ios":"levelo://app?vid=ee9424ba-547b-4eb8-9f9f-3b1f2a4a918e"},"vehicle_type_id":"4","last_reported":1700518040,"current_range_meters":0,"station_id":"ce4bh612rcd13ifvqe6g","pricing_plan_id":"free"},{"bike_id":"3b49e10a-bc27-4ea4-b594-eee7db74c0b2","system_id":"levelo_inurba_marseille","lat":43.29027,"lon":5.3864,"is_reserved":false,"is_disabled":false,"rental_uris":{"android":"levelo://app?vid=3b49e10a-bc27-4ea4-b594-eee7db74c0b2","ios":"levelo://app?vid=3b49e10a-bc27-4ea4-b594-eee7db74c0b2"},"vehicle_type_id":"4","last_reported":1700518040,"current_range_meters":22800,"station_id":"ce4bh4p2rcd13ifvqe0g","pricing_plan_id":"free"},{"bike_id":"b02d0564-7234-4ae0-8708-f9e7b687ef9d","system_id":"levelo_inurba_marseille","lat":43.29028,"lon":5.38651,"is_reserved":false,"is_disabled":false,"rental_uris":{"android":"levelo://app?vid=b02d0564-7234-4ae0-8708-f9e7b687ef9d","ios":"levelo://app?vid=b02d0564-7234-4ae0-8708-f9e7b687ef9d"},"vehicle_type_id":"4","last_reported":1700518040,"current_range_meters":0,"station_id":"","pricing_plan_id":"free"},{"bike_id":"40b594dc-ddda-41de-9bdf-8a560fca7208","system_id":"levelo_inurba_marseille","lat":43.28612,"lon":5.37063,"is_reserved":false,"is_disabled":false,"rental_uris":{"android":"levelo://app?vid=40b594dc-ddda-41de-9bdf-8a560fca7208","ios":"levelo://app?vid=40b594dc-ddda-41de-9bdf-8a560fca7208"},"vehicle_type_id":"4","last_reported":1700518040,"current_range_meters":28400,"station_id":"ce4bht12rcd13ifvqi60","pricing_plan_id":"free"},{"bike_id":"e8b7c949-15c0-4c3d-bafc-4d9889bc6869","system_id":"levelo_inurba_marseille","lat":43.286039,"lon":5.370681,"is_reserved":false,"is_disabled":false,"rental_uris":{"android":"levelo://app?vid=e8b7c949-15c0-4c3d-bafc-4d9889bc6869","ios":"levelo://app?vid=e8b7c949-15c0-4c3d-bafc-4d9889bc6869"},"vehicle_type_id":"4","last_reported":1700518040,"current_range_meters":24800,"station_id":"ce4bht12rcd13ifvqi60","pricing_plan_id":"free"},{"bike_id":"b11c6bc1-95bd-43d8-a9cb-1aa878d33ab2","system_id":"levelo_inurba_marseille","lat":43.287184,"lon":5.37937,"is_reserved":false,"is_disabled":false,"rental_uris":{"android":"levelo://app?vid=b11c6bc1-95bd-43d8-a9cb-1aa878d33ab2","ios":"levelo://app?vid=b11c6bc1-95bd-43d8-a9cb-1aa878d33ab2"},"vehicle_type_id":"4","last_reported":1700518040,"current_range_meters":1200,"station_id":"ce4bh9p2rcd13ifvqec0","pricing_plan_id":"free"},{"bike_id":"d2bbd7b6-f829-4f0a-babc-e138e6f2c9c5","system_id":"levelo_inurba_marseille","lat":43.287185,"lon":5.379373,"is_reserved":false,"is_disabled":false,"rental_uris":{"android":"levelo://app?vid=d2bbd7b6-f829-4f0a-babc-e138e6f2c9c5","ios":"levelo://app?vid=d2bbd7b6-f829-4f0a-babc-e138e6f2c9c5"},"vehicle_type_id":"4","last_reported":1700518040,"current_range_meters":19200,"station_id":"ce4bh9p2rcd13ifvqec0","pricing_plan_id":"free"},{"bike_id":"cb819845-49ff-488f-a9ee-d181f44ecc92","system_id":"levelo_inurba_marseille","lat":43.287185,"lon":5.379373,"is_reserved":false,"is_disabled":false,"rental_uris":{"android":"levelo://app?vid=cb819845-49ff-488f-a9ee-d181f44ecc92","ios":"levelo://app?vid=cb819845-49ff-488f-a9ee-d181f44ecc92"},"vehicle_type_id":"4","last_reported":1700518040,"current_range_meters":29200,"station_id":"ce4bh9p2rcd13ifvqec0","pricing_plan_id":"free"},{"bike_id":"2d03999c-4404-40a0-ac40-80c7a4be69e2","system_id":"levelo_inurba_marseille","lat":43.287185,"lon":5.379373,"is_reserved":false,"is_disabled":false,"rental_uris":{"android":"levelo://app?vid=2d03999c-4404-40a0-ac40-80c7a4be69e2","ios":"levelo://app?vid=2d03999c-4404-40a0-ac40-80c7a4be69e2"},"vehicle_type_id":"4","last_reported":1700518040,"current_range_meters":3200,"station_id":"ce4bh9p2rcd13ifvqec0","pricing_plan_id":"free"},{"bike_id":"7848c4c4-31b7-4423-ae70-7a1fc827294d","system_id":"levelo_inurba_marseille","lat":43.287185,"lon":5.379373,"is_reserved":false,"is_disabled":false,"rental_uris":{"android":"levelo://app?vid=7848c4c4-31b7-4423-ae70-7a1fc827294d","ios":"levelo://app?vid=7848c4c4-31b7-4423-ae70-7a1fc827294d"},"vehicle_type_id":"4","last_reported":1700518040,"current_range_meters":9600,"station_id":"ce4bh9p2rcd13ifvqec0","pricing_plan_id":"free"},{"bike_id":"38ba7a1f-f360-4ae1-86f6-3ec5d7a4a8da","system_id":"levelo_inurba_marseille","lat":43.31645,"lon":5.40433,"is_reserved":false,"is_disabled":false,"rental_uris":{"android":"levelo://app?vid=38ba7a1f-f360-4ae1-86f6-3ec5d7a4a8da","ios":"levelo://app?vid=38ba7a1f-f360-4ae1-86f6-3ec5d7a4a8da"},"vehicle_type_id":"4","last_reported":1700518040,"current_range_meters":1200,"station_id":"ce4bh012rcd13ifvqd00","pricing_plan_id":"free"},{"bike_id":"7101f134-d8f5-48ca-ac14-4f195ea98c09","system_id":"levelo_inurba_marseille","lat":43.316517,"lon":5.404375,"is_reserved":false,"is_disabled":false,"rental_uris":{"android":"levelo://app?vid=7101f134-d8f5-48ca-ac14-4f195ea98c09","ios":"levelo://app?vid=7101f134-d8f5-48ca-ac14-4f195ea98c09"},"vehicle_type_id":"4","last_reported":1700518040,"current_range_meters":7600,"station_id":"ce4bh012rcd13ifvqd00","pricing_plan_id":"free"},{"bike_id":"00bd7c60-06b5-470b-b933-29c08e79a17e","system_id":"levelo_inurba_marseille","lat":43.292048,"lon":5.39316,"is_reserved":false,"is_disabled":false,"rental_uris":{"android":"levelo://app?vid=00bd7c60-06b5-470b-b933-29c08e79a17e","ios":"levelo://app?vid=00bd7c60-06b5-470b-b933-29c08e79a17e"},"vehicle_type_id":"4","last_reported":1700518040,"current_range_meters":14000,"station_id":"ce4bh192rcd13ifvqdd0","pricing_plan_id":"free"},{"bike_id":"22364c07-f1f5-4a48-8177-b598af57518a","system_id":"levelo_inurba_marseille","lat":43.29198,"lon":5.393151,"is_reserved":false,"is_disabled":false,"rental_uris":{"android":"levelo://app?vid=22364c07-f1f5-4a48-8177-b598af57518a","ios":"levelo://app?vid=22364c07-f1f5-4a48-8177-b598af57518a"},"vehicle_type_id":"4","last_reported":1700518040,"current_range_meters":22400,"station_id":"ce4bh192rcd13ifvqdd0","pricing_plan_id":"free"},{"bike_id":"c1f5d9ac-5fe4-4d52-8154-11295f269d19","system_id":"levelo_inurba_marseille","lat":43.29193,"lon":5.39312,"is_reserved":false,"is_disabled":false,"rental_uris":{"android":"levelo://app?vid=c1f5d9ac-5fe4-4d52-8154-11295f269d19","ios":"levelo://app?vid=c1f5d9ac-5fe4-4d52-8154-11295f269d19"},"vehicle_type_id":"4","last_reported":1700518040,"current_range_meters":9600,"station_id":"ce4bh192rcd13ifvqdd0","pricing_plan_id":"free"},{"bike_id":"4d78e20b-fa40-4a34-b498-e168b52fe6c6","system_id":"levelo_inurba_marseille","lat":43.29197,"lon":5.393273,"is_reserved":false,"is_disabled":false,"rental_uris":{"android":"levelo://app?vid=4d78e20b-fa40-4a34-b498-e168b52fe6c6","ios":"levelo://app?vid=4d78e20b-fa40-4a34-b498-e168b52fe6c6"},"vehicle_type_id":"4","last_reported":1700518040,"current_range_meters":22800,"station_id":"ce4bh192rcd13ifvqdd0","pricing_plan_id":"free"},{"bike_id":"79b87a2b-a9da-4bb2-8b49-a06bdb320def","system_id":"levelo_inurba_marseille","lat":43.29195,"lon":5.39329,"is_reserved":false,"is_disabled":false,"rental_uris":{"android":"levelo://app?vid=79b87a2b-a9da-4bb2-8b49-a06bdb320def","ios":"levelo://app?vid=79b87a2b-a9da-4bb2-8b49-a06bdb320def"},"vehicle_type_id":"4","last_reported":1700518040,"current_range_meters":0,"station_id":"ce4bh192rcd13ifvqdd0","pricing_plan_id":"free"},{"bike_id":"778e6b98-c7f4-4fd8-8b8a-20f2a5a8417e","system_id":"levelo_inurba_marseille","lat":43.294314,"lon":5.397498,"is_reserved":false,"is_disabled":false,"rental_uris":{"android":"levelo://app?vid=778e6b98-c7f4-4fd8-8b8a-20f2a5a8417e","ios":"levelo://app?vid=778e6b98-c7f4-4fd8-8b8a-20f2a5a8417e"},"vehicle_type_id":"4","last_reported":1700518040,"current_range_meters":18000,"station_id":"ce4bh3h2rcd13ifvqdo0","pricing_plan_id":"free"},{"bike_id":"77c3e609-337f-4c81-be80-01f1e9aab04c","system_id":"levelo_inurba_marseille","lat":43.284538,"lon":5.358657,"is_reserved":false,"is_disabled":false,"rental_uris":{"android":"levelo://app?vid=77c3e609-337f-4c81-be80-01f1e9aab04c","ios":"levelo://app?vid=77c3e609-337f-4c81-be80-01f1e9aab04c"},"vehicle_type_id":"4","last_reported":1700518040,"current_range_meters":31200,"station_id":"ce4bhah2rcd13ifvqei0","pricing_plan_id":"free"},{"bike_id":"90fbeaaa-7656-4325-9663-f8ffd2cad7c8","system_id":"levelo_inurba_marseille","lat":43.28462,"lon":5.35883,"is_reserved":false,"is_disabled":false,"rental_uris":{"android":"levelo://app?vid=90fbeaaa-7656-4325-9663-f8ffd2cad7c8","ios":"levelo://app?vid=90fbeaaa-7656-4325-9663-f8ffd2cad7c8"},"vehicle_type_id":"4","last_reported":1700518040,"current_range_meters":29200,"station_id":"ce4bhah2rcd13ifvqei0","pricing_plan_id":"free"},{"bike_id":"9732ab80-e62c-46fa-b562-b0e0c192b55a","system_id":"levelo_inurba_marseille","lat":43.284538,"lon":5.358657,"is_reserved":false,"is_disabled":false,"rental_uris":{"android":"levelo://app?vid=9732ab80-e62c-46fa-b562-b0e0c192b55a","ios":"levelo://app?vid=9732ab80-e62c-46fa-b562-b0e0c192b55a"},"vehicle_type_id":"4","last_reported":1700518040,"current_range_meters":29600,"station_id":"ce4bhah2rcd13ifvqei0","pricing_plan_id":"free"},{"bike_id":"3b76308c-89df-428b-9ed9-ff417fd447a6","system_id":"levelo_inurba_marseille","lat":43.284592,"lon":5.35894,"is_reserved":false,"is_disabled":false,"rental_uris":{"android":"levelo://app?vid=3b76308c-89df-428b-9ed9-ff417fd447a6","ios":"levelo://app?vid=3b76308c-89df-428b-9ed9-ff417fd447a6"},"vehicle_type_id":"4","last_reported":1700518040,"current_range_meters":30400,"station_id":"ce4bhah2rcd13ifvqei0","pricing_plan_id":"free"},{"bike_id":"eac1a479-eab4-4211-af30-c568e5e2e3b8","system_id":"levelo_inurba_marseille","lat":43.2846,"lon":5.3588,"is_reserved":false,"is_disabled":false,"rental_uris":{"android":"levelo://app?vid=eac1a479-eab4-4211-af30-c568e5e2e3b8","ios":"levelo://app?vid=eac1a479-eab4-4211-af30-c568e5e2e3b8"},"vehicle_type_id":"4","last_reported":1700518040,"current_range_meters":31200,"station_id":"ce4bhah2rcd13ifvqei0","pricing_plan_id":"free"},{"bike_id":"eda63b73-b14f-4905-8fc9-6d3ef4d62438","system_id":"levelo_inurba_marseille","lat":43.28457,"lon":5.35898,"is_reserved":false,"is_disabled":false,"rental_uris":{"android":"levelo://app?vid=eda63b73-b14f-4905-8fc9-6d3ef4d62438","ios":"levelo://app?vid=eda63b73-b14f-4905-8fc9-6d3ef4d62438"},"vehicle_type_id":"4","last_reported":1700518040,"current_range_meters":31600,"station_id":"ce4bhah2rcd13ifvqei0","pricing_plan_id":"free"},{"bike_id":"58b4b7cf-48a5-446b-936a-877a03d27593","system_id":"levelo_inurba_marseille","lat":43.28457,"lon":5.35887,"is_reserved":false,"is_disabled":false,"rental_uris":{"android":"levelo://app?vid=58b4b7cf-48a5-446b-936a-877a03d27593","ios":"levelo://app?vid=58b4b7cf-48a5-446b-936a-877a03d27593"},"vehicle_type_id":"4","last_reported":1700518040,"current_range_meters":30800,"station_id":"ce4bhah2rcd13ifvqei0","pricing_plan_id":"free"},{"bike_id":"c1f38e34-3ecd-49fe-ba70-3b9c23bc5a1c","system_id":"levelo_inurba_marseille","lat":43.284534,"lon":5.358662,"is_reserved":false,"is_disabled":false,"rental_uris":{"android":"levelo://app?vid=c1f38e34-3ecd-49fe-ba70-3b9c23bc5a1c","ios":"levelo://app?vid=c1f38e34-3ecd-49fe-ba70-3b9c23bc5a1c"},"vehicle_type_id":"4","last_reported":1700518040,"current_range_meters":9200,"station_id":"ce4bhah2rcd13ifvqei0","pricing_plan_id":"free"},{"bike_id":"35006318-c5cf-402e-b6ab-83a12564ebaf","system_id":"levelo_inurba_marseille","lat":43.284538,"lon":5.358657,"is_reserved":false,"is_disabled":false,"rental_uris":{"android":"levelo://app?vid=35006318-c5cf-402e-b6ab-83a12564ebaf","ios":"levelo://app?vid=35006318-c5cf-402e-b6ab-83a12564ebaf"},"vehicle_type_id":"4","last_reported":1700518040,"current_range_meters":30800,"station_id":"ce4bhah2rcd13ifvqei0","pricing_plan_id":"free"},{"bike_id":"ae1a042e-5400-4acc-b6fc-670f4baa06e6","system_id":"levelo_inurba_marseille","lat":43.28454,"lon":5.35882,"is_reserved":false,"is_disabled":false,"rental_uris":{"android":"levelo://app?vid=ae1a042e-5400-4acc-b6fc-670f4baa06e6","ios":"levelo://app?vid=ae1a042e-5400-4acc-b6fc-670f4baa06e6"},"vehicle_type_id":"4","last_reported":1700518040,"current_range_meters":22800,"station_id":"ce4bhah2rcd13ifvqei0","pricing_plan_id":"free"},{"bike_id":"a03bc167-3f90-4afe-89f0-2334b5872e81","system_id":"levelo_inurba_marseille","lat":43.284538,"lon":5.358657,"is_reserved":false,"is_disabled":false,"rental_uris":{"android":"levelo://app?vid=a03bc167-3f90-4afe-89f0-2334b5872e81","ios":"levelo://app?vid=a03bc167-3f90-4afe-89f0-2334b5872e81"},"vehicle_type_id":"4","last_reported":1700518040,"current_range_meters":30800,"station_id":"ce4bhah2rcd13ifvqei0","pricing_plan_id":"free"},{"bike_id":"288666b6-2bca-40b3-9e5b-0556cd143ccc","system_id":"levelo_inurba_marseille","lat":43.284538,"lon":5.358657,"is_reserved":false,"is_disabled":false,"rental_uris":{"android":"levelo://app?vid=288666b6-2bca-40b3-9e5b-0556cd143ccc","ios":"levelo://app?vid=288666b6-2bca-40b3-9e5b-0556cd143ccc"},"vehicle_type_id":"4","last_reported":1700518040,"current_range_meters":31200,"station_id":"ce4bhah2rcd13ifvqei0","pricing_plan_id":"free"},{"bike_id":"f1f8217c-ea87-4972-8bae-5d1fba55fb58","system_id":"levelo_inurba_marseille","lat":43.28619,"lon":5.35108,"is_reserved":false,"is_disabled":false,"rental_uris":{"android":"levelo://app?vid=f1f8217c-ea87-4972-8bae-5d1fba55fb58","ios":"levelo://app?vid=f1f8217c-ea87-4972-8bae-5d1fba55fb58"},"vehicle_type_id":"4","last_reported":1700518040,"current_range_meters":1200,"station_id":"ce4bhch2rcd13ifvqeug","pricing_plan_id":"free"},{"bike_id":"b28e80dc-bcb6-4164-8355-46061f18e9bf","system_id":"levelo_inurba_marseille","lat":43.294314,"lon":5.397498,"is_reserved":false,"is_disabled":false,"rental_uris":{"android":"levelo://app?vid=b28e80dc-bcb6-4164-8355-46061f18e9bf","ios":"levelo://app?vid=b28e80dc-bcb6-4164-8355-46061f18e9bf"},"vehicle_type_id":"4","last_reported":1700518040,"current_range_meters":29600,"station_id":"ce4bh3h2rcd13ifvqdo0","pricing_plan_id":"free"},{"bike_id":"b99b0cff-ade6-4996-a075-0f70ee649462","system_id":"levelo_inurba_marseille","lat":43.28618,"lon":5.35106,"is_reserved":false,"is_disabled":false,"rental_uris":{"android":"levelo://app?vid=b99b0cff-ade6-4996-a075-0f70ee649462","ios":"levelo://app?vid=b99b0cff-ade6-4996-a075-0f70ee649462"},"vehicle_type_id":"4","last_reported":1700518040,"current_range_meters":17200,"station_id":"ce4bhch2rcd13ifvqeug","pricing_plan_id":"free"},{"bike_id":"167d4653-3706-4b70-b9af-2e37e9aa2685","system_id":"levelo_inurba_marseille","lat":43.283998,"lon":5.375062,"is_reserved":false,"is_disabled":false,"rental_uris":{"android":"levelo://app?vid=167d4653-3706-4b70-b9af-2e37e9aa2685","ios":"levelo://app?vid=167d4653-3706-4b70-b9af-2e37e9aa2685"},"vehicle_type_id":"4","last_reported":1700518040,"current_range_meters":9200,"station_id":"ce4bh412rcd13ifvqds0","pricing_plan_id":"free"},{"bike_id":"e2888d54-4cde-4cd1-a872-e6c664296037","system_id":"levelo_inurba_marseille","lat":43.286239,"lon":5.383942,"is_reserved":false,"is_disabled":false,"rental_uris":{"android":"levelo://app?vid=e2888d54-4cde-4cd1-a872-e6c664296037","ios":"levelo://app?vid=e2888d54-4cde-4cd1-a872-e6c664296037"},"vehicle_type_id":"4","last_reported":1700518040,"current_range_meters":0,"station_id":"","pricing_plan_id":"free"},{"bike_id":"df557a1d-d4de-4c82-9bf4-37a9eec7c85f","system_id":"levelo_inurba_marseille","lat":43.283998,"lon":5.375062,"is_reserved":false,"is_disabled":false,"rental_uris":{"android":"levelo://app?vid=df557a1d-d4de-4c82-9bf4-37a9eec7c85f","ios":"levelo://app?vid=df557a1d-d4de-4c82-9bf4-37a9eec7c85f"},"vehicle_type_id":"4","last_reported":1700518040,"current_range_meters":9600,"station_id":"ce4bh412rcd13ifvqds0","pricing_plan_id":"free"},{"bike_id":"9d6ddb48-5e7c-4e6e-ad3b-df9f8003f74b","system_id":"levelo_inurba_marseille","lat":43.295713,"lon":5.399639,"is_reserved":false,"is_disabled":false,"rental_uris":{"android":"levelo://app?vid=9d6ddb48-5e7c-4e6e-ad3b-df9f8003f74b","ios":"levelo://app?vid=9d6ddb48-5e7c-4e6e-ad3b-df9f8003f74b"},"vehicle_type_id":"4","last_reported":1700518040,"current_range_meters":8000,"station_id":"ce4bh312rcd13ifvqdj0","pricing_plan_id":"free"},{"bike_id":"35ba4e4e-a7c2-4440-9a4e-e9a94c96db8e","system_id":"levelo_inurba_marseille","lat":43.31886,"lon":5.40734,"is_reserved":false,"is_disabled":false,"rental_uris":{"android":"levelo://app?vid=35ba4e4e-a7c2-4440-9a4e-e9a94c96db8e","ios":"levelo://app?vid=35ba4e4e-a7c2-4440-9a4e-e9a94c96db8e"},"vehicle_type_id":"4","last_reported":1700518040,"current_range_meters":16000,"station_id":"ce4bhq12rcd13ifvqhig","pricing_plan_id":"free"},{"bike_id":"fc0cac46-eee2-4472-8a9d-710b23328d8d","system_id":"levelo_inurba_marseille","lat":43.292078,"lon":5.397043,"is_reserved":false,"is_disabled":false,"rental_uris":{"android":"levelo://app?vid=fc0cac46-eee2-4472-8a9d-710b23328d8d","ios":"levelo://app?vid=fc0cac46-eee2-4472-8a9d-710b23328d8d"},"vehicle_type_id":"4","last_reported":1700518040,"current_range_meters":0,"station_id":"","pricing_plan_id":"free"},{"bike_id":"5974ad3b-da81-42ca-a08b-1b3632a47afa","system_id":"levelo_inurba_marseille","lat":43.33237,"lon":5.3985,"is_reserved":false,"is_disabled":false,"rental_uris":{"android":"levelo://app?vid=5974ad3b-da81-42ca-a08b-1b3632a47afa","ios":"levelo://app?vid=5974ad3b-da81-42ca-a08b-1b3632a47afa"},"vehicle_type_id":"4","last_reported":1700518040,"current_range_meters":0,"station_id":"","pricing_plan_id":"free"},{"bike_id":"aa9ed338-993c-4944-bb3b-8ec82246a8bd","system_id":"levelo_inurba_marseille","lat":43.32338,"lon":5.40617,"is_reserved":false,"is_disabled":false,"rental_uris":{"android":"levelo://app?vid=aa9ed338-993c-4944-bb3b-8ec82246a8bd","ios":"levelo://app?vid=aa9ed338-993c-4944-bb3b-8ec82246a8bd"},"vehicle_type_id":"4","last_reported":1700518040,"current_range_meters":21200,"station_id":"","pricing_plan_id":"free"},{"bike_id":"4fbed95d-7196-4444-a845-d6b81cf0e641","system_id":"levelo_inurba_marseille","lat":43.32337,"lon":5.4062,"is_reserved":false,"is_disabled":false,"rental_uris":{"android":"levelo://app?vid=4fbed95d-7196-4444-a845-d6b81cf0e641","ios":"levelo://app?vid=4fbed95d-7196-4444-a845-d6b81cf0e641"},"vehicle_type_id":"4","last_reported":1700518040,"current_range_meters":24800,"station_id":"ce4bhq92rcd13ifvqhjg","pricing_plan_id":"free"},{"bike_id":"de87e49d-e15b-4258-9edc-966da44501ad","system_id":"levelo_inurba_marseille","lat":43.337168,"lon":5.391825,"is_reserved":false,"is_disabled":false,"rental_uris":{"android":"levelo://app?vid=de87e49d-e15b-4258-9edc-966da44501ad","ios":"levelo://app?vid=de87e49d-e15b-4258-9edc-966da44501ad"},"vehicle_type_id":"4","last_reported":1700518040,"current_range_meters":12400,"station_id":"ce4bhr92rcd13ifvqhsg","pricing_plan_id":"free"},{"bike_id":"26f9da0c-f1af-4e47-b855-5e4d482675fc","system_id":"levelo_inurba_marseille","lat":43.29795,"lon":5.404086,"is_reserved":false,"is_disabled":false,"rental_uris":{"android":"levelo://app?vid=26f9da0c-f1af-4e47-b855-5e4d482675fc","ios":"levelo://app?vid=26f9da0c-f1af-4e47-b855-5e4d482675fc"},"vehicle_type_id":"4","last_reported":1700518040,"current_range_meters":28400,"station_id":"ce4bh112rcd13ifvqd90","pricing_plan_id":"free"},{"bike_id":"cac7e3e3-9bdf-4d13-9212-61f6e4b2d16e","system_id":"levelo_inurba_marseille","lat":43.284219,"lon":5.3497,"is_reserved":false,"is_disabled":false,"rental_uris":{"android":"levelo://app?vid=cac7e3e3-9bdf-4d13-9212-61f6e4b2d16e","ios":"levelo://app?vid=cac7e3e3-9bdf-4d13-9212-61f6e4b2d16e"},"vehicle_type_id":"4","last_reported":1700518040,"current_range_meters":21200,"station_id":"ce4bhbh2rcd13ifvqepg","pricing_plan_id":"free"},{"bike_id":"118e2126-2788-4d82-83a8-767f8d86c3d7","system_id":"levelo_inurba_marseille","lat":43.284219,"lon":5.3497,"is_reserved":false,"is_disabled":false,"rental_uris":{"android":"levelo://app?vid=118e2126-2788-4d82-83a8-767f8d86c3d7","ios":"levelo://app?vid=118e2126-2788-4d82-83a8-767f8d86c3d7"},"vehicle_type_id":"4","last_reported":1700518040,"current_range_meters":25200,"station_id":"ce4bhbh2rcd13ifvqepg","pricing_plan_id":"free"},{"bike_id":"26eacea1-0b7b-4105-9234-5a75e70bb1dc","system_id":"levelo_inurba_marseille","lat":43.28425,"lon":5.34988,"is_reserved":false,"is_disabled":false,"rental_uris":{"android":"levelo://app?vid=26eacea1-0b7b-4105-9234-5a75e70bb1dc","ios":"levelo://app?vid=26eacea1-0b7b-4105-9234-5a75e70bb1dc"},"vehicle_type_id":"4","last_reported":1700518040,"current_range_meters":25600,"station_id":"ce4bhbh2rcd13ifvqepg","pricing_plan_id":"free"},{"bike_id":"679fd7d2-de05-4189-b6ae-02c15f2e8b05","system_id":"levelo_inurba_marseille","lat":43.284219,"lon":5.3497,"is_reserved":false,"is_disabled":false,"rental_uris":{"android":"levelo://app?vid=679fd7d2-de05-4189-b6ae-02c15f2e8b05","ios":"levelo://app?vid=679fd7d2-de05-4189-b6ae-02c15f2e8b05"},"vehicle_type_id":"4","last_reported":1700518040,"current_range_meters":31200,"station_id":"ce4bhbh2rcd13ifvqepg","pricing_plan_id":"free"},{"bike_id":"dc227350-d514-46a1-84ff-51d1272dcf89","system_id":"levelo_inurba_marseille","lat":43.343612,"lon":5.37501,"is_reserved":false,"is_disabled":false,"rental_uris":{"android":"levelo://app?vid=dc227350-d514-46a1-84ff-51d1272dcf89","ios":"levelo://app?vid=dc227350-d514-46a1-84ff-51d1272dcf89"},"vehicle_type_id":"4","last_reported":1700518040,"current_range_meters":0,"station_id":"","pricing_plan_id":"free"},{"bike_id":"d3ba5ff5-4c07-41d0-b578-5b46e32328b1","system_id":"levelo_inurba_marseille","lat":43.289363,"lon":5.396322,"is_reserved":false,"is_disabled":false,"rental_uris":{"android":"levelo://app?vid=d3ba5ff5-4c07-41d0-b578-5b46e32328b1","ios":"levelo://app?vid=d3ba5ff5-4c07-41d0-b578-5b46e32328b1"},"vehicle_type_id":"4","last_reported":1700518040,"current_range_meters":26400,"station_id":"ce4bh3h2rcd13ifvqdn0","pricing_plan_id":"free"},{"bike_id":"9c2d02f0-ea7c-40f3-ba9c-5cbee0704b1f","system_id":"levelo_inurba_marseille","lat":43.282754,"lon":5.350519,"is_reserved":false,"is_disabled":false,"rental_uris":{"android":"levelo://app?vid=9c2d02f0-ea7c-40f3-ba9c-5cbee0704b1f","ios":"levelo://app?vid=9c2d02f0-ea7c-40f3-ba9c-5cbee0704b1f"},"vehicle_type_id":"4","last_reported":1700518040,"current_range_meters":28400,"station_id":"ce4bhbp2rcd13ifvqerg","pricing_plan_id":"free"},{"bike_id":"083a72a4-c264-41ca-9cbc-b5a0b3c2f24b","system_id":"levelo_inurba_marseille","lat":43.282695,"lon":5.350798,"is_reserved":false,"is_disabled":false,"rental_uris":{"android":"levelo://app?vid=083a72a4-c264-41ca-9cbc-b5a0b3c2f24b","ios":"levelo://app?vid=083a72a4-c264-41ca-9cbc-b5a0b3c2f24b"},"vehicle_type_id":"4","last_reported":1700518040,"current_range_meters":19200,"station_id":"ce4bhbp2rcd13ifvqerg","pricing_plan_id":"free"},{"bike_id":"e5625dab-e7e6-4c95-a889-3e65c36b7747","system_id":"levelo_inurba_marseille","lat":43.282754,"lon":5.350519,"is_reserved":false,"is_disabled":false,"rental_uris":{"android":"levelo://app?vid=e5625dab-e7e6-4c95-a889-3e65c36b7747","ios":"levelo://app?vid=e5625dab-e7e6-4c95-a889-3e65c36b7747"},"vehicle_type_id":"4","last_reported":1700518040,"current_range_meters":31200,"station_id":"ce4bhbp2rcd13ifvqerg","pricing_plan_id":"free"},{"bike_id":"60781c61-9b2c-4fa1-b6f9-16b19af6c5fe","system_id":"levelo_inurba_marseille","lat":43.282744,"lon":5.350533,"is_reserved":false,"is_disabled":false,"rental_uris":{"android":"levelo://app?vid=60781c61-9b2c-4fa1-b6f9-16b19af6c5fe","ios":"levelo://app?vid=60781c61-9b2c-4fa1-b6f9-16b19af6c5fe"},"vehicle_type_id":"4","last_reported":1700518040,"current_range_meters":30800,"station_id":"ce4bhbp2rcd13ifvqerg","pricing_plan_id":"free"},{"bike_id":"d2c144d2-8535-4548-b2d1-aa27516935bc","system_id":"levelo_inurba_marseille","lat":43.282744,"lon":5.350533,"is_reserved":false,"is_disabled":false,"rental_uris":{"android":"levelo://app?vid=d2c144d2-8535-4548-b2d1-aa27516935bc","ios":"levelo://app?vid=d2c144d2-8535-4548-b2d1-aa27516935bc"},"vehicle_type_id":"4","last_reported":1700518040,"current_range_meters":31200,"station_id":"ce4bhbp2rcd13ifvqerg","pricing_plan_id":"free"},{"bike_id":"0f3640a2-ad01-4760-9e09-ddd92fef4a58","system_id":"levelo_inurba_marseille","lat":43.282744,"lon":5.350533,"is_reserved":false,"is_disabled":false,"rental_uris":{"android":"levelo://app?vid=0f3640a2-ad01-4760-9e09-ddd92fef4a58","ios":"levelo://app?vid=0f3640a2-ad01-4760-9e09-ddd92fef4a58"},"vehicle_type_id":"4","last_reported":1700518040,"current_range_meters":31600,"station_id":"ce4bhbp2rcd13ifvqerg","pricing_plan_id":"free"},{"bike_id":"343d96de-a63b-4473-8632-4fadebd7a292","system_id":"levelo_inurba_marseille","lat":43.29109,"lon":5.39989,"is_reserved":false,"is_disabled":false,"rental_uris":{"android":"levelo://app?vid=343d96de-a63b-4473-8632-4fadebd7a292","ios":"levelo://app?vid=343d96de-a63b-4473-8632-4fadebd7a292"},"vehicle_type_id":"4","last_reported":1700518040,"current_range_meters":26800,"station_id":"","pricing_plan_id":"free"},{"bike_id":"2f4d2a1f-2e75-44cc-abd2-ea2d4f049787","system_id":"levelo_inurba_marseille","lat":43.282754,"lon":5.350519,"is_reserved":false,"is_disabled":false,"rental_uris":{"android":"levelo://app?vid=2f4d2a1f-2e75-44cc-abd2-ea2d4f049787","ios":"levelo://app?vid=2f4d2a1f-2e75-44cc-abd2-ea2d4f049787"},"vehicle_type_id":"4","last_reported":1700518040,"current_range_meters":31200,"station_id":"ce4bhbp2rcd13ifvqerg","pricing_plan_id":"free"},{"bike_id":"04cd95e5-7146-46d5-be9b-86e497228d37","system_id":"levelo_inurba_marseille","lat":43.283502,"lon":5.386471,"is_reserved":false,"is_disabled":false,"rental_uris":{"android":"levelo://app?vid=04cd95e5-7146-46d5-be9b-86e497228d37","ios":"levelo://app?vid=04cd95e5-7146-46d5-be9b-86e497228d37"},"vehicle_type_id":"4","last_reported":1700518040,"current_range_meters":5200,"station_id":"ce4bh492rcd13ifvqdvg","pricing_plan_id":"free"},{"bike_id":"d91a4321-33cb-4444-ae0a-360a0804a435","system_id":"levelo_inurba_marseille","lat":43.28039,"lon":5.369297,"is_reserved":false,"is_disabled":false,"rental_uris":{"android":"levelo://app?vid=d91a4321-33cb-4444-ae0a-360a0804a435","ios":"levelo://app?vid=d91a4321-33cb-4444-ae0a-360a0804a435"},"vehicle_type_id":"4","last_reported":1700518040,"current_range_meters":32000,"station_id":"ce4bha12rcd13ifvqef0","pricing_plan_id":"free"},{"bike_id":"6875e9d7-c282-41b7-9569-7ba666485be7","system_id":"levelo_inurba_marseille","lat":43.28039,"lon":5.369297,"is_reserved":false,"is_disabled":false,"rental_uris":{"android":"levelo://app?vid=6875e9d7-c282-41b7-9569-7ba666485be7","ios":"levelo://app?vid=6875e9d7-c282-41b7-9569-7ba666485be7"},"vehicle_type_id":"4","last_reported":1700518040,"current_range_meters":30400,"station_id":"ce4bha12rcd13ifvqef0","pricing_plan_id":"free"},{"bike_id":"48d8b52f-b752-4db4-b7fb-3b5376675e4c","system_id":"levelo_inurba_marseille","lat":43.28035,"lon":5.36942,"is_reserved":false,"is_disabled":false,"rental_uris":{"android":"levelo://app?vid=48d8b52f-b752-4db4-b7fb-3b5376675e4c","ios":"levelo://app?vid=48d8b52f-b752-4db4-b7fb-3b5376675e4c"},"vehicle_type_id":"4","last_reported":1700518040,"current_range_meters":30400,"station_id":"ce4bha12rcd13ifvqef0","pricing_plan_id":"free"},{"bike_id":"2e6c79c0-6e68-4ac8-a76f-130ecfe2427c","system_id":"levelo_inurba_marseille","lat":43.28039,"lon":5.369297,"is_reserved":false,"is_disabled":false,"rental_uris":{"android":"levelo://app?vid=2e6c79c0-6e68-4ac8-a76f-130ecfe2427c","ios":"levelo://app?vid=2e6c79c0-6e68-4ac8-a76f-130ecfe2427c"},"vehicle_type_id":"4","last_reported":1700518040,"current_range_meters":26400,"station_id":"ce4bha12rcd13ifvqef0","pricing_plan_id":"free"},{"bike_id":"dd9c0ed6-2e9e-4937-8a71-5a5543051bf6","system_id":"levelo_inurba_marseille","lat":43.28039,"lon":5.369297,"is_reserved":false,"is_disabled":false,"rental_uris":{"android":"levelo://app?vid=dd9c0ed6-2e9e-4937-8a71-5a5543051bf6","ios":"levelo://app?vid=dd9c0ed6-2e9e-4937-8a71-5a5543051bf6"},"vehicle_type_id":"4","last_reported":1700518040,"current_range_meters":30000,"station_id":"ce4bha12rcd13ifvqef0","pricing_plan_id":"free"},{"bike_id":"bc52672a-372f-4789-bf00-c446a84efba6","system_id":"levelo_inurba_marseille","lat":43.28039,"lon":5.369297,"is_reserved":false,"is_disabled":false,"rental_uris":{"android":"levelo://app?vid=bc52672a-372f-4789-bf00-c446a84efba6","ios":"levelo://app?vid=bc52672a-372f-4789-bf00-c446a84efba6"},"vehicle_type_id":"4","last_reported":1700518040,"current_range_meters":21200,"station_id":"ce4bha12rcd13ifvqef0","pricing_plan_id":"free"},{"bike_id":"6038c483-9aa9-43b1-8d28-5e275f9f8e55","system_id":"levelo_inurba_marseille","lat":43.280382,"lon":5.369291,"is_reserved":false,"is_disabled":false,"rental_uris":{"android":"levelo://app?vid=6038c483-9aa9-43b1-8d28-5e275f9f8e55","ios":"levelo://app?vid=6038c483-9aa9-43b1-8d28-5e275f9f8e55"},"vehicle_type_id":"4","last_reported":1700518040,"current_range_meters":16000,"station_id":"ce4bha12rcd13ifvqef0","pricing_plan_id":"free"},{"bike_id":"127c02c0-cf3c-40df-b760-20fddc6726af","system_id":"levelo_inurba_marseille","lat":43.281044,"lon":5.378308,"is_reserved":false,"is_disabled":false,"rental_uris":{"android":"levelo://app?vid=127c02c0-cf3c-40df-b760-20fddc6726af","ios":"levelo://app?vid=127c02c0-cf3c-40df-b760-20fddc6726af"},"vehicle_type_id":"4","last_reported":1700518040,"current_range_meters":31200,"station_id":"ce4bha12rcd13ifvqee0","pricing_plan_id":"free"},{"bike_id":"c9785dd2-54bd-422b-aa2e-aea21f6e4c84","system_id":"levelo_inurba_marseille","lat":43.281044,"lon":5.378308,"is_reserved":false,"is_disabled":false,"rental_uris":{"android":"levelo://app?vid=c9785dd2-54bd-422b-aa2e-aea21f6e4c84","ios":"levelo://app?vid=c9785dd2-54bd-422b-aa2e-aea21f6e4c84"},"vehicle_type_id":"4","last_reported":1700518040,"current_range_meters":15600,"station_id":"ce4bha12rcd13ifvqee0","pricing_plan_id":"free"},{"bike_id":"8d484001-7c9c-4a3f-8f43-6c2612f9d45e","system_id":"levelo_inurba_marseille","lat":43.280999,"lon":5.378441,"is_reserved":false,"is_disabled":false,"rental_uris":{"android":"levelo://app?vid=8d484001-7c9c-4a3f-8f43-6c2612f9d45e","ios":"levelo://app?vid=8d484001-7c9c-4a3f-8f43-6c2612f9d45e"},"vehicle_type_id":"4","last_reported":1700518040,"current_range_meters":31200,"station_id":"ce4bha12rcd13ifvqee0","pricing_plan_id":"free"},{"bike_id":"a4aff92f-4b58-4eed-a879-39561a9ee33e","system_id":"levelo_inurba_marseille","lat":43.296263,"lon":5.40601,"is_reserved":false,"is_disabled":false,"rental_uris":{"android":"levelo://app?vid=a4aff92f-4b58-4eed-a879-39561a9ee33e","ios":"levelo://app?vid=a4aff92f-4b58-4eed-a879-39561a9ee33e"},"vehicle_type_id":"4","last_reported":1700518040,"current_range_meters":31200,"station_id":"ce4bh0h2rcd13ifvqd60","pricing_plan_id":"free"},{"bike_id":"bc156ed7-6757-466f-94b8-e18ad85148b1","system_id":"levelo_inurba_marseille","lat":43.284462,"lon":5.392121,"is_reserved":false,"is_disabled":false,"rental_uris":{"android":"levelo://app?vid=bc156ed7-6757-466f-94b8-e18ad85148b1","ios":"levelo://app?vid=bc156ed7-6757-466f-94b8-e18ad85148b1"},"vehicle_type_id":"4","last_reported":1700518040,"current_range_meters":24000,"station_id":"ce4bhoh2rcd13ifvqh5g","pricing_plan_id":"free"},{"bike_id":"dcd2405c-bf1d-408b-a59e-ae8b07a380f9","system_id":"levelo_inurba_marseille","lat":43.34543,"lon":5.35447,"is_reserved":false,"is_disabled":false,"rental_uris":{"android":"levelo://app?vid=dcd2405c-bf1d-408b-a59e-ae8b07a380f9","ios":"levelo://app?vid=dcd2405c-bf1d-408b-a59e-ae8b07a380f9"},"vehicle_type_id":"4","last_reported":1700518040,"current_range_meters":23600,"station_id":"","pricing_plan_id":"free"},{"bike_id":"9cf37ee3-bb1f-441b-9e61-3cacdaf5fa5e","system_id":"levelo_inurba_marseille","lat":43.326605,"lon":5.409903,"is_reserved":false,"is_disabled":false,"rental_uris":{"android":"levelo://app?vid=9cf37ee3-bb1f-441b-9e61-3cacdaf5fa5e","ios":"levelo://app?vid=9cf37ee3-bb1f-441b-9e61-3cacdaf5fa5e"},"vehicle_type_id":"4","last_reported":1700518040,"current_range_meters":3200,"station_id":"ce4bhpp2rcd13ifvqhgg","pricing_plan_id":"free"},{"bike_id":"20bea938-6fbd-4452-8899-c9f2c364bd4d","system_id":"levelo_inurba_marseille","lat":43.326605,"lon":5.409903,"is_reserved":false,"is_disabled":false,"rental_uris":{"android":"levelo://app?vid=20bea938-6fbd-4452-8899-c9f2c364bd4d","ios":"levelo://app?vid=20bea938-6fbd-4452-8899-c9f2c364bd4d"},"vehicle_type_id":"4","last_reported":1700518040,"current_range_meters":27600,"station_id":"ce4bhpp2rcd13ifvqhgg","pricing_plan_id":"free"},{"bike_id":"5cc71858-168e-4f27-a50f-c2ad738ddeab","system_id":"levelo_inurba_marseille","lat":43.304188,"lon":5.412904,"is_reserved":false,"is_disabled":false,"rental_uris":{"android":"levelo://app?vid=5cc71858-168e-4f27-a50f-c2ad738ddeab","ios":"levelo://app?vid=5cc71858-168e-4f27-a50f-c2ad738ddeab"},"vehicle_type_id":"4","last_reported":1700518040,"current_range_meters":22800,"station_id":"ce4bhop2rcd13ifvqh8g","pricing_plan_id":"free"},{"bike_id":"1aa76ac8-ccaf-41d2-8fb5-033e7c180f10","system_id":"levelo_inurba_marseille","lat":43.304188,"lon":5.412904,"is_reserved":false,"is_disabled":false,"rental_uris":{"android":"levelo://app?vid=1aa76ac8-ccaf-41d2-8fb5-033e7c180f10","ios":"levelo://app?vid=1aa76ac8-ccaf-41d2-8fb5-033e7c180f10"},"vehicle_type_id":"4","last_reported":1700518040,"current_range_meters":2800,"station_id":"ce4bhop2rcd13ifvqh8g","pricing_plan_id":"free"},{"bike_id":"24eca922-3587-47e4-a445-4cb426ad2b8b","system_id":"levelo_inurba_marseille","lat":43.304188,"lon":5.412904,"is_reserved":false,"is_disabled":false,"rental_uris":{"android":"levelo://app?vid=24eca922-3587-47e4-a445-4cb426ad2b8b","ios":"levelo://app?vid=24eca922-3587-47e4-a445-4cb426ad2b8b"},"vehicle_type_id":"4","last_reported":1700518040,"current_range_meters":24400,"station_id":"ce4bhop2rcd13ifvqh8g","pricing_plan_id":"free"},{"bike_id":"9246ff32-54f7-4c5e-8fc5-df00fd6d65b0","system_id":"levelo_inurba_marseille","lat":43.304188,"lon":5.412904,"is_reserved":false,"is_disabled":false,"rental_uris":{"android":"levelo://app?vid=9246ff32-54f7-4c5e-8fc5-df00fd6d65b0","ios":"levelo://app?vid=9246ff32-54f7-4c5e-8fc5-df00fd6d65b0"},"vehicle_type_id":"4","last_reported":1700518040,"current_range_meters":4000,"station_id":"ce4bhop2rcd13ifvqh8g","pricing_plan_id":"free"},{"bike_id":"5a948468-9342-468d-94d1-f3a0b730c192","system_id":"levelo_inurba_marseille","lat":43.28715,"lon":5.399901,"is_reserved":false,"is_disabled":false,"rental_uris":{"android":"levelo://app?vid=5a948468-9342-468d-94d1-f3a0b730c192","ios":"levelo://app?vid=5a948468-9342-468d-94d1-f3a0b730c192"},"vehicle_type_id":"4","last_reported":1700518040,"current_range_meters":3200,"station_id":"ce4bho92rcd13ifvqh3g","pricing_plan_id":"free"},{"bike_id":"60ab72ae-a6ff-4821-8918-d236656ee95c","system_id":"levelo_inurba_marseille","lat":43.287154,"lon":5.399979,"is_reserved":false,"is_disabled":false,"rental_uris":{"android":"levelo://app?vid=60ab72ae-a6ff-4821-8918-d236656ee95c","ios":"levelo://app?vid=60ab72ae-a6ff-4821-8918-d236656ee95c"},"vehicle_type_id":"4","last_reported":1700518040,"current_range_meters":6000,"station_id":"ce4bho92rcd13ifvqh3g","pricing_plan_id":"free"},{"bike_id":"aa66a9cb-f1f2-41fd-bd61-e8c4025d2283","system_id":"levelo_inurba_marseille","lat":43.320045,"lon":5.415046,"is_reserved":false,"is_disabled":false,"rental_uris":{"android":"levelo://app?vid=aa66a9cb-f1f2-41fd-bd61-e8c4025d2283","ios":"levelo://app?vid=aa66a9cb-f1f2-41fd-bd61-e8c4025d2283"},"vehicle_type_id":"4","last_reported":1700518040,"current_range_meters":3600,"station_id":"ce4bhq92rcd13ifvqhkg","pricing_plan_id":"free"},{"bike_id":"ef752757-7d9e-4e91-ad6e-20f8265b906d","system_id":"levelo_inurba_marseille","lat":43.299579,"lon":5.413255,"is_reserved":false,"is_disabled":false,"rental_uris":{"android":"levelo://app?vid=ef752757-7d9e-4e91-ad6e-20f8265b906d","ios":"levelo://app?vid=ef752757-7d9e-4e91-ad6e-20f8265b906d"},"vehicle_type_id":"4","last_reported":1700518040,"current_range_meters":24000,"station_id":"ce4bhp12rcd13ifvqh9g","pricing_plan_id":"free"},{"bike_id":"ecf72365-5897-43a2-9653-16653f59c40b","system_id":"levelo_inurba_marseille","lat":43.320045,"lon":5.415046,"is_reserved":false,"is_disabled":false,"rental_uris":{"android":"levelo://app?vid=ecf72365-5897-43a2-9653-16653f59c40b","ios":"levelo://app?vid=ecf72365-5897-43a2-9653-16653f59c40b"},"vehicle_type_id":"4","last_reported":1700518040,"current_range_meters":6800,"station_id":"ce4bhq92rcd13ifvqhkg","pricing_plan_id":"free"},{"bike_id":"d7cecc3e-211d-4b73-b294-f6742a64370b","system_id":"levelo_inurba_marseille","lat":43.27982,"lon":5.38745,"is_reserved":false,"is_disabled":false,"rental_uris":{"android":"levelo://app?vid=d7cecc3e-211d-4b73-b294-f6742a64370b","ios":"levelo://app?vid=d7cecc3e-211d-4b73-b294-f6742a64370b"},"vehicle_type_id":"4","last_reported":1700518040,"current_range_meters":14400,"station_id":"ce4bhg12rcd13ifvqf80","pricing_plan_id":"free"},{"bike_id":"0831bb35-1e68-4ee6-a66b-0aedf9850274","system_id":"levelo_inurba_marseille","lat":43.33612,"lon":5.410321,"is_reserved":false,"is_disabled":false,"rental_uris":{"android":"levelo://app?vid=0831bb35-1e68-4ee6-a66b-0aedf9850274","ios":"levelo://app?vid=0831bb35-1e68-4ee6-a66b-0aedf9850274"},"vehicle_type_id":"4","last_reported":1700518040,"current_range_meters":5600,"station_id":"ce4bhqh2rcd13ifvqhmg","pricing_plan_id":"free"},{"bike_id":"faf15495-928e-4838-ad24-213261475f84","system_id":"levelo_inurba_marseille","lat":43.34885,"lon":5.37509,"is_reserved":false,"is_disabled":false,"rental_uris":{"android":"levelo://app?vid=faf15495-928e-4838-ad24-213261475f84","ios":"levelo://app?vid=faf15495-928e-4838-ad24-213261475f84"},"vehicle_type_id":"4","last_reported":1700518040,"current_range_meters":13200,"station_id":"","pricing_plan_id":"free"},{"bike_id":"d2780501-0bc4-4ebc-b1d0-397f69302641","system_id":"levelo_inurba_marseille","lat":43.292569,"lon":5.409107,"is_reserved":false,"is_disabled":false,"rental_uris":{"android":"levelo://app?vid=d2780501-0bc4-4ebc-b1d0-397f69302641","ios":"levelo://app?vid=d2780501-0bc4-4ebc-b1d0-397f69302641"},"vehicle_type_id":"4","last_reported":1700518040,"current_range_meters":3200,"station_id":"ce4bh192rcd13ifvqdc0","pricing_plan_id":"free"},{"bike_id":"54d83bdb-854d-4ada-827b-6f0754351f02","system_id":"levelo_inurba_marseille","lat":43.27621,"lon":5.3612,"is_reserved":false,"is_disabled":false,"rental_uris":{"android":"levelo://app?vid=54d83bdb-854d-4ada-827b-6f0754351f02","ios":"levelo://app?vid=54d83bdb-854d-4ada-827b-6f0754351f02"},"vehicle_type_id":"4","last_reported":1700518040,"current_range_meters":28800,"station_id":"ce4bgj92rcd13ifvqbe0","pricing_plan_id":"free"},{"bike_id":"8314f350-fd2d-41a1-a64f-3c6aa08d6c1a","system_id":"levelo_inurba_marseille","lat":43.27621,"lon":5.36103,"is_reserved":false,"is_disabled":false,"rental_uris":{"android":"levelo://app?vid=8314f350-fd2d-41a1-a64f-3c6aa08d6c1a","ios":"levelo://app?vid=8314f350-fd2d-41a1-a64f-3c6aa08d6c1a"},"vehicle_type_id":"4","last_reported":1700518040,"current_range_meters":28000,"station_id":"ce4bgj92rcd13ifvqbe0","pricing_plan_id":"free"},{"bike_id":"1ec53fc5-b8e3-4edc-85bf-09f89af93265","system_id":"levelo_inurba_marseille","lat":43.276159,"lon":5.361199,"is_reserved":false,"is_disabled":false,"rental_uris":{"android":"levelo://app?vid=1ec53fc5-b8e3-4edc-85bf-09f89af93265","ios":"levelo://app?vid=1ec53fc5-b8e3-4edc-85bf-09f89af93265"},"vehicle_type_id":"4","last_reported":1700518040,"current_range_meters":14400,"station_id":"ce4bgj92rcd13ifvqbe0","pricing_plan_id":"free"},{"bike_id":"664dd67f-5692-428a-87dd-097c33c2959d","system_id":"levelo_inurba_marseille","lat":43.27615,"lon":5.36117,"is_reserved":false,"is_disabled":false,"rental_uris":{"android":"levelo://app?vid=664dd67f-5692-428a-87dd-097c33c2959d","ios":"levelo://app?vid=664dd67f-5692-428a-87dd-097c33c2959d"},"vehicle_type_id":"4","last_reported":1700518040,"current_range_meters":26000,"station_id":"ce4bgj92rcd13ifvqbe0","pricing_plan_id":"free"},{"bike_id":"4f1a6b35-6778-477c-bad5-109b7f667c51","system_id":"levelo_inurba_marseille","lat":43.276179,"lon":5.361009,"is_reserved":false,"is_disabled":false,"rental_uris":{"android":"levelo://app?vid=4f1a6b35-6778-477c-bad5-109b7f667c51","ios":"levelo://app?vid=4f1a6b35-6778-477c-bad5-109b7f667c51"},"vehicle_type_id":"4","last_reported":1700518040,"current_range_meters":18400,"station_id":"ce4bgj92rcd13ifvqbe0","pricing_plan_id":"free"},{"bike_id":"5d9e0f61-3ef2-46bf-80cd-8b1cc5acf214","system_id":"levelo_inurba_marseille","lat":43.276121,"lon":5.361141,"is_reserved":false,"is_disabled":false,"rental_uris":{"android":"levelo://app?vid=5d9e0f61-3ef2-46bf-80cd-8b1cc5acf214","ios":"levelo://app?vid=5d9e0f61-3ef2-46bf-80cd-8b1cc5acf214"},"vehicle_type_id":"4","last_reported":1700518040,"current_range_meters":30400,"station_id":"ce4bgj92rcd13ifvqbe0","pricing_plan_id":"free"},{"bike_id":"f91eeb3c-69ad-4653-b479-bf02928f8fef","system_id":"levelo_inurba_marseille","lat":43.276179,"lon":5.361009,"is_reserved":false,"is_disabled":false,"rental_uris":{"android":"levelo://app?vid=f91eeb3c-69ad-4653-b479-bf02928f8fef","ios":"levelo://app?vid=f91eeb3c-69ad-4653-b479-bf02928f8fef"},"vehicle_type_id":"4","last_reported":1700518040,"current_range_meters":3200,"station_id":"ce4bgj92rcd13ifvqbe0","pricing_plan_id":"free"},{"bike_id":"18ce2666-79bd-47fe-a6be-b07ac06673c9","system_id":"levelo_inurba_marseille","lat":43.280784,"lon":5.396622,"is_reserved":false,"is_disabled":false,"rental_uris":{"android":"levelo://app?vid=18ce2666-79bd-47fe-a6be-b07ac06673c9","ios":"levelo://app?vid=18ce2666-79bd-47fe-a6be-b07ac06673c9"},"vehicle_type_id":"4","last_reported":1700518040,"current_range_meters":25200,"station_id":"ce4bho12rcd13ifvqh2g","pricing_plan_id":"free"},{"bike_id":"609c742b-3d42-4b23-8ea7-24ef3c4e3d3b","system_id":"levelo_inurba_marseille","lat":43.280784,"lon":5.396622,"is_reserved":false,"is_disabled":false,"rental_uris":{"android":"levelo://app?vid=609c742b-3d42-4b23-8ea7-24ef3c4e3d3b","ios":"levelo://app?vid=609c742b-3d42-4b23-8ea7-24ef3c4e3d3b"},"vehicle_type_id":"4","last_reported":1700518040,"current_range_meters":25200,"station_id":"ce4bho12rcd13ifvqh2g","pricing_plan_id":"free"},{"bike_id":"dac3841c-dd28-4b80-86a7-2f7676001767","system_id":"levelo_inurba_marseille","lat":43.27829,"lon":5.392,"is_reserved":false,"is_disabled":false,"rental_uris":{"android":"levelo://app?vid=dac3841c-dd28-4b80-86a7-2f7676001767","ios":"levelo://app?vid=dac3841c-dd28-4b80-86a7-2f7676001767"},"vehicle_type_id":"4","last_reported":1700518040,"current_range_meters":0,"station_id":"ce4bhjp2rcd13ifvqga0","pricing_plan_id":"free"},{"bike_id":"14491e89-76d4-4f00-805c-e48bf0203f90","system_id":"levelo_inurba_marseille","lat":43.273815,"lon":5.36257,"is_reserved":false,"is_disabled":false,"rental_uris":{"android":"levelo://app?vid=14491e89-76d4-4f00-805c-e48bf0203f90","ios":"levelo://app?vid=14491e89-76d4-4f00-805c-e48bf0203f90"},"vehicle_type_id":"4","last_reported":1700518040,"current_range_meters":24400,"station_id":"ce4bhbh2rcd13ifvqeo0","pricing_plan_id":"free"},{"bike_id":"e47b59b4-3672-4e36-b669-05e0632d09e4","system_id":"levelo_inurba_marseille","lat":43.275625,"lon":5.384392,"is_reserved":false,"is_disabled":false,"rental_uris":{"android":"levelo://app?vid=e47b59b4-3672-4e36-b669-05e0632d09e4","ios":"levelo://app?vid=e47b59b4-3672-4e36-b669-05e0632d09e4"},"vehicle_type_id":"4","last_reported":1700518040,"current_range_meters":22400,"station_id":"ce4bhh92rcd13ifvqfi0","pricing_plan_id":"free"},{"bike_id":"f464e03f-3632-485a-b83e-f2f0e861096b","system_id":"levelo_inurba_marseille","lat":43.33612,"lon":5.410321,"is_reserved":false,"is_disabled":false,"rental_uris":{"android":"levelo://app?vid=f464e03f-3632-485a-b83e-f2f0e861096b","ios":"levelo://app?vid=f464e03f-3632-485a-b83e-f2f0e861096b"},"vehicle_type_id":"4","last_reported":1700518040,"current_range_meters":20800,"station_id":"ce4bhqh2rcd13ifvqhmg","pricing_plan_id":"free"},{"bike_id":"97dee833-de7a-41dd-9fbe-0fa078f4e7a5","system_id":"levelo_inurba_marseille","lat":43.275625,"lon":5.384392,"is_reserved":false,"is_disabled":false,"rental_uris":{"android":"levelo://app?vid=97dee833-de7a-41dd-9fbe-0fa078f4e7a5","ios":"levelo://app?vid=97dee833-de7a-41dd-9fbe-0fa078f4e7a5"},"vehicle_type_id":"4","last_reported":1700518040,"current_range_meters":25200,"station_id":"ce4bhh92rcd13ifvqfi0","pricing_plan_id":"free"},{"bike_id":"e4a5338c-1620-4bdc-a8a6-37c9da79390c","system_id":"levelo_inurba_marseille","lat":43.33612,"lon":5.410321,"is_reserved":false,"is_disabled":false,"rental_uris":{"android":"levelo://app?vid=e4a5338c-1620-4bdc-a8a6-37c9da79390c","ios":"levelo://app?vid=e4a5338c-1620-4bdc-a8a6-37c9da79390c"},"vehicle_type_id":"4","last_reported":1700518040,"current_range_meters":0,"station_id":"ce4bhqh2rcd13ifvqhmg","pricing_plan_id":"free"},{"bike_id":"a462ad5e-bea9-41c4-ab74-c8f536700599","system_id":"levelo_inurba_marseille","lat":43.279952,"lon":5.400085,"is_reserved":false,"is_disabled":false,"rental_uris":{"android":"levelo://app?vid=a462ad5e-bea9-41c4-ab74-c8f536700599","ios":"levelo://app?vid=a462ad5e-bea9-41c4-ab74-c8f536700599"},"vehicle_type_id":"4","last_reported":1700518040,"current_range_meters":31200,"station_id":"ce4bho92rcd13ifvqh4g","pricing_plan_id":"free"},{"bike_id":"2ee401d3-563f-41b9-9421-361db4989435","system_id":"levelo_inurba_marseille","lat":43.340804,"lon":5.410219,"is_reserved":false,"is_disabled":false,"rental_uris":{"android":"levelo://app?vid=2ee401d3-563f-41b9-9421-361db4989435","ios":"levelo://app?vid=2ee401d3-563f-41b9-9421-361db4989435"},"vehicle_type_id":"4","last_reported":1700518040,"current_range_meters":2400,"station_id":"ce4bhqh2rcd13ifvqhlg","pricing_plan_id":"free"},{"bike_id":"2ef739b8-0ebf-45a2-8002-1c3637c375f5","system_id":"levelo_inurba_marseille","lat":43.340804,"lon":5.410219,"is_reserved":false,"is_disabled":false,"rental_uris":{"android":"levelo://app?vid=2ef739b8-0ebf-45a2-8002-1c3637c375f5","ios":"levelo://app?vid=2ef739b8-0ebf-45a2-8002-1c3637c375f5"},"vehicle_type_id":"4","last_reported":1700518040,"current_range_meters":16800,"station_id":"ce4bhqh2rcd13ifvqhlg","pricing_plan_id":"free"},{"bike_id":"44b9ec8e-55ba-47c6-bf2c-695b15f8f4c5","system_id":"levelo_inurba_marseille","lat":43.340804,"lon":5.410219,"is_reserved":false,"is_disabled":false,"rental_uris":{"android":"levelo://app?vid=44b9ec8e-55ba-47c6-bf2c-695b15f8f4c5","ios":"levelo://app?vid=44b9ec8e-55ba-47c6-bf2c-695b15f8f4c5"},"vehicle_type_id":"4","last_reported":1700518040,"current_range_meters":30000,"station_id":"ce4bhqh2rcd13ifvqhlg","pricing_plan_id":"free"},{"bike_id":"de109382-1680-44df-8c2c-6b4c366e8ed3","system_id":"levelo_inurba_marseille","lat":43.274103,"lon":5.394016,"is_reserved":false,"is_disabled":false,"rental_uris":{"android":"levelo://app?vid=de109382-1680-44df-8c2c-6b4c366e8ed3","ios":"levelo://app?vid=de109382-1680-44df-8c2c-6b4c366e8ed3"},"vehicle_type_id":"4","last_reported":1700518040,"current_range_meters":29200,"station_id":"ce4bhdp2rcd13ifvqf20","pricing_plan_id":"free"},{"bike_id":"62795268-6228-4ab9-a2a1-d237ecb5526e","system_id":"levelo_inurba_marseille","lat":43.3256,"lon":5.424063,"is_reserved":false,"is_disabled":false,"rental_uris":{"android":"levelo://app?vid=62795268-6228-4ab9-a2a1-d237ecb5526e","ios":"levelo://app?vid=62795268-6228-4ab9-a2a1-d237ecb5526e"},"vehicle_type_id":"4","last_reported":1700518040,"current_range_meters":23600,"station_id":"","pricing_plan_id":"free"},{"bike_id":"f8f5619a-a183-461d-b100-453fb972fcd4","system_id":"levelo_inurba_marseille","lat":43.272118,"lon":5.391758,"is_reserved":false,"is_disabled":false,"rental_uris":{"android":"levelo://app?vid=f8f5619a-a183-461d-b100-453fb972fcd4","ios":"levelo://app?vid=f8f5619a-a183-461d-b100-453fb972fcd4"},"vehicle_type_id":"4","last_reported":1700518040,"current_range_meters":7600,"station_id":"ce4bhhp2rcd13ifvqfm0","pricing_plan_id":"free"},{"bike_id":"0c3c91a0-2760-436d-8134-9f5da30b513e","system_id":"levelo_inurba_marseille","lat":43.271934,"lon":5.392458,"is_reserved":false,"is_disabled":false,"rental_uris":{"android":"levelo://app?vid=0c3c91a0-2760-436d-8134-9f5da30b513e","ios":"levelo://app?vid=0c3c91a0-2760-436d-8134-9f5da30b513e"},"vehicle_type_id":"4","last_reported":1700518040,"current_range_meters":6800,"station_id":"","pricing_plan_id":"free"},{"bike_id":"f0ed4531-078e-42fb-a007-3ed80505eb54","system_id":"levelo_inurba_marseille","lat":43.271891,"lon":5.392412,"is_reserved":false,"is_disabled":false,"rental_uris":{"android":"levelo://app?vid=f0ed4531-078e-42fb-a007-3ed80505eb54","ios":"levelo://app?vid=f0ed4531-078e-42fb-a007-3ed80505eb54"},"vehicle_type_id":"4","last_reported":1700518040,"current_range_meters":0,"station_id":"","pricing_plan_id":"free"},{"bike_id":"074d868c-f5b6-48a8-a2dc-f6355a644030","system_id":"levelo_inurba_marseille","lat":43.324172,"lon":5.427848,"is_reserved":false,"is_disabled":false,"rental_uris":{"android":"levelo://app?vid=074d868c-f5b6-48a8-a2dc-f6355a644030","ios":"levelo://app?vid=074d868c-f5b6-48a8-a2dc-f6355a644030"},"vehicle_type_id":"4","last_reported":1700518040,"current_range_meters":0,"station_id":"","pricing_plan_id":"free"},{"bike_id":"05d7a7d9-a4c6-4437-9afc-25d937de5c80","system_id":"levelo_inurba_marseille","lat":43.279419,"lon":5.410418,"is_reserved":false,"is_disabled":false,"rental_uris":{"android":"levelo://app?vid=05d7a7d9-a4c6-4437-9afc-25d937de5c80","ios":"levelo://app?vid=05d7a7d9-a4c6-4437-9afc-25d937de5c80"},"vehicle_type_id":"4","last_reported":1700518040,"current_range_meters":0,"station_id":"ce4bhnp2rcd13ifvqh0g","pricing_plan_id":"free"},{"bike_id":"f44524d9-d731-4963-9431-556d93ffb950","system_id":"levelo_inurba_marseille","lat":43.26689,"lon":5.38273,"is_reserved":false,"is_disabled":false,"rental_uris":{"android":"levelo://app?vid=f44524d9-d731-4963-9431-556d93ffb950","ios":"levelo://app?vid=f44524d9-d731-4963-9431-556d93ffb950"},