{"last_updated":1703099050,"ttl":30,"version":"2.2","data":{"bikes":[{"bike_id":"63e20fad-1285-4b66-bd8f-d3605b03361b","system_id":"levelo_inurba_marseille","lat":43.31341,"lon":5.367098,"is_reserved":false,"is_disabled":false,"rental_uris":{"android":"levelo://app?vid=63e20fad-1285-4b66-bd8f-d3605b03361b","ios":"levelo://app?vid=63e20fad-1285-4b66-bd8f-d3605b03361b"},"vehicle_type_id":"4","last_reported":1703099050,"current_range_meters":13200,"station_id":"ce4bgr92rcd13ifvqc6g","pricing_plan_id":"free"},{"bike_id":"30a95230-a29d-4ef1-b453-be03adfd801e","system_id":"levelo_inurba_marseille","lat":43.312239,"lon":5.368562,"is_reserved":false,"is_disabled":false,"rental_uris":{"android":"levelo://app?vid=30a95230-a29d-4ef1-b453-be03adfd801e","ios":"levelo://app?vid=30a95230-a29d-4ef1-b453-be03adfd801e"},"vehicle_type_id":"4","last_reported":1703099050,"current_range_meters":0,"station_id":"ce4bgl92rcd13ifvqbq0","pricing_plan_id":"free"},{"bike_id":"65c909b4-31c9-4711-92ae-723d9308cae2","system_id":"levelo_inurba_marseille","lat":43.309076,"lon":5.368465,"is_reserved":false,"is_disabled":false,"rental_uris":{"android":"levelo://app?vid=65c909b4-31c9-4711-92ae-723d9308cae2","ios":"levelo://app?vid=65c909b4-31c9-4711-92ae-723d9308cae2"},"vehicle_type_id":"4","last_reported":1703099050,"current_range_meters":28000,"station_id":"ce4bgn92rcd13ifvqbvg","pricing_plan_id":"free"},{"bike_id":"bd346d15-2b55-42fd-b422-13bc61bc0b5b","system_id":"levelo_inurba_marseille","lat":43.314811,"lon":5.373103,"is_reserved":false,"is_disabled":false,"rental_uris":{"android":"levelo://app?vid=bd346d15-2b55-42fd-b422-13bc61bc0b5b","ios":"levelo://app?vid=bd346d15-2b55-42fd-b422-13bc61bc0b5b"},"vehicle_type_id":"4","last_reported":1703099050,"current_range_meters":22800,"station_id":"ce4bgt12rcd13ifvqcd0","pricing_plan_id":"free"},{"bike_id":"9aa03411-52de-4a11-b496-99716237d981","system_id":"levelo_inurba_marseille","lat":43.314811,"lon":5.373103,"is_reserved":false,"is_disabled":false,"rental_uris":{"android":"levelo://app?vid=9aa03411-52de-4a11-b496-99716237d981","ios":"levelo://app?vid=9aa03411-52de-4a11-b496-99716237d981"},"vehicle_type_id":"4","last_reported":1703099050,"current_range_meters":11600,"station_id":"ce4bgt12rcd13ifvqcd0","pricing_plan_id":"free"},{"bike_id":"a4fd1fe7-ffe5-45e4-a7a0-3474a68c91d2","system_id":"levelo_inurba_marseille","lat":43.314811,"lon":5.373103,"is_reserved":false,"is_disabled":false,"rental_uris":{"android":"levelo://app?vid=a4fd1fe7-ffe5-45e4-a7a0-3474a68c91d2","ios":"levelo://app?vid=a4fd1fe7-ffe5-45e4-a7a0-3474a68c91d2"},"vehicle_type_id":"4","last_reported":1703099050,"current_range_meters":14000,"station_id":"ce4bgt12rcd13ifvqcd0","pricing_plan_id":"free"},{"bike_id":"455ccef8-e685-41e5-92f7-568ea26e059e","system_id":"levelo_inurba_marseille","lat":43.314811,"lon":5.373104,"is_reserved":false,"is_disabled":false,"rental_uris":{"android":"levelo://app?vid=455ccef8-e685-41e5-92f7-568ea26e059e","ios":"levelo://app?vid=455ccef8-e685-41e5-92f7-568ea26e059e"},"vehicle_type_id":"4","last_reported":1703099050,"current_range_meters":9600,"station_id":"ce4bgt12rcd13ifvqcd0","pricing_plan_id":"free"},{"bike_id":"ae52dabb-ce15-4f0c-9ce2-5c498baab0a3","system_id":"levelo_inurba_marseille","lat":43.314811,"lon":5.373103,"is_reserved":false,"is_disabled":false,"rental_uris":{"android":"levelo://app?vid=ae52dabb-ce15-4f0c-9ce2-5c498baab0a3","ios":"levelo://app?vid=ae52dabb-ce15-4f0c-9ce2-5c498baab0a3"},"vehicle_type_id":"4","last_reported":1703099050,"current_range_meters":22000,"station_id":"ce4bgt12rcd13ifvqcd0","pricing_plan_id":"free"},{"bike_id":"3b114523-2dbc-4f0c-b3f1-b26420639ab9","system_id":"levelo_inurba_marseille","lat":43.305989,"lon":5.37225,"is_reserved":false,"is_disabled":false,"rental_uris":{"android":"levelo://app?vid=3b114523-2dbc-4f0c-b3f1-b26420639ab9","ios":"levelo://app?vid=3b114523-2dbc-4f0c-b3f1-b26420639ab9"},"vehicle_type_id":"4","last_reported":1703099050,"current_range_meters":20400,"station_id":"ce4bgqh2rcd13ifvqc4g","pricing_plan_id":"free"},{"bike_id":"9309bdce-689d-4d75-bee7-87ce85461c78","system_id":"levelo_inurba_marseille","lat":43.305989,"lon":5.37225,"is_reserved":false,"is_disabled":false,"rental_uris":{"android":"levelo://app?vid=9309bdce-689d-4d75-bee7-87ce85461c78","ios":"levelo://app?vid=9309bdce-689d-4d75-bee7-87ce85461c78"},"vehicle_type_id":"4","last_reported":1703099050,"current_range_meters":0,"station_id":"ce4bgqh2rcd13ifvqc4g","pricing_plan_id":"free"},{"bike_id":"03a7e4d9-3e23-4a6b-bdc9-a3307d2e53b7","system_id":"levelo_inurba_marseille","lat":43.305989,"lon":5.37225,"is_reserved":false,"is_disabled":false,"rental_uris":{"android":"levelo://app?vid=03a7e4d9-3e23-4a6b-bdc9-a3307d2e53b7","ios":"levelo://app?vid=03a7e4d9-3e23-4a6b-bdc9-a3307d2e53b7"},"vehicle_type_id":"4","last_reported":1703099050,"current_range_meters":12800,"station_id":"ce4bgqh2rcd13ifvqc4g","pricing_plan_id":"free"},{"bike_id":"007b7129-a3ef-4f7a-a171-6f0b04ff46bf","system_id":"levelo_inurba_marseille","lat":43.305989,"lon":5.37225,"is_reserved":false,"is_disabled":false,"rental_uris":{"android":"levelo://app?vid=007b7129-a3ef-4f7a-a171-6f0b04ff46bf","ios":"levelo://app?vid=007b7129-a3ef-4f7a-a171-6f0b04ff46bf"},"vehicle_type_id":"4","last_reported":1703099050,"current_range_meters":29200,"station_id":"ce4bgqh2rcd13ifvqc4g","pricing_plan_id":"free"},{"bike_id":"23415b54-81cf-4182-ae47-ba2459cf2f98","system_id":"levelo_inurba_marseille","lat":43.30604,"lon":5.37235,"is_reserved":false,"is_disabled":false,"rental_uris":{"android":"levelo://app?vid=23415b54-81cf-4182-ae47-ba2459cf2f98","ios":"levelo://app?vid=23415b54-81cf-4182-ae47-ba2459cf2f98"},"vehicle_type_id":"4","last_reported":1703099050,"current_range_meters":29600,"station_id":"ce4bgqh2rcd13ifvqc4g","pricing_plan_id":"free"},{"bike_id":"2e62151a-223f-4f2b-a611-f2776d6c1e22","system_id":"levelo_inurba_marseille","lat":43.31118,"lon":5.37759,"is_reserved":false,"is_disabled":false,"rental_uris":{"android":"levelo://app?vid=2e62151a-223f-4f2b-a611-f2776d6c1e22","ios":"levelo://app?vid=2e62151a-223f-4f2b-a611-f2776d6c1e22"},"vehicle_type_id":"4","last_reported":1703099050,"current_range_meters":31200,"station_id":"ce4bgt92rcd13ifvqcg0","pricing_plan_id":"free"},{"bike_id":"fd780473-fffd-4eed-bf82-cf3e5cb3ef23","system_id":"levelo_inurba_marseille","lat":43.311125,"lon":5.377624,"is_reserved":false,"is_disabled":false,"rental_uris":{"android":"levelo://app?vid=fd780473-fffd-4eed-bf82-cf3e5cb3ef23","ios":"levelo://app?vid=fd780473-fffd-4eed-bf82-cf3e5cb3ef23"},"vehicle_type_id":"4","last_reported":1703099050,"current_range_meters":4000,"station_id":"ce4bgt92rcd13ifvqcg0","pricing_plan_id":"free"},{"bike_id":"86d896a5-b68a-4367-afcd-8ed75048bb41","system_id":"levelo_inurba_marseille","lat":43.317075,"lon":5.377367,"is_reserved":false,"is_disabled":false,"rental_uris":{"android":"levelo://app?vid=86d896a5-b68a-4367-afcd-8ed75048bb41","ios":"levelo://app?vid=86d896a5-b68a-4367-afcd-8ed75048bb41"},"vehicle_type_id":"4","last_reported":1703099050,"current_range_meters":23600,"station_id":"ce4bgth2rcd13ifvqch0","pricing_plan_id":"free"},{"bike_id":"7a3322dd-31ac-457a-aaf0-8d2e8aa301a7","system_id":"levelo_inurba_marseille","lat":43.30304,"lon":5.368987,"is_reserved":false,"is_disabled":false,"rental_uris":{"android":"levelo://app?vid=7a3322dd-31ac-457a-aaf0-8d2e8aa301a7","ios":"levelo://app?vid=7a3322dd-31ac-457a-aaf0-8d2e8aa301a7"},"vehicle_type_id":"4","last_reported":1703099050,"current_range_meters":6400,"station_id":"ce4bgqh2rcd13ifvqc5g","pricing_plan_id":"free"},{"bike_id":"49e74a11-e8b0-48df-a746-da61a27cdc2c","system_id":"levelo_inurba_marseille","lat":43.308012,"lon":5.381511,"is_reserved":false,"is_disabled":false,"rental_uris":{"android":"levelo://app?vid=49e74a11-e8b0-48df-a746-da61a27cdc2c","ios":"levelo://app?vid=49e74a11-e8b0-48df-a746-da61a27cdc2c"},"vehicle_type_id":"4","last_reported":1703099050,"current_range_meters":20000,"station_id":"ce4bgt12rcd13ifvqce0","pricing_plan_id":"free"},{"bike_id":"ca70c947-2d32-46c5-b5b8-2518a7fb2d36","system_id":"levelo_inurba_marseille","lat":43.308012,"lon":5.381511,"is_reserved":false,"is_disabled":false,"rental_uris":{"android":"levelo://app?vid=ca70c947-2d32-46c5-b5b8-2518a7fb2d36","ios":"levelo://app?vid=ca70c947-2d32-46c5-b5b8-2518a7fb2d36"},"vehicle_type_id":"4","last_reported":1703099050,"current_range_meters":22800,"station_id":"ce4bgt12rcd13ifvqce0","pricing_plan_id":"free"},{"bike_id":"a2ace940-4c86-4810-9d03-8f5c3e9c5816","system_id":"levelo_inurba_marseille","lat":43.308012,"lon":5.381511,"is_reserved":false,"is_disabled":false,"rental_uris":{"android":"levelo://app?vid=a2ace940-4c86-4810-9d03-8f5c3e9c5816","ios":"levelo://app?vid=a2ace940-4c86-4810-9d03-8f5c3e9c5816"},"vehicle_type_id":"4","last_reported":1703099050,"current_range_meters":4800,"station_id":"ce4bgt12rcd13ifvqce0","pricing_plan_id":"free"},{"bike_id":"488a7799-766b-4089-b112-084b9cc526d0","system_id":"levelo_inurba_marseille","lat":43.308012,"lon":5.381511,"is_reserved":false,"is_disabled":false,"rental_uris":{"android":"levelo://app?vid=488a7799-766b-4089-b112-084b9cc526d0","ios":"levelo://app?vid=488a7799-766b-4089-b112-084b9cc526d0"},"vehicle_type_id":"4","last_reported":1703099050,"current_range_meters":5200,"station_id":"ce4bgt12rcd13ifvqce0","pricing_plan_id":"free"},{"bike_id":"6bd330e5-be91-4c6a-bd12-6b4c0748505e","system_id":"levelo_inurba_marseille","lat":43.31991,"lon":5.38136,"is_reserved":false,"is_disabled":false,"rental_uris":{"android":"levelo://app?vid=6bd330e5-be91-4c6a-bd12-6b4c0748505e","ios":"levelo://app?vid=6bd330e5-be91-4c6a-bd12-6b4c0748505e"},"vehicle_type_id":"4","last_reported":1703099050,"current_range_meters":11200,"station_id":"ce4bhr12rcd13ifvqhpg","pricing_plan_id":"free"},{"bike_id":"953d5feb-48a7-427e-a3e1-b62f811507e8","system_id":"levelo_inurba_marseille","lat":43.319935,"lon":5.381699,"is_reserved":false,"is_disabled":false,"rental_uris":{"android":"levelo://app?vid=953d5feb-48a7-427e-a3e1-b62f811507e8","ios":"levelo://app?vid=953d5feb-48a7-427e-a3e1-b62f811507e8"},"vehicle_type_id":"4","last_reported":1703099050,"current_range_meters":4400,"station_id":"ce4bhr12rcd13ifvqhpg","pricing_plan_id":"free"},{"bike_id":"1482da37-5c52-4dd0-a378-cba730d67319","system_id":"levelo_inurba_marseille","lat":43.313571,"lon":5.384829,"is_reserved":false,"is_disabled":false,"rental_uris":{"android":"levelo://app?vid=1482da37-5c52-4dd0-a378-cba730d67319","ios":"levelo://app?vid=1482da37-5c52-4dd0-a378-cba730d67319"},"vehicle_type_id":"4","last_reported":1703099050,"current_range_meters":26000,"station_id":"ce4bgt92rcd13ifvqcf0","pricing_plan_id":"free"},{"bike_id":"d07143b1-ddd7-4eb5-985c-faa1cb700ef8","system_id":"levelo_inurba_marseille","lat":43.299222,"lon":5.365554,"is_reserved":false,"is_disabled":false,"rental_uris":{"android":"levelo://app?vid=d07143b1-ddd7-4eb5-985c-faa1cb700ef8","ios":"levelo://app?vid=d07143b1-ddd7-4eb5-985c-faa1cb700ef8"},"vehicle_type_id":"4","last_reported":1703099050,"current_range_meters":7600,"station_id":"ce4bgm92rcd13ifvqbr0","pricing_plan_id":"free"},{"bike_id":"2595dc13-9125-4ffb-a06b-de525786f682","system_id":"levelo_inurba_marseille","lat":43.299222,"lon":5.365554,"is_reserved":false,"is_disabled":false,"rental_uris":{"android":"levelo://app?vid=2595dc13-9125-4ffb-a06b-de525786f682","ios":"levelo://app?vid=2595dc13-9125-4ffb-a06b-de525786f682"},"vehicle_type_id":"4","last_reported":1703099050,"current_range_meters":4000,"station_id":"ce4bgm92rcd13ifvqbr0","pricing_plan_id":"free"},{"bike_id":"00f2924f-54c9-4c65-aacb-f84dbb9594fc","system_id":"levelo_inurba_marseille","lat":43.299222,"lon":5.365554,"is_reserved":false,"is_disabled":false,"rental_uris":{"android":"levelo://app?vid=00f2924f-54c9-4c65-aacb-f84dbb9594fc","ios":"levelo://app?vid=00f2924f-54c9-4c65-aacb-f84dbb9594fc"},"vehicle_type_id":"4","last_reported":1703099050,"current_range_meters":27600,"station_id":"ce4bgm92rcd13ifvqbr0","pricing_plan_id":"free"},{"bike_id":"1db9b9d0-0db7-4263-8806-29dc522f1cf0","system_id":"levelo_inurba_marseille","lat":43.299222,"lon":5.365554,"is_reserved":false,"is_disabled":false,"rental_uris":{"android":"levelo://app?vid=1db9b9d0-0db7-4263-8806-29dc522f1cf0","ios":"levelo://app?vid=1db9b9d0-0db7-4263-8806-29dc522f1cf0"},"vehicle_type_id":"4","last_reported":1703099050,"current_range_meters":30000,"station_id":"ce4bgm92rcd13ifvqbr0","pricing_plan_id":"free"},{"bike_id":"2027d3ef-ad36-4d9e-ae63-a058e0a0909e","system_id":"levelo_inurba_marseille","lat":43.299222,"lon":5.365554,"is_reserved":false,"is_disabled":false,"rental_uris":{"android":"levelo://app?vid=2027d3ef-ad36-4d9e-ae63-a058e0a0909e","ios":"levelo://app?vid=2027d3ef-ad36-4d9e-ae63-a058e0a0909e"},"vehicle_type_id":"4","last_reported":1703099050,"current_range_meters":8400,"station_id":"ce4bgm92rcd13ifvqbr0","pricing_plan_id":"free"},{"bike_id":"f1f0042a-0e0a-4a69-b7ee-26da2b50d186","system_id":"levelo_inurba_marseille","lat":43.299724,"lon":5.371829,"is_reserved":false,"is_disabled":false,"rental_uris":{"android":"levelo://app?vid=f1f0042a-0e0a-4a69-b7ee-26da2b50d186","ios":"levelo://app?vid=f1f0042a-0e0a-4a69-b7ee-26da2b50d186"},"vehicle_type_id":"4","last_reported":1703099050,"current_range_meters":25600,"station_id":"ce4bgr92rcd13ifvqc7g","pricing_plan_id":"free"},{"bike_id":"5536b8d8-8930-4e63-a363-5329e80e9a9f","system_id":"levelo_inurba_marseille","lat":43.298433,"lon":5.362774,"is_reserved":false,"is_disabled":false,"rental_uris":{"android":"levelo://app?vid=5536b8d8-8930-4e63-a363-5329e80e9a9f","ios":"levelo://app?vid=5536b8d8-8930-4e63-a363-5329e80e9a9f"},"vehicle_type_id":"4","last_reported":1703099050,"current_range_meters":28400,"station_id":"ce4bgpp2rcd13ifvqc3g","pricing_plan_id":"free"},{"bike_id":"59f78105-95b0-49b7-9ec6-adaeaf9784cb","system_id":"levelo_inurba_marseille","lat":43.311722,"lon":5.387247,"is_reserved":false,"is_disabled":false,"rental_uris":{"android":"levelo://app?vid=59f78105-95b0-49b7-9ec6-adaeaf9784cb","ios":"levelo://app?vid=59f78105-95b0-49b7-9ec6-adaeaf9784cb"},"vehicle_type_id":"4","last_reported":1703099050,"current_range_meters":14000,"station_id":"ce4bgv12rcd13ifvqcp0","pricing_plan_id":"free"},{"bike_id":"1b77dd70-b491-4da0-8f7e-06bdc7d43dbf","system_id":"levelo_inurba_marseille","lat":43.311722,"lon":5.387247,"is_reserved":false,"is_disabled":false,"rental_uris":{"android":"levelo://app?vid=1b77dd70-b491-4da0-8f7e-06bdc7d43dbf","ios":"levelo://app?vid=1b77dd70-b491-4da0-8f7e-06bdc7d43dbf"},"vehicle_type_id":"4","last_reported":1703099050,"current_range_meters":31600,"station_id":"ce4bgv12rcd13ifvqcp0","pricing_plan_id":"free"},{"bike_id":"d099711a-913b-410a-8dc2-1c88d8070312","system_id":"levelo_inurba_marseille","lat":43.311722,"lon":5.387247,"is_reserved":false,"is_disabled":false,"rental_uris":{"android":"levelo://app?vid=d099711a-913b-410a-8dc2-1c88d8070312","ios":"levelo://app?vid=d099711a-913b-410a-8dc2-1c88d8070312"},"vehicle_type_id":"4","last_reported":1703099050,"current_range_meters":9200,"station_id":"ce4bgv12rcd13ifvqcp0","pricing_plan_id":"free"},{"bike_id":"6e1a1d7a-48d9-46ce-beb8-d648a2cc5663","system_id":"levelo_inurba_marseille","lat":43.311722,"lon":5.387247,"is_reserved":false,"is_disabled":false,"rental_uris":{"android":"levelo://app?vid=6e1a1d7a-48d9-46ce-beb8-d648a2cc5663","ios":"levelo://app?vid=6e1a1d7a-48d9-46ce-beb8-d648a2cc5663"},"vehicle_type_id":"4","last_reported":1703099050,"current_range_meters":19200,"station_id":"ce4bgv12rcd13ifvqcp0","pricing_plan_id":"free"},{"bike_id":"76644617-8f77-4f52-b47c-c67ec66e22f9","system_id":"levelo_inurba_marseille","lat":43.311722,"lon":5.387247,"is_reserved":false,"is_disabled":false,"rental_uris":{"android":"levelo://app?vid=76644617-8f77-4f52-b47c-c67ec66e22f9","ios":"levelo://app?vid=76644617-8f77-4f52-b47c-c67ec66e22f9"},"vehicle_type_id":"4","last_reported":1703099050,"current_range_meters":28000,"station_id":"ce4bgv12rcd13ifvqcp0","pricing_plan_id":"free"},{"bike_id":"57958e0e-d033-4153-aad1-a0e80b2a8da0","system_id":"levelo_inurba_marseille","lat":43.297794,"lon":5.370888,"is_reserved":false,"is_disabled":false,"rental_uris":{"android":"levelo://app?vid=57958e0e-d033-4153-aad1-a0e80b2a8da0","ios":"levelo://app?vid=57958e0e-d033-4153-aad1-a0e80b2a8da0"},"vehicle_type_id":"4","last_reported":1703099050,"current_range_meters":11200,"station_id":"ce4bgop2rcd13ifvqc1g","pricing_plan_id":"free"},{"bike_id":"b209b91e-f95c-4c8a-b85c-6c83d55c8c8c","system_id":"levelo_inurba_marseille","lat":43.322872,"lon":5.382756,"is_reserved":false,"is_disabled":false,"rental_uris":{"android":"levelo://app?vid=b209b91e-f95c-4c8a-b85c-6c83d55c8c8c","ios":"levelo://app?vid=b209b91e-f95c-4c8a-b85c-6c83d55c8c8c"},"vehicle_type_id":"4","last_reported":1703099050,"current_range_meters":4800,"station_id":"ce4bhr12rcd13ifvqhqg","pricing_plan_id":"free"},{"bike_id":"b8d2d249-a3a6-4543-b1c7-6b3650de13c5","system_id":"levelo_inurba_marseille","lat":43.322872,"lon":5.382756,"is_reserved":false,"is_disabled":false,"rental_uris":{"android":"levelo://app?vid=b8d2d249-a3a6-4543-b1c7-6b3650de13c5","ios":"levelo://app?vid=b8d2d249-a3a6-4543-b1c7-6b3650de13c5"},"vehicle_type_id":"4","last_reported":1703099050,"current_range_meters":31600,"station_id":"ce4bhr12rcd13ifvqhqg","pricing_plan_id":"free"},{"bike_id":"c22e4b9f-ba20-4a7c-a7c8-fd0a73d903e0","system_id":"levelo_inurba_marseille","lat":43.328371,"lon":5.366909,"is_reserved":false,"is_disabled":false,"rental_uris":{"android":"levelo://app?vid=c22e4b9f-ba20-4a7c-a7c8-fd0a73d903e0","ios":"levelo://app?vid=c22e4b9f-ba20-4a7c-a7c8-fd0a73d903e0"},"vehicle_type_id":"4","last_reported":1703099050,"current_range_meters":22400,"station_id":"ce4bhs92rcd13ifvqi0g","pricing_plan_id":"free"},{"bike_id":"f0fb333a-aba0-4fee-b784-47e38da3586e","system_id":"levelo_inurba_marseille","lat":43.328371,"lon":5.366909,"is_reserved":false,"is_disabled":false,"rental_uris":{"android":"levelo://app?vid=f0fb333a-aba0-4fee-b784-47e38da3586e","ios":"levelo://app?vid=f0fb333a-aba0-4fee-b784-47e38da3586e"},"vehicle_type_id":"4","last_reported":1703099050,"current_range_meters":23200,"station_id":"ce4bhs92rcd13ifvqi0g","pricing_plan_id":"free"},{"bike_id":"2a8a59a2-86cc-48a9-8714-ae0edcb4d489","system_id":"levelo_inurba_marseille","lat":43.328371,"lon":5.366909,"is_reserved":false,"is_disabled":false,"rental_uris":{"android":"levelo://app?vid=2a8a59a2-86cc-48a9-8714-ae0edcb4d489","ios":"levelo://app?vid=2a8a59a2-86cc-48a9-8714-ae0edcb4d489"},"vehicle_type_id":"4","last_reported":1703099050,"current_range_meters":1600,"station_id":"ce4bhs92rcd13ifvqi0g","pricing_plan_id":"free"},{"bike_id":"cd5520e1-9911-479e-b01d-84e4e120d603","system_id":"levelo_inurba_marseille","lat":43.328371,"lon":5.366909,"is_reserved":false,"is_disabled":false,"rental_uris":{"android":"levelo://app?vid=cd5520e1-9911-479e-b01d-84e4e120d603","ios":"levelo://app?vid=cd5520e1-9911-479e-b01d-84e4e120d603"},"vehicle_type_id":"4","last_reported":1703099050,"current_range_meters":16800,"station_id":"ce4bhs92rcd13ifvqi0g","pricing_plan_id":"free"},{"bike_id":"cb97846c-9508-4ec4-82fd-1a637ef7dd90","system_id":"levelo_inurba_marseille","lat":43.328371,"lon":5.366909,"is_reserved":false,"is_disabled":false,"rental_uris":{"android":"levelo://app?vid=cb97846c-9508-4ec4-82fd-1a637ef7dd90","ios":"levelo://app?vid=cb97846c-9508-4ec4-82fd-1a637ef7dd90"},"vehicle_type_id":"4","last_reported":1703099050,"current_range_meters":0,"station_id":"ce4bhs92rcd13ifvqi0g","pricing_plan_id":"free"},{"bike_id":"c12df297-168e-4ca3-95d9-a300ff1ffbd9","system_id":"levelo_inurba_marseille","lat":43.328371,"lon":5.366909,"is_reserved":false,"is_disabled":false,"rental_uris":{"android":"levelo://app?vid=c12df297-168e-4ca3-95d9-a300ff1ffbd9","ios":"levelo://app?vid=c12df297-168e-4ca3-95d9-a300ff1ffbd9"},"vehicle_type_id":"4","last_reported":1703099050,"current_range_meters":29200,"station_id":"ce4bhs92rcd13ifvqi0g","pricing_plan_id":"free"},{"bike_id":"59581a9c-f177-4a96-aea6-b7baaa49a6a3","system_id":"levelo_inurba_marseille","lat":43.328371,"lon":5.366909,"is_reserved":false,"is_disabled":false,"rental_uris":{"android":"levelo://app?vid=59581a9c-f177-4a96-aea6-b7baaa49a6a3","ios":"levelo://app?vid=59581a9c-f177-4a96-aea6-b7baaa49a6a3"},"vehicle_type_id":"4","last_reported":1703099050,"current_range_meters":29200,"station_id":"ce4bhs92rcd13ifvqi0g","pricing_plan_id":"free"},{"bike_id":"bc81749c-97ac-487a-bc93-76443e598803","system_id":"levelo_inurba_marseille","lat":43.328371,"lon":5.366909,"is_reserved":false,"is_disabled":false,"rental_uris":{"android":"levelo://app?vid=bc81749c-97ac-487a-bc93-76443e598803","ios":"levelo://app?vid=bc81749c-97ac-487a-bc93-76443e598803"},"vehicle_type_id":"4","last_reported":1703099050,"current_range_meters":4400,"station_id":"ce4bhs92rcd13ifvqi0g","pricing_plan_id":"free"},{"bike_id":"eb8ebe7d-6983-4780-997c-9447c3c0c6e2","system_id":"levelo_inurba_marseille","lat":43.328371,"lon":5.366909,"is_reserved":false,"is_disabled":false,"rental_uris":{"android":"levelo://app?vid=eb8ebe7d-6983-4780-997c-9447c3c0c6e2","ios":"levelo://app?vid=eb8ebe7d-6983-4780-997c-9447c3c0c6e2"},"vehicle_type_id":"4","last_reported":1703099050,"current_range_meters":27600,"station_id":"ce4bhs92rcd13ifvqi0g","pricing_plan_id":"free"},{"bike_id":"e993829c-3df1-452b-b2e8-026467d7b973","system_id":"levelo_inurba_marseille","lat":43.297163,"lon":5.365866,"is_reserved":false,"is_disabled":false,"rental_uris":{"android":"levelo://app?vid=e993829c-3df1-452b-b2e8-026467d7b973","ios":"levelo://app?vid=e993829c-3df1-452b-b2e8-026467d7b973"},"vehicle_type_id":"4","last_reported":1703099050,"current_range_meters":16800,"station_id":"ce4bgn12rcd13ifvqbt0","pricing_plan_id":"free"},{"bike_id":"d82314ad-e7ab-4120-a3bc-0c0e4cb5eddc","system_id":"levelo_inurba_marseille","lat":43.297163,"lon":5.365866,"is_reserved":false,"is_disabled":false,"rental_uris":{"android":"levelo://app?vid=d82314ad-e7ab-4120-a3bc-0c0e4cb5eddc","ios":"levelo://app?vid=d82314ad-e7ab-4120-a3bc-0c0e4cb5eddc"},"vehicle_type_id":"4","last_reported":1703099050,"current_range_meters":11600,"station_id":"ce4bgn12rcd13ifvqbt0","pricing_plan_id":"free"},{"bike_id":"f75574c7-4b9f-4d54-bec2-4fe5197acad8","system_id":"levelo_inurba_marseille","lat":43.311722,"lon":5.387247,"is_reserved":false,"is_disabled":false,"rental_uris":{"android":"levelo://app?vid=f75574c7-4b9f-4d54-bec2-4fe5197acad8","ios":"levelo://app?vid=f75574c7-4b9f-4d54-bec2-4fe5197acad8"},"vehicle_type_id":"4","last_reported":1703099050,"current_range_meters":15600,"station_id":"ce4bgv12rcd13ifvqcp0","pricing_plan_id":"free"},{"bike_id":"270abcb6-24b4-4b33-b720-37c0080d0116","system_id":"levelo_inurba_marseille","lat":43.299028,"lon":5.381509,"is_reserved":false,"is_disabled":false,"rental_uris":{"android":"levelo://app?vid=270abcb6-24b4-4b33-b720-37c0080d0116","ios":"levelo://app?vid=270abcb6-24b4-4b33-b720-37c0080d0116"},"vehicle_type_id":"4","last_reported":1703099050,"current_range_meters":2800,"station_id":"ce4bgj12rcd13ifvqbc0","pricing_plan_id":"free"},{"bike_id":"0b302c3a-0edd-4d80-b6a2-0e41892114c5","system_id":"levelo_inurba_marseille","lat":43.317557,"lon":5.390173,"is_reserved":false,"is_disabled":false,"rental_uris":{"android":"levelo://app?vid=0b302c3a-0edd-4d80-b6a2-0e41892114c5","ios":"levelo://app?vid=0b302c3a-0edd-4d80-b6a2-0e41892114c5"},"vehicle_type_id":"4","last_reported":1703099050,"current_range_meters":8800,"station_id":"ce4bhqp2rcd13ifvqhng","pricing_plan_id":"free"},{"bike_id":"c4c1f64a-485a-4c35-b278-a49cef644f05","system_id":"levelo_inurba_marseille","lat":43.317557,"lon":5.390173,"is_reserved":false,"is_disabled":false,"rental_uris":{"android":"levelo://app?vid=c4c1f64a-485a-4c35-b278-a49cef644f05","ios":"levelo://app?vid=c4c1f64a-485a-4c35-b278-a49cef644f05"},"vehicle_type_id":"4","last_reported":1703099050,"current_range_meters":13200,"station_id":"ce4bhqp2rcd13ifvqhng","pricing_plan_id":"free"},{"bike_id":"a3b5723f-773e-4907-9274-da75f1e24c14","system_id":"levelo_inurba_marseille","lat":43.317557,"lon":5.390173,"is_reserved":false,"is_disabled":false,"rental_uris":{"android":"levelo://app?vid=a3b5723f-773e-4907-9274-da75f1e24c14","ios":"levelo://app?vid=a3b5723f-773e-4907-9274-da75f1e24c14"},"vehicle_type_id":"4","last_reported":1703099050,"current_range_meters":29600,"station_id":"ce4bhqp2rcd13ifvqhng","pricing_plan_id":"free"},{"bike_id":"e9e31799-1aa1-446d-ae14-fa9855e3e61f","system_id":"levelo_inurba_marseille","lat":43.317557,"lon":5.390173,"is_reserved":false,"is_disabled":false,"rental_uris":{"android":"levelo://app?vid=e9e31799-1aa1-446d-ae14-fa9855e3e61f","ios":"levelo://app?vid=e9e31799-1aa1-446d-ae14-fa9855e3e61f"},"vehicle_type_id":"4","last_reported":1703099050,"current_range_meters":10000,"station_id":"ce4bhqp2rcd13ifvqhng","pricing_plan_id":"free"},{"bike_id":"d89a6a0f-5ebb-492a-bb7f-450b4e71a42c","system_id":"levelo_inurba_marseille","lat":43.32367,"lon":5.388836,"is_reserved":false,"is_disabled":false,"rental_uris":{"android":"levelo://app?vid=d89a6a0f-5ebb-492a-bb7f-450b4e71a42c","ios":"levelo://app?vid=d89a6a0f-5ebb-492a-bb7f-450b4e71a42c"},"vehicle_type_id":"4","last_reported":1703099050,"current_range_meters":16800,"station_id":"ce4bhqp2rcd13ifvqhog","pricing_plan_id":"free"},{"bike_id":"39a5a7f1-613e-4ce9-85dc-bf406e7675c4","system_id":"levelo_inurba_marseille","lat":43.32367,"lon":5.388836,"is_reserved":false,"is_disabled":false,"rental_uris":{"android":"levelo://app?vid=39a5a7f1-613e-4ce9-85dc-bf406e7675c4","ios":"levelo://app?vid=39a5a7f1-613e-4ce9-85dc-bf406e7675c4"},"vehicle_type_id":"4","last_reported":1703099050,"current_range_meters":3200,"station_id":"ce4bhqp2rcd13ifvqhog","pricing_plan_id":"free"},{"bike_id":"4466044d-ff4c-4eb8-9ef0-fe52e129564f","system_id":"levelo_inurba_marseille","lat":43.292749,"lon":5.368402,"is_reserved":false,"is_disabled":false,"rental_uris":{"android":"levelo://app?vid=4466044d-ff4c-4eb8-9ef0-fe52e129564f","ios":"levelo://app?vid=4466044d-ff4c-4eb8-9ef0-fe52e129564f"},"vehicle_type_id":"4","last_reported":1703099050,"current_range_meters":5200,"station_id":"ce4bhbp2rcd13ifvqesg","pricing_plan_id":"free"},{"bike_id":"9314f112-9b6b-43f8-b6d2-94bef47a165c","system_id":"levelo_inurba_marseille","lat":43.305994,"lon":5.393687,"is_reserved":false,"is_disabled":false,"rental_uris":{"android":"levelo://app?vid=9314f112-9b6b-43f8-b6d2-94bef47a165c","ios":"levelo://app?vid=9314f112-9b6b-43f8-b6d2-94bef47a165c"},"vehicle_type_id":"4","last_reported":1703099050,"current_range_meters":22000,"station_id":"ce4bh0p2rcd13ifvqd80","pricing_plan_id":"free"},{"bike_id":"17b38bbf-dd7b-430f-9921-9095da6519dc","system_id":"levelo_inurba_marseille","lat":43.293009,"lon":5.374584,"is_reserved":false,"is_disabled":false,"rental_uris":{"android":"levelo://app?vid=17b38bbf-dd7b-430f-9921-9095da6519dc","ios":"levelo://app?vid=17b38bbf-dd7b-430f-9921-9095da6519dc"},"vehicle_type_id":"4","last_reported":1703099050,"current_range_meters":9200,"station_id":"ce4bgi12rcd13ifvqb70","pricing_plan_id":"free"},{"bike_id":"9ae005c3-e74f-4c44-af59-fe79a0f263df","system_id":"levelo_inurba_marseille","lat":43.303002,"lon":5.392142,"is_reserved":false,"is_disabled":false,"rental_uris":{"android":"levelo://app?vid=9ae005c3-e74f-4c44-af59-fe79a0f263df","ios":"levelo://app?vid=9ae005c3-e74f-4c44-af59-fe79a0f263df"},"vehicle_type_id":"4","last_reported":1703099050,"current_range_meters":2000,"station_id":"ce4bgkh2rcd13ifvqbk0","pricing_plan_id":"free"},{"bike_id":"1e6194e2-15d6-4506-b169-338656d96181","system_id":"levelo_inurba_marseille","lat":43.30297,"lon":5.3922,"is_reserved":false,"is_disabled":false,"rental_uris":{"android":"levelo://app?vid=1e6194e2-15d6-4506-b169-338656d96181","ios":"levelo://app?vid=1e6194e2-15d6-4506-b169-338656d96181"},"vehicle_type_id":"4","last_reported":1703099050,"current_range_meters":8400,"station_id":"ce4bgkh2rcd13ifvqbk0","pricing_plan_id":"free"},{"bike_id":"7292012f-da9d-4ad7-9b4e-d7a0ddf2cd79","system_id":"levelo_inurba_marseille","lat":43.292311,"lon":5.360731,"is_reserved":false,"is_disabled":false,"rental_uris":{"android":"levelo://app?vid=7292012f-da9d-4ad7-9b4e-d7a0ddf2cd79","ios":"levelo://app?vid=7292012f-da9d-4ad7-9b4e-d7a0ddf2cd79"},"vehicle_type_id":"4","last_reported":1703099050,"current_range_meters":0,"station_id":"ce4bhbh2rcd13ifvqeqg","pricing_plan_id":"free"},{"bike_id":"67dbc710-e248-4701-92da-b94e6f063a32","system_id":"levelo_inurba_marseille","lat":43.32297,"lon":5.39239,"is_reserved":false,"is_disabled":false,"rental_uris":{"android":"levelo://app?vid=67dbc710-e248-4701-92da-b94e6f063a32","ios":"levelo://app?vid=67dbc710-e248-4701-92da-b94e6f063a32"},"vehicle_type_id":"4","last_reported":1703099050,"current_range_meters":3200,"station_id":"","pricing_plan_id":"free"},{"bike_id":"d80aacb1-1de2-4c97-bfa7-d79fbffbe39f","system_id":"levelo_inurba_marseille","lat":43.29872,"lon":5.38896,"is_reserved":false,"is_disabled":false,"rental_uris":{"android":"levelo://app?vid=d80aacb1-1de2-4c97-bfa7-d79fbffbe39f","ios":"levelo://app?vid=d80aacb1-1de2-4c97-bfa7-d79fbffbe39f"},"vehicle_type_id":"4","last_reported":1703099050,"current_range_meters":16800,"station_id":"","pricing_plan_id":"free"},{"bike_id":"c2f07232-f473-4c70-9b6f-3e1eada0d1e5","system_id":"levelo_inurba_marseille","lat":43.291675,"lon":5.371583,"is_reserved":false,"is_disabled":false,"rental_uris":{"android":"levelo://app?vid=c2f07232-f473-4c70-9b6f-3e1eada0d1e5","ios":"levelo://app?vid=c2f07232-f473-4c70-9b6f-3e1eada0d1e5"},"vehicle_type_id":"4","last_reported":1703099050,"current_range_meters":12800,"station_id":"ce4bha92rcd13ifvqeh0","pricing_plan_id":"free"},{"bike_id":"df478808-8bcb-44d9-b175-88738a5453c3","system_id":"levelo_inurba_marseille","lat":43.29868,"lon":5.38899,"is_reserved":false,"is_disabled":false,"rental_uris":{"android":"levelo://app?vid=df478808-8bcb-44d9-b175-88738a5453c3","ios":"levelo://app?vid=df478808-8bcb-44d9-b175-88738a5453c3"},"vehicle_type_id":"4","last_reported":1703099050,"current_range_meters":0,"station_id":"","pricing_plan_id":"free"},{"bike_id":"e5eca80e-f16a-41ee-b5ac-f2f5e49f023b","system_id":"levelo_inurba_marseille","lat":43.29868,"lon":5.38905,"is_reserved":false,"is_disabled":false,"rental_uris":{"android":"levelo://app?vid=e5eca80e-f16a-41ee-b5ac-f2f5e49f023b","ios":"levelo://app?vid=e5eca80e-f16a-41ee-b5ac-f2f5e49f023b"},"vehicle_type_id":"4","last_reported":1703099050,"current_range_meters":17600,"station_id":"","pricing_plan_id":"free"},{"bike_id":"b4d180a3-e15e-483f-a526-f89d0c81497b","system_id":"levelo_inurba_marseille","lat":43.325243,"lon":5.414326,"is_reserved":false,"is_disabled":false,"rental_uris":{"android":"levelo://app?vid=b4d180a3-e15e-483f-a526-f89d0c81497b","ios":"levelo://app?vid=b4d180a3-e15e-483f-a526-f89d0c81497b"},"vehicle_type_id":"4","last_reported":1703099050,"current_range_meters":22000,"station_id":"ce4bhq12rcd13ifvqhhg","pricing_plan_id":"free"},{"bike_id":"dbe34c3d-36ef-49cb-b11f-cf7f97e7053f","system_id":"levelo_inurba_marseille","lat":43.313291,"lon":5.396838,"is_reserved":false,"is_disabled":false,"rental_uris":{"android":"levelo://app?vid=dbe34c3d-36ef-49cb-b11f-cf7f97e7053f","ios":"levelo://app?vid=dbe34c3d-36ef-49cb-b11f-cf7f97e7053f"},"vehicle_type_id":"4","last_reported":1703099050,"current_range_meters":10000,"station_id":"ce4bgvp2rcd13ifvqcu0","pricing_plan_id":"free"},{"bike_id":"2b7d92fb-a275-4c79-b06d-20ae4470ba42","system_id":"levelo_inurba_marseille","lat":43.31328,"lon":5.39695,"is_reserved":false,"is_disabled":false,"rental_uris":{"android":"levelo://app?vid=2b7d92fb-a275-4c79-b06d-20ae4470ba42","ios":"levelo://app?vid=2b7d92fb-a275-4c79-b06d-20ae4470ba42"},"vehicle_type_id":"4","last_reported":1703099050,"current_range_meters":28400,"station_id":"ce4bgvp2rcd13ifvqcu0","pricing_plan_id":"free"},{"bike_id":"6a31c8f5-94f6-45ba-bcce-50286bad2d97","system_id":"levelo_inurba_marseille","lat":43.29529,"lon":5.385581,"is_reserved":false,"is_disabled":false,"rental_uris":{"android":"levelo://app?vid=6a31c8f5-94f6-45ba-bcce-50286bad2d97","ios":"levelo://app?vid=6a31c8f5-94f6-45ba-bcce-50286bad2d97"},"vehicle_type_id":"4","last_reported":1703099050,"current_range_meters":18000,"station_id":"ce4bgih2rcd13ifvqba0","pricing_plan_id":"free"},{"bike_id":"2cf91594-8208-4a31-94ec-b2af8fe8cbf5","system_id":"levelo_inurba_marseille","lat":43.29529,"lon":5.385581,"is_reserved":false,"is_disabled":false,"rental_uris":{"android":"levelo://app?vid=2cf91594-8208-4a31-94ec-b2af8fe8cbf5","ios":"levelo://app?vid=2cf91594-8208-4a31-94ec-b2af8fe8cbf5"},"vehicle_type_id":"4","last_reported":1703099050,"current_range_meters":20800,"station_id":"ce4bgih2rcd13ifvqba0","pricing_plan_id":"free"},{"bike_id":"0fc0c073-39b9-4406-a3b2-86b160a34a0a","system_id":"levelo_inurba_marseille","lat":43.29529,"lon":5.385581,"is_reserved":false,"is_disabled":false,"rental_uris":{"android":"levelo://app?vid=0fc0c073-39b9-4406-a3b2-86b160a34a0a","ios":"levelo://app?vid=0fc0c073-39b9-4406-a3b2-86b160a34a0a"},"vehicle_type_id":"4","last_reported":1703099050,"current_range_meters":9600,"station_id":"ce4bgih2rcd13ifvqba0","pricing_plan_id":"free"},{"bike_id":"8b64272e-96ab-453e-8099-d3a3d1f3060a","system_id":"levelo_inurba_marseille","lat":43.290657,"lon":5.371527,"is_reserved":false,"is_disabled":false,"rental_uris":{"android":"levelo://app?vid=8b64272e-96ab-453e-8099-d3a3d1f3060a","ios":"levelo://app?vid=8b64272e-96ab-453e-8099-d3a3d1f3060a"},"vehicle_type_id":"4","last_reported":1703099050,"current_range_meters":0,"station_id":"ce4bh5p2rcd13ifvqe4g","pricing_plan_id":"free"},{"bike_id":"3063efe7-d0f6-431f-9178-f099c32add42","system_id":"levelo_inurba_marseille","lat":43.290779,"lon":5.371482,"is_reserved":false,"is_disabled":false,"rental_uris":{"android":"levelo://app?vid=3063efe7-d0f6-431f-9178-f099c32add42","ios":"levelo://app?vid=3063efe7-d0f6-431f-9178-f099c32add42"},"vehicle_type_id":"4","last_reported":1703099050,"current_range_meters":21600,"station_id":"ce4bh5p2rcd13ifvqe4g","pricing_plan_id":"free"},{"bike_id":"696ee5f2-3b74-447a-95f3-ef9cc8702de8","system_id":"levelo_inurba_marseille","lat":43.294162,"lon":5.386292,"is_reserved":false,"is_disabled":false,"rental_uris":{"android":"levelo://app?vid=696ee5f2-3b74-447a-95f3-ef9cc8702de8","ios":"levelo://app?vid=696ee5f2-3b74-447a-95f3-ef9cc8702de8"},"vehicle_type_id":"4","last_reported":1703099050,"current_range_meters":0,"station_id":"ce4bh2h2rcd13ifvqdh0","pricing_plan_id":"free"},{"bike_id":"8b6f940b-f9a4-4d3a-a1ef-005fd2b67483","system_id":"levelo_inurba_marseille","lat":43.294153,"lon":5.386305,"is_reserved":false,"is_disabled":false,"rental_uris":{"android":"levelo://app?vid=8b6f940b-f9a4-4d3a-a1ef-005fd2b67483","ios":"levelo://app?vid=8b6f940b-f9a4-4d3a-a1ef-005fd2b67483"},"vehicle_type_id":"4","last_reported":1703099050,"current_range_meters":8800,"station_id":"ce4bh2h2rcd13ifvqdh0","pricing_plan_id":"free"},{"bike_id":"8c09a9f5-3c7d-4a8d-a29a-bfbf7b9b3333","system_id":"levelo_inurba_marseille","lat":43.294162,"lon":5.386292,"is_reserved":false,"is_disabled":false,"rental_uris":{"android":"levelo://app?vid=8c09a9f5-3c7d-4a8d-a29a-bfbf7b9b3333","ios":"levelo://app?vid=8c09a9f5-3c7d-4a8d-a29a-bfbf7b9b3333"},"vehicle_type_id":"4","last_reported":1703099050,"current_range_meters":31600,"station_id":"ce4bh2h2rcd13ifvqdh0","pricing_plan_id":"free"},{"bike_id":"af04b944-5bf4-434b-90ba-a97c30954340","system_id":"levelo_inurba_marseille","lat":43.294153,"lon":5.386305,"is_reserved":false,"is_disabled":false,"rental_uris":{"android":"levelo://app?vid=af04b944-5bf4-434b-90ba-a97c30954340","ios":"levelo://app?vid=af04b944-5bf4-434b-90ba-a97c30954340"},"vehicle_type_id":"4","last_reported":1703099050,"current_range_meters":12800,"station_id":"ce4bh2h2rcd13ifvqdh0","pricing_plan_id":"free"},{"bike_id":"259b6592-9e63-48e3-8b7c-e054ace04796","system_id":"levelo_inurba_marseille","lat":43.294162,"lon":5.386292,"is_reserved":false,"is_disabled":false,"rental_uris":{"android":"levelo://app?vid=259b6592-9e63-48e3-8b7c-e054ace04796","ios":"levelo://app?vid=259b6592-9e63-48e3-8b7c-e054ace04796"},"vehicle_type_id":"4","last_reported":1703099050,"current_range_meters":16400,"station_id":"ce4bh2h2rcd13ifvqdh0","pricing_plan_id":"free"},{"bike_id":"730db7c0-96a7-42c4-8698-4b8a702b9888","system_id":"levelo_inurba_marseille","lat":43.294162,"lon":5.386292,"is_reserved":false,"is_disabled":false,"rental_uris":{"android":"levelo://app?vid=730db7c0-96a7-42c4-8698-4b8a702b9888","ios":"levelo://app?vid=730db7c0-96a7-42c4-8698-4b8a702b9888"},"vehicle_type_id":"4","last_reported":1703099050,"current_range_meters":11200,"station_id":"ce4bh2h2rcd13ifvqdh0","pricing_plan_id":"free"},{"bike_id":"d13ce8d1-5e5c-443f-aebb-835fe74de0cd","system_id":"levelo_inurba_marseille","lat":43.294138,"lon":5.38627,"is_reserved":false,"is_disabled":false,"rental_uris":{"android":"levelo://app?vid=d13ce8d1-5e5c-443f-aebb-835fe74de0cd","ios":"levelo://app?vid=d13ce8d1-5e5c-443f-aebb-835fe74de0cd"},"vehicle_type_id":"4","last_reported":1703099050,"current_range_meters":4400,"station_id":"","pricing_plan_id":"free"},{"bike_id":"736be525-6e70-4af4-9106-598f786796a3","system_id":"levelo_inurba_marseille","lat":43.294153,"lon":5.386305,"is_reserved":false,"is_disabled":false,"rental_uris":{"android":"levelo://app?vid=736be525-6e70-4af4-9106-598f786796a3","ios":"levelo://app?vid=736be525-6e70-4af4-9106-598f786796a3"},"vehicle_type_id":"4","last_reported":1703099050,"current_range_meters":22000,"station_id":"ce4bh2h2rcd13ifvqdh0","pricing_plan_id":"free"},{"bike_id":"ff70859f-32fa-478e-b2c4-55517ec6c093","system_id":"levelo_inurba_marseille","lat":43.289468,"lon":5.363719,"is_reserved":false,"is_disabled":false,"rental_uris":{"android":"levelo://app?vid=ff70859f-32fa-478e-b2c4-55517ec6c093","ios":"levelo://app?vid=ff70859f-32fa-478e-b2c4-55517ec6c093"},"vehicle_type_id":"4","last_reported":1703099050,"current_range_meters":29200,"station_id":"ce4bhc92rcd13ifvqetg","pricing_plan_id":"free"},{"bike_id":"6a1779af-b548-4528-ac92-d1f376636514","system_id":"levelo_inurba_marseille","lat":43.292644,"lon":5.384257,"is_reserved":false,"is_disabled":false,"rental_uris":{"android":"levelo://app?vid=6a1779af-b548-4528-ac92-d1f376636514","ios":"levelo://app?vid=6a1779af-b548-4528-ac92-d1f376636514"},"vehicle_type_id":"4","last_reported":1703099050,"current_range_meters":14800,"station_id":"ce4bh692rcd13ifvqea0","pricing_plan_id":"free"},{"bike_id":"e1ef104f-3077-494d-af51-29f9aad94919","system_id":"levelo_inurba_marseille","lat":43.292642,"lon":5.384254,"is_reserved":false,"is_disabled":false,"rental_uris":{"android":"levelo://app?vid=e1ef104f-3077-494d-af51-29f9aad94919","ios":"levelo://app?vid=e1ef104f-3077-494d-af51-29f9aad94919"},"vehicle_type_id":"4","last_reported":1703099050,"current_range_meters":2400,"station_id":"ce4bh692rcd13ifvqea0","pricing_plan_id":"free"},{"bike_id":"1b6584a6-1bea-4b7b-b1aa-8e43e6a81ee6","system_id":"levelo_inurba_marseille","lat":43.292644,"lon":5.384257,"is_reserved":false,"is_disabled":false,"rental_uris":{"android":"levelo://app?vid=1b6584a6-1bea-4b7b-b1aa-8e43e6a81ee6","ios":"levelo://app?vid=1b6584a6-1bea-4b7b-b1aa-8e43e6a81ee6"},"vehicle_type_id":"4","last_reported":1703099050,"current_range_meters":400,"station_id":"ce4bh692rcd13ifvqea0","pricing_plan_id":"free"},{"bike_id":"4f42b3f4-830a-4557-bf4f-f5b4223545a1","system_id":"levelo_inurba_marseille","lat":43.292644,"lon":5.384257,"is_reserved":false,"is_disabled":false,"rental_uris":{"android":"levelo://app?vid=4f42b3f4-830a-4557-bf4f-f5b4223545a1","ios":"levelo://app?vid=4f42b3f4-830a-4557-bf4f-f5b4223545a1"},"vehicle_type_id":"4","last_reported":1703099050,"current_range_meters":21600,"station_id":"ce4bh692rcd13ifvqea0","pricing_plan_id":"free"},{"bike_id":"a443caa4-fbb4-4141-a6fa-faf2d355fe83","system_id":"levelo_inurba_marseille","lat":43.292642,"lon":5.384254,"is_reserved":false,"is_disabled":false,"rental_uris":{"android":"levelo://app?vid=a443caa4-fbb4-4141-a6fa-faf2d355fe83","ios":"levelo://app?vid=a443caa4-fbb4-4141-a6fa-faf2d355fe83"},"vehicle_type_id":"4","last_reported":1703099050,"current_range_meters":8400,"station_id":"ce4bh692rcd13ifvqea0","pricing_plan_id":"free"},{"bike_id":"81f220cc-f813-4717-b98b-46f5aab7ecb8","system_id":"levelo_inurba_marseille","lat":43.292642,"lon":5.384254,"is_reserved":false,"is_disabled":false,"rental_uris":{"android":"levelo://app?vid=81f220cc-f813-4717-b98b-46f5aab7ecb8","ios":"levelo://app?vid=81f220cc-f813-4717-b98b-46f5aab7ecb8"},"vehicle_type_id":"4","last_reported":1703099050,"current_range_meters":9600,"station_id":"ce4bh692rcd13ifvqea0","pricing_plan_id":"free"},{"bike_id":"b010feb0-b0b5-43e1-a9d0-3f8d1c25d648","system_id":"levelo_inurba_marseille","lat":43.292644,"lon":5.384257,"is_reserved":false,"is_disabled":false,"rental_uris":{"android":"levelo://app?vid=b010feb0-b0b5-43e1-a9d0-3f8d1c25d648","ios":"levelo://app?vid=b010feb0-b0b5-43e1-a9d0-3f8d1c25d648"},"vehicle_type_id":"4","last_reported":1703099050,"current_range_meters":12400,"station_id":"ce4bh692rcd13ifvqea0","pricing_plan_id":"free"},{"bike_id":"5fa1b944-20fe-4c8b-87aa-fa4e90ba0644","system_id":"levelo_inurba_marseille","lat":43.292644,"lon":5.384257,"is_reserved":false,"is_disabled":false,"rental_uris":{"android":"levelo://app?vid=5fa1b944-20fe-4c8b-87aa-fa4e90ba0644","ios":"levelo://app?vid=5fa1b944-20fe-4c8b-87aa-fa4e90ba0644"},"vehicle_type_id":"4","last_reported":1703099050,"current_range_meters":1200,"station_id":"ce4bh692rcd13ifvqea0","pricing_plan_id":"free"},{"bike_id":"ef102e62-52b2-4531-b2df-a3f4c60d34c0","system_id":"levelo_inurba_marseille","lat":43.292644,"lon":5.384257,"is_reserved":false,"is_disabled":false,"rental_uris":{"android":"levelo://app?vid=ef102e62-52b2-4531-b2df-a3f4c60d34c0","ios":"levelo://app?vid=ef102e62-52b2-4531-b2df-a3f4c60d34c0"},"vehicle_type_id":"4","last_reported":1703099050,"current_range_meters":14400,"station_id":"ce4bh692rcd13ifvqea0","pricing_plan_id":"free"},{"bike_id":"928a882c-0b5e-459e-8be7-d497620f57db","system_id":"levelo_inurba_marseille","lat":43.304296,"lon":5.397513,"is_reserved":false,"is_disabled":false,"rental_uris":{"android":"levelo://app?vid=928a882c-0b5e-459e-8be7-d497620f57db","ios":"levelo://app?vid=928a882c-0b5e-459e-8be7-d497620f57db"},"vehicle_type_id":"4","last_reported":1703099050,"current_range_meters":13600,"station_id":"ce4bh092rcd13ifvqd20","pricing_plan_id":"free"},{"bike_id":"1c4c9834-44b1-4ad8-afb9-97aa8bf22bb9","system_id":"levelo_inurba_marseille","lat":43.292644,"lon":5.384257,"is_reserved":false,"is_disabled":false,"rental_uris":{"android":"levelo://app?vid=1c4c9834-44b1-4ad8-afb9-97aa8bf22bb9","ios":"levelo://app?vid=1c4c9834-44b1-4ad8-afb9-97aa8bf22bb9"},"vehicle_type_id":"4","last_reported":1703099050,"current_range_meters":14400,"station_id":"ce4bh692rcd13ifvqea0","pricing_plan_id":"free"},{"bike_id":"c374b07d-c3ac-43de-9fb5-0605f606a0b4","system_id":"levelo_inurba_marseille","lat":43.292642,"lon":5.384254,"is_reserved":false,"is_disabled":false,"rental_uris":{"android":"levelo://app?vid=c374b07d-c3ac-43de-9fb5-0605f606a0b4","ios":"levelo://app?vid=c374b07d-c3ac-43de-9fb5-0605f606a0b4"},"vehicle_type_id":"4","last_reported":1703099050,"current_range_meters":17200,"station_id":"ce4bh692rcd13ifvqea0","pricing_plan_id":"free"},{"bike_id":"f3937b4d-3ad7-4b46-92fa-46e55411fb21","system_id":"levelo_inurba_marseille","lat":43.33039,"lon":5.38916,"is_reserved":false,"is_disabled":false,"rental_uris":{"android":"levelo://app?vid=f3937b4d-3ad7-4b46-92fa-46e55411fb21","ios":"levelo://app?vid=f3937b4d-3ad7-4b46-92fa-46e55411fb21"},"vehicle_type_id":"4","last_reported":1703099050,"current_range_meters":9600,"station_id":"ce4bhr92rcd13ifvqhrg","pricing_plan_id":"free"},{"bike_id":"34c65641-4bc1-4197-b217-a76243cd6c9c","system_id":"levelo_inurba_marseille","lat":43.33042,"lon":5.3892,"is_reserved":false,"is_disabled":false,"rental_uris":{"android":"levelo://app?vid=34c65641-4bc1-4197-b217-a76243cd6c9c","ios":"levelo://app?vid=34c65641-4bc1-4197-b217-a76243cd6c9c"},"vehicle_type_id":"4","last_reported":1703099050,"current_range_meters":23200,"station_id":"ce4bhr92rcd13ifvqhrg","pricing_plan_id":"free"},{"bike_id":"03792874-86d9-468e-be10-3c6851108053","system_id":"levelo_inurba_marseille","lat":43.33041,"lon":5.38924,"is_reserved":false,"is_disabled":false,"rental_uris":{"android":"levelo://app?vid=03792874-86d9-468e-be10-3c6851108053","ios":"levelo://app?vid=03792874-86d9-468e-be10-3c6851108053"},"vehicle_type_id":"4","last_reported":1703099050,"current_range_meters":17600,"station_id":"ce4bhr92rcd13ifvqhrg","pricing_plan_id":"free"},{"bike_id":"a44c4c9a-083e-42e6-8e6d-8958a860af21","system_id":"levelo_inurba_marseille","lat":43.33042,"lon":5.38925,"is_reserved":false,"is_disabled":false,"rental_uris":{"android":"levelo://app?vid=a44c4c9a-083e-42e6-8e6d-8958a860af21","ios":"levelo://app?vid=a44c4c9a-083e-42e6-8e6d-8958a860af21"},"vehicle_type_id":"4","last_reported":1703099050,"current_range_meters":18800,"station_id":"ce4bhr92rcd13ifvqhrg","pricing_plan_id":"free"},{"bike_id":"395ea153-bddb-4447-ab87-edf25b163762","system_id":"levelo_inurba_marseille","lat":43.290104,"lon":5.356111,"is_reserved":false,"is_disabled":false,"rental_uris":{"android":"levelo://app?vid=395ea153-bddb-4447-ab87-edf25b163762","ios":"levelo://app?vid=395ea153-bddb-4447-ab87-edf25b163762"},"vehicle_type_id":"4","last_reported":1703099050,"current_range_meters":12000,"station_id":"ce4bhb92rcd13ifvqen0","pricing_plan_id":"free"},{"bike_id":"90536312-f14b-4c7d-9b1a-bee06a58535e","system_id":"levelo_inurba_marseille","lat":43.290103,"lon":5.356114,"is_reserved":false,"is_disabled":false,"rental_uris":{"android":"levelo://app?vid=90536312-f14b-4c7d-9b1a-bee06a58535e","ios":"levelo://app?vid=90536312-f14b-4c7d-9b1a-bee06a58535e"},"vehicle_type_id":"4","last_reported":1703099050,"current_range_meters":31600,"station_id":"ce4bhb92rcd13ifvqen0","pricing_plan_id":"free"},{"bike_id":"b5991436-a273-49c8-a9ee-317bdb0d91b4","system_id":"levelo_inurba_marseille","lat":43.290103,"lon":5.356114,"is_reserved":false,"is_disabled":false,"rental_uris":{"android":"levelo://app?vid=b5991436-a273-49c8-a9ee-317bdb0d91b4","ios":"levelo://app?vid=b5991436-a273-49c8-a9ee-317bdb0d91b4"},"vehicle_type_id":"4","last_reported":1703099050,"current_range_meters":2000,"station_id":"ce4bhb92rcd13ifvqen0","pricing_plan_id":"free"},{"bike_id":"f45b7e64-b7ad-4167-a237-c174fe46ae3a","system_id":"levelo_inurba_marseille","lat":43.290995,"lon":5.381361,"is_reserved":false,"is_disabled":false,"rental_uris":{"android":"levelo://app?vid=f45b7e64-b7ad-4167-a237-c174fe46ae3a","ios":"levelo://app?vid=f45b7e64-b7ad-4167-a237-c174fe46ae3a"},"vehicle_type_id":"4","last_reported":1703099050,"current_range_meters":11600,"station_id":"ce4bh512rcd13ifvqe2g","pricing_plan_id":"free"},{"bike_id":"52efac9f-0ad8-4306-9a02-6ecd9aed3c9e","system_id":"levelo_inurba_marseille","lat":43.290995,"lon":5.381361,"is_reserved":false,"is_disabled":false,"rental_uris":{"android":"levelo://app?vid=52efac9f-0ad8-4306-9a02-6ecd9aed3c9e","ios":"levelo://app?vid=52efac9f-0ad8-4306-9a02-6ecd9aed3c9e"},"vehicle_type_id":"4","last_reported":1703099050,"current_range_meters":8800,"station_id":"ce4bh512rcd13ifvqe2g","pricing_plan_id":"free"},{"bike_id":"239864d1-dc86-48aa-805c-795856fcca74","system_id":"levelo_inurba_marseille","lat":43.297815,"lon":5.393548,"is_reserved":false,"is_disabled":false,"rental_uris":{"android":"levelo://app?vid=239864d1-dc86-48aa-805c-795856fcca74","ios":"levelo://app?vid=239864d1-dc86-48aa-805c-795856fcca74"},"vehicle_type_id":"4","last_reported":1703099050,"current_range_meters":5600,"station_id":"chh1huq6cuj3fo74tm60","pricing_plan_id":"free"},{"bike_id":"ea3dc86e-b17c-40d8-9eb4-d668a06c9a05","system_id":"levelo_inurba_marseille","lat":43.295169,"lon":5.390426,"is_reserved":false,"is_disabled":false,"rental_uris":{"android":"levelo://app?vid=ea3dc86e-b17c-40d8-9eb4-d668a06c9a05","ios":"levelo://app?vid=ea3dc86e-b17c-40d8-9eb4-d668a06c9a05"},"vehicle_type_id":"4","last_reported":1703099050,"current_range_meters":17200,"station_id":"ce4bh3p2rcd13ifvqdp0","pricing_plan_id":"free"},{"bike_id":"582eb7e7-331e-419a-920e-56c5e3cad8c0","system_id":"levelo_inurba_marseille","lat":43.295169,"lon":5.390426,"is_reserved":false,"is_disabled":false,"rental_uris":{"android":"levelo://app?vid=582eb7e7-331e-419a-920e-56c5e3cad8c0","ios":"levelo://app?vid=582eb7e7-331e-419a-920e-56c5e3cad8c0"},"vehicle_type_id":"4","last_reported":1703099050,"current_range_meters":3600,"station_id":"ce4bh3p2rcd13ifvqdp0","pricing_plan_id":"free"},{"bike_id":"85a87a12-1154-4629-bb3c-1f7d589e7667","system_id":"levelo_inurba_marseille","lat":43.28856,"lon":5.358371,"is_reserved":false,"is_disabled":false,"rental_uris":{"android":"levelo://app?vid=85a87a12-1154-4629-bb3c-1f7d589e7667","ios":"levelo://app?vid=85a87a12-1154-4629-bb3c-1f7d589e7667"},"vehicle_type_id":"4","last_reported":1703099050,"current_range_meters":0,"station_id":"ce4bhb12rcd13ifvqem0","pricing_plan_id":"free"},{"bike_id":"22368dc9-8aba-46d7-8e95-31c17019d674","system_id":"levelo_inurba_marseille","lat":43.28848,"lon":5.35852,"is_reserved":false,"is_disabled":false,"rental_uris":{"android":"levelo://app?vid=22368dc9-8aba-46d7-8e95-31c17019d674","ios":"levelo://app?vid=22368dc9-8aba-46d7-8e95-31c17019d674"},"vehicle_type_id":"4","last_reported":1703099050,"current_range_meters":0,"station_id":"ce4bhb12rcd13ifvqem0","pricing_plan_id":"free"},{"bike_id":"efc8b483-666b-48da-afa0-0447382868fd","system_id":"levelo_inurba_marseille","lat":43.337448,"lon":5.374743,"is_reserved":false,"is_disabled":false,"rental_uris":{"android":"levelo://app?vid=efc8b483-666b-48da-afa0-0447382868fd","ios":"levelo://app?vid=efc8b483-666b-48da-afa0-0447382868fd"},"vehicle_type_id":"4","last_reported":1703099050,"current_range_meters":26400,"station_id":"","pricing_plan_id":"free"},{"bike_id":"fd4e7f60-d5f5-47e2-a4e2-0283faae9197","system_id":"levelo_inurba_marseille","lat":43.33759,"lon":5.3747,"is_reserved":false,"is_disabled":false,"rental_uris":{"android":"levelo://app?vid=fd4e7f60-d5f5-47e2-a4e2-0283faae9197","ios":"levelo://app?vid=fd4e7f60-d5f5-47e2-a4e2-0283faae9197"},"vehicle_type_id":"4","last_reported":1703099050,"current_range_meters":25600,"station_id":"","pricing_plan_id":"free"},{"bike_id":"d9420cb3-639d-482c-b86a-0f8c3387efab","system_id":"levelo_inurba_marseille","lat":43.30128,"lon":5.39861,"is_reserved":false,"is_disabled":false,"rental_uris":{"android":"levelo://app?vid=d9420cb3-639d-482c-b86a-0f8c3387efab","ios":"levelo://app?vid=d9420cb3-639d-482c-b86a-0f8c3387efab"},"vehicle_type_id":"4","last_reported":1703099050,"current_range_meters":12000,"station_id":"ce4bh0h2rcd13ifvqd40","pricing_plan_id":"free"},{"bike_id":"49cd9255-05a6-472c-b1a4-a0d4ff1e81c9","system_id":"levelo_inurba_marseille","lat":43.28727,"lon":5.36078,"is_reserved":false,"is_disabled":false,"rental_uris":{"android":"levelo://app?vid=49cd9255-05a6-472c-b1a4-a0d4ff1e81c9","ios":"levelo://app?vid=49cd9255-05a6-472c-b1a4-a0d4ff1e81c9"},"vehicle_type_id":"4","last_reported":1703099050,"current_range_meters":11600,"station_id":"cki0cbj6b192h4jlfktg","pricing_plan_id":"free"},{"bike_id":"b44d00f5-284f-45ea-8d94-d8f22c00560e","system_id":"levelo_inurba_marseille","lat":43.28727,"lon":5.36078,"is_reserved":false,"is_disabled":false,"rental_uris":{"android":"levelo://app?vid=b44d00f5-284f-45ea-8d94-d8f22c00560e","ios":"levelo://app?vid=b44d00f5-284f-45ea-8d94-d8f22c00560e"},"vehicle_type_id":"4","last_reported":1703099050,"current_range_meters":16400,"station_id":"cki0cbj6b192h4jlfktg","pricing_plan_id":"free"},{"bike_id":"9a2e39c9-3e09-4eb6-a1b6-c2010c3122c7","system_id":"levelo_inurba_marseille","lat":43.298681,"lon":5.397225,"is_reserved":false,"is_disabled":false,"rental_uris":{"android":"levelo://app?vid=9a2e39c9-3e09-4eb6-a1b6-c2010c3122c7","ios":"levelo://app?vid=9a2e39c9-3e09-4eb6-a1b6-c2010c3122c7"},"vehicle_type_id":"4","last_reported":1703099050,"current_range_meters":20800,"station_id":"ce4bh0h2rcd13ifvqd50","pricing_plan_id":"free"},{"bike_id":"f983b5aa-1426-4cc0-84b9-5324d6c6ddf8","system_id":"levelo_inurba_marseille","lat":43.298681,"lon":5.397225,"is_reserved":false,"is_disabled":false,"rental_uris":{"android":"levelo://app?vid=f983b5aa-1426-4cc0-84b9-5324d6c6ddf8","ios":"levelo://app?vid=f983b5aa-1426-4cc0-84b9-5324d6c6ddf8"},"vehicle_type_id":"4","last_reported":1703099050,"current_range_meters":3600,"station_id":"ce4bh0h2rcd13ifvqd50","pricing_plan_id":"free"},{"bike_id":"048831e1-2815-4c7c-9dde-2e2d15b385d9","system_id":"levelo_inurba_marseille","lat":43.298681,"lon":5.397225,"is_reserved":false,"is_disabled":false,"rental_uris":{"android":"levelo://app?vid=048831e1-2815-4c7c-9dde-2e2d15b385d9","ios":"levelo://app?vid=048831e1-2815-4c7c-9dde-2e2d15b385d9"},"vehicle_type_id":"4","last_reported":1703099050,"current_range_meters":6400,"station_id":"ce4bh0h2rcd13ifvqd50","pricing_plan_id":"free"},{"bike_id":"e3bbdbc8-628a-4f63-8fe7-848c56adde6d","system_id":"levelo_inurba_marseille","lat":43.286961,"lon":5.373785,"is_reserved":false,"is_disabled":false,"rental_uris":{"android":"levelo://app?vid=e3bbdbc8-628a-4f63-8fe7-848c56adde6d","ios":"levelo://app?vid=e3bbdbc8-628a-4f63-8fe7-848c56adde6d"},"vehicle_type_id":"4","last_reported":1703099050,"current_range_meters":4000,"station_id":"ce4bh3p2rcd13ifvqdq0","pricing_plan_id":"free"},{"bike_id":"6d74183a-bb3b-4fad-9bd3-277bd93d7f83","system_id":"levelo_inurba_marseille","lat":43.295196,"lon":5.39397,"is_reserved":false,"is_disabled":false,"rental_uris":{"android":"levelo://app?vid=6d74183a-bb3b-4fad-9bd3-277bd93d7f83","ios":"levelo://app?vid=6d74183a-bb3b-4fad-9bd3-277bd93d7f83"},"vehicle_type_id":"4","last_reported":1703099050,"current_range_meters":25600,"station_id":"ce4bh292rcd13ifvqdf0","pricing_plan_id":"free"},{"bike_id":"d05e487b-334e-461f-886f-c8c49fdd94bd","system_id":"levelo_inurba_marseille","lat":43.298681,"lon":5.397225,"is_reserved":false,"is_disabled":false,"rental_uris":{"android":"levelo://app?vid=d05e487b-334e-461f-886f-c8c49fdd94bd","ios":"levelo://app?vid=d05e487b-334e-461f-886f-c8c49fdd94bd"},"vehicle_type_id":"4","last_reported":1703099050,"current_range_meters":30000,"station_id":"ce4bh0h2rcd13ifvqd50","pricing_plan_id":"free"},{"bike_id":"4ff5873f-ae0a-4131-8e76-8cc1e4bf2479","system_id":"levelo_inurba_marseille","lat":43.29883,"lon":5.39748,"is_reserved":false,"is_disabled":false,"rental_uris":{"android":"levelo://app?vid=4ff5873f-ae0a-4131-8e76-8cc1e4bf2479","ios":"levelo://app?vid=4ff5873f-ae0a-4131-8e76-8cc1e4bf2479"},"vehicle_type_id":"4","last_reported":1703099050,"current_range_meters":31200,"station_id":"ce4bh0h2rcd13ifvqd50","pricing_plan_id":"free"},{"bike_id":"5f4e93a0-5eb2-4554-aa61-a58cbe5f8c0a","system_id":"levelo_inurba_marseille","lat":43.286591,"lon":5.363346,"is_reserved":false,"is_disabled":false,"rental_uris":{"android":"levelo://app?vid=5f4e93a0-5eb2-4554-aa61-a58cbe5f8c0a","ios":"levelo://app?vid=5f4e93a0-5eb2-4554-aa61-a58cbe5f8c0a"},"vehicle_type_id":"4","last_reported":1703099050,"current_range_meters":16000,"station_id":"ce4bhah2rcd13ifvqej0","pricing_plan_id":"free"},{"bike_id":"638012cc-9d24-4da4-afa1-0a6c1a14133f","system_id":"levelo_inurba_marseille","lat":43.286591,"lon":5.363346,"is_reserved":false,"is_disabled":false,"rental_uris":{"android":"levelo://app?vid=638012cc-9d24-4da4-afa1-0a6c1a14133f","ios":"levelo://app?vid=638012cc-9d24-4da4-afa1-0a6c1a14133f"},"vehicle_type_id":"4","last_reported":1703099050,"current_range_meters":10000,"station_id":"ce4bhah2rcd13ifvqej0","pricing_plan_id":"free"},{"bike_id":"8d9f1d10-7882-4058-8cb0-15f66efa9e3a","system_id":"levelo_inurba_marseille","lat":43.295196,"lon":5.39397,"is_reserved":false,"is_disabled":false,"rental_uris":{"android":"levelo://app?vid=8d9f1d10-7882-4058-8cb0-15f66efa9e3a","ios":"levelo://app?vid=8d9f1d10-7882-4058-8cb0-15f66efa9e3a"},"vehicle_type_id":"4","last_reported":1703099050,"current_range_meters":12000,"station_id":"ce4bh292rcd13ifvqdf0","pricing_plan_id":"free"},{"bike_id":"b68e545e-2b2f-4d27-ad10-6b762ad4d69f","system_id":"levelo_inurba_marseille","lat":43.295194,"lon":5.39397,"is_reserved":false,"is_disabled":false,"rental_uris":{"android":"levelo://app?vid=b68e545e-2b2f-4d27-ad10-6b762ad4d69f","ios":"levelo://app?vid=b68e545e-2b2f-4d27-ad10-6b762ad4d69f"},"vehicle_type_id":"4","last_reported":1703099050,"current_range_meters":25200,"station_id":"ce4bh292rcd13ifvqdf0","pricing_plan_id":"free"},{"bike_id":"5041b4ed-1d47-427a-acde-62682335f13d","system_id":"levelo_inurba_marseille","lat":43.291153,"lon":5.387707,"is_reserved":false,"is_disabled":false,"rental_uris":{"android":"levelo://app?vid=5041b4ed-1d47-427a-acde-62682335f13d","ios":"levelo://app?vid=5041b4ed-1d47-427a-acde-62682335f13d"},"vehicle_type_id":"4","last_reported":1703099050,"current_range_meters":0,"station_id":"","pricing_plan_id":"free"},{"bike_id":"e15a86cc-9516-43e5-b86a-8261ca14d485","system_id":"levelo_inurba_marseille","lat":43.302759,"lon":5.400793,"is_reserved":false,"is_disabled":false,"rental_uris":{"android":"levelo://app?vid=e15a86cc-9516-43e5-b86a-8261ca14d485","ios":"levelo://app?vid=e15a86cc-9516-43e5-b86a-8261ca14d485"},"vehicle_type_id":"4","last_reported":1703099050,"current_range_meters":29200,"station_id":"ce4bgvh2rcd13ifvqcs0","pricing_plan_id":"free"},{"bike_id":"7a492d52-0a3d-4f50-bf79-7a46d0ef88f0","system_id":"levelo_inurba_marseille","lat":43.302759,"lon":5.400793,"is_reserved":false,"is_disabled":false,"rental_uris":{"android":"levelo://app?vid=7a492d52-0a3d-4f50-bf79-7a46d0ef88f0","ios":"levelo://app?vid=7a492d52-0a3d-4f50-bf79-7a46d0ef88f0"},"vehicle_type_id":"4","last_reported":1703099050,"current_range_meters":18800,"station_id":"ce4bgvh2rcd13ifvqcs0","pricing_plan_id":"free"},{"bike_id":"af428e4d-86db-44c6-be7b-e3e5f284d608","system_id":"levelo_inurba_marseille","lat":43.302759,"lon":5.400793,"is_reserved":false,"is_disabled":false,"rental_uris":{"android":"levelo://app?vid=af428e4d-86db-44c6-be7b-e3e5f284d608","ios":"levelo://app?vid=af428e4d-86db-44c6-be7b-e3e5f284d608"},"vehicle_type_id":"4","last_reported":1703099050,"current_range_meters":17200,"station_id":"ce4bgvh2rcd13ifvqcs0","pricing_plan_id":"free"},{"bike_id":"2611b209-1d0d-416c-b631-4369aaef304a","system_id":"levelo_inurba_marseille","lat":43.290345,"lon":5.38646,"is_reserved":false,"is_disabled":false,"rental_uris":{"android":"levelo://app?vid=2611b209-1d0d-416c-b631-4369aaef304a","ios":"levelo://app?vid=2611b209-1d0d-416c-b631-4369aaef304a"},"vehicle_type_id":"4","last_reported":1703099050,"current_range_meters":0,"station_id":"ce4bh4p2rcd13ifvqe0g","pricing_plan_id":"free"},{"bike_id":"f650b1b6-8ebe-4227-b82f-f996c992165e","system_id":"levelo_inurba_marseille","lat":43.290345,"lon":5.38646,"is_reserved":false,"is_disabled":false,"rental_uris":{"android":"levelo://app?vid=f650b1b6-8ebe-4227-b82f-f996c992165e","ios":"levelo://app?vid=f650b1b6-8ebe-4227-b82f-f996c992165e"},"vehicle_type_id":"4","last_reported":1703099050,"current_range_meters":0,"station_id":"ce4bh4p2rcd13ifvqe0g","pricing_plan_id":"free"},{"bike_id":"60678b7a-95ca-4a72-b17b-b1f33ed989ec","system_id":"levelo_inurba_marseille","lat":43.316828,"lon":5.404723,"is_reserved":false,"is_disabled":false,"rental_uris":{"android":"levelo://app?vid=60678b7a-95ca-4a72-b17b-b1f33ed989ec","ios":"levelo://app?vid=60678b7a-95ca-4a72-b17b-b1f33ed989ec"},"vehicle_type_id":"4","last_reported":1703099050,"current_range_meters":1200,"station_id":"ce4bh012rcd13ifvqd00","pricing_plan_id":"free"},{"bike_id":"b4222676-c064-4c85-b9a8-afea049163ab","system_id":"levelo_inurba_marseille","lat":43.291994,"lon":5.392907,"is_reserved":false,"is_disabled":false,"rental_uris":{"android":"levelo://app?vid=b4222676-c064-4c85-b9a8-afea049163ab","ios":"levelo://app?vid=b4222676-c064-4c85-b9a8-afea049163ab"},"vehicle_type_id":"4","last_reported":1703099050,"current_range_meters":24000,"station_id":"ce4bh192rcd13ifvqdd0","pricing_plan_id":"free"},{"bike_id":"752c2144-d907-4e3e-9794-542d2a6ea155","system_id":"levelo_inurba_marseille","lat":43.291994,"lon":5.392907,"is_reserved":false,"is_disabled":false,"rental_uris":{"android":"levelo://app?vid=752c2144-d907-4e3e-9794-542d2a6ea155","ios":"levelo://app?vid=752c2144-d907-4e3e-9794-542d2a6ea155"},"vehicle_type_id":"4","last_reported":1703099050,"current_range_meters":22000,"station_id":"ce4bh192rcd13ifvqdd0","pricing_plan_id":"free"},{"bike_id":"400e5b1a-306a-4672-8fba-8fbd5ee124e8","system_id":"levelo_inurba_marseille","lat":43.28465,"lon":5.35878,"is_reserved":false,"is_disabled":false,"rental_uris":{"android":"levelo://app?vid=400e5b1a-306a-4672-8fba-8fbd5ee124e8","ios":"levelo://app?vid=400e5b1a-306a-4672-8fba-8fbd5ee124e8"},"vehicle_type_id":"4","last_reported":1703099050,"current_range_meters":16400,"station_id":"ce4bhah2rcd13ifvqei0","pricing_plan_id":"free"},{"bike_id":"d3df26d2-b56b-43ab-962d-c5837af0f437","system_id":"levelo_inurba_marseille","lat":43.28462,"lon":5.35881,"is_reserved":false,"is_disabled":false,"rental_uris":{"android":"levelo://app?vid=d3df26d2-b56b-43ab-962d-c5837af0f437","ios":"levelo://app?vid=d3df26d2-b56b-43ab-962d-c5837af0f437"},"vehicle_type_id":"4","last_reported":1703099050,"current_range_meters":5200,"station_id":"ce4bhah2rcd13ifvqei0","pricing_plan_id":"free"},{"bike_id":"dd09a853-65c6-4925-8e1b-ae006bb957a5","system_id":"levelo_inurba_marseille","lat":43.284588,"lon":5.35899,"is_reserved":false,"is_disabled":false,"rental_uris":{"android":"levelo://app?vid=dd09a853-65c6-4925-8e1b-ae006bb957a5","ios":"levelo://app?vid=dd09a853-65c6-4925-8e1b-ae006bb957a5"},"vehicle_type_id":"4","last_reported":1703099050,"current_range_meters":800,"station_id":"ce4bhah2rcd13ifvqei0","pricing_plan_id":"free"},{"bike_id":"a9d595c3-6bdf-4999-88b4-7eeac5ab5e34","system_id":"levelo_inurba_marseille","lat":43.28456,"lon":5.35893,"is_reserved":false,"is_disabled":false,"rental_uris":{"android":"levelo://app?vid=a9d595c3-6bdf-4999-88b4-7eeac5ab5e34","ios":"levelo://app?vid=a9d595c3-6bdf-4999-88b4-7eeac5ab5e34"},"vehicle_type_id":"4","last_reported":1703099050,"current_range_meters":22800,"station_id":"ce4bhah2rcd13ifvqei0","pricing_plan_id":"free"},{"bike_id":"89216e79-3cbd-4003-990b-c120bbe8ba20","system_id":"levelo_inurba_marseille","lat":43.28457,"lon":5.358837,"is_reserved":false,"is_disabled":false,"rental_uris":{"android":"levelo://app?vid=89216e79-3cbd-4003-990b-c120bbe8ba20","ios":"levelo://app?vid=89216e79-3cbd-4003-990b-c120bbe8ba20"},"vehicle_type_id":"4","last_reported":1703099050,"current_range_meters":22800,"station_id":"ce4bhah2rcd13ifvqei0","pricing_plan_id":"free"},{"bike_id":"deb03d56-a258-4061-ade4-4c6def17ebc6","system_id":"levelo_inurba_marseille","lat":43.28455,"lon":5.35887,"is_reserved":false,"is_disabled":false,"rental_uris":{"android":"levelo://app?vid=deb03d56-a258-4061-ade4-4c6def17ebc6","ios":"levelo://app?vid=deb03d56-a258-4061-ade4-4c6def17ebc6"},"vehicle_type_id":"4","last_reported":1703099050,"current_range_meters":23200,"station_id":"ce4bhah2rcd13ifvqei0","pricing_plan_id":"free"},{"bike_id":"628ace3a-bb62-4e92-b44f-7fc1cc97ef49","system_id":"levelo_inurba_marseille","lat":43.284562,"lon":5.358785,"is_reserved":false,"is_disabled":false,"rental_uris":{"android":"levelo://app?vid=628ace3a-bb62-4e92-b44f-7fc1cc97ef49","ios":"levelo://app?vid=628ace3a-bb62-4e92-b44f-7fc1cc97ef49"},"vehicle_type_id":"4","last_reported":1703099050,"current_range_meters":4000,"station_id":"ce4bhah2rcd13ifvqei0","pricing_plan_id":"free"},{"bike_id":"7f31c261-b4c3-4ece-809c-0175459e0962","system_id":"levelo_inurba_marseille","lat":43.294314,"lon":5.397498,"is_reserved":false,"is_disabled":false,"rental_uris":{"android":"levelo://app?vid=7f31c261-b4c3-4ece-809c-0175459e0962","ios":"levelo://app?vid=7f31c261-b4c3-4ece-809c-0175459e0962"},"vehicle_type_id":"4","last_reported":1703099050,"current_range_meters":24800,"station_id":"ce4bh3h2rcd13ifvqdo0","pricing_plan_id":"free"},{"bike_id":"cd0c99aa-0b49-422c-882e-cd7d21d05d95","system_id":"levelo_inurba_marseille","lat":43.285856,"lon":5.350771,"is_reserved":false,"is_disabled":false,"rental_uris":{"android":"levelo://app?vid=cd0c99aa-0b49-422c-882e-cd7d21d05d95","ios":"levelo://app?vid=cd0c99aa-0b49-422c-882e-cd7d21d05d95"},"vehicle_type_id":"4","last_reported":1703099050,"current_range_meters":12400,"station_id":"ce4bhch2rcd13ifvqeug","pricing_plan_id":"free"},{"bike_id":"4ea381ba-f5ca-4402-a8ad-56297ca58f6f","system_id":"levelo_inurba_marseille","lat":43.285856,"lon":5.350771,"is_reserved":false,"is_disabled":false,"rental_uris":{"android":"levelo://app?vid=4ea381ba-f5ca-4402-a8ad-56297ca58f6f","ios":"levelo://app?vid=4ea381ba-f5ca-4402-a8ad-56297ca58f6f"},"vehicle_type_id":"4","last_reported":1703099050,"current_range_meters":20800,"station_id":"ce4bhch2rcd13ifvqeug","pricing_plan_id":"free"},{"bike_id":"4005d67c-e580-47a4-893b-53bd0a817d88","system_id":"levelo_inurba_marseille","lat":43.285856,"lon":5.350771,"is_reserved":false,"is_disabled":false,"rental_uris":{"android":"levelo://app?vid=4005d67c-e580-47a4-893b-53bd0a817d88","ios":"levelo://app?vid=4005d67c-e580-47a4-893b-53bd0a817d88"},"vehicle_type_id":"4","last_reported":1703099050,"current_range_meters":13200,"station_id":"ce4bhch2rcd13ifvqeug","pricing_plan_id":"free"},{"bike_id":"f9d5365c-a48c-4167-aefc-e4eb02be3020","system_id":"levelo_inurba_marseille","lat":43.285856,"lon":5.350771,"is_reserved":false,"is_disabled":false,"rental_uris":{"android":"levelo://app?vid=f9d5365c-a48c-4167-aefc-e4eb02be3020","ios":"levelo://app?vid=f9d5365c-a48c-4167-aefc-e4eb02be3020"},"vehicle_type_id":"4","last_reported":1703099050,"current_range_meters":800,"station_id":"ce4bhch2rcd13ifvqeug","pricing_plan_id":"free"},{"bike_id":"b1dab4de-0ade-4b74-94d9-fc33a4596fb1","system_id":"levelo_inurba_marseille","lat":43.285856,"lon":5.350771,"is_reserved":false,"is_disabled":false,"rental_uris":{"android":"levelo://app?vid=b1dab4de-0ade-4b74-94d9-fc33a4596fb1","ios":"levelo://app?vid=b1dab4de-0ade-4b74-94d9-fc33a4596fb1"},"vehicle_type_id":"4","last_reported":1703099050,"current_range_meters":19200,"station_id":"ce4bhch2rcd13ifvqeug","pricing_plan_id":"free"},{"bike_id":"70231a4e-5b03-48ec-ae49-1772c70a77b5","system_id":"levelo_inurba_marseille","lat":43.285856,"lon":5.350771,"is_reserved":false,"is_disabled":false,"rental_uris":{"android":"levelo://app?vid=70231a4e-5b03-48ec-ae49-1772c70a77b5","ios":"levelo://app?vid=70231a4e-5b03-48ec-ae49-1772c70a77b5"},"vehicle_type_id":"4","last_reported":1703099050,"current_range_meters":800,"station_id":"ce4bhch2rcd13ifvqeug","pricing_plan_id":"free"},{"bike_id":"4efccfcb-dea5-440b-9d4a-776103710cb6","system_id":"levelo_inurba_marseille","lat":43.28416,"lon":5.37508,"is_reserved":false,"is_disabled":false,"rental_uris":{"android":"levelo://app?vid=4efccfcb-dea5-440b-9d4a-776103710cb6","ios":"levelo://app?vid=4efccfcb-dea5-440b-9d4a-776103710cb6"},"vehicle_type_id":"4","last_reported":1703099050,"current_range_meters":6800,"station_id":"ce4bh412rcd13ifvqds0","pricing_plan_id":"free"},{"bike_id":"8538e6dd-dbef-4a5a-a119-9a857fd021ad","system_id":"levelo_inurba_marseille","lat":43.33218,"lon":5.397067,"is_reserved":false,"is_disabled":false,"rental_uris":{"android":"levelo://app?vid=8538e6dd-dbef-4a5a-a119-9a857fd021ad","ios":"levelo://app?vid=8538e6dd-dbef-4a5a-a119-9a857fd021ad"},"vehicle_type_id":"4","last_reported":1703099050,"current_range_meters":0,"station_id":"","pricing_plan_id":"free"},{"bike_id":"287072b8-81be-45f2-b70e-9df7bf428756","system_id":"levelo_inurba_marseille","lat":43.295713,"lon":5.399639,"is_reserved":false,"is_disabled":false,"rental_uris":{"android":"levelo://app?vid=287072b8-81be-45f2-b70e-9df7bf428756","ios":"levelo://app?vid=287072b8-81be-45f2-b70e-9df7bf428756"},"vehicle_type_id":"4","last_reported":1703099050,"current_range_meters":14400,"station_id":"ce4bh312rcd13ifvqdj0","pricing_plan_id":"free"},{"bike_id":"1b2205ae-4705-465a-b95e-66cddc43a396","system_id":"levelo_inurba_marseille","lat":43.295713,"lon":5.399639,"is_reserved":false,"is_disabled":false,"rental_uris":{"android":"levelo://app?vid=1b2205ae-4705-465a-b95e-66cddc43a396","ios":"levelo://app?vid=1b2205ae-4705-465a-b95e-66cddc43a396"},"vehicle_type_id":"4","last_reported":1703099050,"current_range_meters":24400,"station_id":"ce4bh312rcd13ifvqdj0","pricing_plan_id":"free"},{"bike_id":"e08ed952-f4c1-44e2-bb0b-31783133ff2c","system_id":"levelo_inurba_marseille","lat":43.295713,"lon":5.399639,"is_reserved":false,"is_disabled":false,"rental_uris":{"android":"levelo://app?vid=e08ed952-f4c1-44e2-bb0b-31783133ff2c","ios":"levelo://app?vid=e08ed952-f4c1-44e2-bb0b-31783133ff2c"},"vehicle_type_id":"4","last_reported":1703099050,"current_range_meters":25600,"station_id":"ce4bh312rcd13ifvqdj0","pricing_plan_id":"free"},{"bike_id":"15823af4-ab26-4983-b546-3082589f7e4c","system_id":"levelo_inurba_marseille","lat":43.286595,"lon":5.386795,"is_reserved":false,"is_disabled":false,"rental_uris":{"android":"levelo://app?vid=15823af4-ab26-4983-b546-3082589f7e4c","ios":"levelo://app?vid=15823af4-ab26-4983-b546-3082589f7e4c"},"vehicle_type_id":"4","last_reported":1703099050,"current_range_meters":0,"station_id":"ce4bh492rcd13ifvqdug","pricing_plan_id":"free"},{"bike_id":"dfb799e0-6b52-4b93-891e-f427333dec88","system_id":"levelo_inurba_marseille","lat":43.33717,"lon":5.391857,"is_reserved":false,"is_disabled":false,"rental_uris":{"android":"levelo://app?vid=dfb799e0-6b52-4b93-891e-f427333dec88","ios":"levelo://app?vid=dfb799e0-6b52-4b93-891e-f427333dec88"},"vehicle_type_id":"4","last_reported":1703099050,"current_range_meters":25200,"station_id":"ce4bhr92rcd13ifvqhsg","pricing_plan_id":"free"},{"bike_id":"0e6bbc92-cec6-497f-ad89-d75d7e889db3","system_id":"levelo_inurba_marseille","lat":43.33717,"lon":5.391857,"is_reserved":false,"is_disabled":false,"rental_uris":{"android":"levelo://app?vid=0e6bbc92-cec6-497f-ad89-d75d7e889db3","ios":"levelo://app?vid=0e6bbc92-cec6-497f-ad89-d75d7e889db3"},"vehicle_type_id":"4","last_reported":1703099050,"current_range_meters":31600,"station_id":"ce4bhr92rcd13ifvqhsg","pricing_plan_id":"free"},{"bike_id":"b20f92a2-3c96-49ba-89c0-763dc511f158","system_id":"levelo_inurba_marseille","lat":43.284219,"lon":5.3497,"is_reserved":false,"is_disabled":false,"rental_uris":{"android":"levelo://app?vid=b20f92a2-3c96-49ba-89c0-763dc511f158","ios":"levelo://app?vid=b20f92a2-3c96-49ba-89c0-763dc511f158"},"vehicle_type_id":"4","last_reported":1703099050,"current_range_meters":23200,"station_id":"ce4bhbh2rcd13ifvqepg","pricing_plan_id":"free"},{"bike_id":"d6ceaf01-26b8-4886-ac1f-d274beda68aa","system_id":"levelo_inurba_marseille","lat":43.333413,"lon":5.398688,"is_reserved":false,"is_disabled":false,"rental_uris":{"android":"levelo://app?vid=d6ceaf01-26b8-4886-ac1f-d274beda68aa","ios":"levelo://app?vid=d6ceaf01-26b8-4886-ac1f-d274beda68aa"},"vehicle_type_id":"4","last_reported":1703099050,"current_range_meters":0,"station_id":"","pricing_plan_id":"free"},{"bike_id":"76fd2d2a-13e2-4c82-a809-5904f3cbe72e","system_id":"levelo_inurba_marseille","lat":43.283498,"lon":5.380948,"is_reserved":false,"is_disabled":false,"rental_uris":{"android":"levelo://app?vid=76fd2d2a-13e2-4c82-a809-5904f3cbe72e","ios":"levelo://app?vid=76fd2d2a-13e2-4c82-a809-5904f3cbe72e"},"vehicle_type_id":"4","last_reported":1703099050,"current_range_meters":18000,"station_id":"ce4bh412rcd13ifvqdr0","pricing_plan_id":"free"},{"bike_id":"5e3666e1-86ec-4715-881e-97fbe8493bb9","system_id":"levelo_inurba_marseille","lat":43.284217,"lon":5.349697,"is_reserved":false,"is_disabled":false,"rental_uris":{"android":"levelo://app?vid=5e3666e1-86ec-4715-881e-97fbe8493bb9","ios":"levelo://app?vid=5e3666e1-86ec-4715-881e-97fbe8493bb9"},"vehicle_type_id":"4","last_reported":1703099050,"current_range_meters":30400,"station_id":"ce4bhbh2rcd13ifvqepg","pricing_plan_id":"free"},{"bike_id":"e68ad7a3-9f73-42da-8e90-59adcc6ccfbd","system_id":"levelo_inurba_marseille","lat":43.284219,"lon":5.3497,"is_reserved":false,"is_disabled":false,"rental_uris":{"android":"levelo://app?vid=e68ad7a3-9f73-42da-8e90-59adcc6ccfbd","ios":"levelo://app?vid=e68ad7a3-9f73-42da-8e90-59adcc6ccfbd"},"vehicle_type_id":"4","last_reported":1703099050,"current_range_meters":31200,"station_id":"ce4bhbh2rcd13ifvqepg","pricing_plan_id":"free"},{"bike_id":"25acf729-0c15-45f0-8053-2c35b0919b50","system_id":"levelo_inurba_marseille","lat":43.284219,"lon":5.3497,"is_reserved":false,"is_disabled":false,"rental_uris":{"android":"levelo://app?vid=25acf729-0c15-45f0-8053-2c35b0919b50","ios":"levelo://app?vid=25acf729-0c15-45f0-8053-2c35b0919b50"},"vehicle_type_id":"4","last_reported":1703099050,"current_range_meters":27600,"station_id":"ce4bhbh2rcd13ifvqepg","pricing_plan_id":"free"},{"bike_id":"b85df6e5-946f-4ca9-b02b-bc3a9e578ef6","system_id":"levelo_inurba_marseille","lat":43.304188,"lon":5.412904,"is_reserved":false,"is_disabled":false,"rental_uris":{"android":"levelo://app?vid=b85df6e5-946f-4ca9-b02b-bc3a9e578ef6","ios":"levelo://app?vid=b85df6e5-946f-4ca9-b02b-bc3a9e578ef6"},"vehicle_type_id":"4","last_reported":1703099050,"current_range_meters":21600,"station_id":"ce4bhop2rcd13ifvqh8g","pricing_plan_id":"free"},{"bike_id":"99c0c118-61e8-4cea-80ff-9be3c4ac7cf7","system_id":"levelo_inurba_marseille","lat":43.28419,"lon":5.34984,"is_reserved":false,"is_disabled":false,"rental_uris":{"android":"levelo://app?vid=99c0c118-61e8-4cea-80ff-9be3c4ac7cf7","ios":"levelo://app?vid=99c0c118-61e8-4cea-80ff-9be3c4ac7cf7"},"vehicle_type_id":"4","last_reported":1703099050,"current_range_meters":2000,"station_id":"ce4bhbh2rcd13ifvqepg","pricing_plan_id":"free"},{"bike_id":"30b41aed-b375-4cfa-b849-c47f4e650fc0","system_id":"levelo_inurba_marseille","lat":43.28211,"lon":5.35867,"is_reserved":false,"is_disabled":false,"rental_uris":{"android":"levelo://app?vid=30b41aed-b375-4cfa-b849-c47f4e650fc0","ios":"levelo://app?vid=30b41aed-b375-4cfa-b849-c47f4e650fc0"},"vehicle_type_id":"4","last_reported":1703099050,"current_range_meters":11200,"station_id":"","pricing_plan_id":"free"},{"bike_id":"338c9ba4-b725-4a51-8cf5-7a87fdf968de","system_id":"levelo_inurba_marseille","lat":43.284214,"lon":5.349706,"is_reserved":false,"is_disabled":false,"rental_uris":{"android":"levelo://app?vid=338c9ba4-b725-4a51-8cf5-7a87fdf968de","ios":"levelo://app?vid=338c9ba4-b725-4a51-8cf5-7a87fdf968de"},"vehicle_type_id":"4","last_reported":1703099050,"current_range_meters":3200,"station_id":"ce4bhbh2rcd13ifvqepg","pricing_plan_id":"free"},{"bike_id":"6dbebcfd-5cef-46d3-b6b1-24659f7d377a","system_id":"levelo_inurba_marseille","lat":43.28545,"lon":5.38972,"is_reserved":false,"is_disabled":false,"rental_uris":{"android":"levelo://app?vid=6dbebcfd-5cef-46d3-b6b1-24659f7d377a","ios":"levelo://app?vid=6dbebcfd-5cef-46d3-b6b1-24659f7d377a"},"vehicle_type_id":"4","last_reported":1703099050,"current_range_meters":0,"station_id":"","pricing_plan_id":"free"},{"bike_id":"d0822314-9e4e-492e-a3bc-9cd96a9a1d33","system_id":"levelo_inurba_marseille","lat":43.282744,"lon":5.350533,"is_reserved":false,"is_disabled":false,"rental_uris":{"android":"levelo://app?vid=d0822314-9e4e-492e-a3bc-9cd96a9a1d33","ios":"levelo://app?vid=d0822314-9e4e-492e-a3bc-9cd96a9a1d33"},"vehicle_type_id":"4","last_reported":1703099050,"current_range_meters":26800,"station_id":"ce4bhbp2rcd13ifvqerg","pricing_plan_id":"free"},{"bike_id":"3af23133-0197-40c1-970e-55f36fe14c51","system_id":"levelo_inurba_marseille","lat":43.282754,"lon":5.350519,"is_reserved":false,"is_disabled":false,"rental_uris":{"android":"levelo://app?vid=3af23133-0197-40c1-970e-55f36fe14c51","ios":"levelo://app?vid=3af23133-0197-40c1-970e-55f36fe14c51"},"vehicle_type_id":"4","last_reported":1703099050,"current_range_meters":13200,"station_id":"ce4bhbp2rcd13ifvqerg","pricing_plan_id":"free"},{"bike_id":"65911451-d618-4117-9c6d-16e5727fc1ab","system_id":"levelo_inurba_marseille","lat":43.280382,"lon":5.369291,"is_reserved":false,"is_disabled":false,"rental_uris":{"android":"levelo://app?vid=65911451-d618-4117-9c6d-16e5727fc1ab","ios":"levelo://app?vid=65911451-d618-4117-9c6d-16e5727fc1ab"},"vehicle_type_id":"4","last_reported":1703099050,"current_range_meters":17600,"station_id":"ce4bha12rcd13ifvqef0","pricing_plan_id":"free"},{"bike_id":"3795016e-dbbe-4b2e-8cff-3a86559747ac","system_id":"levelo_inurba_marseille","lat":43.29634,"lon":5.40593,"is_reserved":false,"is_disabled":false,"rental_uris":{"android":"levelo://app?vid=3795016e-dbbe-4b2e-8cff-3a86559747ac","ios":"levelo://app?vid=3795016e-dbbe-4b2e-8cff-3a86559747ac"},"vehicle_type_id":"4","last_reported":1703099050,"current_range_meters":20400,"station_id":"ce4bh0h2rcd13ifvqd60","pricing_plan_id":"free"},{"bike_id":"223eb927-939c-4c01-905f-3665bda85439","system_id":"levelo_inurba_marseille","lat":43.296263,"lon":5.40601,"is_reserved":false,"is_disabled":false,"rental_uris":{"android":"levelo://app?vid=223eb927-939c-4c01-905f-3665bda85439","ios":"levelo://app?vid=223eb927-939c-4c01-905f-3665bda85439"},"vehicle_type_id":"4","last_reported":1703099050,"current_range_meters":14000,"station_id":"ce4bh0h2rcd13ifvqd60","pricing_plan_id":"free"},{"bike_id":"c30ce0cc-d20a-4434-86a3-e617c4c688d5","system_id":"levelo_inurba_marseille","lat":43.296263,"lon":5.40601,"is_reserved":false,"is_disabled":false,"rental_uris":{"android":"levelo://app?vid=c30ce0cc-d20a-4434-86a3-e617c4c688d5","ios":"levelo://app?vid=c30ce0cc-d20a-4434-86a3-e617c4c688d5"},"vehicle_type_id":"4","last_reported":1703099050,"current_range_meters":16400,"station_id":"ce4bh0h2rcd13ifvqd60","pricing_plan_id":"free"},{"bike_id":"cf9b3f21-f500-4836-8658-6dda35122c6e","system_id":"levelo_inurba_marseille","lat":43.296263,"lon":5.40601,"is_reserved":false,"is_disabled":false,"rental_uris":{"android":"levelo://app?vid=cf9b3f21-f500-4836-8658-6dda35122c6e","ios":"levelo://app?vid=cf9b3f21-f500-4836-8658-6dda35122c6e"},"vehicle_type_id":"4","last_reported":1703099050,"current_range_meters":0,"station_id":"ce4bh0h2rcd13ifvqd60","pricing_plan_id":"free"},{"bike_id":"a65bc548-b9cd-4a09-99de-6a7cf1b6ce3e","system_id":"levelo_inurba_marseille","lat":43.304188,"lon":5.412904,"is_reserved":false,"is_disabled":false,"rental_uris":{"android":"levelo://app?vid=a65bc548-b9cd-4a09-99de-6a7cf1b6ce3e","ios":"levelo://app?vid=a65bc548-b9cd-4a09-99de-6a7cf1b6ce3e"},"vehicle_type_id":"4","last_reported":1703099050,"current_range_meters":21600,"station_id":"ce4bhop2rcd13ifvqh8g","pricing_plan_id":"free"},{"bike_id":"1d1555b5-648a-49b4-90c5-eeac61d8c337","system_id":"levelo_inurba_marseille","lat":43.304188,"lon":5.412904,"is_reserved":false,"is_disabled":false,"rental_uris":{"android":"levelo://app?vid=1d1555b5-648a-49b4-90c5-eeac61d8c337","ios":"levelo://app?vid=1d1555b5-648a-49b4-90c5-eeac61d8c337"},"vehicle_type_id":"4","last_reported":1703099050,"current_range_meters":8800,"station_id":"ce4bhop2rcd13ifvqh8g","pricing_plan_id":"free"},{"bike_id":"c9ccc1b6-eff8-41ad-b5b1-88555cb07424","system_id":"levelo_inurba_marseille","lat":43.304188,"lon":5.412904,"is_reserved":false,"is_disabled":false,"rental_uris":{"android":"levelo://app?vid=c9ccc1b6-eff8-41ad-b5b1-88555cb07424","ios":"levelo://app?vid=c9ccc1b6-eff8-41ad-b5b1-88555cb07424"},"vehicle_type_id":"4","last_reported":1703099050,"current_range_meters":11600,"station_id":"ce4bhop2rcd13ifvqh8g","pricing_plan_id":"free"},{"bike_id":"780c96a8-4b7f-43c7-b210-0ffba1e982bb","system_id":"levelo_inurba_marseille","lat":43.287154,"lon":5.399979,"is_reserved":false,"is_disabled":false,"rental_uris":{"android":"levelo://app?vid=780c96a8-4b7f-43c7-b210-0ffba1e982bb","ios":"levelo://app?vid=780c96a8-4b7f-43c7-b210-0ffba1e982bb"},"vehicle_type_id":"4","last_reported":1703099050,"current_range_meters":11200,"station_id":"ce4bho92rcd13ifvqh3g","pricing_plan_id":"free"},{"bike_id":"97dd7f3e-23ca-4463-b2f9-99ce8acdd3e3","system_id":"levelo_inurba_marseille","lat":43.28701,"lon":5.399813,"is_reserved":false,"is_disabled":false,"rental_uris":{"android":"levelo://app?vid=97dd7f3e-23ca-4463-b2f9-99ce8acdd3e3","ios":"levelo://app?vid=97dd7f3e-23ca-4463-b2f9-99ce8acdd3e3"},"vehicle_type_id":"4","last_reported":1703099050,"current_range_meters":6000,"station_id":"ce4bho92rcd13ifvqh3g","pricing_plan_id":"free"},{"bike_id":"7ea791d8-a5ec-4942-9a2d-c790c113752a","system_id":"levelo_inurba_marseille","lat":43.287154,"lon":5.399979,"is_reserved":false,"is_disabled":false,"rental_uris":{"android":"levelo://app?vid=7ea791d8-a5ec-4942-9a2d-c790c113752a","ios":"levelo://app?vid=7ea791d8-a5ec-4942-9a2d-c790c113752a"},"vehicle_type_id":"4","last_reported":1703099050,"current_range_meters":17200,"station_id":"ce4bho92rcd13ifvqh3g","pricing_plan_id":"free"},{"bike_id":"cb0668d4-d46c-4efe-a7e0-185ebe495ab4","system_id":"levelo_inurba_marseille","lat":43.280589,"lon":5.389183,"is_reserved":false,"is_disabled":false,"rental_uris":{"android":"levelo://app?vid=cb0668d4-d46c-4efe-a7e0-185ebe495ab4","ios":"levelo://app?vid=cb0668d4-d46c-4efe-a7e0-185ebe495ab4"},"vehicle_type_id":"4","last_reported":1703099050,"current_range_meters":6400,"station_id":"","pricing_plan_id":"free"},{"bike_id":"f51d2f3b-143d-4f58-9b0d-b059ad550fa4","system_id":"levelo_inurba_marseille","lat":43.27618,"lon":5.361009,"is_reserved":false,"is_disabled":false,"rental_uris":{"android":"levelo://app?vid=f51d2f3b-143d-4f58-9b0d-b059ad550fa4","ios":"levelo://app?vid=f51d2f3b-143d-4f58-9b0d-b059ad550fa4"},"vehicle_type_id":"4","last_reported":1703099050,"current_range_meters":2400,"station_id":"ce4bgj92rcd13ifvqbe0","pricing_plan_id":"free"},{"bike_id":"971a975a-658f-43e1-a9c6-ae4fc764e296","system_id":"levelo_inurba_marseille","lat":43.325243,"lon":5.414326,"is_reserved":false,"is_disabled":false,"rental_uris":{"android":"levelo://app?vid=971a975a-658f-43e1-a9c6-ae4fc764e296","ios":"levelo://app?vid=971a975a-658f-43e1-a9c6-ae4fc764e296"},"vehicle_type_id":"4","last_reported":1703099050,"current_range_meters":26400,"station_id":"ce4bhq12rcd13ifvqhhg","pricing_plan_id":"free"},{"bike_id":"8b15046b-41d7-456b-afad-6a5e9f61ccb5","system_id":"levelo_inurba_marseille","lat":43.291722,"lon":5.410014,"is_reserved":false,"is_disabled":false,"rental_uris":{"android":"levelo://app?vid=8b15046b-41d7-456b-afad-6a5e9f61ccb5","ios":"levelo://app?vid=8b15046b-41d7-456b-afad-6a5e9f61ccb5"},"vehicle_type_id":"4","last_reported":1703099050,"current_range_meters":16800,"station_id":"","pricing_plan_id":"free"},{"bike_id":"8620807d-e7d9-49bd-a224-36b8c79adb00","system_id":"levelo_inurba_marseille","lat":43.303837,"lon":5.418724,"is_reserved":false,"is_disabled":false,"rental_uris":{"android":"levelo://app?vid=8620807d-e7d9-49bd-a224-36b8c79adb00","ios":"levelo://app?vid=8620807d-e7d9-49bd-a224-36b8c79adb00"},"vehicle_type_id":"4","last_reported":1703099050,"current_range_meters":28800,"station_id":"ce4bhop2rcd13ifvqh7g","pricing_plan_id":"free"},{"bike_id":"570c54cd-2319-405d-9a8b-3e6fb1ef0b8f","system_id":"levelo_inurba_marseille","lat":43.278399,"lon":5.392139,"is_reserved":false,"is_disabled":false,"rental_uris":{"android":"levelo://app?vid=570c54cd-2319-405d-9a8b-3e6fb1ef0b8f","ios":"levelo://app?vid=570c54cd-2319-405d-9a8b-3e6fb1ef0b8f"},"vehicle_type_id":"4","last_reported":1703099050,"current_range_meters":29200,"station_id":"ce4bhjp2rcd13ifvqga0","pricing_plan_id":"free"},{"bike_id":"f9493f15-1b0f-4d94-8dbf-c9c98f9544a9","system_id":"levelo_inurba_marseille","lat":43.278399,"lon":5.392139,"is_reserved":false,"is_disabled":false,"rental_uris":{"android":"levelo://app?vid=f9493f15-1b0f-4d94-8dbf-c9c98f9544a9","ios":"levelo://app?vid=f9493f15-1b0f-4d94-8dbf-c9c98f9544a9"},"vehicle_type_id":"4","last_reported":1703099050,"current_range_meters":7600,"station_id":"ce4bhjp2rcd13ifvqga0","pricing_plan_id":"free"},{"bike_id":"fbd79c1a-df39-412a-b4f7-edc1fbe870cd","system_id":"levelo_inurba_marseille","lat":43.278401,"lon":5.392152,"is_reserved":false,"is_disabled":false,"rental_uris":{"android":"levelo://app?vid=fbd79c1a-df39-412a-b4f7-edc1fbe870cd","ios":"levelo://app?vid=fbd79c1a-df39-412a-b4f7-edc1fbe870cd"},"vehicle_type_id":"4","last_reported":1703099050,"current_range_meters":13200,"station_id":"ce4bhjp2rcd13ifvqga0","pricing_plan_id":"free"},{"bike_id":"b1e12e35-7a8b-41f1-b88b-ba296626d634","system_id":"levelo_inurba_marseille","lat":43.278401,"lon":5.392152,"is_reserved":false,"is_disabled":false,"rental_uris":{"android":"levelo://app?vid=b1e12e35-7a8b-41f1-b88b-ba296626d634","ios":"levelo://app?vid=b1e12e35-7a8b-41f1-b88b-ba296626d634"},"vehicle_type_id":"4","last_reported":1703099050,"current_range_meters":18000,"station_id":"ce4bhjp2rcd13ifvqga0","pricing_plan_id":"free"},{"bike_id":"5b8ae8f0-5b06-4176-b91d-9d590291850e","system_id":"levelo_inurba_marseille","lat":43.275625,"lon":5.384392,"is_reserved":false,"is_disabled":false,"rental_uris":{"android":"levelo://app?vid=5b8ae8f0-5b06-4176-b91d-9d590291850e","ios":"levelo://app?vid=5b8ae8f0-5b06-4176-b91d-9d590291850e"},"vehicle_type_id":"4","last_reported":1703099050,"current_range_meters":18400,"station_id":"ce4bhh92rcd13ifvqfi0","pricing_plan_id":"free"},{"bike_id":"4a0911b4-ebce-4462-b949-8a4ad3514d45","system_id":"levelo_inurba_marseille","lat":43.336134,"lon":5.410341,"is_reserved":false,"is_disabled":false,"rental_uris":{"android":"levelo://app?vid=4a0911b4-ebce-4462-b949-8a4ad3514d45","ios":"levelo://app?vid=4a0911b4-ebce-4462-b949-8a4ad3514d45"},"vehicle_type_id":"4","last_reported":1703099050,"current_range_meters":23600,"station_id":"ce4bhqh2rcd13ifvqhmg","pricing_plan_id":"free"},{"bike_id":"3ba60f78-a0a4-48f6-b46c-0fbb03471889","system_id":"levelo_inurba_marseille","lat":43.275625,"lon":5.384392,"is_reserved":false,"is_disabled":false,"rental_uris":{"android":"levelo://app?vid=3ba60f78-a0a4-48f6-b46c-0fbb03471889","ios":"levelo://app?vid=3ba60f78-a0a4-48f6-b46c-0fbb03471889"},"vehicle_type_id":"4","last_reported":1703099050,"current_range_meters":25600,"station_id":"ce4bhh92rcd13ifvqfi0","pricing_plan_id":"free"},{"bike_id":"d04c46a2-68b4-4f99-b96a-186b6aa7a02e","system_id":"levelo_inurba_marseille","lat":43.317121,"lon":5.423936,"is_reserved":false,"is_disabled":false,"rental_uris":{"android":"levelo://app?vid=d04c46a2-68b4-4f99-b96a-186b6aa7a02e","ios":"levelo://app?vid=d04c46a2-68b4-4f99-b96a-186b6aa7a02e"},"vehicle_type_id":"4","last_reported":1703099050,"current_range_meters":22000,"station_id":"ce4bhp92rcd13ifvqhbg","pricing_plan_id":"free"},{"bike_id":"21f4a169-6e35-4a8e-94ba-dad1b033815c","system_id":"levelo_inurba_marseille","lat":43.310785,"lon":5.424305,"is_reserved":false,"is_disabled":false,"rental_uris":{"android":"levelo://app?vid=21f4a169-6e35-4a8e-94ba-dad1b033815c","ios":"levelo://app?vid=21f4a169-6e35-4a8e-94ba-dad1b033815c"},"vehicle_type_id":"4","last_reported":1703099050,"current_range_meters":4800,"station_id":"ce4bhp92rcd13ifvqhag","pricing_plan_id":"free"},{"bike_id":"6e68da4c-e104-449b-b675-1a0f7da0547c","system_id":"levelo_inurba_marseille","lat":43.310785,"lon":5.424305,"is_reserved":false,"is_disabled":false,"rental_uris":{"android":"levelo://app?vid=6e68da4c-e104-449b-b675-1a0f7da0547c","ios":"levelo://app?vid=6e68da4c-e104-449b-b675-1a0f7da0547c"},"vehicle_type_id":"4","last_reported":1703099050,"current_range_meters":18400,"station_id":"ce4bhp92rcd13ifvqhag","pricing_plan_id":"free"},{"bike_id":"b1217991-eb34-4f8d-83d1-0f20b4ac1aa1","system_id":"levelo_inurba_marseille","lat":43.310785,"lon":5.424305,"is_reserved":false,"is_disabled":false,"rental_uris":{"android":"levelo://app?vid=b1217991-eb34-4f8d-83d1-0f20b4ac1aa1","ios":"levelo://app?vid=b1217991-eb34-4f8d-83d1-0f20b4ac1aa1"},"vehicle_type_id":"4","last_reported":1703099050,"current_range_meters":23600,"station_id":"ce4bhp92rcd13ifvqhag","pricing_plan_id":"free"},{"bike_id":"974dc7db-ff3c-4554-8964-132f9db52d9b","system_id":"levelo_inurba_marseille","lat":43.276092,"lon":5.395289,"is_reserved":false,"is_disabled":false,"rental_uris":{"android":"levelo://app?vid=974dc7db-ff3c-4554-8964-132f9db52d9b","ios":"levelo://app?vid=974dc7db-ff3c-4554-8964-132f9db52d9b"},"vehicle_type_id":"4","last_reported":1703099050,"current_range_meters":3200,"station_id":"","pricing_plan_id":"free"},{"bike_id":"eeab07b9-8349-4f24-9799-eca385be2f04","system_id":"levelo_inurba_marseille","lat":43.295523,"lon":5.422926,"is_reserved":false,"is_disabled":false,"rental_uris":{"android":"levelo://app?vid=eeab07b9-8349-4f24-9799-eca385be2f04","ios":"levelo://app?vid=eeab07b9-8349-4f24-9799-eca385be2f04"},"vehicle_type_id":"4","last_reported":1703099050,"current_range_meters":20400,"station_id":"ce4bhph2rcd13ifvqhdg","pricing_plan_id":"free"},{"bike_id":"98a340da-f753-4516-9884-ebd83f943ec7","system_id":"levelo_inurba_marseille","lat":43.295523,"lon":5.422926,"is_reserved":false,"is_disabled":false,"rental_uris":{"android":"levelo://app?vid=98a340da-f753-4516-9884-ebd83f943ec7","ios":"levelo://app?vid=98a340da-f753-4516-9884-ebd83f943ec7"},"vehicle_type_id":"4","last_reported":1703099050,"current_range_meters":23200,"station_id":"ce4bhph2rcd13ifvqhdg","pricing_plan_id":"free"},{"bike_id":"8a148d60-4e27-472e-b053-890372d6c441","system_id":"levelo_inurba_marseille","lat":43.278128,"lon":5.407195,"is_reserved":false,"is_disabled":false,"rental_uris":{"android":"levelo://app?vid=8a148d60-4e27-472e-b053-890372d6c441","ios":"levelo://app?vid=8a148d60-4e27-472e-b053-890372d6c441"},"vehicle_type_id":"4","last_reported":1703099050,"current_range_meters":7600,"station_id":"ce4bhnh2rcd13ifvqgtg","pricing_plan_id":"free"},{"bike_id":"f5f71290-e09c-4041-b2b4-2ce3e8cff220","system_id":"levelo_inurba_marseille","lat":43.278128,"lon":5.407195,"is_reserved":false,"is_disabled":false,"rental_uris":{"android":"levelo://app?vid=f5f71290-e09c-4041-b2b4-2ce3e8cff220","ios":"levelo://app?vid=f5f71290-e09c-4041-b2b4-2ce3e8cff220"},"vehicle_type_id":"4","last_reported":1703099050,"current_range_meters":17200,"station_id":"ce4bhnh2rcd13ifvqgtg","pricing_plan_id":"free"},{"bike_id":"1cf29c8c-3aa7-45da-9151-6233028e2361","system_id":"levelo_inurba_marseille","lat":43.278128,"lon":5.407195,"is_reserved":false,"is_disabled":false,"rental_uris":{"android":"levelo://app?vid=1cf29c8c-3aa7-45da-9151-6233028e2361","ios":"levelo://app?vid=1cf29c8c-3aa7-45da-9151-6233028e2361"},"vehicle_type_id":"4","last_reported":1703099050,"current_range_meters":18400,"station_id":"ce4bhnh2rcd13ifvqgtg","pricing_plan_id":"free"},{"bike_id":"74943036-25cd-4db1-9d64-a6233819c22c","system_id":"levelo_inurba_marseille","lat":43.278128,"lon":5.407195,"is_reserved":false,"is_disabled":false,"rental_uris":{"android":"levelo://app?vid=74943036-25cd-4db1-9d64-a6233819c22c","ios":"levelo://app?vid=74943036-25cd-4db1-9d64-a6233819c22c"},"vehicle_type_id":"4","last_reported":1703099050,"current_range_meters":21600,"station_id":"ce4bhnh2rcd13ifvqgtg","pricing_plan_id":"free"},{"bike_id":"b5256d90-edcd-4464-ba20-d3a39a54a145","system_id":"levelo_inurba_marseille","lat":43.278128,"lon":5.407195,"is_reserved":false,"is_disabled":false,"rental_uris":{"android":"levelo://app?vid=b5256d90-edcd-4464-ba20-d3a39a54a145","ios":"levelo://app?vid=b5256d90-edcd-4464-ba20-d3a39a54a145"},"vehicle_type_id":"4","last_reported":1703099050,"current_range_meters":0,"station_id":"ce4bhnh2rcd13ifvqgtg","pricing_plan_id":"free"},{"bike_id":"15e97754-3170-45f7-876f-aac75b656ea9","system_id":"levelo_inurba_marseille","lat":43.279465,"lon":5.410561,"is_reserved":false,"is_disabled":false,"rental_uris":{"android":"levelo://app?vid=15e97754-3170-45f7-876f-aac75b656ea9","ios":"levelo://app?vid=15e97754-3170-45f7-876f-aac75b656ea9"},"vehicle_type_id":"4","last_reported":1703099050,"current_range_meters":5200,"station_id":"ce4bhnp2rcd13ifvqh0g","pricing_plan_id":"free"},{"bike_id":"29bcf119-570b-4f61-9c82-59630c295d23","system_id":"levelo_inurba_marseille","lat":43.279465,"lon":5.410561,"is_reserved":false,"is_disabled":false,"rental_uris":{"android":"levelo://app?vid=29bcf119-570b-4f61-9c82-59630c295d23","ios":"levelo://app?vid=29bcf119-570b-4f61-9c82-59630c295d23"},"vehicle_type_id":"4","last_reported":1703099050,"current_range_meters":9200,"station_id":"ce4bhnp2rcd13ifvqh0g","pricing_plan_id":"free"},{"bike_id":"6ae8773f-81f8-4a7f-9658-397efcbaff7f","system_id":"levelo_inurba_marseille","lat":43.26681,"lon":5.382694,"is_reserved":false,"is_disabled":false,"rental_uris":{"android":"levelo://app?vid=6ae8773f-81f8-4a7f-9658-397efcbaff7f","ios":"levelo://app?vid=6ae8773f-81f8-4a7f-9658-397efcbaff7f"},"vehicle_type_id":"4","last_reported":1703099050,"current_range_meters":14400,"station_id":"ce4bhg92rcd13ifvqf90","pricing_plan_id":"free"},{"bike_id":"3a70e7f8-3b22-4487-b0ed-f7fe858cc0e5","system_id":"levelo_inurba_marseille","lat":43.265714,"lon":5.372891,"is_reserved":false,"is_disabled":false,"rental_uris":{"android":"levelo://app?vid=3a70e7f8-3b22-4487-b0ed-f7fe858cc0e5","ios":"levelo://app?vid=3a70e7f8-3b22-4487-b0ed-f7fe858cc0e5"},"vehicle_type_id":"4","last_reported":1703099050,"current_range_meters":24000,"station_id":"ce4bhg12rcd13ifvqf70","pricing_plan_id":"free"},{"bike_id":"9e6049e5-2729-42f4-9ea4-a4e78d8e97f5","system_id":"levelo_inurba_marseille","lat":43.265714,"lon":5.372891,"is_reserved":false,"is_disabled":false,"rental_uris":{"android":"levelo://app?vid=9e6049e5-2729-42f4-9ea4-a4e78d8e97f5","ios":"levelo://app?vid=9e6049e5-2729-42f4-9ea4-a4e78d8e97f5"},"vehicle_type_id":"4","last_reported":1703099050,"current_range_meters":0,"station_id":"ce4bhg12rcd13ifvqf70","pricing_plan_id":"free"},{"bike_id":"d87498fa-4fbc-4a09-a3d8-7bdc111c4f52","system_id":"levelo_inurba_marseille","lat":43.265571,"lon":5.390032,"is_reserved":false,"is_disabled":false,"rental_uris":{"android":"levelo://app?vid=d87498fa-4fbc-4a09-a3d8-7bdc111c4f52","ios":"levelo://app?vid=d87498fa-4fbc-4a09-a3d8-7bdc111c4f52"},"vehicle_type_id":"4","last_reported":1703099050,"current_range_meters":1600,"station_id":"ce4bhe12rcd13ifvqf30","pricing_plan_id":"free"},{"bike_id":"5006e3dc-393d-4ba4-99de-184a50f98255","system_id":"levelo_inurba_marseille","lat":43.265571,"lon":5.390032,"is_reserved":false,"is_disabled":false,"rental_uris":{"android":"levelo://app?vid=5006e3dc-393d-4ba4-99de-184a50f98255","ios":"levelo://app?vid=5006e3dc-393d-4ba4-99de-184a50f98255"},"vehicle_type_id":"4","last_reported":1703099050,"current_range_meters":16800,"station_id":"ce4bhe12rcd13ifvqf30","pricing_plan_id":"free"},{"bike_id":"f9eabdde-510f-4afc-ac08-e30aa5965ccf","system_id":"levelo_inurba_marseille","lat":43.265571,"lon":5.390032,"is_reserved":false,"is_disabled":false,"rental_uris":{"android":"levelo://app?vid=f9eabdde-510f-4afc-ac08-e30aa5965ccf","ios":"levelo://app?vid=f9eabdde-510f-4afc-ac08-e30aa5965ccf"},"vehicle_type_id":"4","last_reported":1703099050,"current_range_meters":23200,"station_id":"ce4bhe12rcd13ifvqf30","pricing_plan_id":"free"},{"bike_id":"375ea37e-dfd5-4b25-8c81-dd484cac2012","system_id":"levelo_inurba_marseille","lat":43.265571,"lon":5.390032,"is_reserved":false,"is_disabled":false,"rental_uris":{"android":"levelo://app?vid=375ea37e-dfd5-4b25-8c81-dd484cac2012","ios":"levelo://app?vid=375ea37e-dfd5-4b25-8c81-dd484cac2012"},"vehicle_type_id":"4","last_reported":1703099050,"current_range_meters":12000,"station_id":"ce4bhe12rcd13ifvqf30","pricing_plan_id":"free"},{"bike_id":"582c9553-d280-4330-85c9-9a01c9dfbe6e","system_id":"levelo_inurba_marseille","lat":43.265571,"lon":5.390032,"is_reserved":false,"is_disabled":false,"rental_uris":{"android":"levelo://app?vid=582c9553-d280-4330-85c9-9a01c9dfbe6e","ios":"levelo://app?vid=582c9553-d280-4330-85c9-9a01c9dfbe6e"},"vehicle_type_id":"4","last_reported":1703099050,"current_range_meters":17200,"station_id":"ce4bhe12rcd13ifvqf30","pricing_plan_id":"free"},{"bike_id":"ac54cdd8-7fee-446e-ab4a-72dcfc159ee0","system_id":"levelo_inurba_marseille","lat":43.265569,"lon":5.390047,"is_reserved":false,"is_disabled":false,"rental_uris":{"android":"levelo://app?vid=ac54cdd8-7fee-446e-ab4a-72dcfc159ee0","ios":"levelo://app?vid=ac54cdd8-7fee-446e-ab4a-72dcfc159ee0"},"vehicle_type_id":"4","last_reported":1703099050,"current_range_meters":13200,"station_id":"ce4bhe12rcd13ifvqf30","pricing_plan_id":"free"},{"bike_id":"7c7bda9c-0c24-4a9a-a682-69088dd9a72b","system_id":"levelo_inurba_marseille","lat":43.26931,"lon":5.40251,"is_reserved":false,"is_disabled":false,"rental_uris":{"android":"levelo://app?vid=7c7bda9c-0c24-4a9a-a682-69088dd9a72b","ios":"levelo://app?vid=7c7bda9c-0c24-4a9a-a682-69088dd9a72b"},"vehicle_type_id":"4","last_reported":1703099050,"current_range_meters":3600,"station_id":"cjm6bp8fraef2m0cb0m0","pricing_plan_id":"free"},{"bike_id":"8d291187-a0e2-454b-a259-16afd326eb80","system_id":"levelo_inurba_marseille","lat":43.317104,"lon":5.436818,"is_reserved":false,"is_disabled":false,"rental_uris":{"android":"levelo://app?vid=8d291187-a0e2-454b-a259-16afd326eb80","ios":"levelo://app?vid=8d291187-a0e2-454b-a259-16afd326eb80"},"vehicle_type_id":"4","last_reported":1703099050,"current_range_meters":26400,"station_id":"ce4bhp92rcd13ifvqhcg","pricing_plan_id":"free"},{"bike_id":"11fec7ff-4782-4f85-9986-d176c2d66faa","system_id":"levelo_inurba_marseille","lat":43.271368,"lon":5.40928,"is_reserved":false,"is_disabled":false,"rental_uris":{"android":"levelo://app?vid=11fec7ff-4782-4f85-9986-d176c2d66faa","ios":"levelo://app?vid=11fec7ff-4782-4f85-9986-d176c2d66faa"},"vehicle_type_id":"4","last_reported":1703099050,"current_range_meters":31600,"station_id":"ce4bhl12rcd13ifvqgf0","pricing_plan_id":"free"},{"bike_id":"ad28e483-36d4-48ac-9e0f-b7d268ca9026","system_id":"levelo_inurba_marseille","lat":43.271388,"lon":5.409269,"is_reserved":false,"is_disabled":false,"rental_uris":{"android":"levelo://app?vid=ad28e483-36d4-48ac-9e0f-b7d268ca9026","ios":"levelo://app?vid=ad28e483-36d4-48ac-9e0f-b7d268ca9026"},"vehicle_type_id":"4","last_reported":1703099050,"current_range_meters":12000,"station_id":"ce4bhl12rcd13ifvqgf0","pricing_plan_id":"free"},{"bike_id":"2d71132e-75da-4e01-9a4a-d237894ca776","system_id":"levelo_inurba_marseille","lat":43.271368,"lon":5.40928,"is_reserved":false,"is_disabled":false,"rental_uris":{"android":"levelo://app?vid=2d71132e-75da-4e01-9a4a-d237894ca776","ios":"levelo://app?vid=2d71132e-75da-4e01-9a4a-d237894ca776"},"vehicle_type_id":"4","last_reported":1703099050,"current_range_meters":23600,"station_id":"ce4bhl12rcd13ifvqgf0","pricing_plan_id":"free"},{"bike_id":"d649cf14-2bf7-463e-a525-1efdf77af8a1","system_id":"levelo_inurba_marseille","lat":43.267959,"lon":5.402685,"is_reserved":false,"is_disabled":false,"rental_uris":{"android":"levelo://app?vid=d649cf14-2bf7-463e-a525-1efdf77af8a1","ios":"levelo://app?vid=d649cf14-2bf7-463e-a525-1efdf77af8a1"},"vehicle_type_id":"4","last_reported":1703099050,"current_range_meters":25200,"station_id":"ce501612rcd8frsf0b60","pricing_plan_id":"free"},{"bike_id":"18dbda2e-12d1-45c1-914a-dc922409c40b","system_id":"levelo_inurba_marseille","lat":43.298768,"lon":5.43643,"is_reserved":false,"is_disabled":false,"rental_uris":{"android":"levelo://app?vid=18dbda2e-12d1-45c1-914a-dc922409c40b","ios":"levelo://app?vid=18dbda2e-12d1-45c1-914a-dc922409c40b"},"vehicle_type_id":"4","last_reported":1703099050,"current_range_meters":2400,"station_id":"ce4bhpp2rcd13ifvqhfg","pricing_plan_id":"free"},{"bike_id":"74b86536-4297-41f4-84b8-00cceb8360b3","system_id":"levelo_inurba_marseille","lat":43.281548,"lon":5.42643,"is_reserved":false,"is_disabled":false,"rental_uris":{"android":"levelo://app?vid=74b86536-4297-41f4-84b8-00cceb8360b3","ios":"levelo://app?vid=74b86536-4297-41f4-84b8-00cceb8360b3"},"vehicle_type_id":"4","last_reported":1703099050,"current_range_meters":30000,"station_id":"ce4bhnh2rcd13ifvqgug","pricing_plan_id":"free"},{"bike_id":"f1fc0061-6850-415d-a8e2-0a92e93b0059","system_id":"levelo_inurba_marseille","lat":43.281548,"lon":5.42643,"is_reserved":false,"is_disabled":false,"rental_uris":{"android":"levelo://app?vid=f1fc0061-6850-415d-a8e2-0a92e93b0059","ios":"levelo://app?vid=f1fc0061-6850-415d-a8e2-0a92e93b0059"},