{"last_updated":1748141424,"ttl":60,"version":"2.2","data":{"bikes":[{"bike_id":"82dfcc7c-f385-419c-896b-d78c2000f617","system_id":"levelo_inurba_marseille","lat":43.30419,"lon":5.38903,"is_reserved":false,"is_disabled":false,"rental_uris":{"android":"levelo://app?vid=82dfcc7c-f385-419c-896b-d78c2000f617","ios":"levelo://app?vid=82dfcc7c-f385-419c-896b-d78c2000f617"},"vehicle_type_id":"4","last_reported":1748141424,"current_range_meters":2800,"station_id":"ce4bgk12rcd13ifvqbi0","pricing_plan_id":"cebpf4jnsgd1na2vs0mg"},{"bike_id":"0935e169-183e-4122-8cf0-1daeef7f6022","system_id":"levelo_inurba_marseille","lat":43.28669,"lon":5.36348,"is_reserved":false,"is_disabled":false,"rental_uris":{"android":"levelo://app?vid=0935e169-183e-4122-8cf0-1daeef7f6022","ios":"levelo://app?vid=0935e169-183e-4122-8cf0-1daeef7f6022"},"vehicle_type_id":"4","last_reported":1748141424,"current_range_meters":3200,"station_id":"ce4bhah2rcd13ifvqej0","pricing_plan_id":"cebpf4jnsgd1na2vs0mg"},{"bike_id":"4c964f5d-e069-4f21-b01b-d956923b5719","system_id":"levelo_inurba_marseille","lat":43.23191,"lon":5.39982,"is_reserved":false,"is_disabled":false,"rental_uris":{"android":"levelo://app?vid=4c964f5d-e069-4f21-b01b-d956923b5719","ios":"levelo://app?vid=4c964f5d-e069-4f21-b01b-d956923b5719"},"vehicle_type_id":"4","last_reported":1748141424,"current_range_meters":3200,"station_id":"ce4bhn12rcd13ifvqgqg","pricing_plan_id":"cebpf4jnsgd1na2vs0mg"},{"bike_id":"194666df-d60f-4dbf-918c-87098827f0fb","system_id":"levelo_inurba_marseille","lat":43.29403,"lon":5.37919,"is_reserved":false,"is_disabled":true,"rental_uris":{"android":"levelo://app?vid=194666df-d60f-4dbf-918c-87098827f0fb","ios":"levelo://app?vid=194666df-d60f-4dbf-918c-87098827f0fb"},"vehicle_type_id":"4","last_reported":1748141424,"current_range_meters":3200,"station_id":"","pricing_plan_id":"cebpf4jnsgd1na2vs0mg"},{"bike_id":"dfc12ae8-1c26-45e1-8fd5-25609a6f4238","system_id":"levelo_inurba_marseille","lat":43.270729,"lon":5.422829,"is_reserved":false,"is_disabled":false,"rental_uris":{"android":"levelo://app?vid=dfc12ae8-1c26-45e1-8fd5-25609a6f4238","ios":"levelo://app?vid=dfc12ae8-1c26-45e1-8fd5-25609a6f4238"},"vehicle_type_id":"4","last_reported":1748141424,"current_range_meters":3200,"station_id":"ce4bhk92rcd13ifvqgb0","pricing_plan_id":"cebpf4jnsgd1na2vs0mg"},{"bike_id":"6e40d5dc-b2b6-481b-80e5-6a12d35990fd","system_id":"levelo_inurba_marseille","lat":43.28403,"lon":5.37532,"is_reserved":false,"is_disabled":false,"rental_uris":{"android":"levelo://app?vid=6e40d5dc-b2b6-481b-80e5-6a12d35990fd","ios":"levelo://app?vid=6e40d5dc-b2b6-481b-80e5-6a12d35990fd"},"vehicle_type_id":"4","last_reported":1748141424,"current_range_meters":3200,"station_id":"ce4bh412rcd13ifvqds0","pricing_plan_id":"cebpf4jnsgd1na2vs0mg"},{"bike_id":"a2f1296c-e4fc-45d6-be73-b896b487012e","system_id":"levelo_inurba_marseille","lat":43.28614,"lon":5.35101,"is_reserved":false,"is_disabled":true,"rental_uris":{"android":"levelo://app?vid=a2f1296c-e4fc-45d6-be73-b896b487012e","ios":"levelo://app?vid=a2f1296c-e4fc-45d6-be73-b896b487012e"},"vehicle_type_id":"4","last_reported":1748141424,"current_range_meters":3600,"station_id":"ce4bhch2rcd13ifvqeug","pricing_plan_id":"cebpf4jnsgd1na2vs0mg"},{"bike_id":"159074da-e8aa-43e1-a6e0-7b97a7a41596","system_id":"levelo_inurba_marseille","lat":43.29276,"lon":5.40122,"is_reserved":false,"is_disabled":false,"rental_uris":{"android":"levelo://app?vid=159074da-e8aa-43e1-a6e0-7b97a7a41596","ios":"levelo://app?vid=159074da-e8aa-43e1-a6e0-7b97a7a41596"},"vehicle_type_id":"4","last_reported":1748141424,"current_range_meters":3600,"station_id":"ce4bh312rcd13ifvqdk0","pricing_plan_id":"cebpf4jnsgd1na2vs0mg"},{"bike_id":"e449fa44-6674-4246-92b2-b22286268914","system_id":"levelo_inurba_marseille","lat":43.29776,"lon":5.393233,"is_reserved":false,"is_disabled":false,"rental_uris":{"android":"levelo://app?vid=e449fa44-6674-4246-92b2-b22286268914","ios":"levelo://app?vid=e449fa44-6674-4246-92b2-b22286268914"},"vehicle_type_id":"4","last_reported":1748141424,"current_range_meters":3600,"station_id":"ce4bhop2rcd13ifvqh8g","pricing_plan_id":"cebpf4jnsgd1na2vs0mg"},{"bike_id":"398ac2c0-7185-42b7-b995-ea97c3f0a79d","system_id":"levelo_inurba_marseille","lat":43.23199,"lon":5.35549,"is_reserved":false,"is_disabled":false,"rental_uris":{"android":"levelo://app?vid=398ac2c0-7185-42b7-b995-ea97c3f0a79d","ios":"levelo://app?vid=398ac2c0-7185-42b7-b995-ea97c3f0a79d"},"vehicle_type_id":"4","last_reported":1748141424,"current_range_meters":3600,"station_id":"ce4bhu92rcd13ifvqi70","pricing_plan_id":"cebpf4jnsgd1na2vs0mg"},{"bike_id":"284b577c-0542-435a-953c-52a6e8a6b86b","system_id":"levelo_inurba_marseille","lat":43.290395,"lon":5.399447,"is_reserved":false,"is_disabled":false,"rental_uris":{"android":"levelo://app?vid=284b577c-0542-435a-953c-52a6e8a6b86b","ios":"levelo://app?vid=284b577c-0542-435a-953c-52a6e8a6b86b"},"vehicle_type_id":"4","last_reported":1748141424,"current_range_meters":3600,"station_id":"ce4bh392rcd13ifvqdm0","pricing_plan_id":"cebpf4jnsgd1na2vs0mg"},{"bike_id":"2fe488bd-786a-47f2-b73f-3b9928b36002","system_id":"levelo_inurba_marseille","lat":43.31489,"lon":5.373125,"is_reserved":false,"is_disabled":false,"rental_uris":{"android":"levelo://app?vid=2fe488bd-786a-47f2-b73f-3b9928b36002","ios":"levelo://app?vid=2fe488bd-786a-47f2-b73f-3b9928b36002"},"vehicle_type_id":"4","last_reported":1748141424,"current_range_meters":3600,"station_id":"ce4bgt12rcd13ifvqcd0","pricing_plan_id":"cebpf4jnsgd1na2vs0mg"},{"bike_id":"dcc8952c-72f3-491b-a5f7-8b6adc5da2dd","system_id":"levelo_inurba_marseille","lat":43.293023,"lon":5.371818,"is_reserved":false,"is_disabled":true,"rental_uris":{"android":"levelo://app?vid=dcc8952c-72f3-491b-a5f7-8b6adc5da2dd","ios":"levelo://app?vid=dcc8952c-72f3-491b-a5f7-8b6adc5da2dd"},"vehicle_type_id":"4","last_reported":1748141424,"current_range_meters":3600,"station_id":"ce4bgh92rcd13ifvqb40","pricing_plan_id":"cebpf4jnsgd1na2vs0mg"},{"bike_id":"fe336ded-9bcb-4f5e-99dd-6fa7c6b64bf7","system_id":"levelo_inurba_marseille","lat":43.27952,"lon":5.41038,"is_reserved":false,"is_disabled":false,"rental_uris":{"android":"levelo://app?vid=fe336ded-9bcb-4f5e-99dd-6fa7c6b64bf7","ios":"levelo://app?vid=fe336ded-9bcb-4f5e-99dd-6fa7c6b64bf7"},"vehicle_type_id":"4","last_reported":1748141424,"current_range_meters":4000,"station_id":"ce4bhnp2rcd13ifvqh0g","pricing_plan_id":"cebpf4jnsgd1na2vs0mg"},{"bike_id":"aef9a4a5-b013-4996-b2db-f5909259200f","system_id":"levelo_inurba_marseille","lat":43.28714,"lon":5.37953,"is_reserved":false,"is_disabled":false,"rental_uris":{"android":"levelo://app?vid=aef9a4a5-b013-4996-b2db-f5909259200f","ios":"levelo://app?vid=aef9a4a5-b013-4996-b2db-f5909259200f"},"vehicle_type_id":"4","last_reported":1748141424,"current_range_meters":4000,"station_id":"ce4bh9p2rcd13ifvqec0","pricing_plan_id":"cebpf4jnsgd1na2vs0mg"},{"bike_id":"c0a79542-9a87-4451-9d56-665f570623b7","system_id":"levelo_inurba_marseille","lat":43.2572,"lon":5.4111,"is_reserved":false,"is_disabled":false,"rental_uris":{"android":"levelo://app?vid=c0a79542-9a87-4451-9d56-665f570623b7","ios":"levelo://app?vid=c0a79542-9a87-4451-9d56-665f570623b7"},"vehicle_type_id":"4","last_reported":1748141424,"current_range_meters":4000,"station_id":"ce4bhkp2rcd13ifvqgd0","pricing_plan_id":"cebpf4jnsgd1na2vs0mg"},{"bike_id":"3a2244df-611f-4b6d-a778-36b52e274311","system_id":"levelo_inurba_marseille","lat":43.24626,"lon":5.382,"is_reserved":false,"is_disabled":false,"rental_uris":{"android":"levelo://app?vid=3a2244df-611f-4b6d-a778-36b52e274311","ios":"levelo://app?vid=3a2244df-611f-4b6d-a778-36b52e274311"},"vehicle_type_id":"4","last_reported":1748141424,"current_range_meters":4000,"station_id":"ce4bhih2rcd13ifvqfr0","pricing_plan_id":"cebpf4jnsgd1na2vs0mg"},{"bike_id":"6969cd26-dfdf-44c5-82ef-1be2a09e4deb","system_id":"levelo_inurba_marseille","lat":43.28707,"lon":5.37954,"is_reserved":false,"is_disabled":false,"rental_uris":{"android":"levelo://app?vid=6969cd26-dfdf-44c5-82ef-1be2a09e4deb","ios":"levelo://app?vid=6969cd26-dfdf-44c5-82ef-1be2a09e4deb"},"vehicle_type_id":"4","last_reported":1748141424,"current_range_meters":4400,"station_id":"ce4bh9p2rcd13ifvqec0","pricing_plan_id":"cebpf4jnsgd1na2vs0mg"},{"bike_id":"33855e98-85ee-4f53-8053-70d10855fe00","system_id":"levelo_inurba_marseille","lat":43.304386,"lon":5.388882,"is_reserved":false,"is_disabled":false,"rental_uris":{"android":"levelo://app?vid=33855e98-85ee-4f53-8053-70d10855fe00","ios":"levelo://app?vid=33855e98-85ee-4f53-8053-70d10855fe00"},"vehicle_type_id":"4","last_reported":1748141424,"current_range_meters":4400,"station_id":"ce4bgk12rcd13ifvqbi0","pricing_plan_id":"cebpf4jnsgd1na2vs0mg"},{"bike_id":"2bc939ae-6e84-4f6e-a090-fd6832ec0eac","system_id":"levelo_inurba_marseille","lat":43.32235,"lon":5.43976,"is_reserved":false,"is_disabled":false,"rental_uris":{"android":"levelo://app?vid=2bc939ae-6e84-4f6e-a090-fd6832ec0eac","ios":"levelo://app?vid=2bc939ae-6e84-4f6e-a090-fd6832ec0eac"},"vehicle_type_id":"4","last_reported":1748141424,"current_range_meters":4400,"station_id":"","pricing_plan_id":"cebpf4jnsgd1na2vs0mg"},{"bike_id":"3ae8acbf-de52-4f99-a222-ca5e8dbbd9da","system_id":"levelo_inurba_marseille","lat":43.27045,"lon":5.42301,"is_reserved":false,"is_disabled":true,"rental_uris":{"android":"levelo://app?vid=3ae8acbf-de52-4f99-a222-ca5e8dbbd9da","ios":"levelo://app?vid=3ae8acbf-de52-4f99-a222-ca5e8dbbd9da"},"vehicle_type_id":"4","last_reported":1748141424,"current_range_meters":4400,"station_id":"ce4bhk92rcd13ifvqgb0","pricing_plan_id":"cebpf4jnsgd1na2vs0mg"},{"bike_id":"be599378-6b7f-4069-9291-b5e50bafb0f1","system_id":"levelo_inurba_marseille","lat":43.2987,"lon":5.3974,"is_reserved":false,"is_disabled":false,"rental_uris":{"android":"levelo://app?vid=be599378-6b7f-4069-9291-b5e50bafb0f1","ios":"levelo://app?vid=be599378-6b7f-4069-9291-b5e50bafb0f1"},"vehicle_type_id":"4","last_reported":1748141424,"current_range_meters":4800,"station_id":"ce4bh0h2rcd13ifvqd50","pricing_plan_id":"cebpf4jnsgd1na2vs0mg"},{"bike_id":"0f2ca5a3-2c1b-4beb-af53-cad488b760c0","system_id":"levelo_inurba_marseille","lat":43.2894,"lon":5.35995,"is_reserved":false,"is_disabled":false,"rental_uris":{"android":"levelo://app?vid=0f2ca5a3-2c1b-4beb-af53-cad488b760c0","ios":"levelo://app?vid=0f2ca5a3-2c1b-4beb-af53-cad488b760c0"},"vehicle_type_id":"4","last_reported":1748141424,"current_range_meters":4800,"station_id":"","pricing_plan_id":"cebpf4jnsgd1na2vs0mg"},{"bike_id":"8e57d20b-c38b-459f-8f5e-0fe106cc372c","system_id":"levelo_inurba_marseille","lat":43.253166,"lon":5.393646,"is_reserved":false,"is_disabled":false,"rental_uris":{"android":"levelo://app?vid=8e57d20b-c38b-459f-8f5e-0fe106cc372c","ios":"levelo://app?vid=8e57d20b-c38b-459f-8f5e-0fe106cc372c"},"vehicle_type_id":"4","last_reported":1748141424,"current_range_meters":4800,"station_id":"","pricing_plan_id":"cebpf4jnsgd1na2vs0mg"},{"bike_id":"a70fd15a-39d7-485d-b9e1-96a1f3cbba09","system_id":"levelo_inurba_marseille","lat":43.33013,"lon":5.39046,"is_reserved":false,"is_disabled":false,"rental_uris":{"android":"levelo://app?vid=a70fd15a-39d7-485d-b9e1-96a1f3cbba09","ios":"levelo://app?vid=a70fd15a-39d7-485d-b9e1-96a1f3cbba09"},"vehicle_type_id":"4","last_reported":1748141424,"current_range_meters":4800,"station_id":"ce4bhr92rcd13ifvqhrg","pricing_plan_id":"cebpf4jnsgd1na2vs0mg"},{"bike_id":"6b656b57-2396-4108-a601-ff54453daa50","system_id":"levelo_inurba_marseille","lat":43.2767,"lon":5.38882,"is_reserved":false,"is_disabled":false,"rental_uris":{"android":"levelo://app?vid=6b656b57-2396-4108-a601-ff54453daa50","ios":"levelo://app?vid=6b656b57-2396-4108-a601-ff54453daa50"},"vehicle_type_id":"4","last_reported":1748141424,"current_range_meters":4800,"station_id":"ce4bhi12rcd13ifvqfo0","pricing_plan_id":"cebpf4jnsgd1na2vs0mg"},{"bike_id":"664f2b2c-4651-4d39-8a4f-7e9486bd1102","system_id":"levelo_inurba_marseille","lat":43.30426,"lon":5.38896,"is_reserved":false,"is_disabled":false,"rental_uris":{"android":"levelo://app?vid=664f2b2c-4651-4d39-8a4f-7e9486bd1102","ios":"levelo://app?vid=664f2b2c-4651-4d39-8a4f-7e9486bd1102"},"vehicle_type_id":"4","last_reported":1748141424,"current_range_meters":4800,"station_id":"ce4bgk12rcd13ifvqbi0","pricing_plan_id":"cebpf4jnsgd1na2vs0mg"},{"bike_id":"21d4ae98-4a80-4105-9261-58511cd1d555","system_id":"levelo_inurba_marseille","lat":43.295565,"lon":5.422948,"is_reserved":false,"is_disabled":false,"rental_uris":{"android":"levelo://app?vid=21d4ae98-4a80-4105-9261-58511cd1d555","ios":"levelo://app?vid=21d4ae98-4a80-4105-9261-58511cd1d555"},"vehicle_type_id":"4","last_reported":1748141424,"current_range_meters":4800,"station_id":"ce4bhph2rcd13ifvqhdg","pricing_plan_id":"cebpf4jnsgd1na2vs0mg"},{"bike_id":"fa529a29-8d21-4f13-9783-e1708a99c344","system_id":"levelo_inurba_marseille","lat":43.246516,"lon":5.388955,"is_reserved":false,"is_disabled":false,"rental_uris":{"android":"levelo://app?vid=fa529a29-8d21-4f13-9783-e1708a99c344","ios":"levelo://app?vid=fa529a29-8d21-4f13-9783-e1708a99c344"},"vehicle_type_id":"4","last_reported":1748141424,"current_range_meters":5600,"station_id":"ce4bhlh2rcd13ifvqgig","pricing_plan_id":"cebpf4jnsgd1na2vs0mg"},{"bike_id":"d256c6a4-d35b-4c32-b7db-2bac8ab63b70","system_id":"levelo_inurba_marseille","lat":43.23195,"lon":5.35553,"is_reserved":false,"is_disabled":false,"rental_uris":{"android":"levelo://app?vid=d256c6a4-d35b-4c32-b7db-2bac8ab63b70","ios":"levelo://app?vid=d256c6a4-d35b-4c32-b7db-2bac8ab63b70"},"vehicle_type_id":"4","last_reported":1748141424,"current_range_meters":5600,"station_id":"ce4bhu92rcd13ifvqi70","pricing_plan_id":"cebpf4jnsgd1na2vs0mg"},{"bike_id":"b09519d1-09d9-4020-a2d8-3c91b97ac3f4","system_id":"levelo_inurba_marseille","lat":43.27666,"lon":5.38874,"is_reserved":false,"is_disabled":false,"rental_uris":{"android":"levelo://app?vid=b09519d1-09d9-4020-a2d8-3c91b97ac3f4","ios":"levelo://app?vid=b09519d1-09d9-4020-a2d8-3c91b97ac3f4"},"vehicle_type_id":"4","last_reported":1748141424,"current_range_meters":5600,"station_id":"ce4bhi12rcd13ifvqfo0","pricing_plan_id":"cebpf4jnsgd1na2vs0mg"},{"bike_id":"3ea4b2c4-2e0a-4918-a63d-22374305809a","system_id":"levelo_inurba_marseille","lat":43.31125,"lon":5.37758,"is_reserved":false,"is_disabled":false,"rental_uris":{"android":"levelo://app?vid=3ea4b2c4-2e0a-4918-a63d-22374305809a","ios":"levelo://app?vid=3ea4b2c4-2e0a-4918-a63d-22374305809a"},"vehicle_type_id":"4","last_reported":1748141424,"current_range_meters":5600,"station_id":"ce4bgt92rcd13ifvqcg0","pricing_plan_id":"cebpf4jnsgd1na2vs0mg"},{"bike_id":"5aff08f0-96dc-4aa7-83ce-16fcd3250d39","system_id":"levelo_inurba_marseille","lat":43.308783,"lon":5.396527,"is_reserved":false,"is_disabled":false,"rental_uris":{"android":"levelo://app?vid=5aff08f0-96dc-4aa7-83ce-16fcd3250d39","ios":"levelo://app?vid=5aff08f0-96dc-4aa7-83ce-16fcd3250d39"},"vehicle_type_id":"4","last_reported":1748141424,"current_range_meters":6000,"station_id":"ce4bh012rcd13ifvqcv0","pricing_plan_id":"cebpf4jnsgd1na2vs0mg"},{"bike_id":"f3d1c10e-7331-4d70-87c4-d8d1e4be78e2","system_id":"levelo_inurba_marseille","lat":43.304311,"lon":5.388859,"is_reserved":false,"is_disabled":false,"rental_uris":{"android":"levelo://app?vid=f3d1c10e-7331-4d70-87c4-d8d1e4be78e2","ios":"levelo://app?vid=f3d1c10e-7331-4d70-87c4-d8d1e4be78e2"},"vehicle_type_id":"4","last_reported":1748141424,"current_range_meters":6400,"station_id":"ce4bgk12rcd13ifvqbi0","pricing_plan_id":"cebpf4jnsgd1na2vs0mg"},{"bike_id":"9d6f1d4e-ed40-4930-ba4a-59597809b547","system_id":"levelo_inurba_marseille","lat":43.23185,"lon":5.35564,"is_reserved":false,"is_disabled":false,"rental_uris":{"android":"levelo://app?vid=9d6f1d4e-ed40-4930-ba4a-59597809b547","ios":"levelo://app?vid=9d6f1d4e-ed40-4930-ba4a-59597809b547"},"vehicle_type_id":"4","last_reported":1748141424,"current_range_meters":6400,"station_id":"ce4bhu92rcd13ifvqi70","pricing_plan_id":"cebpf4jnsgd1na2vs0mg"},{"bike_id":"2920147d-122b-417b-abcf-ba50572b0890","system_id":"levelo_inurba_marseille","lat":43.2319,"lon":5.35578,"is_reserved":false,"is_disabled":false,"rental_uris":{"android":"levelo://app?vid=2920147d-122b-417b-abcf-ba50572b0890","ios":"levelo://app?vid=2920147d-122b-417b-abcf-ba50572b0890"},"vehicle_type_id":"4","last_reported":1748141424,"current_range_meters":6400,"station_id":"ce4bhu92rcd13ifvqi70","pricing_plan_id":"cebpf4jnsgd1na2vs0mg"},{"bike_id":"24af8b93-e41b-4875-a755-f50e51e0b77e","system_id":"levelo_inurba_marseille","lat":43.23199,"lon":5.35551,"is_reserved":false,"is_disabled":false,"rental_uris":{"android":"levelo://app?vid=24af8b93-e41b-4875-a755-f50e51e0b77e","ios":"levelo://app?vid=24af8b93-e41b-4875-a755-f50e51e0b77e"},"vehicle_type_id":"4","last_reported":1748141424,"current_range_meters":6400,"station_id":"ce4bhu92rcd13ifvqi70","pricing_plan_id":"cebpf4jnsgd1na2vs0mg"},{"bike_id":"43e02c31-6e3f-4ffe-8537-f198543e5fc1","system_id":"levelo_inurba_marseille","lat":43.29761,"lon":5.37673,"is_reserved":false,"is_disabled":true,"rental_uris":{"android":"levelo://app?vid=43e02c31-6e3f-4ffe-8537-f198543e5fc1","ios":"levelo://app?vid=43e02c31-6e3f-4ffe-8537-f198543e5fc1"},"vehicle_type_id":"4","last_reported":1748141424,"current_range_meters":6400,"station_id":"","pricing_plan_id":"cebpf4jnsgd1na2vs0mg"},{"bike_id":"d0af1088-cca0-41dd-8c81-1ca93cb1f9c3","system_id":"levelo_inurba_marseille","lat":43.308811,"lon":5.39647,"is_reserved":false,"is_disabled":false,"rental_uris":{"android":"levelo://app?vid=d0af1088-cca0-41dd-8c81-1ca93cb1f9c3","ios":"levelo://app?vid=d0af1088-cca0-41dd-8c81-1ca93cb1f9c3"},"vehicle_type_id":"4","last_reported":1748141424,"current_range_meters":6400,"station_id":"ce4bh012rcd13ifvqcv0","pricing_plan_id":"cebpf4jnsgd1na2vs0mg"},{"bike_id":"a17a842f-ba04-4d0e-9f38-09b9d8144085","system_id":"levelo_inurba_marseille","lat":43.269335,"lon":5.402589,"is_reserved":false,"is_disabled":true,"rental_uris":{"android":"levelo://app?vid=a17a842f-ba04-4d0e-9f38-09b9d8144085","ios":"levelo://app?vid=a17a842f-ba04-4d0e-9f38-09b9d8144085"},"vehicle_type_id":"4","last_reported":1748141424,"current_range_meters":6400,"station_id":"cjm6bp8fraef2m0cb0m0","pricing_plan_id":"cebpf4jnsgd1na2vs0mg"},{"bike_id":"c121f3d2-6b16-4d6f-a3c0-80a5cc7487de","system_id":"levelo_inurba_marseille","lat":43.297004,"lon":5.366206,"is_reserved":false,"is_disabled":false,"rental_uris":{"android":"levelo://app?vid=c121f3d2-6b16-4d6f-a3c0-80a5cc7487de","ios":"levelo://app?vid=c121f3d2-6b16-4d6f-a3c0-80a5cc7487de"},"vehicle_type_id":"4","last_reported":1748141424,"current_range_meters":6400,"station_id":"ce4bgn12rcd13ifvqbt0","pricing_plan_id":"cebpf4jnsgd1na2vs0mg"},{"bike_id":"fd358430-18f3-4e72-af8e-146c21e7dfb2","system_id":"levelo_inurba_marseille","lat":43.27834,"lon":5.39206,"is_reserved":false,"is_disabled":true,"rental_uris":{"android":"levelo://app?vid=fd358430-18f3-4e72-af8e-146c21e7dfb2","ios":"levelo://app?vid=fd358430-18f3-4e72-af8e-146c21e7dfb2"},"vehicle_type_id":"4","last_reported":1748141424,"current_range_meters":6400,"station_id":"ce4bhjp2rcd13ifvqga0","pricing_plan_id":"cebpf4jnsgd1na2vs0mg"},{"bike_id":"f2afee8c-7c2e-447e-8624-53486b0ae01d","system_id":"levelo_inurba_marseille","lat":43.29564,"lon":5.42275,"is_reserved":false,"is_disabled":false,"rental_uris":{"android":"levelo://app?vid=f2afee8c-7c2e-447e-8624-53486b0ae01d","ios":"levelo://app?vid=f2afee8c-7c2e-447e-8624-53486b0ae01d"},"vehicle_type_id":"4","last_reported":1748141424,"current_range_meters":6800,"station_id":"ce4bhph2rcd13ifvqhdg","pricing_plan_id":"cebpf4jnsgd1na2vs0mg"},{"bike_id":"13fdf9f5-cec8-4026-80f5-b5e3db77f7b1","system_id":"levelo_inurba_marseille","lat":43.240673,"lon":5.377618,"is_reserved":false,"is_disabled":false,"rental_uris":{"android":"levelo://app?vid=13fdf9f5-cec8-4026-80f5-b5e3db77f7b1","ios":"levelo://app?vid=13fdf9f5-cec8-4026-80f5-b5e3db77f7b1"},"vehicle_type_id":"4","last_reported":1748141424,"current_range_meters":6800,"station_id":"ce4bhnp2rcd13ifvqgvg","pricing_plan_id":"cebpf4jnsgd1na2vs0mg"},{"bike_id":"757c0c5f-e628-4578-ae97-938654a8725a","system_id":"levelo_inurba_marseille","lat":43.30918,"lon":5.40149,"is_reserved":false,"is_disabled":true,"rental_uris":{"android":"levelo://app?vid=757c0c5f-e628-4578-ae97-938654a8725a","ios":"levelo://app?vid=757c0c5f-e628-4578-ae97-938654a8725a"},"vehicle_type_id":"4","last_reported":1748141424,"current_range_meters":6800,"station_id":"ce4bgvp2rcd13ifvqct0","pricing_plan_id":"cebpf4jnsgd1na2vs0mg"},{"bike_id":"76ecbbab-4474-4e8d-ac05-11d98cc4dd9c","system_id":"levelo_inurba_marseille","lat":43.28718,"lon":5.39983,"is_reserved":false,"is_disabled":false,"rental_uris":{"android":"levelo://app?vid=76ecbbab-4474-4e8d-ac05-11d98cc4dd9c","ios":"levelo://app?vid=76ecbbab-4474-4e8d-ac05-11d98cc4dd9c"},"vehicle_type_id":"4","last_reported":1748141424,"current_range_meters":6800,"station_id":"ce4bho92rcd13ifvqh3g","pricing_plan_id":"cebpf4jnsgd1na2vs0mg"},{"bike_id":"ccf8f055-3943-4d1f-8422-80c8d7e361da","system_id":"levelo_inurba_marseille","lat":43.25822,"lon":5.3943,"is_reserved":false,"is_disabled":false,"rental_uris":{"android":"levelo://app?vid=ccf8f055-3943-4d1f-8422-80c8d7e361da","ios":"levelo://app?vid=ccf8f055-3943-4d1f-8422-80c8d7e361da"},"vehicle_type_id":"4","last_reported":1748141424,"current_range_meters":6800,"station_id":"ce4bhip2rcd13ifvqft0","pricing_plan_id":"cebpf4jnsgd1na2vs0mg"},{"bike_id":"1f08ca70-cccd-4cfa-b960-b61eeab7d9dc","system_id":"levelo_inurba_marseille","lat":43.29553,"lon":5.42293,"is_reserved":false,"is_disabled":false,"rental_uris":{"android":"levelo://app?vid=1f08ca70-cccd-4cfa-b960-b61eeab7d9dc","ios":"levelo://app?vid=1f08ca70-cccd-4cfa-b960-b61eeab7d9dc"},"vehicle_type_id":"4","last_reported":1748141424,"current_range_meters":6800,"station_id":"ce4bhph2rcd13ifvqhdg","pricing_plan_id":"cebpf4jnsgd1na2vs0mg"},{"bike_id":"bc7f89a1-e429-4d3e-a5d8-31ae772b0570","system_id":"levelo_inurba_marseille","lat":43.251082,"lon":5.403325,"is_reserved":false,"is_disabled":false,"rental_uris":{"android":"levelo://app?vid=bc7f89a1-e429-4d3e-a5d8-31ae772b0570","ios":"levelo://app?vid=bc7f89a1-e429-4d3e-a5d8-31ae772b0570"},"vehicle_type_id":"4","last_reported":1748141424,"current_range_meters":6800,"station_id":"ce4bhlh2rcd13ifvqgig","pricing_plan_id":"cebpf4jnsgd1na2vs0mg"},{"bike_id":"b3836e6a-b05b-4ba7-ae61-833bde9258fe","system_id":"levelo_inurba_marseille","lat":43.32913,"lon":5.45212,"is_reserved":false,"is_disabled":false,"rental_uris":{"android":"levelo://app?vid=b3836e6a-b05b-4ba7-ae61-833bde9258fe","ios":"levelo://app?vid=b3836e6a-b05b-4ba7-ae61-833bde9258fe"},"vehicle_type_id":"4","last_reported":1748141424,"current_range_meters":6800,"station_id":"","pricing_plan_id":"cebpf4jnsgd1na2vs0mg"},{"bike_id":"9cf27f2d-4ac6-4717-93ce-55bc5dbf8c58","system_id":"levelo_inurba_marseille","lat":43.24667,"lon":5.38159,"is_reserved":false,"is_disabled":false,"rental_uris":{"android":"levelo://app?vid=9cf27f2d-4ac6-4717-93ce-55bc5dbf8c58","ios":"levelo://app?vid=9cf27f2d-4ac6-4717-93ce-55bc5dbf8c58"},"vehicle_type_id":"4","last_reported":1748141424,"current_range_meters":6800,"station_id":"ce4bhih2rcd13ifvqfr0","pricing_plan_id":"cebpf4jnsgd1na2vs0mg"},{"bike_id":"e45ee233-d6b1-41b7-bc25-7b859c2db130","system_id":"levelo_inurba_marseille","lat":43.298178,"lon":5.380665,"is_reserved":false,"is_disabled":false,"rental_uris":{"android":"levelo://app?vid=e45ee233-d6b1-41b7-bc25-7b859c2db130","ios":"levelo://app?vid=e45ee233-d6b1-41b7-bc25-7b859c2db130"},"vehicle_type_id":"4","last_reported":1748141424,"current_range_meters":6800,"station_id":"ce4bgip2rcd13ifvqbb0","pricing_plan_id":"cebpf4jnsgd1na2vs0mg"},{"bike_id":"7033f29b-2f82-40a9-922d-36b6315763bf","system_id":"levelo_inurba_marseille","lat":43.25104,"lon":5.40325,"is_reserved":false,"is_disabled":true,"rental_uris":{"android":"levelo://app?vid=7033f29b-2f82-40a9-922d-36b6315763bf","ios":"levelo://app?vid=7033f29b-2f82-40a9-922d-36b6315763bf"},"vehicle_type_id":"4","last_reported":1748141424,"current_range_meters":6800,"station_id":"ce4bhlh2rcd13ifvqgig","pricing_plan_id":"cebpf4jnsgd1na2vs0mg"},{"bike_id":"c0b51b19-5a3c-47b6-a728-20e9b0d3fca2","system_id":"levelo_inurba_marseille","lat":43.217576,"lon":5.346068,"is_reserved":false,"is_disabled":true,"rental_uris":{"android":"levelo://app?vid=c0b51b19-5a3c-47b6-a728-20e9b0d3fca2","ios":"levelo://app?vid=c0b51b19-5a3c-47b6-a728-20e9b0d3fca2"},"vehicle_type_id":"4","last_reported":1748141424,"current_range_meters":6800,"station_id":"st_cvj6r9ubvosntc0bgbag","pricing_plan_id":"cebpf4jnsgd1na2vs0mg"},{"bike_id":"c16413fd-5d65-4ca2-8681-abb95bdf2d2a","system_id":"levelo_inurba_marseille","lat":43.30951,"lon":5.37139,"is_reserved":false,"is_disabled":false,"rental_uris":{"android":"levelo://app?vid=c16413fd-5d65-4ca2-8681-abb95bdf2d2a","ios":"levelo://app?vid=c16413fd-5d65-4ca2-8681-abb95bdf2d2a"},"vehicle_type_id":"4","last_reported":1748141424,"current_range_meters":6800,"station_id":"","pricing_plan_id":"cebpf4jnsgd1na2vs0mg"},{"bike_id":"caf1e107-9dfd-47fc-aae0-9606d8eca857","system_id":"levelo_inurba_marseille","lat":43.27376,"lon":5.36252,"is_reserved":false,"is_disabled":true,"rental_uris":{"android":"levelo://app?vid=caf1e107-9dfd-47fc-aae0-9606d8eca857","ios":"levelo://app?vid=caf1e107-9dfd-47fc-aae0-9606d8eca857"},"vehicle_type_id":"4","last_reported":1748141424,"current_range_meters":7200,"station_id":"ce4bhbh2rcd13ifvqeo0","pricing_plan_id":"cebpf4jnsgd1na2vs0mg"},{"bike_id":"c8f48b82-02ee-427e-b5b1-64a05301ddb6","system_id":"levelo_inurba_marseille","lat":43.30231,"lon":5.40015,"is_reserved":false,"is_disabled":false,"rental_uris":{"android":"levelo://app?vid=c8f48b82-02ee-427e-b5b1-64a05301ddb6","ios":"levelo://app?vid=c8f48b82-02ee-427e-b5b1-64a05301ddb6"},"vehicle_type_id":"4","last_reported":1748141424,"current_range_meters":7200,"station_id":"","pricing_plan_id":"cebpf4jnsgd1na2vs0mg"},{"bike_id":"fed3894e-a1c9-4ece-9a61-bf88b7c9daa1","system_id":"levelo_inurba_marseille","lat":43.267972,"lon":5.402773,"is_reserved":false,"is_disabled":false,"rental_uris":{"android":"levelo://app?vid=fed3894e-a1c9-4ece-9a61-bf88b7c9daa1","ios":"levelo://app?vid=fed3894e-a1c9-4ece-9a61-bf88b7c9daa1"},"vehicle_type_id":"4","last_reported":1748141424,"current_range_meters":7200,"station_id":"ce501612rcd8frsf0b60","pricing_plan_id":"cebpf4jnsgd1na2vs0mg"},{"bike_id":"9f6f4706-0c48-4901-af25-d722e334a7d8","system_id":"levelo_inurba_marseille","lat":43.28937,"lon":5.36638,"is_reserved":false,"is_disabled":false,"rental_uris":{"android":"levelo://app?vid=9f6f4706-0c48-4901-af25-d722e334a7d8","ios":"levelo://app?vid=9f6f4706-0c48-4901-af25-d722e334a7d8"},"vehicle_type_id":"4","last_reported":1748141424,"current_range_meters":7200,"station_id":"ce4bhap2rcd13ifvqek0","pricing_plan_id":"cebpf4jnsgd1na2vs0mg"},{"bike_id":"6d18f989-8944-4ed3-b7c4-a284780bb26e","system_id":"levelo_inurba_marseille","lat":43.2511,"lon":5.40327,"is_reserved":false,"is_disabled":false,"rental_uris":{"android":"levelo://app?vid=6d18f989-8944-4ed3-b7c4-a284780bb26e","ios":"levelo://app?vid=6d18f989-8944-4ed3-b7c4-a284780bb26e"},"vehicle_type_id":"4","last_reported":1748141424,"current_range_meters":7200,"station_id":"ce4bhlh2rcd13ifvqgig","pricing_plan_id":"cebpf4jnsgd1na2vs0mg"},{"bike_id":"40d5f5df-f4a7-41a4-b16d-63484ff0379d","system_id":"levelo_inurba_marseille","lat":43.309252,"lon":5.401296,"is_reserved":false,"is_disabled":true,"rental_uris":{"android":"levelo://app?vid=40d5f5df-f4a7-41a4-b16d-63484ff0379d","ios":"levelo://app?vid=40d5f5df-f4a7-41a4-b16d-63484ff0379d"},"vehicle_type_id":"4","last_reported":1748141424,"current_range_meters":7200,"station_id":"ce4bgvp2rcd13ifvqct0","pricing_plan_id":"cebpf4jnsgd1na2vs0mg"},{"bike_id":"045cde77-b1ef-4984-94cb-bf83ff7c7831","system_id":"levelo_inurba_marseille","lat":43.232,"lon":5.39978,"is_reserved":false,"is_disabled":false,"rental_uris":{"android":"levelo://app?vid=045cde77-b1ef-4984-94cb-bf83ff7c7831","ios":"levelo://app?vid=045cde77-b1ef-4984-94cb-bf83ff7c7831"},"vehicle_type_id":"4","last_reported":1748141424,"current_range_meters":7200,"station_id":"ce4bhn12rcd13ifvqgqg","pricing_plan_id":"cebpf4jnsgd1na2vs0mg"},{"bike_id":"b9c2ccd4-cfa0-4f0c-89c5-b4326d242752","system_id":"levelo_inurba_marseille","lat":43.24082,"lon":5.37785,"is_reserved":false,"is_disabled":false,"rental_uris":{"android":"levelo://app?vid=b9c2ccd4-cfa0-4f0c-89c5-b4326d242752","ios":"levelo://app?vid=b9c2ccd4-cfa0-4f0c-89c5-b4326d242752"},"vehicle_type_id":"4","last_reported":1748141424,"current_range_meters":8000,"station_id":"ce4bhnp2rcd13ifvqgvg","pricing_plan_id":"cebpf4jnsgd1na2vs0mg"},{"bike_id":"2c6c1601-7ad3-41b8-85f4-aa4519205b7c","system_id":"levelo_inurba_marseille","lat":43.25123,"lon":5.40337,"is_reserved":false,"is_disabled":false,"rental_uris":{"android":"levelo://app?vid=2c6c1601-7ad3-41b8-85f4-aa4519205b7c","ios":"levelo://app?vid=2c6c1601-7ad3-41b8-85f4-aa4519205b7c"},"vehicle_type_id":"4","last_reported":1748141424,"current_range_meters":8000,"station_id":"ce4bhlh2rcd13ifvqgig","pricing_plan_id":"cebpf4jnsgd1na2vs0mg"},{"bike_id":"00cc24e5-83e1-489b-8c41-8ff6f4a3e688","system_id":"levelo_inurba_marseille","lat":43.30309,"lon":5.40441,"is_reserved":false,"is_disabled":false,"rental_uris":{"android":"levelo://app?vid=00cc24e5-83e1-489b-8c41-8ff6f4a3e688","ios":"levelo://app?vid=00cc24e5-83e1-489b-8c41-8ff6f4a3e688"},"vehicle_type_id":"4","last_reported":1748141424,"current_range_meters":8000,"station_id":"ce4bh012rcd13ifvqd10","pricing_plan_id":"cebpf4jnsgd1na2vs0mg"},{"bike_id":"2af99fd2-7eeb-4fcc-82f5-def257a6cb2b","system_id":"levelo_inurba_marseille","lat":43.27923,"lon":5.39584,"is_reserved":false,"is_disabled":false,"rental_uris":{"android":"levelo://app?vid=2af99fd2-7eeb-4fcc-82f5-def257a6cb2b","ios":"levelo://app?vid=2af99fd2-7eeb-4fcc-82f5-def257a6cb2b"},"vehicle_type_id":"4","last_reported":1748141424,"current_range_meters":8000,"station_id":"ce4bhf92rcd13ifvqf40","pricing_plan_id":"cebpf4jnsgd1na2vs0mg"},{"bike_id":"266f63d3-91cc-45e6-bcde-2a6b3263f52e","system_id":"levelo_inurba_marseille","lat":43.25091,"lon":5.40352,"is_reserved":false,"is_disabled":false,"rental_uris":{"android":"levelo://app?vid=266f63d3-91cc-45e6-bcde-2a6b3263f52e","ios":"levelo://app?vid=266f63d3-91cc-45e6-bcde-2a6b3263f52e"},"vehicle_type_id":"4","last_reported":1748141424,"current_range_meters":8000,"station_id":"ce4bhlh2rcd13ifvqgig","pricing_plan_id":"cebpf4jnsgd1na2vs0mg"},{"bike_id":"bfd633be-a7e6-4d11-96e6-7ca9f4f58ac5","system_id":"levelo_inurba_marseille","lat":43.30323,"lon":5.40446,"is_reserved":false,"is_disabled":false,"rental_uris":{"android":"levelo://app?vid=bfd633be-a7e6-4d11-96e6-7ca9f4f58ac5","ios":"levelo://app?vid=bfd633be-a7e6-4d11-96e6-7ca9f4f58ac5"},"vehicle_type_id":"4","last_reported":1748141424,"current_range_meters":8000,"station_id":"ce4bh012rcd13ifvqd10","pricing_plan_id":"cebpf4jnsgd1na2vs0mg"},{"bike_id":"80deddbd-79cf-43eb-83c8-c56aedde1485","system_id":"levelo_inurba_marseille","lat":43.31747,"lon":5.40415,"is_reserved":false,"is_disabled":false,"rental_uris":{"android":"levelo://app?vid=80deddbd-79cf-43eb-83c8-c56aedde1485","ios":"levelo://app?vid=80deddbd-79cf-43eb-83c8-c56aedde1485"},"vehicle_type_id":"4","last_reported":1748141424,"current_range_meters":8000,"station_id":"","pricing_plan_id":"cebpf4jnsgd1na2vs0mg"},{"bike_id":"456f4640-9fc1-407f-8ae0-2484c524b4b7","system_id":"levelo_inurba_marseille","lat":43.27174,"lon":5.40995,"is_reserved":false,"is_disabled":false,"rental_uris":{"android":"levelo://app?vid=456f4640-9fc1-407f-8ae0-2484c524b4b7","ios":"levelo://app?vid=456f4640-9fc1-407f-8ae0-2484c524b4b7"},"vehicle_type_id":"4","last_reported":1748141424,"current_range_meters":8000,"station_id":"ce4bhl12rcd13ifvqgf0","pricing_plan_id":"cebpf4jnsgd1na2vs0mg"},{"bike_id":"d2687c6b-2b92-4536-83c7-ceceeacc1deb","system_id":"levelo_inurba_marseille","lat":43.24679,"lon":5.3816,"is_reserved":false,"is_disabled":false,"rental_uris":{"android":"levelo://app?vid=d2687c6b-2b92-4536-83c7-ceceeacc1deb","ios":"levelo://app?vid=d2687c6b-2b92-4536-83c7-ceceeacc1deb"},"vehicle_type_id":"4","last_reported":1748141424,"current_range_meters":8000,"station_id":"ce4bhih2rcd13ifvqfr0","pricing_plan_id":"cebpf4jnsgd1na2vs0mg"},{"bike_id":"fc4bc14e-e750-47b5-97a4-f93c8ca82697","system_id":"levelo_inurba_marseille","lat":43.284099,"lon":5.375369,"is_reserved":false,"is_disabled":false,"rental_uris":{"android":"levelo://app?vid=fc4bc14e-e750-47b5-97a4-f93c8ca82697","ios":"levelo://app?vid=fc4bc14e-e750-47b5-97a4-f93c8ca82697"},"vehicle_type_id":"4","last_reported":1748141424,"current_range_meters":8000,"station_id":"ce4bh412rcd13ifvqds0","pricing_plan_id":"cebpf4jnsgd1na2vs0mg"},{"bike_id":"3581c28c-41f2-4cb7-b494-0448776c0438","system_id":"levelo_inurba_marseille","lat":43.29633,"lon":5.36056,"is_reserved":false,"is_disabled":false,"rental_uris":{"android":"levelo://app?vid=3581c28c-41f2-4cb7-b494-0448776c0438","ios":"levelo://app?vid=3581c28c-41f2-4cb7-b494-0448776c0438"},"vehicle_type_id":"4","last_reported":1748141424,"current_range_meters":8400,"station_id":"","pricing_plan_id":"cebpf4jnsgd1na2vs0mg"},{"bike_id":"7d4313c8-0ca9-4d4f-bb96-9ef242bfa2ee","system_id":"levelo_inurba_marseille","lat":43.29264,"lon":5.38432,"is_reserved":false,"is_disabled":true,"rental_uris":{"android":"levelo://app?vid=7d4313c8-0ca9-4d4f-bb96-9ef242bfa2ee","ios":"levelo://app?vid=7d4313c8-0ca9-4d4f-bb96-9ef242bfa2ee"},"vehicle_type_id":"4","last_reported":1748141424,"current_range_meters":8400,"station_id":"ce4bh692rcd13ifvqea0","pricing_plan_id":"cebpf4jnsgd1na2vs0mg"},{"bike_id":"9546d1ab-1ccb-4fe0-8b3b-7ffc67927051","system_id":"levelo_inurba_marseille","lat":43.28938,"lon":5.36641,"is_reserved":false,"is_disabled":true,"rental_uris":{"android":"levelo://app?vid=9546d1ab-1ccb-4fe0-8b3b-7ffc67927051","ios":"levelo://app?vid=9546d1ab-1ccb-4fe0-8b3b-7ffc67927051"},"vehicle_type_id":"4","last_reported":1748141424,"current_range_meters":8400,"station_id":"ce4bhap2rcd13ifvqek0","pricing_plan_id":"cebpf4jnsgd1na2vs0mg"},{"bike_id":"33f822d6-eeab-4cc4-b1ef-d755e9a84aa3","system_id":"levelo_inurba_marseille","lat":43.316983,"lon":5.437178,"is_reserved":false,"is_disabled":false,"rental_uris":{"android":"levelo://app?vid=33f822d6-eeab-4cc4-b1ef-d755e9a84aa3","ios":"levelo://app?vid=33f822d6-eeab-4cc4-b1ef-d755e9a84aa3"},"vehicle_type_id":"4","last_reported":1748141424,"current_range_meters":8400,"station_id":"ce4bhp92rcd13ifvqhcg","pricing_plan_id":"cebpf4jnsgd1na2vs0mg"},{"bike_id":"dffd3e87-ea0e-4e09-94a8-d890b046cc4f","system_id":"levelo_inurba_marseille","lat":43.28455,"lon":5.35896,"is_reserved":false,"is_disabled":false,"rental_uris":{"android":"levelo://app?vid=dffd3e87-ea0e-4e09-94a8-d890b046cc4f","ios":"levelo://app?vid=dffd3e87-ea0e-4e09-94a8-d890b046cc4f"},"vehicle_type_id":"4","last_reported":1748141424,"current_range_meters":8400,"station_id":"ce4bhah2rcd13ifvqei0","pricing_plan_id":"cebpf4jnsgd1na2vs0mg"},{"bike_id":"d5ddd455-df57-470b-90b1-29664b7edf5f","system_id":"levelo_inurba_marseille","lat":43.334188,"lon":5.400672,"is_reserved":false,"is_disabled":false,"rental_uris":{"android":"levelo://app?vid=d5ddd455-df57-470b-90b1-29664b7edf5f","ios":"levelo://app?vid=d5ddd455-df57-470b-90b1-29664b7edf5f"},"vehicle_type_id":"4","last_reported":1748141424,"current_range_meters":8400,"station_id":"","pricing_plan_id":"cebpf4jnsgd1na2vs0mg"},{"bike_id":"fa5deb18-73e3-40cc-a479-b69751b735c9","system_id":"levelo_inurba_marseille","lat":43.28433,"lon":5.39208,"is_reserved":false,"is_disabled":false,"rental_uris":{"android":"levelo://app?vid=fa5deb18-73e3-40cc-a479-b69751b735c9","ios":"levelo://app?vid=fa5deb18-73e3-40cc-a479-b69751b735c9"},"vehicle_type_id":"4","last_reported":1748141424,"current_range_meters":8800,"station_id":"ce4bhoh2rcd13ifvqh5g","pricing_plan_id":"cebpf4jnsgd1na2vs0mg"},{"bike_id":"9e10a5b8-5080-4f7e-8499-b14ca29da876","system_id":"levelo_inurba_marseille","lat":43.289845,"lon":5.35595,"is_reserved":false,"is_disabled":true,"rental_uris":{"android":"levelo://app?vid=9e10a5b8-5080-4f7e-8499-b14ca29da876","ios":"levelo://app?vid=9e10a5b8-5080-4f7e-8499-b14ca29da876"},"vehicle_type_id":"4","last_reported":1748141424,"current_range_meters":8800,"station_id":"ce4bhb92rcd13ifvqen0","pricing_plan_id":"cebpf4jnsgd1na2vs0mg"},{"bike_id":"3c75e648-a525-4de9-93fa-090b0f418121","system_id":"levelo_inurba_marseille","lat":43.3128,"lon":5.36744,"is_reserved":false,"is_disabled":false,"rental_uris":{"android":"levelo://app?vid=3c75e648-a525-4de9-93fa-090b0f418121","ios":"levelo://app?vid=3c75e648-a525-4de9-93fa-090b0f418121"},"vehicle_type_id":"4","last_reported":1748141424,"current_range_meters":8800,"station_id":"","pricing_plan_id":"cebpf4jnsgd1na2vs0mg"},{"bike_id":"fc8c72ad-ca61-42c6-ae90-f61b57e45328","system_id":"levelo_inurba_marseille","lat":43.27916,"lon":5.4187,"is_reserved":false,"is_disabled":false,"rental_uris":{"android":"levelo://app?vid=fc8c72ad-ca61-42c6-ae90-f61b57e45328","ios":"levelo://app?vid=fc8c72ad-ca61-42c6-ae90-f61b57e45328"},"vehicle_type_id":"4","last_reported":1748141424,"current_range_meters":8800,"station_id":"","pricing_plan_id":"cebpf4jnsgd1na2vs0mg"},{"bike_id":"be22def8-9143-47c2-9f93-914f06198414","system_id":"levelo_inurba_marseille","lat":43.30975,"lon":5.40129,"is_reserved":false,"is_disabled":false,"rental_uris":{"android":"levelo://app?vid=be22def8-9143-47c2-9f93-914f06198414","ios":"levelo://app?vid=be22def8-9143-47c2-9f93-914f06198414"},"vehicle_type_id":"4","last_reported":1748141424,"current_range_meters":8800,"station_id":"ce4bgvp2rcd13ifvqct0","pricing_plan_id":"cebpf4jnsgd1na2vs0mg"},{"bike_id":"ceb5dae6-874b-4d60-9609-82bcf4c8d4ed","system_id":"levelo_inurba_marseille","lat":43.304426,"lon":5.38836,"is_reserved":false,"is_disabled":true,"rental_uris":{"android":"levelo://app?vid=ceb5dae6-874b-4d60-9609-82bcf4c8d4ed","ios":"levelo://app?vid=ceb5dae6-874b-4d60-9609-82bcf4c8d4ed"},"vehicle_type_id":"4","last_reported":1748141424,"current_range_meters":8800,"station_id":"ce4bgk12rcd13ifvqbi0","pricing_plan_id":"cebpf4jnsgd1na2vs0mg"},{"bike_id":"cb3127c5-a16a-4197-a684-7d1dd406bfe1","system_id":"levelo_inurba_marseille","lat":43.313203,"lon":5.396971,"is_reserved":false,"is_disabled":false,"rental_uris":{"android":"levelo://app?vid=cb3127c5-a16a-4197-a684-7d1dd406bfe1","ios":"levelo://app?vid=cb3127c5-a16a-4197-a684-7d1dd406bfe1"},"vehicle_type_id":"4","last_reported":1748141424,"current_range_meters":8800,"station_id":"ce4bgvp2rcd13ifvqcu0","pricing_plan_id":"cebpf4jnsgd1na2vs0mg"},{"bike_id":"87dc1d45-464b-416b-81d6-10b093bfc1ae","system_id":"levelo_inurba_marseille","lat":43.27051,"lon":5.42269,"is_reserved":false,"is_disabled":false,"rental_uris":{"android":"levelo://app?vid=87dc1d45-464b-416b-81d6-10b093bfc1ae","ios":"levelo://app?vid=87dc1d45-464b-416b-81d6-10b093bfc1ae"},"vehicle_type_id":"4","last_reported":1748141424,"current_range_meters":8800,"station_id":"ce4bhk92rcd13ifvqgb0","pricing_plan_id":"cebpf4jnsgd1na2vs0mg"},{"bike_id":"d01263a6-c1f1-4ebc-9e8c-301181992250","system_id":"levelo_inurba_marseille","lat":43.27921,"lon":5.39588,"is_reserved":false,"is_disabled":false,"rental_uris":{"android":"levelo://app?vid=d01263a6-c1f1-4ebc-9e8c-301181992250","ios":"levelo://app?vid=d01263a6-c1f1-4ebc-9e8c-301181992250"},"vehicle_type_id":"4","last_reported":1748141424,"current_range_meters":8800,"station_id":"ce4bhf92rcd13ifvqf40","pricing_plan_id":"cebpf4jnsgd1na2vs0mg"},{"bike_id":"84b1d1a2-2301-4f7e-8fde-ecd5a1274476","system_id":"levelo_inurba_marseille","lat":43.270658,"lon":5.42282,"is_reserved":false,"is_disabled":false,"rental_uris":{"android":"levelo://app?vid=84b1d1a2-2301-4f7e-8fde-ecd5a1274476","ios":"levelo://app?vid=84b1d1a2-2301-4f7e-8fde-ecd5a1274476"},"vehicle_type_id":"4","last_reported":1748141424,"current_range_meters":8800,"station_id":"ce4bhk92rcd13ifvqgb0","pricing_plan_id":"cebpf4jnsgd1na2vs0mg"},{"bike_id":"aeb9ef90-389d-4ef3-899b-0a0feff09a32","system_id":"levelo_inurba_marseille","lat":43.313529,"lon":5.380259,"is_reserved":false,"is_disabled":false,"rental_uris":{"android":"levelo://app?vid=aeb9ef90-389d-4ef3-899b-0a0feff09a32","ios":"levelo://app?vid=aeb9ef90-389d-4ef3-899b-0a0feff09a32"},"vehicle_type_id":"4","last_reported":1748141424,"current_range_meters":8800,"station_id":"","pricing_plan_id":"cebpf4jnsgd1na2vs0mg"},{"bike_id":"50df2833-c24f-4064-9f93-b9a81dc82f32","system_id":"levelo_inurba_marseille","lat":43.30933,"lon":5.40137,"is_reserved":false,"is_disabled":false,"rental_uris":{"android":"levelo://app?vid=50df2833-c24f-4064-9f93-b9a81dc82f32","ios":"levelo://app?vid=50df2833-c24f-4064-9f93-b9a81dc82f32"},"vehicle_type_id":"4","last_reported":1748141424,"current_range_meters":8800,"station_id":"ce4bgvp2rcd13ifvqct0","pricing_plan_id":"cebpf4jnsgd1na2vs0mg"},{"bike_id":"40572cad-a796-4f87-a02c-44bcfdb01f65","system_id":"levelo_inurba_marseille","lat":43.273422,"lon":5.361547,"is_reserved":false,"is_disabled":false,"rental_uris":{"android":"levelo://app?vid=40572cad-a796-4f87-a02c-44bcfdb01f65","ios":"levelo://app?vid=40572cad-a796-4f87-a02c-44bcfdb01f65"},"vehicle_type_id":"4","last_reported":1748141424,"current_range_meters":8800,"station_id":"","pricing_plan_id":"cebpf4jnsgd1na2vs0mg"},{"bike_id":"7ea1a4eb-6d4b-44e3-b5fc-9a1127bcb445","system_id":"levelo_inurba_marseille","lat":43.302451,"lon":5.400711,"is_reserved":false,"is_disabled":false,"rental_uris":{"android":"levelo://app?vid=7ea1a4eb-6d4b-44e3-b5fc-9a1127bcb445","ios":"levelo://app?vid=7ea1a4eb-6d4b-44e3-b5fc-9a1127bcb445"},"vehicle_type_id":"4","last_reported":1748141424,"current_range_meters":8800,"station_id":"ce4bgvh2rcd13ifvqcs0","pricing_plan_id":"cebpf4jnsgd1na2vs0mg"},{"bike_id":"317402d7-3cf9-48ed-a017-14be367d398d","system_id":"levelo_inurba_marseille","lat":43.32342,"lon":5.40615,"is_reserved":false,"is_disabled":false,"rental_uris":{"android":"levelo://app?vid=317402d7-3cf9-48ed-a017-14be367d398d","ios":"levelo://app?vid=317402d7-3cf9-48ed-a017-14be367d398d"},"vehicle_type_id":"4","last_reported":1748141424,"current_range_meters":9200,"station_id":"ce4bhq92rcd13ifvqhjg","pricing_plan_id":"cebpf4jnsgd1na2vs0mg"},{"bike_id":"aaba240d-9ae2-4152-b865-0a8cf63c256e","system_id":"levelo_inurba_marseille","lat":43.30422,"lon":5.41308,"is_reserved":false,"is_disabled":false,"rental_uris":{"android":"levelo://app?vid=aaba240d-9ae2-4152-b865-0a8cf63c256e","ios":"levelo://app?vid=aaba240d-9ae2-4152-b865-0a8cf63c256e"},"vehicle_type_id":"4","last_reported":1748141424,"current_range_meters":9200,"station_id":"ce4bhop2rcd13ifvqh8g","pricing_plan_id":"cebpf4jnsgd1na2vs0mg"},{"bike_id":"bf8e8887-6d33-45c4-a469-449aeaef0cbc","system_id":"levelo_inurba_marseille","lat":43.260447,"lon":5.394226,"is_reserved":false,"is_disabled":false,"rental_uris":{"android":"levelo://app?vid=bf8e8887-6d33-45c4-a469-449aeaef0cbc","ios":"levelo://app?vid=bf8e8887-6d33-45c4-a469-449aeaef0cbc"},"vehicle_type_id":"4","last_reported":1748141424,"current_range_meters":9200,"station_id":"ce4bhh92rcd13ifvqfj0","pricing_plan_id":"cebpf4jnsgd1na2vs0mg"},{"bike_id":"d8c73d26-ef14-4027-b859-a9644e254b3d","system_id":"levelo_inurba_marseille","lat":43.314871,"lon":5.368931,"is_reserved":false,"is_disabled":false,"rental_uris":{"android":"levelo://app?vid=d8c73d26-ef14-4027-b859-a9644e254b3d","ios":"levelo://app?vid=d8c73d26-ef14-4027-b859-a9644e254b3d"},"vehicle_type_id":"4","last_reported":1748141424,"current_range_meters":9200,"station_id":"","pricing_plan_id":"cebpf4jnsgd1na2vs0mg"},{"bike_id":"abb499ab-4727-4fa3-a460-de6a0b43be86","system_id":"levelo_inurba_marseille","lat":43.30587,"lon":5.37211,"is_reserved":false,"is_disabled":false,"rental_uris":{"android":"levelo://app?vid=abb499ab-4727-4fa3-a460-de6a0b43be86","ios":"levelo://app?vid=abb499ab-4727-4fa3-a460-de6a0b43be86"},"vehicle_type_id":"4","last_reported":1748141424,"current_range_meters":9200,"station_id":"ce4bgqh2rcd13ifvqc4g","pricing_plan_id":"cebpf4jnsgd1na2vs0mg"},{"bike_id":"2db9b4dd-6c57-41f2-970a-2b6a881f3574","system_id":"levelo_inurba_marseille","lat":43.28023,"lon":5.36954,"is_reserved":false,"is_disabled":false,"rental_uris":{"android":"levelo://app?vid=2db9b4dd-6c57-41f2-970a-2b6a881f3574","ios":"levelo://app?vid=2db9b4dd-6c57-41f2-970a-2b6a881f3574"},"vehicle_type_id":"4","last_reported":1748141424,"current_range_meters":9200,"station_id":"ce4bha12rcd13ifvqef0","pricing_plan_id":"cebpf4jnsgd1na2vs0mg"},{"bike_id":"eb7449bf-569b-46bd-ac86-51a1edea3186","system_id":"levelo_inurba_marseille","lat":43.302439,"lon":5.400726,"is_reserved":false,"is_disabled":false,"rental_uris":{"android":"levelo://app?vid=eb7449bf-569b-46bd-ac86-51a1edea3186","ios":"levelo://app?vid=eb7449bf-569b-46bd-ac86-51a1edea3186"},"vehicle_type_id":"4","last_reported":1748141424,"current_range_meters":9200,"station_id":"ce4bgvh2rcd13ifvqcs0","pricing_plan_id":"cebpf4jnsgd1na2vs0mg"},{"bike_id":"7716ce6a-459e-400b-adb2-38f7d87508e7","system_id":"levelo_inurba_marseille","lat":43.297119,"lon":5.379271,"is_reserved":false,"is_disabled":false,"rental_uris":{"android":"levelo://app?vid=7716ce6a-459e-400b-adb2-38f7d87508e7","ios":"levelo://app?vid=7716ce6a-459e-400b-adb2-38f7d87508e7"},"vehicle_type_id":"4","last_reported":1748141424,"current_range_meters":9200,"station_id":"","pricing_plan_id":"cebpf4jnsgd1na2vs0mg"},{"bike_id":"af143851-39be-49b2-9363-1ef6d66beccd","system_id":"levelo_inurba_marseille","lat":43.262187,"lon":5.404607,"is_reserved":false,"is_disabled":false,"rental_uris":{"android":"levelo://app?vid=af143851-39be-49b2-9363-1ef6d66beccd","ios":"levelo://app?vid=af143851-39be-49b2-9363-1ef6d66beccd"},"vehicle_type_id":"4","last_reported":1748141424,"current_range_meters":9200,"station_id":"ce4bhmh2rcd13ifvqgmg","pricing_plan_id":"cebpf4jnsgd1na2vs0mg"},{"bike_id":"b257e1c4-2f2e-4cd2-bdcb-f4495a7aed9a","system_id":"levelo_inurba_marseille","lat":43.32098,"lon":5.40805,"is_reserved":false,"is_disabled":false,"rental_uris":{"android":"levelo://app?vid=b257e1c4-2f2e-4cd2-bdcb-f4495a7aed9a","ios":"levelo://app?vid=b257e1c4-2f2e-4cd2-bdcb-f4495a7aed9a"},"vehicle_type_id":"4","last_reported":1748141424,"current_range_meters":9600,"station_id":"","pricing_plan_id":"cebpf4jnsgd1na2vs0mg"},{"bike_id":"a2969d9b-b308-43ba-a932-55b8bd550f28","system_id":"levelo_inurba_marseille","lat":43.31506,"lon":5.40358,"is_reserved":false,"is_disabled":false,"rental_uris":{"android":"levelo://app?vid=a2969d9b-b308-43ba-a932-55b8bd550f28","ios":"levelo://app?vid=a2969d9b-b308-43ba-a932-55b8bd550f28"},"vehicle_type_id":"4","last_reported":1748141424,"current_range_meters":9600,"station_id":"","pricing_plan_id":"cebpf4jnsgd1na2vs0mg"},{"bike_id":"d9fa0449-e47c-4bbe-a91c-4939cab5d888","system_id":"levelo_inurba_marseille","lat":43.28493,"lon":5.4261,"is_reserved":false,"is_disabled":false,"rental_uris":{"android":"levelo://app?vid=d9fa0449-e47c-4bbe-a91c-4939cab5d888","ios":"levelo://app?vid=d9fa0449-e47c-4bbe-a91c-4939cab5d888"},"vehicle_type_id":"4","last_reported":1748141424,"current_range_meters":9600,"station_id":"","pricing_plan_id":"cebpf4jnsgd1na2vs0mg"},{"bike_id":"301fe2f8-a535-492e-8e34-7fadff48a616","system_id":"levelo_inurba_marseille","lat":43.30928,"lon":5.40176,"is_reserved":false,"is_disabled":false,"rental_uris":{"android":"levelo://app?vid=301fe2f8-a535-492e-8e34-7fadff48a616","ios":"levelo://app?vid=301fe2f8-a535-492e-8e34-7fadff48a616"},"vehicle_type_id":"4","last_reported":1748141424,"current_range_meters":9600,"station_id":"ce4bgvp2rcd13ifvqct0","pricing_plan_id":"cebpf4jnsgd1na2vs0mg"},{"bike_id":"631364b9-4f5e-4cc8-8e04-6ec26ba24d61","system_id":"levelo_inurba_marseille","lat":43.30134,"lon":5.38774,"is_reserved":false,"is_disabled":true,"rental_uris":{"android":"levelo://app?vid=631364b9-4f5e-4cc8-8e04-6ec26ba24d61","ios":"levelo://app?vid=631364b9-4f5e-4cc8-8e04-6ec26ba24d61"},"vehicle_type_id":"4","last_reported":1748141424,"current_range_meters":9600,"station_id":"ce4bghh2rcd13ifvqb60","pricing_plan_id":"cebpf4jnsgd1na2vs0mg"},{"bike_id":"4b21239c-4264-43d2-9677-18eac578f916","system_id":"levelo_inurba_marseille","lat":43.27803,"lon":5.4072,"is_reserved":false,"is_disabled":true,"rental_uris":{"android":"levelo://app?vid=4b21239c-4264-43d2-9677-18eac578f916","ios":"levelo://app?vid=4b21239c-4264-43d2-9677-18eac578f916"},"vehicle_type_id":"4","last_reported":1748141424,"current_range_meters":9600,"station_id":"ce4bhnh2rcd13ifvqgtg","pricing_plan_id":"cebpf4jnsgd1na2vs0mg"},{"bike_id":"583a65fb-6e62-4d9c-9bce-98b6a07c0ec2","system_id":"levelo_inurba_marseille","lat":43.30923,"lon":5.40171,"is_reserved":false,"is_disabled":false,"rental_uris":{"android":"levelo://app?vid=583a65fb-6e62-4d9c-9bce-98b6a07c0ec2","ios":"levelo://app?vid=583a65fb-6e62-4d9c-9bce-98b6a07c0ec2"},"vehicle_type_id":"4","last_reported":1748141424,"current_range_meters":9600,"station_id":"ce4bgvp2rcd13ifvqct0","pricing_plan_id":"cebpf4jnsgd1na2vs0mg"},{"bike_id":"88ac5a91-56d3-4573-b0f2-5c6bbb7d986b","system_id":"levelo_inurba_marseille","lat":43.26082,"lon":5.39621,"is_reserved":false,"is_disabled":false,"rental_uris":{"android":"levelo://app?vid=88ac5a91-56d3-4573-b0f2-5c6bbb7d986b","ios":"levelo://app?vid=88ac5a91-56d3-4573-b0f2-5c6bbb7d986b"},"vehicle_type_id":"4","last_reported":1748141424,"current_range_meters":9600,"station_id":"","pricing_plan_id":"cebpf4jnsgd1na2vs0mg"},{"bike_id":"1e3a32c0-7e67-4851-965f-c8e0ea83425d","system_id":"levelo_inurba_marseille","lat":43.284552,"lon":5.358869,"is_reserved":false,"is_disabled":false,"rental_uris":{"android":"levelo://app?vid=1e3a32c0-7e67-4851-965f-c8e0ea83425d","ios":"levelo://app?vid=1e3a32c0-7e67-4851-965f-c8e0ea83425d"},"vehicle_type_id":"4","last_reported":1748141424,"current_range_meters":9600,"station_id":"ce4bhah2rcd13ifvqei0","pricing_plan_id":"cebpf4jnsgd1na2vs0mg"},{"bike_id":"2e24465f-04d9-4ef0-aeb8-b2d276322da0","system_id":"levelo_inurba_marseille","lat":43.311181,"lon":5.377717,"is_reserved":false,"is_disabled":false,"rental_uris":{"android":"levelo://app?vid=2e24465f-04d9-4ef0-aeb8-b2d276322da0","ios":"levelo://app?vid=2e24465f-04d9-4ef0-aeb8-b2d276322da0"},"vehicle_type_id":"4","last_reported":1748141424,"current_range_meters":9600,"station_id":"ce4bgt92rcd13ifvqcg0","pricing_plan_id":"cebpf4jnsgd1na2vs0mg"},{"bike_id":"4432ca46-ae40-464c-814a-7aceb3a75f48","system_id":"levelo_inurba_marseille","lat":43.2845,"lon":5.35898,"is_reserved":false,"is_disabled":false,"rental_uris":{"android":"levelo://app?vid=4432ca46-ae40-464c-814a-7aceb3a75f48","ios":"levelo://app?vid=4432ca46-ae40-464c-814a-7aceb3a75f48"},"vehicle_type_id":"4","last_reported":1748141424,"current_range_meters":9600,"station_id":"ce4bhah2rcd13ifvqei0","pricing_plan_id":"cebpf4jnsgd1na2vs0mg"},{"bike_id":"b72ccfd1-35cf-4b02-9c1a-90aef7c74e5f","system_id":"levelo_inurba_marseille","lat":43.248641,"lon":5.441904,"is_reserved":false,"is_disabled":false,"rental_uris":{"android":"levelo://app?vid=b72ccfd1-35cf-4b02-9c1a-90aef7c74e5f","ios":"levelo://app?vid=b72ccfd1-35cf-4b02-9c1a-90aef7c74e5f"},"vehicle_type_id":"4","last_reported":1748141424,"current_range_meters":9600,"station_id":"","pricing_plan_id":"cebpf4jnsgd1na2vs0mg"},{"bike_id":"8199505b-e114-4138-8581-1cb9b97e9b8c","system_id":"levelo_inurba_marseille","lat":43.29264,"lon":5.4014,"is_reserved":false,"is_disabled":false,"rental_uris":{"android":"levelo://app?vid=8199505b-e114-4138-8581-1cb9b97e9b8c","ios":"levelo://app?vid=8199505b-e114-4138-8581-1cb9b97e9b8c"},"vehicle_type_id":"4","last_reported":1748141424,"current_range_meters":9600,"station_id":"ce4bh312rcd13ifvqdk0","pricing_plan_id":"cebpf4jnsgd1na2vs0mg"},{"bike_id":"0854c8ed-55c6-4535-9eff-3fa522326254","system_id":"levelo_inurba_marseille","lat":43.3136,"lon":5.37441,"is_reserved":false,"is_disabled":false,"rental_uris":{"android":"levelo://app?vid=0854c8ed-55c6-4535-9eff-3fa522326254","ios":"levelo://app?vid=0854c8ed-55c6-4535-9eff-3fa522326254"},"vehicle_type_id":"4","last_reported":1748141424,"current_range_meters":10000,"station_id":"","pricing_plan_id":"cebpf4jnsgd1na2vs0mg"},{"bike_id":"bf1f7f3c-cd03-4e16-83bf-ebf54137f48e","system_id":"levelo_inurba_marseille","lat":43.29043,"lon":5.36641,"is_reserved":false,"is_disabled":false,"rental_uris":{"android":"levelo://app?vid=bf1f7f3c-cd03-4e16-83bf-ebf54137f48e","ios":"levelo://app?vid=bf1f7f3c-cd03-4e16-83bf-ebf54137f48e"},"vehicle_type_id":"4","last_reported":1748141424,"current_range_meters":10000,"station_id":"","pricing_plan_id":"cebpf4jnsgd1na2vs0mg"},{"bike_id":"9dd9a095-7efa-4214-95c3-7b13dce4c05b","system_id":"levelo_inurba_marseille","lat":43.30463,"lon":5.37904,"is_reserved":false,"is_disabled":false,"rental_uris":{"android":"levelo://app?vid=9dd9a095-7efa-4214-95c3-7b13dce4c05b","ios":"levelo://app?vid=9dd9a095-7efa-4214-95c3-7b13dce4c05b"},"vehicle_type_id":"4","last_reported":1748141424,"current_range_meters":10000,"station_id":"ce4bgup2rcd13ifvqcn0","pricing_plan_id":"cebpf4jnsgd1na2vs0mg"},{"bike_id":"83156db7-3088-4dca-9346-1b73e55de16f","system_id":"levelo_inurba_marseille","lat":43.28861,"lon":5.35819,"is_reserved":false,"is_disabled":false,"rental_uris":{"android":"levelo://app?vid=83156db7-3088-4dca-9346-1b73e55de16f","ios":"levelo://app?vid=83156db7-3088-4dca-9346-1b73e55de16f"},"vehicle_type_id":"4","last_reported":1748141424,"current_range_meters":10000,"station_id":"ce4bhb12rcd13ifvqem0","pricing_plan_id":"cebpf4jnsgd1na2vs0mg"},{"bike_id":"c359fb41-23b4-4b72-a5c7-4d4cea6d2c29","system_id":"levelo_inurba_marseille","lat":43.28566,"lon":5.39505,"is_reserved":false,"is_disabled":false,"rental_uris":{"android":"levelo://app?vid=c359fb41-23b4-4b72-a5c7-4d4cea6d2c29","ios":"levelo://app?vid=c359fb41-23b4-4b72-a5c7-4d4cea6d2c29"},"vehicle_type_id":"4","last_reported":1748141424,"current_range_meters":10000,"station_id":"ce4bh292rcd13ifvqdg0","pricing_plan_id":"cebpf4jnsgd1na2vs0mg"},{"bike_id":"0ddf2b5a-1565-4aab-be09-ecef369e20f0","system_id":"levelo_inurba_marseille","lat":43.299132,"lon":5.38138,"is_reserved":false,"is_disabled":true,"rental_uris":{"android":"levelo://app?vid=0ddf2b5a-1565-4aab-be09-ecef369e20f0","ios":"levelo://app?vid=0ddf2b5a-1565-4aab-be09-ecef369e20f0"},"vehicle_type_id":"4","last_reported":1748141424,"current_range_meters":10000,"station_id":"ce4bgj12rcd13ifvqbc0","pricing_plan_id":"cebpf4jnsgd1na2vs0mg"},{"bike_id":"3324c888-dbcf-4750-bfe2-db489744956f","system_id":"levelo_inurba_marseille","lat":43.284768,"lon":5.384156,"is_reserved":false,"is_disabled":true,"rental_uris":{"android":"levelo://app?vid=3324c888-dbcf-4750-bfe2-db489744956f","ios":"levelo://app?vid=3324c888-dbcf-4750-bfe2-db489744956f"},"vehicle_type_id":"4","last_reported":1748141424,"current_range_meters":10000,"station_id":"ce4bh512rcd13ifvqe3g","pricing_plan_id":"cebpf4jnsgd1na2vs0mg"},{"bike_id":"4db9f946-61ad-4d2c-aa52-0eaf2186d550","system_id":"levelo_inurba_marseille","lat":43.292768,"lon":5.401176,"is_reserved":false,"is_disabled":false,"rental_uris":{"android":"levelo://app?vid=4db9f946-61ad-4d2c-aa52-0eaf2186d550","ios":"levelo://app?vid=4db9f946-61ad-4d2c-aa52-0eaf2186d550"},"vehicle_type_id":"4","last_reported":1748141424,"current_range_meters":10000,"station_id":"ce4bh312rcd13ifvqdk0","pricing_plan_id":"cebpf4jnsgd1na2vs0mg"},{"bike_id":"927e3f29-24b9-4e3b-83cd-8df6b912e853","system_id":"levelo_inurba_marseille","lat":43.30287,"lon":5.37291,"is_reserved":false,"is_disabled":false,"rental_uris":{"android":"levelo://app?vid=927e3f29-24b9-4e3b-83cd-8df6b912e853","ios":"levelo://app?vid=927e3f29-24b9-4e3b-83cd-8df6b912e853"},"vehicle_type_id":"4","last_reported":1748141424,"current_range_meters":10000,"station_id":"","pricing_plan_id":"cebpf4jnsgd1na2vs0mg"},{"bike_id":"b5212b01-f768-4579-bb1f-18803bfb994e","system_id":"levelo_inurba_marseille","lat":43.31666,"lon":5.38888,"is_reserved":false,"is_disabled":false,"rental_uris":{"android":"levelo://app?vid=b5212b01-f768-4579-bb1f-18803bfb994e","ios":"levelo://app?vid=b5212b01-f768-4579-bb1f-18803bfb994e"},"vehicle_type_id":"4","last_reported":1748141424,"current_range_meters":10800,"station_id":"","pricing_plan_id":"cebpf4jnsgd1na2vs0mg"},{"bike_id":"452136e6-268f-4267-9c70-d28768f7bc9c","system_id":"levelo_inurba_marseille","lat":43.251071,"lon":5.403284,"is_reserved":false,"is_disabled":false,"rental_uris":{"android":"levelo://app?vid=452136e6-268f-4267-9c70-d28768f7bc9c","ios":"levelo://app?vid=452136e6-268f-4267-9c70-d28768f7bc9c"},"vehicle_type_id":"4","last_reported":1748141424,"current_range_meters":10800,"station_id":"ce4bhlh2rcd13ifvqgig","pricing_plan_id":"cebpf4jnsgd1na2vs0mg"},{"bike_id":"494dfee6-f062-4620-b8a3-b03deeffc8c1","system_id":"levelo_inurba_marseille","lat":43.312211,"lon":5.368943,"is_reserved":false,"is_disabled":false,"rental_uris":{"android":"levelo://app?vid=494dfee6-f062-4620-b8a3-b03deeffc8c1","ios":"levelo://app?vid=494dfee6-f062-4620-b8a3-b03deeffc8c1"},"vehicle_type_id":"4","last_reported":1748141424,"current_range_meters":10800,"station_id":"ce4bgl92rcd13ifvqbq0","pricing_plan_id":"cebpf4jnsgd1na2vs0mg"},{"bike_id":"182a3f00-d89b-4214-9b86-57fede7634c5","system_id":"levelo_inurba_marseille","lat":43.308001,"lon":5.435183,"is_reserved":false,"is_disabled":false,"rental_uris":{"android":"levelo://app?vid=182a3f00-d89b-4214-9b86-57fede7634c5","ios":"levelo://app?vid=182a3f00-d89b-4214-9b86-57fede7634c5"},"vehicle_type_id":"4","last_reported":1748141424,"current_range_meters":10800,"station_id":"ce4bhph2rcd13ifvqheg","pricing_plan_id":"cebpf4jnsgd1na2vs0mg"},{"bike_id":"37c8c075-8f82-4272-989a-84f131b3479b","system_id":"levelo_inurba_marseille","lat":43.29211,"lon":5.36083,"is_reserved":false,"is_disabled":true,"rental_uris":{"android":"levelo://app?vid=37c8c075-8f82-4272-989a-84f131b3479b","ios":"levelo://app?vid=37c8c075-8f82-4272-989a-84f131b3479b"},"vehicle_type_id":"4","last_reported":1748141424,"current_range_meters":10800,"station_id":"ce4bhbh2rcd13ifvqeqg","pricing_plan_id":"cebpf4jnsgd1na2vs0mg"},{"bike_id":"764aa4a5-fdf1-45d2-8d85-f92b7302018b","system_id":"levelo_inurba_marseille","lat":43.32184,"lon":5.44023,"is_reserved":false,"is_disabled":false,"rental_uris":{"android":"levelo://app?vid=764aa4a5-fdf1-45d2-8d85-f92b7302018b","ios":"levelo://app?vid=764aa4a5-fdf1-45d2-8d85-f92b7302018b"},"vehicle_type_id":"4","last_reported":1748141424,"current_range_meters":10800,"station_id":"","pricing_plan_id":"cebpf4jnsgd1na2vs0mg"},{"bike_id":"6abb9ab4-3976-4e3e-b994-f2f72ee02055","system_id":"levelo_inurba_marseille","lat":43.318097,"lon":5.368405,"is_reserved":false,"is_disabled":false,"rental_uris":{"android":"levelo://app?vid=6abb9ab4-3976-4e3e-b994-f2f72ee02055","ios":"levelo://app?vid=6abb9ab4-3976-4e3e-b994-f2f72ee02055"},"vehicle_type_id":"4","last_reported":1748141424,"current_range_meters":10800,"station_id":"","pricing_plan_id":"cebpf4jnsgd1na2vs0mg"},{"bike_id":"cedb49fe-095f-4530-a045-a099f8cef884","system_id":"levelo_inurba_marseille","lat":43.30544,"lon":5.3843,"is_reserved":false,"is_disabled":false,"rental_uris":{"android":"levelo://app?vid=cedb49fe-095f-4530-a045-a099f8cef884","ios":"levelo://app?vid=cedb49fe-095f-4530-a045-a099f8cef884"},"vehicle_type_id":"4","last_reported":1748141424,"current_range_meters":10800,"station_id":"ce4bgg92rcd13ifvqb30","pricing_plan_id":"cebpf4jnsgd1na2vs0mg"},{"bike_id":"7f33a486-e8ac-45e1-a9ec-4ad11a5a5ebd","system_id":"levelo_inurba_marseille","lat":43.31108,"lon":5.37773,"is_reserved":false,"is_disabled":false,"rental_uris":{"android":"levelo://app?vid=7f33a486-e8ac-45e1-a9ec-4ad11a5a5ebd","ios":"levelo://app?vid=7f33a486-e8ac-45e1-a9ec-4ad11a5a5ebd"},"vehicle_type_id":"4","last_reported":1748141424,"current_range_meters":10800,"station_id":"ce4bgt92rcd13ifvqcg0","pricing_plan_id":"cebpf4jnsgd1na2vs0mg"},{"bike_id":"627576e1-5de8-45f6-a230-597134ae8ecc","system_id":"levelo_inurba_marseille","lat":43.286797,"lon":5.400299,"is_reserved":false,"is_disabled":false,"rental_uris":{"android":"levelo://app?vid=627576e1-5de8-45f6-a230-597134ae8ecc","ios":"levelo://app?vid=627576e1-5de8-45f6-a230-597134ae8ecc"},"vehicle_type_id":"4","last_reported":1748141424,"current_range_meters":10800,"station_id":"ce4bho92rcd13ifvqh3g","pricing_plan_id":"cebpf4jnsgd1na2vs0mg"},{"bike_id":"40209089-ede8-4cc3-b89b-ffec9e3ab195","system_id":"levelo_inurba_marseille","lat":43.22922,"lon":5.35381,"is_reserved":false,"is_disabled":false,"rental_uris":{"android":"levelo://app?vid=40209089-ede8-4cc3-b89b-ffec9e3ab195","ios":"levelo://app?vid=40209089-ede8-4cc3-b89b-ffec9e3ab195"},"vehicle_type_id":"4","last_reported":1748141424,"current_range_meters":10800,"station_id":"cpo3532slgdg3j2ikp40","pricing_plan_id":"cebpf4jnsgd1na2vs0mg"},{"bike_id":"0ed7adf5-bdc1-4246-8ec6-b89b2551c486","system_id":"levelo_inurba_marseille","lat":43.30292,"lon":5.40429,"is_reserved":false,"is_disabled":false,"rental_uris":{"android":"levelo://app?vid=0ed7adf5-bdc1-4246-8ec6-b89b2551c486","ios":"levelo://app?vid=0ed7adf5-bdc1-4246-8ec6-b89b2551c486"},"vehicle_type_id":"4","last_reported":1748141424,"current_range_meters":10800,"station_id":"ce4bh012rcd13ifvqd10","pricing_plan_id":"cebpf4jnsgd1na2vs0mg"},{"bike_id":"d64783aa-6557-4763-8945-f77d584ef667","system_id":"levelo_inurba_marseille","lat":43.29638,"lon":5.37172,"is_reserved":false,"is_disabled":false,"rental_uris":{"android":"levelo://app?vid=d64783aa-6557-4763-8945-f77d584ef667","ios":"levelo://app?vid=d64783aa-6557-4763-8945-f77d584ef667"},"vehicle_type_id":"4","last_reported":1748141424,"current_range_meters":10800,"station_id":"ce4bgnh2rcd13ifvqc0g","pricing_plan_id":"cebpf4jnsgd1na2vs0mg"},{"bike_id":"07c20b36-efcd-49b4-a301-75a9b7505c69","system_id":"levelo_inurba_marseille","lat":43.30135,"lon":5.38972,"is_reserved":false,"is_disabled":false,"rental_uris":{"android":"levelo://app?vid=07c20b36-efcd-49b4-a301-75a9b7505c69","ios":"levelo://app?vid=07c20b36-efcd-49b4-a301-75a9b7505c69"},"vehicle_type_id":"4","last_reported":1748141424,"current_range_meters":10800,"station_id":"","pricing_plan_id":"cebpf4jnsgd1na2vs0mg"},{"bike_id":"c48c0c6d-638e-4ea6-b59e-9249e3f6466d","system_id":"levelo_inurba_marseille","lat":43.31498,"lon":5.37318,"is_reserved":false,"is_disabled":false,"rental_uris":{"android":"levelo://app?vid=c48c0c6d-638e-4ea6-b59e-9249e3f6466d","ios":"levelo://app?vid=c48c0c6d-638e-4ea6-b59e-9249e3f6466d"},"vehicle_type_id":"4","last_reported":1748141424,"current_range_meters":10800,"station_id":"ce4bgt12rcd13ifvqcd0","pricing_plan_id":"cebpf4jnsgd1na2vs0mg"},{"bike_id":"a4eba46b-0b2c-436e-bac9-c5bc5301b901","system_id":"levelo_inurba_marseille","lat":43.308845,"lon":5.396317,"is_reserved":false,"is_disabled":false,"rental_uris":{"android":"levelo://app?vid=a4eba46b-0b2c-436e-bac9-c5bc5301b901","ios":"levelo://app?vid=a4eba46b-0b2c-436e-bac9-c5bc5301b901"},"vehicle_type_id":"4","last_reported":1748141424,"current_range_meters":10800,"station_id":"ce4bh012rcd13ifvqcv0","pricing_plan_id":"cebpf4jnsgd1na2vs0mg"},{"bike_id":"da453a88-f81b-4e0f-9781-5a7f6c1d364c","system_id":"levelo_inurba_marseille","lat":43.337499,"lon":5.374469,"is_reserved":false,"is_disabled":false,"rental_uris":{"android":"levelo://app?vid=da453a88-f81b-4e0f-9781-5a7f6c1d364c","ios":"levelo://app?vid=da453a88-f81b-4e0f-9781-5a7f6c1d364c"},"vehicle_type_id":"4","last_reported":1748141424,"current_range_meters":11200,"station_id":"","pricing_plan_id":"cebpf4jnsgd1na2vs0mg"},{"bike_id":"847ace23-4b19-401e-a0a0-62985ebd3598","system_id":"levelo_inurba_marseille","lat":43.28839,"lon":5.39348,"is_reserved":false,"is_disabled":true,"rental_uris":{"android":"levelo://app?vid=847ace23-4b19-401e-a0a0-62985ebd3598","ios":"levelo://app?vid=847ace23-4b19-401e-a0a0-62985ebd3598"},"vehicle_type_id":"4","last_reported":1748141424,"current_range_meters":11200,"station_id":"ce4bh2p2rcd13ifvqdi0","pricing_plan_id":"cebpf4jnsgd1na2vs0mg"},{"bike_id":"5014cc52-ca7a-4568-a022-d9ed2c0a6d90","system_id":"levelo_inurba_marseille","lat":43.303865,"lon":5.417983,"is_reserved":false,"is_disabled":false,"rental_uris":{"android":"levelo://app?vid=5014cc52-ca7a-4568-a022-d9ed2c0a6d90","ios":"levelo://app?vid=5014cc52-ca7a-4568-a022-d9ed2c0a6d90"},"vehicle_type_id":"4","last_reported":1748141424,"current_range_meters":11200,"station_id":"ce4bhoh2rcd13ifvqh6g","pricing_plan_id":"cebpf4jnsgd1na2vs0mg"},{"bike_id":"a6d0259b-c4a3-4b49-ae20-4440c6d8a1b0","system_id":"levelo_inurba_marseille","lat":43.25096,"lon":5.39499,"is_reserved":false,"is_disabled":false,"rental_uris":{"android":"levelo://app?vid=a6d0259b-c4a3-4b49-ae20-4440c6d8a1b0","ios":"levelo://app?vid=a6d0259b-c4a3-4b49-ae20-4440c6d8a1b0"},"vehicle_type_id":"4","last_reported":1748141424,"current_range_meters":11200,"station_id":"ce4bhm12rcd13ifvqgkg","pricing_plan_id":"cebpf4jnsgd1na2vs0mg"},{"bike_id":"58bc075a-2e3b-4f93-a780-41ef96e2af79","system_id":"levelo_inurba_marseille","lat":43.31526,"lon":5.38045,"is_reserved":false,"is_disabled":false,"rental_uris":{"android":"levelo://app?vid=58bc075a-2e3b-4f93-a780-41ef96e2af79","ios":"levelo://app?vid=58bc075a-2e3b-4f93-a780-41ef96e2af79"},"vehicle_type_id":"4","last_reported":1748141424,"current_range_meters":11200,"station_id":"ce4bhsp2rcd13ifvqi50","pricing_plan_id":"cebpf4jnsgd1na2vs0mg"},{"bike_id":"864ac3b2-136a-4dc9-80f9-30dea8edbd33","system_id":"levelo_inurba_marseille","lat":43.25131,"lon":5.4032,"is_reserved":false,"is_disabled":false,"rental_uris":{"android":"levelo://app?vid=864ac3b2-136a-4dc9-80f9-30dea8edbd33","ios":"levelo://app?vid=864ac3b2-136a-4dc9-80f9-30dea8edbd33"},"vehicle_type_id":"4","last_reported":1748141424,"current_range_meters":11600,"station_id":"ce4bhlh2rcd13ifvqgig","pricing_plan_id":"cebpf4jnsgd1na2vs0mg"},{"bike_id":"4f0adb5e-fcbf-4d9c-9091-a2bbf83763a0","system_id":"levelo_inurba_marseille","lat":43.270654,"lon":5.422819,"is_reserved":false,"is_disabled":false,"rental_uris":{"android":"levelo://app?vid=4f0adb5e-fcbf-4d9c-9091-a2bbf83763a0","ios":"levelo://app?vid=4f0adb5e-fcbf-4d9c-9091-a2bbf83763a0"},"vehicle_type_id":"4","last_reported":1748141424,"current_range_meters":11600,"station_id":"ce4bhk92rcd13ifvqgb0","pricing_plan_id":"cebpf4jnsgd1na2vs0mg"},{"bike_id":"61fc0d9f-4dab-4b02-87e7-52ce5478b82f","system_id":"levelo_inurba_marseille","lat":43.28114,"lon":5.3785,"is_reserved":false,"is_disabled":false,"rental_uris":{"android":"levelo://app?vid=61fc0d9f-4dab-4b02-87e7-52ce5478b82f","ios":"levelo://app?vid=61fc0d9f-4dab-4b02-87e7-52ce5478b82f"},"vehicle_type_id":"4","last_reported":1748141424,"current_range_meters":11600,"station_id":"ce4bha12rcd13ifvqee0","pricing_plan_id":"cebpf4jnsgd1na2vs0mg"},{"bike_id":"fda8603c-ad7b-46d7-873b-31d8bf06c08e","system_id":"levelo_inurba_marseille","lat":43.28831,"lon":5.35837,"is_reserved":false,"is_disabled":false,"rental_uris":{"android":"levelo://app?vid=fda8603c-ad7b-46d7-873b-31d8bf06c08e","ios":"levelo://app?vid=fda8603c-ad7b-46d7-873b-31d8bf06c08e"},"vehicle_type_id":"4","last_reported":1748141424,"current_range_meters":11600,"station_id":"ce4bhb12rcd13ifvqem0","pricing_plan_id":"cebpf4jnsgd1na2vs0mg"},{"bike_id":"57d3f697-0606-47c6-bf97-482d6a1b5410","system_id":"levelo_inurba_marseille","lat":43.246767,"lon":5.381714,"is_reserved":false,"is_disabled":false,"rental_uris":{"android":"levelo://app?vid=57d3f697-0606-47c6-bf97-482d6a1b5410","ios":"levelo://app?vid=57d3f697-0606-47c6-bf97-482d6a1b5410"},"vehicle_type_id":"4","last_reported":1748141424,"current_range_meters":11600,"station_id":"ce4bhih2rcd13ifvqfr0","pricing_plan_id":"cebpf4jnsgd1na2vs0mg"},{"bike_id":"63c73c72-ec46-4177-9a06-13e001f4ae65","system_id":"levelo_inurba_marseille","lat":43.302081,"lon":5.394774,"is_reserved":false,"is_disabled":false,"rental_uris":{"android":"levelo://app?vid=63c73c72-ec46-4177-9a06-13e001f4ae65","ios":"levelo://app?vid=63c73c72-ec46-4177-9a06-13e001f4ae65"},"vehicle_type_id":"4","last_reported":1748141424,"current_range_meters":11600,"station_id":"ce4bh0p2rcd13ifvqd70","pricing_plan_id":"cebpf4jnsgd1na2vs0mg"},{"bike_id":"9b9ef349-5da1-4bfa-87de-6595ec01dc00","system_id":"levelo_inurba_marseille","lat":43.309325,"lon":5.401597,"is_reserved":false,"is_disabled":false,"rental_uris":{"android":"levelo://app?vid=9b9ef349-5da1-4bfa-87de-6595ec01dc00","ios":"levelo://app?vid=9b9ef349-5da1-4bfa-87de-6595ec01dc00"},"vehicle_type_id":"4","last_reported":1748141424,"current_range_meters":12000,"station_id":"ce4bgvp2rcd13ifvqct0","pricing_plan_id":"cebpf4jnsgd1na2vs0mg"},{"bike_id":"16a91e98-b908-4e85-ac1a-3191b3f761d5","system_id":"levelo_inurba_marseille","lat":43.25068,"lon":5.39527,"is_reserved":false,"is_disabled":false,"rental_uris":{"android":"levelo://app?vid=16a91e98-b908-4e85-ac1a-3191b3f761d5","ios":"levelo://app?vid=16a91e98-b908-4e85-ac1a-3191b3f761d5"},"vehicle_type_id":"4","last_reported":1748141424,"current_range_meters":12000,"station_id":"ce4bhm12rcd13ifvqgkg","pricing_plan_id":"cebpf4jnsgd1na2vs0mg"},{"bike_id":"8dcc7c08-49d9-4554-86bb-9d705f917077","system_id":"levelo_inurba_marseille","lat":43.28699,"lon":5.39977,"is_reserved":false,"is_disabled":false,"rental_uris":{"android":"levelo://app?vid=8dcc7c08-49d9-4554-86bb-9d705f917077","ios":"levelo://app?vid=8dcc7c08-49d9-4554-86bb-9d705f917077"},"vehicle_type_id":"4","last_reported":1748141424,"current_range_meters":12000,"station_id":"ce4bho92rcd13ifvqh3g","pricing_plan_id":"cebpf4jnsgd1na2vs0mg"},{"bike_id":"5a43856c-8e7e-4b3c-9a95-a039a79dd888","system_id":"levelo_inurba_marseille","lat":43.323641,"lon":5.388884,"is_reserved":false,"is_disabled":false,"rental_uris":{"android":"levelo://app?vid=5a43856c-8e7e-4b3c-9a95-a039a79dd888","ios":"levelo://app?vid=5a43856c-8e7e-4b3c-9a95-a039a79dd888"},"vehicle_type_id":"4","last_reported":1748141424,"current_range_meters":12000,"station_id":"ce4bhqp2rcd13ifvqhog","pricing_plan_id":"cebpf4jnsgd1na2vs0mg"},{"bike_id":"e4cb08ad-b518-4d2c-ad0d-0a1f92ea16aa","system_id":"levelo_inurba_marseille","lat":43.27947,"lon":5.41057,"is_reserved":false,"is_disabled":false,"rental_uris":{"android":"levelo://app?vid=e4cb08ad-b518-4d2c-ad0d-0a1f92ea16aa","ios":"levelo://app?vid=e4cb08ad-b518-4d2c-ad0d-0a1f92ea16aa"},"vehicle_type_id":"4","last_reported":1748141424,"current_range_meters":12000,"station_id":"ce4bhnp2rcd13ifvqh0g","pricing_plan_id":"cebpf4jnsgd1na2vs0mg"},{"bike_id":"750f6585-193a-4477-948c-580515d42c9e","system_id":"levelo_inurba_marseille","lat":43.32234,"lon":5.43964,"is_reserved":false,"is_disabled":false,"rental_uris":{"android":"levelo://app?vid=750f6585-193a-4477-948c-580515d42c9e","ios":"levelo://app?vid=750f6585-193a-4477-948c-580515d42c9e"},"vehicle_type_id":"4","last_reported":1748141424,"current_range_meters":12000,"station_id":"","pricing_plan_id":"cebpf4jnsgd1na2vs0mg"},{"bike_id":"34acafc0-31ea-4980-a807-286c88b02b0e","system_id":"levelo_inurba_marseille","lat":43.30627,"lon":5.40078,"is_reserved":false,"is_disabled":false,"rental_uris":{"android":"levelo://app?vid=34acafc0-31ea-4980-a807-286c88b02b0e","ios":"levelo://app?vid=34acafc0-31ea-4980-a807-286c88b02b0e"},"vehicle_type_id":"4","last_reported":1748141424,"current_range_meters":12000,"station_id":"ce4bh112rcd13ifvqda0","pricing_plan_id":"cebpf4jnsgd1na2vs0mg"},{"bike_id":"2f03c2fb-b0e6-4dd3-8ae8-9e2ead738d93","system_id":"levelo_inurba_marseille","lat":43.24054,"lon":5.37772,"is_reserved":false,"is_disabled":false,"rental_uris":{"android":"levelo://app?vid=2f03c2fb-b0e6-4dd3-8ae8-9e2ead738d93","ios":"levelo://app?vid=2f03c2fb-b0e6-4dd3-8ae8-9e2ead738d93"},"vehicle_type_id":"4","last_reported":1748141424,"current_range_meters":12000,"station_id":"ce4bhnp2rcd13ifvqgvg","pricing_plan_id":"cebpf4jnsgd1na2vs0mg"},{"bike_id":"5abb8a77-fbf0-4d21-805b-29790cff0e49","system_id":"levelo_inurba_marseille","lat":43.31088,"lon":5.42458,"is_reserved":false,"is_disabled":false,"rental_uris":{"android":"levelo://app?vid=5abb8a77-fbf0-4d21-805b-29790cff0e49","ios":"levelo://app?vid=5abb8a77-fbf0-4d21-805b-29790cff0e49"},"vehicle_type_id":"4","last_reported":1748141424,"current_range_meters":12000,"station_id":"ce4bhp92rcd13ifvqhag","pricing_plan_id":"cebpf4jnsgd1na2vs0mg"},{"bike_id":"36ddf6ac-cdc6-4734-b156-d4c78094edab","system_id":"levelo_inurba_marseille","lat":43.30427,"lon":5.41272,"is_reserved":false,"is_disabled":false,"rental_uris":{"android":"levelo://app?vid=36ddf6ac-cdc6-4734-b156-d4c78094edab","ios":"levelo://app?vid=36ddf6ac-cdc6-4734-b156-d4c78094edab"},"vehicle_type_id":"4","last_reported":1748141424,"current_range_meters":12400,"station_id":"ce4bhop2rcd13ifvqh8g","pricing_plan_id":"cebpf4jnsgd1na2vs0mg"},{"bike_id":"2c9d4d00-7a63-473d-b55c-c423bc06eb22","system_id":"levelo_inurba_marseille","lat":43.307773,"lon":5.376507,"is_reserved":false,"is_disabled":false,"rental_uris":{"android":"levelo://app?vid=2c9d4d00-7a63-473d-b55c-c423bc06eb22","ios":"levelo://app?vid=2c9d4d00-7a63-473d-b55c-c423bc06eb22"},"vehicle_type_id":"4","last_reported":1748141424,"current_range_meters":12400,"station_id":"ce4bgv92rcd13ifvqcq0","pricing_plan_id":"cebpf4jnsgd1na2vs0mg"},{"bike_id":"acb4ee96-5a51-47be-8398-8fc8108b75a2","system_id":"levelo_inurba_marseille","lat":43.3089,"lon":5.3964,"is_reserved":false,"is_disabled":false,"rental_uris":{"android":"levelo://app?vid=acb4ee96-5a51-47be-8398-8fc8108b75a2","ios":"levelo://app?vid=acb4ee96-5a51-47be-8398-8fc8108b75a2"},"vehicle_type_id":"4","last_reported":1748141424,"current_range_meters":12400,"station_id":"ce4bh012rcd13ifvqcv0","pricing_plan_id":"cebpf4jnsgd1na2vs0mg"},{"bike_id":"3850fd70-bc18-4c11-8473-90e02d666583","system_id":"levelo_inurba_marseille","lat":43.29806,"lon":5.45915,"is_reserved":false,"is_disabled":false,"rental_uris":{"android":"levelo://app?vid=3850fd70-bc18-4c11-8473-90e02d666583","ios":"levelo://app?vid=3850fd70-bc18-4c11-8473-90e02d666583"},"vehicle_type_id":"4","last_reported":1748141424,"current_range_meters":12800,"station_id":"","pricing_plan_id":"cebpf4jnsgd1na2vs0mg"},{"bike_id":"7ccb5967-b44e-4696-a291-c80afeb45cd9","system_id":"levelo_inurba_marseille","lat":43.307857,"lon":5.376497,"is_reserved":false,"is_disabled":false,"rental_uris":{"android":"levelo://app?vid=7ccb5967-b44e-4696-a291-c80afeb45cd9","ios":"levelo://app?vid=7ccb5967-b44e-4696-a291-c80afeb45cd9"},"vehicle_type_id":"4","last_reported":1748141424,"current_range_meters":12800,"station_id":"ce4bgv92rcd13ifvqcq0","pricing_plan_id":"cebpf4jnsgd1na2vs0mg"},{"bike_id":"40ebe455-dc85-4510-9ff0-20a2294f7450","system_id":"levelo_inurba_marseille","lat":43.32545,"lon":5.41449,"is_reserved":false,"is_disabled":false,"rental_uris":{"android":"levelo://app?vid=40ebe455-dc85-4510-9ff0-20a2294f7450","ios":"levelo://app?vid=40ebe455-dc85-4510-9ff0-20a2294f7450"},"vehicle_type_id":"4","last_reported":1748141424,"current_range_meters":12800,"station_id":"ce4bhq12rcd13ifvqhhg","pricing_plan_id":"cebpf4jnsgd1na2vs0mg"},{"bike_id":"5ee1d461-8000-4612-af18-06999c16222a","system_id":"levelo_inurba_marseille","lat":43.296275,"lon":5.406065,"is_reserved":false,"is_disabled":false,"rental_uris":{"android":"levelo://app?vid=5ee1d461-8000-4612-af18-06999c16222a","ios":"levelo://app?vid=5ee1d461-8000-4612-af18-06999c16222a"},"vehicle_type_id":"4","last_reported":1748141424,"current_range_meters":12800,"station_id":"ce4bh0h2rcd13ifvqd60","pricing_plan_id":"cebpf4jnsgd1na2vs0mg"},{"bike_id":"7c320c1b-fb02-4806-9e80-37a7ccc7f401","system_id":"levelo_inurba_marseille","lat":43.23207,"lon":5.35542,"is_reserved":false,"is_disabled":false,"rental_uris":{"android":"levelo://app?vid=7c320c1b-fb02-4806-9e80-37a7ccc7f401","ios":"levelo://app?vid=7c320c1b-fb02-4806-9e80-37a7ccc7f401"},"vehicle_type_id":"4","last_reported":1748141424,"current_range_meters":12800,"station_id":"ce4bhu92rcd13ifvqi70","pricing_plan_id":"cebpf4jnsgd1na2vs0mg"},{"bike_id":"cad06a48-5d5e-4efb-bea6-69c2a06fa63c","system_id":"levelo_inurba_marseille","lat":43.31483,"lon":5.373,"is_reserved":false,"is_disabled":false,"rental_uris":{"android":"levelo://app?vid=cad06a48-5d5e-4efb-bea6-69c2a06fa63c","ios":"levelo://app?vid=cad06a48-5d5e-4efb-bea6-69c2a06fa63c"},"vehicle_type_id":"4","last_reported":1748141424,"current_range_meters":13600,"station_id":"ce4bgt12rcd13ifvqcd0","pricing_plan_id":"cebpf4jnsgd1na2vs0mg"},{"bike_id":"f56429d0-ed4a-4d6f-b0cd-9be7ea67b08b","system_id":"levelo_inurba_marseille","lat":43.289329,"lon":5.366188,"is_reserved":false,"is_disabled":false,"rental_uris":{"android":"levelo://app?vid=f56429d0-ed4a-4d6f-b0cd-9be7ea67b08b","ios":"levelo://app?vid=f56429d0-ed4a-4d6f-b0cd-9be7ea67b08b"},"vehicle_type_id":"4","last_reported":1748141424,"current_range_meters":13600,"station_id":"ce4bhap2rcd13ifvqek0","pricing_plan_id":"cebpf4jnsgd1na2vs0mg"},{"bike_id":"451993eb-de22-44e9-b007-1348984f5041","system_id":"levelo_inurba_marseille","lat":43.25128,"lon":5.40335,"is_reserved":false,"is_disabled":false,"rental_uris":{"android":"levelo://app?vid=451993eb-de22-44e9-b007-1348984f5041","ios":"levelo://app?vid=451993eb-de22-44e9-b007-1348984f5041"},"vehicle_type_id":"4","last_reported":1748141424,"current_range_meters":13600,"station_id":"ce4bhlh2rcd13ifvqgig","pricing_plan_id":"cebpf4jnsgd1na2vs0mg"},{"bike_id":"d294229d-0afe-4675-ae8a-a0bb5339eba4","system_id":"levelo_inurba_marseille","lat":43.284194,"lon":5.358497,"is_reserved":false,"is_disabled":false,"rental_uris":{"android":"levelo://app?vid=d294229d-0afe-4675-ae8a-a0bb5339eba4","ios":"levelo://app?vid=d294229d-0afe-4675-ae8a-a0bb5339eba4"},"vehicle_type_id":"4","last_reported":1748141424,"current_range_meters":13600,"station_id":"ce4bhah2rcd13ifvqei0","pricing_plan_id":"cebpf4jnsgd1na2vs0mg"},{"bike_id":"503e77ba-d207-4c9b-9afd-725500ea3736","system_id":"levelo_inurba_marseille","lat":43.282609,"lon":5.350579,"is_reserved":false,"is_disabled":false,"rental_uris":{"android":"levelo://app?vid=503e77ba-d207-4c9b-9afd-725500ea3736","ios":"levelo://app?vid=503e77ba-d207-4c9b-9afd-725500ea3736"},"vehicle_type_id":"4","last_reported":1748141424,"current_range_meters":13600,"station_id":"ce4bhh92rcd13ifvqfj0","pricing_plan_id":"cebpf4jnsgd1na2vs0mg"},{"bike_id":"fe3e0658-634a-47de-a11c-0409377aa09d","system_id":"levelo_inurba_marseille","lat":43.25125,"lon":5.4033,"is_reserved":false,"is_disabled":false,"rental_uris":{"android":"levelo://app?vid=fe3e0658-634a-47de-a11c-0409377aa09d","ios":"levelo://app?vid=fe3e0658-634a-47de-a11c-0409377aa09d"},"vehicle_type_id":"4","last_reported":1748141424,"current_range_meters":14000,"station_id":"ce4bhlh2rcd13ifvqgig","pricing_plan_id":"cebpf4jnsgd1na2vs0mg"},{"bike_id":"75462091-2d8e-4ce5-92e3-db45030d037c","system_id":"levelo_inurba_marseille","lat":43.251148,"lon":5.403176,"is_reserved":false,"is_disabled":false,"rental_uris":{"android":"levelo://app?vid=75462091-2d8e-4ce5-92e3-db45030d037c","ios":"levelo://app?vid=75462091-2d8e-4ce5-92e3-db45030d037c"},"vehicle_type_id":"4","last_reported":1748141424,"current_range_meters":14000,"station_id":"ce4bhlh2rcd13ifvqgig","pricing_plan_id":"cebpf4jnsgd1na2vs0mg"},{"bike_id":"264d8cef-6a27-4c12-9c8f-846b36316b81","system_id":"levelo_inurba_marseille","lat":43.25832,"lon":5.39441,"is_reserved":false,"is_disabled":false,"rental_uris":{"android":"levelo://app?vid=264d8cef-6a27-4c12-9c8f-846b36316b81","ios":"levelo://app?vid=264d8cef-6a27-4c12-9c8f-846b36316b81"},"vehicle_type_id":"4","last_reported":1748141424,"current_range_meters":14000,"station_id":"ce4bhip2rcd13ifvqft0","pricing_plan_id":"cebpf4jnsgd1na2vs0mg"},{"bike_id":"a3071f1e-a9e6-4a50-9331-9f73af35b6cb","system_id":"levelo_inurba_marseille","lat":43.25782,"lon":5.40993,"is_reserved":false,"is_disabled":false,"rental_uris":{"android":"levelo://app?vid=a3071f1e-a9e6-4a50-9331-9f73af35b6cb","ios":"levelo://app?vid=a3071f1e-a9e6-4a50-9331-9f73af35b6cb"},"vehicle_type_id":"4","last_reported":1748141424,"current_range_meters":14000,"station_id":"","pricing_plan_id":"cebpf4jnsgd1na2vs0mg"},{"bike_id":"e5040cc6-5912-44c1-a358-57f34154615c","system_id":"levelo_inurba_marseille","lat":43.28241,"lon":5.38609,"is_reserved":false,"is_disabled":true,"rental_uris":{"android":"levelo://app?vid=e5040cc6-5912-44c1-a358-57f34154615c","ios":"levelo://app?vid=e5040cc6-5912-44c1-a358-57f34154615c"},"vehicle_type_id":"4","last_reported":1748141424,"current_range_meters":14000,"station_id":"","pricing_plan_id":"cebpf4jnsgd1na2vs0mg"},{"bike_id":"4c838c77-1d6d-4eea-8537-f45dc1e897aa","system_id":"levelo_inurba_marseille","lat":43.25853,"lon":5.39889,"is_reserved":false,"is_disabled":false,"rental_uris":{"android":"levelo://app?vid=4c838c77-1d6d-4eea-8537-f45dc1e897aa","ios":"levelo://app?vid=4c838c77-1d6d-4eea-8537-f45dc1e897aa"},"vehicle_type_id":"4","last_reported":1748141424,"current_range_meters":14000,"station_id":"ce4bhl92rcd13ifvqghg","pricing_plan_id":"cebpf4jnsgd1na2vs0mg"},{"bike_id":"e588bac4-9a86-4979-bfa2-d6f8331f4471","system_id":"levelo_inurba_marseille","lat":43.30621,"lon":5.40079,"is_reserved":false,"is_disabled":false,"rental_uris":{"android":"levelo://app?vid=e588bac4-9a86-4979-bfa2-d6f8331f4471","ios":"levelo://app?vid=e588bac4-9a86-4979-bfa2-d6f8331f4471"},"vehicle_type_id":"4","last_reported":1748141424,"current_range_meters":14000,"station_id":"ce4bh112rcd13ifvqda0","pricing_plan_id":"cebpf4jnsgd1na2vs0mg"},{"bike_id":"0e526ac6-d22a-466e-909a-8989748e04a2","system_id":"levelo_inurba_marseille","lat":43.241596,"lon":5.397116,"is_reserved":false,"is_disabled":false,"rental_uris":{"android":"levelo://app?vid=0e526ac6-d22a-466e-909a-8989748e04a2","ios":"levelo://app?vid=0e526ac6-d22a-466e-909a-8989748e04a2"},"vehicle_type_id":"4","last_reported":1748141424,"current_range_meters":14000,"station_id":"ce4bhn12rcd13ifvqgpg","pricing_plan_id":"cebpf4jnsgd1na2vs0mg"},{"bike_id":"05a6e561-67d4-4a18-a7fa-d115485a930f","system_id":"levelo_inurba_marseille","lat":43.31315,"lon":5.39715,"is_reserved":false,"is_disabled":false,"rental_uris":{"android":"levelo://app?vid=05a6e561-67d4-4a18-a7fa-d115485a930f","ios":"levelo://app?vid=05a6e561-67d4-4a18-a7fa-d115485a930f"},"vehicle_type_id":"4","last_reported":1748141424,"current_range_meters":14000,"station_id":"ce4bgvp2rcd13ifvqcu0","pricing_plan_id":"cebpf4jnsgd1na2vs0mg"},{"bike_id":"689832fd-700b-44cc-b355-a7879317a987","system_id":"levelo_inurba_marseille","lat":43.30642,"lon":5.40063,"is_reserved":false,"is_disabled":false,"rental_uris":{"android":"levelo://app?vid=689832fd-700b-44cc-b355-a7879317a987","ios":"levelo://app?vid=689832fd-700b-44cc-b355-a7879317a987"},"vehicle_type_id":"4","last_reported":1748141424,"current_range_meters":14000,"station_id":"ce4bh112rcd13ifvqda0","pricing_plan_id":"cebpf4jnsgd1na2vs0mg"},{"bike_id":"7f0b3323-77a1-43c6-a91f-7eae2ece8cc3","system_id":"levelo_inurba_marseille","lat":43.31661,"lon":5.38975,"is_reserved":false,"is_disabled":false,"rental_uris":{"android":"levelo://app?vid=7f0b3323-77a1-43c6-a91f-7eae2ece8cc3","ios":"levelo://app?vid=7f0b3323-77a1-43c6-a91f-7eae2ece8cc3"},"vehicle_type_id":"4","last_reported":1748141424,"current_range_meters":14400,"station_id":"","pricing_plan_id":"cebpf4jnsgd1na2vs0mg"},{"bike_id":"e9496718-b841-4999-823d-28c5bee5d6f1","system_id":"levelo_inurba_marseille","lat":43.26538,"lon":5.38988,"is_reserved":false,"is_disabled":false,"rental_uris":{"android":"levelo://app?vid=e9496718-b841-4999-823d-28c5bee5d6f1","ios":"levelo://app?vid=e9496718-b841-4999-823d-28c5bee5d6f1"},"vehicle_type_id":"4","last_reported":1748141424,"current_range_meters":14400,"station_id":"ce4bhe12rcd13ifvqf30","pricing_plan_id":"cebpf4jnsgd1na2vs0mg"},{"bike_id":"446ec97d-5a68-43c3-bbb2-ed42bf29b327","system_id":"levelo_inurba_marseille","lat":43.31041,"lon":5.38381,"is_reserved":false,"is_disabled":false,"rental_uris":{"android":"levelo://app?vid=446ec97d-5a68-43c3-bbb2-ed42bf29b327","ios":"levelo://app?vid=446ec97d-5a68-43c3-bbb2-ed42bf29b327"},"vehicle_type_id":"4","last_reported":1748141424,"current_range_meters":14400,"station_id":"ce4bgv92rcd13ifvqcr0","pricing_plan_id":"cebpf4jnsgd1na2vs0mg"},{"bike_id":"985dfe2e-48ab-4438-8b44-7034bccf028e","system_id":"levelo_inurba_marseille","lat":43.27,"lon":5.39851,"is_reserved":false,"is_disabled":false,"rental_uris":{"android":"levelo://app?vid=985dfe2e-48ab-4438-8b44-7034bccf028e","ios":"levelo://app?vid=985dfe2e-48ab-4438-8b44-7034bccf028e"},"vehicle_type_id":"4","last_reported":1748141424,"current_range_meters":14400,"station_id":"","pricing_plan_id":"cebpf4jnsgd1na2vs0mg"},{"bike_id":"54a3bbf5-ebe4-4594-9532-519c0897eb70","system_id":"levelo_inurba_marseille","lat":43.299646,"lon":5.413222,"is_reserved":false,"is_disabled":true,"rental_uris":{"android":"levelo://app?vid=54a3bbf5-ebe4-4594-9532-519c0897eb70","ios":"levelo://app?vid=54a3bbf5-ebe4-4594-9532-519c0897eb70"},"vehicle_type_id":"4","last_reported":1748141424,"current_range_meters":14400,"station_id":"ce4bhp12rcd13ifvqh9g","pricing_plan_id":"cebpf4jnsgd1na2vs0mg"},{"bike_id":"7d3bd24a-e5f9-4754-8ec6-3ba44c9c4f5b","system_id":"levelo_inurba_marseille","lat":43.24817,"lon":5.37459,"is_reserved":false,"is_disabled":true,"rental_uris":{"android":"levelo://app?vid=7d3bd24a-e5f9-4754-8ec6-3ba44c9c4f5b","ios":"levelo://app?vid=7d3bd24a-e5f9-4754-8ec6-3ba44c9c4f5b"},"vehicle_type_id":"4","last_reported":1748141424,"current_range_meters":14400,"station_id":"ce4bhgh2rcd13ifvqfb0","pricing_plan_id":"cebpf4jnsgd1na2vs0mg"},{"bike_id":"f980de9c-e947-4a52-af14-d5d96c2f53a2","system_id":"levelo_inurba_marseille","lat":43.30582,"lon":5.37225,"is_reserved":false,"is_disabled":false,"rental_uris":{"android":"levelo://app?vid=f980de9c-e947-4a52-af14-d5d96c2f53a2","ios":"levelo://app?vid=f980de9c-e947-4a52-af14-d5d96c2f53a2"},"vehicle_type_id":"4","last_reported":1748141424,"current_range_meters":14400,"station_id":"ce4bgqh2rcd13ifvqc4g","pricing_plan_id":"cebpf4jnsgd1na2vs0mg"},{"bike_id":"02544717-76c0-47b9-8aed-ed5b735caaa2","system_id":"levelo_inurba_marseille","lat":43.28072,"lon":5.36062,"is_reserved":false,"is_disabled":false,"rental_uris":{"android":"levelo://app?vid=02544717-76c0-47b9-8aed-ed5b735caaa2","ios":"levelo://app?vid=02544717-76c0-47b9-8aed-ed5b735caaa2"},"vehicle_type_id":"4","last_reported":1748141424,"current_range_meters":14400,"station_id":"","pricing_plan_id":"cebpf4jnsgd1na2vs0mg"},{"bike_id":"8c24a1cc-9755-4ef3-aee7-aeff472999dc","system_id":"levelo_inurba_marseille","lat":43.282631,"lon":5.350758,"is_reserved":false,"is_disabled":true,"rental_uris":{"android":"levelo://app?vid=8c24a1cc-9755-4ef3-aee7-aeff472999dc","ios":"levelo://app?vid=8c24a1cc-9755-4ef3-aee7-aeff472999dc"},"vehicle_type_id":"4","last_reported":1748141424,"current_range_meters":14400,"station_id":"ce4bhbp2rcd13ifvqerg","pricing_plan_id":"cebpf4jnsgd1na2vs0mg"},{"bike_id":"dabc077c-bf8d-431d-a5ea-dcd441e9b7b1","system_id":"levelo_inurba_marseille","lat":43.24881,"lon":5.39691,"is_reserved":false,"is_disabled":false,"rental_uris":{"android":"levelo://app?vid=dabc077c-bf8d-431d-a5ea-dcd441e9b7b1","ios":"levelo://app?vid=dabc077c-bf8d-431d-a5ea-dcd441e9b7b1"},"vehicle_type_id":"4","last_reported":1748141424,"current_range_meters":14400,"station_id":"","pricing_plan_id":"cebpf4jnsgd1na2vs0mg"},{"bike_id":"c86cfab1-5001-4b22-959b-864e00eafc09","system_id":"levelo_inurba_marseille","lat":43.308819,"lon":5.3963,"is_reserved":false,"is_disabled":false,"rental_uris":{"android":"levelo://app?vid=c86cfab1-5001-4b22-959b-864e00eafc09","ios":"levelo://app?vid=c86cfab1-5001-4b22-959b-864e00eafc09"},"vehicle_type_id":"4","last_reported":1748141424,"current_range_meters":14400,"station_id":"ce4bh012rcd13ifvqcv0","pricing_plan_id":"cebpf4jnsgd1na2vs0mg"},{"bike_id":"244b36a0-5585-4aef-a371-7da408ef9135","system_id":"levelo_inurba_marseille","lat":43.302519,"lon":5.400733,"is_reserved":false,"is_disabled":false,"rental_uris":{"android":"levelo://app?vid=244b36a0-5585-4aef-a371-7da408ef9135","ios":"levelo://app?vid=244b36a0-5585-4aef-a371-7da408ef9135"},"vehicle_type_id":"4","last_reported":1748141424,"current_range_meters":14400,"station_id":"ce4bgvh2rcd13ifvqcs0","pricing_plan_id":"cebpf4jnsgd1na2vs0mg"},{"bike_id":"6789152e-5881-457a-a24d-3536750296c1","system_id":"levelo_inurba_marseille","lat":43.30476,"lon":5.37902,"is_reserved":false,"is_disabled":false,"rental_uris":{"android":"levelo://app?vid=6789152e-5881-457a-a24d-3536750296c1","ios":"levelo://app?vid=6789152e-5881-457a-a24d-3536750296c1"},"vehicle_type_id":"4","last_reported":1748141424,"current_range_meters":14800,"station_id":"ce4bgup2rcd13ifvqcn0","pricing_plan_id":"cebpf4jnsgd1na2vs0mg"},{"bike_id":"68b98628-f7f6-41b6-8d78-7f4ef277f165","system_id":"levelo_inurba_marseille","lat":43.241559,"lon":5.397266,"is_reserved":false,"is_disabled":false,"rental_uris":{"android":"levelo://app?vid=68b98628-f7f6-41b6-8d78-7f4ef277f165","ios":"levelo://app?vid=68b98628-f7f6-41b6-8d78-7f4ef277f165"},"vehicle_type_id":"4","last_reported":1748141424,"current_range_meters":14800,"station_id":"ce4bhn12rcd13ifvqgpg","pricing_plan_id":"cebpf4jnsgd1na2vs0mg"},{"bike_id":"78084e65-0f8a-4a63-bf1c-3fbde80b370d","system_id":"levelo_inurba_marseille","lat":43.29442,"lon":5.43368,"is_reserved":false,"is_disabled":true,"rental_uris":{"android":"levelo://app?vid=78084e65-0f8a-4a63-bf1c-3fbde80b370d","ios":"levelo://app?vid=78084e65-0f8a-4a63-bf1c-3fbde80b370d"},"vehicle_type_id":"4","last_reported":1748141424,"current_range_meters":14800,"station_id":"","pricing_plan_id":"cebpf4jnsgd1na2vs0mg"},{"bike_id":"a90e20a6-bffb-4ea1-8324-9ffba03b3cf7","system_id":"levelo_inurba_marseille","lat":43.25109,"lon":5.40345,"is_reserved":false,"is_disabled":false,"rental_uris":{"android":"levelo://app?vid=a90e20a6-bffb-4ea1-8324-9ffba03b3cf7","ios":"levelo://app?vid=a90e20a6-bffb-4ea1-8324-9ffba03b3cf7"},"vehicle_type_id":"4","last_reported":1748141424,"current_range_meters":14800,"station_id":"ce4bhlh2rcd13ifvqgig","pricing_plan_id":"cebpf4jnsgd1na2vs0mg"},{"bike_id":"1b18625e-19e9-4ba4-8600-fb9d5a0f7c73","system_id":"levelo_inurba_marseille","lat":43.251173,"lon":5.403193,"is_reserved":false,"is_disabled":false,"rental_uris":{"android":"levelo://app?vid=1b18625e-19e9-4ba4-8600-fb9d5a0f7c73","ios":"levelo://app?vid=1b18625e-19e9-4ba4-8600-fb9d5a0f7c73"},"vehicle_type_id":"4","last_reported":1748141424,"current_range_meters":14800,"station_id":"ce4bhlh2rcd13ifvqgig","pricing_plan_id":"cebpf4jnsgd1na2vs0mg"},{"bike_id":"0defcde7-831f-407a-887a-676bc51ffb0c","system_id":"levelo_inurba_marseille","lat":43.28425,"lon":5.39226,"is_reserved":false,"is_disabled":false,"rental_uris":{"android":"levelo://app?vid=0defcde7-831f-407a-887a-676bc51ffb0c","ios":"levelo://app?vid=0defcde7-831f-407a-887a-676bc51ffb0c"},"vehicle_type_id":"4","last_reported":1748141424,"current_range_meters":14800,"station_id":"ce4bhoh2rcd13ifvqh5g","pricing_plan_id":"cebpf4jnsgd1na2vs0mg"},{"bike_id":"15903b9e-9cb8-48d2-b513-88bf0cdda129","system_id":"levelo_inurba_marseille","lat":43.30793,"lon":5.37643,"is_reserved":false,"is_disabled":false,"rental_uris":{"android":"levelo://app?vid=15903b9e-9cb8-48d2-b513-88bf0cdda129","ios":"levelo://app?vid=15903b9e-9cb8-48d2-b513-88bf0cdda129"},"vehicle_type_id":"4","last_reported":1748141424,"current_range_meters":16000,"station_id":"ce4bgv92rcd13ifvqcq0","pricing_plan_id":"cebpf4jnsgd1na2vs0mg"},{"bike_id":"cd07eb63-8cb3-4a52-a62d-91a94bcdd0d9","system_id":"levelo_inurba_marseille","lat":43.29866,"lon":5.38915,"is_reserved":false,"is_disabled":true,"rental_uris":{"android":"levelo://app?vid=cd07eb63-8cb3-4a52-a62d-91a94bcdd0d9","ios":"levelo://app?vid=cd07eb63-8cb3-4a52-a62d-91a94bcdd0d9"},"vehicle_type_id":"4","last_reported":1748141424,"current_range_meters":15200,"station_id":"ce4bh392rcd13ifvqdl0","pricing_plan_id":"cebpf4jnsgd1na2vs0mg"},{"bike_id":"85deee00-d7a0-4124-9be7-10990aa84c4c","system_id":"levelo_inurba_marseille","lat":43.30959,"lon":5.40159,"is_reserved":false,"is_disabled":false,"rental_uris":{"android":"levelo://app?vid=85deee00-d7a0-4124-9be7-10990aa84c4c","ios":"levelo://app?vid=85deee00-d7a0-4124-9be7-10990aa84c4c"},"vehicle_type_id":"4","last_reported":1748141424,"current_range_meters":15200,"station_id":"ce4bgvp2rcd13ifvqct0","pricing_plan_id":"cebpf4jnsgd1na2vs0mg"},{"bike_id":"c6a1711e-ee9a-40d5-b040-543f7ca91f8b","system_id":"levelo_inurba_marseille","lat":43.303482,"lon":5.418792,"is_reserved":false,"is_disabled":false,"rental_uris":{"android":"levelo://app?vid=c6a1711e-ee9a-40d5-b040-543f7ca91f8b","ios":"levelo://app?vid=c6a1711e-ee9a-40d5-b040-543f7ca91f8b"},"vehicle_type_id":"4","last_reported":1748141424,"current_range_meters":15200,"station_id":"ce4bhop2rcd13ifvqh7g","pricing_plan_id":"cebpf4jnsgd1na2vs0mg"},{"bike_id":"cb16c1b5-f0db-4cdd-bb07-10ba695a2b55","system_id":"levelo_inurba_marseille","lat":43.28706,"lon":5.37389,"is_reserved":false,"is_disabled":false,"rental_uris":{"android":"levelo://app?vid=cb16c1b5-f0db-4cdd-bb07-10ba695a2b55","ios":"levelo://app?vid=cb16c1b5-f0db-4cdd-bb07-10ba695a2b55"},"vehicle_type_id":"4","last_reported":1748141424,"current_range_meters":16000,"station_id":"ce4bh3p2rcd13ifvqdq0","pricing_plan_id":"cebpf4jnsgd1na2vs0mg"},{"bike_id":"679e7e34-d6e1-48c4-9430-69553835d95b","system_id":"levelo_inurba_marseille","lat":43.29823,"lon":5.39302,"is_reserved":false,"is_disabled":false,"rental_uris":{"android":"levelo://app?vid=679e7e34-d6e1-48c4-9430-69553835d95b","ios":"levelo://app?vid=679e7e34-d6e1-48c4-9430-69553835d95b"},"vehicle_type_id":"4","last_reported":1748141424,"current_range_meters":16000,"station_id":"","pricing_plan_id":"cebpf4jnsgd1na2vs0mg"},{"bike_id":"fb14966c-dc81-4839-a094-ab8c755c3e53","system_id":"levelo_inurba_marseille","lat":43.286783,"lon":5.387056,"is_reserved":false,"is_disabled":false,"rental_uris":{"android":"levelo://app?vid=fb14966c-dc81-4839-a094-ab8c755c3e53","ios":"levelo://app?vid=fb14966c-dc81-4839-a094-ab8c755c3e53"},"vehicle_type_id":"4","last_reported":1748141424,"current_range_meters":16000,"station_id":"ce4bh492rcd13ifvqdug","pricing_plan_id":"cebpf4jnsgd1na2vs0mg"},{"bike_id":"8e62abf4-bcfe-4914-88f3-2de709489afe","system_id":"levelo_inurba_marseille","lat":43.30733,"lon":5.37115,"is_reserved":false,"is_disabled":false,"rental_uris":{"android":"levelo://app?vid=8e62abf4-bcfe-4914-88f3-2de709489afe","ios":"levelo://app?vid=8e62abf4-bcfe-4914-88f3-2de709489afe"},"vehicle_type_id":"4","last_reported":1748141424,"current_range_meters":16000,"station_id":"","pricing_plan_id":"cebpf4jnsgd1na2vs0mg"},{"bike_id":"9677d2a3-7e3f-4ca5-bf18-0e183cd88b8c","system_id":"levelo_inurba_marseille","lat":43.323609,"lon":5.388782,"is_reserved":false,"is_disabled":false,"rental_uris":{"android":"levelo://app?vid=9677d2a3-7e3f-4ca5-bf18-0e183cd88b8c","ios":"levelo://app?vid=9677d2a3-7e3f-4ca5-bf18-0e183cd88b8c"},"vehicle_type_id":"4","last_reported":1748141424,"current_range_meters":16000,"station_id":"ce4bhqp2rcd13ifvqhog","pricing_plan_id":"cebpf4jnsgd1na2vs0mg"},{"bike_id":"d556693b-b657-4c5b-a34b-edba74314dcb","system_id":"levelo_inurba_marseille","lat":43.292829,"lon":5.401299,"is_reserved":false,"is_disabled":false,"rental_uris":{"android":"levelo://app?vid=d556693b-b657-4c5b-a34b-edba74314dcb","ios":"levelo://app?vid=d556693b-b657-4c5b-a34b-edba74314dcb"},"vehicle_type_id":"4","last_reported":1748141424,"current_range_meters":16000,"station_id":"ce4bh312rcd13ifvqdk0","pricing_plan_id":"cebpf4jnsgd1na2vs0mg"},{"bike_id":"a5b38d55-88c0-4aec-adc9-d8fc54a1ef4a","system_id":"levelo_inurba_marseille","lat":43.29253,"lon":5.4016,"is_reserved":false,"is_disabled":false,"rental_uris":{"android":"levelo://app?vid=a5b38d55-88c0-4aec-adc9-d8fc54a1ef4a","ios":"levelo://app?vid=a5b38d55-88c0-4aec-adc9-d8fc54a1ef4a"},"vehicle_type_id":"4","last_reported":1748141424,"current_range_meters":16000,"station_id":"ce4bh312rcd13ifvqdk0","pricing_plan_id":"cebpf4jnsgd1na2vs0mg"},{"bike_id":"72bfd565-feeb-4e2a-a249-dfd1a33ced4f","system_id":"levelo_inurba_marseille","lat":43.30884,"lon":5.3721,"is_reserved":false,"is_disabled":false,"rental_uris":{"android":"levelo://app?vid=72bfd565-feeb-4e2a-a249-dfd1a33ced4f","ios":"levelo://app?vid=72bfd565-feeb-4e2a-a249-dfd1a33ced4f"},"vehicle_type_id":"4","last_reported":1748141424,"current_range_meters":16000,"station_id":"ce4bguh2rcd13ifvqckg","pricing_plan_id":"cebpf4jnsgd1na2vs0mg"},{"bike_id":"c665f447-5305-44d5-a70e-dbe478fd2554","system_id":"levelo_inurba_marseille","lat":43.307664,"lon":5.376586,"is_reserved":false,"is_disabled":false,"rental_uris":{"android":"levelo://app?vid=c665f447-5305-44d5-a70e-dbe478fd2554","ios":"levelo://app?vid=c665f447-5305-44d5-a70e-dbe478fd2554"},"vehicle_type_id":"4","last_reported":1748141424,"current_range_meters":16000,"station_id":"ce4bgv92rcd13ifvqcq0","pricing_plan_id":"cebpf4jnsgd1na2vs0mg"},{"bike_id":"2f4f97cc-faff-494c-82a3-534a476a06a3","system_id":"levelo_inurba_marseille","lat":43.270692,"lon":5.422684,"is_reserved":false,"is_disabled":false,"rental_uris":{"android":"levelo://app?vid=2f4f97cc-faff-494c-82a3-534a476a06a3","ios":"levelo://app?vid=2f4f97cc-faff-494c-82a3-534a476a06a3"},"vehicle_type_id":"4","last_reported":1748141424,"current_range_meters":16000,"station_id":"ce4bhk92rcd13ifvqgb0","pricing_plan_id":"cebpf4jnsgd1na2vs0mg"},{"bike_id":"fc56555b-396d-4667-b896-0ad86036e39e","system_id":"levelo_inurba_marseille","lat":43.25922,"lon":5.38034,"is_reserved":false,"is_disabled":false,"rental_uris":{"android":"levelo://app?vid=fc56555b-396d-4667-b896-0ad86036e39e","ios":"levelo://app?vid=fc56555b-396d-4667-b896-0ad86036e39e"},"vehicle_type_id":"4","last_reported":1748141424,"current_range_meters":16400,"station_id":"","pricing_plan_id":"cebpf4jnsgd1na2vs0mg"},{"bike_id":"943bdc48-c86d-4b42-a018-dbd4bb31dd7a","system_id":"levelo_inurba_marseille","lat":43.30766,"lon":5.37662,"is_reserved":false,"is_disabled":false,"rental_uris":{"android":"levelo://app?vid=943bdc48-c86d-4b42-a018-dbd4bb31dd7a","ios":"levelo://app?vid=943bdc48-c86d-4b42-a018-dbd4bb31dd7a"},"vehicle_type_id":"4","last_reported":1748141424,"current_range_meters":16400,"station_id":"ce4bgv92rcd13ifvqcq0","pricing_plan_id":"cebpf4jnsgd1na2vs0mg"},{"bike_id":"d7d43624-a641-4381-92fc-49cd4e58cb5d","system_id":"levelo_inurba_marseille","lat":43.284193,"lon":5.349835,"is_reserved":false,"is_disabled":true,"rental_uris":{"android":"levelo://app?vid=d7d43624-a641-4381-92fc-49cd4e58cb5d","ios":"levelo://app?vid=d7d43624-a641-4381-92fc-49cd4e58cb5d"},"vehicle_type_id":"4","last_reported":1748141424,"current_range_meters":16400,"station_id":"ce4bhbh2rcd13ifvqepg","pricing_plan_id":"cebpf4jnsgd1na2vs0mg"},{"bike_id":"a4aef2b9-b7e8-4e2d-8340-592d28bc6c85","system_id":"levelo_inurba_marseille","lat":43.337582,"lon":5.374479,"is_reserved":false,"is_disabled":false,"rental_uris":{"android":"levelo://app?vid=a4aef2b9-b7e8-4e2d-8340-592d28bc6c85","ios":"levelo://app?vid=a4aef2b9-b7e8-4e2d-8340-592d28bc6c85"},"vehicle_type_id":"4","last_reported":1748141424,"current_range_meters":16400,"station_id":"","pricing_plan_id":"cebpf4jnsgd1na2vs0mg"},{"bike_id":"15ed4aa0-7a37-4190-a31c-0000c236ddc5","system_id":"levelo_inurba_marseille","lat":43.313174,"lon":5.39686,"is_reserved":false,"is_disabled":false,"rental_uris":{"android":"levelo://app?vid=15ed4aa0-7a37-4190-a31c-0000c236ddc5","ios":"levelo://app?vid=15ed4aa0-7a37-4190-a31c-0000c236ddc5"},"vehicle_type_id":"4","last_reported":1748141424,"current_range_meters":16400,"station_id":"ce4bgvp2rcd13ifvqcu0","pricing_plan_id":"cebpf4jnsgd1na2vs0mg"},{"bike_id":"e96d95b8-5632-4e26-86f7-6aa32579e2a2","system_id":"levelo_inurba_marseille","lat":43.25105,"lon":5.4031,"is_reserved":false,"is_disabled":false,"rental_uris":{"android":"levelo://app?vid=e96d95b8-5632-4e26-86f7-6aa32579e2a2","ios":"levelo://app?vid=e96d95b8-5632-4e26-86f7-6aa32579e2a2"},"vehicle_type_id":"4","last_reported":1748141424,"current_range_meters":16400,"station_id":"ce4bhlh2rcd13ifvqgig","pricing_plan_id":"cebpf4jnsgd1na2vs0mg"},