{"last_updated":1747760948,"ttl":60,"version":"2.2","data":{"bikes":[{"bike_id":"c0b9fd4f-e181-46ce-b0bf-f5119973334f","system_id":"levelo_inurba_marseille","lat":43.33771,"lon":5.37424,"is_reserved":false,"is_disabled":true,"rental_uris":{"android":"levelo://app?vid=c0b9fd4f-e181-46ce-b0bf-f5119973334f","ios":"levelo://app?vid=c0b9fd4f-e181-46ce-b0bf-f5119973334f"},"vehicle_type_id":"4","last_reported":1747760948,"current_range_meters":0,"station_id":"","pricing_plan_id":"cebpf4jnsgd1na2vs0mg"},{"bike_id":"ec43956a-9593-4cc1-a477-1603207c70ba","system_id":"levelo_inurba_marseille","lat":43.295804,"lon":5.375076,"is_reserved":false,"is_disabled":false,"rental_uris":{"android":"levelo://app?vid=ec43956a-9593-4cc1-a477-1603207c70ba","ios":"levelo://app?vid=ec43956a-9593-4cc1-a477-1603207c70ba"},"vehicle_type_id":"4","last_reported":1747760948,"current_range_meters":0,"station_id":"","pricing_plan_id":"cebpf4jnsgd1na2vs0mg"},{"bike_id":"fc2577e7-1497-425b-9d4f-ab8d7dc843c6","system_id":"levelo_inurba_marseille","lat":43.33771,"lon":5.37485,"is_reserved":false,"is_disabled":true,"rental_uris":{"android":"levelo://app?vid=fc2577e7-1497-425b-9d4f-ab8d7dc843c6","ios":"levelo://app?vid=fc2577e7-1497-425b-9d4f-ab8d7dc843c6"},"vehicle_type_id":"4","last_reported":1747760948,"current_range_meters":0,"station_id":"","pricing_plan_id":"cebpf4jnsgd1na2vs0mg"},{"bike_id":"0f459924-77c7-4e4d-91ab-eefd8404a7f3","system_id":"levelo_inurba_marseille","lat":43.32106,"lon":5.39211,"is_reserved":false,"is_disabled":true,"rental_uris":{"android":"levelo://app?vid=0f459924-77c7-4e4d-91ab-eefd8404a7f3","ios":"levelo://app?vid=0f459924-77c7-4e4d-91ab-eefd8404a7f3"},"vehicle_type_id":"4","last_reported":1747760948,"current_range_meters":0,"station_id":"","pricing_plan_id":"cebpf4jnsgd1na2vs0mg"},{"bike_id":"303c99cf-a3b4-464d-85b7-b6e34597d70e","system_id":"levelo_inurba_marseille","lat":43.285892,"lon":5.370745,"is_reserved":false,"is_disabled":true,"rental_uris":{"android":"levelo://app?vid=303c99cf-a3b4-464d-85b7-b6e34597d70e","ios":"levelo://app?vid=303c99cf-a3b4-464d-85b7-b6e34597d70e"},"vehicle_type_id":"4","last_reported":1747760948,"current_range_meters":0,"station_id":"","pricing_plan_id":"cebpf4jnsgd1na2vs0mg"},{"bike_id":"fea43c0c-64be-4bdb-9fbb-ba49fa4326e1","system_id":"levelo_inurba_marseille","lat":43.282164,"lon":5.390604,"is_reserved":false,"is_disabled":true,"rental_uris":{"android":"levelo://app?vid=fea43c0c-64be-4bdb-9fbb-ba49fa4326e1","ios":"levelo://app?vid=fea43c0c-64be-4bdb-9fbb-ba49fa4326e1"},"vehicle_type_id":"4","last_reported":1747760948,"current_range_meters":0,"station_id":"","pricing_plan_id":"cebpf4jnsgd1na2vs0mg"},{"bike_id":"e9dd3aa4-b5e7-4480-926d-d7f537719bfa","system_id":"levelo_inurba_marseille","lat":43.230331,"lon":5.401847,"is_reserved":false,"is_disabled":true,"rental_uris":{"android":"levelo://app?vid=e9dd3aa4-b5e7-4480-926d-d7f537719bfa","ios":"levelo://app?vid=e9dd3aa4-b5e7-4480-926d-d7f537719bfa"},"vehicle_type_id":"4","last_reported":1747760948,"current_range_meters":0,"station_id":"","pricing_plan_id":"cebpf4jnsgd1na2vs0mg"},{"bike_id":"0f8cef9b-ef26-49d4-85d0-c594b3e78f6a","system_id":"levelo_inurba_marseille","lat":43.29573,"lon":5.37525,"is_reserved":false,"is_disabled":true,"rental_uris":{"android":"levelo://app?vid=0f8cef9b-ef26-49d4-85d0-c594b3e78f6a","ios":"levelo://app?vid=0f8cef9b-ef26-49d4-85d0-c594b3e78f6a"},"vehicle_type_id":"4","last_reported":1747760948,"current_range_meters":0,"station_id":"ce4bgh92rcd13ifvqb50","pricing_plan_id":"cebpf4jnsgd1na2vs0mg"},{"bike_id":"0ee8ed58-92e9-49ec-804c-e129451155e0","system_id":"levelo_inurba_marseille","lat":43.29277,"lon":5.40117,"is_reserved":false,"is_disabled":true,"rental_uris":{"android":"levelo://app?vid=0ee8ed58-92e9-49ec-804c-e129451155e0","ios":"levelo://app?vid=0ee8ed58-92e9-49ec-804c-e129451155e0"},"vehicle_type_id":"4","last_reported":1747760948,"current_range_meters":0,"station_id":"ce4bh312rcd13ifvqdk0","pricing_plan_id":"cebpf4jnsgd1na2vs0mg"},{"bike_id":"f17eb292-ac5c-4c2e-afa1-29e54c66b725","system_id":"levelo_inurba_marseille","lat":43.29277,"lon":5.36839,"is_reserved":false,"is_disabled":true,"rental_uris":{"android":"levelo://app?vid=f17eb292-ac5c-4c2e-afa1-29e54c66b725","ios":"levelo://app?vid=f17eb292-ac5c-4c2e-afa1-29e54c66b725"},"vehicle_type_id":"4","last_reported":1747760948,"current_range_meters":0,"station_id":"ce4bhbp2rcd13ifvqesg","pricing_plan_id":"cebpf4jnsgd1na2vs0mg"},{"bike_id":"5f67f054-8c51-42c9-a2dd-e8f892fdb18c","system_id":"levelo_inurba_marseille","lat":43.28613,"lon":5.35108,"is_reserved":false,"is_disabled":true,"rental_uris":{"android":"levelo://app?vid=5f67f054-8c51-42c9-a2dd-e8f892fdb18c","ios":"levelo://app?vid=5f67f054-8c51-42c9-a2dd-e8f892fdb18c"},"vehicle_type_id":"4","last_reported":1747760948,"current_range_meters":0,"station_id":"ce4bhch2rcd13ifvqeug","pricing_plan_id":"cebpf4jnsgd1na2vs0mg"},{"bike_id":"978c5234-89fe-4e91-b418-89f484e5af6d","system_id":"levelo_inurba_marseille","lat":43.24815,"lon":5.37465,"is_reserved":false,"is_disabled":true,"rental_uris":{"android":"levelo://app?vid=978c5234-89fe-4e91-b418-89f484e5af6d","ios":"levelo://app?vid=978c5234-89fe-4e91-b418-89f484e5af6d"},"vehicle_type_id":"4","last_reported":1747760948,"current_range_meters":0,"station_id":"ce4bhgh2rcd13ifvqfb0","pricing_plan_id":"cebpf4jnsgd1na2vs0mg"},{"bike_id":"5408ca00-e57a-499e-8830-b05c0dd430bb","system_id":"levelo_inurba_marseille","lat":43.25943,"lon":5.40904,"is_reserved":false,"is_disabled":true,"rental_uris":{"android":"levelo://app?vid=5408ca00-e57a-499e-8830-b05c0dd430bb","ios":"levelo://app?vid=5408ca00-e57a-499e-8830-b05c0dd430bb"},"vehicle_type_id":"4","last_reported":1747760948,"current_range_meters":0,"station_id":"ce4bhm92rcd13ifvqglg","pricing_plan_id":"cebpf4jnsgd1na2vs0mg"},{"bike_id":"3a4db7e7-3b23-4ded-9073-219d356db8b9","system_id":"levelo_inurba_marseille","lat":43.2407,"lon":5.37768,"is_reserved":false,"is_disabled":true,"rental_uris":{"android":"levelo://app?vid=3a4db7e7-3b23-4ded-9073-219d356db8b9","ios":"levelo://app?vid=3a4db7e7-3b23-4ded-9073-219d356db8b9"},"vehicle_type_id":"4","last_reported":1747760948,"current_range_meters":0,"station_id":"ce4bhnp2rcd13ifvqgvg","pricing_plan_id":"cebpf4jnsgd1na2vs0mg"},{"bike_id":"92a5ccba-bde1-41b5-bc2e-f53fdd8dae79","system_id":"levelo_inurba_marseille","lat":43.3043,"lon":5.38887,"is_reserved":false,"is_disabled":true,"rental_uris":{"android":"levelo://app?vid=92a5ccba-bde1-41b5-bc2e-f53fdd8dae79","ios":"levelo://app?vid=92a5ccba-bde1-41b5-bc2e-f53fdd8dae79"},"vehicle_type_id":"4","last_reported":1747760948,"current_range_meters":400,"station_id":"ce4bgk12rcd13ifvqbi0","pricing_plan_id":"cebpf4jnsgd1na2vs0mg"},{"bike_id":"97ff4ae3-1be0-4787-99d4-1ec5954f81cc","system_id":"levelo_inurba_marseille","lat":43.28936,"lon":5.36641,"is_reserved":false,"is_disabled":true,"rental_uris":{"android":"levelo://app?vid=97ff4ae3-1be0-4787-99d4-1ec5954f81cc","ios":"levelo://app?vid=97ff4ae3-1be0-4787-99d4-1ec5954f81cc"},"vehicle_type_id":"4","last_reported":1747760948,"current_range_meters":400,"station_id":"ce4bhap2rcd13ifvqek0","pricing_plan_id":"cebpf4jnsgd1na2vs0mg"},{"bike_id":"0e1482d5-d6c0-4eba-ab03-84bcae90bd6a","system_id":"levelo_inurba_marseille","lat":43.26568,"lon":5.39032,"is_reserved":false,"is_disabled":true,"rental_uris":{"android":"levelo://app?vid=0e1482d5-d6c0-4eba-ab03-84bcae90bd6a","ios":"levelo://app?vid=0e1482d5-d6c0-4eba-ab03-84bcae90bd6a"},"vehicle_type_id":"4","last_reported":1747760948,"current_range_meters":400,"station_id":"ce4bhe12rcd13ifvqf30","pricing_plan_id":"cebpf4jnsgd1na2vs0mg"},{"bike_id":"1e3d1f90-912d-42c3-aa22-c82a2fa4340d","system_id":"levelo_inurba_marseille","lat":43.27054,"lon":5.402705,"is_reserved":false,"is_disabled":true,"rental_uris":{"android":"levelo://app?vid=1e3d1f90-912d-42c3-aa22-c82a2fa4340d","ios":"levelo://app?vid=1e3d1f90-912d-42c3-aa22-c82a2fa4340d"},"vehicle_type_id":"4","last_reported":1747760948,"current_range_meters":400,"station_id":"ce4bhk92rcd13ifvqgc0","pricing_plan_id":"cebpf4jnsgd1na2vs0mg"},{"bike_id":"fe337360-c8d3-454a-9dad-e91efb92a0f1","system_id":"levelo_inurba_marseille","lat":43.31379,"lon":5.38504,"is_reserved":false,"is_disabled":true,"rental_uris":{"android":"levelo://app?vid=fe337360-c8d3-454a-9dad-e91efb92a0f1","ios":"levelo://app?vid=fe337360-c8d3-454a-9dad-e91efb92a0f1"},"vehicle_type_id":"4","last_reported":1747760948,"current_range_meters":800,"station_id":"ce4bgt92rcd13ifvqcf0","pricing_plan_id":"cebpf4jnsgd1na2vs0mg"},{"bike_id":"d9250252-a49f-483f-8bf0-c792e36610ce","system_id":"levelo_inurba_marseille","lat":43.29026,"lon":5.38151,"is_reserved":false,"is_disabled":true,"rental_uris":{"android":"levelo://app?vid=d9250252-a49f-483f-8bf0-c792e36610ce","ios":"levelo://app?vid=d9250252-a49f-483f-8bf0-c792e36610ce"},"vehicle_type_id":"4","last_reported":1747760948,"current_range_meters":800,"station_id":"ce4bh4p2rcd13ifvqe1g","pricing_plan_id":"cebpf4jnsgd1na2vs0mg"},{"bike_id":"be89ec78-00f4-4bb5-af42-35c303902b46","system_id":"levelo_inurba_marseille","lat":43.25113,"lon":5.4032,"is_reserved":false,"is_disabled":true,"rental_uris":{"android":"levelo://app?vid=be89ec78-00f4-4bb5-af42-35c303902b46","ios":"levelo://app?vid=be89ec78-00f4-4bb5-af42-35c303902b46"},"vehicle_type_id":"4","last_reported":1747760948,"current_range_meters":800,"station_id":"ce4bhlh2rcd13ifvqgig","pricing_plan_id":"cebpf4jnsgd1na2vs0mg"},{"bike_id":"2e6e64c2-1430-49d7-a9c1-09fccbf0f8ca","system_id":"levelo_inurba_marseille","lat":43.33719,"lon":5.39192,"is_reserved":false,"is_disabled":true,"rental_uris":{"android":"levelo://app?vid=2e6e64c2-1430-49d7-a9c1-09fccbf0f8ca","ios":"levelo://app?vid=2e6e64c2-1430-49d7-a9c1-09fccbf0f8ca"},"vehicle_type_id":"4","last_reported":1747760948,"current_range_meters":800,"station_id":"ce4bhr92rcd13ifvqhsg","pricing_plan_id":"cebpf4jnsgd1na2vs0mg"},{"bike_id":"4d321f5d-00cc-4587-a0b1-e8b71e8583e0","system_id":"levelo_inurba_marseille","lat":43.26575,"lon":5.39063,"is_reserved":false,"is_disabled":true,"rental_uris":{"android":"levelo://app?vid=4d321f5d-00cc-4587-a0b1-e8b71e8583e0","ios":"levelo://app?vid=4d321f5d-00cc-4587-a0b1-e8b71e8583e0"},"vehicle_type_id":"4","last_reported":1747760948,"current_range_meters":1200,"station_id":"","pricing_plan_id":"cebpf4jnsgd1na2vs0mg"},{"bike_id":"acdcf164-e5bf-4ea2-83b6-332e1a8c4b7d","system_id":"levelo_inurba_marseille","lat":43.305443,"lon":5.384597,"is_reserved":false,"is_disabled":true,"rental_uris":{"android":"levelo://app?vid=acdcf164-e5bf-4ea2-83b6-332e1a8c4b7d","ios":"levelo://app?vid=acdcf164-e5bf-4ea2-83b6-332e1a8c4b7d"},"vehicle_type_id":"4","last_reported":1747760948,"current_range_meters":1200,"station_id":"ce4bgg92rcd13ifvqb30","pricing_plan_id":"cebpf4jnsgd1na2vs0mg"},{"bike_id":"abae60c3-f9a9-470e-b355-de16ebdf0335","system_id":"levelo_inurba_marseille","lat":43.29577,"lon":5.37477,"is_reserved":false,"is_disabled":true,"rental_uris":{"android":"levelo://app?vid=abae60c3-f9a9-470e-b355-de16ebdf0335","ios":"levelo://app?vid=abae60c3-f9a9-470e-b355-de16ebdf0335"},"vehicle_type_id":"4","last_reported":1747760948,"current_range_meters":1200,"station_id":"ce4bgh92rcd13ifvqb50","pricing_plan_id":"cebpf4jnsgd1na2vs0mg"},{"bike_id":"6a0f2585-4b55-4aa5-88c4-367bb4d5fee2","system_id":"levelo_inurba_marseille","lat":43.29709,"lon":5.37699,"is_reserved":false,"is_disabled":true,"rental_uris":{"android":"levelo://app?vid=6a0f2585-4b55-4aa5-88c4-367bb4d5fee2","ios":"levelo://app?vid=6a0f2585-4b55-4aa5-88c4-367bb4d5fee2"},"vehicle_type_id":"4","last_reported":1747760948,"current_range_meters":1200,"station_id":"ce4bgkh2rcd13ifvqbl0","pricing_plan_id":"cebpf4jnsgd1na2vs0mg"},{"bike_id":"ecc527ce-3112-4ba8-9c35-9e89b53a8a3d","system_id":"levelo_inurba_marseille","lat":43.29027,"lon":5.38146,"is_reserved":false,"is_disabled":true,"rental_uris":{"android":"levelo://app?vid=ecc527ce-3112-4ba8-9c35-9e89b53a8a3d","ios":"levelo://app?vid=ecc527ce-3112-4ba8-9c35-9e89b53a8a3d"},"vehicle_type_id":"4","last_reported":1747760948,"current_range_meters":1200,"station_id":"ce4bh4p2rcd13ifvqe1g","pricing_plan_id":"cebpf4jnsgd1na2vs0mg"},{"bike_id":"09e612a8-a2aa-4eba-b728-1d9be60662ba","system_id":"levelo_inurba_marseille","lat":43.28482,"lon":5.38554,"is_reserved":false,"is_disabled":true,"rental_uris":{"android":"levelo://app?vid=09e612a8-a2aa-4eba-b728-1d9be60662ba","ios":"levelo://app?vid=09e612a8-a2aa-4eba-b728-1d9be60662ba"},"vehicle_type_id":"4","last_reported":1747760948,"current_range_meters":1200,"station_id":"ce4bh8p2rcd13ifvqeb0","pricing_plan_id":"cebpf4jnsgd1na2vs0mg"},{"bike_id":"16f749c8-10a7-48df-9f74-247b88690fae","system_id":"levelo_inurba_marseille","lat":43.279903,"lon":5.416724,"is_reserved":false,"is_disabled":false,"rental_uris":{"android":"levelo://app?vid=16f749c8-10a7-48df-9f74-247b88690fae","ios":"levelo://app?vid=16f749c8-10a7-48df-9f74-247b88690fae"},"vehicle_type_id":"4","last_reported":1747760948,"current_range_meters":1600,"station_id":"","pricing_plan_id":"cebpf4jnsgd1na2vs0mg"},{"bike_id":"f73f944f-950f-4891-a629-11698de97fb9","system_id":"levelo_inurba_marseille","lat":43.29973,"lon":5.38492,"is_reserved":false,"is_disabled":true,"rental_uris":{"android":"levelo://app?vid=f73f944f-950f-4891-a629-11698de97fb9","ios":"levelo://app?vid=f73f944f-950f-4891-a629-11698de97fb9"},"vehicle_type_id":"4","last_reported":1747760948,"current_range_meters":1600,"station_id":"ce4bgj92rcd13ifvqbd0","pricing_plan_id":"cebpf4jnsgd1na2vs0mg"},{"bike_id":"4d862b59-21c1-4664-8eff-ec47abc69503","system_id":"levelo_inurba_marseille","lat":43.29579,"lon":5.4,"is_reserved":false,"is_disabled":true,"rental_uris":{"android":"levelo://app?vid=4d862b59-21c1-4664-8eff-ec47abc69503","ios":"levelo://app?vid=4d862b59-21c1-4664-8eff-ec47abc69503"},"vehicle_type_id":"4","last_reported":1747760948,"current_range_meters":1600,"station_id":"ce4bh312rcd13ifvqdj0","pricing_plan_id":"cebpf4jnsgd1na2vs0mg"},{"bike_id":"60a1f32b-c0cc-43de-81db-2c6259a5208a","system_id":"levelo_inurba_marseille","lat":43.29258,"lon":5.38443,"is_reserved":false,"is_disabled":true,"rental_uris":{"android":"levelo://app?vid=60a1f32b-c0cc-43de-81db-2c6259a5208a","ios":"levelo://app?vid=60a1f32b-c0cc-43de-81db-2c6259a5208a"},"vehicle_type_id":"4","last_reported":1747760948,"current_range_meters":1600,"station_id":"ce4bh692rcd13ifvqea0","pricing_plan_id":"cebpf4jnsgd1na2vs0mg"},{"bike_id":"5dff4703-7798-4ea0-b626-0817a26dc29d","system_id":"levelo_inurba_marseille","lat":43.28102,"lon":5.37837,"is_reserved":false,"is_disabled":true,"rental_uris":{"android":"levelo://app?vid=5dff4703-7798-4ea0-b626-0817a26dc29d","ios":"levelo://app?vid=5dff4703-7798-4ea0-b626-0817a26dc29d"},"vehicle_type_id":"4","last_reported":1747760948,"current_range_meters":1600,"station_id":"ce4bha12rcd13ifvqee0","pricing_plan_id":"cebpf4jnsgd1na2vs0mg"},{"bike_id":"910cd6d6-1e9a-440a-a266-635b86c1c9a6","system_id":"levelo_inurba_marseille","lat":43.25576,"lon":5.3823,"is_reserved":false,"is_disabled":true,"rental_uris":{"android":"levelo://app?vid=910cd6d6-1e9a-440a-a266-635b86c1c9a6","ios":"levelo://app?vid=910cd6d6-1e9a-440a-a266-635b86c1c9a6"},"vehicle_type_id":"4","last_reported":1747760948,"current_range_meters":1600,"station_id":"ce4bhih2rcd13ifvqfs0","pricing_plan_id":"cebpf4jnsgd1na2vs0mg"},{"bike_id":"81764c60-43c9-4efd-a5aa-175e498ec8c8","system_id":"levelo_inurba_marseille","lat":43.23154,"lon":5.43705,"is_reserved":false,"is_disabled":true,"rental_uris":{"android":"levelo://app?vid=81764c60-43c9-4efd-a5aa-175e498ec8c8","ios":"levelo://app?vid=81764c60-43c9-4efd-a5aa-175e498ec8c8"},"vehicle_type_id":"4","last_reported":1747760948,"current_range_meters":1600,"station_id":"ce4bhmp2rcd13ifvqgog","pricing_plan_id":"cebpf4jnsgd1na2vs0mg"},{"bike_id":"5621ed90-e19d-4f0f-ab96-172d303fa4e3","system_id":"levelo_inurba_marseille","lat":43.284082,"lon":5.375051,"is_reserved":false,"is_disabled":true,"rental_uris":{"android":"levelo://app?vid=5621ed90-e19d-4f0f-ab96-172d303fa4e3","ios":"levelo://app?vid=5621ed90-e19d-4f0f-ab96-172d303fa4e3"},"vehicle_type_id":"4","last_reported":1747760948,"current_range_meters":2000,"station_id":"","pricing_plan_id":"cebpf4jnsgd1na2vs0mg"},{"bike_id":"3c2e874b-823b-4069-8a4a-aca4fb4238f3","system_id":"levelo_inurba_marseille","lat":43.27619,"lon":5.39732,"is_reserved":false,"is_disabled":true,"rental_uris":{"android":"levelo://app?vid=3c2e874b-823b-4069-8a4a-aca4fb4238f3","ios":"levelo://app?vid=3c2e874b-823b-4069-8a4a-aca4fb4238f3"},"vehicle_type_id":"4","last_reported":1747760948,"current_range_meters":2000,"station_id":"","pricing_plan_id":"cebpf4jnsgd1na2vs0mg"},{"bike_id":"99b426c6-daeb-4366-8156-3b90c53f8d3a","system_id":"levelo_inurba_marseille","lat":43.30905,"lon":5.37192,"is_reserved":false,"is_disabled":true,"rental_uris":{"android":"levelo://app?vid=99b426c6-daeb-4366-8156-3b90c53f8d3a","ios":"levelo://app?vid=99b426c6-daeb-4366-8156-3b90c53f8d3a"},"vehicle_type_id":"4","last_reported":1747760948,"current_range_meters":2000,"station_id":"","pricing_plan_id":"cebpf4jnsgd1na2vs0mg"},{"bike_id":"66c90141-e390-40e8-ab47-c1066dff0806","system_id":"levelo_inurba_marseille","lat":43.30305,"lon":5.39216,"is_reserved":false,"is_disabled":true,"rental_uris":{"android":"levelo://app?vid=66c90141-e390-40e8-ab47-c1066dff0806","ios":"levelo://app?vid=66c90141-e390-40e8-ab47-c1066dff0806"},"vehicle_type_id":"4","last_reported":1747760948,"current_range_meters":2000,"station_id":"ce4bgkh2rcd13ifvqbk0","pricing_plan_id":"cebpf4jnsgd1na2vs0mg"},{"bike_id":"4e005d00-c74f-4890-b832-210ffb608cfa","system_id":"levelo_inurba_marseille","lat":43.31367,"lon":5.38511,"is_reserved":false,"is_disabled":true,"rental_uris":{"android":"levelo://app?vid=4e005d00-c74f-4890-b832-210ffb608cfa","ios":"levelo://app?vid=4e005d00-c74f-4890-b832-210ffb608cfa"},"vehicle_type_id":"4","last_reported":1747760948,"current_range_meters":2000,"station_id":"ce4bgt92rcd13ifvqcf0","pricing_plan_id":"cebpf4jnsgd1na2vs0mg"},{"bike_id":"9acd36b2-2c7f-4204-909b-0598a76e42c4","system_id":"levelo_inurba_marseille","lat":43.275635,"lon":5.384198,"is_reserved":false,"is_disabled":true,"rental_uris":{"android":"levelo://app?vid=9acd36b2-2c7f-4204-909b-0598a76e42c4","ios":"levelo://app?vid=9acd36b2-2c7f-4204-909b-0598a76e42c4"},"vehicle_type_id":"4","last_reported":1747760948,"current_range_meters":2000,"station_id":"ce4bhh92rcd13ifvqfi0","pricing_plan_id":"cebpf4jnsgd1na2vs0mg"},{"bike_id":"70cededa-5e74-4166-a6d1-01424ffc6754","system_id":"levelo_inurba_marseille","lat":43.31085,"lon":5.42429,"is_reserved":false,"is_disabled":true,"rental_uris":{"android":"levelo://app?vid=70cededa-5e74-4166-a6d1-01424ffc6754","ios":"levelo://app?vid=70cededa-5e74-4166-a6d1-01424ffc6754"},"vehicle_type_id":"4","last_reported":1747760948,"current_range_meters":2000,"station_id":"ce4bhp92rcd13ifvqhag","pricing_plan_id":"cebpf4jnsgd1na2vs0mg"},{"bike_id":"a2f377fc-ceeb-44c6-b80d-9be882a97936","system_id":"levelo_inurba_marseille","lat":43.31748,"lon":5.39019,"is_reserved":false,"is_disabled":true,"rental_uris":{"android":"levelo://app?vid=a2f377fc-ceeb-44c6-b80d-9be882a97936","ios":"levelo://app?vid=a2f377fc-ceeb-44c6-b80d-9be882a97936"},"vehicle_type_id":"4","last_reported":1747760948,"current_range_meters":2000,"station_id":"ce4bhqp2rcd13ifvqhng","pricing_plan_id":"cebpf4jnsgd1na2vs0mg"},{"bike_id":"cd52443c-f49d-41f3-bdff-ea76720ceefd","system_id":"levelo_inurba_marseille","lat":43.25111,"lon":5.4033,"is_reserved":false,"is_disabled":false,"rental_uris":{"android":"levelo://app?vid=cd52443c-f49d-41f3-bdff-ea76720ceefd","ios":"levelo://app?vid=cd52443c-f49d-41f3-bdff-ea76720ceefd"},"vehicle_type_id":"4","last_reported":1747760948,"current_range_meters":2800,"station_id":"ce4bhlh2rcd13ifvqgig","pricing_plan_id":"cebpf4jnsgd1na2vs0mg"},{"bike_id":"70b11b84-a721-46dc-8e5a-413951016f6a","system_id":"levelo_inurba_marseille","lat":43.28151,"lon":5.42641,"is_reserved":false,"is_disabled":false,"rental_uris":{"android":"levelo://app?vid=70b11b84-a721-46dc-8e5a-413951016f6a","ios":"levelo://app?vid=70b11b84-a721-46dc-8e5a-413951016f6a"},"vehicle_type_id":"4","last_reported":1747760948,"current_range_meters":2800,"station_id":"ce4bhnh2rcd13ifvqgug","pricing_plan_id":"cebpf4jnsgd1na2vs0mg"},{"bike_id":"2faa0b58-e7c9-4a3b-80c4-32f9512e5870","system_id":"levelo_inurba_marseille","lat":43.2928,"lon":5.40125,"is_reserved":false,"is_disabled":false,"rental_uris":{"android":"levelo://app?vid=2faa0b58-e7c9-4a3b-80c4-32f9512e5870","ios":"levelo://app?vid=2faa0b58-e7c9-4a3b-80c4-32f9512e5870"},"vehicle_type_id":"4","last_reported":1747760948,"current_range_meters":3200,"station_id":"ce4bh312rcd13ifvqdk0","pricing_plan_id":"cebpf4jnsgd1na2vs0mg"},{"bike_id":"717b8387-119d-4c87-a803-d1adac62f786","system_id":"levelo_inurba_marseille","lat":43.28697,"lon":5.37387,"is_reserved":false,"is_disabled":false,"rental_uris":{"android":"levelo://app?vid=717b8387-119d-4c87-a803-d1adac62f786","ios":"levelo://app?vid=717b8387-119d-4c87-a803-d1adac62f786"},"vehicle_type_id":"4","last_reported":1747760948,"current_range_meters":3200,"station_id":"ce4bh3p2rcd13ifvqdq0","pricing_plan_id":"cebpf4jnsgd1na2vs0mg"},{"bike_id":"7779bdb2-3e3d-4257-9fe9-06e6e72a8fbb","system_id":"levelo_inurba_marseille","lat":43.28726,"lon":5.37951,"is_reserved":false,"is_disabled":false,"rental_uris":{"android":"levelo://app?vid=7779bdb2-3e3d-4257-9fe9-06e6e72a8fbb","ios":"levelo://app?vid=7779bdb2-3e3d-4257-9fe9-06e6e72a8fbb"},"vehicle_type_id":"4","last_reported":1747760948,"current_range_meters":3200,"station_id":"ce4bh9p2rcd13ifvqec0","pricing_plan_id":"cebpf4jnsgd1na2vs0mg"},{"bike_id":"4b2ffb15-0190-4cd8-97e4-96d048d23f0d","system_id":"levelo_inurba_marseille","lat":43.28723,"lon":5.37939,"is_reserved":false,"is_disabled":false,"rental_uris":{"android":"levelo://app?vid=4b2ffb15-0190-4cd8-97e4-96d048d23f0d","ios":"levelo://app?vid=4b2ffb15-0190-4cd8-97e4-96d048d23f0d"},"vehicle_type_id":"4","last_reported":1747760948,"current_range_meters":3200,"station_id":"ce4bh9p2rcd13ifvqec0","pricing_plan_id":"cebpf4jnsgd1na2vs0mg"},{"bike_id":"7dae96ff-ca28-41a8-8fd4-441d01709e34","system_id":"levelo_inurba_marseille","lat":43.261995,"lon":5.374631,"is_reserved":false,"is_disabled":false,"rental_uris":{"android":"levelo://app?vid=7dae96ff-ca28-41a8-8fd4-441d01709e34","ios":"levelo://app?vid=7dae96ff-ca28-41a8-8fd4-441d01709e34"},"vehicle_type_id":"4","last_reported":1747760948,"current_range_meters":3200,"station_id":"ce4bhgp2rcd13ifvqfc0","pricing_plan_id":"cebpf4jnsgd1na2vs0mg"},{"bike_id":"1564514d-cc8e-42ef-8372-aa83ad864c8e","system_id":"levelo_inurba_marseille","lat":43.281172,"lon":5.406043,"is_reserved":false,"is_disabled":false,"rental_uris":{"android":"levelo://app?vid=1564514d-cc8e-42ef-8372-aa83ad864c8e","ios":"levelo://app?vid=1564514d-cc8e-42ef-8372-aa83ad864c8e"},"vehicle_type_id":"4","last_reported":1747760948,"current_range_meters":3600,"station_id":"","pricing_plan_id":"cebpf4jnsgd1na2vs0mg"},{"bike_id":"c75a3414-cfea-416b-9605-2b027a5e39b1","system_id":"levelo_inurba_marseille","lat":43.28613,"lon":5.3511,"is_reserved":false,"is_disabled":false,"rental_uris":{"android":"levelo://app?vid=c75a3414-cfea-416b-9605-2b027a5e39b1","ios":"levelo://app?vid=c75a3414-cfea-416b-9605-2b027a5e39b1"},"vehicle_type_id":"4","last_reported":1747760948,"current_range_meters":3600,"station_id":"ce4bhch2rcd13ifvqeug","pricing_plan_id":"cebpf4jnsgd1na2vs0mg"},{"bike_id":"e4ee68d3-490c-4b65-b015-2b1d1c51a7e0","system_id":"levelo_inurba_marseille","lat":43.25819,"lon":5.39438,"is_reserved":false,"is_disabled":false,"rental_uris":{"android":"levelo://app?vid=e4ee68d3-490c-4b65-b015-2b1d1c51a7e0","ios":"levelo://app?vid=e4ee68d3-490c-4b65-b015-2b1d1c51a7e0"},"vehicle_type_id":"4","last_reported":1747760948,"current_range_meters":3600,"station_id":"ce4bhip2rcd13ifvqft0","pricing_plan_id":"cebpf4jnsgd1na2vs0mg"},{"bike_id":"649893f4-d1f7-41d7-8f88-42f6b6e183d3","system_id":"levelo_inurba_marseille","lat":43.24074,"lon":5.37766,"is_reserved":false,"is_disabled":false,"rental_uris":{"android":"levelo://app?vid=649893f4-d1f7-41d7-8f88-42f6b6e183d3","ios":"levelo://app?vid=649893f4-d1f7-41d7-8f88-42f6b6e183d3"},"vehicle_type_id":"4","last_reported":1747760948,"current_range_meters":3600,"station_id":"ce4bhnp2rcd13ifvqgvg","pricing_plan_id":"cebpf4jnsgd1na2vs0mg"},{"bike_id":"2c98d39a-b294-4db5-aad9-35a6831eda91","system_id":"levelo_inurba_marseille","lat":43.29787,"lon":5.37098,"is_reserved":false,"is_disabled":false,"rental_uris":{"android":"levelo://app?vid=2c98d39a-b294-4db5-aad9-35a6831eda91","ios":"levelo://app?vid=2c98d39a-b294-4db5-aad9-35a6831eda91"},"vehicle_type_id":"4","last_reported":1747760948,"current_range_meters":4000,"station_id":"ce4bgop2rcd13ifvqc1g","pricing_plan_id":"cebpf4jnsgd1na2vs0mg"},{"bike_id":"6247522f-41bf-4a6d-a667-09426114c4d3","system_id":"levelo_inurba_marseille","lat":43.313281,"lon":5.396984,"is_reserved":false,"is_disabled":false,"rental_uris":{"android":"levelo://app?vid=6247522f-41bf-4a6d-a667-09426114c4d3","ios":"levelo://app?vid=6247522f-41bf-4a6d-a667-09426114c4d3"},"vehicle_type_id":"4","last_reported":1747760948,"current_range_meters":4000,"station_id":"ce4bgvp2rcd13ifvqcu0","pricing_plan_id":"cebpf4jnsgd1na2vs0mg"},{"bike_id":"d13cfc84-3006-4d1c-a731-b43253a0d067","system_id":"levelo_inurba_marseille","lat":43.30081,"lon":5.39082,"is_reserved":false,"is_disabled":false,"rental_uris":{"android":"levelo://app?vid=d13cfc84-3006-4d1c-a731-b43253a0d067","ios":"levelo://app?vid=d13cfc84-3006-4d1c-a731-b43253a0d067"},"vehicle_type_id":"4","last_reported":1747760948,"current_range_meters":4000,"station_id":"ce4bh192rcd13ifvqdb0","pricing_plan_id":"cebpf4jnsgd1na2vs0mg"},{"bike_id":"cfcd4fbd-d189-4944-aea8-c55b76e4f3bb","system_id":"levelo_inurba_marseille","lat":43.25718,"lon":5.41117,"is_reserved":false,"is_disabled":false,"rental_uris":{"android":"levelo://app?vid=cfcd4fbd-d189-4944-aea8-c55b76e4f3bb","ios":"levelo://app?vid=cfcd4fbd-d189-4944-aea8-c55b76e4f3bb"},"vehicle_type_id":"4","last_reported":1747760948,"current_range_meters":4000,"station_id":"ce4bhkp2rcd13ifvqgd0","pricing_plan_id":"cebpf4jnsgd1na2vs0mg"},{"bike_id":"5b07a93d-1d45-42e7-8c79-20536f275154","system_id":"levelo_inurba_marseille","lat":43.28701,"lon":5.3999,"is_reserved":false,"is_disabled":false,"rental_uris":{"android":"levelo://app?vid=5b07a93d-1d45-42e7-8c79-20536f275154","ios":"levelo://app?vid=5b07a93d-1d45-42e7-8c79-20536f275154"},"vehicle_type_id":"4","last_reported":1747760948,"current_range_meters":4000,"station_id":"ce4bho92rcd13ifvqh3g","pricing_plan_id":"cebpf4jnsgd1na2vs0mg"},{"bike_id":"01cb2e34-f8ae-4c99-bc04-8da7443e4644","system_id":"levelo_inurba_marseille","lat":43.30414,"lon":5.41282,"is_reserved":false,"is_disabled":false,"rental_uris":{"android":"levelo://app?vid=01cb2e34-f8ae-4c99-bc04-8da7443e4644","ios":"levelo://app?vid=01cb2e34-f8ae-4c99-bc04-8da7443e4644"},"vehicle_type_id":"4","last_reported":1747760948,"current_range_meters":4000,"station_id":"ce4bhop2rcd13ifvqh8g","pricing_plan_id":"cebpf4jnsgd1na2vs0mg"},{"bike_id":"bcf76825-b688-4776-b2c2-b9e8e703785a","system_id":"levelo_inurba_marseille","lat":43.30735,"lon":5.42455,"is_reserved":false,"is_disabled":false,"rental_uris":{"android":"levelo://app?vid=bcf76825-b688-4776-b2c2-b9e8e703785a","ios":"levelo://app?vid=bcf76825-b688-4776-b2c2-b9e8e703785a"},"vehicle_type_id":"4","last_reported":1747760948,"current_range_meters":4000,"station_id":"st_cvj6ca6bvosntc0bfgr0","pricing_plan_id":"cebpf4jnsgd1na2vs0mg"},{"bike_id":"e64e36d1-c3e7-4427-9260-70ac75fa0a1c","system_id":"levelo_inurba_marseille","lat":43.33781,"lon":5.3749,"is_reserved":false,"is_disabled":false,"rental_uris":{"android":"levelo://app?vid=e64e36d1-c3e7-4427-9260-70ac75fa0a1c","ios":"levelo://app?vid=e64e36d1-c3e7-4427-9260-70ac75fa0a1c"},"vehicle_type_id":"4","last_reported":1747760948,"current_range_meters":4400,"station_id":"","pricing_plan_id":"cebpf4jnsgd1na2vs0mg"},{"bike_id":"00168fba-2984-42c3-b3b8-fd2513ed5a0f","system_id":"levelo_inurba_marseille","lat":43.30875,"lon":5.39648,"is_reserved":false,"is_disabled":false,"rental_uris":{"android":"levelo://app?vid=00168fba-2984-42c3-b3b8-fd2513ed5a0f","ios":"levelo://app?vid=00168fba-2984-42c3-b3b8-fd2513ed5a0f"},"vehicle_type_id":"4","last_reported":1747760948,"current_range_meters":4400,"station_id":"ce4bh012rcd13ifvqcv0","pricing_plan_id":"cebpf4jnsgd1na2vs0mg"},{"bike_id":"beee01e1-6036-436e-b41f-a70603c25f49","system_id":"levelo_inurba_marseille","lat":43.29261,"lon":5.40897,"is_reserved":false,"is_disabled":false,"rental_uris":{"android":"levelo://app?vid=beee01e1-6036-436e-b41f-a70603c25f49","ios":"levelo://app?vid=beee01e1-6036-436e-b41f-a70603c25f49"},"vehicle_type_id":"4","last_reported":1747760948,"current_range_meters":4400,"station_id":"ce4bh192rcd13ifvqdc0","pricing_plan_id":"cebpf4jnsgd1na2vs0mg"},{"bike_id":"016031b0-5767-4c10-9151-af972311f244","system_id":"levelo_inurba_marseille","lat":43.29534,"lon":5.39402,"is_reserved":false,"is_disabled":false,"rental_uris":{"android":"levelo://app?vid=016031b0-5767-4c10-9151-af972311f244","ios":"levelo://app?vid=016031b0-5767-4c10-9151-af972311f244"},"vehicle_type_id":"4","last_reported":1747760948,"current_range_meters":4400,"station_id":"ce4bh292rcd13ifvqdf0","pricing_plan_id":"cebpf4jnsgd1na2vs0mg"},{"bike_id":"04a61269-ebb2-46b2-a132-297f6518df34","system_id":"levelo_inurba_marseille","lat":43.281559,"lon":5.426425,"is_reserved":false,"is_disabled":false,"rental_uris":{"android":"levelo://app?vid=04a61269-ebb2-46b2-a132-297f6518df34","ios":"levelo://app?vid=04a61269-ebb2-46b2-a132-297f6518df34"},"vehicle_type_id":"4","last_reported":1747760948,"current_range_meters":4400,"station_id":"ce4bhnh2rcd13ifvqgug","pricing_plan_id":"cebpf4jnsgd1na2vs0mg"},{"bike_id":"144c6575-1da7-4736-b14d-9724747021a9","system_id":"levelo_inurba_marseille","lat":43.25495,"lon":5.37652,"is_reserved":false,"is_disabled":false,"rental_uris":{"android":"levelo://app?vid=144c6575-1da7-4736-b14d-9724747021a9","ios":"levelo://app?vid=144c6575-1da7-4736-b14d-9724747021a9"},"vehicle_type_id":"4","last_reported":1747760948,"current_range_meters":4800,"station_id":"ce4bhh12rcd13ifvqff0","pricing_plan_id":"cebpf4jnsgd1na2vs0mg"},{"bike_id":"d0c54a00-ea27-42db-b52f-4bb487e4e9e1","system_id":"levelo_inurba_marseille","lat":43.24163,"lon":5.39693,"is_reserved":false,"is_disabled":false,"rental_uris":{"android":"levelo://app?vid=d0c54a00-ea27-42db-b52f-4bb487e4e9e1","ios":"levelo://app?vid=d0c54a00-ea27-42db-b52f-4bb487e4e9e1"},"vehicle_type_id":"4","last_reported":1747760948,"current_range_meters":4800,"station_id":"ce4bhn12rcd13ifvqgpg","pricing_plan_id":"cebpf4jnsgd1na2vs0mg"},{"bike_id":"20bee342-4a3f-4f34-940d-bb6cf00d52ae","system_id":"levelo_inurba_marseille","lat":43.26662,"lon":5.38597,"is_reserved":false,"is_disabled":false,"rental_uris":{"android":"levelo://app?vid=20bee342-4a3f-4f34-940d-bb6cf00d52ae","ios":"levelo://app?vid=20bee342-4a3f-4f34-940d-bb6cf00d52ae"},"vehicle_type_id":"4","last_reported":1747760948,"current_range_meters":5600,"station_id":"","pricing_plan_id":"cebpf4jnsgd1na2vs0mg"},{"bike_id":"b4b21016-abad-40fd-86b3-36a6cd917691","system_id":"levelo_inurba_marseille","lat":43.31552,"lon":5.37335,"is_reserved":false,"is_disabled":false,"rental_uris":{"android":"levelo://app?vid=b4b21016-abad-40fd-86b3-36a6cd917691","ios":"levelo://app?vid=b4b21016-abad-40fd-86b3-36a6cd917691"},"vehicle_type_id":"4","last_reported":1747760948,"current_range_meters":5600,"station_id":"","pricing_plan_id":"cebpf4jnsgd1na2vs0mg"},{"bike_id":"8c761851-48be-43d0-a652-18b510f2ee46","system_id":"levelo_inurba_marseille","lat":43.30459,"lon":5.3792,"is_reserved":false,"is_disabled":false,"rental_uris":{"android":"levelo://app?vid=8c761851-48be-43d0-a652-18b510f2ee46","ios":"levelo://app?vid=8c761851-48be-43d0-a652-18b510f2ee46"},"vehicle_type_id":"4","last_reported":1747760948,"current_range_meters":5600,"station_id":"ce4bgup2rcd13ifvqcn0","pricing_plan_id":"cebpf4jnsgd1na2vs0mg"},{"bike_id":"26e16e82-30ed-4810-a6fc-9f005311e513","system_id":"levelo_inurba_marseille","lat":43.29005,"lon":5.35621,"is_reserved":false,"is_disabled":false,"rental_uris":{"android":"levelo://app?vid=26e16e82-30ed-4810-a6fc-9f005311e513","ios":"levelo://app?vid=26e16e82-30ed-4810-a6fc-9f005311e513"},"vehicle_type_id":"4","last_reported":1747760948,"current_range_meters":5600,"station_id":"ce4bhb92rcd13ifvqen0","pricing_plan_id":"cebpf4jnsgd1na2vs0mg"},{"bike_id":"4546e8a2-377e-4dfa-80c7-fc13b6109698","system_id":"levelo_inurba_marseille","lat":43.27566,"lon":5.38431,"is_reserved":false,"is_disabled":false,"rental_uris":{"android":"levelo://app?vid=4546e8a2-377e-4dfa-80c7-fc13b6109698","ios":"levelo://app?vid=4546e8a2-377e-4dfa-80c7-fc13b6109698"},"vehicle_type_id":"4","last_reported":1747760948,"current_range_meters":5600,"station_id":"ce4bhh92rcd13ifvqfi0","pricing_plan_id":"cebpf4jnsgd1na2vs0mg"},{"bike_id":"accd0198-afc3-4e9b-93f8-4c53d5400ad2","system_id":"levelo_inurba_marseille","lat":43.251182,"lon":5.403152,"is_reserved":false,"is_disabled":false,"rental_uris":{"android":"levelo://app?vid=accd0198-afc3-4e9b-93f8-4c53d5400ad2","ios":"levelo://app?vid=accd0198-afc3-4e9b-93f8-4c53d5400ad2"},"vehicle_type_id":"4","last_reported":1747760948,"current_range_meters":5600,"station_id":"ce4bhlh2rcd13ifvqgig","pricing_plan_id":"cebpf4jnsgd1na2vs0mg"},{"bike_id":"396f2af7-a1b7-45ae-b053-326bdaf45e1b","system_id":"levelo_inurba_marseille","lat":43.30382,"lon":5.42486,"is_reserved":false,"is_disabled":false,"rental_uris":{"android":"levelo://app?vid=396f2af7-a1b7-45ae-b053-326bdaf45e1b","ios":"levelo://app?vid=396f2af7-a1b7-45ae-b053-326bdaf45e1b"},"vehicle_type_id":"4","last_reported":1747760948,"current_range_meters":5600,"station_id":"ce4bhoh2rcd13ifvqh6g","pricing_plan_id":"cebpf4jnsgd1na2vs0mg"},{"bike_id":"3fe3e658-16aa-4314-bde3-a3088b88bbed","system_id":"levelo_inurba_marseille","lat":43.30421,"lon":5.41291,"is_reserved":false,"is_disabled":false,"rental_uris":{"android":"levelo://app?vid=3fe3e658-16aa-4314-bde3-a3088b88bbed","ios":"levelo://app?vid=3fe3e658-16aa-4314-bde3-a3088b88bbed"},"vehicle_type_id":"4","last_reported":1747760948,"current_range_meters":5600,"station_id":"ce4bhop2rcd13ifvqh8g","pricing_plan_id":"cebpf4jnsgd1na2vs0mg"},{"bike_id":"e1099fc2-8880-4344-bde0-04dfc31e44a5","system_id":"levelo_inurba_marseille","lat":43.30812,"lon":5.43523,"is_reserved":false,"is_disabled":false,"rental_uris":{"android":"levelo://app?vid=e1099fc2-8880-4344-bde0-04dfc31e44a5","ios":"levelo://app?vid=e1099fc2-8880-4344-bde0-04dfc31e44a5"},"vehicle_type_id":"4","last_reported":1747760948,"current_range_meters":5600,"station_id":"ce4bhph2rcd13ifvqheg","pricing_plan_id":"cebpf4jnsgd1na2vs0mg"},{"bike_id":"1c466d85-e897-4aa4-804b-1559a2be7b7c","system_id":"levelo_inurba_marseille","lat":43.32358,"lon":5.40624,"is_reserved":false,"is_disabled":false,"rental_uris":{"android":"levelo://app?vid=1c466d85-e897-4aa4-804b-1559a2be7b7c","ios":"levelo://app?vid=1c466d85-e897-4aa4-804b-1559a2be7b7c"},"vehicle_type_id":"4","last_reported":1747760948,"current_range_meters":5600,"station_id":"ce4bhq92rcd13ifvqhjg","pricing_plan_id":"cebpf4jnsgd1na2vs0mg"},{"bike_id":"c36e52d0-0ce4-446b-a2c7-a9e1dcea85af","system_id":"levelo_inurba_marseille","lat":43.29418,"lon":5.38626,"is_reserved":false,"is_disabled":false,"rental_uris":{"android":"levelo://app?vid=c36e52d0-0ce4-446b-a2c7-a9e1dcea85af","ios":"levelo://app?vid=c36e52d0-0ce4-446b-a2c7-a9e1dcea85af"},"vehicle_type_id":"4","last_reported":1747760948,"current_range_meters":6000,"station_id":"ce4bh2h2rcd13ifvqdh0","pricing_plan_id":"cebpf4jnsgd1na2vs0mg"},{"bike_id":"9c3eadf3-209c-4ac8-b003-8fcd453ae05f","system_id":"levelo_inurba_marseille","lat":43.28028,"lon":5.36946,"is_reserved":false,"is_disabled":false,"rental_uris":{"android":"levelo://app?vid=9c3eadf3-209c-4ac8-b003-8fcd453ae05f","ios":"levelo://app?vid=9c3eadf3-209c-4ac8-b003-8fcd453ae05f"},"vehicle_type_id":"4","last_reported":1747760948,"current_range_meters":6000,"station_id":"ce4bha12rcd13ifvqef0","pricing_plan_id":"cebpf4jnsgd1na2vs0mg"},{"bike_id":"e73e75f0-2271-48a8-9420-fbb2720b962d","system_id":"levelo_inurba_marseille","lat":43.28215,"lon":5.39063,"is_reserved":false,"is_disabled":false,"rental_uris":{"android":"levelo://app?vid=e73e75f0-2271-48a8-9420-fbb2720b962d","ios":"levelo://app?vid=e73e75f0-2271-48a8-9420-fbb2720b962d"},"vehicle_type_id":"4","last_reported":1747760948,"current_range_meters":6400,"station_id":"","pricing_plan_id":"cebpf4jnsgd1na2vs0mg"},{"bike_id":"3756623f-8650-41f1-921f-b5cabd8d6af7","system_id":"levelo_inurba_marseille","lat":43.31985,"lon":5.37487,"is_reserved":false,"is_disabled":false,"rental_uris":{"android":"levelo://app?vid=3756623f-8650-41f1-921f-b5cabd8d6af7","ios":"levelo://app?vid=3756623f-8650-41f1-921f-b5cabd8d6af7"},"vehicle_type_id":"4","last_reported":1747760948,"current_range_meters":6400,"station_id":"","pricing_plan_id":"cebpf4jnsgd1na2vs0mg"},{"bike_id":"ba59102a-6c47-4600-bcb9-76e5920c2815","system_id":"levelo_inurba_marseille","lat":43.31413,"lon":5.37173,"is_reserved":false,"is_disabled":false,"rental_uris":{"android":"levelo://app?vid=ba59102a-6c47-4600-bcb9-76e5920c2815","ios":"levelo://app?vid=ba59102a-6c47-4600-bcb9-76e5920c2815"},"vehicle_type_id":"4","last_reported":1747760948,"current_range_meters":6400,"station_id":"","pricing_plan_id":"cebpf4jnsgd1na2vs0mg"},{"bike_id":"ad8cfcc6-58f5-4218-b13a-5a54e5d98fa3","system_id":"levelo_inurba_marseille","lat":43.338,"lon":5.37423,"is_reserved":false,"is_disabled":false,"rental_uris":{"android":"levelo://app?vid=ad8cfcc6-58f5-4218-b13a-5a54e5d98fa3","ios":"levelo://app?vid=ad8cfcc6-58f5-4218-b13a-5a54e5d98fa3"},"vehicle_type_id":"4","last_reported":1747760948,"current_range_meters":6400,"station_id":"","pricing_plan_id":"cebpf4jnsgd1na2vs0mg"},{"bike_id":"8c4f94e9-fabd-4d83-8401-e4da2a9af6ee","system_id":"levelo_inurba_marseille","lat":43.28458,"lon":5.35886,"is_reserved":false,"is_disabled":false,"rental_uris":{"android":"levelo://app?vid=8c4f94e9-fabd-4d83-8401-e4da2a9af6ee","ios":"levelo://app?vid=8c4f94e9-fabd-4d83-8401-e4da2a9af6ee"},"vehicle_type_id":"4","last_reported":1747760948,"current_range_meters":6400,"station_id":"ce4bhah2rcd13ifvqei0","pricing_plan_id":"cebpf4jnsgd1na2vs0mg"},{"bike_id":"91d3ff24-7edd-4fa2-a267-617488f24a5b","system_id":"levelo_inurba_marseille","lat":43.2872,"lon":5.361,"is_reserved":false,"is_disabled":false,"rental_uris":{"android":"levelo://app?vid=91d3ff24-7edd-4fa2-a267-617488f24a5b","ios":"levelo://app?vid=91d3ff24-7edd-4fa2-a267-617488f24a5b"},"vehicle_type_id":"4","last_reported":1747760948,"current_range_meters":6400,"station_id":"cki0cbj6b192h4jlfktg","pricing_plan_id":"cebpf4jnsgd1na2vs0mg"},{"bike_id":"bcbdbd69-7be8-42f8-a855-a4358565de8f","system_id":"levelo_inurba_marseille","lat":43.27723,"lon":5.41393,"is_reserved":false,"is_disabled":false,"rental_uris":{"android":"levelo://app?vid=bcbdbd69-7be8-42f8-a855-a4358565de8f","ios":"levelo://app?vid=bcbdbd69-7be8-42f8-a855-a4358565de8f"},"vehicle_type_id":"4","last_reported":1747760948,"current_range_meters":6800,"station_id":"","pricing_plan_id":"cebpf4jnsgd1na2vs0mg"},{"bike_id":"72a47a4b-e2da-411e-b09c-a0d32430d643","system_id":"levelo_inurba_marseille","lat":43.28471,"lon":5.35882,"is_reserved":false,"is_disabled":false,"rental_uris":{"android":"levelo://app?vid=72a47a4b-e2da-411e-b09c-a0d32430d643","ios":"levelo://app?vid=72a47a4b-e2da-411e-b09c-a0d32430d643"},"vehicle_type_id":"4","last_reported":1747760948,"current_range_meters":6800,"station_id":"ce4bhah2rcd13ifvqei0","pricing_plan_id":"cebpf4jnsgd1na2vs0mg"},{"bike_id":"43a669de-adcd-42c3-8105-1febeebaa55c","system_id":"levelo_inurba_marseille","lat":43.27912,"lon":5.39583,"is_reserved":false,"is_disabled":false,"rental_uris":{"android":"levelo://app?vid=43a669de-adcd-42c3-8105-1febeebaa55c","ios":"levelo://app?vid=43a669de-adcd-42c3-8105-1febeebaa55c"},"vehicle_type_id":"4","last_reported":1747760948,"current_range_meters":6800,"station_id":"ce4bhf92rcd13ifvqf40","pricing_plan_id":"cebpf4jnsgd1na2vs0mg"},{"bike_id":"8f0f531d-6a65-4647-8a6f-baa3d982f42f","system_id":"levelo_inurba_marseille","lat":43.28125,"lon":5.4257,"is_reserved":false,"is_disabled":false,"rental_uris":{"android":"levelo://app?vid=8f0f531d-6a65-4647-8a6f-baa3d982f42f","ios":"levelo://app?vid=8f0f531d-6a65-4647-8a6f-baa3d982f42f"},"vehicle_type_id":"4","last_reported":1747760948,"current_range_meters":7200,"station_id":"","pricing_plan_id":"cebpf4jnsgd1na2vs0mg"},{"bike_id":"17f4d073-9486-4cee-a2fa-a99cdc38b173","system_id":"levelo_inurba_marseille","lat":43.30901,"lon":5.3967,"is_reserved":false,"is_disabled":false,"rental_uris":{"android":"levelo://app?vid=17f4d073-9486-4cee-a2fa-a99cdc38b173","ios":"levelo://app?vid=17f4d073-9486-4cee-a2fa-a99cdc38b173"},"vehicle_type_id":"4","last_reported":1747760948,"current_range_meters":7200,"station_id":"ce4bh012rcd13ifvqcv0","pricing_plan_id":"cebpf4jnsgd1na2vs0mg"},{"bike_id":"9a68fc7c-5285-4d84-b2e6-669139e6783b","system_id":"levelo_inurba_marseille","lat":43.2925,"lon":5.38451,"is_reserved":false,"is_disabled":false,"rental_uris":{"android":"levelo://app?vid=9a68fc7c-5285-4d84-b2e6-669139e6783b","ios":"levelo://app?vid=9a68fc7c-5285-4d84-b2e6-669139e6783b"},"vehicle_type_id":"4","last_reported":1747760948,"current_range_meters":7200,"station_id":"ce4bh692rcd13ifvqea0","pricing_plan_id":"cebpf4jnsgd1na2vs0mg"},{"bike_id":"119a59d4-ee8a-413c-bcd7-f0aedd178049","system_id":"levelo_inurba_marseille","lat":43.29249,"lon":5.38433,"is_reserved":false,"is_disabled":false,"rental_uris":{"android":"levelo://app?vid=119a59d4-ee8a-413c-bcd7-f0aedd178049","ios":"levelo://app?vid=119a59d4-ee8a-413c-bcd7-f0aedd178049"},"vehicle_type_id":"4","last_reported":1747760948,"current_range_meters":7200,"station_id":"ce4bh692rcd13ifvqea0","pricing_plan_id":"cebpf4jnsgd1na2vs0mg"},{"bike_id":"d83ada01-58b2-451f-b755-0d760e1e3cfd","system_id":"levelo_inurba_marseille","lat":43.2678,"lon":5.39415,"is_reserved":false,"is_disabled":false,"rental_uris":{"android":"levelo://app?vid=d83ada01-58b2-451f-b755-0d760e1e3cfd","ios":"levelo://app?vid=d83ada01-58b2-451f-b755-0d760e1e3cfd"},"vehicle_type_id":"4","last_reported":1747760948,"current_range_meters":7200,"station_id":"ce4bhh12rcd13ifvqfg0","pricing_plan_id":"cebpf4jnsgd1na2vs0mg"},{"bike_id":"a86d588e-15d7-4bbc-a49c-a091c128c973","system_id":"levelo_inurba_marseille","lat":43.231952,"lon":5.355588,"is_reserved":false,"is_disabled":false,"rental_uris":{"android":"levelo://app?vid=a86d588e-15d7-4bbc-a49c-a091c128c973","ios":"levelo://app?vid=a86d588e-15d7-4bbc-a49c-a091c128c973"},"vehicle_type_id":"4","last_reported":1747760948,"current_range_meters":7200,"station_id":"ce4bhu92rcd13ifvqi70","pricing_plan_id":"cebpf4jnsgd1na2vs0mg"},{"bike_id":"84f58d59-7173-4dde-8eea-0586396e4cc0","system_id":"levelo_inurba_marseille","lat":43.28221,"lon":5.3907,"is_reserved":false,"is_disabled":false,"rental_uris":{"android":"levelo://app?vid=84f58d59-7173-4dde-8eea-0586396e4cc0","ios":"levelo://app?vid=84f58d59-7173-4dde-8eea-0586396e4cc0"},"vehicle_type_id":"4","last_reported":1747760948,"current_range_meters":8000,"station_id":"","pricing_plan_id":"cebpf4jnsgd1na2vs0mg"},{"bike_id":"85eaca89-9437-48d0-9bca-a254337b88db","system_id":"levelo_inurba_marseille","lat":43.27449,"lon":5.40983,"is_reserved":false,"is_disabled":false,"rental_uris":{"android":"levelo://app?vid=85eaca89-9437-48d0-9bca-a254337b88db","ios":"levelo://app?vid=85eaca89-9437-48d0-9bca-a254337b88db"},"vehicle_type_id":"4","last_reported":1747760948,"current_range_meters":8000,"station_id":"","pricing_plan_id":"cebpf4jnsgd1na2vs0mg"},{"bike_id":"126c4136-5470-47ae-9a72-33dbde745361","system_id":"levelo_inurba_marseille","lat":43.26556,"lon":5.3903,"is_reserved":false,"is_disabled":false,"rental_uris":{"android":"levelo://app?vid=126c4136-5470-47ae-9a72-33dbde745361","ios":"levelo://app?vid=126c4136-5470-47ae-9a72-33dbde745361"},"vehicle_type_id":"4","last_reported":1747760948,"current_range_meters":8000,"station_id":"ce4bhe12rcd13ifvqf30","pricing_plan_id":"cebpf4jnsgd1na2vs0mg"},{"bike_id":"0a11884a-975d-413c-8e52-07cd7ff9db8f","system_id":"levelo_inurba_marseille","lat":43.28083,"lon":5.37887,"is_reserved":false,"is_disabled":false,"rental_uris":{"android":"levelo://app?vid=0a11884a-975d-413c-8e52-07cd7ff9db8f","ios":"levelo://app?vid=0a11884a-975d-413c-8e52-07cd7ff9db8f"},"vehicle_type_id":"4","last_reported":1747760948,"current_range_meters":8400,"station_id":"","pricing_plan_id":"cebpf4jnsgd1na2vs0mg"},{"bike_id":"6a8e53f8-0905-432f-9a7e-7c4766edff86","system_id":"levelo_inurba_marseille","lat":43.30864,"lon":5.39635,"is_reserved":false,"is_disabled":false,"rental_uris":{"android":"levelo://app?vid=6a8e53f8-0905-432f-9a7e-7c4766edff86","ios":"levelo://app?vid=6a8e53f8-0905-432f-9a7e-7c4766edff86"},"vehicle_type_id":"4","last_reported":1747760948,"current_range_meters":8400,"station_id":"ce4bh012rcd13ifvqcv0","pricing_plan_id":"cebpf4jnsgd1na2vs0mg"},{"bike_id":"fba1460d-0715-4893-925a-3d5b966950e3","system_id":"levelo_inurba_marseille","lat":43.30889,"lon":5.3966,"is_reserved":false,"is_disabled":false,"rental_uris":{"android":"levelo://app?vid=fba1460d-0715-4893-925a-3d5b966950e3","ios":"levelo://app?vid=fba1460d-0715-4893-925a-3d5b966950e3"},"vehicle_type_id":"4","last_reported":1747760948,"current_range_meters":8400,"station_id":"ce4bh012rcd13ifvqcv0","pricing_plan_id":"cebpf4jnsgd1na2vs0mg"},{"bike_id":"d3996809-7ebd-4c26-a054-6ef78dbb7380","system_id":"levelo_inurba_marseille","lat":43.3064,"lon":5.40088,"is_reserved":false,"is_disabled":false,"rental_uris":{"android":"levelo://app?vid=d3996809-7ebd-4c26-a054-6ef78dbb7380","ios":"levelo://app?vid=d3996809-7ebd-4c26-a054-6ef78dbb7380"},"vehicle_type_id":"4","last_reported":1747760948,"current_range_meters":8400,"station_id":"ce4bh112rcd13ifvqda0","pricing_plan_id":"cebpf4jnsgd1na2vs0mg"},{"bike_id":"9e2cbd2f-59c0-49fd-803d-00b3807b36db","system_id":"levelo_inurba_marseille","lat":43.29261,"lon":5.40896,"is_reserved":false,"is_disabled":false,"rental_uris":{"android":"levelo://app?vid=9e2cbd2f-59c0-49fd-803d-00b3807b36db","ios":"levelo://app?vid=9e2cbd2f-59c0-49fd-803d-00b3807b36db"},"vehicle_type_id":"4","last_reported":1747760948,"current_range_meters":8400,"station_id":"ce4bh192rcd13ifvqdc0","pricing_plan_id":"cebpf4jnsgd1na2vs0mg"},{"bike_id":"38a04019-9019-4849-bfab-8d0ffc1551ae","system_id":"levelo_inurba_marseille","lat":43.29093,"lon":5.38131,"is_reserved":false,"is_disabled":false,"rental_uris":{"android":"levelo://app?vid=38a04019-9019-4849-bfab-8d0ffc1551ae","ios":"levelo://app?vid=38a04019-9019-4849-bfab-8d0ffc1551ae"},"vehicle_type_id":"4","last_reported":1747760948,"current_range_meters":8400,"station_id":"ce4bh512rcd13ifvqe2g","pricing_plan_id":"cebpf4jnsgd1na2vs0mg"},{"bike_id":"5b8f8898-3035-480b-84db-69ce9d6b06f9","system_id":"levelo_inurba_marseille","lat":43.28855,"lon":5.35844,"is_reserved":false,"is_disabled":false,"rental_uris":{"android":"levelo://app?vid=5b8f8898-3035-480b-84db-69ce9d6b06f9","ios":"levelo://app?vid=5b8f8898-3035-480b-84db-69ce9d6b06f9"},"vehicle_type_id":"4","last_reported":1747760948,"current_range_meters":8400,"station_id":"ce4bhb12rcd13ifvqem0","pricing_plan_id":"cebpf4jnsgd1na2vs0mg"},{"bike_id":"21c80388-5dc7-4904-b021-db79d4ddd3dc","system_id":"levelo_inurba_marseille","lat":43.27374,"lon":5.36256,"is_reserved":false,"is_disabled":false,"rental_uris":{"android":"levelo://app?vid=21c80388-5dc7-4904-b021-db79d4ddd3dc","ios":"levelo://app?vid=21c80388-5dc7-4904-b021-db79d4ddd3dc"},"vehicle_type_id":"4","last_reported":1747760948,"current_range_meters":8400,"station_id":"ce4bhbh2rcd13ifvqeo0","pricing_plan_id":"cebpf4jnsgd1na2vs0mg"},{"bike_id":"8a77c670-a7af-4ac0-9918-4e6c1c91e962","system_id":"levelo_inurba_marseille","lat":43.25085,"lon":5.39523,"is_reserved":false,"is_disabled":false,"rental_uris":{"android":"levelo://app?vid=8a77c670-a7af-4ac0-9918-4e6c1c91e962","ios":"levelo://app?vid=8a77c670-a7af-4ac0-9918-4e6c1c91e962"},"vehicle_type_id":"4","last_reported":1747760948,"current_range_meters":8400,"station_id":"ce4bhm12rcd13ifvqgkg","pricing_plan_id":"cebpf4jnsgd1na2vs0mg"},{"bike_id":"3ceb6730-f012-4d60-9177-d85a6277f7e2","system_id":"levelo_inurba_marseille","lat":43.28153,"lon":5.42624,"is_reserved":false,"is_disabled":false,"rental_uris":{"android":"levelo://app?vid=3ceb6730-f012-4d60-9177-d85a6277f7e2","ios":"levelo://app?vid=3ceb6730-f012-4d60-9177-d85a6277f7e2"},"vehicle_type_id":"4","last_reported":1747760948,"current_range_meters":8400,"station_id":"ce4bhnh2rcd13ifvqgug","pricing_plan_id":"cebpf4jnsgd1na2vs0mg"},{"bike_id":"feadd485-e507-4070-a97d-b228f8e95bcb","system_id":"levelo_inurba_marseille","lat":43.29556,"lon":5.42292,"is_reserved":false,"is_disabled":false,"rental_uris":{"android":"levelo://app?vid=feadd485-e507-4070-a97d-b228f8e95bcb","ios":"levelo://app?vid=feadd485-e507-4070-a97d-b228f8e95bcb"},"vehicle_type_id":"4","last_reported":1747760948,"current_range_meters":8400,"station_id":"ce4bhph2rcd13ifvqhdg","pricing_plan_id":"cebpf4jnsgd1na2vs0mg"},{"bike_id":"66dace53-99d9-4906-9d47-8fdad965d962","system_id":"levelo_inurba_marseille","lat":43.295796,"lon":5.367359,"is_reserved":false,"is_disabled":false,"rental_uris":{"android":"levelo://app?vid=66dace53-99d9-4906-9d47-8fdad965d962","ios":"levelo://app?vid=66dace53-99d9-4906-9d47-8fdad965d962"},"vehicle_type_id":"4","last_reported":1747760948,"current_range_meters":8800,"station_id":"ce4bgph2rcd13ifvqc2g","pricing_plan_id":"cebpf4jnsgd1na2vs0mg"},{"bike_id":"bffbaf88-357a-4e87-a68c-a9a27a6e01e6","system_id":"levelo_inurba_marseille","lat":43.262338,"lon":5.421259,"is_reserved":false,"is_disabled":false,"rental_uris":{"android":"levelo://app?vid=bffbaf88-357a-4e87-a68c-a9a27a6e01e6","ios":"levelo://app?vid=bffbaf88-357a-4e87-a68c-a9a27a6e01e6"},"vehicle_type_id":"4","last_reported":1747760948,"current_range_meters":9200,"station_id":"","pricing_plan_id":"cebpf4jnsgd1na2vs0mg"},{"bike_id":"aa7043d4-d5af-4bb1-bf6f-2a8722670e0d","system_id":"levelo_inurba_marseille","lat":43.309357,"lon":5.401407,"is_reserved":false,"is_disabled":false,"rental_uris":{"android":"levelo://app?vid=aa7043d4-d5af-4bb1-bf6f-2a8722670e0d","ios":"levelo://app?vid=aa7043d4-d5af-4bb1-bf6f-2a8722670e0d"},"vehicle_type_id":"4","last_reported":1747760948,"current_range_meters":9200,"station_id":"ce4bgvp2rcd13ifvqct0","pricing_plan_id":"cebpf4jnsgd1na2vs0mg"},{"bike_id":"9469bf61-8182-4b2f-beca-7592ce84e139","system_id":"levelo_inurba_marseille","lat":43.29511,"lon":5.394053,"is_reserved":false,"is_disabled":false,"rental_uris":{"android":"levelo://app?vid=9469bf61-8182-4b2f-beca-7592ce84e139","ios":"levelo://app?vid=9469bf61-8182-4b2f-beca-7592ce84e139"},"vehicle_type_id":"4","last_reported":1747760948,"current_range_meters":9200,"station_id":"ce4bh292rcd13ifvqdf0","pricing_plan_id":"cebpf4jnsgd1na2vs0mg"},{"bike_id":"3627d90c-253a-4321-b870-c90f347105ad","system_id":"levelo_inurba_marseille","lat":43.28454,"lon":5.35887,"is_reserved":false,"is_disabled":false,"rental_uris":{"android":"levelo://app?vid=3627d90c-253a-4321-b870-c90f347105ad","ios":"levelo://app?vid=3627d90c-253a-4321-b870-c90f347105ad"},"vehicle_type_id":"4","last_reported":1747760948,"current_range_meters":9200,"station_id":"ce4bhah2rcd13ifvqei0","pricing_plan_id":"cebpf4jnsgd1na2vs0mg"},{"bike_id":"51e6788c-b40c-49af-ac1c-8989081509a3","system_id":"levelo_inurba_marseille","lat":43.29004,"lon":5.35613,"is_reserved":false,"is_disabled":false,"rental_uris":{"android":"levelo://app?vid=51e6788c-b40c-49af-ac1c-8989081509a3","ios":"levelo://app?vid=51e6788c-b40c-49af-ac1c-8989081509a3"},"vehicle_type_id":"4","last_reported":1747760948,"current_range_meters":9200,"station_id":"ce4bhb92rcd13ifvqen0","pricing_plan_id":"cebpf4jnsgd1na2vs0mg"},{"bike_id":"7ee6b5d1-dcaa-416d-8a83-cc4c875c2f12","system_id":"levelo_inurba_marseille","lat":43.2862,"lon":5.35106,"is_reserved":false,"is_disabled":false,"rental_uris":{"android":"levelo://app?vid=7ee6b5d1-dcaa-416d-8a83-cc4c875c2f12","ios":"levelo://app?vid=7ee6b5d1-dcaa-416d-8a83-cc4c875c2f12"},"vehicle_type_id":"4","last_reported":1747760948,"current_range_meters":9200,"station_id":"ce4bhch2rcd13ifvqeug","pricing_plan_id":"cebpf4jnsgd1na2vs0mg"},{"bike_id":"598900bc-cc96-46f3-b8f9-32958f862dd5","system_id":"levelo_inurba_marseille","lat":43.30432,"lon":5.36812,"is_reserved":false,"is_disabled":false,"rental_uris":{"android":"levelo://app?vid=598900bc-cc96-46f3-b8f9-32958f862dd5","ios":"levelo://app?vid=598900bc-cc96-46f3-b8f9-32958f862dd5"},"vehicle_type_id":"4","last_reported":1747760948,"current_range_meters":9600,"station_id":"","pricing_plan_id":"cebpf4jnsgd1na2vs0mg"},{"bike_id":"f5444280-7582-41e1-8011-73e028fe9530","system_id":"levelo_inurba_marseille","lat":43.29093,"lon":5.38151,"is_reserved":false,"is_disabled":false,"rental_uris":{"android":"levelo://app?vid=f5444280-7582-41e1-8011-73e028fe9530","ios":"levelo://app?vid=f5444280-7582-41e1-8011-73e028fe9530"},"vehicle_type_id":"4","last_reported":1747760948,"current_range_meters":9600,"station_id":"ce4bh512rcd13ifvqe2g","pricing_plan_id":"cebpf4jnsgd1na2vs0mg"},{"bike_id":"a0aabdb9-5fa2-40e6-8b72-83f513b3ace8","system_id":"levelo_inurba_marseille","lat":43.23192,"lon":5.35555,"is_reserved":false,"is_disabled":false,"rental_uris":{"android":"levelo://app?vid=a0aabdb9-5fa2-40e6-8b72-83f513b3ace8","ios":"levelo://app?vid=a0aabdb9-5fa2-40e6-8b72-83f513b3ace8"},"vehicle_type_id":"4","last_reported":1747760948,"current_range_meters":9600,"station_id":"ce4bhu92rcd13ifvqi70","pricing_plan_id":"cebpf4jnsgd1na2vs0mg"},{"bike_id":"730a862c-8ae5-4244-85cf-f7e30ee54e76","system_id":"levelo_inurba_marseille","lat":43.290421,"lon":5.359257,"is_reserved":false,"is_disabled":false,"rental_uris":{"android":"levelo://app?vid=730a862c-8ae5-4244-85cf-f7e30ee54e76","ios":"levelo://app?vid=730a862c-8ae5-4244-85cf-f7e30ee54e76"},"vehicle_type_id":"4","last_reported":1747760948,"current_range_meters":10000,"station_id":"ce4bha92rcd13ifvqeg0","pricing_plan_id":"cebpf4jnsgd1na2vs0mg"},{"bike_id":"74b3a725-2a7e-4f92-8049-6310b65d042f","system_id":"levelo_inurba_marseille","lat":43.29225,"lon":5.36061,"is_reserved":false,"is_disabled":false,"rental_uris":{"android":"levelo://app?vid=74b3a725-2a7e-4f92-8049-6310b65d042f","ios":"levelo://app?vid=74b3a725-2a7e-4f92-8049-6310b65d042f"},"vehicle_type_id":"4","last_reported":1747760948,"current_range_meters":10000,"station_id":"ce4bhbh2rcd13ifvqeqg","pricing_plan_id":"cebpf4jnsgd1na2vs0mg"},{"bike_id":"71e146ad-5169-4dc5-a288-c7c746aad618","system_id":"levelo_inurba_marseille","lat":43.231902,"lon":5.399818,"is_reserved":false,"is_disabled":false,"rental_uris":{"android":"levelo://app?vid=71e146ad-5169-4dc5-a288-c7c746aad618","ios":"levelo://app?vid=71e146ad-5169-4dc5-a288-c7c746aad618"},"vehicle_type_id":"4","last_reported":1747760948,"current_range_meters":10000,"station_id":"ce4bhn12rcd13ifvqgqg","pricing_plan_id":"cebpf4jnsgd1na2vs0mg"},{"bike_id":"e8162579-a5ad-485f-ad83-fec8a2ebe7e1","system_id":"levelo_inurba_marseille","lat":43.26826,"lon":5.39099,"is_reserved":false,"is_disabled":false,"rental_uris":{"android":"levelo://app?vid=e8162579-a5ad-485f-ad83-fec8a2ebe7e1","ios":"levelo://app?vid=e8162579-a5ad-485f-ad83-fec8a2ebe7e1"},"vehicle_type_id":"4","last_reported":1747760948,"current_range_meters":10800,"station_id":"","pricing_plan_id":"cebpf4jnsgd1na2vs0mg"},{"bike_id":"8515e518-e6ae-4d30-823e-a81239625260","system_id":"levelo_inurba_marseille","lat":43.29679,"lon":5.36166,"is_reserved":false,"is_disabled":false,"rental_uris":{"android":"levelo://app?vid=8515e518-e6ae-4d30-823e-a81239625260","ios":"levelo://app?vid=8515e518-e6ae-4d30-823e-a81239625260"},"vehicle_type_id":"4","last_reported":1747760948,"current_range_meters":10800,"station_id":"","pricing_plan_id":"cebpf4jnsgd1na2vs0mg"},{"bike_id":"d6c76ad5-8c15-4879-9bd9-de35f45dfd45","system_id":"levelo_inurba_marseille","lat":43.30268,"lon":5.37726,"is_reserved":false,"is_disabled":false,"rental_uris":{"android":"levelo://app?vid=d6c76ad5-8c15-4879-9bd9-de35f45dfd45","ios":"levelo://app?vid=d6c76ad5-8c15-4879-9bd9-de35f45dfd45"},"vehicle_type_id":"4","last_reported":1747760948,"current_range_meters":10800,"station_id":"ce4bguh2rcd13ifvqcj0","pricing_plan_id":"cebpf4jnsgd1na2vs0mg"},{"bike_id":"cf30ad57-e6b5-4bca-a62d-26c118f3fc22","system_id":"levelo_inurba_marseille","lat":43.29004,"lon":5.35615,"is_reserved":false,"is_disabled":false,"rental_uris":{"android":"levelo://app?vid=cf30ad57-e6b5-4bca-a62d-26c118f3fc22","ios":"levelo://app?vid=cf30ad57-e6b5-4bca-a62d-26c118f3fc22"},"vehicle_type_id":"4","last_reported":1747760948,"current_range_meters":10800,"station_id":"ce4bhb92rcd13ifvqen0","pricing_plan_id":"cebpf4jnsgd1na2vs0mg"},{"bike_id":"f6e773e6-97fb-470c-90ee-7abb49b9e074","system_id":"levelo_inurba_marseille","lat":43.23964,"lon":5.36629,"is_reserved":false,"is_disabled":false,"rental_uris":{"android":"levelo://app?vid=f6e773e6-97fb-470c-90ee-7abb49b9e074","ios":"levelo://app?vid=f6e773e6-97fb-470c-90ee-7abb49b9e074"},"vehicle_type_id":"4","last_reported":1747760948,"current_range_meters":10800,"station_id":"ce4bhi12rcd13ifvqfp0","pricing_plan_id":"cebpf4jnsgd1na2vs0mg"},{"bike_id":"7160c556-29ba-40a5-b7e5-2eb4ec3409f7","system_id":"levelo_inurba_marseille","lat":43.2319,"lon":5.39982,"is_reserved":false,"is_disabled":false,"rental_uris":{"android":"levelo://app?vid=7160c556-29ba-40a5-b7e5-2eb4ec3409f7","ios":"levelo://app?vid=7160c556-29ba-40a5-b7e5-2eb4ec3409f7"},"vehicle_type_id":"4","last_reported":1747760948,"current_range_meters":10800,"station_id":"ce4bhn12rcd13ifvqgqg","pricing_plan_id":"cebpf4jnsgd1na2vs0mg"},{"bike_id":"efa3d3ee-6ab6-4771-aa3d-1ec2742cd864","system_id":"levelo_inurba_marseille","lat":43.27815,"lon":5.4071,"is_reserved":false,"is_disabled":false,"rental_uris":{"android":"levelo://app?vid=efa3d3ee-6ab6-4771-aa3d-1ec2742cd864","ios":"levelo://app?vid=efa3d3ee-6ab6-4771-aa3d-1ec2742cd864"},"vehicle_type_id":"4","last_reported":1747760948,"current_range_meters":10800,"station_id":"ce4bhnh2rcd13ifvqgtg","pricing_plan_id":"cebpf4jnsgd1na2vs0mg"},{"bike_id":"5f6ac782-7c1e-4f29-8b2d-fbe1e38ee012","system_id":"levelo_inurba_marseille","lat":43.27814,"lon":5.40717,"is_reserved":false,"is_disabled":false,"rental_uris":{"android":"levelo://app?vid=5f6ac782-7c1e-4f29-8b2d-fbe1e38ee012","ios":"levelo://app?vid=5f6ac782-7c1e-4f29-8b2d-fbe1e38ee012"},"vehicle_type_id":"4","last_reported":1747760948,"current_range_meters":10800,"station_id":"ce4bhnh2rcd13ifvqgtg","pricing_plan_id":"cebpf4jnsgd1na2vs0mg"},{"bike_id":"9081fe88-5895-48b5-abd6-4d191a420b73","system_id":"levelo_inurba_marseille","lat":43.29961,"lon":5.41317,"is_reserved":false,"is_disabled":false,"rental_uris":{"android":"levelo://app?vid=9081fe88-5895-48b5-abd6-4d191a420b73","ios":"levelo://app?vid=9081fe88-5895-48b5-abd6-4d191a420b73"},"vehicle_type_id":"4","last_reported":1747760948,"current_range_meters":10800,"station_id":"ce4bhp12rcd13ifvqh9g","pricing_plan_id":"cebpf4jnsgd1na2vs0mg"},{"bike_id":"3552fbf2-b43a-446f-93f5-d695fc251b73","system_id":"levelo_inurba_marseille","lat":43.25191,"lon":5.3752,"is_reserved":false,"is_disabled":false,"rental_uris":{"android":"levelo://app?vid=3552fbf2-b43a-446f-93f5-d695fc251b73","ios":"levelo://app?vid=3552fbf2-b43a-446f-93f5-d695fc251b73"},"vehicle_type_id":"4","last_reported":1747760948,"current_range_meters":11200,"station_id":"","pricing_plan_id":"cebpf4jnsgd1na2vs0mg"},{"bike_id":"0d22a4ac-a055-4533-8637-cbbbc3a4f2ef","system_id":"levelo_inurba_marseille","lat":43.29277,"lon":5.40115,"is_reserved":false,"is_disabled":false,"rental_uris":{"android":"levelo://app?vid=0d22a4ac-a055-4533-8637-cbbbc3a4f2ef","ios":"levelo://app?vid=0d22a4ac-a055-4533-8637-cbbbc3a4f2ef"},"vehicle_type_id":"4","last_reported":1747760948,"current_range_meters":11200,"station_id":"ce4bh312rcd13ifvqdk0","pricing_plan_id":"cebpf4jnsgd1na2vs0mg"},{"bike_id":"973c4100-f720-444f-95a1-33a166083b55","system_id":"levelo_inurba_marseille","lat":43.28082,"lon":5.39663,"is_reserved":false,"is_disabled":false,"rental_uris":{"android":"levelo://app?vid=973c4100-f720-444f-95a1-33a166083b55","ios":"levelo://app?vid=973c4100-f720-444f-95a1-33a166083b55"},"vehicle_type_id":"4","last_reported":1747760948,"current_range_meters":11200,"station_id":"ce4bho12rcd13ifvqh2g","pricing_plan_id":"cebpf4jnsgd1na2vs0mg"},{"bike_id":"403acc11-3bee-4bae-8dba-5b60f8591ecf","system_id":"levelo_inurba_marseille","lat":43.30426,"lon":5.41279,"is_reserved":false,"is_disabled":false,"rental_uris":{"android":"levelo://app?vid=403acc11-3bee-4bae-8dba-5b60f8591ecf","ios":"levelo://app?vid=403acc11-3bee-4bae-8dba-5b60f8591ecf"},"vehicle_type_id":"4","last_reported":1747760948,"current_range_meters":11200,"station_id":"ce4bhop2rcd13ifvqh8g","pricing_plan_id":"cebpf4jnsgd1na2vs0mg"},{"bike_id":"c9712e0c-2e84-4ab9-a19d-b2f0870bbac5","system_id":"levelo_inurba_marseille","lat":43.31758,"lon":5.3902,"is_reserved":false,"is_disabled":false,"rental_uris":{"android":"levelo://app?vid=c9712e0c-2e84-4ab9-a19d-b2f0870bbac5","ios":"levelo://app?vid=c9712e0c-2e84-4ab9-a19d-b2f0870bbac5"},"vehicle_type_id":"4","last_reported":1747760948,"current_range_meters":11200,"station_id":"ce4bhqp2rcd13ifvqhng","pricing_plan_id":"cebpf4jnsgd1na2vs0mg"},{"bike_id":"737ca840-3d4a-4ab4-8509-e5ed1d9d9654","system_id":"levelo_inurba_marseille","lat":43.30321,"lon":5.40438,"is_reserved":false,"is_disabled":false,"rental_uris":{"android":"levelo://app?vid=737ca840-3d4a-4ab4-8509-e5ed1d9d9654","ios":"levelo://app?vid=737ca840-3d4a-4ab4-8509-e5ed1d9d9654"},"vehicle_type_id":"4","last_reported":1747760948,"current_range_meters":11600,"station_id":"ce4bh012rcd13ifvqd10","pricing_plan_id":"cebpf4jnsgd1na2vs0mg"},{"bike_id":"e8ff751a-3f5e-471e-b3af-2f5b7dfbf0e4","system_id":"levelo_inurba_marseille","lat":43.30647,"lon":5.4008,"is_reserved":false,"is_disabled":false,"rental_uris":{"android":"levelo://app?vid=e8ff751a-3f5e-471e-b3af-2f5b7dfbf0e4","ios":"levelo://app?vid=e8ff751a-3f5e-471e-b3af-2f5b7dfbf0e4"},"vehicle_type_id":"4","last_reported":1747760948,"current_range_meters":11600,"station_id":"ce4bh112rcd13ifvqda0","pricing_plan_id":"cebpf4jnsgd1na2vs0mg"},{"bike_id":"c6d2c12c-9aa9-4dcf-860d-fc3c4f3765b3","system_id":"levelo_inurba_marseille","lat":43.27374,"lon":5.36262,"is_reserved":false,"is_disabled":false,"rental_uris":{"android":"levelo://app?vid=c6d2c12c-9aa9-4dcf-860d-fc3c4f3765b3","ios":"levelo://app?vid=c6d2c12c-9aa9-4dcf-860d-fc3c4f3765b3"},"vehicle_type_id":"4","last_reported":1747760948,"current_range_meters":11600,"station_id":"ce4bhbh2rcd13ifvqeo0","pricing_plan_id":"cebpf4jnsgd1na2vs0mg"},{"bike_id":"f1990f0c-6c25-41e9-851f-d91b469cfe52","system_id":"levelo_inurba_marseille","lat":43.25505,"lon":5.37649,"is_reserved":false,"is_disabled":false,"rental_uris":{"android":"levelo://app?vid=f1990f0c-6c25-41e9-851f-d91b469cfe52","ios":"levelo://app?vid=f1990f0c-6c25-41e9-851f-d91b469cfe52"},"vehicle_type_id":"4","last_reported":1747760948,"current_range_meters":11600,"station_id":"ce4bhh12rcd13ifvqff0","pricing_plan_id":"cebpf4jnsgd1na2vs0mg"},{"bike_id":"59b8a132-4666-485c-b6ad-3e889f0d9322","system_id":"levelo_inurba_marseille","lat":43.255022,"lon":5.376588,"is_reserved":false,"is_disabled":false,"rental_uris":{"android":"levelo://app?vid=59b8a132-4666-485c-b6ad-3e889f0d9322","ios":"levelo://app?vid=59b8a132-4666-485c-b6ad-3e889f0d9322"},"vehicle_type_id":"4","last_reported":1747760948,"current_range_meters":11600,"station_id":"ce4bhh12rcd13ifvqff0","pricing_plan_id":"cebpf4jnsgd1na2vs0mg"},{"bike_id":"49f05bcc-fd58-450f-908f-51a1dca2ea65","system_id":"levelo_inurba_marseille","lat":43.25076,"lon":5.39521,"is_reserved":false,"is_disabled":false,"rental_uris":{"android":"levelo://app?vid=49f05bcc-fd58-450f-908f-51a1dca2ea65","ios":"levelo://app?vid=49f05bcc-fd58-450f-908f-51a1dca2ea65"},"vehicle_type_id":"4","last_reported":1747760948,"current_range_meters":11600,"station_id":"ce4bhm12rcd13ifvqgkg","pricing_plan_id":"cebpf4jnsgd1na2vs0mg"},{"bike_id":"c4fdd675-f13e-4a13-b976-eef5b86b50dd","system_id":"levelo_inurba_marseille","lat":43.29298,"lon":5.37464,"is_reserved":false,"is_disabled":false,"rental_uris":{"android":"levelo://app?vid=c4fdd675-f13e-4a13-b976-eef5b86b50dd","ios":"levelo://app?vid=c4fdd675-f13e-4a13-b976-eef5b86b50dd"},"vehicle_type_id":"4","last_reported":1747760948,"current_range_meters":12000,"station_id":"ce4bgi12rcd13ifvqb70","pricing_plan_id":"cebpf4jnsgd1na2vs0mg"},{"bike_id":"5053f095-d52d-40d8-b075-21525c789d25","system_id":"levelo_inurba_marseille","lat":43.29708,"lon":5.36621,"is_reserved":false,"is_disabled":false,"rental_uris":{"android":"levelo://app?vid=5053f095-d52d-40d8-b075-21525c789d25","ios":"levelo://app?vid=5053f095-d52d-40d8-b075-21525c789d25"},"vehicle_type_id":"4","last_reported":1747760948,"current_range_meters":12000,"station_id":"ce4bgn12rcd13ifvqbt0","pricing_plan_id":"cebpf4jnsgd1na2vs0mg"},{"bike_id":"c13334db-166d-40b4-aa13-1b5d549998e0","system_id":"levelo_inurba_marseille","lat":43.29005,"lon":5.3561,"is_reserved":false,"is_disabled":false,"rental_uris":{"android":"levelo://app?vid=c13334db-166d-40b4-aa13-1b5d549998e0","ios":"levelo://app?vid=c13334db-166d-40b4-aa13-1b5d549998e0"},"vehicle_type_id":"4","last_reported":1747760948,"current_range_meters":12000,"station_id":"ce4bhb92rcd13ifvqen0","pricing_plan_id":"cebpf4jnsgd1na2vs0mg"},{"bike_id":"c3c11b11-8507-45b4-bd48-1e3bdd46fbbe","system_id":"levelo_inurba_marseille","lat":43.23183,"lon":5.39978,"is_reserved":false,"is_disabled":false,"rental_uris":{"android":"levelo://app?vid=c3c11b11-8507-45b4-bd48-1e3bdd46fbbe","ios":"levelo://app?vid=c3c11b11-8507-45b4-bd48-1e3bdd46fbbe"},"vehicle_type_id":"4","last_reported":1747760948,"current_range_meters":12000,"station_id":"ce4bhn12rcd13ifvqgqg","pricing_plan_id":"cebpf4jnsgd1na2vs0mg"},{"bike_id":"08abf14e-33bd-4e04-8dcb-47365d45e2e2","system_id":"levelo_inurba_marseille","lat":43.33607,"lon":5.41036,"is_reserved":false,"is_disabled":false,"rental_uris":{"android":"levelo://app?vid=08abf14e-33bd-4e04-8dcb-47365d45e2e2","ios":"levelo://app?vid=08abf14e-33bd-4e04-8dcb-47365d45e2e2"},"vehicle_type_id":"4","last_reported":1747760948,"current_range_meters":12000,"station_id":"ce4bhqh2rcd13ifvqhmg","pricing_plan_id":"cebpf4jnsgd1na2vs0mg"},{"bike_id":"87d6d5a1-9525-4f53-8029-ce8961cf66d2","system_id":"levelo_inurba_marseille","lat":43.295403,"lon":5.38538,"is_reserved":false,"is_disabled":false,"rental_uris":{"android":"levelo://app?vid=87d6d5a1-9525-4f53-8029-ce8961cf66d2","ios":"levelo://app?vid=87d6d5a1-9525-4f53-8029-ce8961cf66d2"},"vehicle_type_id":"4","last_reported":1747760948,"current_range_meters":12400,"station_id":"ce4bgih2rcd13ifvqba0","pricing_plan_id":"cebpf4jnsgd1na2vs0mg"},{"bike_id":"e87dae45-e738-4fa8-b170-1aa54bb85cdd","system_id":"levelo_inurba_marseille","lat":43.29522,"lon":5.39405,"is_reserved":false,"is_disabled":false,"rental_uris":{"android":"levelo://app?vid=e87dae45-e738-4fa8-b170-1aa54bb85cdd","ios":"levelo://app?vid=e87dae45-e738-4fa8-b170-1aa54bb85cdd"},"vehicle_type_id":"4","last_reported":1747760948,"current_range_meters":12400,"station_id":"ce4bh292rcd13ifvqdf0","pricing_plan_id":"cebpf4jnsgd1na2vs0mg"},{"bike_id":"fc3f0ff1-79e5-45a5-9785-68afc91fb975","system_id":"levelo_inurba_marseille","lat":43.29048,"lon":5.35924,"is_reserved":false,"is_disabled":false,"rental_uris":{"android":"levelo://app?vid=fc3f0ff1-79e5-45a5-9785-68afc91fb975","ios":"levelo://app?vid=fc3f0ff1-79e5-45a5-9785-68afc91fb975"},"vehicle_type_id":"4","last_reported":1747760948,"current_range_meters":12400,"station_id":"ce4bha92rcd13ifvqeg0","pricing_plan_id":"cebpf4jnsgd1na2vs0mg"},{"bike_id":"d222c036-c02a-40db-bb80-83d7b7358871","system_id":"levelo_inurba_marseille","lat":43.33714,"lon":5.39211,"is_reserved":false,"is_disabled":false,"rental_uris":{"android":"levelo://app?vid=d222c036-c02a-40db-bb80-83d7b7358871","ios":"levelo://app?vid=d222c036-c02a-40db-bb80-83d7b7358871"},"vehicle_type_id":"4","last_reported":1747760948,"current_range_meters":12400,"station_id":"ce4bhr92rcd13ifvqhsg","pricing_plan_id":"cebpf4jnsgd1na2vs0mg"},{"bike_id":"470e8e89-649b-49d2-b661-3e1e10f05042","system_id":"levelo_inurba_marseille","lat":43.31808,"lon":5.37214,"is_reserved":false,"is_disabled":false,"rental_uris":{"android":"levelo://app?vid=470e8e89-649b-49d2-b661-3e1e10f05042","ios":"levelo://app?vid=470e8e89-649b-49d2-b661-3e1e10f05042"},"vehicle_type_id":"4","last_reported":1747760948,"current_range_meters":12800,"station_id":"","pricing_plan_id":"cebpf4jnsgd1na2vs0mg"},{"bike_id":"4c3c84a0-3d04-465f-a874-3d2d94682e24","system_id":"levelo_inurba_marseille","lat":43.2512,"lon":5.40316,"is_reserved":false,"is_disabled":false,"rental_uris":{"android":"levelo://app?vid=4c3c84a0-3d04-465f-a874-3d2d94682e24","ios":"levelo://app?vid=4c3c84a0-3d04-465f-a874-3d2d94682e24"},"vehicle_type_id":"4","last_reported":1747760948,"current_range_meters":12800,"station_id":"ce4bhlh2rcd13ifvqgig","pricing_plan_id":"cebpf4jnsgd1na2vs0mg"},{"bike_id":"bfadeaec-216b-47d1-99b4-74d81f9ee763","system_id":"levelo_inurba_marseille","lat":43.32153,"lon":5.36758,"is_reserved":false,"is_disabled":false,"rental_uris":{"android":"levelo://app?vid=bfadeaec-216b-47d1-99b4-74d81f9ee763","ios":"levelo://app?vid=bfadeaec-216b-47d1-99b4-74d81f9ee763"},"vehicle_type_id":"4","last_reported":1747760948,"current_range_meters":12800,"station_id":"ce4bhrh2rcd13ifvqhug","pricing_plan_id":"cebpf4jnsgd1na2vs0mg"},{"bike_id":"40049079-39d5-4828-83f4-e4cce4da8c3c","system_id":"levelo_inurba_marseille","lat":43.309077,"lon":5.368433,"is_reserved":false,"is_disabled":false,"rental_uris":{"android":"levelo://app?vid=40049079-39d5-4828-83f4-e4cce4da8c3c","ios":"levelo://app?vid=40049079-39d5-4828-83f4-e4cce4da8c3c"},"vehicle_type_id":"4","last_reported":1747760948,"current_range_meters":13600,"station_id":"ce4bgn92rcd13ifvqbvg","pricing_plan_id":"cebpf4jnsgd1na2vs0mg"},{"bike_id":"e87d44cd-2fe7-40ec-8eb3-881b92b0aba9","system_id":"levelo_inurba_marseille","lat":43.29415,"lon":5.38634,"is_reserved":false,"is_disabled":false,"rental_uris":{"android":"levelo://app?vid=e87d44cd-2fe7-40ec-8eb3-881b92b0aba9","ios":"levelo://app?vid=e87d44cd-2fe7-40ec-8eb3-881b92b0aba9"},"vehicle_type_id":"4","last_reported":1747760948,"current_range_meters":13600,"station_id":"ce4bh2h2rcd13ifvqdh0","pricing_plan_id":"cebpf4jnsgd1na2vs0mg"},{"bike_id":"dbf3f93b-8912-4e66-9f20-2c46c1f988ce","system_id":"levelo_inurba_marseille","lat":43.2558,"lon":5.38235,"is_reserved":false,"is_disabled":false,"rental_uris":{"android":"levelo://app?vid=dbf3f93b-8912-4e66-9f20-2c46c1f988ce","ios":"levelo://app?vid=dbf3f93b-8912-4e66-9f20-2c46c1f988ce"},"vehicle_type_id":"4","last_reported":1747760948,"current_range_meters":13600,"station_id":"ce4bhih2rcd13ifvqfs0","pricing_plan_id":"cebpf4jnsgd1na2vs0mg"},{"bike_id":"dc80936a-51b4-4ef9-b71e-e259b58f2ac3","system_id":"levelo_inurba_marseille","lat":43.23189,"lon":5.39982,"is_reserved":false,"is_disabled":false,"rental_uris":{"android":"levelo://app?vid=dc80936a-51b4-4ef9-b71e-e259b58f2ac3","ios":"levelo://app?vid=dc80936a-51b4-4ef9-b71e-e259b58f2ac3"},"vehicle_type_id":"4","last_reported":1747760948,"current_range_meters":13600,"station_id":"ce4bhn12rcd13ifvqgqg","pricing_plan_id":"cebpf4jnsgd1na2vs0mg"},{"bike_id":"1dc11bc0-5f09-4847-84a0-e8a8e47157b4","system_id":"levelo_inurba_marseille","lat":43.27369,"lon":5.36257,"is_reserved":false,"is_disabled":false,"rental_uris":{"android":"levelo://app?vid=1dc11bc0-5f09-4847-84a0-e8a8e47157b4","ios":"levelo://app?vid=1dc11bc0-5f09-4847-84a0-e8a8e47157b4"},"vehicle_type_id":"4","last_reported":1747760948,"current_range_meters":14000,"station_id":"ce4bhbh2rcd13ifvqeo0","pricing_plan_id":"cebpf4jnsgd1na2vs0mg"},{"bike_id":"01bf2c63-6f1e-4770-b515-5cccf24b9cd9","system_id":"levelo_inurba_marseille","lat":43.2795,"lon":5.41043,"is_reserved":false,"is_disabled":false,"rental_uris":{"android":"levelo://app?vid=01bf2c63-6f1e-4770-b515-5cccf24b9cd9","ios":"levelo://app?vid=01bf2c63-6f1e-4770-b515-5cccf24b9cd9"},"vehicle_type_id":"4","last_reported":1747760948,"current_range_meters":14000,"station_id":"ce4bhnp2rcd13ifvqh0g","pricing_plan_id":"cebpf4jnsgd1na2vs0mg"},{"bike_id":"340e3790-36da-4d22-98f6-954033a41ef7","system_id":"levelo_inurba_marseille","lat":43.28073,"lon":5.39646,"is_reserved":false,"is_disabled":false,"rental_uris":{"android":"levelo://app?vid=340e3790-36da-4d22-98f6-954033a41ef7","ios":"levelo://app?vid=340e3790-36da-4d22-98f6-954033a41ef7"},"vehicle_type_id":"4","last_reported":1747760948,"current_range_meters":14000,"station_id":"ce4bho12rcd13ifvqh2g","pricing_plan_id":"cebpf4jnsgd1na2vs0mg"},{"bike_id":"9788ac22-5263-4696-91bb-db0d31f3abd7","system_id":"levelo_inurba_marseille","lat":43.28722,"lon":5.36091,"is_reserved":false,"is_disabled":false,"rental_uris":{"android":"levelo://app?vid=9788ac22-5263-4696-91bb-db0d31f3abd7","ios":"levelo://app?vid=9788ac22-5263-4696-91bb-db0d31f3abd7"},"vehicle_type_id":"4","last_reported":1747760948,"current_range_meters":14000,"station_id":"cki0cbj6b192h4jlfktg","pricing_plan_id":"cebpf4jnsgd1na2vs0mg"},{"bike_id":"2f6f0fa1-b9a1-4aa2-9904-e432d55d52ea","system_id":"levelo_inurba_marseille","lat":43.29256,"lon":5.40899,"is_reserved":false,"is_disabled":false,"rental_uris":{"android":"levelo://app?vid=2f6f0fa1-b9a1-4aa2-9904-e432d55d52ea","ios":"levelo://app?vid=2f6f0fa1-b9a1-4aa2-9904-e432d55d52ea"},"vehicle_type_id":"4","last_reported":1747760948,"current_range_meters":14400,"station_id":"ce4bh192rcd13ifvqdc0","pricing_plan_id":"cebpf4jnsgd1na2vs0mg"},{"bike_id":"d3765a30-22e6-43b3-bb16-7d557b3fe414","system_id":"levelo_inurba_marseille","lat":43.29689,"lon":5.37283,"is_reserved":false,"is_disabled":false,"rental_uris":{"android":"levelo://app?vid=d3765a30-22e6-43b3-bb16-7d557b3fe414","ios":"levelo://app?vid=d3765a30-22e6-43b3-bb16-7d557b3fe414"},"vehicle_type_id":"4","last_reported":1747760948,"current_range_meters":14800,"station_id":"ce4bgk12rcd13ifvqbj0","pricing_plan_id":"cebpf4jnsgd1na2vs0mg"},{"bike_id":"2ff2c395-6a5d-401c-9ce8-3ad87199327d","system_id":"levelo_inurba_marseille","lat":43.30596,"lon":5.39357,"is_reserved":false,"is_disabled":false,"rental_uris":{"android":"levelo://app?vid=2ff2c395-6a5d-401c-9ce8-3ad87199327d","ios":"levelo://app?vid=2ff2c395-6a5d-401c-9ce8-3ad87199327d"},"vehicle_type_id":"4","last_reported":1747760948,"current_range_meters":14800,"station_id":"ce4bh0p2rcd13ifvqd80","pricing_plan_id":"cebpf4jnsgd1na2vs0mg"},{"bike_id":"cd2e921d-b6b4-4be3-bd4c-e517d2e64f25","system_id":"levelo_inurba_marseille","lat":43.2894,"lon":5.3664,"is_reserved":false,"is_disabled":false,"rental_uris":{"android":"levelo://app?vid=cd2e921d-b6b4-4be3-bd4c-e517d2e64f25","ios":"levelo://app?vid=cd2e921d-b6b4-4be3-bd4c-e517d2e64f25"},"vehicle_type_id":"4","last_reported":1747760948,"current_range_meters":14800,"station_id":"ce4bhap2rcd13ifvqek0","pricing_plan_id":"cebpf4jnsgd1na2vs0mg"},{"bike_id":"8678cf55-17eb-4ca1-824e-b4f68e9cbeb7","system_id":"levelo_inurba_marseille","lat":43.2512,"lon":5.40317,"is_reserved":false,"is_disabled":false,"rental_uris":{"android":"levelo://app?vid=8678cf55-17eb-4ca1-824e-b4f68e9cbeb7","ios":"levelo://app?vid=8678cf55-17eb-4ca1-824e-b4f68e9cbeb7"},"vehicle_type_id":"4","last_reported":1747760948,"current_range_meters":14800,"station_id":"ce4bhlh2rcd13ifvqgig","pricing_plan_id":"cebpf4jnsgd1na2vs0mg"},{"bike_id":"d14cb34f-c088-4fce-8177-7d93d185cb84","system_id":"levelo_inurba_marseille","lat":43.28079,"lon":5.39663,"is_reserved":false,"is_disabled":false,"rental_uris":{"android":"levelo://app?vid=d14cb34f-c088-4fce-8177-7d93d185cb84","ios":"levelo://app?vid=d14cb34f-c088-4fce-8177-7d93d185cb84"},"vehicle_type_id":"4","last_reported":1747760948,"current_range_meters":14800,"station_id":"ce4bho12rcd13ifvqh2g","pricing_plan_id":"cebpf4jnsgd1na2vs0mg"},{"bike_id":"edffe597-6f79-49f9-8df7-4789a9f67718","system_id":"levelo_inurba_marseille","lat":43.32106,"lon":5.36764,"is_reserved":false,"is_disabled":false,"rental_uris":{"android":"levelo://app?vid=edffe597-6f79-49f9-8df7-4789a9f67718","ios":"levelo://app?vid=edffe597-6f79-49f9-8df7-4789a9f67718"},"vehicle_type_id":"4","last_reported":1747760948,"current_range_meters":14800,"station_id":"ce4bhrh2rcd13ifvqhug","pricing_plan_id":"cebpf4jnsgd1na2vs0mg"},{"bike_id":"3615aec8-6202-4c34-aa3e-f3b955708c79","system_id":"levelo_inurba_marseille","lat":43.31171,"lon":5.3873,"is_reserved":false,"is_disabled":false,"rental_uris":{"android":"levelo://app?vid=3615aec8-6202-4c34-aa3e-f3b955708c79","ios":"levelo://app?vid=3615aec8-6202-4c34-aa3e-f3b955708c79"},"vehicle_type_id":"4","last_reported":1747760948,"current_range_meters":15200,"station_id":"ce4bgv12rcd13ifvqcp0","pricing_plan_id":"cebpf4jnsgd1na2vs0mg"},{"bike_id":"d3787df1-b187-4674-a172-34b227ec7bf2","system_id":"levelo_inurba_marseille","lat":43.2606,"lon":5.39399,"is_reserved":false,"is_disabled":false,"rental_uris":{"android":"levelo://app?vid=d3787df1-b187-4674-a172-34b227ec7bf2","ios":"levelo://app?vid=d3787df1-b187-4674-a172-34b227ec7bf2"},"vehicle_type_id":"4","last_reported":1747760948,"current_range_meters":15200,"station_id":"ce4bhh92rcd13ifvqfj0","pricing_plan_id":"cebpf4jnsgd1na2vs0mg"},{"bike_id":"09d6234c-ffb6-4303-8b5c-26d27f33817c","system_id":"levelo_inurba_marseille","lat":43.27949,"lon":5.41052,"is_reserved":false,"is_disabled":false,"rental_uris":{"android":"levelo://app?vid=09d6234c-ffb6-4303-8b5c-26d27f33817c","ios":"levelo://app?vid=09d6234c-ffb6-4303-8b5c-26d27f33817c"},"vehicle_type_id":"4","last_reported":1747760948,"current_range_meters":15200,"station_id":"ce4bhnp2rcd13ifvqh0g","pricing_plan_id":"cebpf4jnsgd1na2vs0mg"},{"bike_id":"ee222a69-22c8-443a-9094-3b7c8c2d365a","system_id":"levelo_inurba_marseille","lat":43.28083,"lon":5.39658,"is_reserved":false,"is_disabled":false,"rental_uris":{"android":"levelo://app?vid=ee222a69-22c8-443a-9094-3b7c8c2d365a","ios":"levelo://app?vid=ee222a69-22c8-443a-9094-3b7c8c2d365a"},"vehicle_type_id":"4","last_reported":1747760948,"current_range_meters":15200,"station_id":"ce4bho12rcd13ifvqh2g","pricing_plan_id":"cebpf4jnsgd1na2vs0mg"},{"bike_id":"5765434c-77b5-41b5-8b14-b978e4d6dd10","system_id":"levelo_inurba_marseille","lat":43.211965,"lon":5.350763,"is_reserved":false,"is_disabled":false,"rental_uris":{"android":"levelo://app?vid=5765434c-77b5-41b5-8b14-b978e4d6dd10","ios":"levelo://app?vid=5765434c-77b5-41b5-8b14-b978e4d6dd10"},"vehicle_type_id":"4","last_reported":1747760948,"current_range_meters":15200,"station_id":"st_cvj6sg6p6f1abm77japg","pricing_plan_id":"cebpf4jnsgd1na2vs0mg"},{"bike_id":"da0e9fde-e6a2-4f0b-9648-242794e42462","system_id":"levelo_inurba_marseille","lat":43.24072,"lon":5.37764,"is_reserved":false,"is_disabled":false,"rental_uris":{"android":"levelo://app?vid=da0e9fde-e6a2-4f0b-9648-242794e42462","ios":"levelo://app?vid=da0e9fde-e6a2-4f0b-9648-242794e42462"},"vehicle_type_id":"4","last_reported":1747760948,"current_range_meters":16000,"station_id":"","pricing_plan_id":"cebpf4jnsgd1na2vs0mg"},{"bike_id":"685e9f45-6a96-48e4-a63f-f54be998a9fe","system_id":"levelo_inurba_marseille","lat":43.30332,"lon":5.40443,"is_reserved":false,"is_disabled":false,"rental_uris":{"android":"levelo://app?vid=685e9f45-6a96-48e4-a63f-f54be998a9fe","ios":"levelo://app?vid=685e9f45-6a96-48e4-a63f-f54be998a9fe"},"vehicle_type_id":"4","last_reported":1747760948,"current_range_meters":16000,"station_id":"ce4bh012rcd13ifvqd10","pricing_plan_id":"cebpf4jnsgd1na2vs0mg"},{"bike_id":"bafc539a-be8f-42e1-8dee-8dd5f4f72e76","system_id":"levelo_inurba_marseille","lat":43.28673,"lon":5.38662,"is_reserved":false,"is_disabled":false,"rental_uris":{"android":"levelo://app?vid=bafc539a-be8f-42e1-8dee-8dd5f4f72e76","ios":"levelo://app?vid=bafc539a-be8f-42e1-8dee-8dd5f4f72e76"},"vehicle_type_id":"4","last_reported":1747760948,"current_range_meters":16000,"station_id":"ce4bh492rcd13ifvqdug","pricing_plan_id":"cebpf4jnsgd1na2vs0mg"},{"bike_id":"a9f2d33a-a63e-4c78-b7a4-3eba892489d4","system_id":"levelo_inurba_marseille","lat":43.26215,"lon":5.37445,"is_reserved":false,"is_disabled":false,"rental_uris":{"android":"levelo://app?vid=a9f2d33a-a63e-4c78-b7a4-3eba892489d4","ios":"levelo://app?vid=a9f2d33a-a63e-4c78-b7a4-3eba892489d4"},"vehicle_type_id":"4","last_reported":1747760948,"current_range_meters":16000,"station_id":"ce4bhgp2rcd13ifvqfc0","pricing_plan_id":"cebpf4jnsgd1na2vs0mg"},{"bike_id":"7faa7d0d-3a03-44c4-ba1e-1860a54c69ee","system_id":"levelo_inurba_marseille","lat":43.24545,"lon":5.39524,"is_reserved":false,"is_disabled":false,"rental_uris":{"android":"levelo://app?vid=7faa7d0d-3a03-44c4-ba1e-1860a54c69ee","ios":"levelo://app?vid=7faa7d0d-3a03-44c4-ba1e-1860a54c69ee"},"vehicle_type_id":"4","last_reported":1747760948,"current_range_meters":16000,"station_id":"ce4bhlp2rcd13ifvqgjg","pricing_plan_id":"cebpf4jnsgd1na2vs0mg"},{"bike_id":"56cf80a0-6e20-4517-b7ab-ff4ac3730a84","system_id":"levelo_inurba_marseille","lat":43.23179,"lon":5.40012,"is_reserved":false,"is_disabled":false,"rental_uris":{"android":"levelo://app?vid=56cf80a0-6e20-4517-b7ab-ff4ac3730a84","ios":"levelo://app?vid=56cf80a0-6e20-4517-b7ab-ff4ac3730a84"},"vehicle_type_id":"4","last_reported":1747760948,"current_range_meters":16000,"station_id":"ce4bhn12rcd13ifvqgqg","pricing_plan_id":"cebpf4jnsgd1na2vs0mg"},{"bike_id":"9a8d13ed-e2d9-4443-967d-0b591be4cfda","system_id":"levelo_inurba_marseille","lat":43.28155,"lon":5.42644,"is_reserved":false,"is_disabled":false,"rental_uris":{"android":"levelo://app?vid=9a8d13ed-e2d9-4443-967d-0b591be4cfda","ios":"levelo://app?vid=9a8d13ed-e2d9-4443-967d-0b591be4cfda"},"vehicle_type_id":"4","last_reported":1747760948,"current_range_meters":16000,"station_id":"ce4bhnh2rcd13ifvqgug","pricing_plan_id":"cebpf4jnsgd1na2vs0mg"},{"bike_id":"d22b0fd0-78a6-46fc-aad8-ce2ca2a629e3","system_id":"levelo_inurba_marseille","lat":43.21194,"lon":5.35078,"is_reserved":false,"is_disabled":false,"rental_uris":{"android":"levelo://app?vid=d22b0fd0-78a6-46fc-aad8-ce2ca2a629e3","ios":"levelo://app?vid=d22b0fd0-78a6-46fc-aad8-ce2ca2a629e3"},"vehicle_type_id":"4","last_reported":1747760948,"current_range_meters":16000,"station_id":"st_cvj6sg6p6f1abm77japg","pricing_plan_id":"cebpf4jnsgd1na2vs0mg"},{"bike_id":"1cfa7d30-6285-40b2-8b36-645be0d4c935","system_id":"levelo_inurba_marseille","lat":43.26493,"lon":5.3955,"is_reserved":false,"is_disabled":false,"rental_uris":{"android":"levelo://app?vid=1cfa7d30-6285-40b2-8b36-645be0d4c935","ios":"levelo://app?vid=1cfa7d30-6285-40b2-8b36-645be0d4c935"},"vehicle_type_id":"4","last_reported":1747760948,"current_range_meters":16400,"station_id":"ce4bhi12rcd13ifvqfq0","pricing_plan_id":"cebpf4jnsgd1na2vs0mg"},{"bike_id":"a253706b-1cb9-4ca4-9560-173eeb92ac1f","system_id":"levelo_inurba_marseille","lat":43.308076,"lon":5.43523,"is_reserved":false,"is_disabled":false,"rental_uris":{"android":"levelo://app?vid=a253706b-1cb9-4ca4-9560-173eeb92ac1f","ios":"levelo://app?vid=a253706b-1cb9-4ca4-9560-173eeb92ac1f"},"vehicle_type_id":"4","last_reported":1747760948,"current_range_meters":16400,"station_id":"ce4bhph2rcd13ifvqheg","pricing_plan_id":"cebpf4jnsgd1na2vs0mg"},{"bike_id":"1a340bac-8012-4c7c-b50a-247d19f083a9","system_id":"levelo_inurba_marseille","lat":43.211923,"lon":5.350727,"is_reserved":false,"is_disabled":false,"rental_uris":{"android":"levelo://app?vid=1a340bac-8012-4c7c-b50a-247d19f083a9","ios":"levelo://app?vid=1a340bac-8012-4c7c-b50a-247d19f083a9"},"vehicle_type_id":"4","last_reported":1747760948,"current_range_meters":16400,"station_id":"st_cvj6sg6p6f1abm77japg","pricing_plan_id":"cebpf4jnsgd1na2vs0mg"},{"bike_id":"c9332228-05cb-4726-839c-afbf0dc20163","system_id":"levelo_inurba_marseille","lat":43.32265,"lon":5.38374,"is_reserved":false,"is_disabled":false,"rental_uris":{"android":"levelo://app?vid=c9332228-05cb-4726-839c-afbf0dc20163","ios":"levelo://app?vid=c9332228-05cb-4726-839c-afbf0dc20163"},"vehicle_type_id":"4","last_reported":1747760948,"current_range_meters":16800,"station_id":"","pricing_plan_id":"cebpf4jnsgd1na2vs0mg"},{"bike_id":"953653d8-9b57-4609-bf3e-3bc3ae4c93c8","system_id":"levelo_inurba_marseille","lat":43.29794,"lon":5.40417,"is_reserved":false,"is_disabled":false,"rental_uris":{"android":"levelo://app?vid=953653d8-9b57-4609-bf3e-3bc3ae4c93c8","ios":"levelo://app?vid=953653d8-9b57-4609-bf3e-3bc3ae4c93c8"},"vehicle_type_id":"4","last_reported":1747760948,"current_range_meters":16800,"station_id":"ce4bh112rcd13ifvqd90","pricing_plan_id":"cebpf4jnsgd1na2vs0mg"},{"bike_id":"5ad4d487-38b9-4eb1-8a1c-b91bcd8513a6","system_id":"levelo_inurba_marseille","lat":43.28943,"lon":5.39632,"is_reserved":false,"is_disabled":false,"rental_uris":{"android":"levelo://app?vid=5ad4d487-38b9-4eb1-8a1c-b91bcd8513a6","ios":"levelo://app?vid=5ad4d487-38b9-4eb1-8a1c-b91bcd8513a6"},"vehicle_type_id":"4","last_reported":1747760948,"current_range_meters":16800,"station_id":"ce4bh3h2rcd13ifvqdn0","pricing_plan_id":"cebpf4jnsgd1na2vs0mg"},{"bike_id":"46269ceb-f8d1-4ae3-97b2-39be6b3b1665","system_id":"levelo_inurba_marseille","lat":43.29006,"lon":5.35611,"is_reserved":false,"is_disabled":false,"rental_uris":{"android":"levelo://app?vid=46269ceb-f8d1-4ae3-97b2-39be6b3b1665","ios":"levelo://app?vid=46269ceb-f8d1-4ae3-97b2-39be6b3b1665"},"vehicle_type_id":"4","last_reported":1747760948,"current_range_meters":16800,"station_id":"ce4bhb92rcd13ifvqen0","pricing_plan_id":"cebpf4jnsgd1na2vs0mg"},{"bike_id":"b2098f36-3a4b-4364-a6b7-9bce689a500e","system_id":"levelo_inurba_marseille","lat":43.278172,"lon":5.407118,"is_reserved":false,"is_disabled":false,"rental_uris":{"android":"levelo://app?vid=b2098f36-3a4b-4364-a6b7-9bce689a500e","ios":"levelo://app?vid=b2098f36-3a4b-4364-a6b7-9bce689a500e"},"vehicle_type_id":"4","last_reported":1747760948,"current_range_meters":16800,"station_id":"ce4bhnh2rcd13ifvqgtg","pricing_plan_id":"cebpf4jnsgd1na2vs0mg"},{"bike_id":"24dc12dd-e0a1-4ccc-b473-486d35ddca69","system_id":"levelo_inurba_marseille","lat":43.31718,"lon":5.43698,"is_reserved":false,"is_disabled":false,"rental_uris":{"android":"levelo://app?vid=24dc12dd-e0a1-4ccc-b473-486d35ddca69","ios":"levelo://app?vid=24dc12dd-e0a1-4ccc-b473-486d35ddca69"},"vehicle_type_id":"4","last_reported":1747760948,"current_range_meters":16800,"station_id":"ce4bhp92rcd13ifvqhcg","pricing_plan_id":"cebpf4jnsgd1na2vs0mg"},{"bike_id":"41a63ad7-5271-4c92-a07b-12a7b1d342de","system_id":"levelo_inurba_marseille","lat":43.21193,"lon":5.35067,"is_reserved":false,"is_disabled":false,"rental_uris":{"android":"levelo://app?vid=41a63ad7-5271-4c92-a07b-12a7b1d342de","ios":"levelo://app?vid=41a63ad7-5271-4c92-a07b-12a7b1d342de"},"vehicle_type_id":"4","last_reported":1747760948,"current_range_meters":16800,"station_id":"st_cvj6sg6p6f1abm77japg","pricing_plan_id":"cebpf4jnsgd1na2vs0mg"},{"bike_id":"4c96922f-5fa7-4b55-ad7f-38ec77761d12","system_id":"levelo_inurba_marseille","lat":43.2804,"lon":5.36943,"is_reserved":false,"is_disabled":false,"rental_uris":{"android":"levelo://app?vid=4c96922f-5fa7-4b55-ad7f-38ec77761d12","ios":"levelo://app?vid=4c96922f-5fa7-4b55-ad7f-38ec77761d12"},"vehicle_type_id":"4","last_reported":1747760948,"current_range_meters":17200,"station_id":"ce4bha12rcd13ifvqef0","pricing_plan_id":"cebpf4jnsgd1na2vs0mg"},{"bike_id":"9e2045d4-9c9c-4b3c-b34e-6cbaeeb6143a","system_id":"levelo_inurba_marseille","lat":43.29226,"lon":5.36077,"is_reserved":false,"is_disabled":false,"rental_uris":{"android":"levelo://app?vid=9e2045d4-9c9c-4b3c-b34e-6cbaeeb6143a","ios":"levelo://app?vid=9e2045d4-9c9c-4b3c-b34e-6cbaeeb6143a"},"vehicle_type_id":"4","last_reported":1747760948,"current_range_meters":17200,"station_id":"ce4bhbh2rcd13ifvqeqg","pricing_plan_id":"cebpf4jnsgd1na2vs0mg"},{"bike_id":"087dad26-384f-4e67-94e3-2ef3c63735fe","system_id":"levelo_inurba_marseille","lat":43.2318,"lon":5.39992,"is_reserved":false,"is_disabled":false,"rental_uris":{"android":"levelo://app?vid=087dad26-384f-4e67-94e3-2ef3c63735fe","ios":"levelo://app?vid=087dad26-384f-4e67-94e3-2ef3c63735fe"},"vehicle_type_id":"4","last_reported":1747760948,"current_range_meters":17200,"station_id":"ce4bhn12rcd13ifvqgqg","pricing_plan_id":"cebpf4jnsgd1na2vs0mg"},{"bike_id":"6085c4d1-a373-49d9-a03a-b36215db9f01","system_id":"levelo_inurba_marseille","lat":43.28155,"lon":5.42648,"is_reserved":false,"is_disabled":false,"rental_uris":{"android":"levelo://app?vid=6085c4d1-a373-49d9-a03a-b36215db9f01","ios":"levelo://app?vid=6085c4d1-a373-49d9-a03a-b36215db9f01"},"vehicle_type_id":"4","last_reported":1747760948,"current_range_meters":17200,"station_id":"ce4bhnh2rcd13ifvqgug","pricing_plan_id":"cebpf4jnsgd1na2vs0mg"},{"bike_id":"bcafc7fc-a1cf-412b-adf0-70f359abb5f4","system_id":"levelo_inurba_marseille","lat":43.30804,"lon":5.43524,"is_reserved":false,"is_disabled":false,"rental_uris":{"android":"levelo://app?vid=bcafc7fc-a1cf-412b-adf0-70f359abb5f4","ios":"levelo://app?vid=bcafc7fc-a1cf-412b-adf0-70f359abb5f4"},"vehicle_type_id":"4","last_reported":1747760948,"current_range_meters":17200,"station_id":"ce4bhph2rcd13ifvqheg","pricing_plan_id":"cebpf4jnsgd1na2vs0mg"},{"bike_id":"20341d8a-5a7b-49d2-9f9d-dafcc3b6b254","system_id":"levelo_inurba_marseille","lat":43.31758,"lon":5.39018,"is_reserved":false,"is_disabled":false,"rental_uris":{"android":"levelo://app?vid=20341d8a-5a7b-49d2-9f9d-dafcc3b6b254","ios":"levelo://app?vid=20341d8a-5a7b-49d2-9f9d-dafcc3b6b254"},"vehicle_type_id":"4","last_reported":1747760948,"current_range_meters":17200,"station_id":"ce4bhqp2rcd13ifvqhng","pricing_plan_id":"cebpf4jnsgd1na2vs0mg"},{"bike_id":"3334f1b9-bb5f-4124-a977-cdf125e3268b","system_id":"levelo_inurba_marseille","lat":43.2841,"lon":5.37511,"is_reserved":false,"is_disabled":false,"rental_uris":{"android":"levelo://app?vid=3334f1b9-bb5f-4124-a977-cdf125e3268b","ios":"levelo://app?vid=3334f1b9-bb5f-4124-a977-cdf125e3268b"},"vehicle_type_id":"4","last_reported":1747760948,"current_range_meters":17600,"station_id":"ce4bh412rcd13ifvqds0","pricing_plan_id":"cebpf4jnsgd1na2vs0mg"},{"bike_id":"d2243da5-46a4-4675-a166-c5959f727fa3","system_id":"levelo_inurba_marseille","lat":43.279379,"lon":5.410453,"is_reserved":false,"is_disabled":false,"rental_uris":{"android":"levelo://app?vid=d2243da5-46a4-4675-a166-c5959f727fa3","ios":"levelo://app?vid=d2243da5-46a4-4675-a166-c5959f727fa3"},"vehicle_type_id":"4","last_reported":1747760948,"current_range_meters":17600,"station_id":"ce4bhnp2rcd13ifvqh0g","pricing_plan_id":"cebpf4jnsgd1na2vs0mg"},{"bike_id":"0e6bb125-ff93-4853-97e0-da4a593482f4","system_id":"levelo_inurba_marseille","lat":43.280787,"lon":5.396407,"is_reserved":false,"is_disabled":false,"rental_uris":{"android":"levelo://app?vid=0e6bb125-ff93-4853-97e0-da4a593482f4","ios":"levelo://app?vid=0e6bb125-ff93-4853-97e0-da4a593482f4"},"vehicle_type_id":"4","last_reported":1747760948,"current_range_meters":17600,"station_id":"ce4bho12rcd13ifvqh2g","pricing_plan_id":"cebpf4jnsgd1na2vs0mg"},{"bike_id":"e31833c9-3629-4b2f-810c-c09df0eb266c","system_id":"levelo_inurba_marseille","lat":43.33751,"lon":5.37509,"is_reserved":false,"is_disabled":false,"rental_uris":{"android":"levelo://app?vid=e31833c9-3629-4b2f-810c-c09df0eb266c","ios":"levelo://app?vid=e31833c9-3629-4b2f-810c-c09df0eb266c"},"vehicle_type_id":"4","last_reported":1747760948,"current_range_meters":18000,"station_id":"","pricing_plan_id":"cebpf4jnsgd1na2vs0mg"},{"bike_id":"24b7cb20-fa5b-48a6-a4b0-ad52102d8290","system_id":"levelo_inurba_marseille","lat":43.27439,"lon":5.39401,"is_reserved":false,"is_disabled":false,"rental_uris":{"android":"levelo://app?vid=24b7cb20-fa5b-48a6-a4b0-ad52102d8290","ios":"levelo://app?vid=24b7cb20-fa5b-48a6-a4b0-ad52102d8290"},"vehicle_type_id":"4","last_reported":1747760948,"current_range_meters":18000,"station_id":"ce4bhdp2rcd13ifvqf20","pricing_plan_id":"cebpf4jnsgd1na2vs0mg"},{"bike_id":"b4e986e6-0c3f-4832-a8d4-499b62b53197","system_id":"levelo_inurba_marseille","lat":43.26565,"lon":5.39007,"is_reserved":false,"is_disabled":false,"rental_uris":{"android":"levelo://app?vid=b4e986e6-0c3f-4832-a8d4-499b62b53197","ios":"levelo://app?vid=b4e986e6-0c3f-4832-a8d4-499b62b53197"},"vehicle_type_id":"4","last_reported":1747760948,"current_range_meters":18000,"station_id":"ce4bhe12rcd13ifvqf30","pricing_plan_id":"cebpf4jnsgd1na2vs0mg"},{"bike_id":"14857b54-4587-4eb8-acc7-73f380a30f79","system_id":"levelo_inurba_marseille","lat":43.25587,"lon":5.38228,"is_reserved":false,"is_disabled":false,"rental_uris":{"android":"levelo://app?vid=14857b54-4587-4eb8-acc7-73f380a30f79","ios":"levelo://app?vid=14857b54-4587-4eb8-acc7-73f380a30f79"},"vehicle_type_id":"4","last_reported":1747760948,"current_range_meters":18000,"station_id":"ce4bhih2rcd13ifvqfs0","pricing_plan_id":"cebpf4jnsgd1na2vs0mg"},{"bike_id":"7b64057b-640d-4d3e-937d-f96f196e6a4e","system_id":"levelo_inurba_marseille","lat":43.28003,"lon":5.4001,"is_reserved":false,"is_disabled":false,"rental_uris":{"android":"levelo://app?vid=7b64057b-640d-4d3e-937d-f96f196e6a4e","ios":"levelo://app?vid=7b64057b-640d-4d3e-937d-f96f196e6a4e"},"vehicle_type_id":"4","last_reported":1747760948,"current_range_meters":18000,"station_id":"ce4bho92rcd13ifvqh4g","pricing_plan_id":"cebpf4jnsgd1na2vs0mg"},{"bike_id":"2a954923-ace9-4790-81a0-254d59f9ea2b","system_id":"levelo_inurba_marseille","lat":43.29978,"lon":5.41329,"is_reserved":false,"is_disabled":false,"rental_uris":{"android":"levelo://app?vid=2a954923-ace9-4790-81a0-254d59f9ea2b","ios":"levelo://app?vid=2a954923-ace9-4790-81a0-254d59f9ea2b"},"vehicle_type_id":"4","last_reported":1747760948,"current_range_meters":18000,"station_id":"ce4bhp12rcd13ifvqh9g","pricing_plan_id":"cebpf4jnsgd1na2vs0mg"},{"bike_id":"4e38f7d2-3a2f-4430-97f0-7b564ed6c4b9","system_id":"levelo_inurba_marseille","lat":43.21195,"lon":5.35067,"is_reserved":false,"is_disabled":false,"rental_uris":{"android":"levelo://app?vid=4e38f7d2-3a2f-4430-97f0-7b564ed6c4b9","ios":"levelo://app?vid=4e38f7d2-3a2f-4430-97f0-7b564ed6c4b9"},"vehicle_type_id":"4","last_reported":1747760948,"current_range_meters":18000,"station_id":"st_cvj6sg6p6f1abm77japg","pricing_plan_id":"cebpf4jnsgd1na2vs0mg"},{"bike_id":"509a7bc5-3ed4-44a0-83b3-6bbf477b3a61","system_id":"levelo_inurba_marseille","lat":43.21189,"lon":5.35075,"is_reserved":false,"is_disabled":false,"rental_uris":{"android":"levelo://app?vid=509a7bc5-3ed4-44a0-83b3-6bbf477b3a61","ios":"levelo://app?vid=509a7bc5-3ed4-44a0-83b3-6bbf477b3a61"},"vehicle_type_id":"4","last_reported":1747760948,"current_range_meters":18000,"station_id":"st_cvj6sg6p6f1abm77japg","pricing_plan_id":"cebpf4jnsgd1na2vs0mg"},{"bike_id":"f657d7c6-0028-4adb-b4f1-cd1d56916b8b","system_id":"levelo_inurba_marseille","lat":43.31172,"lon":5.38725,"is_reserved":false,"is_disabled":false,"rental_uris":{"android":"levelo://app?vid=f657d7c6-0028-4adb-b4f1-cd1d56916b8b","ios":"levelo://app?vid=f657d7c6-0028-4adb-b4f1-cd1d56916b8b"},"vehicle_type_id":"4","last_reported":1747760948,"current_range_meters":18800,"station_id":"ce4bgv12rcd13ifvqcp0","pricing_plan_id":"cebpf4jnsgd1na2vs0mg"},{"bike_id":"7e564d20-975b-4495-b783-aaad0c5a9a4f","system_id":"levelo_inurba_marseille","lat":43.24391,"lon":5.37061,"is_reserved":false,"is_disabled":false,"rental_uris":{"android":"levelo://app?vid=7e564d20-975b-4495-b783-aaad0c5a9a4f","ios":"levelo://app?vid=7e564d20-975b-4495-b783-aaad0c5a9a4f"},"vehicle_type_id":"4","last_reported":1747760948,"current_range_meters":18800,"station_id":"ce4bhhh2rcd13ifvqfk0","pricing_plan_id":"cebpf4jnsgd1na2vs0mg"},{"bike_id":"cc59906c-192e-4cd4-88f0-1b9c2ac2c076","system_id":"levelo_inurba_marseille","lat":43.28153,"lon":5.42644,"is_reserved":false,"is_disabled":false,"rental_uris":{"android":"levelo://app?vid=cc59906c-192e-4cd4-88f0-1b9c2ac2c076","ios":"levelo://app?vid=cc59906c-192e-4cd4-88f0-1b9c2ac2c076"},"vehicle_type_id":"4","last_reported":1747760948,"current_range_meters":18800,"station_id":"ce4bhnh2rcd13ifvqgug","pricing_plan_id":"cebpf4jnsgd1na2vs0mg"},{"bike_id":"c4f0ddbf-912f-4dc6-81b8-da7688e7978e","system_id":"levelo_inurba_marseille","lat":43.30798,"lon":5.43522,"is_reserved":false,"is_disabled":false,"rental_uris":{"android":"levelo://app?vid=c4f0ddbf-912f-4dc6-81b8-da7688e7978e","ios":"levelo://app?vid=c4f0ddbf-912f-4dc6-81b8-da7688e7978e"},"vehicle_type_id":"4","last_reported":1747760948,"current_range_meters":18800,"station_id":"ce4bhph2rcd13ifvqheg","pricing_plan_id":"cebpf4jnsgd1na2vs0mg"},{"bike_id":"75a4b4dd-0287-4dcb-827c-9aea0292d3a1","system_id":"levelo_inurba_marseille","lat":43.32337,"lon":5.40617,"is_reserved":false,"is_disabled":false,"rental_uris":{"android":"levelo://app?vid=75a4b4dd-0287-4dcb-827c-9aea0292d3a1","ios":"levelo://app?vid=75a4b4dd-0287-4dcb-827c-9aea0292d3a1"},"vehicle_type_id":"4","last_reported":1747760948,"current_range_meters":18800,"station_id":"ce4bhq92rcd13ifvqhjg","pricing_plan_id":"cebpf4jnsgd1na2vs0mg"},{"bike_id":"628c52ae-b897-4dca-953c-8475bb2941d3","system_id":"levelo_inurba_marseille","lat":43.21184,"lon":5.35038,"is_reserved":false,"is_disabled":false,"rental_uris":{"android":"levelo://app?vid=628c52ae-b897-4dca-953c-8475bb2941d3","ios":"levelo://app?vid=628c52ae-b897-4dca-953c-8475bb2941d3"},"vehicle_type_id":"4","last_reported":1747760948,"current_range_meters":18800,"station_id":"st_cvj6sg6p6f1abm77japg","pricing_plan_id":"cebpf4jnsgd1na2vs0mg"},{"bike_id":"8bb7d43c-e583-40c0-9a6a-a2f0c4f03243","system_id":"levelo_inurba_marseille","lat":43.29262,"lon":5.40897,"is_reserved":false,"is_disabled":false,"rental_uris":{"android":"levelo://app?vid=8bb7d43c-e583-40c0-9a6a-a2f0c4f03243","ios":"levelo://app?vid=8bb7d43c-e583-40c0-9a6a-a2f0c4f03243"},"vehicle_type_id":"4","last_reported":1747760948,"current_range_meters":19200,"station_id":"ce4bh192rcd13ifvqdc0","pricing_plan_id":"cebpf4jnsgd1na2vs0mg"},{"bike_id":"00440487-0b16-4180-9a65-5bd738a1f121","system_id":"levelo_inurba_marseille","lat":43.29048,"lon":5.35911,"is_reserved":false,"is_disabled":false,"rental_uris":{"android":"levelo://app?vid=00440487-0b16-4180-9a65-5bd738a1f121","ios":"levelo://app?vid=00440487-0b16-4180-9a65-5bd738a1f121"},"vehicle_type_id":"4","last_reported":1747760948,"current_range_meters":19200,"station_id":"ce4bha92rcd13ifvqeg0","pricing_plan_id":"cebpf4jnsgd1na2vs0mg"},{"bike_id":"930caa11-be47-436a-aab5-3334c7621d59","system_id":"levelo_inurba_marseille","lat":43.25594,"lon":5.38223,"is_reserved":false,"is_disabled":false,"rental_uris":{"android":"levelo://app?vid=930caa11-be47-436a-aab5-3334c7621d59","ios":"levelo://app?vid=930caa11-be47-436a-aab5-3334c7621d59"},"vehicle_type_id":"4","last_reported":1747760948,"current_range_meters":19200,"station_id":"ce4bhih2rcd13ifvqfs0","pricing_plan_id":"cebpf4jnsgd1na2vs0mg"},{"bike_id":"ac54cb9d-c717-4084-9363-e0498a0029df","system_id":"levelo_inurba_marseille","lat":43.27948,"lon":5.41032,"is_reserved":false,"is_disabled":false,"rental_uris":{"android":"levelo://app?vid=ac54cb9d-c717-4084-9363-e0498a0029df","ios":"levelo://app?vid=ac54cb9d-c717-4084-9363-e0498a0029df"},"vehicle_type_id":"4","last_reported":1747760948,"current_range_meters":19200,"station_id":"ce4bhnp2rcd13ifvqh0g","pricing_plan_id":"cebpf4jnsgd1na2vs0mg"},{"bike_id":"c9a00e74-029a-454e-8e85-1b3d994b9d78","system_id":"levelo_inurba_marseille","lat":43.21196,"lon":5.35069,"is_reserved":false,"is_disabled":false,"rental_uris":{"android":"levelo://app?vid=c9a00e74-029a-454e-8e85-1b3d994b9d78","ios":"levelo://app?vid=c9a00e74-029a-454e-8e85-1b3d994b9d78"},"vehicle_type_id":"4","last_reported":1747760948,"current_range_meters":19200,"station_id":"st_cvj6sg6p6f1abm77japg","pricing_plan_id":"cebpf4jnsgd1na2vs0mg"},