{"last_updated":1731936045,"ttl":60,"version":"2.2","data":{"bikes":[{"bike_id":"6b893b8c-4f33-465a-bddc-64f5161d5051","system_id":"levelo_inurba_marseille","lat":43.28714,"lon":5.37955,"is_reserved":false,"is_disabled":false,"rental_uris":{"android":"levelo://app?vid=6b893b8c-4f33-465a-bddc-64f5161d5051","ios":"levelo://app?vid=6b893b8c-4f33-465a-bddc-64f5161d5051"},"vehicle_type_id":"4","last_reported":1731936045,"current_range_meters":30400,"station_id":"ce4bh9p2rcd13ifvqec0","pricing_plan_id":"cebpf4jnsgd1na2vs0mg"},{"bike_id":"82acd50d-28e4-48db-a93f-d9af8580c852","system_id":"levelo_inurba_marseille","lat":43.30121,"lon":5.39749,"is_reserved":false,"is_disabled":false,"rental_uris":{"android":"levelo://app?vid=82acd50d-28e4-48db-a93f-d9af8580c852","ios":"levelo://app?vid=82acd50d-28e4-48db-a93f-d9af8580c852"},"vehicle_type_id":"4","last_reported":1731936045,"current_range_meters":12000,"station_id":"ce4bh0h2rcd13ifvqd40","pricing_plan_id":"cebpf4jnsgd1na2vs0mg"},{"bike_id":"71ad5317-72da-49ab-bd09-9f41acc7f593","system_id":"levelo_inurba_marseille","lat":43.29895,"lon":5.43667,"is_reserved":false,"is_disabled":false,"rental_uris":{"android":"levelo://app?vid=71ad5317-72da-49ab-bd09-9f41acc7f593","ios":"levelo://app?vid=71ad5317-72da-49ab-bd09-9f41acc7f593"},"vehicle_type_id":"4","last_reported":1731936045,"current_range_meters":30000,"station_id":"ce4bhpp2rcd13ifvqhfg","pricing_plan_id":"cebpf4jnsgd1na2vs0mg"},{"bike_id":"fb3af305-4514-454e-b4a1-f28931733540","system_id":"levelo_inurba_marseille","lat":43.23186,"lon":5.39982,"is_reserved":false,"is_disabled":false,"rental_uris":{"android":"levelo://app?vid=fb3af305-4514-454e-b4a1-f28931733540","ios":"levelo://app?vid=fb3af305-4514-454e-b4a1-f28931733540"},"vehicle_type_id":"4","last_reported":1731936045,"current_range_meters":33200,"station_id":"ce4bhn12rcd13ifvqgqg","pricing_plan_id":"cebpf4jnsgd1na2vs0mg"},{"bike_id":"d6d6e01c-1dd2-4c4e-9e17-cd6012080766","system_id":"levelo_inurba_marseille","lat":43.28971,"lon":5.37837,"is_reserved":false,"is_disabled":false,"rental_uris":{"android":"levelo://app?vid=d6d6e01c-1dd2-4c4e-9e17-cd6012080766","ios":"levelo://app?vid=d6d6e01c-1dd2-4c4e-9e17-cd6012080766"},"vehicle_type_id":"4","last_reported":1731936045,"current_range_meters":35600,"station_id":"ce4bh9p2rcd13ifvqed0","pricing_plan_id":"cebpf4jnsgd1na2vs0mg"},{"bike_id":"4b576895-5f0b-4f5e-805b-59bd5bfe967a","system_id":"levelo_inurba_marseille","lat":43.28412,"lon":5.34981,"is_reserved":false,"is_disabled":false,"rental_uris":{"android":"levelo://app?vid=4b576895-5f0b-4f5e-805b-59bd5bfe967a","ios":"levelo://app?vid=4b576895-5f0b-4f5e-805b-59bd5bfe967a"},"vehicle_type_id":"4","last_reported":1731936045,"current_range_meters":32000,"station_id":"ce4bhbh2rcd13ifvqepg","pricing_plan_id":"cebpf4jnsgd1na2vs0mg"},{"bike_id":"0c057894-f92e-412f-a9b9-0db10c46375d","system_id":"levelo_inurba_marseille","lat":43.31227,"lon":5.36861,"is_reserved":false,"is_disabled":false,"rental_uris":{"android":"levelo://app?vid=0c057894-f92e-412f-a9b9-0db10c46375d","ios":"levelo://app?vid=0c057894-f92e-412f-a9b9-0db10c46375d"},"vehicle_type_id":"4","last_reported":1731936045,"current_range_meters":28800,"station_id":"ce4bgl92rcd13ifvqbq0","pricing_plan_id":"cebpf4jnsgd1na2vs0mg"},{"bike_id":"a92ff0d5-2b6b-4946-9d15-aaa3e262260d","system_id":"levelo_inurba_marseille","lat":43.308899,"lon":5.368263,"is_reserved":false,"is_disabled":false,"rental_uris":{"android":"levelo://app?vid=a92ff0d5-2b6b-4946-9d15-aaa3e262260d","ios":"levelo://app?vid=a92ff0d5-2b6b-4946-9d15-aaa3e262260d"},"vehicle_type_id":"4","last_reported":1731936045,"current_range_meters":31200,"station_id":"ce4bgn92rcd13ifvqbvg","pricing_plan_id":"cebpf4jnsgd1na2vs0mg"},{"bike_id":"41fac2c1-5c60-4f0d-adaf-9408c37eb491","system_id":"levelo_inurba_marseille","lat":43.29825,"lon":5.38062,"is_reserved":false,"is_disabled":false,"rental_uris":{"android":"levelo://app?vid=41fac2c1-5c60-4f0d-adaf-9408c37eb491","ios":"levelo://app?vid=41fac2c1-5c60-4f0d-adaf-9408c37eb491"},"vehicle_type_id":"4","last_reported":1731936045,"current_range_meters":26000,"station_id":"ce4bgip2rcd13ifvqbb0","pricing_plan_id":"cebpf4jnsgd1na2vs0mg"},{"bike_id":"146a3823-33a3-4516-9b2a-ac2d224483b3","system_id":"levelo_inurba_marseille","lat":43.29967,"lon":5.37184,"is_reserved":false,"is_disabled":false,"rental_uris":{"android":"levelo://app?vid=146a3823-33a3-4516-9b2a-ac2d224483b3","ios":"levelo://app?vid=146a3823-33a3-4516-9b2a-ac2d224483b3"},"vehicle_type_id":"4","last_reported":1731936045,"current_range_meters":9200,"station_id":"ce4bgr92rcd13ifvqc7g","pricing_plan_id":"cebpf4jnsgd1na2vs0mg"},{"bike_id":"ed5b05e7-b26e-41d6-9d68-dd5fd185b190","system_id":"levelo_inurba_marseille","lat":43.28361,"lon":5.38633,"is_reserved":false,"is_disabled":false,"rental_uris":{"android":"levelo://app?vid=ed5b05e7-b26e-41d6-9d68-dd5fd185b190","ios":"levelo://app?vid=ed5b05e7-b26e-41d6-9d68-dd5fd185b190"},"vehicle_type_id":"4","last_reported":1731936045,"current_range_meters":22000,"station_id":"ce4bh492rcd13ifvqdvg","pricing_plan_id":"cebpf4jnsgd1na2vs0mg"},{"bike_id":"3f068459-f9f9-440b-b52d-536c2c2f6d6b","system_id":"levelo_inurba_marseille","lat":43.25584,"lon":5.38237,"is_reserved":false,"is_disabled":false,"rental_uris":{"android":"levelo://app?vid=3f068459-f9f9-440b-b52d-536c2c2f6d6b","ios":"levelo://app?vid=3f068459-f9f9-440b-b52d-536c2c2f6d6b"},"vehicle_type_id":"4","last_reported":1731936045,"current_range_meters":24800,"station_id":"ce4bhih2rcd13ifvqfs0","pricing_plan_id":"cebpf4jnsgd1na2vs0mg"},{"bike_id":"dd619c0c-dd3c-4dce-abbc-9c97ef935d0d","system_id":"levelo_inurba_marseille","lat":43.298,"lon":5.38092,"is_reserved":false,"is_disabled":false,"rental_uris":{"android":"levelo://app?vid=dd619c0c-dd3c-4dce-abbc-9c97ef935d0d","ios":"levelo://app?vid=dd619c0c-dd3c-4dce-abbc-9c97ef935d0d"},"vehicle_type_id":"4","last_reported":1731936045,"current_range_meters":23200,"station_id":"ce4bgip2rcd13ifvqbb0","pricing_plan_id":"cebpf4jnsgd1na2vs0mg"},{"bike_id":"3d931d75-d710-4a94-bc9b-adb0f29cf7c4","system_id":"levelo_inurba_marseille","lat":43.337444,"lon":5.374475,"is_reserved":false,"is_disabled":false,"rental_uris":{"android":"levelo://app?vid=3d931d75-d710-4a94-bc9b-adb0f29cf7c4","ios":"levelo://app?vid=3d931d75-d710-4a94-bc9b-adb0f29cf7c4"},"vehicle_type_id":"4","last_reported":1731936045,"current_range_meters":38800,"station_id":"","pricing_plan_id":"cebpf4jnsgd1na2vs0mg"},{"bike_id":"0672d165-d197-4474-bbec-2df95543fd2f","system_id":"levelo_inurba_marseille","lat":43.29897,"lon":5.43659,"is_reserved":false,"is_disabled":false,"rental_uris":{"android":"levelo://app?vid=0672d165-d197-4474-bbec-2df95543fd2f","ios":"levelo://app?vid=0672d165-d197-4474-bbec-2df95543fd2f"},"vehicle_type_id":"4","last_reported":1731936045,"current_range_meters":37600,"station_id":"ce4bhpp2rcd13ifvqhfg","pricing_plan_id":"cebpf4jnsgd1na2vs0mg"},{"bike_id":"5cf6163b-0b69-4ea6-9575-0a2ed6c16fe9","system_id":"levelo_inurba_marseille","lat":43.27068,"lon":5.42278,"is_reserved":false,"is_disabled":false,"rental_uris":{"android":"levelo://app?vid=5cf6163b-0b69-4ea6-9575-0a2ed6c16fe9","ios":"levelo://app?vid=5cf6163b-0b69-4ea6-9575-0a2ed6c16fe9"},"vehicle_type_id":"4","last_reported":1731936045,"current_range_meters":5600,"station_id":"ce4bhk92rcd13ifvqgb0","pricing_plan_id":"cebpf4jnsgd1na2vs0mg"},{"bike_id":"4a8c199e-ab89-4b13-8aa0-a3cd296b6478","system_id":"levelo_inurba_marseille","lat":43.3133,"lon":5.39693,"is_reserved":false,"is_disabled":false,"rental_uris":{"android":"levelo://app?vid=4a8c199e-ab89-4b13-8aa0-a3cd296b6478","ios":"levelo://app?vid=4a8c199e-ab89-4b13-8aa0-a3cd296b6478"},"vehicle_type_id":"4","last_reported":1731936045,"current_range_meters":38800,"station_id":"ce4bgvp2rcd13ifvqcu0","pricing_plan_id":"cebpf4jnsgd1na2vs0mg"},{"bike_id":"66b263f2-3f26-4f34-a1cf-e201e386381d","system_id":"levelo_inurba_marseille","lat":43.2869,"lon":5.37395,"is_reserved":false,"is_disabled":false,"rental_uris":{"android":"levelo://app?vid=66b263f2-3f26-4f34-a1cf-e201e386381d","ios":"levelo://app?vid=66b263f2-3f26-4f34-a1cf-e201e386381d"},"vehicle_type_id":"4","last_reported":1731936045,"current_range_meters":35600,"station_id":"ce4bh3p2rcd13ifvqdq0","pricing_plan_id":"cebpf4jnsgd1na2vs0mg"},{"bike_id":"44a8d448-fd1f-4e4a-80ce-a94368837126","system_id":"levelo_inurba_marseille","lat":43.23156,"lon":5.43703,"is_reserved":false,"is_disabled":false,"rental_uris":{"android":"levelo://app?vid=44a8d448-fd1f-4e4a-80ce-a94368837126","ios":"levelo://app?vid=44a8d448-fd1f-4e4a-80ce-a94368837126"},"vehicle_type_id":"4","last_reported":1731936045,"current_range_meters":24000,"station_id":"ce4bhmp2rcd13ifvqgog","pricing_plan_id":"cebpf4jnsgd1na2vs0mg"},{"bike_id":"1b7a9e33-da95-40b6-8e48-ea3b46a1a638","system_id":"levelo_inurba_marseille","lat":43.28268,"lon":5.35057,"is_reserved":false,"is_disabled":false,"rental_uris":{"android":"levelo://app?vid=1b7a9e33-da95-40b6-8e48-ea3b46a1a638","ios":"levelo://app?vid=1b7a9e33-da95-40b6-8e48-ea3b46a1a638"},"vehicle_type_id":"4","last_reported":1731936045,"current_range_meters":10800,"station_id":"ce4bhbp2rcd13ifvqerg","pricing_plan_id":"cebpf4jnsgd1na2vs0mg"},{"bike_id":"53ecfc26-a31a-4b3b-9711-52d1fa6a1887","system_id":"levelo_inurba_marseille","lat":43.28859,"lon":5.35863,"is_reserved":false,"is_disabled":false,"rental_uris":{"android":"levelo://app?vid=53ecfc26-a31a-4b3b-9711-52d1fa6a1887","ios":"levelo://app?vid=53ecfc26-a31a-4b3b-9711-52d1fa6a1887"},"vehicle_type_id":"4","last_reported":1731936045,"current_range_meters":22400,"station_id":"ce4bhb12rcd13ifvqem0","pricing_plan_id":"cebpf4jnsgd1na2vs0mg"},{"bike_id":"4c167bc3-2964-4625-adc0-c92e539ad80f","system_id":"levelo_inurba_marseille","lat":43.28277,"lon":5.40814,"is_reserved":false,"is_disabled":false,"rental_uris":{"android":"levelo://app?vid=4c167bc3-2964-4625-adc0-c92e539ad80f","ios":"levelo://app?vid=4c167bc3-2964-4625-adc0-c92e539ad80f"},"vehicle_type_id":"4","last_reported":1731936045,"current_range_meters":29600,"station_id":"","pricing_plan_id":"cebpf4jnsgd1na2vs0mg"},{"bike_id":"dc24ccdd-f78a-4bfd-b60d-87b5aafd671c","system_id":"levelo_inurba_marseille","lat":43.30541,"lon":5.36533,"is_reserved":false,"is_disabled":false,"rental_uris":{"android":"levelo://app?vid=dc24ccdd-f78a-4bfd-b60d-87b5aafd671c","ios":"levelo://app?vid=dc24ccdd-f78a-4bfd-b60d-87b5aafd671c"},"vehicle_type_id":"4","last_reported":1731936045,"current_range_meters":32000,"station_id":"ce4bgs12rcd13ifvqcag","pricing_plan_id":"cebpf4jnsgd1na2vs0mg"},{"bike_id":"0fba3e27-f618-4ca2-9183-adf2f73c8ad9","system_id":"levelo_inurba_marseille","lat":43.29805,"lon":5.38093,"is_reserved":false,"is_disabled":false,"rental_uris":{"android":"levelo://app?vid=0fba3e27-f618-4ca2-9183-adf2f73c8ad9","ios":"levelo://app?vid=0fba3e27-f618-4ca2-9183-adf2f73c8ad9"},"vehicle_type_id":"4","last_reported":1731936045,"current_range_meters":27200,"station_id":"ce4bgip2rcd13ifvqbb0","pricing_plan_id":"cebpf4jnsgd1na2vs0mg"},{"bike_id":"78debc03-37ff-4b04-a4c2-03e8cc1d351c","system_id":"levelo_inurba_marseille","lat":43.30946,"lon":5.38244,"is_reserved":false,"is_disabled":false,"rental_uris":{"android":"levelo://app?vid=78debc03-37ff-4b04-a4c2-03e8cc1d351c","ios":"levelo://app?vid=78debc03-37ff-4b04-a4c2-03e8cc1d351c"},"vehicle_type_id":"4","last_reported":1731936045,"current_range_meters":29600,"station_id":"","pricing_plan_id":"cebpf4jnsgd1na2vs0mg"},{"bike_id":"c3e4d78a-dd1f-4cf1-b44e-038eff147532","system_id":"levelo_inurba_marseille","lat":43.29581,"lon":5.36736,"is_reserved":false,"is_disabled":false,"rental_uris":{"android":"levelo://app?vid=c3e4d78a-dd1f-4cf1-b44e-038eff147532","ios":"levelo://app?vid=c3e4d78a-dd1f-4cf1-b44e-038eff147532"},"vehicle_type_id":"4","last_reported":1731936045,"current_range_meters":38000,"station_id":"ce4bgph2rcd13ifvqc2g","pricing_plan_id":"cebpf4jnsgd1na2vs0mg"},{"bike_id":"6b0ea79e-cb12-4a50-9845-e4686b3cacc8","system_id":"levelo_inurba_marseille","lat":43.295751,"lon":5.399791,"is_reserved":false,"is_disabled":false,"rental_uris":{"android":"levelo://app?vid=6b0ea79e-cb12-4a50-9845-e4686b3cacc8","ios":"levelo://app?vid=6b0ea79e-cb12-4a50-9845-e4686b3cacc8"},"vehicle_type_id":"4","last_reported":1731936045,"current_range_meters":4800,"station_id":"","pricing_plan_id":"cebpf4jnsgd1na2vs0mg"},{"bike_id":"3de79762-7d3a-4ddd-9398-05d2c68d3618","system_id":"levelo_inurba_marseille","lat":43.33743,"lon":5.37438,"is_reserved":false,"is_disabled":false,"rental_uris":{"android":"levelo://app?vid=3de79762-7d3a-4ddd-9398-05d2c68d3618","ios":"levelo://app?vid=3de79762-7d3a-4ddd-9398-05d2c68d3618"},"vehicle_type_id":"4","last_reported":1731936045,"current_range_meters":36400,"station_id":"","pricing_plan_id":"cebpf4jnsgd1na2vs0mg"},{"bike_id":"23876a31-7b31-4020-9a91-e84e6a4ccbf0","system_id":"levelo_inurba_marseille","lat":43.30924,"lon":5.40147,"is_reserved":false,"is_disabled":false,"rental_uris":{"android":"levelo://app?vid=23876a31-7b31-4020-9a91-e84e6a4ccbf0","ios":"levelo://app?vid=23876a31-7b31-4020-9a91-e84e6a4ccbf0"},"vehicle_type_id":"4","last_reported":1731936045,"current_range_meters":36000,"station_id":"ce4bgvp2rcd13ifvqct0","pricing_plan_id":"cebpf4jnsgd1na2vs0mg"},{"bike_id":"f65f2de6-593f-43d7-85e7-8d6d4605c51b","system_id":"levelo_inurba_marseille","lat":43.2481,"lon":5.37462,"is_reserved":false,"is_disabled":false,"rental_uris":{"android":"levelo://app?vid=f65f2de6-593f-43d7-85e7-8d6d4605c51b","ios":"levelo://app?vid=f65f2de6-593f-43d7-85e7-8d6d4605c51b"},"vehicle_type_id":"4","last_reported":1731936045,"current_range_meters":6800,"station_id":"ce4bhgh2rcd13ifvqfb0","pricing_plan_id":"cebpf4jnsgd1na2vs0mg"},{"bike_id":"e0b967c0-b35f-4934-9248-f55c41b4f08b","system_id":"levelo_inurba_marseille","lat":43.28191,"lon":5.44257,"is_reserved":false,"is_disabled":false,"rental_uris":{"android":"levelo://app?vid=e0b967c0-b35f-4934-9248-f55c41b4f08b","ios":"levelo://app?vid=e0b967c0-b35f-4934-9248-f55c41b4f08b"},"vehicle_type_id":"4","last_reported":1731936045,"current_range_meters":2800,"station_id":"","pricing_plan_id":"cebpf4jnsgd1na2vs0mg"},{"bike_id":"57edd0e2-68de-4e93-a8c5-cbb7808c0b01","system_id":"levelo_inurba_marseille","lat":43.2481,"lon":5.37468,"is_reserved":false,"is_disabled":false,"rental_uris":{"android":"levelo://app?vid=57edd0e2-68de-4e93-a8c5-cbb7808c0b01","ios":"levelo://app?vid=57edd0e2-68de-4e93-a8c5-cbb7808c0b01"},"vehicle_type_id":"4","last_reported":1731936045,"current_range_meters":19200,"station_id":"ce4bhgh2rcd13ifvqfb0","pricing_plan_id":"cebpf4jnsgd1na2vs0mg"},{"bike_id":"0b38b36a-cb8f-48e5-a013-7abb6c4dcc0e","system_id":"levelo_inurba_marseille","lat":43.27996,"lon":5.40012,"is_reserved":false,"is_disabled":false,"rental_uris":{"android":"levelo://app?vid=0b38b36a-cb8f-48e5-a013-7abb6c4dcc0e","ios":"levelo://app?vid=0b38b36a-cb8f-48e5-a013-7abb6c4dcc0e"},"vehicle_type_id":"4","last_reported":1731936045,"current_range_meters":28800,"station_id":"ce4bho92rcd13ifvqh4g","pricing_plan_id":"cebpf4jnsgd1na2vs0mg"},{"bike_id":"110ec820-d660-4aa4-8bb9-78227d43b052","system_id":"levelo_inurba_marseille","lat":43.29913,"lon":5.38144,"is_reserved":false,"is_disabled":false,"rental_uris":{"android":"levelo://app?vid=110ec820-d660-4aa4-8bb9-78227d43b052","ios":"levelo://app?vid=110ec820-d660-4aa4-8bb9-78227d43b052"},"vehicle_type_id":"4","last_reported":1731936045,"current_range_meters":17600,"station_id":"ce4bgj12rcd13ifvqbc0","pricing_plan_id":"cebpf4jnsgd1na2vs0mg"},{"bike_id":"45aaf411-8352-46a7-9f53-ea21681af78e","system_id":"levelo_inurba_marseille","lat":43.27175,"lon":5.40997,"is_reserved":false,"is_disabled":false,"rental_uris":{"android":"levelo://app?vid=45aaf411-8352-46a7-9f53-ea21681af78e","ios":"levelo://app?vid=45aaf411-8352-46a7-9f53-ea21681af78e"},"vehicle_type_id":"4","last_reported":1731936045,"current_range_meters":25600,"station_id":"ce4bhl12rcd13ifvqgf0","pricing_plan_id":"cebpf4jnsgd1na2vs0mg"},{"bike_id":"fa24f433-8299-40f7-ad0e-56445a05e40f","system_id":"levelo_inurba_marseille","lat":43.29724,"lon":5.37701,"is_reserved":false,"is_disabled":false,"rental_uris":{"android":"levelo://app?vid=fa24f433-8299-40f7-ad0e-56445a05e40f","ios":"levelo://app?vid=fa24f433-8299-40f7-ad0e-56445a05e40f"},"vehicle_type_id":"4","last_reported":1731936045,"current_range_meters":36000,"station_id":"ce4bgkh2rcd13ifvqbl0","pricing_plan_id":"cebpf4jnsgd1na2vs0mg"},{"bike_id":"ef8ca610-c0eb-4a61-a7ea-ba9bcf38e665","system_id":"levelo_inurba_marseille","lat":43.29089,"lon":5.39979,"is_reserved":false,"is_disabled":false,"rental_uris":{"android":"levelo://app?vid=ef8ca610-c0eb-4a61-a7ea-ba9bcf38e665","ios":"levelo://app?vid=ef8ca610-c0eb-4a61-a7ea-ba9bcf38e665"},"vehicle_type_id":"4","last_reported":1731936045,"current_range_meters":10800,"station_id":"","pricing_plan_id":"cebpf4jnsgd1na2vs0mg"},{"bike_id":"4305c1d1-ca62-4e47-ac96-b9970d6e957d","system_id":"levelo_inurba_marseille","lat":43.23194,"lon":5.35547,"is_reserved":false,"is_disabled":false,"rental_uris":{"android":"levelo://app?vid=4305c1d1-ca62-4e47-ac96-b9970d6e957d","ios":"levelo://app?vid=4305c1d1-ca62-4e47-ac96-b9970d6e957d"},"vehicle_type_id":"4","last_reported":1731936045,"current_range_meters":38800,"station_id":"ce4bhu92rcd13ifvqi70","pricing_plan_id":"cebpf4jnsgd1na2vs0mg"},{"bike_id":"c990f05f-5233-4b74-83de-c3ed5501467f","system_id":"levelo_inurba_marseille","lat":43.32533,"lon":5.41432,"is_reserved":false,"is_disabled":false,"rental_uris":{"android":"levelo://app?vid=c990f05f-5233-4b74-83de-c3ed5501467f","ios":"levelo://app?vid=c990f05f-5233-4b74-83de-c3ed5501467f"},"vehicle_type_id":"4","last_reported":1731936045,"current_range_meters":16000,"station_id":"ce4bhq12rcd13ifvqhhg","pricing_plan_id":"cebpf4jnsgd1na2vs0mg"},{"bike_id":"2bd3ae1c-22d2-4b0f-9fd7-42d6b84fc3a3","system_id":"levelo_inurba_marseille","lat":43.33599,"lon":5.41026,"is_reserved":false,"is_disabled":false,"rental_uris":{"android":"levelo://app?vid=2bd3ae1c-22d2-4b0f-9fd7-42d6b84fc3a3","ios":"levelo://app?vid=2bd3ae1c-22d2-4b0f-9fd7-42d6b84fc3a3"},"vehicle_type_id":"4","last_reported":1731936045,"current_range_meters":11200,"station_id":"ce4bhqh2rcd13ifvqhmg","pricing_plan_id":"cebpf4jnsgd1na2vs0mg"},{"bike_id":"cd3a7cc8-9fa1-4fab-bc94-8b5320c7bc23","system_id":"levelo_inurba_marseille","lat":43.24079,"lon":5.37755,"is_reserved":false,"is_disabled":false,"rental_uris":{"android":"levelo://app?vid=cd3a7cc8-9fa1-4fab-bc94-8b5320c7bc23","ios":"levelo://app?vid=cd3a7cc8-9fa1-4fab-bc94-8b5320c7bc23"},"vehicle_type_id":"4","last_reported":1731936045,"current_range_meters":17200,"station_id":"ce4bhnp2rcd13ifvqgvg","pricing_plan_id":"cebpf4jnsgd1na2vs0mg"},{"bike_id":"4b66d683-c781-43b4-8cbb-ae431364bf7e","system_id":"levelo_inurba_marseille","lat":43.29021,"lon":5.38636,"is_reserved":false,"is_disabled":false,"rental_uris":{"android":"levelo://app?vid=4b66d683-c781-43b4-8cbb-ae431364bf7e","ios":"levelo://app?vid=4b66d683-c781-43b4-8cbb-ae431364bf7e"},"vehicle_type_id":"4","last_reported":1731936045,"current_range_meters":33600,"station_id":"ce4bh4p2rcd13ifvqe0g","pricing_plan_id":"cebpf4jnsgd1na2vs0mg"},{"bike_id":"43cef654-d5ca-4905-95d5-e54788e09d69","system_id":"levelo_inurba_marseille","lat":43.32541,"lon":5.41426,"is_reserved":false,"is_disabled":false,"rental_uris":{"android":"levelo://app?vid=43cef654-d5ca-4905-95d5-e54788e09d69","ios":"levelo://app?vid=43cef654-d5ca-4905-95d5-e54788e09d69"},"vehicle_type_id":"4","last_reported":1731936045,"current_range_meters":20400,"station_id":"ce4bhq12rcd13ifvqhhg","pricing_plan_id":"cebpf4jnsgd1na2vs0mg"},{"bike_id":"d1ea8802-2f7a-4375-8ab8-7eb38e9ba54b","system_id":"levelo_inurba_marseille","lat":43.2428,"lon":5.3797,"is_reserved":false,"is_disabled":false,"rental_uris":{"android":"levelo://app?vid=d1ea8802-2f7a-4375-8ab8-7eb38e9ba54b","ios":"levelo://app?vid=d1ea8802-2f7a-4375-8ab8-7eb38e9ba54b"},"vehicle_type_id":"4","last_reported":1731936045,"current_range_meters":10000,"station_id":"","pricing_plan_id":"cebpf4jnsgd1na2vs0mg"},{"bike_id":"57ad4db7-d586-447b-b87c-ff696e31b362","system_id":"levelo_inurba_marseille","lat":43.31756,"lon":5.39025,"is_reserved":false,"is_disabled":false,"rental_uris":{"android":"levelo://app?vid=57ad4db7-d586-447b-b87c-ff696e31b362","ios":"levelo://app?vid=57ad4db7-d586-447b-b87c-ff696e31b362"},"vehicle_type_id":"4","last_reported":1731936045,"current_range_meters":36800,"station_id":"ce4bhqp2rcd13ifvqhng","pricing_plan_id":"cebpf4jnsgd1na2vs0mg"},{"bike_id":"d2f0f3fe-5594-42dd-8e69-8cdbebee7e7d","system_id":"levelo_inurba_marseille","lat":43.23142,"lon":5.43719,"is_reserved":false,"is_disabled":false,"rental_uris":{"android":"levelo://app?vid=d2f0f3fe-5594-42dd-8e69-8cdbebee7e7d","ios":"levelo://app?vid=d2f0f3fe-5594-42dd-8e69-8cdbebee7e7d"},"vehicle_type_id":"4","last_reported":1731936045,"current_range_meters":16400,"station_id":"ce4bhmp2rcd13ifvqgog","pricing_plan_id":"cebpf4jnsgd1na2vs0mg"},{"bike_id":"a2f3c2f4-9dad-4f7f-9e7e-19c7aabc94a4","system_id":"levelo_inurba_marseille","lat":43.26682,"lon":5.38267,"is_reserved":false,"is_disabled":false,"rental_uris":{"android":"levelo://app?vid=a2f3c2f4-9dad-4f7f-9e7e-19c7aabc94a4","ios":"levelo://app?vid=a2f3c2f4-9dad-4f7f-9e7e-19c7aabc94a4"},"vehicle_type_id":"4","last_reported":1731936045,"current_range_meters":38800,"station_id":"ce4bhg92rcd13ifvqf90","pricing_plan_id":"cebpf4jnsgd1na2vs0mg"},{"bike_id":"ea84334a-850b-43e4-8803-f31653391df4","system_id":"levelo_inurba_marseille","lat":43.26206,"lon":5.37464,"is_reserved":false,"is_disabled":false,"rental_uris":{"android":"levelo://app?vid=ea84334a-850b-43e4-8803-f31653391df4","ios":"levelo://app?vid=ea84334a-850b-43e4-8803-f31653391df4"},"vehicle_type_id":"4","last_reported":1731936045,"current_range_meters":16000,"station_id":"ce4bhgp2rcd13ifvqfc0","pricing_plan_id":"cebpf4jnsgd1na2vs0mg"},{"bike_id":"20b8bb00-4fa4-49d3-b00f-f353e411e243","system_id":"levelo_inurba_marseille","lat":43.27066,"lon":5.42276,"is_reserved":false,"is_disabled":false,"rental_uris":{"android":"levelo://app?vid=20b8bb00-4fa4-49d3-b00f-f353e411e243","ios":"levelo://app?vid=20b8bb00-4fa4-49d3-b00f-f353e411e243"},"vehicle_type_id":"4","last_reported":1731936045,"current_range_meters":16000,"station_id":"ce4bhk92rcd13ifvqgb0","pricing_plan_id":"cebpf4jnsgd1na2vs0mg"},{"bike_id":"5f89f61e-343d-4cfe-8829-222555f36d01","system_id":"levelo_inurba_marseille","lat":43.31324,"lon":5.36758,"is_reserved":false,"is_disabled":false,"rental_uris":{"android":"levelo://app?vid=5f89f61e-343d-4cfe-8829-222555f36d01","ios":"levelo://app?vid=5f89f61e-343d-4cfe-8829-222555f36d01"},"vehicle_type_id":"4","last_reported":1731936045,"current_range_meters":38800,"station_id":"ce4bgr92rcd13ifvqc6g","pricing_plan_id":"cebpf4jnsgd1na2vs0mg"},{"bike_id":"ae412919-caa1-446b-bff2-b8972b762e0e","system_id":"levelo_inurba_marseille","lat":43.29572,"lon":5.39987,"is_reserved":false,"is_disabled":false,"rental_uris":{"android":"levelo://app?vid=ae412919-caa1-446b-bff2-b8972b762e0e","ios":"levelo://app?vid=ae412919-caa1-446b-bff2-b8972b762e0e"},"vehicle_type_id":"4","last_reported":1731936045,"current_range_meters":36800,"station_id":"ce4bh312rcd13ifvqdj0","pricing_plan_id":"cebpf4jnsgd1na2vs0mg"},{"bike_id":"ac599c67-8fb7-41a2-af2d-b0bb783d546f","system_id":"levelo_inurba_marseille","lat":43.23152,"lon":5.43702,"is_reserved":false,"is_disabled":false,"rental_uris":{"android":"levelo://app?vid=ac599c67-8fb7-41a2-af2d-b0bb783d546f","ios":"levelo://app?vid=ac599c67-8fb7-41a2-af2d-b0bb783d546f"},"vehicle_type_id":"4","last_reported":1731936045,"current_range_meters":16000,"station_id":"ce4bhmp2rcd13ifvqgog","pricing_plan_id":"cebpf4jnsgd1na2vs0mg"},{"bike_id":"275ac152-4f62-4e62-a0c5-b1a528f0e858","system_id":"levelo_inurba_marseille","lat":43.29522,"lon":5.39402,"is_reserved":false,"is_disabled":false,"rental_uris":{"android":"levelo://app?vid=275ac152-4f62-4e62-a0c5-b1a528f0e858","ios":"levelo://app?vid=275ac152-4f62-4e62-a0c5-b1a528f0e858"},"vehicle_type_id":"4","last_reported":1731936045,"current_range_meters":30400,"station_id":"ce4bh292rcd13ifvqdf0","pricing_plan_id":"cebpf4jnsgd1na2vs0mg"},{"bike_id":"5617a010-b0bd-4e36-b184-34610e0aa634","system_id":"levelo_inurba_marseille","lat":43.30307,"lon":5.369009,"is_reserved":false,"is_disabled":false,"rental_uris":{"android":"levelo://app?vid=5617a010-b0bd-4e36-b184-34610e0aa634","ios":"levelo://app?vid=5617a010-b0bd-4e36-b184-34610e0aa634"},"vehicle_type_id":"4","last_reported":1731936045,"current_range_meters":3600,"station_id":"ce4bgvh2rcd13ifvqcs0","pricing_plan_id":"cebpf4jnsgd1na2vs0mg"},{"bike_id":"6bfc7366-0d55-412d-9d43-5a76f76083bd","system_id":"levelo_inurba_marseille","lat":43.29895,"lon":5.43669,"is_reserved":false,"is_disabled":false,"rental_uris":{"android":"levelo://app?vid=6bfc7366-0d55-412d-9d43-5a76f76083bd","ios":"levelo://app?vid=6bfc7366-0d55-412d-9d43-5a76f76083bd"},"vehicle_type_id":"4","last_reported":1731936045,"current_range_meters":8800,"station_id":"ce4bhpp2rcd13ifvqhfg","pricing_plan_id":"cebpf4jnsgd1na2vs0mg"},{"bike_id":"94c66a18-b3f6-48b3-b98e-397cd1e7b11c","system_id":"levelo_inurba_marseille","lat":43.25184,"lon":5.40281,"is_reserved":false,"is_disabled":false,"rental_uris":{"android":"levelo://app?vid=94c66a18-b3f6-48b3-b98e-397cd1e7b11c","ios":"levelo://app?vid=94c66a18-b3f6-48b3-b98e-397cd1e7b11c"},"vehicle_type_id":"4","last_reported":1731936045,"current_range_meters":12000,"station_id":"ce4bhlh2rcd13ifvqgig","pricing_plan_id":"cebpf4jnsgd1na2vs0mg"},{"bike_id":"53238208-a97e-4bfd-b0d6-1870d5e03961","system_id":"levelo_inurba_marseille","lat":43.28703,"lon":5.37936,"is_reserved":false,"is_disabled":false,"rental_uris":{"android":"levelo://app?vid=53238208-a97e-4bfd-b0d6-1870d5e03961","ios":"levelo://app?vid=53238208-a97e-4bfd-b0d6-1870d5e03961"},"vehicle_type_id":"4","last_reported":1731936045,"current_range_meters":11200,"station_id":"ce4bh9p2rcd13ifvqec0","pricing_plan_id":"cebpf4jnsgd1na2vs0mg"},{"bike_id":"0f795b55-23d9-4128-b1db-04955bac9d3f","system_id":"levelo_inurba_marseille","lat":43.30957,"lon":5.39041,"is_reserved":false,"is_disabled":false,"rental_uris":{"android":"levelo://app?vid=0f795b55-23d9-4128-b1db-04955bac9d3f","ios":"levelo://app?vid=0f795b55-23d9-4128-b1db-04955bac9d3f"},"vehicle_type_id":"4","last_reported":1731936045,"current_range_meters":27200,"station_id":"ce4bgup2rcd13ifvqco0","pricing_plan_id":"cebpf4jnsgd1na2vs0mg"},{"bike_id":"7577979b-b4b4-4861-82ff-706d7da000d3","system_id":"levelo_inurba_marseille","lat":43.304594,"lon":5.379052,"is_reserved":false,"is_disabled":false,"rental_uris":{"android":"levelo://app?vid=7577979b-b4b4-4861-82ff-706d7da000d3","ios":"levelo://app?vid=7577979b-b4b4-4861-82ff-706d7da000d3"},"vehicle_type_id":"4","last_reported":1731936045,"current_range_meters":36000,"station_id":"ce4bgup2rcd13ifvqcn0","pricing_plan_id":"cebpf4jnsgd1na2vs0mg"},{"bike_id":"da399c6c-6c7b-422b-bff4-8338fa542610","system_id":"levelo_inurba_marseille","lat":43.31708,"lon":5.37774,"is_reserved":false,"is_disabled":false,"rental_uris":{"android":"levelo://app?vid=da399c6c-6c7b-422b-bff4-8338fa542610","ios":"levelo://app?vid=da399c6c-6c7b-422b-bff4-8338fa542610"},"vehicle_type_id":"4","last_reported":1731936045,"current_range_meters":32400,"station_id":"ce4bgth2rcd13ifvqch0","pricing_plan_id":"cebpf4jnsgd1na2vs0mg"},{"bike_id":"33662f2e-35ea-4c32-9f51-330e81492053","system_id":"levelo_inurba_marseille","lat":43.24811,"lon":5.37459,"is_reserved":false,"is_disabled":false,"rental_uris":{"android":"levelo://app?vid=33662f2e-35ea-4c32-9f51-330e81492053","ios":"levelo://app?vid=33662f2e-35ea-4c32-9f51-330e81492053"},"vehicle_type_id":"4","last_reported":1731936045,"current_range_meters":36000,"station_id":"ce4bhgh2rcd13ifvqfb0","pricing_plan_id":"cebpf4jnsgd1na2vs0mg"},{"bike_id":"27757d2e-94cc-46f1-b4e2-8780c773e562","system_id":"levelo_inurba_marseille","lat":43.34143,"lon":5.40902,"is_reserved":false,"is_disabled":false,"rental_uris":{"android":"levelo://app?vid=27757d2e-94cc-46f1-b4e2-8780c773e562","ios":"levelo://app?vid=27757d2e-94cc-46f1-b4e2-8780c773e562"},"vehicle_type_id":"4","last_reported":1731936045,"current_range_meters":28400,"station_id":"ce4bhqh2rcd13ifvqhlg","pricing_plan_id":"cebpf4jnsgd1na2vs0mg"},{"bike_id":"4c521251-6677-4340-b730-6ae914498eee","system_id":"levelo_inurba_marseille","lat":43.3136,"lon":5.36718,"is_reserved":false,"is_disabled":false,"rental_uris":{"android":"levelo://app?vid=4c521251-6677-4340-b730-6ae914498eee","ios":"levelo://app?vid=4c521251-6677-4340-b730-6ae914498eee"},"vehicle_type_id":"4","last_reported":1731936045,"current_range_meters":32000,"station_id":"ce4bgr92rcd13ifvqc6g","pricing_plan_id":"cebpf4jnsgd1na2vs0mg"},{"bike_id":"b2ba89af-6757-479d-bac0-4ca56f0725ca","system_id":"levelo_inurba_marseille","lat":43.31211,"lon":5.37021,"is_reserved":false,"is_disabled":false,"rental_uris":{"android":"levelo://app?vid=b2ba89af-6757-479d-bac0-4ca56f0725ca","ios":"levelo://app?vid=b2ba89af-6757-479d-bac0-4ca56f0725ca"},"vehicle_type_id":"4","last_reported":1731936045,"current_range_meters":32000,"station_id":"","pricing_plan_id":"cebpf4jnsgd1na2vs0mg"},{"bike_id":"bd62a05e-c457-4c11-8df5-104c68618dab","system_id":"levelo_inurba_marseille","lat":43.337444,"lon":5.374475,"is_reserved":false,"is_disabled":false,"rental_uris":{"android":"levelo://app?vid=bd62a05e-c457-4c11-8df5-104c68618dab","ios":"levelo://app?vid=bd62a05e-c457-4c11-8df5-104c68618dab"},"vehicle_type_id":"4","last_reported":1731936045,"current_range_meters":37600,"station_id":"","pricing_plan_id":"cebpf4jnsgd1na2vs0mg"},{"bike_id":"bf40769c-9e57-4101-a01f-0cdfb81a5d94","system_id":"levelo_inurba_marseille","lat":43.3022,"lon":5.3948,"is_reserved":false,"is_disabled":false,"rental_uris":{"android":"levelo://app?vid=bf40769c-9e57-4101-a01f-0cdfb81a5d94","ios":"levelo://app?vid=bf40769c-9e57-4101-a01f-0cdfb81a5d94"},"vehicle_type_id":"4","last_reported":1731936045,"current_range_meters":14400,"station_id":"ce4bh0p2rcd13ifvqd70","pricing_plan_id":"cebpf4jnsgd1na2vs0mg"},{"bike_id":"8c3ca8e6-8166-4ccf-bc5a-317ba80acc57","system_id":"levelo_inurba_marseille","lat":43.29062,"lon":5.37166,"is_reserved":false,"is_disabled":false,"rental_uris":{"android":"levelo://app?vid=8c3ca8e6-8166-4ccf-bc5a-317ba80acc57","ios":"levelo://app?vid=8c3ca8e6-8166-4ccf-bc5a-317ba80acc57"},"vehicle_type_id":"4","last_reported":1731936045,"current_range_meters":5600,"station_id":"ce4bh5p2rcd13ifvqe4g","pricing_plan_id":"cebpf4jnsgd1na2vs0mg"},{"bike_id":"0f12159f-c7ec-4e3b-bd6a-10581cca2364","system_id":"levelo_inurba_marseille","lat":43.27499,"lon":5.42451,"is_reserved":false,"is_disabled":false,"rental_uris":{"android":"levelo://app?vid=0f12159f-c7ec-4e3b-bd6a-10581cca2364","ios":"levelo://app?vid=0f12159f-c7ec-4e3b-bd6a-10581cca2364"},"vehicle_type_id":"4","last_reported":1731936045,"current_range_meters":26000,"station_id":"ce4bhn92rcd13ifvqgrg","pricing_plan_id":"cebpf4jnsgd1na2vs0mg"},{"bike_id":"f493fbd1-a6d2-46e7-bd5f-a282c47329e6","system_id":"levelo_inurba_marseille","lat":43.29893,"lon":5.43655,"is_reserved":false,"is_disabled":false,"rental_uris":{"android":"levelo://app?vid=f493fbd1-a6d2-46e7-bd5f-a282c47329e6","ios":"levelo://app?vid=f493fbd1-a6d2-46e7-bd5f-a282c47329e6"},"vehicle_type_id":"4","last_reported":1731936045,"current_range_meters":38800,"station_id":"ce4bhpp2rcd13ifvqhfg","pricing_plan_id":"cebpf4jnsgd1na2vs0mg"},{"bike_id":"caa6207f-417f-4529-8da9-9310fd916be2","system_id":"levelo_inurba_marseille","lat":43.28437,"lon":5.39185,"is_reserved":false,"is_disabled":false,"rental_uris":{"android":"levelo://app?vid=caa6207f-417f-4529-8da9-9310fd916be2","ios":"levelo://app?vid=caa6207f-417f-4529-8da9-9310fd916be2"},"vehicle_type_id":"4","last_reported":1731936045,"current_range_meters":38000,"station_id":"ce4bhoh2rcd13ifvqh5g","pricing_plan_id":"cebpf4jnsgd1na2vs0mg"},{"bike_id":"0e841474-d88b-404e-8cc1-c96b9af392c3","system_id":"levelo_inurba_marseille","lat":43.24668,"lon":5.38158,"is_reserved":false,"is_disabled":false,"rental_uris":{"android":"levelo://app?vid=0e841474-d88b-404e-8cc1-c96b9af392c3","ios":"levelo://app?vid=0e841474-d88b-404e-8cc1-c96b9af392c3"},"vehicle_type_id":"4","last_reported":1731936045,"current_range_meters":38800,"station_id":"ce4bhih2rcd13ifvqfr0","pricing_plan_id":"cebpf4jnsgd1na2vs0mg"},{"bike_id":"5f7af20b-8740-416c-a770-66f799e39f12","system_id":"levelo_inurba_marseille","lat":43.30521,"lon":5.36547,"is_reserved":false,"is_disabled":false,"rental_uris":{"android":"levelo://app?vid=5f7af20b-8740-416c-a770-66f799e39f12","ios":"levelo://app?vid=5f7af20b-8740-416c-a770-66f799e39f12"},"vehicle_type_id":"4","last_reported":1731936045,"current_range_meters":38800,"station_id":"ce4bgs12rcd13ifvqcag","pricing_plan_id":"cebpf4jnsgd1na2vs0mg"},{"bike_id":"84224ccb-c473-401a-82b7-1eb00590305a","system_id":"levelo_inurba_marseille","lat":43.29966,"lon":5.41322,"is_reserved":false,"is_disabled":false,"rental_uris":{"android":"levelo://app?vid=84224ccb-c473-401a-82b7-1eb00590305a","ios":"levelo://app?vid=84224ccb-c473-401a-82b7-1eb00590305a"},"vehicle_type_id":"4","last_reported":1731936045,"current_range_meters":38800,"station_id":"ce4bhp12rcd13ifvqh9g","pricing_plan_id":"cebpf4jnsgd1na2vs0mg"},{"bike_id":"bda6c3e6-ef39-4a09-9550-83db497746cc","system_id":"levelo_inurba_marseille","lat":43.287243,"lon":5.379353,"is_reserved":false,"is_disabled":false,"rental_uris":{"android":"levelo://app?vid=bda6c3e6-ef39-4a09-9550-83db497746cc","ios":"levelo://app?vid=bda6c3e6-ef39-4a09-9550-83db497746cc"},"vehicle_type_id":"4","last_reported":1731936045,"current_range_meters":38800,"station_id":"ce4bh9p2rcd13ifvqec0","pricing_plan_id":"cebpf4jnsgd1na2vs0mg"},{"bike_id":"c3b2f2e4-a56b-4032-90ec-36bdae251001","system_id":"levelo_inurba_marseille","lat":43.30534,"lon":5.3653,"is_reserved":false,"is_disabled":false,"rental_uris":{"android":"levelo://app?vid=c3b2f2e4-a56b-4032-90ec-36bdae251001","ios":"levelo://app?vid=c3b2f2e4-a56b-4032-90ec-36bdae251001"},"vehicle_type_id":"4","last_reported":1731936045,"current_range_meters":38800,"station_id":"ce4bgs12rcd13ifvqcag","pricing_plan_id":"cebpf4jnsgd1na2vs0mg"},{"bike_id":"6b75bb88-b668-4a1b-989e-77151dadea7a","system_id":"levelo_inurba_marseille","lat":43.29965,"lon":5.38487,"is_reserved":false,"is_disabled":false,"rental_uris":{"android":"levelo://app?vid=6b75bb88-b668-4a1b-989e-77151dadea7a","ios":"levelo://app?vid=6b75bb88-b668-4a1b-989e-77151dadea7a"},"vehicle_type_id":"4","last_reported":1731936045,"current_range_meters":8400,"station_id":"ce4bgj92rcd13ifvqbd0","pricing_plan_id":"cebpf4jnsgd1na2vs0mg"},{"bike_id":"c1f3a3f3-0955-4131-b780-88ad759c52c0","system_id":"levelo_inurba_marseille","lat":43.26942,"lon":5.38926,"is_reserved":false,"is_disabled":false,"rental_uris":{"android":"levelo://app?vid=c1f3a3f3-0955-4131-b780-88ad759c52c0","ios":"levelo://app?vid=c1f3a3f3-0955-4131-b780-88ad759c52c0"},"vehicle_type_id":"4","last_reported":1731936045,"current_range_meters":3600,"station_id":"ce4bhhh2rcd13ifvqfl0","pricing_plan_id":"cebpf4jnsgd1na2vs0mg"},{"bike_id":"7694d120-882b-4df8-9318-0f76e5aee323","system_id":"levelo_inurba_marseille","lat":43.29809,"lon":5.37741,"is_reserved":false,"is_disabled":false,"rental_uris":{"android":"levelo://app?vid=7694d120-882b-4df8-9318-0f76e5aee323","ios":"levelo://app?vid=7694d120-882b-4df8-9318-0f76e5aee323"},"vehicle_type_id":"4","last_reported":1731936045,"current_range_meters":30000,"station_id":"","pricing_plan_id":"cebpf4jnsgd1na2vs0mg"},{"bike_id":"f552e60c-5c17-4a36-92af-bd04fac1802e","system_id":"levelo_inurba_marseille","lat":43.3107,"lon":5.38363,"is_reserved":false,"is_disabled":false,"rental_uris":{"android":"levelo://app?vid=f552e60c-5c17-4a36-92af-bd04fac1802e","ios":"levelo://app?vid=f552e60c-5c17-4a36-92af-bd04fac1802e"},"vehicle_type_id":"4","last_reported":1731936045,"current_range_meters":20800,"station_id":"ce4bgv92rcd13ifvqcr0","pricing_plan_id":"cebpf4jnsgd1na2vs0mg"},{"bike_id":"2daa08de-31ed-45fa-8caa-58b60c94bae0","system_id":"levelo_inurba_marseille","lat":43.24176,"lon":5.39741,"is_reserved":false,"is_disabled":false,"rental_uris":{"android":"levelo://app?vid=2daa08de-31ed-45fa-8caa-58b60c94bae0","ios":"levelo://app?vid=2daa08de-31ed-45fa-8caa-58b60c94bae0"},"vehicle_type_id":"4","last_reported":1731936045,"current_range_meters":3200,"station_id":"ce4bhn12rcd13ifvqgpg","pricing_plan_id":"cebpf4jnsgd1na2vs0mg"},{"bike_id":"a0807f2c-0ace-4152-b6f2-b274357aa8b2","system_id":"levelo_inurba_marseille","lat":43.28944,"lon":5.36276,"is_reserved":false,"is_disabled":false,"rental_uris":{"android":"levelo://app?vid=a0807f2c-0ace-4152-b6f2-b274357aa8b2","ios":"levelo://app?vid=a0807f2c-0ace-4152-b6f2-b274357aa8b2"},"vehicle_type_id":"4","last_reported":1731936045,"current_range_meters":27200,"station_id":"ce4bhc92rcd13ifvqetg","pricing_plan_id":"cebpf4jnsgd1na2vs0mg"},{"bike_id":"39a8296c-ef63-4e5a-95f7-12c2260127b5","system_id":"levelo_inurba_marseille","lat":43.29017,"lon":5.38647,"is_reserved":false,"is_disabled":false,"rental_uris":{"android":"levelo://app?vid=39a8296c-ef63-4e5a-95f7-12c2260127b5","ios":"levelo://app?vid=39a8296c-ef63-4e5a-95f7-12c2260127b5"},"vehicle_type_id":"4","last_reported":1731936045,"current_range_meters":28800,"station_id":"ce4bh4p2rcd13ifvqe0g","pricing_plan_id":"cebpf4jnsgd1na2vs0mg"},{"bike_id":"cb3165b9-4890-480d-ae63-784fba188dfc","system_id":"levelo_inurba_marseille","lat":43.27069,"lon":5.42279,"is_reserved":false,"is_disabled":false,"rental_uris":{"android":"levelo://app?vid=cb3165b9-4890-480d-ae63-784fba188dfc","ios":"levelo://app?vid=cb3165b9-4890-480d-ae63-784fba188dfc"},"vehicle_type_id":"4","last_reported":1731936045,"current_range_meters":39200,"station_id":"ce4bhk92rcd13ifvqgb0","pricing_plan_id":"cebpf4jnsgd1na2vs0mg"},{"bike_id":"686f7aac-3b09-4535-bb65-bd5180cb6ffc","system_id":"levelo_inurba_marseille","lat":43.27369,"lon":5.36262,"is_reserved":false,"is_disabled":false,"rental_uris":{"android":"levelo://app?vid=686f7aac-3b09-4535-bb65-bd5180cb6ffc","ios":"levelo://app?vid=686f7aac-3b09-4535-bb65-bd5180cb6ffc"},"vehicle_type_id":"4","last_reported":1731936045,"current_range_meters":36800,"station_id":"ce4bhbh2rcd13ifvqeo0","pricing_plan_id":"cebpf4jnsgd1na2vs0mg"},{"bike_id":"87aeddb8-5c6a-470f-b943-4a471568686e","system_id":"levelo_inurba_marseille","lat":43.27992,"lon":5.41668,"is_reserved":false,"is_disabled":false,"rental_uris":{"android":"levelo://app?vid=87aeddb8-5c6a-470f-b943-4a471568686e","ios":"levelo://app?vid=87aeddb8-5c6a-470f-b943-4a471568686e"},"vehicle_type_id":"4","last_reported":1731936045,"current_range_meters":26000,"station_id":"ce4bho12rcd13ifvqh1g","pricing_plan_id":"cebpf4jnsgd1na2vs0mg"},{"bike_id":"35e7f4dd-1710-4233-8e4e-e20c05772655","system_id":"levelo_inurba_marseille","lat":43.29583,"lon":5.3674,"is_reserved":false,"is_disabled":false,"rental_uris":{"android":"levelo://app?vid=35e7f4dd-1710-4233-8e4e-e20c05772655","ios":"levelo://app?vid=35e7f4dd-1710-4233-8e4e-e20c05772655"},"vehicle_type_id":"4","last_reported":1731936045,"current_range_meters":37600,"station_id":"ce4bgph2rcd13ifvqc2g","pricing_plan_id":"cebpf4jnsgd1na2vs0mg"},{"bike_id":"5938f129-0be9-4612-acac-86791f6673ad","system_id":"levelo_inurba_marseille","lat":43.28199,"lon":5.4437,"is_reserved":false,"is_disabled":false,"rental_uris":{"android":"levelo://app?vid=5938f129-0be9-4612-acac-86791f6673ad","ios":"levelo://app?vid=5938f129-0be9-4612-acac-86791f6673ad"},"vehicle_type_id":"4","last_reported":1731936045,"current_range_meters":8400,"station_id":"","pricing_plan_id":"cebpf4jnsgd1na2vs0mg"},{"bike_id":"4400186c-3128-46ba-910f-96b121dfa442","system_id":"levelo_inurba_marseille","lat":43.29553,"lon":5.42291,"is_reserved":false,"is_disabled":false,"rental_uris":{"android":"levelo://app?vid=4400186c-3128-46ba-910f-96b121dfa442","ios":"levelo://app?vid=4400186c-3128-46ba-910f-96b121dfa442"},"vehicle_type_id":"4","last_reported":1731936045,"current_range_meters":37600,"station_id":"ce4bhph2rcd13ifvqhdg","pricing_plan_id":"cebpf4jnsgd1na2vs0mg"},{"bike_id":"b3c69ae4-5ee9-4041-b5a4-be3bfe7ad4eb","system_id":"levelo_inurba_marseille","lat":43.30107,"lon":5.39098,"is_reserved":false,"is_disabled":false,"rental_uris":{"android":"levelo://app?vid=b3c69ae4-5ee9-4041-b5a4-be3bfe7ad4eb","ios":"levelo://app?vid=b3c69ae4-5ee9-4041-b5a4-be3bfe7ad4eb"},"vehicle_type_id":"4","last_reported":1731936045,"current_range_meters":35600,"station_id":"ce4bh192rcd13ifvqdb0","pricing_plan_id":"cebpf4jnsgd1na2vs0mg"},{"bike_id":"fd81958b-d2f1-4298-90e2-046b89d6725f","system_id":"levelo_inurba_marseille","lat":43.28697,"lon":5.39983,"is_reserved":false,"is_disabled":false,"rental_uris":{"android":"levelo://app?vid=fd81958b-d2f1-4298-90e2-046b89d6725f","ios":"levelo://app?vid=fd81958b-d2f1-4298-90e2-046b89d6725f"},"vehicle_type_id":"4","last_reported":1731936045,"current_range_meters":30400,"station_id":"ce4bh0h2rcd13ifvqd60","pricing_plan_id":"cebpf4jnsgd1na2vs0mg"},{"bike_id":"27955258-328f-4f80-ad3a-16bbf0b55c19","system_id":"levelo_inurba_marseille","lat":43.31362,"lon":5.36702,"is_reserved":false,"is_disabled":false,"rental_uris":{"android":"levelo://app?vid=27955258-328f-4f80-ad3a-16bbf0b55c19","ios":"levelo://app?vid=27955258-328f-4f80-ad3a-16bbf0b55c19"},"vehicle_type_id":"4","last_reported":1731936045,"current_range_meters":23200,"station_id":"ce4bgr92rcd13ifvqc6g","pricing_plan_id":"cebpf4jnsgd1na2vs0mg"},{"bike_id":"5ed22230-ed97-489b-a6af-ba06152c21b7","system_id":"levelo_inurba_marseille","lat":43.2315,"lon":5.43722,"is_reserved":false,"is_disabled":false,"rental_uris":{"android":"levelo://app?vid=5ed22230-ed97-489b-a6af-ba06152c21b7","ios":"levelo://app?vid=5ed22230-ed97-489b-a6af-ba06152c21b7"},"vehicle_type_id":"4","last_reported":1731936045,"current_range_meters":30000,"station_id":"ce4bhmp2rcd13ifvqgog","pricing_plan_id":"cebpf4jnsgd1na2vs0mg"},{"bike_id":"dd95171b-b7cd-481f-acac-ba220ac8462f","system_id":"levelo_inurba_marseille","lat":43.29268,"lon":5.38465,"is_reserved":false,"is_disabled":false,"rental_uris":{"android":"levelo://app?vid=dd95171b-b7cd-481f-acac-ba220ac8462f","ios":"levelo://app?vid=dd95171b-b7cd-481f-acac-ba220ac8462f"},"vehicle_type_id":"4","last_reported":1731936045,"current_range_meters":11200,"station_id":"ce4bh692rcd13ifvqea0","pricing_plan_id":"cebpf4jnsgd1na2vs0mg"},{"bike_id":"88979a0e-e676-4484-96d9-0a7376d6cf11","system_id":"levelo_inurba_marseille","lat":43.29695,"lon":5.37291,"is_reserved":false,"is_disabled":false,"rental_uris":{"android":"levelo://app?vid=88979a0e-e676-4484-96d9-0a7376d6cf11","ios":"levelo://app?vid=88979a0e-e676-4484-96d9-0a7376d6cf11"},"vehicle_type_id":"4","last_reported":1731936045,"current_range_meters":38000,"station_id":"ce4bgk12rcd13ifvqbj0","pricing_plan_id":"cebpf4jnsgd1na2vs0mg"},{"bike_id":"4e6098fd-1bf3-43af-8cc8-8d78b43936d6","system_id":"levelo_inurba_marseille","lat":43.298585,"lon":5.383973,"is_reserved":false,"is_disabled":false,"rental_uris":{"android":"levelo://app?vid=4e6098fd-1bf3-43af-8cc8-8d78b43936d6","ios":"levelo://app?vid=4e6098fd-1bf3-43af-8cc8-8d78b43936d6"},"vehicle_type_id":"4","last_reported":1731936045,"current_range_meters":26800,"station_id":"ce4bgj92rcd13ifvqbd0","pricing_plan_id":"cebpf4jnsgd1na2vs0mg"},{"bike_id":"7b630d00-e5f7-4050-907e-76b8f215fc8d","system_id":"levelo_inurba_marseille","lat":43.2958,"lon":5.36736,"is_reserved":false,"is_disabled":false,"rental_uris":{"android":"levelo://app?vid=7b630d00-e5f7-4050-907e-76b8f215fc8d","ios":"levelo://app?vid=7b630d00-e5f7-4050-907e-76b8f215fc8d"},"vehicle_type_id":"4","last_reported":1731936045,"current_range_meters":29600,"station_id":"ce4bgph2rcd13ifvqc2g","pricing_plan_id":"cebpf4jnsgd1na2vs0mg"},{"bike_id":"90149815-ce89-4a96-8ea5-006799861e4d","system_id":"levelo_inurba_marseille","lat":43.284149,"lon":5.375076,"is_reserved":false,"is_disabled":false,"rental_uris":{"android":"levelo://app?vid=90149815-ce89-4a96-8ea5-006799861e4d","ios":"levelo://app?vid=90149815-ce89-4a96-8ea5-006799861e4d"},"vehicle_type_id":"4","last_reported":1731936045,"current_range_meters":3600,"station_id":"ce4bgj12rcd13ifvqbc0","pricing_plan_id":"cebpf4jnsgd1na2vs0mg"},{"bike_id":"43777936-a047-4cac-b459-8191e0c407c7","system_id":"levelo_inurba_marseille","lat":43.278382,"lon":5.392212,"is_reserved":false,"is_disabled":false,"rental_uris":{"android":"levelo://app?vid=43777936-a047-4cac-b459-8191e0c407c7","ios":"levelo://app?vid=43777936-a047-4cac-b459-8191e0c407c7"},"vehicle_type_id":"4","last_reported":1731936045,"current_range_meters":22800,"station_id":"ce4bhjp2rcd13ifvqga0","pricing_plan_id":"cebpf4jnsgd1na2vs0mg"},{"bike_id":"7a771648-63f5-4c34-b7b5-423a1240d23d","system_id":"levelo_inurba_marseille","lat":43.29837,"lon":5.36259,"is_reserved":false,"is_disabled":false,"rental_uris":{"android":"levelo://app?vid=7a771648-63f5-4c34-b7b5-423a1240d23d","ios":"levelo://app?vid=7a771648-63f5-4c34-b7b5-423a1240d23d"},"vehicle_type_id":"4","last_reported":1731936045,"current_range_meters":38000,"station_id":"ce4bgpp2rcd13ifvqc3g","pricing_plan_id":"cebpf4jnsgd1na2vs0mg"},{"bike_id":"53f86f2c-e233-4e84-b956-eb1d04519cbd","system_id":"levelo_inurba_marseille","lat":43.30156,"lon":5.37422,"is_reserved":false,"is_disabled":false,"rental_uris":{"android":"levelo://app?vid=53f86f2c-e233-4e84-b956-eb1d04519cbd","ios":"levelo://app?vid=53f86f2c-e233-4e84-b956-eb1d04519cbd"},"vehicle_type_id":"4","last_reported":1731936045,"current_range_meters":32400,"station_id":"ce4bgs92rcd13ifvqcc0","pricing_plan_id":"cebpf4jnsgd1na2vs0mg"},{"bike_id":"2ab8409f-9fe9-4e30-a01e-a61c2b05ddd8","system_id":"levelo_inurba_marseille","lat":43.28263,"lon":5.3507,"is_reserved":false,"is_disabled":false,"rental_uris":{"android":"levelo://app?vid=2ab8409f-9fe9-4e30-a01e-a61c2b05ddd8","ios":"levelo://app?vid=2ab8409f-9fe9-4e30-a01e-a61c2b05ddd8"},"vehicle_type_id":"4","last_reported":1731936045,"current_range_meters":38000,"station_id":"ce4bhbp2rcd13ifvqerg","pricing_plan_id":"cebpf4jnsgd1na2vs0mg"},{"bike_id":"d7858290-a409-4351-861d-a1a90bf483cf","system_id":"levelo_inurba_marseille","lat":43.3053,"lon":5.36529,"is_reserved":false,"is_disabled":false,"rental_uris":{"android":"levelo://app?vid=d7858290-a409-4351-861d-a1a90bf483cf","ios":"levelo://app?vid=d7858290-a409-4351-861d-a1a90bf483cf"},"vehicle_type_id":"4","last_reported":1731936045,"current_range_meters":38800,"station_id":"ce4bgs12rcd13ifvqcag","pricing_plan_id":"cebpf4jnsgd1na2vs0mg"},{"bike_id":"1fd2d64d-d384-469e-a427-962e4555a6c4","system_id":"levelo_inurba_marseille","lat":43.28439,"lon":5.39186,"is_reserved":false,"is_disabled":false,"rental_uris":{"android":"levelo://app?vid=1fd2d64d-d384-469e-a427-962e4555a6c4","ios":"levelo://app?vid=1fd2d64d-d384-469e-a427-962e4555a6c4"},"vehicle_type_id":"4","last_reported":1731936045,"current_range_meters":36800,"station_id":"ce4bhoh2rcd13ifvqh5g","pricing_plan_id":"cebpf4jnsgd1na2vs0mg"},{"bike_id":"3030fe04-d94f-466f-8288-c2c2252d769a","system_id":"levelo_inurba_marseille","lat":43.337444,"lon":5.374475,"is_reserved":false,"is_disabled":false,"rental_uris":{"android":"levelo://app?vid=3030fe04-d94f-466f-8288-c2c2252d769a","ios":"levelo://app?vid=3030fe04-d94f-466f-8288-c2c2252d769a"},"vehicle_type_id":"4","last_reported":1731936045,"current_range_meters":36800,"station_id":"","pricing_plan_id":"cebpf4jnsgd1na2vs0mg"},{"bike_id":"2ae96a54-347f-45b7-bef0-f6eadbd52994","system_id":"levelo_inurba_marseille","lat":43.29794,"lon":5.38099,"is_reserved":false,"is_disabled":false,"rental_uris":{"android":"levelo://app?vid=2ae96a54-347f-45b7-bef0-f6eadbd52994","ios":"levelo://app?vid=2ae96a54-347f-45b7-bef0-f6eadbd52994"},"vehicle_type_id":"4","last_reported":1731936045,"current_range_meters":31200,"station_id":"ce4bgip2rcd13ifvqbb0","pricing_plan_id":"cebpf4jnsgd1na2vs0mg"},{"bike_id":"f5a042e4-9244-45ca-a000-cfabc5edd18a","system_id":"levelo_inurba_marseille","lat":43.27066,"lon":5.42277,"is_reserved":false,"is_disabled":false,"rental_uris":{"android":"levelo://app?vid=f5a042e4-9244-45ca-a000-cfabc5edd18a","ios":"levelo://app?vid=f5a042e4-9244-45ca-a000-cfabc5edd18a"},"vehicle_type_id":"4","last_reported":1731936045,"current_range_meters":8400,"station_id":"ce4bhk92rcd13ifvqgb0","pricing_plan_id":"cebpf4jnsgd1na2vs0mg"},{"bike_id":"438c7460-0f2d-492b-8a11-5a4b3f82e315","system_id":"levelo_inurba_marseille","lat":43.27981,"lon":5.4166,"is_reserved":false,"is_disabled":false,"rental_uris":{"android":"levelo://app?vid=438c7460-0f2d-492b-8a11-5a4b3f82e315","ios":"levelo://app?vid=438c7460-0f2d-492b-8a11-5a4b3f82e315"},"vehicle_type_id":"4","last_reported":1731936045,"current_range_meters":38800,"station_id":"ce4bho12rcd13ifvqh1g","pricing_plan_id":"cebpf4jnsgd1na2vs0mg"},{"bike_id":"7a33c110-f890-4511-b7a8-b65b18bdb57c","system_id":"levelo_inurba_marseille","lat":43.28703,"lon":5.3793,"is_reserved":false,"is_disabled":false,"rental_uris":{"android":"levelo://app?vid=7a33c110-f890-4511-b7a8-b65b18bdb57c","ios":"levelo://app?vid=7a33c110-f890-4511-b7a8-b65b18bdb57c"},"vehicle_type_id":"4","last_reported":1731936045,"current_range_meters":16800,"station_id":"ce4bh9p2rcd13ifvqec0","pricing_plan_id":"cebpf4jnsgd1na2vs0mg"},{"bike_id":"53f8398f-d261-4c90-94ae-75eef0bbcc19","system_id":"levelo_inurba_marseille","lat":43.29618,"lon":5.37161,"is_reserved":false,"is_disabled":false,"rental_uris":{"android":"levelo://app?vid=53f8398f-d261-4c90-94ae-75eef0bbcc19","ios":"levelo://app?vid=53f8398f-d261-4c90-94ae-75eef0bbcc19"},"vehicle_type_id":"4","last_reported":1731936045,"current_range_meters":28000,"station_id":"ce4bgnh2rcd13ifvqc0g","pricing_plan_id":"cebpf4jnsgd1na2vs0mg"},{"bike_id":"85542315-2c18-43ed-b557-c17d485b4a45","system_id":"levelo_inurba_marseille","lat":43.26552,"lon":5.37287,"is_reserved":false,"is_disabled":false,"rental_uris":{"android":"levelo://app?vid=85542315-2c18-43ed-b557-c17d485b4a45","ios":"levelo://app?vid=85542315-2c18-43ed-b557-c17d485b4a45"},"vehicle_type_id":"4","last_reported":1731936045,"current_range_meters":29600,"station_id":"ce4bhg12rcd13ifvqf70","pricing_plan_id":"cebpf4jnsgd1na2vs0mg"},{"bike_id":"10808265-c82e-4663-ad34-00454e769817","system_id":"levelo_inurba_marseille","lat":43.23189,"lon":5.39996,"is_reserved":false,"is_disabled":false,"rental_uris":{"android":"levelo://app?vid=10808265-c82e-4663-ad34-00454e769817","ios":"levelo://app?vid=10808265-c82e-4663-ad34-00454e769817"},"vehicle_type_id":"4","last_reported":1731936045,"current_range_meters":26800,"station_id":"ce4bhn12rcd13ifvqgqg","pricing_plan_id":"cebpf4jnsgd1na2vs0mg"},{"bike_id":"5eb323e1-50f6-4470-a117-f73a14c76bb9","system_id":"levelo_inurba_marseille","lat":43.26951,"lon":5.38633,"is_reserved":false,"is_disabled":false,"rental_uris":{"android":"levelo://app?vid=5eb323e1-50f6-4470-a117-f73a14c76bb9","ios":"levelo://app?vid=5eb323e1-50f6-4470-a117-f73a14c76bb9"},"vehicle_type_id":"4","last_reported":1731936045,"current_range_meters":29600,"station_id":"ce4bhh92rcd13ifvqfh0","pricing_plan_id":"cebpf4jnsgd1na2vs0mg"},{"bike_id":"ecaa747c-2838-45ac-826a-370d038fd320","system_id":"levelo_inurba_marseille","lat":43.28701,"lon":5.39989,"is_reserved":false,"is_disabled":false,"rental_uris":{"android":"levelo://app?vid=ecaa747c-2838-45ac-826a-370d038fd320","ios":"levelo://app?vid=ecaa747c-2838-45ac-826a-370d038fd320"},"vehicle_type_id":"4","last_reported":1731936045,"current_range_meters":6400,"station_id":"ce4bho92rcd13ifvqh3g","pricing_plan_id":"cebpf4jnsgd1na2vs0mg"},{"bike_id":"d14b362f-4998-42cc-950b-11c6a5ab5c5b","system_id":"levelo_inurba_marseille","lat":43.23183,"lon":5.39989,"is_reserved":false,"is_disabled":false,"rental_uris":{"android":"levelo://app?vid=d14b362f-4998-42cc-950b-11c6a5ab5c5b","ios":"levelo://app?vid=d14b362f-4998-42cc-950b-11c6a5ab5c5b"},"vehicle_type_id":"4","last_reported":1731936045,"current_range_meters":20400,"station_id":"ce4bhn12rcd13ifvqgqg","pricing_plan_id":"cebpf4jnsgd1na2vs0mg"},{"bike_id":"b60b51d6-a67c-4cf9-b095-ff598e5d8752","system_id":"levelo_inurba_marseille","lat":43.24668,"lon":5.3816,"is_reserved":false,"is_disabled":false,"rental_uris":{"android":"levelo://app?vid=b60b51d6-a67c-4cf9-b095-ff598e5d8752","ios":"levelo://app?vid=b60b51d6-a67c-4cf9-b095-ff598e5d8752"},"vehicle_type_id":"4","last_reported":1731936045,"current_range_meters":22800,"station_id":"ce4bhih2rcd13ifvqfr0","pricing_plan_id":"cebpf4jnsgd1na2vs0mg"},{"bike_id":"0b87a3c6-f9c9-421e-8d3e-5c1b81aa8469","system_id":"levelo_inurba_marseille","lat":43.28153,"lon":5.42646,"is_reserved":false,"is_disabled":false,"rental_uris":{"android":"levelo://app?vid=0b87a3c6-f9c9-421e-8d3e-5c1b81aa8469","ios":"levelo://app?vid=0b87a3c6-f9c9-421e-8d3e-5c1b81aa8469"},"vehicle_type_id":"4","last_reported":1731936045,"current_range_meters":12800,"station_id":"ce4bhnh2rcd13ifvqgug","pricing_plan_id":"cebpf4jnsgd1na2vs0mg"},{"bike_id":"914e9dc2-91a0-46dc-bd97-5433a548b2af","system_id":"levelo_inurba_marseille","lat":43.28715,"lon":5.37932,"is_reserved":false,"is_disabled":false,"rental_uris":{"android":"levelo://app?vid=914e9dc2-91a0-46dc-bd97-5433a548b2af","ios":"levelo://app?vid=914e9dc2-91a0-46dc-bd97-5433a548b2af"},"vehicle_type_id":"4","last_reported":1731936045,"current_range_meters":25600,"station_id":"ce4bh9p2rcd13ifvqec0","pricing_plan_id":"cebpf4jnsgd1na2vs0mg"},{"bike_id":"2ec448d8-ab1e-4b5b-9ab7-4092c37c8982","system_id":"levelo_inurba_marseille","lat":43.31209,"lon":5.36876,"is_reserved":false,"is_disabled":false,"rental_uris":{"android":"levelo://app?vid=2ec448d8-ab1e-4b5b-9ab7-4092c37c8982","ios":"levelo://app?vid=2ec448d8-ab1e-4b5b-9ab7-4092c37c8982"},"vehicle_type_id":"4","last_reported":1731936045,"current_range_meters":38800,"station_id":"ce4bgl92rcd13ifvqbq0","pricing_plan_id":"cebpf4jnsgd1na2vs0mg"},{"bike_id":"fe452959-f152-41c8-8a20-9e0e74f17d40","system_id":"levelo_inurba_marseille","lat":43.29899,"lon":5.43658,"is_reserved":false,"is_disabled":false,"rental_uris":{"android":"levelo://app?vid=fe452959-f152-41c8-8a20-9e0e74f17d40","ios":"levelo://app?vid=fe452959-f152-41c8-8a20-9e0e74f17d40"},"vehicle_type_id":"4","last_reported":1731936045,"current_range_meters":29600,"station_id":"ce4bhpp2rcd13ifvqhfg","pricing_plan_id":"cebpf4jnsgd1na2vs0mg"},{"bike_id":"6270ed28-16ff-4bd6-bad3-571e23977127","system_id":"levelo_inurba_marseille","lat":43.30786,"lon":5.3765,"is_reserved":false,"is_disabled":false,"rental_uris":{"android":"levelo://app?vid=6270ed28-16ff-4bd6-bad3-571e23977127","ios":"levelo://app?vid=6270ed28-16ff-4bd6-bad3-571e23977127"},"vehicle_type_id":"4","last_reported":1731936045,"current_range_meters":38400,"station_id":"ce4bgv92rcd13ifvqcq0","pricing_plan_id":"cebpf4jnsgd1na2vs0mg"},{"bike_id":"596a6bb8-ab6a-45b1-9280-db7f1ece4778","system_id":"levelo_inurba_marseille","lat":43.26673,"lon":5.38265,"is_reserved":false,"is_disabled":false,"rental_uris":{"android":"levelo://app?vid=596a6bb8-ab6a-45b1-9280-db7f1ece4778","ios":"levelo://app?vid=596a6bb8-ab6a-45b1-9280-db7f1ece4778"},"vehicle_type_id":"4","last_reported":1731936045,"current_range_meters":27600,"station_id":"ce4bhg92rcd13ifvqf90","pricing_plan_id":"cebpf4jnsgd1na2vs0mg"},{"bike_id":"88287dca-2bbd-4607-9d69-749d3b5798fd","system_id":"levelo_inurba_marseille","lat":43.27937,"lon":5.4104,"is_reserved":false,"is_disabled":false,"rental_uris":{"android":"levelo://app?vid=88287dca-2bbd-4607-9d69-749d3b5798fd","ios":"levelo://app?vid=88287dca-2bbd-4607-9d69-749d3b5798fd"},"vehicle_type_id":"4","last_reported":1731936045,"current_range_meters":34800,"station_id":"ce4bhnp2rcd13ifvqh0g","pricing_plan_id":"cebpf4jnsgd1na2vs0mg"},{"bike_id":"fa3753ab-72bf-4d18-865d-951c8a3990e6","system_id":"levelo_inurba_marseille","lat":43.27613,"lon":5.3612,"is_reserved":false,"is_disabled":false,"rental_uris":{"android":"levelo://app?vid=fa3753ab-72bf-4d18-865d-951c8a3990e6","ios":"levelo://app?vid=fa3753ab-72bf-4d18-865d-951c8a3990e6"},"vehicle_type_id":"4","last_reported":1731936045,"current_range_meters":24800,"station_id":"ce4bgj92rcd13ifvqbe0","pricing_plan_id":"cebpf4jnsgd1na2vs0mg"},{"bike_id":"62713260-2919-436b-941c-28cc0f73b687","system_id":"levelo_inurba_marseille","lat":43.30139,"lon":5.38782,"is_reserved":false,"is_disabled":false,"rental_uris":{"android":"levelo://app?vid=62713260-2919-436b-941c-28cc0f73b687","ios":"levelo://app?vid=62713260-2919-436b-941c-28cc0f73b687"},"vehicle_type_id":"4","last_reported":1731936045,"current_range_meters":6800,"station_id":"ce4bghh2rcd13ifvqb60","pricing_plan_id":"cebpf4jnsgd1na2vs0mg"},{"bike_id":"f2efb3d1-1118-415e-a6bf-407a64b804a7","system_id":"levelo_inurba_marseille","lat":43.30356,"lon":5.41877,"is_reserved":false,"is_disabled":false,"rental_uris":{"android":"levelo://app?vid=f2efb3d1-1118-415e-a6bf-407a64b804a7","ios":"levelo://app?vid=f2efb3d1-1118-415e-a6bf-407a64b804a7"},"vehicle_type_id":"4","last_reported":1731936045,"current_range_meters":1600,"station_id":"ce4bhop2rcd13ifvqh7g","pricing_plan_id":"cebpf4jnsgd1na2vs0mg"},{"bike_id":"3f25cf5a-8f53-4399-ac00-b22e8bae0820","system_id":"levelo_inurba_marseille","lat":43.33607,"lon":5.4103,"is_reserved":false,"is_disabled":false,"rental_uris":{"android":"levelo://app?vid=3f25cf5a-8f53-4399-ac00-b22e8bae0820","ios":"levelo://app?vid=3f25cf5a-8f53-4399-ac00-b22e8bae0820"},"vehicle_type_id":"4","last_reported":1731936045,"current_range_meters":11200,"station_id":"ce4bhqh2rcd13ifvqhmg","pricing_plan_id":"cebpf4jnsgd1na2vs0mg"},{"bike_id":"d6e20374-3939-4cac-b1b0-b1024a1a302c","system_id":"levelo_inurba_marseille","lat":43.25105,"lon":5.40321,"is_reserved":false,"is_disabled":false,"rental_uris":{"android":"levelo://app?vid=d6e20374-3939-4cac-b1b0-b1024a1a302c","ios":"levelo://app?vid=d6e20374-3939-4cac-b1b0-b1024a1a302c"},"vehicle_type_id":"4","last_reported":1731936045,"current_range_meters":29600,"station_id":"ce4bhlh2rcd13ifvqgig","pricing_plan_id":"cebpf4jnsgd1na2vs0mg"},{"bike_id":"7bc056d0-9eaf-4007-8a40-131c893c7096","system_id":"levelo_inurba_marseille","lat":43.32661,"lon":5.40992,"is_reserved":false,"is_disabled":false,"rental_uris":{"android":"levelo://app?vid=7bc056d0-9eaf-4007-8a40-131c893c7096","ios":"levelo://app?vid=7bc056d0-9eaf-4007-8a40-131c893c7096"},"vehicle_type_id":"4","last_reported":1731936045,"current_range_meters":35200,"station_id":"ce4bhpp2rcd13ifvqhgg","pricing_plan_id":"cebpf4jnsgd1na2vs0mg"},{"bike_id":"9a15d8f9-9ec3-478b-9bf5-9709772fc839","system_id":"levelo_inurba_marseille","lat":43.29909,"lon":5.37473,"is_reserved":false,"is_disabled":false,"rental_uris":{"android":"levelo://app?vid=9a15d8f9-9ec3-478b-9bf5-9709772fc839","ios":"levelo://app?vid=9a15d8f9-9ec3-478b-9bf5-9709772fc839"},"vehicle_type_id":"4","last_reported":1731936045,"current_range_meters":37600,"station_id":"ce4bgjh2rcd13ifvqbg0","pricing_plan_id":"cebpf4jnsgd1na2vs0mg"},{"bike_id":"7d672f00-807f-4797-bc98-b9c9999e1004","system_id":"levelo_inurba_marseille","lat":43.25121,"lon":5.40321,"is_reserved":false,"is_disabled":false,"rental_uris":{"android":"levelo://app?vid=7d672f00-807f-4797-bc98-b9c9999e1004","ios":"levelo://app?vid=7d672f00-807f-4797-bc98-b9c9999e1004"},"vehicle_type_id":"4","last_reported":1731936045,"current_range_meters":38800,"station_id":"ce4bhlh2rcd13ifvqgig","pricing_plan_id":"cebpf4jnsgd1na2vs0mg"},{"bike_id":"2831a421-b6d9-4b4a-bef0-b960399d0032","system_id":"levelo_inurba_marseille","lat":43.29301,"lon":5.37183,"is_reserved":false,"is_disabled":false,"rental_uris":{"android":"levelo://app?vid=2831a421-b6d9-4b4a-bef0-b960399d0032","ios":"levelo://app?vid=2831a421-b6d9-4b4a-bef0-b960399d0032"},"vehicle_type_id":"4","last_reported":1731936045,"current_range_meters":0,"station_id":"ce4bgh92rcd13ifvqb40","pricing_plan_id":"cebpf4jnsgd1na2vs0mg"},{"bike_id":"752f9063-e54f-4bb9-8d76-1c9838a736ee","system_id":"levelo_inurba_marseille","lat":43.30151,"lon":5.37418,"is_reserved":false,"is_disabled":false,"rental_uris":{"android":"levelo://app?vid=752f9063-e54f-4bb9-8d76-1c9838a736ee","ios":"levelo://app?vid=752f9063-e54f-4bb9-8d76-1c9838a736ee"},"vehicle_type_id":"4","last_reported":1731936045,"current_range_meters":31200,"station_id":"ce4bgs92rcd13ifvqcc0","pricing_plan_id":"cebpf4jnsgd1na2vs0mg"},{"bike_id":"733ca8f1-c844-4b25-ac1b-2adbadd4d5f0","system_id":"levelo_inurba_marseille","lat":43.28849,"lon":5.35866,"is_reserved":false,"is_disabled":false,"rental_uris":{"android":"levelo://app?vid=733ca8f1-c844-4b25-ac1b-2adbadd4d5f0","ios":"levelo://app?vid=733ca8f1-c844-4b25-ac1b-2adbadd4d5f0"},"vehicle_type_id":"4","last_reported":1731936045,"current_range_meters":20800,"station_id":"ce4bhb12rcd13ifvqem0","pricing_plan_id":"cebpf4jnsgd1na2vs0mg"},{"bike_id":"40e176b1-e0b9-42cc-a932-47cff57452bd","system_id":"levelo_inurba_marseille","lat":43.29628,"lon":5.4059,"is_reserved":false,"is_disabled":false,"rental_uris":{"android":"levelo://app?vid=40e176b1-e0b9-42cc-a932-47cff57452bd","ios":"levelo://app?vid=40e176b1-e0b9-42cc-a932-47cff57452bd"},"vehicle_type_id":"4","last_reported":1731936045,"current_range_meters":38800,"station_id":"ce4bh0h2rcd13ifvqd60","pricing_plan_id":"cebpf4jnsgd1na2vs0mg"},{"bike_id":"685e9afd-df2c-4e83-a637-066f202ffa1c","system_id":"levelo_inurba_marseille","lat":43.33718,"lon":5.39194,"is_reserved":false,"is_disabled":false,"rental_uris":{"android":"levelo://app?vid=685e9afd-df2c-4e83-a637-066f202ffa1c","ios":"levelo://app?vid=685e9afd-df2c-4e83-a637-066f202ffa1c"},"vehicle_type_id":"4","last_reported":1731936045,"current_range_meters":12000,"station_id":"ce4bhr92rcd13ifvqhsg","pricing_plan_id":"cebpf4jnsgd1na2vs0mg"},{"bike_id":"4297304e-d56e-472e-ae33-b7a4a0f05509","system_id":"levelo_inurba_marseille","lat":43.31074,"lon":5.38354,"is_reserved":false,"is_disabled":false,"rental_uris":{"android":"levelo://app?vid=4297304e-d56e-472e-ae33-b7a4a0f05509","ios":"levelo://app?vid=4297304e-d56e-472e-ae33-b7a4a0f05509"},"vehicle_type_id":"4","last_reported":1731936045,"current_range_meters":37600,"station_id":"ce4bgv92rcd13ifvqcr0","pricing_plan_id":"cebpf4jnsgd1na2vs0mg"},{"bike_id":"6a03f546-d8d9-4adf-9a12-26dce8c80135","system_id":"levelo_inurba_marseille","lat":43.28275,"lon":5.35079,"is_reserved":false,"is_disabled":false,"rental_uris":{"android":"levelo://app?vid=6a03f546-d8d9-4adf-9a12-26dce8c80135","ios":"levelo://app?vid=6a03f546-d8d9-4adf-9a12-26dce8c80135"},"vehicle_type_id":"4","last_reported":1731936045,"current_range_meters":34000,"station_id":"","pricing_plan_id":"cebpf4jnsgd1na2vs0mg"},{"bike_id":"f053d1cc-7fab-46a6-989d-d258f36c9a1b","system_id":"levelo_inurba_marseille","lat":43.30427,"lon":5.39746,"is_reserved":false,"is_disabled":false,"rental_uris":{"android":"levelo://app?vid=f053d1cc-7fab-46a6-989d-d258f36c9a1b","ios":"levelo://app?vid=f053d1cc-7fab-46a6-989d-d258f36c9a1b"},"vehicle_type_id":"4","last_reported":1731936045,"current_range_meters":27600,"station_id":"ce4bh092rcd13ifvqd20","pricing_plan_id":"cebpf4jnsgd1na2vs0mg"},{"bike_id":"d3505644-f70d-45f6-a023-7f9c0a49153e","system_id":"levelo_inurba_marseille","lat":43.26954,"lon":5.38689,"is_reserved":false,"is_disabled":false,"rental_uris":{"android":"levelo://app?vid=d3505644-f70d-45f6-a023-7f9c0a49153e","ios":"levelo://app?vid=d3505644-f70d-45f6-a023-7f9c0a49153e"},"vehicle_type_id":"4","last_reported":1731936045,"current_range_meters":13600,"station_id":"ce4bhh92rcd13ifvqfh0","pricing_plan_id":"cebpf4jnsgd1na2vs0mg"},{"bike_id":"95a8342b-aa47-43bf-949c-6f37f65317e2","system_id":"levelo_inurba_marseille","lat":43.24547,"lon":5.39519,"is_reserved":false,"is_disabled":false,"rental_uris":{"android":"levelo://app?vid=95a8342b-aa47-43bf-949c-6f37f65317e2","ios":"levelo://app?vid=95a8342b-aa47-43bf-949c-6f37f65317e2"},"vehicle_type_id":"4","last_reported":1731936045,"current_range_meters":38800,"station_id":"ce4bhlp2rcd13ifvqgjg","pricing_plan_id":"cebpf4jnsgd1na2vs0mg"},{"bike_id":"8e6fd08f-4042-4299-b060-d9745191858b","system_id":"levelo_inurba_marseille","lat":43.29793,"lon":5.38077,"is_reserved":false,"is_disabled":false,"rental_uris":{"android":"levelo://app?vid=8e6fd08f-4042-4299-b060-d9745191858b","ios":"levelo://app?vid=8e6fd08f-4042-4299-b060-d9745191858b"},"vehicle_type_id":"4","last_reported":1731936045,"current_range_meters":38800,"station_id":"ce4bgip2rcd13ifvqbb0","pricing_plan_id":"cebpf4jnsgd1na2vs0mg"},{"bike_id":"9d0ff97e-4153-45c9-bb5a-0bdd6df51804","system_id":"levelo_inurba_marseille","lat":43.32478,"lon":5.36584,"is_reserved":false,"is_disabled":false,"rental_uris":{"android":"levelo://app?vid=9d0ff97e-4153-45c9-bb5a-0bdd6df51804","ios":"levelo://app?vid=9d0ff97e-4153-45c9-bb5a-0bdd6df51804"},"vehicle_type_id":"4","last_reported":1731936045,"current_range_meters":10000,"station_id":"ce4bhs12rcd13ifvqhvg","pricing_plan_id":"cebpf4jnsgd1na2vs0mg"},{"bike_id":"bf1c144c-f9d3-4903-8962-6df8f77b8814","system_id":"levelo_inurba_marseille","lat":43.25931,"lon":5.40917,"is_reserved":false,"is_disabled":false,"rental_uris":{"android":"levelo://app?vid=bf1c144c-f9d3-4903-8962-6df8f77b8814","ios":"levelo://app?vid=bf1c144c-f9d3-4903-8962-6df8f77b8814"},"vehicle_type_id":"4","last_reported":1731936045,"current_range_meters":16800,"station_id":"ce4bhm92rcd13ifvqglg","pricing_plan_id":"cebpf4jnsgd1na2vs0mg"},{"bike_id":"e150caea-119d-4fee-a5d7-7010da4309a1","system_id":"levelo_inurba_marseille","lat":43.29527,"lon":5.3855,"is_reserved":false,"is_disabled":false,"rental_uris":{"android":"levelo://app?vid=e150caea-119d-4fee-a5d7-7010da4309a1","ios":"levelo://app?vid=e150caea-119d-4fee-a5d7-7010da4309a1"},"vehicle_type_id":"4","last_reported":1731936045,"current_range_meters":24000,"station_id":"ce4bgih2rcd13ifvqba0","pricing_plan_id":"cebpf4jnsgd1na2vs0mg"},{"bike_id":"99e250a3-df4c-4b34-9509-c05720c8abf5","system_id":"levelo_inurba_marseille","lat":43.30542,"lon":5.36532,"is_reserved":false,"is_disabled":false,"rental_uris":{"android":"levelo://app?vid=99e250a3-df4c-4b34-9509-c05720c8abf5","ios":"levelo://app?vid=99e250a3-df4c-4b34-9509-c05720c8abf5"},"vehicle_type_id":"4","last_reported":1731936045,"current_range_meters":38800,"station_id":"ce4bgs12rcd13ifvqcag","pricing_plan_id":"cebpf4jnsgd1na2vs0mg"},{"bike_id":"c137ad19-1d76-4102-b396-b36fb3e5c779","system_id":"levelo_inurba_marseille","lat":43.31226,"lon":5.36877,"is_reserved":false,"is_disabled":false,"rental_uris":{"android":"levelo://app?vid=c137ad19-1d76-4102-b396-b36fb3e5c779","ios":"levelo://app?vid=c137ad19-1d76-4102-b396-b36fb3e5c779"},"vehicle_type_id":"4","last_reported":1731936045,"current_range_meters":31200,"station_id":"ce4bgl92rcd13ifvqbq0","pricing_plan_id":"cebpf4jnsgd1na2vs0mg"},{"bike_id":"8058c8cd-ade9-41bc-9113-45d654642975","system_id":"levelo_inurba_marseille","lat":43.23965,"lon":5.36637,"is_reserved":false,"is_disabled":false,"rental_uris":{"android":"levelo://app?vid=8058c8cd-ade9-41bc-9113-45d654642975","ios":"levelo://app?vid=8058c8cd-ade9-41bc-9113-45d654642975"},"vehicle_type_id":"4","last_reported":1731936045,"current_range_meters":25600,"station_id":"ce4bhi12rcd13ifvqfp0","pricing_plan_id":"cebpf4jnsgd1na2vs0mg"},{"bike_id":"e8cdf105-f78b-452f-a84e-83eba283359b","system_id":"levelo_inurba_marseille","lat":43.273193,"lon":5.39075,"is_reserved":false,"is_disabled":false,"rental_uris":{"android":"levelo://app?vid=e8cdf105-f78b-452f-a84e-83eba283359b","ios":"levelo://app?vid=e8cdf105-f78b-452f-a84e-83eba283359b"},"vehicle_type_id":"4","last_reported":1731936045,"current_range_meters":37600,"station_id":"ce4bhgp2rcd13ifvqfe0","pricing_plan_id":"cebpf4jnsgd1na2vs0mg"},{"bike_id":"bdadc3b0-cd9b-4292-8488-1c834c12b9bd","system_id":"levelo_inurba_marseille","lat":43.2963,"lon":5.37135,"is_reserved":false,"is_disabled":false,"rental_uris":{"android":"levelo://app?vid=bdadc3b0-cd9b-4292-8488-1c834c12b9bd","ios":"levelo://app?vid=bdadc3b0-cd9b-4292-8488-1c834c12b9bd"},"vehicle_type_id":"4","last_reported":1731936045,"current_range_meters":36800,"station_id":"ce4bgnh2rcd13ifvqc0g","pricing_plan_id":"cebpf4jnsgd1na2vs0mg"},{"bike_id":"46c3feb2-d197-4281-8a43-ab52372b5f43","system_id":"levelo_inurba_marseille","lat":43.30329,"lon":5.40432,"is_reserved":false,"is_disabled":false,"rental_uris":{"android":"levelo://app?vid=46c3feb2-d197-4281-8a43-ab52372b5f43","ios":"levelo://app?vid=46c3feb2-d197-4281-8a43-ab52372b5f43"},"vehicle_type_id":"4","last_reported":1731936045,"current_range_meters":29600,"station_id":"ce4bh012rcd13ifvqd10","pricing_plan_id":"cebpf4jnsgd1na2vs0mg"},{"bike_id":"d7c19367-c8e9-4fd4-b53c-c81bf98e7dce","system_id":"levelo_inurba_marseille","lat":43.29578,"lon":5.3674,"is_reserved":false,"is_disabled":false,"rental_uris":{"android":"levelo://app?vid=d7c19367-c8e9-4fd4-b53c-c81bf98e7dce","ios":"levelo://app?vid=d7c19367-c8e9-4fd4-b53c-c81bf98e7dce"},"vehicle_type_id":"4","last_reported":1731936045,"current_range_meters":32800,"station_id":"ce4bgph2rcd13ifvqc2g","pricing_plan_id":"cebpf4jnsgd1na2vs0mg"},{"bike_id":"ce249102-5132-45ee-9b83-fc2ea0c15102","system_id":"levelo_inurba_marseille","lat":43.24485,"lon":5.42557,"is_reserved":false,"is_disabled":false,"rental_uris":{"android":"levelo://app?vid=ce249102-5132-45ee-9b83-fc2ea0c15102","ios":"levelo://app?vid=ce249102-5132-45ee-9b83-fc2ea0c15102"},"vehicle_type_id":"4","last_reported":1731936045,"current_range_meters":38800,"station_id":"","pricing_plan_id":"cebpf4jnsgd1na2vs0mg"},{"bike_id":"94f27bd2-53d7-4501-a7e0-f59cc75bd6d4","system_id":"levelo_inurba_marseille","lat":43.2798,"lon":5.41661,"is_reserved":false,"is_disabled":false,"rental_uris":{"android":"levelo://app?vid=94f27bd2-53d7-4501-a7e0-f59cc75bd6d4","ios":"levelo://app?vid=94f27bd2-53d7-4501-a7e0-f59cc75bd6d4"},"vehicle_type_id":"4","last_reported":1731936045,"current_range_meters":36800,"station_id":"ce4bho12rcd13ifvqh1g","pricing_plan_id":"cebpf4jnsgd1na2vs0mg"},{"bike_id":"6d757fef-4f26-43f9-ac2c-ffab39bf7dae","system_id":"levelo_inurba_marseille","lat":43.32249,"lon":5.36901,"is_reserved":false,"is_disabled":false,"rental_uris":{"android":"levelo://app?vid=6d757fef-4f26-43f9-ac2c-ffab39bf7dae","ios":"levelo://app?vid=6d757fef-4f26-43f9-ac2c-ffab39bf7dae"},"vehicle_type_id":"4","last_reported":1731936045,"current_range_meters":10800,"station_id":"","pricing_plan_id":"cebpf4jnsgd1na2vs0mg"},{"bike_id":"8cd7dd04-2cd8-4cc7-a6f2-60fdc686aad3","system_id":"levelo_inurba_marseille","lat":43.25571,"lon":5.38236,"is_reserved":false,"is_disabled":false,"rental_uris":{"android":"levelo://app?vid=8cd7dd04-2cd8-4cc7-a6f2-60fdc686aad3","ios":"levelo://app?vid=8cd7dd04-2cd8-4cc7-a6f2-60fdc686aad3"},"vehicle_type_id":"4","last_reported":1731936045,"current_range_meters":17200,"station_id":"ce4bhih2rcd13ifvqfs0","pricing_plan_id":"cebpf4jnsgd1na2vs0mg"},{"bike_id":"d21d17e7-2f48-45e6-a424-c15abbaa2ab7","system_id":"levelo_inurba_marseille","lat":43.24543,"lon":5.39523,"is_reserved":false,"is_disabled":false,"rental_uris":{"android":"levelo://app?vid=d21d17e7-2f48-45e6-a424-c15abbaa2ab7","ios":"levelo://app?vid=d21d17e7-2f48-45e6-a424-c15abbaa2ab7"},"vehicle_type_id":"4","last_reported":1731936045,"current_range_meters":22000,"station_id":"ce4bhlp2rcd13ifvqgjg","pricing_plan_id":"cebpf4jnsgd1na2vs0mg"},{"bike_id":"2a6633b7-0a56-4103-8beb-a4e21a671aea","system_id":"levelo_inurba_marseille","lat":43.23195,"lon":5.35551,"is_reserved":false,"is_disabled":false,"rental_uris":{"android":"levelo://app?vid=2a6633b7-0a56-4103-8beb-a4e21a671aea","ios":"levelo://app?vid=2a6633b7-0a56-4103-8beb-a4e21a671aea"},"vehicle_type_id":"4","last_reported":1731936045,"current_range_meters":16400,"station_id":"ce4bhu92rcd13ifvqi70","pricing_plan_id":"cebpf4jnsgd1na2vs0mg"},{"bike_id":"eb0c467f-8f8d-4a80-aec4-472cf60b053f","system_id":"levelo_inurba_marseille","lat":43.29269,"lon":5.38458,"is_reserved":false,"is_disabled":false,"rental_uris":{"android":"levelo://app?vid=eb0c467f-8f8d-4a80-aec4-472cf60b053f","ios":"levelo://app?vid=eb0c467f-8f8d-4a80-aec4-472cf60b053f"},"vehicle_type_id":"4","last_reported":1731936045,"current_range_meters":14800,"station_id":"ce4bh692rcd13ifvqea0","pricing_plan_id":"cebpf4jnsgd1na2vs0mg"},{"bike_id":"e1a9cbaf-8cfa-4845-9250-7f26de68f050","system_id":"levelo_inurba_marseille","lat":43.29364,"lon":5.37845,"is_reserved":false,"is_disabled":false,"rental_uris":{"android":"levelo://app?vid=e1a9cbaf-8cfa-4845-9250-7f26de68f050","ios":"levelo://app?vid=e1a9cbaf-8cfa-4845-9250-7f26de68f050"},"vehicle_type_id":"4","last_reported":1731936045,"current_range_meters":28400,"station_id":"ce4bgjh2rcd13ifvqbf0","pricing_plan_id":"cebpf4jnsgd1na2vs0mg"},{"bike_id":"99e07f50-6b05-47bc-94d1-abd3432eec3c","system_id":"levelo_inurba_marseille","lat":43.27497,"lon":5.42452,"is_reserved":false,"is_disabled":false,"rental_uris":{"android":"levelo://app?vid=99e07f50-6b05-47bc-94d1-abd3432eec3c","ios":"levelo://app?vid=99e07f50-6b05-47bc-94d1-abd3432eec3c"},"vehicle_type_id":"4","last_reported":1731936045,"current_range_meters":35200,"station_id":"ce4bhn92rcd13ifvqgrg","pricing_plan_id":"cebpf4jnsgd1na2vs0mg"},{"bike_id":"22e8ab74-75c2-4679-b497-f115978aae10","system_id":"levelo_inurba_marseille","lat":43.25725,"lon":5.41107,"is_reserved":false,"is_disabled":false,"rental_uris":{"android":"levelo://app?vid=22e8ab74-75c2-4679-b497-f115978aae10","ios":"levelo://app?vid=22e8ab74-75c2-4679-b497-f115978aae10"},"vehicle_type_id":"4","last_reported":1731936045,"current_range_meters":38000,"station_id":"ce4bhkp2rcd13ifvqgd0","pricing_plan_id":"cebpf4jnsgd1na2vs0mg"},{"bike_id":"9f92d049-3a1a-4141-89b2-25baffceb1ba","system_id":"levelo_inurba_marseille","lat":43.28943,"lon":5.36401,"is_reserved":false,"is_disabled":false,"rental_uris":{"android":"levelo://app?vid=9f92d049-3a1a-4141-89b2-25baffceb1ba","ios":"levelo://app?vid=9f92d049-3a1a-4141-89b2-25baffceb1ba"},"vehicle_type_id":"4","last_reported":1731936045,"current_range_meters":7200,"station_id":"ce4bhc92rcd13ifvqetg","pricing_plan_id":"cebpf4jnsgd1na2vs0mg"},{"bike_id":"6b8c4514-cb85-4a2a-9925-6fb4153b9632","system_id":"levelo_inurba_marseille","lat":43.29553,"lon":5.42277,"is_reserved":false,"is_disabled":false,"rental_uris":{"android":"levelo://app?vid=6b8c4514-cb85-4a2a-9925-6fb4153b9632","ios":"levelo://app?vid=6b8c4514-cb85-4a2a-9925-6fb4153b9632"},"vehicle_type_id":"4","last_reported":1731936045,"current_range_meters":38000,"station_id":"ce4bhph2rcd13ifvqhdg","pricing_plan_id":"cebpf4jnsgd1na2vs0mg"},{"bike_id":"0979856d-1333-4bcd-9371-ecbe81aa2701","system_id":"levelo_inurba_marseille","lat":43.28707,"lon":5.37935,"is_reserved":false,"is_disabled":false,"rental_uris":{"android":"levelo://app?vid=0979856d-1333-4bcd-9371-ecbe81aa2701","ios":"levelo://app?vid=0979856d-1333-4bcd-9371-ecbe81aa2701"},"vehicle_type_id":"4","last_reported":1731936045,"current_range_meters":2000,"station_id":"ce4bh9p2rcd13ifvqec0","pricing_plan_id":"cebpf4jnsgd1na2vs0mg"},{"bike_id":"74897324-3fa4-4878-8963-615ce4923649","system_id":"levelo_inurba_marseille","lat":43.295253,"lon":5.38522,"is_reserved":false,"is_disabled":false,"rental_uris":{"android":"levelo://app?vid=74897324-3fa4-4878-8963-615ce4923649","ios":"levelo://app?vid=74897324-3fa4-4878-8963-615ce4923649"},"vehicle_type_id":"4","last_reported":1731936045,"current_range_meters":26800,"station_id":"ce4bgih2rcd13ifvqba0","pricing_plan_id":"cebpf4jnsgd1na2vs0mg"},{"bike_id":"5796d193-b47f-4795-ab13-d7441ffac838","system_id":"levelo_inurba_marseille","lat":43.27624,"lon":5.36111,"is_reserved":false,"is_disabled":false,"rental_uris":{"android":"levelo://app?vid=5796d193-b47f-4795-ab13-d7441ffac838","ios":"levelo://app?vid=5796d193-b47f-4795-ab13-d7441ffac838"},"vehicle_type_id":"4","last_reported":1731936045,"current_range_meters":34000,"station_id":"ce4bgj92rcd13ifvqbe0","pricing_plan_id":"cebpf4jnsgd1na2vs0mg"},{"bike_id":"1648b433-26ee-4cd6-8cfd-b0f40190cfa5","system_id":"levelo_inurba_marseille","lat":43.24182,"lon":5.39724,"is_reserved":false,"is_disabled":false,"rental_uris":{"android":"levelo://app?vid=1648b433-26ee-4cd6-8cfd-b0f40190cfa5","ios":"levelo://app?vid=1648b433-26ee-4cd6-8cfd-b0f40190cfa5"},"vehicle_type_id":"4","last_reported":1731936045,"current_range_meters":27600,"station_id":"ce4bhn12rcd13ifvqgpg","pricing_plan_id":"cebpf4jnsgd1na2vs0mg"},{"bike_id":"21c0ac38-8fa7-4c11-be15-3b0818ecc711","system_id":"levelo_inurba_marseille","lat":43.29273,"lon":5.40118,"is_reserved":false,"is_disabled":false,"rental_uris":{"android":"levelo://app?vid=21c0ac38-8fa7-4c11-be15-3b0818ecc711","ios":"levelo://app?vid=21c0ac38-8fa7-4c11-be15-3b0818ecc711"},"vehicle_type_id":"4","last_reported":1731936045,"current_range_meters":2000,"station_id":"ce4bh312rcd13ifvqdk0","pricing_plan_id":"cebpf4jnsgd1na2vs0mg"},{"bike_id":"f3c04af5-217e-474a-99f4-59a66b5f32f0","system_id":"levelo_inurba_marseille","lat":43.308866,"lon":5.396475,"is_reserved":false,"is_disabled":false,"rental_uris":{"android":"levelo://app?vid=f3c04af5-217e-474a-99f4-59a66b5f32f0","ios":"levelo://app?vid=f3c04af5-217e-474a-99f4-59a66b5f32f0"},"vehicle_type_id":"4","last_reported":1731936045,"current_range_meters":25200,"station_id":"ce4bh012rcd13ifvqcv0","pricing_plan_id":"cebpf4jnsgd1na2vs0mg"},{"bike_id":"93793a5f-5d28-4270-8448-8f129cb229ea","system_id":"levelo_inurba_marseille","lat":43.32659,"lon":5.40994,"is_reserved":false,"is_disabled":false,"rental_uris":{"android":"levelo://app?vid=93793a5f-5d28-4270-8448-8f129cb229ea","ios":"levelo://app?vid=93793a5f-5d28-4270-8448-8f129cb229ea"},"vehicle_type_id":"4","last_reported":1731936045,"current_range_meters":24800,"station_id":"ce4bhpp2rcd13ifvqhgg","pricing_plan_id":"cebpf4jnsgd1na2vs0mg"},{"bike_id":"bf272a62-80b2-460a-9ecd-aaf576727514","system_id":"levelo_inurba_marseille","lat":43.26805,"lon":5.40268,"is_reserved":false,"is_disabled":false,"rental_uris":{"android":"levelo://app?vid=bf272a62-80b2-460a-9ecd-aaf576727514","ios":"levelo://app?vid=bf272a62-80b2-460a-9ecd-aaf576727514"},"vehicle_type_id":"4","last_reported":1731936045,"current_range_meters":30000,"station_id":"ce501612rcd8frsf0b60","pricing_plan_id":"cebpf4jnsgd1na2vs0mg"},{"bike_id":"cc911dbc-2c04-4373-b6ec-a968894c44ba","system_id":"levelo_inurba_marseille","lat":43.29931,"lon":5.36535,"is_reserved":false,"is_disabled":false,"rental_uris":{"android":"levelo://app?vid=cc911dbc-2c04-4373-b6ec-a968894c44ba","ios":"levelo://app?vid=cc911dbc-2c04-4373-b6ec-a968894c44ba"},"vehicle_type_id":"4","last_reported":1731936045,"current_range_meters":30400,"station_id":"ce4bgm92rcd13ifvqbr0","pricing_plan_id":"cebpf4jnsgd1na2vs0mg"},{"bike_id":"d828b3a2-6532-4256-b8f7-8513ba723f58","system_id":"levelo_inurba_marseille","lat":43.2503,"lon":5.39579,"is_reserved":false,"is_disabled":false,"rental_uris":{"android":"levelo://app?vid=d828b3a2-6532-4256-b8f7-8513ba723f58","ios":"levelo://app?vid=d828b3a2-6532-4256-b8f7-8513ba723f58"},"vehicle_type_id":"4","last_reported":1731936045,"current_range_meters":16800,"station_id":"ce4bhlp2rcd13ifvqgjg","pricing_plan_id":"cebpf4jnsgd1na2vs0mg"},{"bike_id":"70953ba8-c1d0-4850-95c1-592e9cf5db66","system_id":"levelo_inurba_marseille","lat":43.30955,"lon":5.39041,"is_reserved":false,"is_disabled":false,"rental_uris":{"android":"levelo://app?vid=70953ba8-c1d0-4850-95c1-592e9cf5db66","ios":"levelo://app?vid=70953ba8-c1d0-4850-95c1-592e9cf5db66"},"vehicle_type_id":"4","last_reported":1731936045,"current_range_meters":30800,"station_id":"ce4bgup2rcd13ifvqco0","pricing_plan_id":"cebpf4jnsgd1na2vs0mg"},{"bike_id":"90dcbec6-e577-4473-b29e-9a8b030c3700","system_id":"levelo_inurba_marseille","lat":43.23143,"lon":5.43715,"is_reserved":false,"is_disabled":false,"rental_uris":{"android":"levelo://app?vid=90dcbec6-e577-4473-b29e-9a8b030c3700","ios":"levelo://app?vid=90dcbec6-e577-4473-b29e-9a8b030c3700"},"vehicle_type_id":"4","last_reported":1731936045,"current_range_meters":30400,"station_id":"ce4bhmp2rcd13ifvqgog","pricing_plan_id":"cebpf4jnsgd1na2vs0mg"},{"bike_id":"fc24aac1-6d84-4a21-9982-e3e30c297a56","system_id":"levelo_inurba_marseille","lat":43.23194,"lon":5.3555,"is_reserved":false,"is_disabled":false,"rental_uris":{"android":"levelo://app?vid=fc24aac1-6d84-4a21-9982-e3e30c297a56","ios":"levelo://app?vid=fc24aac1-6d84-4a21-9982-e3e30c297a56"},"vehicle_type_id":"4","last_reported":1731936045,"current_range_meters":19200,"station_id":"ce4bhu92rcd13ifvqi70","pricing_plan_id":"cebpf4jnsgd1na2vs0mg"},{"bike_id":"b76d8db4-c344-4c3e-9728-d3c751cb5607","system_id":"levelo_inurba_marseille","lat":43.27495,"lon":5.42457,"is_reserved":false,"is_disabled":false,"rental_uris":{"android":"levelo://app?vid=b76d8db4-c344-4c3e-9728-d3c751cb5607","ios":"levelo://app?vid=b76d8db4-c344-4c3e-9728-d3c751cb5607"},"vehicle_type_id":"4","last_reported":1731936045,"current_range_meters":8400,"station_id":"ce4bhn92rcd13ifvqgrg","pricing_plan_id":"cebpf4jnsgd1na2vs0mg"},{"bike_id":"18cdf0b1-0772-4340-a682-1c734cd9d7dc","system_id":"levelo_inurba_marseille","lat":43.274406,"lon":5.39435,"is_reserved":false,"is_disabled":false,"rental_uris":{"android":"levelo://app?vid=18cdf0b1-0772-4340-a682-1c734cd9d7dc","ios":"levelo://app?vid=18cdf0b1-0772-4340-a682-1c734cd9d7dc"},"vehicle_type_id":"4","last_reported":1731936045,"current_range_meters":9600,"station_id":"ce4bhdp2rcd13ifvqf20","pricing_plan_id":"cebpf4jnsgd1na2vs0mg"},{"bike_id":"5657292d-cbb4-439c-81c5-bb02027734b1","system_id":"levelo_inurba_marseille","lat":43.295199,"lon":5.394154,"is_reserved":false,"is_disabled":false,"rental_uris":{"android":"levelo://app?vid=5657292d-cbb4-439c-81c5-bb02027734b1","ios":"levelo://app?vid=5657292d-cbb4-439c-81c5-bb02027734b1"},"vehicle_type_id":"4","last_reported":1731936045,"current_range_meters":30400,"station_id":"ce4bhi12rcd13ifvqfo0","pricing_plan_id":"cebpf4jnsgd1na2vs0mg"},{"bike_id":"bcfae24b-e804-4d53-b9bc-0a4b45e72e6e","system_id":"levelo_inurba_marseille","lat":43.28697,"lon":5.37929,"is_reserved":false,"is_disabled":false,"rental_uris":{"android":"levelo://app?vid=bcfae24b-e804-4d53-b9bc-0a4b45e72e6e","ios":"levelo://app?vid=bcfae24b-e804-4d53-b9bc-0a4b45e72e6e"},"vehicle_type_id":"4","last_reported":1731936045,"current_range_meters":14800,"station_id":"ce4bh9p2rcd13ifvqec0","pricing_plan_id":"cebpf4jnsgd1na2vs0mg"},{"bike_id":"e75e2119-d837-403f-9abd-1e303afada11","system_id":"levelo_inurba_marseille","lat":43.2396,"lon":5.36631,"is_reserved":false,"is_disabled":false,"rental_uris":{"android":"levelo://app?vid=e75e2119-d837-403f-9abd-1e303afada11","ios":"levelo://app?vid=e75e2119-d837-403f-9abd-1e303afada11"},"vehicle_type_id":"4","last_reported":1731936045,"current_range_meters":38000,"station_id":"ce4bhi12rcd13ifvqfp0","pricing_plan_id":"cebpf4jnsgd1na2vs0mg"},{"bike_id":"9c577393-f35c-4b59-82b1-f7c1bb6a1b8f","system_id":"levelo_inurba_marseille","lat":43.24568,"lon":5.39516,"is_reserved":false,"is_disabled":false,"rental_uris":{"android":"levelo://app?vid=9c577393-f35c-4b59-82b1-f7c1bb6a1b8f","ios":"levelo://app?vid=9c577393-f35c-4b59-82b1-f7c1bb6a1b8f"},"vehicle_type_id":"4","last_reported":1731936045,"current_range_meters":16800,"station_id":"ce4bhlp2rcd13ifvqgjg","pricing_plan_id":"cebpf4jnsgd1na2vs0mg"},{"bike_id":"aca5b142-ea80-45bd-b8c5-e62a8591ee02","system_id":"levelo_inurba_marseille","lat":43.29912,"lon":5.37468,"is_reserved":false,"is_disabled":false,"rental_uris":{"android":"levelo://app?vid=aca5b142-ea80-45bd-b8c5-e62a8591ee02","ios":"levelo://app?vid=aca5b142-ea80-45bd-b8c5-e62a8591ee02"},"vehicle_type_id":"4","last_reported":1731936045,"current_range_meters":20400,"station_id":"ce4bgjh2rcd13ifvqbg0","pricing_plan_id":"cebpf4jnsgd1na2vs0mg"},{"bike_id":"000bbcc5-291b-4365-9f84-9ac6e1b6e584","system_id":"levelo_inurba_marseille","lat":43.28007,"lon":5.40025,"is_reserved":false,"is_disabled":false,"rental_uris":{"android":"levelo://app?vid=000bbcc5-291b-4365-9f84-9ac6e1b6e584","ios":"levelo://app?vid=000bbcc5-291b-4365-9f84-9ac6e1b6e584"},"vehicle_type_id":"4","last_reported":1731936045,"current_range_meters":34000,"station_id":"ce4bho92rcd13ifvqh4g","pricing_plan_id":"cebpf4jnsgd1na2vs0mg"},{"bike_id":"677756f5-a559-46c8-ae90-03f718d2b9e3","system_id":"levelo_inurba_marseille","lat":43.28439,"lon":5.39183,"is_reserved":false,"is_disabled":false,"rental_uris":{"android":"levelo://app?vid=677756f5-a559-46c8-ae90-03f718d2b9e3","ios":"levelo://app?vid=677756f5-a559-46c8-ae90-03f718d2b9e3"},"vehicle_type_id":"4","last_reported":1731936045,"current_range_meters":32000,"station_id":"","pricing_plan_id":"cebpf4jnsgd1na2vs0mg"},{"bike_id":"e22d6a8b-e9a8-4672-9080-506f6cc24a8d","system_id":"levelo_inurba_marseille","lat":43.28464,"lon":5.38416,"is_reserved":false,"is_disabled":false,"rental_uris":{"android":"levelo://app?vid=e22d6a8b-e9a8-4672-9080-506f6cc24a8d","ios":"levelo://app?vid=e22d6a8b-e9a8-4672-9080-506f6cc24a8d"},"vehicle_type_id":"4","last_reported":1731936045,"current_range_meters":2000,"station_id":"ce4bh512rcd13ifvqe3g","pricing_plan_id":"cebpf4jnsgd1na2vs0mg"},{"bike_id":"ed3c66fe-f6b9-4e04-b57d-c3e9284e1444","system_id":"levelo_inurba_marseille","lat":43.28438,"lon":5.39181,"is_reserved":false,"is_disabled":false,"rental_uris":{"android":"levelo://app?vid=ed3c66fe-f6b9-4e04-b57d-c3e9284e1444","ios":"levelo://app?vid=ed3c66fe-f6b9-4e04-b57d-c3e9284e1444"},"vehicle_type_id":"4","last_reported":1731936045,"current_range_meters":27200,"station_id":"ce4bhoh2rcd13ifvqh5g","pricing_plan_id":"cebpf4jnsgd1na2vs0mg"},{"bike_id":"1204551e-1731-45fc-ad6e-69f86735d437","system_id":"levelo_inurba_marseille","lat":43.25821,"lon":5.39441,"is_reserved":false,"is_disabled":false,"rental_uris":{"android":"levelo://app?vid=1204551e-1731-45fc-ad6e-69f86735d437","ios":"levelo://app?vid=1204551e-1731-45fc-ad6e-69f86735d437"},"vehicle_type_id":"4","last_reported":1731936045,"current_range_meters":21600,"station_id":"ce4bhip2rcd13ifvqft0","pricing_plan_id":"cebpf4jnsgd1na2vs0mg"},{"bike_id":"475290c4-27aa-445d-baab-c53c24b225ac","system_id":"levelo_inurba_marseille","lat":43.24548,"lon":5.39524,"is_reserved":false,"is_disabled":false,"rental_uris":{"android":"levelo://app?vid=475290c4-27aa-445d-baab-c53c24b225ac","ios":"levelo://app?vid=475290c4-27aa-445d-baab-c53c24b225ac"},"vehicle_type_id":"4","last_reported":1731936045,"current_range_meters":38800,"station_id":"ce4bhlp2rcd13ifvqgjg","pricing_plan_id":"cebpf4jnsgd1na2vs0mg"},{"bike_id":"ac8b14cb-ec25-401b-8dc8-ad1a695de871","system_id":"levelo_inurba_marseille","lat":43.29595,"lon":5.37716,"is_reserved":false,"is_disabled":false,"rental_uris":{"android":"levelo://app?vid=ac8b14cb-ec25-401b-8dc8-ad1a695de871","ios":"levelo://app?vid=ac8b14cb-ec25-401b-8dc8-ad1a695de871"},"vehicle_type_id":"4","last_reported":1731936045,"current_range_meters":38800,"station_id":"ce4bgi92rcd13ifvqb90","pricing_plan_id":"cebpf4jnsgd1na2vs0mg"},{"bike_id":"238fce61-da1e-405a-b4bc-a4741fee7b35","system_id":"levelo_inurba_marseille","lat":43.31164,"lon":5.38723,"is_reserved":false,"is_disabled":false,"rental_uris":{"android":"levelo://app?vid=238fce61-da1e-405a-b4bc-a4741fee7b35","ios":"levelo://app?vid=238fce61-da1e-405a-b4bc-a4741fee7b35"},"vehicle_type_id":"4","last_reported":1731936045,"current_range_meters":29600,"station_id":"ce4bgv12rcd13ifvqcp0","pricing_plan_id":"cebpf4jnsgd1na2vs0mg"},{"bike_id":"f2cf744a-362f-4ec0-a942-9b72a2ded9a5","system_id":"levelo_inurba_marseille","lat":43.337444,"lon":5.374475,"is_reserved":false,"is_disabled":false,"rental_uris":{"android":"levelo://app?vid=f2cf744a-362f-4ec0-a942-9b72a2ded9a5","ios":"levelo://app?vid=f2cf744a-362f-4ec0-a942-9b72a2ded9a5"},"vehicle_type_id":"4","last_reported":1731936045,"current_range_meters":33200,"station_id":"","pricing_plan_id":"cebpf4jnsgd1na2vs0mg"},{"bike_id":"d2518d23-ec3f-4eda-ba5b-552c63eb3893","system_id":"levelo_inurba_marseille","lat":43.275,"lon":5.42454,"is_reserved":false,"is_disabled":false,"rental_uris":{"android":"levelo://app?vid=d2518d23-ec3f-4eda-ba5b-552c63eb3893","ios":"levelo://app?vid=d2518d23-ec3f-4eda-ba5b-552c63eb3893"},"vehicle_type_id":"4","last_reported":1731936045,"current_range_meters":23200,"station_id":"ce4bhn92rcd13ifvqgrg","pricing_plan_id":"cebpf4jnsgd1na2vs0mg"},{"bike_id":"6f41a04c-b36d-4229-bd32-b215b478999f","system_id":"levelo_inurba_marseille","lat":43.23186,"lon":5.39983,"is_reserved":false,"is_disabled":false,"rental_uris":{"android":"levelo://app?vid=6f41a04c-b36d-4229-bd32-b215b478999f","ios":"levelo://app?vid=6f41a04c-b36d-4229-bd32-b215b478999f"},"vehicle_type_id":"4","last_reported":1731936045,"current_range_meters":18800,"station_id":"ce4bhn12rcd13ifvqgqg","pricing_plan_id":"cebpf4jnsgd1na2vs0mg"},{"bike_id":"df0bd95b-fa83-4640-af97-00dab299b682","system_id":"levelo_inurba_marseille","lat":43.27993,"lon":5.40013,"is_reserved":false,"is_disabled":false,"rental_uris":{"android":"levelo://app?vid=df0bd95b-fa83-4640-af97-00dab299b682","ios":"levelo://app?vid=df0bd95b-fa83-4640-af97-00dab299b682"},"vehicle_type_id":"4","last_reported":1731936045,"current_range_meters":24400,"station_id":"ce4bho92rcd13ifvqh4g","pricing_plan_id":"cebpf4jnsgd1na2vs0mg"},{"bike_id":"57e4cbd9-496a-46ca-92ab-a9501b32000d","system_id":"levelo_inurba_marseille","lat":43.23182,"lon":5.39988,"is_reserved":false,"is_disabled":false,"rental_uris":{"android":"levelo://app?vid=57e4cbd9-496a-46ca-92ab-a9501b32000d","ios":"levelo://app?vid=57e4cbd9-496a-46ca-92ab-a9501b32000d"},"vehicle_type_id":"4","last_reported":1731936045,"current_range_meters":38800,"station_id":"ce4bhn12rcd13ifvqgqg","pricing_plan_id":"cebpf4jnsgd1na2vs0mg"},{"bike_id":"a6b8c285-acc9-4039-9531-1aae39136a33","system_id":"levelo_inurba_marseille","lat":43.312042,"lon":5.367348,"is_reserved":false,"is_disabled":false,"rental_uris":{"android":"levelo://app?vid=a6b8c285-acc9-4039-9531-1aae39136a33","ios":"levelo://app?vid=a6b8c285-acc9-4039-9531-1aae39136a33"},"vehicle_type_id":"4","last_reported":1731936045,"current_range_meters":6000,"station_id":"","pricing_plan_id":"cebpf4jnsgd1na2vs0mg"},{"bike_id":"11f81d72-c8e7-4ef6-b62d-17f40c3efe62","system_id":"levelo_inurba_marseille","lat":43.3212,"lon":5.3677,"is_reserved":false,"is_disabled":false,"rental_uris":{"android":"levelo://app?vid=11f81d72-c8e7-4ef6-b62d-17f40c3efe62","ios":"levelo://app?vid=11f81d72-c8e7-4ef6-b62d-17f40c3efe62"},"vehicle_type_id":"4","last_reported":1731936045,"current_range_meters":35600,"station_id":"ce4bhrh2rcd13ifvqhug","pricing_plan_id":"cebpf4jnsgd1na2vs0mg"},{"bike_id":"34b9f970-27e7-43cb-bb06-ac9397ebf150","system_id":"levelo_inurba_marseille","lat":43.24083,"lon":5.37741,"is_reserved":false,"is_disabled":false,"rental_uris":{"android":"levelo://app?vid=34b9f970-27e7-43cb-bb06-ac9397ebf150","ios":"levelo://app?vid=34b9f970-27e7-43cb-bb06-ac9397ebf150"},"vehicle_type_id":"4","last_reported":1731936045,"current_range_meters":18000,"station_id":"ce4bhnp2rcd13ifvqgvg","pricing_plan_id":"cebpf4jnsgd1na2vs0mg"},{"bike_id":"39208c10-828e-4392-9aa2-019dd2bc97c3","system_id":"levelo_inurba_marseille","lat":43.27998,"lon":5.40023,"is_reserved":false,"is_disabled":false,"rental_uris":{"android":"levelo://app?vid=39208c10-828e-4392-9aa2-019dd2bc97c3","ios":"levelo://app?vid=39208c10-828e-4392-9aa2-019dd2bc97c3"},"vehicle_type_id":"4","last_reported":1731936045,"current_range_meters":25200,"station_id":"ce4bho92rcd13ifvqh4g","pricing_plan_id":"cebpf4jnsgd1na2vs0mg"},{"bike_id":"619db373-f1f0-43f3-9355-6e3d6f677c5d","system_id":"levelo_inurba_marseille","lat":43.27498,"lon":5.42451,"is_reserved":false,"is_disabled":false,"rental_uris":{"android":"levelo://app?vid=619db373-f1f0-43f3-9355-6e3d6f677c5d","ios":"levelo://app?vid=619db373-f1f0-43f3-9355-6e3d6f677c5d"},"vehicle_type_id":"4","last_reported":1731936045,"current_range_meters":38000,"station_id":"ce4bhn92rcd13ifvqgrg","pricing_plan_id":"cebpf4jnsgd1na2vs0mg"},{"bike_id":"e0de4292-ccf5-4fac-90e8-06f55d676bef","system_id":"levelo_inurba_marseille","lat":43.29018,"lon":5.38629,"is_reserved":false,"is_disabled":false,"rental_uris":{"android":"levelo://app?vid=e0de4292-ccf5-4fac-90e8-06f55d676bef","ios":"levelo://app?vid=e0de4292-ccf5-4fac-90e8-06f55d676bef"},"vehicle_type_id":"4","last_reported":1731936045,"current_range_meters":30000,"station_id":"ce4bh4p2rcd13ifvqe0g","pricing_plan_id":"cebpf4jnsgd1na2vs0mg"},{"bike_id":"9af42060-b48b-40dd-b16f-1988f274a433","system_id":"levelo_inurba_marseille","lat":43.298,"lon":5.38086,"is_reserved":false,"is_disabled":false,"rental_uris":{"android":"levelo://app?vid=9af42060-b48b-40dd-b16f-1988f274a433","ios":"levelo://app?vid=9af42060-b48b-40dd-b16f-1988f274a433"},"vehicle_type_id":"4","last_reported":1731936045,"current_range_meters":31200,"station_id":"ce4bgip2rcd13ifvqbb0","pricing_plan_id":"cebpf4jnsgd1na2vs0mg"},{"bike_id":"034fdf6f-4f78-44c1-9981-8a8407a03a87","system_id":"levelo_inurba_marseille","lat":43.28031,"lon":5.3696,"is_reserved":false,"is_disabled":false,"rental_uris":{"android":"levelo://app?vid=034fdf6f-4f78-44c1-9981-8a8407a03a87","ios":"levelo://app?vid=034fdf6f-4f78-44c1-9981-8a8407a03a87"},"vehicle_type_id":"4","last_reported":1731936045,"current_range_meters":38800,"station_id":"ce4bha12rcd13ifvqef0","pricing_plan_id":"cebpf4jnsgd1na2vs0mg"},{"bike_id":"78e887a7-1deb-47c3-b66d-6a066c0e52a5","system_id":"levelo_inurba_marseille","lat":43.27209,"lon":5.39176,"is_reserved":false,"is_disabled":false,"rental_uris":{"android":"levelo://app?vid=78e887a7-1deb-47c3-b66d-6a066c0e52a5","ios":"levelo://app?vid=78e887a7-1deb-47c3-b66d-6a066c0e52a5"},"vehicle_type_id":"4","last_reported":1731936045,"current_range_meters":2800,"station_id":"ce4bhhp2rcd13ifvqfm0","pricing_plan_id":"cebpf4jnsgd1na2vs0mg"},{"bike_id":"30623e0d-666e-459c-8ee2-dd2be51ba16a","system_id":"levelo_inurba_marseille","lat":43.27997,"lon":5.40023,"is_reserved":false,"is_disabled":false,"rental_uris":{"android":"levelo://app?vid=30623e0d-666e-459c-8ee2-dd2be51ba16a","ios":"levelo://app?vid=30623e0d-666e-459c-8ee2-dd2be51ba16a"},"vehicle_type_id":"4","last_reported":1731936045,"current_range_meters":6800,"station_id":"ce4bho92rcd13ifvqh4g","pricing_plan_id":"cebpf4jnsgd1na2vs0mg"},{"bike_id":"e1a28b36-0717-4e37-be43-98104648c62b","system_id":"levelo_inurba_marseille","lat":43.24394,"lon":5.37065,"is_reserved":false,"is_disabled":false,"rental_uris":{"android":"levelo://app?vid=e1a28b36-0717-4e37-be43-98104648c62b","ios":"levelo://app?vid=e1a28b36-0717-4e37-be43-98104648c62b"},"vehicle_type_id":"4","last_reported":1731936045,"current_range_meters":6000,"station_id":"ce4bhhh2rcd13ifvqfk0","pricing_plan_id":"cebpf4jnsgd1na2vs0mg"},{"bike_id":"72f62598-1a11-49af-8685-276b8b1b520f","system_id":"levelo_inurba_marseille","lat":43.30953,"lon":5.39025,"is_reserved":false,"is_disabled":false,"rental_uris":{"android":"levelo://app?vid=72f62598-1a11-49af-8685-276b8b1b520f","ios":"levelo://app?vid=72f62598-1a11-49af-8685-276b8b1b520f"},"vehicle_type_id":"4","last_reported":1731936045,"current_range_meters":24000,"station_id":"ce4bgup2rcd13ifvqco0","pricing_plan_id":"cebpf4jnsgd1na2vs0mg"},{"bike_id":"92ac4858-87d6-4ceb-8f6e-004635a816a8","system_id":"levelo_inurba_marseille","lat":43.27789,"lon":5.40729,"is_reserved":false,"is_disabled":false,"rental_uris":{"android":"levelo://app?vid=92ac4858-87d6-4ceb-8f6e-004635a816a8","ios":"levelo://app?vid=92ac4858-87d6-4ceb-8f6e-004635a816a8"},"vehicle_type_id":"4","last_reported":1731936045,"current_range_meters":22400,"station_id":"ce4bhnh2rcd13ifvqgtg","pricing_plan_id":"cebpf4jnsgd1na2vs0mg"},{"bike_id":"f06aec30-7855-4a0d-b633-cdddcf2ba86a","system_id":"levelo_inurba_marseille","lat":43.30532,"lon":5.36532,"is_reserved":false,"is_disabled":false,"rental_uris":{"android":"levelo://app?vid=f06aec30-7855-4a0d-b633-cdddcf2ba86a","ios":"levelo://app?vid=f06aec30-7855-4a0d-b633-cdddcf2ba86a"},"vehicle_type_id":"4","last_reported":1731936045,"current_range_meters":38800,"station_id":"ce4bgs12rcd13ifvqcag","pricing_plan_id":"cebpf4jnsgd1na2vs0mg"},{"bike_id":"e8693a50-7d9f-4436-9803-0a5b4b25390c","system_id":"levelo_inurba_marseille","lat":43.30092,"lon":5.39084,"is_reserved":false,"is_disabled":false,"rental_uris":{"android":"levelo://app?vid=e8693a50-7d9f-4436-9803-0a5b4b25390c","ios":"levelo://app?vid=e8693a50-7d9f-4436-9803-0a5b4b25390c"},"vehicle_type_id":"4","last_reported":1731936045,"current_range_meters":17600,"station_id":"ce4bh192rcd13ifvqdb0","pricing_plan_id":"cebpf4jnsgd1na2vs0mg"},{"bike_id":"9f96840b-a50e-4a44-b234-fb428b9d6bd5","system_id":"levelo_inurba_marseille","lat":43.2418,"lon":5.39734,"is_reserved":false,"is_disabled":false,"rental_uris":{"android":"levelo://app?vid=9f96840b-a50e-4a44-b234-fb428b9d6bd5","ios":"levelo://app?vid=9f96840b-a50e-4a44-b234-fb428b9d6bd5"},"vehicle_type_id":"4","last_reported":1731936045,"current_range_meters":38800,"station_id":"ce4bhn12rcd13ifvqgpg","pricing_plan_id":"cebpf4jnsgd1na2vs0mg"},{"bike_id":"7465bc4b-7341-47ef-959d-45c0a1d37e4c","system_id":"levelo_inurba_marseille","lat":43.24084,"lon":5.37742,"is_reserved":false,"is_disabled":false,"rental_uris":{"android":"levelo://app?vid=7465bc4b-7341-47ef-959d-45c0a1d37e4c","ios":"levelo://app?vid=7465bc4b-7341-47ef-959d-45c0a1d37e4c"},"vehicle_type_id":"4","last_reported":1731936045,"current_range_meters":24400,"station_id":"ce4bhnp2rcd13ifvqgvg","pricing_plan_id":"cebpf4jnsgd1na2vs0mg"},{"bike_id":"17a74181-4aee-46b7-b313-c61dc5b1e07d","system_id":"levelo_inurba_marseille","lat":43.25106,"lon":5.40318,"is_reserved":false,"is_disabled":false,"rental_uris":{"android":"levelo://app?vid=17a74181-4aee-46b7-b313-c61dc5b1e07d","ios":"levelo://app?vid=17a74181-4aee-46b7-b313-c61dc5b1e07d"},"vehicle_type_id":"4","last_reported":1731936045,"current_range_meters":2800,"station_id":"ce4bhlh2rcd13ifvqgig","pricing_plan_id":"cebpf4jnsgd1na2vs0mg"},{"bike_id":"a3dec5dc-6214-4477-a632-51cb8e80f4eb","system_id":"levelo_inurba_marseille","lat":43.28563,"lon":5.39497,"is_reserved":false,"is_disabled":false,"rental_uris":{"android":"levelo://app?vid=a3dec5dc-6214-4477-a632-51cb8e80f4eb","ios":"levelo://app?vid=a3dec5dc-6214-4477-a632-51cb8e80f4eb"},"vehicle_type_id":"4","last_reported":1731936045,"current_range_meters":27600,"station_id":"ce4bh292rcd13ifvqdg0","pricing_plan_id":"cebpf4jnsgd1na2vs0mg"},{"bike_id":"bd615774-a84f-4db1-9ce7-b7b1b27884d4","system_id":"levelo_inurba_marseille","lat":43.31073,"lon":5.38354,"is_reserved":false,"is_disabled":false,"rental_uris":{"android":"levelo://app?vid=bd615774-a84f-4db1-9ce7-b7b1b27884d4","ios":"levelo://app?vid=bd615774-a84f-4db1-9ce7-b7b1b27884d4"},"vehicle_type_id":"4","last_reported":1731936045,"current_range_meters":36800,"station_id":"ce4bgv92rcd13ifvqcr0","pricing_plan_id":"cebpf4jnsgd1na2vs0mg"},{"bike_id":"038e22aa-b05f-48ed-a64b-dd71c450f9b0","system_id":"levelo_inurba_marseille","lat":43.33602,"lon":5.41036,"is_reserved":false,"is_disabled":false,"rental_uris":{"android":"levelo://app?vid=038e22aa-b05f-48ed-a64b-dd71c450f9b0","ios":"levelo://app?vid=038e22aa-b05f-48ed-a64b-dd71c450f9b0"},"vehicle_type_id":"4","last_reported":1731936045,"current_range_meters":33600,"station_id":"ce4bhqh2rcd13ifvqhmg","pricing_plan_id":"cebpf4jnsgd1na2vs0mg"},{"bike_id":"b1703b23-4d94-488f-a00f-b8dc2d16ddc2","system_id":"levelo_inurba_marseille","lat":43.26559,"lon":5.38997,"is_reserved":false,"is_disabled":false,"rental_uris":{"android":"levelo://app?vid=b1703b23-4d94-488f-a00f-b8dc2d16ddc2","ios":"levelo://app?vid=b1703b23-4d94-488f-a00f-b8dc2d16ddc2"},"vehicle_type_id":"4","last_reported":1731936045,"current_range_meters":17600,"station_id":"ce4bhe12rcd13ifvqf30","pricing_plan_id":"cebpf4jnsgd1na2vs0mg"},{"bike_id":"fcc3bb46-7516-43b0-811a-0a0d7e3d2379","system_id":"levelo_inurba_marseille","lat":43.31227,"lon":5.3686,"is_reserved":false,"is_disabled":false,"rental_uris":{"android":"levelo://app?vid=fcc3bb46-7516-43b0-811a-0a0d7e3d2379","ios":"levelo://app?vid=fcc3bb46-7516-43b0-811a-0a0d7e3d2379"},"vehicle_type_id":"4","last_reported":1731936045,"current_range_meters":38800,"station_id":"ce4bgl92rcd13ifvqbq0","pricing_plan_id":"cebpf4jnsgd1na2vs0mg"},