{"last_updated":1762513762,"ttl":60,"version":"2.2","data":{"bikes":[{"bike_id":"524ec682-9eda-4766-ab30-300116a67d10","system_id":"levelo_inurba_marseille","lat":43.30828,"lon":5.37101,"is_reserved":false,"is_disabled":false,"rental_uris":{"android":"levelo://app?vid=524ec682-9eda-4766-ab30-300116a67d10","ios":"levelo://app?vid=524ec682-9eda-4766-ab30-300116a67d10"},"vehicle_type_id":"4","last_reported":1762513762,"current_range_meters":2800,"station_id":"","pricing_plan_id":"cebpf4jnsgd1na2vs0mg"},{"bike_id":"765b9661-2b24-4c0f-a9fb-732d7409b10c","system_id":"levelo_inurba_marseille","lat":43.21616,"lon":5.34421,"is_reserved":false,"is_disabled":false,"rental_uris":{"android":"levelo://app?vid=765b9661-2b24-4c0f-a9fb-732d7409b10c","ios":"levelo://app?vid=765b9661-2b24-4c0f-a9fb-732d7409b10c"},"vehicle_type_id":"4","last_reported":1762513762,"current_range_meters":2800,"station_id":"","pricing_plan_id":"cebpf4jnsgd1na2vs0mg"},{"bike_id":"2f85cfba-4c43-42c0-b2c5-526968fb8f76","system_id":"levelo_inurba_marseille","lat":43.299689,"lon":5.384842,"is_reserved":false,"is_disabled":false,"rental_uris":{"android":"levelo://app?vid=2f85cfba-4c43-42c0-b2c5-526968fb8f76","ios":"levelo://app?vid=2f85cfba-4c43-42c0-b2c5-526968fb8f76"},"vehicle_type_id":"4","last_reported":1762513762,"current_range_meters":2800,"station_id":"ce4bgj92rcd13ifvqbd0","pricing_plan_id":"cebpf4jnsgd1na2vs0mg"},{"bike_id":"bc77cbcd-203a-49cb-bace-83dcbdcad217","system_id":"levelo_inurba_marseille","lat":43.2781,"lon":5.40712,"is_reserved":false,"is_disabled":false,"rental_uris":{"android":"levelo://app?vid=bc77cbcd-203a-49cb-bace-83dcbdcad217","ios":"levelo://app?vid=bc77cbcd-203a-49cb-bace-83dcbdcad217"},"vehicle_type_id":"4","last_reported":1762513762,"current_range_meters":2800,"station_id":"ce4bhnh2rcd13ifvqgtg","pricing_plan_id":"cebpf4jnsgd1na2vs0mg"},{"bike_id":"e7002296-a724-4792-9c77-9aa7da662e7d","system_id":"levelo_inurba_marseille","lat":43.29752,"lon":5.36248,"is_reserved":false,"is_disabled":false,"rental_uris":{"android":"levelo://app?vid=e7002296-a724-4792-9c77-9aa7da662e7d","ios":"levelo://app?vid=e7002296-a724-4792-9c77-9aa7da662e7d"},"vehicle_type_id":"4","last_reported":1762513762,"current_range_meters":2800,"station_id":"","pricing_plan_id":"cebpf4jnsgd1na2vs0mg"},{"bike_id":"b0980694-f6f1-4d8c-85b3-e9837a238966","system_id":"levelo_inurba_marseille","lat":43.23177,"lon":5.39989,"is_reserved":false,"is_disabled":false,"rental_uris":{"android":"levelo://app?vid=b0980694-f6f1-4d8c-85b3-e9837a238966","ios":"levelo://app?vid=b0980694-f6f1-4d8c-85b3-e9837a238966"},"vehicle_type_id":"4","last_reported":1762513762,"current_range_meters":2800,"station_id":"ce4bhn12rcd13ifvqgqg","pricing_plan_id":"cebpf4jnsgd1na2vs0mg"},{"bike_id":"be35adea-aa4e-429a-b235-707eab222fa2","system_id":"levelo_inurba_marseille","lat":43.28268,"lon":5.35051,"is_reserved":false,"is_disabled":true,"rental_uris":{"android":"levelo://app?vid=be35adea-aa4e-429a-b235-707eab222fa2","ios":"levelo://app?vid=be35adea-aa4e-429a-b235-707eab222fa2"},"vehicle_type_id":"4","last_reported":1762513762,"current_range_meters":3200,"station_id":"ce4bhbp2rcd13ifvqerg","pricing_plan_id":"cebpf4jnsgd1na2vs0mg"},{"bike_id":"465b5eba-4360-4606-8392-e5b71aa8e59c","system_id":"levelo_inurba_marseille","lat":43.29539,"lon":5.37496,"is_reserved":false,"is_disabled":false,"rental_uris":{"android":"levelo://app?vid=465b5eba-4360-4606-8392-e5b71aa8e59c","ios":"levelo://app?vid=465b5eba-4360-4606-8392-e5b71aa8e59c"},"vehicle_type_id":"4","last_reported":1762513762,"current_range_meters":3200,"station_id":"ce4bgkp2rcd13ifvqbmg","pricing_plan_id":"cebpf4jnsgd1na2vs0mg"},{"bike_id":"074b7785-ce8d-4bc8-a416-9c80197daf90","system_id":"levelo_inurba_marseille","lat":43.307983,"lon":5.381579,"is_reserved":false,"is_disabled":false,"rental_uris":{"android":"levelo://app?vid=074b7785-ce8d-4bc8-a416-9c80197daf90","ios":"levelo://app?vid=074b7785-ce8d-4bc8-a416-9c80197daf90"},"vehicle_type_id":"4","last_reported":1762513762,"current_range_meters":3200,"station_id":"ce4bgt12rcd13ifvqce0","pricing_plan_id":"cebpf4jnsgd1na2vs0mg"},{"bike_id":"571bd3a6-912b-44a3-9841-50c558a61481","system_id":"levelo_inurba_marseille","lat":43.28084,"lon":5.40553,"is_reserved":false,"is_disabled":false,"rental_uris":{"android":"levelo://app?vid=571bd3a6-912b-44a3-9841-50c558a61481","ios":"levelo://app?vid=571bd3a6-912b-44a3-9841-50c558a61481"},"vehicle_type_id":"4","last_reported":1762513762,"current_range_meters":4000,"station_id":"","pricing_plan_id":"cebpf4jnsgd1na2vs0mg"},{"bike_id":"352ac629-fb15-4ad3-b00a-3470d66f5197","system_id":"levelo_inurba_marseille","lat":43.3047,"lon":5.37901,"is_reserved":false,"is_disabled":false,"rental_uris":{"android":"levelo://app?vid=352ac629-fb15-4ad3-b00a-3470d66f5197","ios":"levelo://app?vid=352ac629-fb15-4ad3-b00a-3470d66f5197"},"vehicle_type_id":"4","last_reported":1762513762,"current_range_meters":4000,"station_id":"ce4bgup2rcd13ifvqcn0","pricing_plan_id":"cebpf4jnsgd1na2vs0mg"},{"bike_id":"4c346ebf-5833-49a9-8275-2a62cb5af7fa","system_id":"levelo_inurba_marseille","lat":43.278294,"lon":5.392307,"is_reserved":false,"is_disabled":false,"rental_uris":{"android":"levelo://app?vid=4c346ebf-5833-49a9-8275-2a62cb5af7fa","ios":"levelo://app?vid=4c346ebf-5833-49a9-8275-2a62cb5af7fa"},"vehicle_type_id":"4","last_reported":1762513762,"current_range_meters":4000,"station_id":"ce4bhjp2rcd13ifvqga0","pricing_plan_id":"cebpf4jnsgd1na2vs0mg"},{"bike_id":"28acdc45-59c8-465c-9610-94ab4c3c61c9","system_id":"levelo_inurba_marseille","lat":43.284723,"lon":5.484027,"is_reserved":false,"is_disabled":false,"rental_uris":{"android":"levelo://app?vid=28acdc45-59c8-465c-9610-94ab4c3c61c9","ios":"levelo://app?vid=28acdc45-59c8-465c-9610-94ab4c3c61c9"},"vehicle_type_id":"4","last_reported":1762513762,"current_range_meters":4400,"station_id":"st_d3svhcjqgbts73a3dn0g","pricing_plan_id":"cebpf4jnsgd1na2vs0mg"},{"bike_id":"a25b06a8-6121-4f4c-b829-5c38b7885080","system_id":"levelo_inurba_marseille","lat":43.25488,"lon":5.37635,"is_reserved":false,"is_disabled":false,"rental_uris":{"android":"levelo://app?vid=a25b06a8-6121-4f4c-b829-5c38b7885080","ios":"levelo://app?vid=a25b06a8-6121-4f4c-b829-5c38b7885080"},"vehicle_type_id":"4","last_reported":1762513762,"current_range_meters":4400,"station_id":"ce4bhh12rcd13ifvqff0","pricing_plan_id":"cebpf4jnsgd1na2vs0mg"},{"bike_id":"2cfcdfac-4400-4cc0-8d4b-f0a6de641271","system_id":"levelo_inurba_marseille","lat":43.29923,"lon":5.37495,"is_reserved":false,"is_disabled":false,"rental_uris":{"android":"levelo://app?vid=2cfcdfac-4400-4cc0-8d4b-f0a6de641271","ios":"levelo://app?vid=2cfcdfac-4400-4cc0-8d4b-f0a6de641271"},"vehicle_type_id":"4","last_reported":1762513762,"current_range_meters":4400,"station_id":"ce4bgjh2rcd13ifvqbg0","pricing_plan_id":"cebpf4jnsgd1na2vs0mg"},{"bike_id":"8ee0f0be-cdc1-48eb-8005-e3e6defa0f2c","system_id":"levelo_inurba_marseille","lat":43.292661,"lon":5.384417,"is_reserved":false,"is_disabled":false,"rental_uris":{"android":"levelo://app?vid=8ee0f0be-cdc1-48eb-8005-e3e6defa0f2c","ios":"levelo://app?vid=8ee0f0be-cdc1-48eb-8005-e3e6defa0f2c"},"vehicle_type_id":"4","last_reported":1762513762,"current_range_meters":4400,"station_id":"ce4bh692rcd13ifvqea0","pricing_plan_id":"cebpf4jnsgd1na2vs0mg"},{"bike_id":"eac46d2d-3859-4447-a19e-a619058f5dc8","system_id":"levelo_inurba_marseille","lat":43.289917,"lon":5.378287,"is_reserved":false,"is_disabled":false,"rental_uris":{"android":"levelo://app?vid=eac46d2d-3859-4447-a19e-a619058f5dc8","ios":"levelo://app?vid=eac46d2d-3859-4447-a19e-a619058f5dc8"},"vehicle_type_id":"4","last_reported":1762513762,"current_range_meters":4800,"station_id":"ce4bh9p2rcd13ifvqed0","pricing_plan_id":"cebpf4jnsgd1na2vs0mg"},{"bike_id":"d3a8c452-bd73-4909-9cfe-f1c0285f3d0c","system_id":"levelo_inurba_marseille","lat":43.284792,"lon":5.484009,"is_reserved":false,"is_disabled":false,"rental_uris":{"android":"levelo://app?vid=d3a8c452-bd73-4909-9cfe-f1c0285f3d0c","ios":"levelo://app?vid=d3a8c452-bd73-4909-9cfe-f1c0285f3d0c"},"vehicle_type_id":"4","last_reported":1762513762,"current_range_meters":5600,"station_id":"","pricing_plan_id":"cebpf4jnsgd1na2vs0mg"},{"bike_id":"d4aebd78-b173-477a-a588-6f507adb87b2","system_id":"levelo_inurba_marseille","lat":43.299663,"lon":5.384836,"is_reserved":false,"is_disabled":false,"rental_uris":{"android":"levelo://app?vid=d4aebd78-b173-477a-a588-6f507adb87b2","ios":"levelo://app?vid=d4aebd78-b173-477a-a588-6f507adb87b2"},"vehicle_type_id":"4","last_reported":1762513762,"current_range_meters":5600,"station_id":"ce4bgj92rcd13ifvqbd0","pricing_plan_id":"cebpf4jnsgd1na2vs0mg"},{"bike_id":"93a4117d-edac-44d1-aff9-6d3c594cff22","system_id":"levelo_inurba_marseille","lat":43.29028,"lon":5.38134,"is_reserved":false,"is_disabled":false,"rental_uris":{"android":"levelo://app?vid=93a4117d-edac-44d1-aff9-6d3c594cff22","ios":"levelo://app?vid=93a4117d-edac-44d1-aff9-6d3c594cff22"},"vehicle_type_id":"4","last_reported":1762513762,"current_range_meters":5600,"station_id":"ce4bh4p2rcd13ifvqe1g","pricing_plan_id":"cebpf4jnsgd1na2vs0mg"},{"bike_id":"217bfb2f-1fa7-4fb7-989e-4059d5f94d24","system_id":"levelo_inurba_marseille","lat":43.33756,"lon":5.37451,"is_reserved":false,"is_disabled":false,"rental_uris":{"android":"levelo://app?vid=217bfb2f-1fa7-4fb7-989e-4059d5f94d24","ios":"levelo://app?vid=217bfb2f-1fa7-4fb7-989e-4059d5f94d24"},"vehicle_type_id":"4","last_reported":1762513762,"current_range_meters":5600,"station_id":"","pricing_plan_id":"cebpf4jnsgd1na2vs0mg"},{"bike_id":"372dc50c-6f19-4ddc-a215-0291b79b7415","system_id":"levelo_inurba_marseille","lat":43.29281,"lon":5.36848,"is_reserved":false,"is_disabled":false,"rental_uris":{"android":"levelo://app?vid=372dc50c-6f19-4ddc-a215-0291b79b7415","ios":"levelo://app?vid=372dc50c-6f19-4ddc-a215-0291b79b7415"},"vehicle_type_id":"4","last_reported":1762513762,"current_range_meters":5600,"station_id":"ce4bhbp2rcd13ifvqesg","pricing_plan_id":"cebpf4jnsgd1na2vs0mg"},{"bike_id":"00065666-b382-40c8-87f2-d52ded706b03","system_id":"levelo_inurba_marseille","lat":43.30203,"lon":5.39196,"is_reserved":false,"is_disabled":false,"rental_uris":{"android":"levelo://app?vid=00065666-b382-40c8-87f2-d52ded706b03","ios":"levelo://app?vid=00065666-b382-40c8-87f2-d52ded706b03"},"vehicle_type_id":"4","last_reported":1762513762,"current_range_meters":6400,"station_id":"","pricing_plan_id":"cebpf4jnsgd1na2vs0mg"},{"bike_id":"b7bacdc8-fe24-419d-a1a7-194cc9df7143","system_id":"levelo_inurba_marseille","lat":43.249907,"lon":5.389371,"is_reserved":false,"is_disabled":false,"rental_uris":{"android":"levelo://app?vid=b7bacdc8-fe24-419d-a1a7-194cc9df7143","ios":"levelo://app?vid=b7bacdc8-fe24-419d-a1a7-194cc9df7143"},"vehicle_type_id":"4","last_reported":1762513762,"current_range_meters":6400,"station_id":"ce4bhgp2rcd13ifvqfd0","pricing_plan_id":"cebpf4jnsgd1na2vs0mg"},{"bike_id":"4d410a7a-534a-4d2b-a3c1-c0acc6c3eb38","system_id":"levelo_inurba_marseille","lat":43.25491,"lon":5.37647,"is_reserved":false,"is_disabled":false,"rental_uris":{"android":"levelo://app?vid=4d410a7a-534a-4d2b-a3c1-c0acc6c3eb38","ios":"levelo://app?vid=4d410a7a-534a-4d2b-a3c1-c0acc6c3eb38"},"vehicle_type_id":"4","last_reported":1762513762,"current_range_meters":6400,"station_id":"ce4bhh12rcd13ifvqff0","pricing_plan_id":"cebpf4jnsgd1na2vs0mg"},{"bike_id":"2a73bc77-0d24-43f5-a916-7f04bdadea68","system_id":"levelo_inurba_marseille","lat":43.28718,"lon":5.37942,"is_reserved":false,"is_disabled":false,"rental_uris":{"android":"levelo://app?vid=2a73bc77-0d24-43f5-a916-7f04bdadea68","ios":"levelo://app?vid=2a73bc77-0d24-43f5-a916-7f04bdadea68"},"vehicle_type_id":"4","last_reported":1762513762,"current_range_meters":6800,"station_id":"ce4bh9p2rcd13ifvqec0","pricing_plan_id":"cebpf4jnsgd1na2vs0mg"},{"bike_id":"81dcc136-dea2-46c0-98af-42dbdee92b54","system_id":"levelo_inurba_marseille","lat":43.28477,"lon":5.48388,"is_reserved":false,"is_disabled":false,"rental_uris":{"android":"levelo://app?vid=81dcc136-dea2-46c0-98af-42dbdee92b54","ios":"levelo://app?vid=81dcc136-dea2-46c0-98af-42dbdee92b54"},"vehicle_type_id":"4","last_reported":1762513762,"current_range_meters":6800,"station_id":"","pricing_plan_id":"cebpf4jnsgd1na2vs0mg"},{"bike_id":"6e9601c8-3a9b-4c4f-8a50-e778f7d9a229","system_id":"levelo_inurba_marseille","lat":43.29942,"lon":5.36558,"is_reserved":false,"is_disabled":false,"rental_uris":{"android":"levelo://app?vid=6e9601c8-3a9b-4c4f-8a50-e778f7d9a229","ios":"levelo://app?vid=6e9601c8-3a9b-4c4f-8a50-e778f7d9a229"},"vehicle_type_id":"4","last_reported":1762513762,"current_range_meters":7200,"station_id":"ce4bgm92rcd13ifvqbr0","pricing_plan_id":"cebpf4jnsgd1na2vs0mg"},{"bike_id":"1dec8428-2261-4269-a50b-741976a23829","system_id":"levelo_inurba_marseille","lat":43.243845,"lon":5.370585,"is_reserved":false,"is_disabled":false,"rental_uris":{"android":"levelo://app?vid=1dec8428-2261-4269-a50b-741976a23829","ios":"levelo://app?vid=1dec8428-2261-4269-a50b-741976a23829"},"vehicle_type_id":"4","last_reported":1762513762,"current_range_meters":7200,"station_id":"ce4bhhh2rcd13ifvqfk0","pricing_plan_id":"cebpf4jnsgd1na2vs0mg"},{"bike_id":"faf02dba-a063-4be7-b738-20d510b602ef","system_id":"levelo_inurba_marseille","lat":43.29841,"lon":5.38245,"is_reserved":false,"is_disabled":false,"rental_uris":{"android":"levelo://app?vid=faf02dba-a063-4be7-b738-20d510b602ef","ios":"levelo://app?vid=faf02dba-a063-4be7-b738-20d510b602ef"},"vehicle_type_id":"4","last_reported":1762513762,"current_range_meters":7200,"station_id":"","pricing_plan_id":"cebpf4jnsgd1na2vs0mg"},{"bike_id":"96306dd0-6186-4df1-be02-092bb7721958","system_id":"levelo_inurba_marseille","lat":43.29264,"lon":5.38434,"is_reserved":false,"is_disabled":false,"rental_uris":{"android":"levelo://app?vid=96306dd0-6186-4df1-be02-092bb7721958","ios":"levelo://app?vid=96306dd0-6186-4df1-be02-092bb7721958"},"vehicle_type_id":"4","last_reported":1762513762,"current_range_meters":8000,"station_id":"ce4bh692rcd13ifvqea0","pricing_plan_id":"cebpf4jnsgd1na2vs0mg"},{"bike_id":"74a83f19-4620-4517-be1e-697db6f72f0b","system_id":"levelo_inurba_marseille","lat":43.32355,"lon":5.36747,"is_reserved":false,"is_disabled":false,"rental_uris":{"android":"levelo://app?vid=74a83f19-4620-4517-be1e-697db6f72f0b","ios":"levelo://app?vid=74a83f19-4620-4517-be1e-697db6f72f0b"},"vehicle_type_id":"4","last_reported":1762513762,"current_range_meters":8000,"station_id":"ce4bhsh2rcd13ifvqi2g","pricing_plan_id":"cebpf4jnsgd1na2vs0mg"},{"bike_id":"78a2ab8f-4f7c-4ddc-9701-1001c917a1ce","system_id":"levelo_inurba_marseille","lat":43.28523,"lon":5.44113,"is_reserved":false,"is_disabled":true,"rental_uris":{"android":"levelo://app?vid=78a2ab8f-4f7c-4ddc-9701-1001c917a1ce","ios":"levelo://app?vid=78a2ab8f-4f7c-4ddc-9701-1001c917a1ce"},"vehicle_type_id":"4","last_reported":1762513762,"current_range_meters":8000,"station_id":"st_d3j3df2ikq2c7380ej80","pricing_plan_id":"cebpf4jnsgd1na2vs0mg"},{"bike_id":"e1449af7-cbf8-41d5-8ad7-1db1116752a4","system_id":"levelo_inurba_marseille","lat":43.3135,"lon":5.36727,"is_reserved":false,"is_disabled":false,"rental_uris":{"android":"levelo://app?vid=e1449af7-cbf8-41d5-8ad7-1db1116752a4","ios":"levelo://app?vid=e1449af7-cbf8-41d5-8ad7-1db1116752a4"},"vehicle_type_id":"4","last_reported":1762513762,"current_range_meters":8000,"station_id":"ce4bgr92rcd13ifvqc6g","pricing_plan_id":"cebpf4jnsgd1na2vs0mg"},{"bike_id":"c18ff58b-083c-4c97-8365-1f2bac009010","system_id":"levelo_inurba_marseille","lat":43.2677,"lon":5.39418,"is_reserved":false,"is_disabled":false,"rental_uris":{"android":"levelo://app?vid=c18ff58b-083c-4c97-8365-1f2bac009010","ios":"levelo://app?vid=c18ff58b-083c-4c97-8365-1f2bac009010"},"vehicle_type_id":"4","last_reported":1762513762,"current_range_meters":8000,"station_id":"ce4bhh12rcd13ifvqfg0","pricing_plan_id":"cebpf4jnsgd1na2vs0mg"},{"bike_id":"71967476-752a-4f5e-b222-99c0eea95f39","system_id":"levelo_inurba_marseille","lat":43.32323,"lon":5.38409,"is_reserved":false,"is_disabled":false,"rental_uris":{"android":"levelo://app?vid=71967476-752a-4f5e-b222-99c0eea95f39","ios":"levelo://app?vid=71967476-752a-4f5e-b222-99c0eea95f39"},"vehicle_type_id":"4","last_reported":1762513762,"current_range_meters":8400,"station_id":"","pricing_plan_id":"cebpf4jnsgd1na2vs0mg"},{"bike_id":"e233d6b8-b966-4164-a505-0f6eb1052d7e","system_id":"levelo_inurba_marseille","lat":43.31323,"lon":5.39686,"is_reserved":false,"is_disabled":false,"rental_uris":{"android":"levelo://app?vid=e233d6b8-b966-4164-a505-0f6eb1052d7e","ios":"levelo://app?vid=e233d6b8-b966-4164-a505-0f6eb1052d7e"},"vehicle_type_id":"4","last_reported":1762513762,"current_range_meters":8800,"station_id":"ce4bgvp2rcd13ifvqcu0","pricing_plan_id":"cebpf4jnsgd1na2vs0mg"},{"bike_id":"3ffe2c7b-f27f-49bd-95c3-0ecfbf0880d2","system_id":"levelo_inurba_marseille","lat":43.30704,"lon":5.38425,"is_reserved":false,"is_disabled":false,"rental_uris":{"android":"levelo://app?vid=3ffe2c7b-f27f-49bd-95c3-0ecfbf0880d2","ios":"levelo://app?vid=3ffe2c7b-f27f-49bd-95c3-0ecfbf0880d2"},"vehicle_type_id":"4","last_reported":1762513762,"current_range_meters":8800,"station_id":"","pricing_plan_id":"cebpf4jnsgd1na2vs0mg"},{"bike_id":"4da03930-8c35-4e18-be84-bd4506946b1b","system_id":"levelo_inurba_marseille","lat":43.33598,"lon":5.41013,"is_reserved":false,"is_disabled":false,"rental_uris":{"android":"levelo://app?vid=4da03930-8c35-4e18-be84-bd4506946b1b","ios":"levelo://app?vid=4da03930-8c35-4e18-be84-bd4506946b1b"},"vehicle_type_id":"4","last_reported":1762513762,"current_range_meters":8800,"station_id":"ce4bhqh2rcd13ifvqhmg","pricing_plan_id":"cebpf4jnsgd1na2vs0mg"},{"bike_id":"aaae0757-6e46-44cd-b97d-2329b9c1f404","system_id":"levelo_inurba_marseille","lat":43.29627,"lon":5.40595,"is_reserved":false,"is_disabled":false,"rental_uris":{"android":"levelo://app?vid=aaae0757-6e46-44cd-b97d-2329b9c1f404","ios":"levelo://app?vid=aaae0757-6e46-44cd-b97d-2329b9c1f404"},"vehicle_type_id":"4","last_reported":1762513762,"current_range_meters":8800,"station_id":"ce4bh0h2rcd13ifvqd60","pricing_plan_id":"cebpf4jnsgd1na2vs0mg"},{"bike_id":"3e8de995-2dda-46d6-b7c3-d20518d44708","system_id":"levelo_inurba_marseille","lat":43.33597,"lon":5.41002,"is_reserved":false,"is_disabled":false,"rental_uris":{"android":"levelo://app?vid=3e8de995-2dda-46d6-b7c3-d20518d44708","ios":"levelo://app?vid=3e8de995-2dda-46d6-b7c3-d20518d44708"},"vehicle_type_id":"4","last_reported":1762513762,"current_range_meters":9200,"station_id":"ce4bhqh2rcd13ifvqhmg","pricing_plan_id":"cebpf4jnsgd1na2vs0mg"},{"bike_id":"ab3a4d6b-b442-44b9-8f02-c1c222f445ba","system_id":"levelo_inurba_marseille","lat":43.27455,"lon":5.39266,"is_reserved":false,"is_disabled":false,"rental_uris":{"android":"levelo://app?vid=ab3a4d6b-b442-44b9-8f02-c1c222f445ba","ios":"levelo://app?vid=ab3a4d6b-b442-44b9-8f02-c1c222f445ba"},"vehicle_type_id":"4","last_reported":1762513762,"current_range_meters":9200,"station_id":"","pricing_plan_id":"cebpf4jnsgd1na2vs0mg"},{"bike_id":"b7407f15-5d9e-4ed9-83dc-bf8732ec5075","system_id":"levelo_inurba_marseille","lat":43.28722,"lon":5.36082,"is_reserved":false,"is_disabled":false,"rental_uris":{"android":"levelo://app?vid=b7407f15-5d9e-4ed9-83dc-bf8732ec5075","ios":"levelo://app?vid=b7407f15-5d9e-4ed9-83dc-bf8732ec5075"},"vehicle_type_id":"4","last_reported":1762513762,"current_range_meters":9200,"station_id":"cki0cbj6b192h4jlfktg","pricing_plan_id":"cebpf4jnsgd1na2vs0mg"},{"bike_id":"24eac959-c47d-43d5-8d89-6896927eb733","system_id":"levelo_inurba_marseille","lat":43.24801,"lon":5.37452,"is_reserved":false,"is_disabled":false,"rental_uris":{"android":"levelo://app?vid=24eac959-c47d-43d5-8d89-6896927eb733","ios":"levelo://app?vid=24eac959-c47d-43d5-8d89-6896927eb733"},"vehicle_type_id":"4","last_reported":1762513762,"current_range_meters":9200,"station_id":"ce4bhgh2rcd13ifvqfb0","pricing_plan_id":"cebpf4jnsgd1na2vs0mg"},{"bike_id":"59b31ef2-3fe3-46e5-b5a5-685f264695ce","system_id":"levelo_inurba_marseille","lat":43.284795,"lon":5.483979,"is_reserved":false,"is_disabled":false,"rental_uris":{"android":"levelo://app?vid=59b31ef2-3fe3-46e5-b5a5-685f264695ce","ios":"levelo://app?vid=59b31ef2-3fe3-46e5-b5a5-685f264695ce"},"vehicle_type_id":"4","last_reported":1762513762,"current_range_meters":9200,"station_id":"","pricing_plan_id":"cebpf4jnsgd1na2vs0mg"},{"bike_id":"957dedc2-44bd-40ee-a718-ca0ffd0efaef","system_id":"levelo_inurba_marseille","lat":43.27664,"lon":5.38918,"is_reserved":false,"is_disabled":true,"rental_uris":{"android":"levelo://app?vid=957dedc2-44bd-40ee-a718-ca0ffd0efaef","ios":"levelo://app?vid=957dedc2-44bd-40ee-a718-ca0ffd0efaef"},"vehicle_type_id":"4","last_reported":1762513762,"current_range_meters":9600,"station_id":"ce4bhi12rcd13ifvqfo0","pricing_plan_id":"cebpf4jnsgd1na2vs0mg"},{"bike_id":"30c6b425-6ae6-43f9-a0a7-f7d4a6ed93cd","system_id":"levelo_inurba_marseille","lat":43.27931,"lon":5.411382,"is_reserved":false,"is_disabled":false,"rental_uris":{"android":"levelo://app?vid=30c6b425-6ae6-43f9-a0a7-f7d4a6ed93cd","ios":"levelo://app?vid=30c6b425-6ae6-43f9-a0a7-f7d4a6ed93cd"},"vehicle_type_id":"4","last_reported":1762513762,"current_range_meters":9600,"station_id":"","pricing_plan_id":"cebpf4jnsgd1na2vs0mg"},{"bike_id":"10657a44-37f6-4bdf-8805-88431e192468","system_id":"levelo_inurba_marseille","lat":43.29032,"lon":5.37568,"is_reserved":false,"is_disabled":false,"rental_uris":{"android":"levelo://app?vid=10657a44-37f6-4bdf-8805-88431e192468","ios":"levelo://app?vid=10657a44-37f6-4bdf-8805-88431e192468"},"vehicle_type_id":"4","last_reported":1762513762,"current_range_meters":9600,"station_id":"ce4bh692rcd13ifvqe90","pricing_plan_id":"cebpf4jnsgd1na2vs0mg"},{"bike_id":"319ffc4e-7711-40e6-a5bd-4d90d7a995da","system_id":"levelo_inurba_marseille","lat":43.31083,"lon":5.42427,"is_reserved":false,"is_disabled":false,"rental_uris":{"android":"levelo://app?vid=319ffc4e-7711-40e6-a5bd-4d90d7a995da","ios":"levelo://app?vid=319ffc4e-7711-40e6-a5bd-4d90d7a995da"},"vehicle_type_id":"4","last_reported":1762513762,"current_range_meters":9600,"station_id":"ce4bhp92rcd13ifvqhag","pricing_plan_id":"cebpf4jnsgd1na2vs0mg"},{"bike_id":"85ca7747-9bbb-45ad-b459-24bd05130175","system_id":"levelo_inurba_marseille","lat":43.2929,"lon":5.37453,"is_reserved":false,"is_disabled":false,"rental_uris":{"android":"levelo://app?vid=85ca7747-9bbb-45ad-b459-24bd05130175","ios":"levelo://app?vid=85ca7747-9bbb-45ad-b459-24bd05130175"},"vehicle_type_id":"4","last_reported":1762513762,"current_range_meters":10000,"station_id":"ce4bgi12rcd13ifvqb70","pricing_plan_id":"cebpf4jnsgd1na2vs0mg"},{"bike_id":"62b597ad-0183-45ab-83ea-6b1f25540269","system_id":"levelo_inurba_marseille","lat":43.32747,"lon":5.45191,"is_reserved":false,"is_disabled":false,"rental_uris":{"android":"levelo://app?vid=62b597ad-0183-45ab-83ea-6b1f25540269","ios":"levelo://app?vid=62b597ad-0183-45ab-83ea-6b1f25540269"},"vehicle_type_id":"4","last_reported":1762513762,"current_range_meters":10000,"station_id":"","pricing_plan_id":"cebpf4jnsgd1na2vs0mg"},{"bike_id":"1c1406c3-ccbf-4c7e-948d-af3d562996c8","system_id":"levelo_inurba_marseille","lat":43.298229,"lon":5.440688,"is_reserved":false,"is_disabled":false,"rental_uris":{"android":"levelo://app?vid=1c1406c3-ccbf-4c7e-948d-af3d562996c8","ios":"levelo://app?vid=1c1406c3-ccbf-4c7e-948d-af3d562996c8"},"vehicle_type_id":"4","last_reported":1762513762,"current_range_meters":10800,"station_id":"st_d3jp68qikq2c7381ktn0","pricing_plan_id":"cebpf4jnsgd1na2vs0mg"},{"bike_id":"1e89aa19-8456-4398-b70e-ce2874dd6d89","system_id":"levelo_inurba_marseille","lat":43.215552,"lon":5.344649,"is_reserved":false,"is_disabled":false,"rental_uris":{"android":"levelo://app?vid=1e89aa19-8456-4398-b70e-ce2874dd6d89","ios":"levelo://app?vid=1e89aa19-8456-4398-b70e-ce2874dd6d89"},"vehicle_type_id":"4","last_reported":1762513762,"current_range_meters":10800,"station_id":"","pricing_plan_id":"cebpf4jnsgd1na2vs0mg"},{"bike_id":"f9a84438-123e-4caa-9547-9df9964b1ae5","system_id":"levelo_inurba_marseille","lat":43.33599,"lon":5.41019,"is_reserved":false,"is_disabled":false,"rental_uris":{"android":"levelo://app?vid=f9a84438-123e-4caa-9547-9df9964b1ae5","ios":"levelo://app?vid=f9a84438-123e-4caa-9547-9df9964b1ae5"},"vehicle_type_id":"4","last_reported":1762513762,"current_range_meters":10800,"station_id":"ce4bhqh2rcd13ifvqhmg","pricing_plan_id":"cebpf4jnsgd1na2vs0mg"},{"bike_id":"0e20a5d9-0ab3-4e71-a3ef-c9be28fc5551","system_id":"levelo_inurba_marseille","lat":43.28536,"lon":5.44105,"is_reserved":false,"is_disabled":false,"rental_uris":{"android":"levelo://app?vid=0e20a5d9-0ab3-4e71-a3ef-c9be28fc5551","ios":"levelo://app?vid=0e20a5d9-0ab3-4e71-a3ef-c9be28fc5551"},"vehicle_type_id":"4","last_reported":1762513762,"current_range_meters":10800,"station_id":"st_d3j3df2ikq2c7380ej80","pricing_plan_id":"cebpf4jnsgd1na2vs0mg"},{"bike_id":"acd11f1f-a797-4d8a-ac97-7cfd85277af2","system_id":"levelo_inurba_marseille","lat":43.22931,"lon":5.35381,"is_reserved":false,"is_disabled":false,"rental_uris":{"android":"levelo://app?vid=acd11f1f-a797-4d8a-ac97-7cfd85277af2","ios":"levelo://app?vid=acd11f1f-a797-4d8a-ac97-7cfd85277af2"},"vehicle_type_id":"4","last_reported":1762513762,"current_range_meters":10800,"station_id":"cpo3532slgdg3j2ikp40","pricing_plan_id":"cebpf4jnsgd1na2vs0mg"},{"bike_id":"81c176cb-3f38-4f06-8196-5e14f46cabff","system_id":"levelo_inurba_marseille","lat":43.30276,"lon":5.37697,"is_reserved":false,"is_disabled":false,"rental_uris":{"android":"levelo://app?vid=81c176cb-3f38-4f06-8196-5e14f46cabff","ios":"levelo://app?vid=81c176cb-3f38-4f06-8196-5e14f46cabff"},"vehicle_type_id":"4","last_reported":1762513762,"current_range_meters":10800,"station_id":"ce4bguh2rcd13ifvqcj0","pricing_plan_id":"cebpf4jnsgd1na2vs0mg"},{"bike_id":"914a2e1a-2991-4222-9447-62700b65f4b6","system_id":"levelo_inurba_marseille","lat":43.30295,"lon":5.39193,"is_reserved":false,"is_disabled":false,"rental_uris":{"android":"levelo://app?vid=914a2e1a-2991-4222-9447-62700b65f4b6","ios":"levelo://app?vid=914a2e1a-2991-4222-9447-62700b65f4b6"},"vehicle_type_id":"4","last_reported":1762513762,"current_range_meters":10800,"station_id":"ce4bgkh2rcd13ifvqbk0","pricing_plan_id":"cebpf4jnsgd1na2vs0mg"},{"bike_id":"0990d13d-02e1-4e54-9d32-bff81dbbfd6f","system_id":"levelo_inurba_marseille","lat":43.30138,"lon":5.37388,"is_reserved":false,"is_disabled":false,"rental_uris":{"android":"levelo://app?vid=0990d13d-02e1-4e54-9d32-bff81dbbfd6f","ios":"levelo://app?vid=0990d13d-02e1-4e54-9d32-bff81dbbfd6f"},"vehicle_type_id":"4","last_reported":1762513762,"current_range_meters":11200,"station_id":"ce4bgs92rcd13ifvqcc0","pricing_plan_id":"cebpf4jnsgd1na2vs0mg"},{"bike_id":"fdef9327-beed-4f50-bbb2-578ade70fe76","system_id":"levelo_inurba_marseille","lat":43.29757,"lon":5.42763,"is_reserved":false,"is_disabled":false,"rental_uris":{"android":"levelo://app?vid=fdef9327-beed-4f50-bbb2-578ade70fe76","ios":"levelo://app?vid=fdef9327-beed-4f50-bbb2-578ade70fe76"},"vehicle_type_id":"4","last_reported":1762513762,"current_range_meters":11200,"station_id":"st_d3md5207bmas73dh9klg","pricing_plan_id":"cebpf4jnsgd1na2vs0mg"},{"bike_id":"711b5184-06a1-46c6-b1ad-270408b914a4","system_id":"levelo_inurba_marseille","lat":43.30004,"lon":5.40961,"is_reserved":false,"is_disabled":false,"rental_uris":{"android":"levelo://app?vid=711b5184-06a1-46c6-b1ad-270408b914a4","ios":"levelo://app?vid=711b5184-06a1-46c6-b1ad-270408b914a4"},"vehicle_type_id":"4","last_reported":1762513762,"current_range_meters":11600,"station_id":"","pricing_plan_id":"cebpf4jnsgd1na2vs0mg"},{"bike_id":"735af335-66bf-4340-87fb-78f795989dcc","system_id":"levelo_inurba_marseille","lat":43.299156,"lon":5.382349,"is_reserved":false,"is_disabled":false,"rental_uris":{"android":"levelo://app?vid=735af335-66bf-4340-87fb-78f795989dcc","ios":"levelo://app?vid=735af335-66bf-4340-87fb-78f795989dcc"},"vehicle_type_id":"4","last_reported":1762513762,"current_range_meters":11600,"station_id":"","pricing_plan_id":"cebpf4jnsgd1na2vs0mg"},{"bike_id":"d1bbb5f0-cf42-426f-abdf-6a29b0afff81","system_id":"levelo_inurba_marseille","lat":43.32283,"lon":5.38278,"is_reserved":false,"is_disabled":false,"rental_uris":{"android":"levelo://app?vid=d1bbb5f0-cf42-426f-abdf-6a29b0afff81","ios":"levelo://app?vid=d1bbb5f0-cf42-426f-abdf-6a29b0afff81"},"vehicle_type_id":"4","last_reported":1762513762,"current_range_meters":12000,"station_id":"ce4bhr12rcd13ifvqhqg","pricing_plan_id":"cebpf4jnsgd1na2vs0mg"},{"bike_id":"8f01e68a-0a05-4db6-b791-b8beaba42366","system_id":"levelo_inurba_marseille","lat":43.29788,"lon":5.38078,"is_reserved":false,"is_disabled":false,"rental_uris":{"android":"levelo://app?vid=8f01e68a-0a05-4db6-b791-b8beaba42366","ios":"levelo://app?vid=8f01e68a-0a05-4db6-b791-b8beaba42366"},"vehicle_type_id":"4","last_reported":1762513762,"current_range_meters":12000,"station_id":"ce4bgip2rcd13ifvqbb0","pricing_plan_id":"cebpf4jnsgd1na2vs0mg"},{"bike_id":"b6d6ed38-4c87-427d-b530-709237f9a962","system_id":"levelo_inurba_marseille","lat":43.2315,"lon":5.437057,"is_reserved":false,"is_disabled":false,"rental_uris":{"android":"levelo://app?vid=b6d6ed38-4c87-427d-b530-709237f9a962","ios":"levelo://app?vid=b6d6ed38-4c87-427d-b530-709237f9a962"},"vehicle_type_id":"4","last_reported":1762513762,"current_range_meters":12000,"station_id":"ce4bhmp2rcd13ifvqgog","pricing_plan_id":"cebpf4jnsgd1na2vs0mg"},{"bike_id":"5ef84235-eddd-425b-8be4-c31c46a00271","system_id":"levelo_inurba_marseille","lat":43.2417,"lon":5.36399,"is_reserved":false,"is_disabled":false,"rental_uris":{"android":"levelo://app?vid=5ef84235-eddd-425b-8be4-c31c46a00271","ios":"levelo://app?vid=5ef84235-eddd-425b-8be4-c31c46a00271"},"vehicle_type_id":"4","last_reported":1762513762,"current_range_meters":12000,"station_id":"cpo36qri1sfpv3e86is0","pricing_plan_id":"cebpf4jnsgd1na2vs0mg"},{"bike_id":"da202ec0-8c42-47ae-a696-f9fecb48166f","system_id":"levelo_inurba_marseille","lat":43.2856,"lon":5.39501,"is_reserved":false,"is_disabled":false,"rental_uris":{"android":"levelo://app?vid=da202ec0-8c42-47ae-a696-f9fecb48166f","ios":"levelo://app?vid=da202ec0-8c42-47ae-a696-f9fecb48166f"},"vehicle_type_id":"4","last_reported":1762513762,"current_range_meters":12000,"station_id":"ce4bh292rcd13ifvqdg0","pricing_plan_id":"cebpf4jnsgd1na2vs0mg"},{"bike_id":"5bee8f0f-57fe-4257-a72a-04a4967570b5","system_id":"levelo_inurba_marseille","lat":43.30057,"lon":5.37723,"is_reserved":false,"is_disabled":false,"rental_uris":{"android":"levelo://app?vid=5bee8f0f-57fe-4257-a72a-04a4967570b5","ios":"levelo://app?vid=5bee8f0f-57fe-4257-a72a-04a4967570b5"},"vehicle_type_id":"4","last_reported":1762513762,"current_range_meters":12000,"station_id":"","pricing_plan_id":"cebpf4jnsgd1na2vs0mg"},{"bike_id":"0f4ffc77-cafe-489d-b8b6-ccbf6aa9af95","system_id":"levelo_inurba_marseille","lat":43.28623,"lon":5.35075,"is_reserved":false,"is_disabled":false,"rental_uris":{"android":"levelo://app?vid=0f4ffc77-cafe-489d-b8b6-ccbf6aa9af95","ios":"levelo://app?vid=0f4ffc77-cafe-489d-b8b6-ccbf6aa9af95"},"vehicle_type_id":"4","last_reported":1762513762,"current_range_meters":12000,"station_id":"ce4bhch2rcd13ifvqeug","pricing_plan_id":"cebpf4jnsgd1na2vs0mg"},{"bike_id":"c541d6c6-d855-480d-9416-ad1e26b18f93","system_id":"levelo_inurba_marseille","lat":43.29521,"lon":5.3938,"is_reserved":false,"is_disabled":true,"rental_uris":{"android":"levelo://app?vid=c541d6c6-d855-480d-9416-ad1e26b18f93","ios":"levelo://app?vid=c541d6c6-d855-480d-9416-ad1e26b18f93"},"vehicle_type_id":"4","last_reported":1762513762,"current_range_meters":12400,"station_id":"ce4bh292rcd13ifvqdf0","pricing_plan_id":"cebpf4jnsgd1na2vs0mg"},{"bike_id":"52fbcdbc-aaf5-49fa-bc7f-d424dc8ef78f","system_id":"levelo_inurba_marseille","lat":43.281234,"lon":5.378338,"is_reserved":false,"is_disabled":false,"rental_uris":{"android":"levelo://app?vid=52fbcdbc-aaf5-49fa-bc7f-d424dc8ef78f","ios":"levelo://app?vid=52fbcdbc-aaf5-49fa-bc7f-d424dc8ef78f"},"vehicle_type_id":"4","last_reported":1762513762,"current_range_meters":12400,"station_id":"ce4bguh2rcd13ifvqcj0","pricing_plan_id":"cebpf4jnsgd1na2vs0mg"},{"bike_id":"91195dc3-7219-4139-a8eb-8e52bb6d271e","system_id":"levelo_inurba_marseille","lat":43.231906,"lon":5.35551,"is_reserved":false,"is_disabled":false,"rental_uris":{"android":"levelo://app?vid=91195dc3-7219-4139-a8eb-8e52bb6d271e","ios":"levelo://app?vid=91195dc3-7219-4139-a8eb-8e52bb6d271e"},"vehicle_type_id":"4","last_reported":1762513762,"current_range_meters":12800,"station_id":"ce4bhu92rcd13ifvqi70","pricing_plan_id":"cebpf4jnsgd1na2vs0mg"},{"bike_id":"df436567-b5dd-47ff-82cb-66b373039810","system_id":"levelo_inurba_marseille","lat":43.25937,"lon":5.40884,"is_reserved":false,"is_disabled":false,"rental_uris":{"android":"levelo://app?vid=df436567-b5dd-47ff-82cb-66b373039810","ios":"levelo://app?vid=df436567-b5dd-47ff-82cb-66b373039810"},"vehicle_type_id":"4","last_reported":1762513762,"current_range_meters":12800,"station_id":"ce4bhm92rcd13ifvqglg","pricing_plan_id":"cebpf4jnsgd1na2vs0mg"},{"bike_id":"7e50e8da-5299-4aa1-849c-f5ceadbf07e2","system_id":"levelo_inurba_marseille","lat":43.25579,"lon":5.38236,"is_reserved":false,"is_disabled":false,"rental_uris":{"android":"levelo://app?vid=7e50e8da-5299-4aa1-849c-f5ceadbf07e2","ios":"levelo://app?vid=7e50e8da-5299-4aa1-849c-f5ceadbf07e2"},"vehicle_type_id":"4","last_reported":1762513762,"current_range_meters":12800,"station_id":"ce4bhih2rcd13ifvqfs0","pricing_plan_id":"cebpf4jnsgd1na2vs0mg"},{"bike_id":"ec44e195-cde1-4252-aadf-701a64256dd7","system_id":"levelo_inurba_marseille","lat":43.24619,"lon":5.43153,"is_reserved":false,"is_disabled":false,"rental_uris":{"android":"levelo://app?vid=ec44e195-cde1-4252-aadf-701a64256dd7","ios":"levelo://app?vid=ec44e195-cde1-4252-aadf-701a64256dd7"},"vehicle_type_id":"4","last_reported":1762513762,"current_range_meters":12800,"station_id":"st_d2m6c4gdas8pm72e190g","pricing_plan_id":"cebpf4jnsgd1na2vs0mg"},{"bike_id":"decad613-875f-4e39-a5cc-a2636a2419c6","system_id":"levelo_inurba_marseille","lat":43.2315,"lon":5.43697,"is_reserved":false,"is_disabled":false,"rental_uris":{"android":"levelo://app?vid=decad613-875f-4e39-a5cc-a2636a2419c6","ios":"levelo://app?vid=decad613-875f-4e39-a5cc-a2636a2419c6"},"vehicle_type_id":"4","last_reported":1762513762,"current_range_meters":12800,"station_id":"ce4bhmp2rcd13ifvqgog","pricing_plan_id":"cebpf4jnsgd1na2vs0mg"},{"bike_id":"2231cf1a-5f16-4799-b4ce-1e03de425dc9","system_id":"levelo_inurba_marseille","lat":43.26943,"lon":5.38633,"is_reserved":false,"is_disabled":false,"rental_uris":{"android":"levelo://app?vid=2231cf1a-5f16-4799-b4ce-1e03de425dc9","ios":"levelo://app?vid=2231cf1a-5f16-4799-b4ce-1e03de425dc9"},"vehicle_type_id":"4","last_reported":1762513762,"current_range_meters":12800,"station_id":"ce4bhh92rcd13ifvqfh0","pricing_plan_id":"cebpf4jnsgd1na2vs0mg"},{"bike_id":"57deb573-64bc-492f-ba8f-07c41926b45f","system_id":"levelo_inurba_marseille","lat":43.23144,"lon":5.43723,"is_reserved":false,"is_disabled":false,"rental_uris":{"android":"levelo://app?vid=57deb573-64bc-492f-ba8f-07c41926b45f","ios":"levelo://app?vid=57deb573-64bc-492f-ba8f-07c41926b45f"},"vehicle_type_id":"4","last_reported":1762513762,"current_range_meters":12800,"station_id":"ce4bhmp2rcd13ifvqgog","pricing_plan_id":"cebpf4jnsgd1na2vs0mg"},{"bike_id":"1c3b6b02-c345-419e-acff-2ea38bcab5a6","system_id":"levelo_inurba_marseille","lat":43.23167,"lon":5.43732,"is_reserved":false,"is_disabled":false,"rental_uris":{"android":"levelo://app?vid=1c3b6b02-c345-419e-acff-2ea38bcab5a6","ios":"levelo://app?vid=1c3b6b02-c345-419e-acff-2ea38bcab5a6"},"vehicle_type_id":"4","last_reported":1762513762,"current_range_meters":12800,"station_id":"ce4bhmp2rcd13ifvqgog","pricing_plan_id":"cebpf4jnsgd1na2vs0mg"},{"bike_id":"49f72977-a3b0-4756-91f7-bfd8da95f1b4","system_id":"levelo_inurba_marseille","lat":43.25937,"lon":5.40898,"is_reserved":false,"is_disabled":false,"rental_uris":{"android":"levelo://app?vid=49f72977-a3b0-4756-91f7-bfd8da95f1b4","ios":"levelo://app?vid=49f72977-a3b0-4756-91f7-bfd8da95f1b4"},"vehicle_type_id":"4","last_reported":1762513762,"current_range_meters":13600,"station_id":"ce4bhm92rcd13ifvqglg","pricing_plan_id":"cebpf4jnsgd1na2vs0mg"},{"bike_id":"34784166-db1d-41e4-84c2-901e6887d569","system_id":"levelo_inurba_marseille","lat":43.31357,"lon":5.38491,"is_reserved":false,"is_disabled":false,"rental_uris":{"android":"levelo://app?vid=34784166-db1d-41e4-84c2-901e6887d569","ios":"levelo://app?vid=34784166-db1d-41e4-84c2-901e6887d569"},"vehicle_type_id":"4","last_reported":1762513762,"current_range_meters":13600,"station_id":"ce4bgt92rcd13ifvqcf0","pricing_plan_id":"cebpf4jnsgd1na2vs0mg"},{"bike_id":"7457525f-9d74-4bc4-9133-502a97efca01","system_id":"levelo_inurba_marseille","lat":43.29361,"lon":5.37835,"is_reserved":false,"is_disabled":false,"rental_uris":{"android":"levelo://app?vid=7457525f-9d74-4bc4-9133-502a97efca01","ios":"levelo://app?vid=7457525f-9d74-4bc4-9133-502a97efca01"},"vehicle_type_id":"4","last_reported":1762513762,"current_range_meters":13600,"station_id":"ce4bgjh2rcd13ifvqbf0","pricing_plan_id":"cebpf4jnsgd1na2vs0mg"},{"bike_id":"2214147d-b2bc-47a5-8262-b29a2f3cbd90","system_id":"levelo_inurba_marseille","lat":43.28866,"lon":5.42504,"is_reserved":false,"is_disabled":false,"rental_uris":{"android":"levelo://app?vid=2214147d-b2bc-47a5-8262-b29a2f3cbd90","ios":"levelo://app?vid=2214147d-b2bc-47a5-8262-b29a2f3cbd90"},"vehicle_type_id":"4","last_reported":1762513762,"current_range_meters":13600,"station_id":"st_d3b462108ojc7389ooeg","pricing_plan_id":"cebpf4jnsgd1na2vs0mg"},{"bike_id":"8537479d-e703-477a-af1b-92c15a4c6d70","system_id":"levelo_inurba_marseille","lat":43.28195,"lon":5.38871,"is_reserved":false,"is_disabled":false,"rental_uris":{"android":"levelo://app?vid=8537479d-e703-477a-af1b-92c15a4c6d70","ios":"levelo://app?vid=8537479d-e703-477a-af1b-92c15a4c6d70"},"vehicle_type_id":"4","last_reported":1762513762,"current_range_meters":14000,"station_id":"","pricing_plan_id":"cebpf4jnsgd1na2vs0mg"},{"bike_id":"3b350de2-695c-42e3-a80c-fe5d0f1d9920","system_id":"levelo_inurba_marseille","lat":43.25946,"lon":5.40897,"is_reserved":false,"is_disabled":false,"rental_uris":{"android":"levelo://app?vid=3b350de2-695c-42e3-a80c-fe5d0f1d9920","ios":"levelo://app?vid=3b350de2-695c-42e3-a80c-fe5d0f1d9920"},"vehicle_type_id":"4","last_reported":1762513762,"current_range_meters":14000,"station_id":"ce4bhm92rcd13ifvqglg","pricing_plan_id":"cebpf4jnsgd1na2vs0mg"},{"bike_id":"06d8a6d4-cde1-4774-80e5-91004a4fe543","system_id":"levelo_inurba_marseille","lat":43.29845,"lon":5.36302,"is_reserved":false,"is_disabled":false,"rental_uris":{"android":"levelo://app?vid=06d8a6d4-cde1-4774-80e5-91004a4fe543","ios":"levelo://app?vid=06d8a6d4-cde1-4774-80e5-91004a4fe543"},"vehicle_type_id":"4","last_reported":1762513762,"current_range_meters":14400,"station_id":"ce4bgpp2rcd13ifvqc3g","pricing_plan_id":"cebpf4jnsgd1na2vs0mg"},{"bike_id":"ada7c068-07f5-4885-8cb5-5c4f9b537ace","system_id":"levelo_inurba_marseille","lat":43.23145,"lon":5.43725,"is_reserved":false,"is_disabled":false,"rental_uris":{"android":"levelo://app?vid=ada7c068-07f5-4885-8cb5-5c4f9b537ace","ios":"levelo://app?vid=ada7c068-07f5-4885-8cb5-5c4f9b537ace"},"vehicle_type_id":"4","last_reported":1762513762,"current_range_meters":14400,"station_id":"ce4bhmp2rcd13ifvqgog","pricing_plan_id":"cebpf4jnsgd1na2vs0mg"},{"bike_id":"fbe1980c-28b3-44ff-94bc-1a822c9d6de7","system_id":"levelo_inurba_marseille","lat":43.30935,"lon":5.37272,"is_reserved":false,"is_disabled":false,"rental_uris":{"android":"levelo://app?vid=fbe1980c-28b3-44ff-94bc-1a822c9d6de7","ios":"levelo://app?vid=fbe1980c-28b3-44ff-94bc-1a822c9d6de7"},"vehicle_type_id":"4","last_reported":1762513762,"current_range_meters":14400,"station_id":"","pricing_plan_id":"cebpf4jnsgd1na2vs0mg"},{"bike_id":"095dab85-4b14-4342-b3ae-bf8f224bc648","system_id":"levelo_inurba_marseille","lat":43.25106,"lon":5.4032,"is_reserved":false,"is_disabled":false,"rental_uris":{"android":"levelo://app?vid=095dab85-4b14-4342-b3ae-bf8f224bc648","ios":"levelo://app?vid=095dab85-4b14-4342-b3ae-bf8f224bc648"},"vehicle_type_id":"4","last_reported":1762513762,"current_range_meters":14400,"station_id":"ce4bhlh2rcd13ifvqgig","pricing_plan_id":"cebpf4jnsgd1na2vs0mg"},{"bike_id":"060dc91e-6d72-4ec7-863e-6c0085809a92","system_id":"levelo_inurba_marseille","lat":43.29578,"lon":5.36739,"is_reserved":false,"is_disabled":false,"rental_uris":{"android":"levelo://app?vid=060dc91e-6d72-4ec7-863e-6c0085809a92","ios":"levelo://app?vid=060dc91e-6d72-4ec7-863e-6c0085809a92"},"vehicle_type_id":"4","last_reported":1762513762,"current_range_meters":14400,"station_id":"ce4bgph2rcd13ifvqc2g","pricing_plan_id":"cebpf4jnsgd1na2vs0mg"},{"bike_id":"43cfab9e-f547-4304-9999-4a8329474751","system_id":"levelo_inurba_marseille","lat":43.21185,"lon":5.35068,"is_reserved":false,"is_disabled":false,"rental_uris":{"android":"levelo://app?vid=43cfab9e-f547-4304-9999-4a8329474751","ios":"levelo://app?vid=43cfab9e-f547-4304-9999-4a8329474751"},"vehicle_type_id":"4","last_reported":1762513762,"current_range_meters":14800,"station_id":"st_cvj6sg6p6f1abm77japg","pricing_plan_id":"cebpf4jnsgd1na2vs0mg"},{"bike_id":"51b9afea-e3f9-46da-a79d-624b2847ee35","system_id":"levelo_inurba_marseille","lat":43.299253,"lon":5.365376,"is_reserved":false,"is_disabled":false,"rental_uris":{"android":"levelo://app?vid=51b9afea-e3f9-46da-a79d-624b2847ee35","ios":"levelo://app?vid=51b9afea-e3f9-46da-a79d-624b2847ee35"},"vehicle_type_id":"4","last_reported":1762513762,"current_range_meters":14800,"station_id":"ce4bgm92rcd13ifvqbr0","pricing_plan_id":"cebpf4jnsgd1na2vs0mg"},{"bike_id":"ba00a797-bc94-42f1-aba8-9bf207fe458c","system_id":"levelo_inurba_marseille","lat":43.30562,"lon":5.36483,"is_reserved":false,"is_disabled":false,"rental_uris":{"android":"levelo://app?vid=ba00a797-bc94-42f1-aba8-9bf207fe458c","ios":"levelo://app?vid=ba00a797-bc94-42f1-aba8-9bf207fe458c"},"vehicle_type_id":"4","last_reported":1762513762,"current_range_meters":14800,"station_id":"","pricing_plan_id":"cebpf4jnsgd1na2vs0mg"},{"bike_id":"1e46fe04-89da-46eb-9bd6-7b3e33687c2a","system_id":"levelo_inurba_marseille","lat":43.28622,"lon":5.35103,"is_reserved":false,"is_disabled":false,"rental_uris":{"android":"levelo://app?vid=1e46fe04-89da-46eb-9bd6-7b3e33687c2a","ios":"levelo://app?vid=1e46fe04-89da-46eb-9bd6-7b3e33687c2a"},"vehicle_type_id":"4","last_reported":1762513762,"current_range_meters":15200,"station_id":"ce4bhch2rcd13ifvqeug","pricing_plan_id":"cebpf4jnsgd1na2vs0mg"},{"bike_id":"fe8d9c58-a4b3-4e49-b4db-47344a3017ec","system_id":"levelo_inurba_marseille","lat":43.241754,"lon":5.397217,"is_reserved":false,"is_disabled":false,"rental_uris":{"android":"levelo://app?vid=fe8d9c58-a4b3-4e49-b4db-47344a3017ec","ios":"levelo://app?vid=fe8d9c58-a4b3-4e49-b4db-47344a3017ec"},"vehicle_type_id":"4","last_reported":1762513762,"current_range_meters":15200,"station_id":"ce4bhn12rcd13ifvqgpg","pricing_plan_id":"cebpf4jnsgd1na2vs0mg"},{"bike_id":"a88522c2-7f31-460d-8b59-1c10109fed19","system_id":"levelo_inurba_marseille","lat":43.3143,"lon":5.37582,"is_reserved":false,"is_disabled":false,"rental_uris":{"android":"levelo://app?vid=a88522c2-7f31-460d-8b59-1c10109fed19","ios":"levelo://app?vid=a88522c2-7f31-460d-8b59-1c10109fed19"},"vehicle_type_id":"4","last_reported":1762513762,"current_range_meters":15200,"station_id":"","pricing_plan_id":"cebpf4jnsgd1na2vs0mg"},{"bike_id":"2cb37c5a-b151-42ab-b9ba-6e368dbe1f65","system_id":"levelo_inurba_marseille","lat":43.24169,"lon":5.39727,"is_reserved":false,"is_disabled":false,"rental_uris":{"android":"levelo://app?vid=2cb37c5a-b151-42ab-b9ba-6e368dbe1f65","ios":"levelo://app?vid=2cb37c5a-b151-42ab-b9ba-6e368dbe1f65"},"vehicle_type_id":"4","last_reported":1762513762,"current_range_meters":15200,"station_id":"ce4bhn12rcd13ifvqgpg","pricing_plan_id":"cebpf4jnsgd1na2vs0mg"},{"bike_id":"57a326fb-cb56-41f2-a6cd-8f7957f9064c","system_id":"levelo_inurba_marseille","lat":43.29979,"lon":5.37158,"is_reserved":false,"is_disabled":false,"rental_uris":{"android":"levelo://app?vid=57a326fb-cb56-41f2-a6cd-8f7957f9064c","ios":"levelo://app?vid=57a326fb-cb56-41f2-a6cd-8f7957f9064c"},"vehicle_type_id":"4","last_reported":1762513762,"current_range_meters":15200,"station_id":"ce4bgr92rcd13ifvqc7g","pricing_plan_id":"cebpf4jnsgd1na2vs0mg"},{"bike_id":"3a6b939b-8483-4a00-8652-d825cdd856d7","system_id":"levelo_inurba_marseille","lat":43.2255,"lon":5.41623,"is_reserved":false,"is_disabled":false,"rental_uris":{"android":"levelo://app?vid=3a6b939b-8483-4a00-8652-d825cdd856d7","ios":"levelo://app?vid=3a6b939b-8483-4a00-8652-d825cdd856d7"},"vehicle_type_id":"4","last_reported":1762513762,"current_range_meters":15200,"station_id":"st_d2o4gvlbi1j2169b742g","pricing_plan_id":"cebpf4jnsgd1na2vs0mg"},{"bike_id":"46609da1-1a56-4a2e-8fd3-da507a08e8ac","system_id":"levelo_inurba_marseille","lat":43.23146,"lon":5.43728,"is_reserved":false,"is_disabled":false,"rental_uris":{"android":"levelo://app?vid=46609da1-1a56-4a2e-8fd3-da507a08e8ac","ios":"levelo://app?vid=46609da1-1a56-4a2e-8fd3-da507a08e8ac"},"vehicle_type_id":"4","last_reported":1762513762,"current_range_meters":15200,"station_id":"ce4bhmp2rcd13ifvqgog","pricing_plan_id":"cebpf4jnsgd1na2vs0mg"},{"bike_id":"b20270b9-25bd-4291-afdf-059d84be3408","system_id":"levelo_inurba_marseille","lat":43.29169,"lon":5.37152,"is_reserved":false,"is_disabled":false,"rental_uris":{"android":"levelo://app?vid=b20270b9-25bd-4291-afdf-059d84be3408","ios":"levelo://app?vid=b20270b9-25bd-4291-afdf-059d84be3408"},"vehicle_type_id":"4","last_reported":1762513762,"current_range_meters":16000,"station_id":"ce4bha92rcd13ifvqeh0","pricing_plan_id":"cebpf4jnsgd1na2vs0mg"},{"bike_id":"ab57a438-ae7d-432c-b302-3fda6242e506","system_id":"levelo_inurba_marseille","lat":43.23156,"lon":5.436956,"is_reserved":false,"is_disabled":false,"rental_uris":{"android":"levelo://app?vid=ab57a438-ae7d-432c-b302-3fda6242e506","ios":"levelo://app?vid=ab57a438-ae7d-432c-b302-3fda6242e506"},"vehicle_type_id":"4","last_reported":1762513762,"current_range_meters":16000,"station_id":"ce4bhmp2rcd13ifvqgog","pricing_plan_id":"cebpf4jnsgd1na2vs0mg"},{"bike_id":"d0513357-297b-4d8e-8e90-458ec4443387","system_id":"levelo_inurba_marseille","lat":43.30148,"lon":5.38085,"is_reserved":false,"is_disabled":false,"rental_uris":{"android":"levelo://app?vid=d0513357-297b-4d8e-8e90-458ec4443387","ios":"levelo://app?vid=d0513357-297b-4d8e-8e90-458ec4443387"},"vehicle_type_id":"4","last_reported":1762513762,"current_range_meters":16000,"station_id":"ce4bgjp2rcd13ifvqbh0","pricing_plan_id":"cebpf4jnsgd1na2vs0mg"},{"bike_id":"14bede57-e6c3-42e3-85ea-7147697689db","system_id":"levelo_inurba_marseille","lat":43.24959,"lon":5.40472,"is_reserved":false,"is_disabled":false,"rental_uris":{"android":"levelo://app?vid=14bede57-e6c3-42e3-85ea-7147697689db","ios":"levelo://app?vid=14bede57-e6c3-42e3-85ea-7147697689db"},"vehicle_type_id":"4","last_reported":1762513762,"current_range_meters":16000,"station_id":"st_d2ngiaodas8pm72gd1h0","pricing_plan_id":"cebpf4jnsgd1na2vs0mg"},{"bike_id":"acfad5cd-36be-4eb0-88d2-559c25b3fc5f","system_id":"levelo_inurba_marseille","lat":43.30152,"lon":5.38078,"is_reserved":false,"is_disabled":false,"rental_uris":{"android":"levelo://app?vid=acfad5cd-36be-4eb0-88d2-559c25b3fc5f","ios":"levelo://app?vid=acfad5cd-36be-4eb0-88d2-559c25b3fc5f"},"vehicle_type_id":"4","last_reported":1762513762,"current_range_meters":16000,"station_id":"ce4bgjp2rcd13ifvqbh0","pricing_plan_id":"cebpf4jnsgd1na2vs0mg"},{"bike_id":"0129d5e3-887c-4b82-9486-db9b5dbeeb12","system_id":"levelo_inurba_marseille","lat":43.246442,"lon":5.388981,"is_reserved":false,"is_disabled":false,"rental_uris":{"android":"levelo://app?vid=0129d5e3-887c-4b82-9486-db9b5dbeeb12","ios":"levelo://app?vid=0129d5e3-887c-4b82-9486-db9b5dbeeb12"},"vehicle_type_id":"4","last_reported":1762513762,"current_range_meters":16000,"station_id":"ce4bhg12rcd13ifvqf60","pricing_plan_id":"cebpf4jnsgd1na2vs0mg"},{"bike_id":"1a174d7c-382f-4636-bbe6-2ae14d840caa","system_id":"levelo_inurba_marseille","lat":43.231812,"lon":5.399827,"is_reserved":false,"is_disabled":false,"rental_uris":{"android":"levelo://app?vid=1a174d7c-382f-4636-bbe6-2ae14d840caa","ios":"levelo://app?vid=1a174d7c-382f-4636-bbe6-2ae14d840caa"},"vehicle_type_id":"4","last_reported":1762513762,"current_range_meters":16000,"station_id":"ce4bhn12rcd13ifvqgqg","pricing_plan_id":"cebpf4jnsgd1na2vs0mg"},{"bike_id":"310115a0-7bf2-4a4a-9d53-56bf6918e4d0","system_id":"levelo_inurba_marseille","lat":43.28489,"lon":5.48411,"is_reserved":false,"is_disabled":false,"rental_uris":{"android":"levelo://app?vid=310115a0-7bf2-4a4a-9d53-56bf6918e4d0","ios":"levelo://app?vid=310115a0-7bf2-4a4a-9d53-56bf6918e4d0"},"vehicle_type_id":"4","last_reported":1762513762,"current_range_meters":16400,"station_id":"st_d3svhcjqgbts73a3dn0g","pricing_plan_id":"cebpf4jnsgd1na2vs0mg"},{"bike_id":"5df4c674-6ee8-44f9-9cc7-390dc29485a5","system_id":"levelo_inurba_marseille","lat":43.29808,"lon":5.381043,"is_reserved":false,"is_disabled":false,"rental_uris":{"android":"levelo://app?vid=5df4c674-6ee8-44f9-9cc7-390dc29485a5","ios":"levelo://app?vid=5df4c674-6ee8-44f9-9cc7-390dc29485a5"},"vehicle_type_id":"4","last_reported":1762513762,"current_range_meters":16400,"station_id":"ce4bgip2rcd13ifvqbb0","pricing_plan_id":"cebpf4jnsgd1na2vs0mg"},{"bike_id":"8ca258c4-0e4c-4c4d-aaa9-2ca1c8392ccf","system_id":"levelo_inurba_marseille","lat":43.29511,"lon":5.39033,"is_reserved":false,"is_disabled":false,"rental_uris":{"android":"levelo://app?vid=8ca258c4-0e4c-4c4d-aaa9-2ca1c8392ccf","ios":"levelo://app?vid=8ca258c4-0e4c-4c4d-aaa9-2ca1c8392ccf"},"vehicle_type_id":"4","last_reported":1762513762,"current_range_meters":16400,"station_id":"ce4bh3p2rcd13ifvqdp0","pricing_plan_id":"cebpf4jnsgd1na2vs0mg"},{"bike_id":"ac9b2307-8532-4e5b-acbf-4475959117d2","system_id":"levelo_inurba_marseille","lat":43.25734,"lon":5.4107,"is_reserved":false,"is_disabled":false,"rental_uris":{"android":"levelo://app?vid=ac9b2307-8532-4e5b-acbf-4475959117d2","ios":"levelo://app?vid=ac9b2307-8532-4e5b-acbf-4475959117d2"},"vehicle_type_id":"4","last_reported":1762513762,"current_range_meters":16400,"station_id":"ce4bhkp2rcd13ifvqgd0","pricing_plan_id":"cebpf4jnsgd1na2vs0mg"},{"bike_id":"21c13248-3296-4aba-8213-fdcfac1e357b","system_id":"levelo_inurba_marseille","lat":43.23143,"lon":5.4372,"is_reserved":false,"is_disabled":false,"rental_uris":{"android":"levelo://app?vid=21c13248-3296-4aba-8213-fdcfac1e357b","ios":"levelo://app?vid=21c13248-3296-4aba-8213-fdcfac1e357b"},"vehicle_type_id":"4","last_reported":1762513762,"current_range_meters":16400,"station_id":"ce4bhmp2rcd13ifvqgog","pricing_plan_id":"cebpf4jnsgd1na2vs0mg"},{"bike_id":"e8b6d1b2-9aeb-4db2-a322-897007e252db","system_id":"levelo_inurba_marseille","lat":43.30048,"lon":5.3662,"is_reserved":false,"is_disabled":false,"rental_uris":{"android":"levelo://app?vid=e8b6d1b2-9aeb-4db2-a322-897007e252db","ios":"levelo://app?vid=e8b6d1b2-9aeb-4db2-a322-897007e252db"},"vehicle_type_id":"4","last_reported":1762513762,"current_range_meters":16400,"station_id":"","pricing_plan_id":"cebpf4jnsgd1na2vs0mg"},{"bike_id":"9562a075-8c4e-41b2-b482-17ddf7404828","system_id":"levelo_inurba_marseille","lat":43.29016,"lon":5.38138,"is_reserved":false,"is_disabled":false,"rental_uris":{"android":"levelo://app?vid=9562a075-8c4e-41b2-b482-17ddf7404828","ios":"levelo://app?vid=9562a075-8c4e-41b2-b482-17ddf7404828"},"vehicle_type_id":"4","last_reported":1762513762,"current_range_meters":16400,"station_id":"ce4bh4p2rcd13ifvqe1g","pricing_plan_id":"cebpf4jnsgd1na2vs0mg"},{"bike_id":"5b03e0a7-e5b7-4bb1-a15f-78dcdc45fd57","system_id":"levelo_inurba_marseille","lat":43.2315,"lon":5.43727,"is_reserved":false,"is_disabled":false,"rental_uris":{"android":"levelo://app?vid=5b03e0a7-e5b7-4bb1-a15f-78dcdc45fd57","ios":"levelo://app?vid=5b03e0a7-e5b7-4bb1-a15f-78dcdc45fd57"},"vehicle_type_id":"4","last_reported":1762513762,"current_range_meters":16400,"station_id":"ce4bhmp2rcd13ifvqgog","pricing_plan_id":"cebpf4jnsgd1na2vs0mg"},{"bike_id":"5f48118e-e9dd-40cf-a954-36eea361da07","system_id":"levelo_inurba_marseille","lat":43.33021,"lon":5.39044,"is_reserved":false,"is_disabled":false,"rental_uris":{"android":"levelo://app?vid=5f48118e-e9dd-40cf-a954-36eea361da07","ios":"levelo://app?vid=5f48118e-e9dd-40cf-a954-36eea361da07"},"vehicle_type_id":"4","last_reported":1762513762,"current_range_meters":16400,"station_id":"ce4bhr92rcd13ifvqhrg","pricing_plan_id":"cebpf4jnsgd1na2vs0mg"},{"bike_id":"401209f9-1098-407a-9275-182f209531f6","system_id":"levelo_inurba_marseille","lat":43.295474,"lon":5.422914,"is_reserved":false,"is_disabled":false,"rental_uris":{"android":"levelo://app?vid=401209f9-1098-407a-9275-182f209531f6","ios":"levelo://app?vid=401209f9-1098-407a-9275-182f209531f6"},"vehicle_type_id":"4","last_reported":1762513762,"current_range_meters":16400,"station_id":"ce4bhph2rcd13ifvqhdg","pricing_plan_id":"cebpf4jnsgd1na2vs0mg"},{"bike_id":"36ce460e-9691-43b6-8ef4-551bff3766f3","system_id":"levelo_inurba_marseille","lat":43.30481,"lon":5.3791,"is_reserved":false,"is_disabled":false,"rental_uris":{"android":"levelo://app?vid=36ce460e-9691-43b6-8ef4-551bff3766f3","ios":"levelo://app?vid=36ce460e-9691-43b6-8ef4-551bff3766f3"},"vehicle_type_id":"4","last_reported":1762513762,"current_range_meters":16800,"station_id":"ce4bgup2rcd13ifvqcn0","pricing_plan_id":"cebpf4jnsgd1na2vs0mg"},{"bike_id":"83d77d4d-ce80-4c97-b769-bfd70f398ca1","system_id":"levelo_inurba_marseille","lat":43.26205,"lon":5.40438,"is_reserved":false,"is_disabled":false,"rental_uris":{"android":"levelo://app?vid=83d77d4d-ce80-4c97-b769-bfd70f398ca1","ios":"levelo://app?vid=83d77d4d-ce80-4c97-b769-bfd70f398ca1"},"vehicle_type_id":"4","last_reported":1762513762,"current_range_meters":16800,"station_id":"ce4bhmh2rcd13ifvqgmg","pricing_plan_id":"cebpf4jnsgd1na2vs0mg"},{"bike_id":"a24ecaa7-dc5d-4c8e-a910-6021da3d40da","system_id":"levelo_inurba_marseille","lat":43.22561,"lon":5.41614,"is_reserved":false,"is_disabled":false,"rental_uris":{"android":"levelo://app?vid=a24ecaa7-dc5d-4c8e-a910-6021da3d40da","ios":"levelo://app?vid=a24ecaa7-dc5d-4c8e-a910-6021da3d40da"},"vehicle_type_id":"4","last_reported":1762513762,"current_range_meters":16800,"station_id":"st_d2o4gvlbi1j2169b742g","pricing_plan_id":"cebpf4jnsgd1na2vs0mg"},{"bike_id":"22918fb7-a391-4f35-8c21-8eb60e2ab03f","system_id":"levelo_inurba_marseille","lat":43.22547,"lon":5.41626,"is_reserved":false,"is_disabled":false,"rental_uris":{"android":"levelo://app?vid=22918fb7-a391-4f35-8c21-8eb60e2ab03f","ios":"levelo://app?vid=22918fb7-a391-4f35-8c21-8eb60e2ab03f"},"vehicle_type_id":"4","last_reported":1762513762,"current_range_meters":16800,"station_id":"st_d2o4gvlbi1j2169b742g","pricing_plan_id":"cebpf4jnsgd1na2vs0mg"},{"bike_id":"9af0687b-3e79-4e11-b844-dd239618aeba","system_id":"levelo_inurba_marseille","lat":43.28871,"lon":5.42514,"is_reserved":false,"is_disabled":false,"rental_uris":{"android":"levelo://app?vid=9af0687b-3e79-4e11-b844-dd239618aeba","ios":"levelo://app?vid=9af0687b-3e79-4e11-b844-dd239618aeba"},"vehicle_type_id":"4","last_reported":1762513762,"current_range_meters":16800,"station_id":"st_d3b462108ojc7389ooeg","pricing_plan_id":"cebpf4jnsgd1na2vs0mg"},{"bike_id":"cd55e6a3-0e42-41d5-9ea2-8969aae65b43","system_id":"levelo_inurba_marseille","lat":43.24811,"lon":5.37456,"is_reserved":false,"is_disabled":false,"rental_uris":{"android":"levelo://app?vid=cd55e6a3-0e42-41d5-9ea2-8969aae65b43","ios":"levelo://app?vid=cd55e6a3-0e42-41d5-9ea2-8969aae65b43"},"vehicle_type_id":"4","last_reported":1762513762,"current_range_meters":16800,"station_id":"ce4bhgh2rcd13ifvqfb0","pricing_plan_id":"cebpf4jnsgd1na2vs0mg"},{"bike_id":"6c9f367e-49e1-4e68-b2a6-459d05c3f420","system_id":"levelo_inurba_marseille","lat":43.30542,"lon":5.36679,"is_reserved":false,"is_disabled":false,"rental_uris":{"android":"levelo://app?vid=6c9f367e-49e1-4e68-b2a6-459d05c3f420","ios":"levelo://app?vid=6c9f367e-49e1-4e68-b2a6-459d05c3f420"},"vehicle_type_id":"4","last_reported":1762513762,"current_range_meters":16800,"station_id":"ce4bgrp2rcd13ifvqc9g","pricing_plan_id":"cebpf4jnsgd1na2vs0mg"},{"bike_id":"9c543d11-83bf-4064-bcc5-a6f2ab5b7657","system_id":"levelo_inurba_marseille","lat":43.29255,"lon":5.37615,"is_reserved":false,"is_disabled":false,"rental_uris":{"android":"levelo://app?vid=9c543d11-83bf-4064-bcc5-a6f2ab5b7657","ios":"levelo://app?vid=9c543d11-83bf-4064-bcc5-a6f2ab5b7657"},"vehicle_type_id":"4","last_reported":1762513762,"current_range_meters":16800,"station_id":"ce4bgi12rcd13ifvqb80","pricing_plan_id":"cebpf4jnsgd1na2vs0mg"},{"bike_id":"33fcdbb0-2f2f-418c-a9e2-8bfbd62dc3a5","system_id":"levelo_inurba_marseille","lat":43.30538,"lon":5.36688,"is_reserved":false,"is_disabled":false,"rental_uris":{"android":"levelo://app?vid=33fcdbb0-2f2f-418c-a9e2-8bfbd62dc3a5","ios":"levelo://app?vid=33fcdbb0-2f2f-418c-a9e2-8bfbd62dc3a5"},"vehicle_type_id":"4","last_reported":1762513762,"current_range_meters":16800,"station_id":"ce4bgrp2rcd13ifvqc9g","pricing_plan_id":"cebpf4jnsgd1na2vs0mg"},{"bike_id":"e071e82c-cdb6-459f-b22d-eefcbaca951d","system_id":"levelo_inurba_marseille","lat":43.31155,"lon":5.38712,"is_reserved":false,"is_disabled":false,"rental_uris":{"android":"levelo://app?vid=e071e82c-cdb6-459f-b22d-eefcbaca951d","ios":"levelo://app?vid=e071e82c-cdb6-459f-b22d-eefcbaca951d"},"vehicle_type_id":"4","last_reported":1762513762,"current_range_meters":17200,"station_id":"ce4bgv12rcd13ifvqcp0","pricing_plan_id":"cebpf4jnsgd1na2vs0mg"},{"bike_id":"0ee3a2cd-bf73-412d-acd4-59beb849ed7e","system_id":"levelo_inurba_marseille","lat":43.311143,"lon":5.377645,"is_reserved":false,"is_disabled":false,"rental_uris":{"android":"levelo://app?vid=0ee3a2cd-bf73-412d-acd4-59beb849ed7e","ios":"levelo://app?vid=0ee3a2cd-bf73-412d-acd4-59beb849ed7e"},"vehicle_type_id":"4","last_reported":1762513762,"current_range_meters":17200,"station_id":"ce4bgt92rcd13ifvqcg0","pricing_plan_id":"cebpf4jnsgd1na2vs0mg"},{"bike_id":"65d83eaf-428a-43cd-a356-ecaed95948ff","system_id":"levelo_inurba_marseille","lat":43.24842,"lon":5.39775,"is_reserved":false,"is_disabled":false,"rental_uris":{"android":"levelo://app?vid=65d83eaf-428a-43cd-a356-ecaed95948ff","ios":"levelo://app?vid=65d83eaf-428a-43cd-a356-ecaed95948ff"},"vehicle_type_id":"4","last_reported":1762513762,"current_range_meters":17200,"station_id":"","pricing_plan_id":"cebpf4jnsgd1na2vs0mg"},{"bike_id":"43e7e658-56d1-452e-9981-7dd57423c48b","system_id":"levelo_inurba_marseille","lat":43.30505,"lon":5.36596,"is_reserved":false,"is_disabled":false,"rental_uris":{"android":"levelo://app?vid=43e7e658-56d1-452e-9981-7dd57423c48b","ios":"levelo://app?vid=43e7e658-56d1-452e-9981-7dd57423c48b"},"vehicle_type_id":"4","last_reported":1762513762,"current_range_meters":17200,"station_id":"","pricing_plan_id":"cebpf4jnsgd1na2vs0mg"},{"bike_id":"5c22c66f-ee6f-492a-b8da-68608c0c3980","system_id":"levelo_inurba_marseille","lat":43.23157,"lon":5.43732,"is_reserved":false,"is_disabled":false,"rental_uris":{"android":"levelo://app?vid=5c22c66f-ee6f-492a-b8da-68608c0c3980","ios":"levelo://app?vid=5c22c66f-ee6f-492a-b8da-68608c0c3980"},"vehicle_type_id":"4","last_reported":1762513762,"current_range_meters":17600,"station_id":"ce4bhmp2rcd13ifvqgog","pricing_plan_id":"cebpf4jnsgd1na2vs0mg"},{"bike_id":"6a5ddfdf-eda2-4c9a-bd10-fba552af5b58","system_id":"levelo_inurba_marseille","lat":43.26929,"lon":5.38937,"is_reserved":false,"is_disabled":false,"rental_uris":{"android":"levelo://app?vid=6a5ddfdf-eda2-4c9a-bd10-fba552af5b58","ios":"levelo://app?vid=6a5ddfdf-eda2-4c9a-bd10-fba552af5b58"},"vehicle_type_id":"4","last_reported":1762513762,"current_range_meters":17600,"station_id":"ce4bhhh2rcd13ifvqfl0","pricing_plan_id":"cebpf4jnsgd1na2vs0mg"},{"bike_id":"05c639a2-6660-40ed-a12f-85b485fe188e","system_id":"levelo_inurba_marseille","lat":43.29227,"lon":5.35768,"is_reserved":false,"is_disabled":false,"rental_uris":{"android":"levelo://app?vid=05c639a2-6660-40ed-a12f-85b485fe188e","ios":"levelo://app?vid=05c639a2-6660-40ed-a12f-85b485fe188e"},"vehicle_type_id":"4","last_reported":1762513762,"current_range_meters":17600,"station_id":"ce4bhb12rcd13ifvqel0","pricing_plan_id":"cebpf4jnsgd1na2vs0mg"},{"bike_id":"cbaf6e70-be37-4c92-8bb7-677f9be0a37d","system_id":"levelo_inurba_marseille","lat":43.301209,"lon":5.431304,"is_reserved":false,"is_disabled":false,"rental_uris":{"android":"levelo://app?vid=cbaf6e70-be37-4c92-8bb7-677f9be0a37d","ios":"levelo://app?vid=cbaf6e70-be37-4c92-8bb7-677f9be0a37d"},"vehicle_type_id":"4","last_reported":1762513762,"current_range_meters":17600,"station_id":"st_d3js3co5814s73ftftug","pricing_plan_id":"cebpf4jnsgd1na2vs0mg"},{"bike_id":"a718cc29-6f54-49e3-862a-351d7a32001f","system_id":"levelo_inurba_marseille","lat":43.285,"lon":5.48383,"is_reserved":false,"is_disabled":false,"rental_uris":{"android":"levelo://app?vid=a718cc29-6f54-49e3-862a-351d7a32001f","ios":"levelo://app?vid=a718cc29-6f54-49e3-862a-351d7a32001f"},"vehicle_type_id":"4","last_reported":1762513762,"current_range_meters":17600,"station_id":"","pricing_plan_id":"cebpf4jnsgd1na2vs0mg"},{"bike_id":"80d6028b-d102-4553-996c-40c70fdfb53c","system_id":"levelo_inurba_marseille","lat":43.262017,"lon":5.379356,"is_reserved":false,"is_disabled":false,"rental_uris":{"android":"levelo://app?vid=80d6028b-d102-4553-996c-40c70fdfb53c","ios":"levelo://app?vid=80d6028b-d102-4553-996c-40c70fdfb53c"},"vehicle_type_id":"4","last_reported":1762513762,"current_range_meters":17600,"station_id":"ce4bhjp2rcd13ifvqg90","pricing_plan_id":"cebpf4jnsgd1na2vs0mg"},{"bike_id":"026711f1-c640-4e28-8a55-fae57096ee2c","system_id":"levelo_inurba_marseille","lat":43.25944,"lon":5.40908,"is_reserved":false,"is_disabled":false,"rental_uris":{"android":"levelo://app?vid=026711f1-c640-4e28-8a55-fae57096ee2c","ios":"levelo://app?vid=026711f1-c640-4e28-8a55-fae57096ee2c"},"vehicle_type_id":"4","last_reported":1762513762,"current_range_meters":17600,"station_id":"ce4bhm92rcd13ifvqglg","pricing_plan_id":"cebpf4jnsgd1na2vs0mg"},{"bike_id":"07d4a740-67e7-417b-9820-14faa44cc7d6","system_id":"levelo_inurba_marseille","lat":43.28867,"lon":5.42521,"is_reserved":false,"is_disabled":false,"rental_uris":{"android":"levelo://app?vid=07d4a740-67e7-417b-9820-14faa44cc7d6","ios":"levelo://app?vid=07d4a740-67e7-417b-9820-14faa44cc7d6"},"vehicle_type_id":"4","last_reported":1762513762,"current_range_meters":17600,"station_id":"st_d3b462108ojc7389ooeg","pricing_plan_id":"cebpf4jnsgd1na2vs0mg"},{"bike_id":"dd79a6d6-d67b-401f-bf3f-2ae8379c6b34","system_id":"levelo_inurba_marseille","lat":43.28476,"lon":5.38419,"is_reserved":false,"is_disabled":false,"rental_uris":{"android":"levelo://app?vid=dd79a6d6-d67b-401f-bf3f-2ae8379c6b34","ios":"levelo://app?vid=dd79a6d6-d67b-401f-bf3f-2ae8379c6b34"},"vehicle_type_id":"4","last_reported":1762513762,"current_range_meters":17600,"station_id":"ce4bh512rcd13ifvqe3g","pricing_plan_id":"cebpf4jnsgd1na2vs0mg"},{"bike_id":"8294fb7c-61b8-46dd-8a0d-07e729b72143","system_id":"levelo_inurba_marseille","lat":43.2315,"lon":5.43707,"is_reserved":false,"is_disabled":false,"rental_uris":{"android":"levelo://app?vid=8294fb7c-61b8-46dd-8a0d-07e729b72143","ios":"levelo://app?vid=8294fb7c-61b8-46dd-8a0d-07e729b72143"},"vehicle_type_id":"4","last_reported":1762513762,"current_range_meters":17600,"station_id":"ce4bhmp2rcd13ifvqgog","pricing_plan_id":"cebpf4jnsgd1na2vs0mg"},{"bike_id":"09742958-d3e6-4ec0-b4f0-504594c894d6","system_id":"levelo_inurba_marseille","lat":43.29275,"lon":5.40144,"is_reserved":false,"is_disabled":false,"rental_uris":{"android":"levelo://app?vid=09742958-d3e6-4ec0-b4f0-504594c894d6","ios":"levelo://app?vid=09742958-d3e6-4ec0-b4f0-504594c894d6"},"vehicle_type_id":"4","last_reported":1762513762,"current_range_meters":18000,"station_id":"ce4bh312rcd13ifvqdk0","pricing_plan_id":"cebpf4jnsgd1na2vs0mg"},{"bike_id":"9c93f83a-d617-4c70-b07e-2c7a6516a06f","system_id":"levelo_inurba_marseille","lat":43.28459,"lon":5.35893,"is_reserved":false,"is_disabled":false,"rental_uris":{"android":"levelo://app?vid=9c93f83a-d617-4c70-b07e-2c7a6516a06f","ios":"levelo://app?vid=9c93f83a-d617-4c70-b07e-2c7a6516a06f"},"vehicle_type_id":"4","last_reported":1762513762,"current_range_meters":18000,"station_id":"ce4bhah2rcd13ifvqei0","pricing_plan_id":"cebpf4jnsgd1na2vs0mg"},{"bike_id":"ab0f646f-f98a-4029-abb8-ff68bc741ed9","system_id":"levelo_inurba_marseille","lat":43.28854,"lon":5.35845,"is_reserved":false,"is_disabled":false,"rental_uris":{"android":"levelo://app?vid=ab0f646f-f98a-4029-abb8-ff68bc741ed9","ios":"levelo://app?vid=ab0f646f-f98a-4029-abb8-ff68bc741ed9"},"vehicle_type_id":"4","last_reported":1762513762,"current_range_meters":18000,"station_id":"ce4bhb12rcd13ifvqem0","pricing_plan_id":"cebpf4jnsgd1na2vs0mg"},{"bike_id":"7d42ff4b-845c-4e94-b8de-7aa18fc64f80","system_id":"levelo_inurba_marseille","lat":43.23141,"lon":5.43708,"is_reserved":false,"is_disabled":false,"rental_uris":{"android":"levelo://app?vid=7d42ff4b-845c-4e94-b8de-7aa18fc64f80","ios":"levelo://app?vid=7d42ff4b-845c-4e94-b8de-7aa18fc64f80"},"vehicle_type_id":"4","last_reported":1762513762,"current_range_meters":18000,"station_id":"ce4bhmp2rcd13ifvqgog","pricing_plan_id":"cebpf4jnsgd1na2vs0mg"},{"bike_id":"4f1b7dda-0c66-48a6-895b-89f5567ab0fa","system_id":"levelo_inurba_marseille","lat":43.26785,"lon":5.39413,"is_reserved":false,"is_disabled":false,"rental_uris":{"android":"levelo://app?vid=4f1b7dda-0c66-48a6-895b-89f5567ab0fa","ios":"levelo://app?vid=4f1b7dda-0c66-48a6-895b-89f5567ab0fa"},"vehicle_type_id":"4","last_reported":1762513762,"current_range_meters":18000,"station_id":"ce4bhh12rcd13ifvqfg0","pricing_plan_id":"cebpf4jnsgd1na2vs0mg"},{"bike_id":"75d7dc47-dceb-471d-8668-ef13189f4f02","system_id":"levelo_inurba_marseille","lat":43.32359,"lon":5.36738,"is_reserved":false,"is_disabled":false,"rental_uris":{"android":"levelo://app?vid=75d7dc47-dceb-471d-8668-ef13189f4f02","ios":"levelo://app?vid=75d7dc47-dceb-471d-8668-ef13189f4f02"},"vehicle_type_id":"4","last_reported":1762513762,"current_range_meters":18000,"station_id":"ce4bhsh2rcd13ifvqi2g","pricing_plan_id":"cebpf4jnsgd1na2vs0mg"},{"bike_id":"becc05ef-c148-4583-bfb3-696549166a2f","system_id":"levelo_inurba_marseille","lat":43.26945,"lon":5.38628,"is_reserved":false,"is_disabled":false,"rental_uris":{"android":"levelo://app?vid=becc05ef-c148-4583-bfb3-696549166a2f","ios":"levelo://app?vid=becc05ef-c148-4583-bfb3-696549166a2f"},"vehicle_type_id":"4","last_reported":1762513762,"current_range_meters":18000,"station_id":"ce4bhh92rcd13ifvqfh0","pricing_plan_id":"cebpf4jnsgd1na2vs0mg"},{"bike_id":"6d50bdc0-5f2c-43b6-bf1d-fa91b1758752","system_id":"levelo_inurba_marseille","lat":43.25937,"lon":5.40898,"is_reserved":false,"is_disabled":false,"rental_uris":{"android":"levelo://app?vid=6d50bdc0-5f2c-43b6-bf1d-fa91b1758752","ios":"levelo://app?vid=6d50bdc0-5f2c-43b6-bf1d-fa91b1758752"},"vehicle_type_id":"4","last_reported":1762513762,"current_range_meters":18000,"station_id":"ce4bhm92rcd13ifvqglg","pricing_plan_id":"cebpf4jnsgd1na2vs0mg"},{"bike_id":"66eadf49-e8c7-4aa8-b5c2-daef400d43f4","system_id":"levelo_inurba_marseille","lat":43.29095,"lon":5.38144,"is_reserved":false,"is_disabled":false,"rental_uris":{"android":"levelo://app?vid=66eadf49-e8c7-4aa8-b5c2-daef400d43f4","ios":"levelo://app?vid=66eadf49-e8c7-4aa8-b5c2-daef400d43f4"},"vehicle_type_id":"4","last_reported":1762513762,"current_range_meters":18000,"station_id":"ce4bh512rcd13ifvqe2g","pricing_plan_id":"cebpf4jnsgd1na2vs0mg"},{"bike_id":"1d246798-ab08-40cb-9506-5efd3e42e1c8","system_id":"levelo_inurba_marseille","lat":43.305316,"lon":5.365513,"is_reserved":false,"is_disabled":false,"rental_uris":{"android":"levelo://app?vid=1d246798-ab08-40cb-9506-5efd3e42e1c8","ios":"levelo://app?vid=1d246798-ab08-40cb-9506-5efd3e42e1c8"},"vehicle_type_id":"4","last_reported":1762513762,"current_range_meters":18000,"station_id":"ce4bgs12rcd13ifvqcag","pricing_plan_id":"cebpf4jnsgd1na2vs0mg"},{"bike_id":"3e6ccf97-a0f1-4992-9d68-41c00dddb323","system_id":"levelo_inurba_marseille","lat":43.29273,"lon":5.38451,"is_reserved":false,"is_disabled":false,"rental_uris":{"android":"levelo://app?vid=3e6ccf97-a0f1-4992-9d68-41c00dddb323","ios":"levelo://app?vid=3e6ccf97-a0f1-4992-9d68-41c00dddb323"},"vehicle_type_id":"4","last_reported":1762513762,"current_range_meters":18000,"station_id":"ce4bh692rcd13ifvqea0","pricing_plan_id":"cebpf4jnsgd1na2vs0mg"},{"bike_id":"5aa0514f-b8a5-4ed5-8c8b-d6a7f96d3966","system_id":"levelo_inurba_marseille","lat":43.30089,"lon":5.3808,"is_reserved":false,"is_disabled":false,"rental_uris":{"android":"levelo://app?vid=5aa0514f-b8a5-4ed5-8c8b-d6a7f96d3966","ios":"levelo://app?vid=5aa0514f-b8a5-4ed5-8c8b-d6a7f96d3966"},"vehicle_type_id":"4","last_reported":1762513762,"current_range_meters":18000,"station_id":"","pricing_plan_id":"cebpf4jnsgd1na2vs0mg"},{"bike_id":"d8e5a2ae-7558-4ca1-8f51-3799e24ce1ed","system_id":"levelo_inurba_marseille","lat":43.312174,"lon":5.368414,"is_reserved":false,"is_disabled":true,"rental_uris":{"android":"levelo://app?vid=d8e5a2ae-7558-4ca1-8f51-3799e24ce1ed","ios":"levelo://app?vid=d8e5a2ae-7558-4ca1-8f51-3799e24ce1ed"},"vehicle_type_id":"4","last_reported":1762513762,"current_range_meters":18800,"station_id":"ce4bgl92rcd13ifvqbq0","pricing_plan_id":"cebpf4jnsgd1na2vs0mg"},{"bike_id":"c3fa59d0-9a8e-43ec-8625-6437ba3bd142","system_id":"levelo_inurba_marseille","lat":43.335388,"lon":5.410453,"is_reserved":false,"is_disabled":false,"rental_uris":{"android":"levelo://app?vid=c3fa59d0-9a8e-43ec-8625-6437ba3bd142","ios":"levelo://app?vid=c3fa59d0-9a8e-43ec-8625-6437ba3bd142"},"vehicle_type_id":"4","last_reported":1762513762,"current_range_meters":18800,"station_id":"ce4bhqh2rcd13ifvqhmg","pricing_plan_id":"cebpf4jnsgd1na2vs0mg"},{"bike_id":"c448769d-72a1-4a2a-80b2-791ccf525608","system_id":"levelo_inurba_marseille","lat":43.25732,"lon":5.41117,"is_reserved":false,"is_disabled":false,"rental_uris":{"android":"levelo://app?vid=c448769d-72a1-4a2a-80b2-791ccf525608","ios":"levelo://app?vid=c448769d-72a1-4a2a-80b2-791ccf525608"},"vehicle_type_id":"4","last_reported":1762513762,"current_range_meters":18800,"station_id":"ce4bhkp2rcd13ifvqgd0","pricing_plan_id":"cebpf4jnsgd1na2vs0mg"},{"bike_id":"587ccc69-b5d8-4e57-9fae-5034ef4a2c3f","system_id":"levelo_inurba_marseille","lat":43.262263,"lon":5.404488,"is_reserved":false,"is_disabled":false,"rental_uris":{"android":"levelo://app?vid=587ccc69-b5d8-4e57-9fae-5034ef4a2c3f","ios":"levelo://app?vid=587ccc69-b5d8-4e57-9fae-5034ef4a2c3f"},"vehicle_type_id":"4","last_reported":1762513762,"current_range_meters":18800,"station_id":"ce4bhmh2rcd13ifvqgmg","pricing_plan_id":"cebpf4jnsgd1na2vs0mg"},{"bike_id":"e5ba152b-6d35-417c-b68c-4e10ad906323","system_id":"levelo_inurba_marseille","lat":43.27896,"lon":5.38017,"is_reserved":false,"is_disabled":false,"rental_uris":{"android":"levelo://app?vid=e5ba152b-6d35-417c-b68c-4e10ad906323","ios":"levelo://app?vid=e5ba152b-6d35-417c-b68c-4e10ad906323"},"vehicle_type_id":"4","last_reported":1762513762,"current_range_meters":18800,"station_id":"ce4bhf92rcd13ifvqf50","pricing_plan_id":"cebpf4jnsgd1na2vs0mg"},{"bike_id":"60ffec7a-0326-4fab-8ffe-e47422cb07b3","system_id":"levelo_inurba_marseille","lat":43.3088,"lon":5.39653,"is_reserved":false,"is_disabled":false,"rental_uris":{"android":"levelo://app?vid=60ffec7a-0326-4fab-8ffe-e47422cb07b3","ios":"levelo://app?vid=60ffec7a-0326-4fab-8ffe-e47422cb07b3"},"vehicle_type_id":"4","last_reported":1762513762,"current_range_meters":18800,"station_id":"ce4bh012rcd13ifvqcv0","pricing_plan_id":"cebpf4jnsgd1na2vs0mg"},{"bike_id":"0a30bb40-aaf4-4ad6-9210-0e307d20f4bf","system_id":"levelo_inurba_marseille","lat":43.30755,"lon":5.37091,"is_reserved":false,"is_disabled":false,"rental_uris":{"android":"levelo://app?vid=0a30bb40-aaf4-4ad6-9210-0e307d20f4bf","ios":"levelo://app?vid=0a30bb40-aaf4-4ad6-9210-0e307d20f4bf"},"vehicle_type_id":"4","last_reported":1762513762,"current_range_meters":18800,"station_id":"","pricing_plan_id":"cebpf4jnsgd1na2vs0mg"},{"bike_id":"91fc0bb4-e973-4ffd-a80b-5e28b732c68f","system_id":"levelo_inurba_marseille","lat":43.27364,"lon":5.36238,"is_reserved":false,"is_disabled":false,"rental_uris":{"android":"levelo://app?vid=91fc0bb4-e973-4ffd-a80b-5e28b732c68f","ios":"levelo://app?vid=91fc0bb4-e973-4ffd-a80b-5e28b732c68f"},"vehicle_type_id":"4","last_reported":1762513762,"current_range_meters":18800,"station_id":"ce4bhbh2rcd13ifvqeo0","pricing_plan_id":"cebpf4jnsgd1na2vs0mg"},{"bike_id":"9f6ec81b-2246-4666-92ef-add3d889a730","system_id":"levelo_inurba_marseille","lat":43.32341,"lon":5.38495,"is_reserved":false,"is_disabled":false,"rental_uris":{"android":"levelo://app?vid=9f6ec81b-2246-4666-92ef-add3d889a730","ios":"levelo://app?vid=9f6ec81b-2246-4666-92ef-add3d889a730"},"vehicle_type_id":"4","last_reported":1762513762,"current_range_meters":18800,"station_id":"st_d45171o9ee8s73djdqug","pricing_plan_id":"cebpf4jnsgd1na2vs0mg"},{"bike_id":"74bb8ce2-1ec5-4414-94bf-bc4889d1e14c","system_id":"levelo_inurba_marseille","lat":43.32472,"lon":5.39537,"is_reserved":false,"is_disabled":false,"rental_uris":{"android":"levelo://app?vid=74bb8ce2-1ec5-4414-94bf-bc4889d1e14c","ios":"levelo://app?vid=74bb8ce2-1ec5-4414-94bf-bc4889d1e14c"},"vehicle_type_id":"4","last_reported":1762513762,"current_range_meters":18800,"station_id":"","pricing_plan_id":"cebpf4jnsgd1na2vs0mg"},{"bike_id":"2566dfd6-9fb9-4466-b55d-7b3c49347cef","system_id":"levelo_inurba_marseille","lat":43.25331,"lon":5.42174,"is_reserved":false,"is_disabled":false,"rental_uris":{"android":"levelo://app?vid=2566dfd6-9fb9-4466-b55d-7b3c49347cef","ios":"levelo://app?vid=2566dfd6-9fb9-4466-b55d-7b3c49347cef"},"vehicle_type_id":"4","last_reported":1762513762,"current_range_meters":19200,"station_id":"st_d2m65c5bi1j21697t3ng","pricing_plan_id":"cebpf4jnsgd1na2vs0mg"},{"bike_id":"3287c2f8-00f9-48fe-9da8-9147a5bf354d","system_id":"levelo_inurba_marseille","lat":43.30153,"lon":5.380876,"is_reserved":false,"is_disabled":true,"rental_uris":{"android":"levelo://app?vid=3287c2f8-00f9-48fe-9da8-9147a5bf354d","ios":"levelo://app?vid=3287c2f8-00f9-48fe-9da8-9147a5bf354d"},"vehicle_type_id":"4","last_reported":1762513762,"current_range_meters":19200,"station_id":"ce4bgjp2rcd13ifvqbh0","pricing_plan_id":"cebpf4jnsgd1na2vs0mg"},{"bike_id":"c508dfa6-c4b6-4cea-a4ec-947e346a8310","system_id":"levelo_inurba_marseille","lat":43.33609,"lon":5.41009,"is_reserved":false,"is_disabled":true,"rental_uris":{"android":"levelo://app?vid=c508dfa6-c4b6-4cea-a4ec-947e346a8310","ios":"levelo://app?vid=c508dfa6-c4b6-4cea-a4ec-947e346a8310"},"vehicle_type_id":"4","last_reported":1762513762,"current_range_meters":19200,"station_id":"ce4bhqh2rcd13ifvqhmg","pricing_plan_id":"cebpf4jnsgd1na2vs0mg"},{"bike_id":"9dd1cd83-17be-490b-acba-0640a7408c5b","system_id":"levelo_inurba_marseille","lat":43.29024,"lon":5.38137,"is_reserved":false,"is_disabled":false,"rental_uris":{"android":"levelo://app?vid=9dd1cd83-17be-490b-acba-0640a7408c5b","ios":"levelo://app?vid=9dd1cd83-17be-490b-acba-0640a7408c5b"},"vehicle_type_id":"4","last_reported":1762513762,"current_range_meters":19200,"station_id":"ce4bh4p2rcd13ifvqe1g","pricing_plan_id":"cebpf4jnsgd1na2vs0mg"},{"bike_id":"5430dbad-1cf4-4aed-b79e-a3de7d44f7f4","system_id":"levelo_inurba_marseille","lat":43.25936,"lon":5.40896,"is_reserved":false,"is_disabled":false,"rental_uris":{"android":"levelo://app?vid=5430dbad-1cf4-4aed-b79e-a3de7d44f7f4","ios":"levelo://app?vid=5430dbad-1cf4-4aed-b79e-a3de7d44f7f4"},"vehicle_type_id":"4","last_reported":1762513762,"current_range_meters":19200,"station_id":"ce4bhm92rcd13ifvqglg","pricing_plan_id":"cebpf4jnsgd1na2vs0mg"},{"bike_id":"00234237-2482-4c7d-b1ce-eb6dc3abeb27","system_id":"levelo_inurba_marseille","lat":43.2655,"lon":5.37285,"is_reserved":false,"is_disabled":false,"rental_uris":{"android":"levelo://app?vid=00234237-2482-4c7d-b1ce-eb6dc3abeb27","ios":"levelo://app?vid=00234237-2482-4c7d-b1ce-eb6dc3abeb27"},"vehicle_type_id":"4","last_reported":1762513762,"current_range_meters":19200,"station_id":"ce4bhg12rcd13ifvqf70","pricing_plan_id":"cebpf4jnsgd1na2vs0mg"},{"bike_id":"65367b8f-a666-49b9-98fb-6571f758e690","system_id":"levelo_inurba_marseille","lat":43.281533,"lon":5.426416,"is_reserved":false,"is_disabled":false,"rental_uris":{"android":"levelo://app?vid=65367b8f-a666-49b9-98fb-6571f758e690","ios":"levelo://app?vid=65367b8f-a666-49b9-98fb-6571f758e690"},"vehicle_type_id":"4","last_reported":1762513762,"current_range_meters":19200,"station_id":"ce4bhnh2rcd13ifvqgug","pricing_plan_id":"cebpf4jnsgd1na2vs0mg"},{"bike_id":"634d486a-6010-441d-b722-9eb4783417d9","system_id":"levelo_inurba_marseille","lat":43.29565,"lon":5.37516,"is_reserved":false,"is_disabled":false,"rental_uris":{"android":"levelo://app?vid=634d486a-6010-441d-b722-9eb4783417d9","ios":"levelo://app?vid=634d486a-6010-441d-b722-9eb4783417d9"},"vehicle_type_id":"4","last_reported":1762513762,"current_range_meters":19600,"station_id":"ce4bgh92rcd13ifvqb50","pricing_plan_id":"cebpf4jnsgd1na2vs0mg"},{"bike_id":"39502855-e34d-4c4c-8471-722267809259","system_id":"levelo_inurba_marseille","lat":43.32479,"lon":5.36559,"is_reserved":false,"is_disabled":false,"rental_uris":{"android":"levelo://app?vid=39502855-e34d-4c4c-8471-722267809259","ios":"levelo://app?vid=39502855-e34d-4c4c-8471-722267809259"},"vehicle_type_id":"4","last_reported":1762513762,"current_range_meters":19600,"station_id":"ce4bhs12rcd13ifvqhvg","pricing_plan_id":"cebpf4jnsgd1na2vs0mg"},{"bike_id":"c2b00739-a243-46b9-98a5-cc6c416e3fe0","system_id":"levelo_inurba_marseille","lat":43.24541,"lon":5.3952,"is_reserved":false,"is_disabled":false,"rental_uris":{"android":"levelo://app?vid=c2b00739-a243-46b9-98a5-cc6c416e3fe0","ios":"levelo://app?vid=c2b00739-a243-46b9-98a5-cc6c416e3fe0"},"vehicle_type_id":"4","last_reported":1762513762,"current_range_meters":19600,"station_id":"ce4bhlp2rcd13ifvqgjg","pricing_plan_id":"cebpf4jnsgd1na2vs0mg"},{"bike_id":"58df984d-f6ad-47ef-818a-7818e887c7c9","system_id":"levelo_inurba_marseille","lat":43.30132,"lon":5.43111,"is_reserved":false,"is_disabled":false,"rental_uris":{"android":"levelo://app?vid=58df984d-f6ad-47ef-818a-7818e887c7c9","ios":"levelo://app?vid=58df984d-f6ad-47ef-818a-7818e887c7c9"},"vehicle_type_id":"4","last_reported":1762513762,"current_range_meters":19600,"station_id":"st_d3js3co5814s73ftftug","pricing_plan_id":"cebpf4jnsgd1na2vs0mg"},{"bike_id":"b5a4094a-84ce-4df7-9446-0f7cfecaa3c8","system_id":"levelo_inurba_marseille","lat":43.2606,"lon":5.39398,"is_reserved":false,"is_disabled":false,"rental_uris":{"android":"levelo://app?vid=b5a4094a-84ce-4df7-9446-0f7cfecaa3c8","ios":"levelo://app?vid=b5a4094a-84ce-4df7-9446-0f7cfecaa3c8"},"vehicle_type_id":"4","last_reported":1762513762,"current_range_meters":19600,"station_id":"ce4bhh92rcd13ifvqfj0","pricing_plan_id":"cebpf4jnsgd1na2vs0mg"},{"bike_id":"adc728c4-7d88-468c-be89-220c19218372","system_id":"levelo_inurba_marseille","lat":43.31612,"lon":5.38342,"is_reserved":false,"is_disabled":false,"rental_uris":{"android":"levelo://app?vid=adc728c4-7d88-468c-be89-220c19218372","ios":"levelo://app?vid=adc728c4-7d88-468c-be89-220c19218372"},"vehicle_type_id":"4","last_reported":1762513762,"current_range_meters":19600,"station_id":"","pricing_plan_id":"cebpf4jnsgd1na2vs0mg"},{"bike_id":"76319e27-2d5c-4978-9970-341e068ca370","system_id":"levelo_inurba_marseille","lat":43.27952,"lon":5.41024,"is_reserved":false,"is_disabled":false,"rental_uris":{"android":"levelo://app?vid=76319e27-2d5c-4978-9970-341e068ca370","ios":"levelo://app?vid=76319e27-2d5c-4978-9970-341e068ca370"},"vehicle_type_id":"4","last_reported":1762513762,"current_range_meters":19600,"station_id":"ce4bhnp2rcd13ifvqh0g","pricing_plan_id":"cebpf4jnsgd1na2vs0mg"},{"bike_id":"5098c842-5e48-40e2-b457-cc6766f8dfac","system_id":"levelo_inurba_marseille","lat":43.2572,"lon":5.411027,"is_reserved":false,"is_disabled":false,"rental_uris":{"android":"levelo://app?vid=5098c842-5e48-40e2-b457-cc6766f8dfac","ios":"levelo://app?vid=5098c842-5e48-40e2-b457-cc6766f8dfac"},"vehicle_type_id":"4","last_reported":1762513762,"current_range_meters":19600,"station_id":"ce4bhkp2rcd13ifvqgd0","pricing_plan_id":"cebpf4jnsgd1na2vs0mg"},{"bike_id":"5ae7b0d8-fb9a-4e0b-aa8b-a55d096f306b","system_id":"levelo_inurba_marseille","lat":43.30484,"lon":5.36854,"is_reserved":false,"is_disabled":false,"rental_uris":{"android":"levelo://app?vid=5ae7b0d8-fb9a-4e0b-aa8b-a55d096f306b","ios":"levelo://app?vid=5ae7b0d8-fb9a-4e0b-aa8b-a55d096f306b"},"vehicle_type_id":"4","last_reported":1762513762,"current_range_meters":19600,"station_id":"","pricing_plan_id":"cebpf4jnsgd1na2vs0mg"},{"bike_id":"dbee49ee-a6a4-424c-8899-e49861d4509e","system_id":"levelo_inurba_marseille","lat":43.28208,"lon":5.38612,"is_reserved":false,"is_disabled":false,"rental_uris":{"android":"levelo://app?vid=dbee49ee-a6a4-424c-8899-e49861d4509e","ios":"levelo://app?vid=dbee49ee-a6a4-424c-8899-e49861d4509e"},"vehicle_type_id":"4","last_reported":1762513762,"current_range_meters":19600,"station_id":"","pricing_plan_id":"cebpf4jnsgd1na2vs0mg"},{"bike_id":"a7074784-7394-4575-9b19-f3061e86a019","system_id":"levelo_inurba_marseille","lat":43.25931,"lon":5.40897,"is_reserved":false,"is_disabled":false,"rental_uris":{"android":"levelo://app?vid=a7074784-7394-4575-9b19-f3061e86a019","ios":"levelo://app?vid=a7074784-7394-4575-9b19-f3061e86a019"},"vehicle_type_id":"4","last_reported":1762513762,"current_range_meters":19600,"station_id":"ce4bhm92rcd13ifvqglg","pricing_plan_id":"cebpf4jnsgd1na2vs0mg"},{"bike_id":"bfcf244a-7666-4977-877b-0e3653e95122","system_id":"levelo_inurba_marseille","lat":43.30542,"lon":5.36516,"is_reserved":false,"is_disabled":false,"rental_uris":{"android":"levelo://app?vid=bfcf244a-7666-4977-877b-0e3653e95122","ios":"levelo://app?vid=bfcf244a-7666-4977-877b-0e3653e95122"},"vehicle_type_id":"4","last_reported":1762513762,"current_range_meters":19600,"station_id":"ce4bgs12rcd13ifvqcag","pricing_plan_id":"cebpf4jnsgd1na2vs0mg"},{"bike_id":"d2991a60-dcfa-4252-8f9d-bfff4b1dc433","system_id":"levelo_inurba_marseille","lat":43.310538,"lon":5.371347,"is_reserved":false,"is_disabled":false,"rental_uris":{"android":"levelo://app?vid=d2991a60-dcfa-4252-8f9d-bfff4b1dc433","ios":"levelo://app?vid=d2991a60-dcfa-4252-8f9d-bfff4b1dc433"},"vehicle_type_id":"4","last_reported":1762513762,"current_range_meters":19600,"station_id":"","pricing_plan_id":"cebpf4jnsgd1na2vs0mg"},{"bike_id":"4bce02cb-bdba-488a-a39f-eae80d4c7da8","system_id":"levelo_inurba_marseille","lat":43.28205,"lon":5.39059,"is_reserved":false,"is_disabled":true,"rental_uris":{"android":"levelo://app?vid=4bce02cb-bdba-488a-a39f-eae80d4c7da8","ios":"levelo://app?vid=4bce02cb-bdba-488a-a39f-eae80d4c7da8"},"vehicle_type_id":"4","last_reported":1762513762,"current_range_meters":19600,"station_id":"ce4bhn92rcd13ifvqgsg","pricing_plan_id":"cebpf4jnsgd1na2vs0mg"},{"bike_id":"23afc398-ebc7-4f17-8e5c-af4dc8f4738e","system_id":"levelo_inurba_marseille","lat":43.249955,"lon":5.389339,"is_reserved":false,"is_disabled":false,"rental_uris":{"android":"levelo://app?vid=23afc398-ebc7-4f17-8e5c-af4dc8f4738e","ios":"levelo://app?vid=23afc398-ebc7-4f17-8e5c-af4dc8f4738e"},"vehicle_type_id":"4","last_reported":1762513762,"current_range_meters":20000,"station_id":"ce4bhgp2rcd13ifvqfd0","pricing_plan_id":"cebpf4jnsgd1na2vs0mg"},{"bike_id":"b11572fd-1740-4982-bbb5-67f8f63a81b2","system_id":"levelo_inurba_marseille","lat":43.30487,"lon":5.37905,"is_reserved":false,"is_disabled":false,"rental_uris":{"android":"levelo://app?vid=b11572fd-1740-4982-bbb5-67f8f63a81b2","ios":"levelo://app?vid=b11572fd-1740-4982-bbb5-67f8f63a81b2"},"vehicle_type_id":"4","last_reported":1762513762,"current_range_meters":20000,"station_id":"ce4bgup2rcd13ifvqcn0","pricing_plan_id":"cebpf4jnsgd1na2vs0mg"},{"bike_id":"4267b514-ba5d-4574-adbd-2f1d6552ba83","system_id":"levelo_inurba_marseille","lat":43.29846,"lon":5.36295,"is_reserved":false,"is_disabled":false,"rental_uris":{"android":"levelo://app?vid=4267b514-ba5d-4574-adbd-2f1d6552ba83","ios":"levelo://app?vid=4267b514-ba5d-4574-adbd-2f1d6552ba83"},"vehicle_type_id":"4","last_reported":1762513762,"current_range_meters":20000,"station_id":"ce4bgpp2rcd13ifvqc3g","pricing_plan_id":"cebpf4jnsgd1na2vs0mg"},{"bike_id":"3a81bba8-fbb3-43de-9b5f-45443ccb54db","system_id":"levelo_inurba_marseille","lat":43.28622,"lon":5.35109,"is_reserved":false,"is_disabled":false,"rental_uris":{"android":"levelo://app?vid=3a81bba8-fbb3-43de-9b5f-45443ccb54db","ios":"levelo://app?vid=3a81bba8-fbb3-43de-9b5f-45443ccb54db"},"vehicle_type_id":"4","last_reported":1762513762,"current_range_meters":20000,"station_id":"ce4bhch2rcd13ifvqeug","pricing_plan_id":"cebpf4jnsgd1na2vs0mg"},{"bike_id":"40337d95-4300-4900-ab92-6b4cdb545ab0","system_id":"levelo_inurba_marseille","lat":43.2319,"lon":5.35563,"is_reserved":false,"is_disabled":false,"rental_uris":{"android":"levelo://app?vid=40337d95-4300-4900-ab92-6b4cdb545ab0","ios":"levelo://app?vid=40337d95-4300-4900-ab92-6b4cdb545ab0"},"vehicle_type_id":"4","last_reported":1762513762,"current_range_meters":20000,"station_id":"ce4bhu92rcd13ifvqi70","pricing_plan_id":"cebpf4jnsgd1na2vs0mg"},{"bike_id":"5ebbfdc4-4988-4f8f-860a-a23e6d29751d","system_id":"levelo_inurba_marseille","lat":43.30537,"lon":5.36528,"is_reserved":false,"is_disabled":false,"rental_uris":{"android":"levelo://app?vid=5ebbfdc4-4988-4f8f-860a-a23e6d29751d","ios":"levelo://app?vid=5ebbfdc4-4988-4f8f-860a-a23e6d29751d"},"vehicle_type_id":"4","last_reported":1762513762,"current_range_meters":20000,"station_id":"ce4bgs12rcd13ifvqcag","pricing_plan_id":"cebpf4jnsgd1na2vs0mg"},{"bike_id":"6593e78f-bd34-4435-b9dc-744105042d9b","system_id":"levelo_inurba_marseille","lat":43.282596,"lon":5.350561,"is_reserved":false,"is_disabled":false,"rental_uris":{"android":"levelo://app?vid=6593e78f-bd34-4435-b9dc-744105042d9b","ios":"levelo://app?vid=6593e78f-bd34-4435-b9dc-744105042d9b"},"vehicle_type_id":"4","last_reported":1762513762,"current_range_meters":20000,"station_id":"ce4bhbp2rcd13ifvqerg","pricing_plan_id":"cebpf4jnsgd1na2vs0mg"},{"bike_id":"56e77ceb-c0c3-47e5-bebb-5a9be1b3f2ca","system_id":"levelo_inurba_marseille","lat":43.262014,"lon":5.379383,"is_reserved":false,"is_disabled":false,"rental_uris":{"android":"levelo://app?vid=56e77ceb-c0c3-47e5-bebb-5a9be1b3f2ca","ios":"levelo://app?vid=56e77ceb-c0c3-47e5-bebb-5a9be1b3f2ca"},"vehicle_type_id":"4","last_reported":1762513762,"current_range_meters":20000,"station_id":"ce4bhjp2rcd13ifvqg90","pricing_plan_id":"cebpf4jnsgd1na2vs0mg"},{"bike_id":"d9b70e7d-c3bc-4f53-93da-b5ce7b3e0d4f","system_id":"levelo_inurba_marseille","lat":43.30583,"lon":5.36446,"is_reserved":false,"is_disabled":false,"rental_uris":{"android":"levelo://app?vid=d9b70e7d-c3bc-4f53-93da-b5ce7b3e0d4f","ios":"levelo://app?vid=d9b70e7d-c3bc-4f53-93da-b5ce7b3e0d4f"},"vehicle_type_id":"4","last_reported":1762513762,"current_range_meters":20400,"station_id":"","pricing_plan_id":"cebpf4jnsgd1na2vs0mg"},{"bike_id":"cc602fe4-16eb-4cd8-b6ed-df183afd8337","system_id":"levelo_inurba_marseille","lat":43.26556,"lon":5.37287,"is_reserved":false,"is_disabled":false,"rental_uris":{"android":"levelo://app?vid=cc602fe4-16eb-4cd8-b6ed-df183afd8337","ios":"levelo://app?vid=cc602fe4-16eb-4cd8-b6ed-df183afd8337"},"vehicle_type_id":"4","last_reported":1762513762,"current_range_meters":20400,"station_id":"ce4bhg12rcd13ifvqf70","pricing_plan_id":"cebpf4jnsgd1na2vs0mg"},{"bike_id":"4b4d3471-9a72-467d-8066-5891162c3702","system_id":"levelo_inurba_marseille","lat":43.30529,"lon":5.3672,"is_reserved":false,"is_disabled":false,"rental_uris":{"android":"levelo://app?vid=4b4d3471-9a72-467d-8066-5891162c3702","ios":"levelo://app?vid=4b4d3471-9a72-467d-8066-5891162c3702"},"vehicle_type_id":"4","last_reported":1762513762,"current_range_meters":20400,"station_id":"ce4bgrp2rcd13ifvqc9g","pricing_plan_id":"cebpf4jnsgd1na2vs0mg"},{"bike_id":"e09d71a1-91e8-40fe-bd95-7b2ba48cf59c","system_id":"levelo_inurba_marseille","lat":43.32839,"lon":5.36581,"is_reserved":false,"is_disabled":false,"rental_uris":{"android":"levelo://app?vid=e09d71a1-91e8-40fe-bd95-7b2ba48cf59c","ios":"levelo://app?vid=e09d71a1-91e8-40fe-bd95-7b2ba48cf59c"},"vehicle_type_id":"4","last_reported":1762513762,"current_range_meters":20400,"station_id":"","pricing_plan_id":"cebpf4jnsgd1na2vs0mg"},{"bike_id":"d9406ae0-a7d7-4070-8130-6f1d39eec4aa","system_id":"levelo_inurba_marseille","lat":43.286041,"lon":5.370577,"is_reserved":false,"is_disabled":false,"rental_uris":{"android":"levelo://app?vid=d9406ae0-a7d7-4070-8130-6f1d39eec4aa","ios":"levelo://app?vid=d9406ae0-a7d7-4070-8130-6f1d39eec4aa"},"vehicle_type_id":"4","last_reported":1762513762,"current_range_meters":20400,"station_id":"ce4bht12rcd13ifvqi60","pricing_plan_id":"cebpf4jnsgd1na2vs0mg"},{"bike_id":"54caf92a-e4e7-47fb-82ae-1db450e68b71","system_id":"levelo_inurba_marseille","lat":43.26543,"lon":5.37289,"is_reserved":false,"is_disabled":false,"rental_uris":{"android":"levelo://app?vid=54caf92a-e4e7-47fb-82ae-1db450e68b71","ios":"levelo://app?vid=54caf92a-e4e7-47fb-82ae-1db450e68b71"},"vehicle_type_id":"4","last_reported":1762513762,"current_range_meters":20400,"station_id":"ce4bhg12rcd13ifvqf70","pricing_plan_id":"cebpf4jnsgd1na2vs0mg"},{"bike_id":"5d77bd5e-8ed8-4e22-91d4-60bd450cdb42","system_id":"levelo_inurba_marseille","lat":43.23177,"lon":5.39992,"is_reserved":false,"is_disabled":false,"rental_uris":{"android":"levelo://app?vid=5d77bd5e-8ed8-4e22-91d4-60bd450cdb42","ios":"levelo://app?vid=5d77bd5e-8ed8-4e22-91d4-60bd450cdb42"},"vehicle_type_id":"4","last_reported":1762513762,"current_range_meters":20400,"station_id":"ce4bhn12rcd13ifvqgqg","pricing_plan_id":"cebpf4jnsgd1na2vs0mg"},{"bike_id":"01b612c9-e2ea-4120-a543-ea80b7d0582c","system_id":"levelo_inurba_marseille","lat":43.32679,"lon":5.39189,"is_reserved":false,"is_disabled":false,"rental_uris":{"android":"levelo://app?vid=01b612c9-e2ea-4120-a543-ea80b7d0582c","ios":"levelo://app?vid=01b612c9-e2ea-4120-a543-ea80b7d0582c"},"vehicle_type_id":"4","last_reported":1762513762,"current_range_meters":20400,"station_id":"","pricing_plan_id":"cebpf4jnsgd1na2vs0mg"},{"bike_id":"309a1e5e-51c8-4860-8bb7-12924ece393e","system_id":"levelo_inurba_marseille","lat":43.31005,"lon":5.37494,"is_reserved":false,"is_disabled":false,"rental_uris":{"android":"levelo://app?vid=309a1e5e-51c8-4860-8bb7-12924ece393e","ios":"levelo://app?vid=309a1e5e-51c8-4860-8bb7-12924ece393e"},"vehicle_type_id":"4","last_reported":1762513762,"current_range_meters":20400,"station_id":"","pricing_plan_id":"cebpf4jnsgd1na2vs0mg"},{"bike_id":"5ed7ed3b-23ad-4b9d-b0a6-3c02cdace56d","system_id":"levelo_inurba_marseille","lat":43.29969,"lon":5.37174,"is_reserved":false,"is_disabled":false,"rental_uris":{"android":"levelo://app?vid=5ed7ed3b-23ad-4b9d-b0a6-3c02cdace56d","ios":"levelo://app?vid=5ed7ed3b-23ad-4b9d-b0a6-3c02cdace56d"},"vehicle_type_id":"4","last_reported":1762513762,"current_range_meters":20400,"station_id":"ce4bgr92rcd13ifvqc7g","pricing_plan_id":"cebpf4jnsgd1na2vs0mg"},{"bike_id":"32ca43fd-944a-4085-ba17-be685a6aa8ec","system_id":"levelo_inurba_marseille","lat":43.32364,"lon":5.38882,"is_reserved":false,"is_disabled":false,"rental_uris":{"android":"levelo://app?vid=32ca43fd-944a-4085-ba17-be685a6aa8ec","ios":"levelo://app?vid=32ca43fd-944a-4085-ba17-be685a6aa8ec"},"vehicle_type_id":"4","last_reported":1762513762,"current_range_meters":20800,"station_id":"ce4bhqp2rcd13ifvqhog","pricing_plan_id":"cebpf4jnsgd1na2vs0mg"},{"bike_id":"022d12f5-566d-4c9e-9ab4-9732d598b6fe","system_id":"levelo_inurba_marseille","lat":43.295283,"lon":5.374967,"is_reserved":false,"is_disabled":false,"rental_uris":{"android":"levelo://app?vid=022d12f5-566d-4c9e-9ab4-9732d598b6fe","ios":"levelo://app?vid=022d12f5-566d-4c9e-9ab4-9732d598b6fe"},"vehicle_type_id":"4","last_reported":1762513762,"current_range_meters":20800,"station_id":"ce4bgip2rcd13ifvqbb0","pricing_plan_id":"cebpf4jnsgd1na2vs0mg"},{"bike_id":"5d204b72-0a8a-4e15-837e-5a49b8f60d01","system_id":"levelo_inurba_marseille","lat":43.30951,"lon":5.39042,"is_reserved":false,"is_disabled":false,"rental_uris":{"android":"levelo://app?vid=5d204b72-0a8a-4e15-837e-5a49b8f60d01","ios":"levelo://app?vid=5d204b72-0a8a-4e15-837e-5a49b8f60d01"},"vehicle_type_id":"4","last_reported":1762513762,"current_range_meters":20800,"station_id":"ce4bgup2rcd13ifvqco0","pricing_plan_id":"cebpf4jnsgd1na2vs0mg"},{"bike_id":"8d7925a5-2dfc-4b14-92b8-f57b4afdb9c2","system_id":"levelo_inurba_marseille","lat":43.2984,"lon":5.36278,"is_reserved":false,"is_disabled":false,"rental_uris":{"android":"levelo://app?vid=8d7925a5-2dfc-4b14-92b8-f57b4afdb9c2","ios":"levelo://app?vid=8d7925a5-2dfc-4b14-92b8-f57b4afdb9c2"},"vehicle_type_id":"4","last_reported":1762513762,"current_range_meters":20800,"station_id":"ce4bgpp2rcd13ifvqc3g","pricing_plan_id":"cebpf4jnsgd1na2vs0mg"},{"bike_id":"37eb212b-eb48-45a3-89dd-a2383762c960","system_id":"levelo_inurba_marseille","lat":43.32357,"lon":5.38895,"is_reserved":false,"is_disabled":true,"rental_uris":{"android":"levelo://app?vid=37eb212b-eb48-45a3-89dd-a2383762c960","ios":"levelo://app?vid=37eb212b-eb48-45a3-89dd-a2383762c960"},"vehicle_type_id":"4","last_reported":1762513762,"current_range_meters":20800,"station_id":"ce4bhqp2rcd13ifvqhog","pricing_plan_id":"cebpf4jnsgd1na2vs0mg"},{"bike_id":"1063fac4-8b5a-4514-a617-a71026d33eb4","system_id":"levelo_inurba_marseille","lat":43.31492,"lon":5.37282,"is_reserved":false,"is_disabled":false,"rental_uris":{"android":"levelo://app?vid=1063fac4-8b5a-4514-a617-a71026d33eb4","ios":"levelo://app?vid=1063fac4-8b5a-4514-a617-a71026d33eb4"},"vehicle_type_id":"4","last_reported":1762513762,"current_range_meters":20800,"station_id":"ce4bgt12rcd13ifvqcd0","pricing_plan_id":"cebpf4jnsgd1na2vs0mg"},{"bike_id":"06b572d6-d95a-4f1a-9a9a-b316897ad6d5","system_id":"levelo_inurba_marseille","lat":43.29545,"lon":5.3752,"is_reserved":false,"is_disabled":false,"rental_uris":{"android":"levelo://app?vid=06b572d6-d95a-4f1a-9a9a-b316897ad6d5","ios":"levelo://app?vid=06b572d6-d95a-4f1a-9a9a-b316897ad6d5"},"vehicle_type_id":"4","last_reported":1762513762,"current_range_meters":20800,"station_id":"ce4bgkp2rcd13ifvqbmg","pricing_plan_id":"cebpf4jnsgd1na2vs0mg"},{"bike_id":"4dcbbd80-4936-4524-bf17-c9ebe4bb4639","system_id":"levelo_inurba_marseille","lat":43.313415,"lon":5.367118,"is_reserved":false,"is_disabled":false,"rental_uris":{"android":"levelo://app?vid=4dcbbd80-4936-4524-bf17-c9ebe4bb4639","ios":"levelo://app?vid=4dcbbd80-4936-4524-bf17-c9ebe4bb4639"},"vehicle_type_id":"4","last_reported":1762513762,"current_range_meters":20800,"station_id":"ce4bgr92rcd13ifvqc6g","pricing_plan_id":"cebpf4jnsgd1na2vs0mg"},{"bike_id":"eac89817-c0a3-457c-be3e-782dc1fa0e3f","system_id":"levelo_inurba_marseille","lat":43.26677,"lon":5.3826,"is_reserved":false,"is_disabled":false,"rental_uris":{"android":"levelo://app?vid=eac89817-c0a3-457c-be3e-782dc1fa0e3f","ios":"levelo://app?vid=eac89817-c0a3-457c-be3e-782dc1fa0e3f"},"vehicle_type_id":"4","last_reported":1762513762,"current_range_meters":20800,"station_id":"ce4bhg92rcd13ifvqf90","pricing_plan_id":"cebpf4jnsgd1na2vs0mg"},{"bike_id":"201b136a-6446-438f-95cb-eafbde28b031","system_id":"levelo_inurba_marseille","lat":43.29908,"lon":5.3747,"is_reserved":false,"is_disabled":false,"rental_uris":{"android":"levelo://app?vid=201b136a-6446-438f-95cb-eafbde28b031","ios":"levelo://app?vid=201b136a-6446-438f-95cb-eafbde28b031"},"vehicle_type_id":"4","last_reported":1762513762,"current_range_meters":21600,"station_id":"","pricing_plan_id":"cebpf4jnsgd1na2vs0mg"},{"bike_id":"a63d58a3-3015-4b0f-9785-53af0a02c9d0","system_id":"levelo_inurba_marseille","lat":43.32104,"lon":5.36764,"is_reserved":false,"is_disabled":false,"rental_uris":{"android":"levelo://app?vid=a63d58a3-3015-4b0f-9785-53af0a02c9d0","ios":"levelo://app?vid=a63d58a3-3015-4b0f-9785-53af0a02c9d0"},"vehicle_type_id":"4","last_reported":1762513762,"current_range_meters":21600,"station_id":"ce4bhrh2rcd13ifvqhug","pricing_plan_id":"cebpf4jnsgd1na2vs0mg"},{"bike_id":"84fe45e7-b5e1-4cca-89d7-ead57bfc030e","system_id":"levelo_inurba_marseille","lat":43.25942,"lon":5.40883,"is_reserved":false,"is_disabled":false,"rental_uris":{"android":"levelo://app?vid=84fe45e7-b5e1-4cca-89d7-ead57bfc030e","ios":"levelo://app?vid=84fe45e7-b5e1-4cca-89d7-ead57bfc030e"},"vehicle_type_id":"4","last_reported":1762513762,"current_range_meters":21600,"station_id":"ce4bhm92rcd13ifvqglg","pricing_plan_id":"cebpf4jnsgd1na2vs0mg"},{"bike_id":"6de2ec50-3b96-45be-bb85-7298122c4786","system_id":"levelo_inurba_marseille","lat":43.2314,"lon":5.43722,"is_reserved":false,"is_disabled":false,"rental_uris":{"android":"levelo://app?vid=6de2ec50-3b96-45be-bb85-7298122c4786","ios":"levelo://app?vid=6de2ec50-3b96-45be-bb85-7298122c4786"},"vehicle_type_id":"4","last_reported":1762513762,"current_range_meters":21600,"station_id":"ce4bhmp2rcd13ifvqgog","pricing_plan_id":"cebpf4jnsgd1na2vs0mg"},{"bike_id":"a2387efa-5d08-4deb-8784-f0055e414bcf","system_id":"levelo_inurba_marseille","lat":43.29171,"lon":5.37172,"is_reserved":false,"is_disabled":false,"rental_uris":{"android":"levelo://app?vid=a2387efa-5d08-4deb-8784-f0055e414bcf","ios":"levelo://app?vid=a2387efa-5d08-4deb-8784-f0055e414bcf"},"vehicle_type_id":"4","last_reported":1762513762,"current_range_meters":21600,"station_id":"ce4bha92rcd13ifvqeh0","pricing_plan_id":"cebpf4jnsgd1na2vs0mg"},{"bike_id":"9012bcf8-bb63-442b-8823-1b956a32ae9e","system_id":"levelo_inurba_marseille","lat":43.301217,"lon":5.431126,"is_reserved":false,"is_disabled":false,"rental_uris":{"android":"levelo://app?vid=9012bcf8-bb63-442b-8823-1b956a32ae9e","ios":"levelo://app?vid=9012bcf8-bb63-442b-8823-1b956a32ae9e"},"vehicle_type_id":"4","last_reported":1762513762,"current_range_meters":21600,"station_id":"st_d3js3co5814s73ftftug","pricing_plan_id":"cebpf4jnsgd1na2vs0mg"},{"bike_id":"8dbf2eb9-40fb-4208-a27b-ab5e1c705547","system_id":"levelo_inurba_marseille","lat":43.30276,"lon":5.37702,"is_reserved":false,"is_disabled":false,"rental_uris":{"android":"levelo://app?vid=8dbf2eb9-40fb-4208-a27b-ab5e1c705547","ios":"levelo://app?vid=8dbf2eb9-40fb-4208-a27b-ab5e1c705547"},"vehicle_type_id":"4","last_reported":1762513762,"current_range_meters":21600,"station_id":"ce4bguh2rcd13ifvqcj0","pricing_plan_id":"cebpf4jnsgd1na2vs0mg"},{"bike_id":"075bfa87-5c1d-4ec2-b6d2-58efdc2d1d56","system_id":"levelo_inurba_marseille","lat":43.25332,"lon":5.42172,"is_reserved":false,"is_disabled":false,"rental_uris":{"android":"levelo://app?vid=075bfa87-5c1d-4ec2-b6d2-58efdc2d1d56","ios":"levelo://app?vid=075bfa87-5c1d-4ec2-b6d2-58efdc2d1d56"},"vehicle_type_id":"4","last_reported":1762513762,"current_range_meters":21600,"station_id":"st_d2m65c5bi1j21697t3ng","pricing_plan_id":"cebpf4jnsgd1na2vs0mg"},{"bike_id":"d3eb5158-7dc0-45a5-95ea-8477e7570267","system_id":"levelo_inurba_marseille","lat":43.28997,"lon":5.35604,"is_reserved":false,"is_disabled":false,"rental_uris":{"android":"levelo://app?vid=d3eb5158-7dc0-45a5-95ea-8477e7570267","ios":"levelo://app?vid=d3eb5158-7dc0-45a5-95ea-8477e7570267"},"vehicle_type_id":"4","last_reported":1762513762,"current_range_meters":21600,"station_id":"ce4bhb92rcd13ifvqen0","pricing_plan_id":"cebpf4jnsgd1na2vs0mg"},{"bike_id":"6fa65538-65ab-49fd-b7bd-0d0b01951d5f","system_id":"levelo_inurba_marseille","lat":43.25486,"lon":5.37657,"is_reserved":false,"is_disabled":false,"rental_uris":{"android":"levelo://app?vid=6fa65538-65ab-49fd-b7bd-0d0b01951d5f","ios":"levelo://app?vid=6fa65538-65ab-49fd-b7bd-0d0b01951d5f"},"vehicle_type_id":"4","last_reported":1762513762,"current_range_meters":21600,"station_id":"ce4bhh12rcd13ifvqff0","pricing_plan_id":"cebpf4jnsgd1na2vs0mg"},