{"last_updated":1727892802,"ttl":60,"version":"2.2","data":{"bikes":[{"bike_id":"aee3c472-36ee-4345-94c7-29a08aaefb00","system_id":"levelo_inurba_marseille","lat":43.30201,"lon":5.36635,"is_reserved":false,"is_disabled":false,"rental_uris":{"android":"levelo://app?vid=aee3c472-36ee-4345-94c7-29a08aaefb00","ios":"levelo://app?vid=aee3c472-36ee-4345-94c7-29a08aaefb00"},"vehicle_type_id":"4","last_reported":1727892802,"current_range_meters":4800,"station_id":"ce4bgrh2rcd13ifvqc8g","pricing_plan_id":"cebpf4jnsgd1na2vs0mg"},{"bike_id":"e65428d0-1312-4f72-9264-3815e9560ef2","system_id":"levelo_inurba_marseille","lat":43.28944,"lon":5.36644,"is_reserved":false,"is_disabled":false,"rental_uris":{"android":"levelo://app?vid=e65428d0-1312-4f72-9264-3815e9560ef2","ios":"levelo://app?vid=e65428d0-1312-4f72-9264-3815e9560ef2"},"vehicle_type_id":"4","last_reported":1727892802,"current_range_meters":38800,"station_id":"ce4bhap2rcd13ifvqek0","pricing_plan_id":"cebpf4jnsgd1na2vs0mg"},{"bike_id":"ff95fd71-a032-4106-b338-dfc900b7311c","system_id":"levelo_inurba_marseille","lat":43.28136,"lon":5.42671,"is_reserved":false,"is_disabled":false,"rental_uris":{"android":"levelo://app?vid=ff95fd71-a032-4106-b338-dfc900b7311c","ios":"levelo://app?vid=ff95fd71-a032-4106-b338-dfc900b7311c"},"vehicle_type_id":"4","last_reported":1727892802,"current_range_meters":6000,"station_id":"ce4bhnh2rcd13ifvqgug","pricing_plan_id":"cebpf4jnsgd1na2vs0mg"},{"bike_id":"1e1ea2e5-5826-481e-b756-422bbc9d2399","system_id":"levelo_inurba_marseille","lat":43.30879,"lon":5.39647,"is_reserved":false,"is_disabled":false,"rental_uris":{"android":"levelo://app?vid=1e1ea2e5-5826-481e-b756-422bbc9d2399","ios":"levelo://app?vid=1e1ea2e5-5826-481e-b756-422bbc9d2399"},"vehicle_type_id":"4","last_reported":1727892802,"current_range_meters":8000,"station_id":"ce4bh012rcd13ifvqcv0","pricing_plan_id":"cebpf4jnsgd1na2vs0mg"},{"bike_id":"b8d32f9e-42f8-4564-8290-6be3e340ccec","system_id":"levelo_inurba_marseille","lat":43.28036,"lon":5.36952,"is_reserved":false,"is_disabled":false,"rental_uris":{"android":"levelo://app?vid=b8d32f9e-42f8-4564-8290-6be3e340ccec","ios":"levelo://app?vid=b8d32f9e-42f8-4564-8290-6be3e340ccec"},"vehicle_type_id":"4","last_reported":1727892802,"current_range_meters":12800,"station_id":"ce4bha12rcd13ifvqef0","pricing_plan_id":"cebpf4jnsgd1na2vs0mg"},{"bike_id":"a17b295b-8667-4240-a566-2c1adc8b4c79","system_id":"levelo_inurba_marseille","lat":43.2841,"lon":5.37516,"is_reserved":false,"is_disabled":false,"rental_uris":{"android":"levelo://app?vid=a17b295b-8667-4240-a566-2c1adc8b4c79","ios":"levelo://app?vid=a17b295b-8667-4240-a566-2c1adc8b4c79"},"vehicle_type_id":"4","last_reported":1727892802,"current_range_meters":36800,"station_id":"ce4bh412rcd13ifvqds0","pricing_plan_id":"cebpf4jnsgd1na2vs0mg"},{"bike_id":"df4ec099-b188-48ab-96c7-11a1ce7c7011","system_id":"levelo_inurba_marseille","lat":43.24652,"lon":5.38898,"is_reserved":false,"is_disabled":false,"rental_uris":{"android":"levelo://app?vid=df4ec099-b188-48ab-96c7-11a1ce7c7011","ios":"levelo://app?vid=df4ec099-b188-48ab-96c7-11a1ce7c7011"},"vehicle_type_id":"4","last_reported":1727892802,"current_range_meters":14800,"station_id":"ce4bhg12rcd13ifvqf60","pricing_plan_id":"cebpf4jnsgd1na2vs0mg"},{"bike_id":"ff89b7e6-8dbb-4502-ae6b-954b46feae02","system_id":"levelo_inurba_marseille","lat":43.24997,"lon":5.38917,"is_reserved":false,"is_disabled":false,"rental_uris":{"android":"levelo://app?vid=ff89b7e6-8dbb-4502-ae6b-954b46feae02","ios":"levelo://app?vid=ff89b7e6-8dbb-4502-ae6b-954b46feae02"},"vehicle_type_id":"4","last_reported":1727892802,"current_range_meters":38800,"station_id":"ce4bhgp2rcd13ifvqfd0","pricing_plan_id":"cebpf4jnsgd1na2vs0mg"},{"bike_id":"41ad28df-d8b4-4ff1-9bbd-88e8c283e37d","system_id":"levelo_inurba_marseille","lat":43.29029,"lon":5.38642,"is_reserved":false,"is_disabled":false,"rental_uris":{"android":"levelo://app?vid=41ad28df-d8b4-4ff1-9bbd-88e8c283e37d","ios":"levelo://app?vid=41ad28df-d8b4-4ff1-9bbd-88e8c283e37d"},"vehicle_type_id":"4","last_reported":1727892802,"current_range_meters":38800,"station_id":"ce4bh4p2rcd13ifvqe0g","pricing_plan_id":"cebpf4jnsgd1na2vs0mg"},{"bike_id":"4b6721b8-1a28-4ce5-a9fa-1b893f7f0ac0","system_id":"levelo_inurba_marseille","lat":43.32479,"lon":5.36572,"is_reserved":false,"is_disabled":false,"rental_uris":{"android":"levelo://app?vid=4b6721b8-1a28-4ce5-a9fa-1b893f7f0ac0","ios":"levelo://app?vid=4b6721b8-1a28-4ce5-a9fa-1b893f7f0ac0"},"vehicle_type_id":"4","last_reported":1727892802,"current_range_meters":38400,"station_id":"ce4bhs12rcd13ifvqhvg","pricing_plan_id":"cebpf4jnsgd1na2vs0mg"},{"bike_id":"56991410-d98c-48b7-8ffa-26c899931d2b","system_id":"levelo_inurba_marseille","lat":43.28037,"lon":5.36947,"is_reserved":false,"is_disabled":false,"rental_uris":{"android":"levelo://app?vid=56991410-d98c-48b7-8ffa-26c899931d2b","ios":"levelo://app?vid=56991410-d98c-48b7-8ffa-26c899931d2b"},"vehicle_type_id":"4","last_reported":1727892802,"current_range_meters":18800,"station_id":"ce4bha12rcd13ifvqef0","pricing_plan_id":"cebpf4jnsgd1na2vs0mg"},{"bike_id":"3321b570-086d-4091-a24d-ba1d97ba7ad9","system_id":"levelo_inurba_marseille","lat":43.279818,"lon":5.416595,"is_reserved":false,"is_disabled":false,"rental_uris":{"android":"levelo://app?vid=3321b570-086d-4091-a24d-ba1d97ba7ad9","ios":"levelo://app?vid=3321b570-086d-4091-a24d-ba1d97ba7ad9"},"vehicle_type_id":"4","last_reported":1727892802,"current_range_meters":16000,"station_id":"ce4bho12rcd13ifvqh1g","pricing_plan_id":"cebpf4jnsgd1na2vs0mg"},{"bike_id":"4a9fc476-99a9-4330-8fe1-7f670e7a4b09","system_id":"levelo_inurba_marseille","lat":43.30537,"lon":5.38438,"is_reserved":false,"is_disabled":false,"rental_uris":{"android":"levelo://app?vid=4a9fc476-99a9-4330-8fe1-7f670e7a4b09","ios":"levelo://app?vid=4a9fc476-99a9-4330-8fe1-7f670e7a4b09"},"vehicle_type_id":"4","last_reported":1727892802,"current_range_meters":3600,"station_id":"ce4bgg92rcd13ifvqb30","pricing_plan_id":"cebpf4jnsgd1na2vs0mg"},{"bike_id":"dddc973e-b304-4d0c-b6cd-0f72c450fabb","system_id":"levelo_inurba_marseille","lat":43.305328,"lon":5.384207,"is_reserved":false,"is_disabled":false,"rental_uris":{"android":"levelo://app?vid=dddc973e-b304-4d0c-b6cd-0f72c450fabb","ios":"levelo://app?vid=dddc973e-b304-4d0c-b6cd-0f72c450fabb"},"vehicle_type_id":"4","last_reported":1727892802,"current_range_meters":28400,"station_id":"ce4bgg92rcd13ifvqb30","pricing_plan_id":"cebpf4jnsgd1na2vs0mg"},{"bike_id":"2c286492-88de-4ff2-9118-7dfbd7f14ab0","system_id":"levelo_inurba_marseille","lat":43.23965,"lon":5.3663,"is_reserved":false,"is_disabled":false,"rental_uris":{"android":"levelo://app?vid=2c286492-88de-4ff2-9118-7dfbd7f14ab0","ios":"levelo://app?vid=2c286492-88de-4ff2-9118-7dfbd7f14ab0"},"vehicle_type_id":"4","last_reported":1727892802,"current_range_meters":18000,"station_id":"ce4bhi12rcd13ifvqfp0","pricing_plan_id":"cebpf4jnsgd1na2vs0mg"},{"bike_id":"cbf38459-7573-4263-9008-ace0ce4801cf","system_id":"levelo_inurba_marseille","lat":43.25823,"lon":5.39442,"is_reserved":false,"is_disabled":false,"rental_uris":{"android":"levelo://app?vid=cbf38459-7573-4263-9008-ace0ce4801cf","ios":"levelo://app?vid=cbf38459-7573-4263-9008-ace0ce4801cf"},"vehicle_type_id":"4","last_reported":1727892802,"current_range_meters":39200,"station_id":"ce4bhip2rcd13ifvqft0","pricing_plan_id":"cebpf4jnsgd1na2vs0mg"},{"bike_id":"633bbb36-8f34-49db-bc9a-a232bcc79e42","system_id":"levelo_inurba_marseille","lat":43.29003,"lon":5.35618,"is_reserved":false,"is_disabled":false,"rental_uris":{"android":"levelo://app?vid=633bbb36-8f34-49db-bc9a-a232bcc79e42","ios":"levelo://app?vid=633bbb36-8f34-49db-bc9a-a232bcc79e42"},"vehicle_type_id":"4","last_reported":1727892802,"current_range_meters":18000,"station_id":"ce4bhb92rcd13ifvqen0","pricing_plan_id":"cebpf4jnsgd1na2vs0mg"},{"bike_id":"48571337-1f8b-49b3-bb76-5a55a13c658f","system_id":"levelo_inurba_marseille","lat":43.28938,"lon":5.36376,"is_reserved":false,"is_disabled":false,"rental_uris":{"android":"levelo://app?vid=48571337-1f8b-49b3-bb76-5a55a13c658f","ios":"levelo://app?vid=48571337-1f8b-49b3-bb76-5a55a13c658f"},"vehicle_type_id":"4","last_reported":1727892802,"current_range_meters":30400,"station_id":"ce4bhc92rcd13ifvqetg","pricing_plan_id":"cebpf4jnsgd1na2vs0mg"},{"bike_id":"8975a5a7-278f-4d5f-bd0b-adae377ca66d","system_id":"levelo_inurba_marseille","lat":43.24661,"lon":5.38172,"is_reserved":false,"is_disabled":false,"rental_uris":{"android":"levelo://app?vid=8975a5a7-278f-4d5f-bd0b-adae377ca66d","ios":"levelo://app?vid=8975a5a7-278f-4d5f-bd0b-adae377ca66d"},"vehicle_type_id":"4","last_reported":1727892802,"current_range_meters":38800,"station_id":"ce4bhih2rcd13ifvqfr0","pricing_plan_id":"cebpf4jnsgd1na2vs0mg"},{"bike_id":"e0efcafe-140c-4b6c-bf3e-8321f6e34148","system_id":"levelo_inurba_marseille","lat":43.23153,"lon":5.43713,"is_reserved":false,"is_disabled":false,"rental_uris":{"android":"levelo://app?vid=e0efcafe-140c-4b6c-bf3e-8321f6e34148","ios":"levelo://app?vid=e0efcafe-140c-4b6c-bf3e-8321f6e34148"},"vehicle_type_id":"4","last_reported":1727892802,"current_range_meters":17200,"station_id":"ce4bhmp2rcd13ifvqgog","pricing_plan_id":"cebpf4jnsgd1na2vs0mg"},{"bike_id":"e04e1c53-9631-4653-9bcf-f216ef894d09","system_id":"levelo_inurba_marseille","lat":43.26444,"lon":5.39189,"is_reserved":false,"is_disabled":false,"rental_uris":{"android":"levelo://app?vid=e04e1c53-9631-4653-9bcf-f216ef894d09","ios":"levelo://app?vid=e04e1c53-9631-4653-9bcf-f216ef894d09"},"vehicle_type_id":"4","last_reported":1727892802,"current_range_meters":5600,"station_id":"ce4bhip2rcd13ifvqft0","pricing_plan_id":"cebpf4jnsgd1na2vs0mg"},{"bike_id":"e6d74554-23a0-487a-a4a5-517f99f16711","system_id":"levelo_inurba_marseille","lat":43.29711,"lon":5.36609,"is_reserved":false,"is_disabled":false,"rental_uris":{"android":"levelo://app?vid=e6d74554-23a0-487a-a4a5-517f99f16711","ios":"levelo://app?vid=e6d74554-23a0-487a-a4a5-517f99f16711"},"vehicle_type_id":"4","last_reported":1727892802,"current_range_meters":8800,"station_id":"ce4bgn12rcd13ifvqbt0","pricing_plan_id":"cebpf4jnsgd1na2vs0mg"},{"bike_id":"5fefd207-7308-4f38-907f-846fdd4cc9ea","system_id":"levelo_inurba_marseille","lat":43.297833,"lon":5.364325,"is_reserved":false,"is_disabled":false,"rental_uris":{"android":"levelo://app?vid=5fefd207-7308-4f38-907f-846fdd4cc9ea","ios":"levelo://app?vid=5fefd207-7308-4f38-907f-846fdd4cc9ea"},"vehicle_type_id":"4","last_reported":1727892802,"current_range_meters":2800,"station_id":"ce4bgpp2rcd13ifvqc3g","pricing_plan_id":"cebpf4jnsgd1na2vs0mg"},{"bike_id":"baf545b0-7fa5-41ff-9fdc-e94b60c0513e","system_id":"levelo_inurba_marseille","lat":43.27842,"lon":5.40706,"is_reserved":false,"is_disabled":false,"rental_uris":{"android":"levelo://app?vid=baf545b0-7fa5-41ff-9fdc-e94b60c0513e","ios":"levelo://app?vid=baf545b0-7fa5-41ff-9fdc-e94b60c0513e"},"vehicle_type_id":"4","last_reported":1727892802,"current_range_meters":36400,"station_id":"ce4bhnh2rcd13ifvqgtg","pricing_plan_id":"cebpf4jnsgd1na2vs0mg"},{"bike_id":"f83c647d-2ad6-4bc8-a0a8-6f6d97c0c07b","system_id":"levelo_inurba_marseille","lat":43.28679,"lon":5.3867,"is_reserved":false,"is_disabled":false,"rental_uris":{"android":"levelo://app?vid=f83c647d-2ad6-4bc8-a0a8-6f6d97c0c07b","ios":"levelo://app?vid=f83c647d-2ad6-4bc8-a0a8-6f6d97c0c07b"},"vehicle_type_id":"4","last_reported":1727892802,"current_range_meters":30400,"station_id":"ce4bh492rcd13ifvqdug","pricing_plan_id":"cebpf4jnsgd1na2vs0mg"},{"bike_id":"94945039-c769-48e5-963d-b65d040459b1","system_id":"levelo_inurba_marseille","lat":43.29022,"lon":5.38651,"is_reserved":false,"is_disabled":false,"rental_uris":{"android":"levelo://app?vid=94945039-c769-48e5-963d-b65d040459b1","ios":"levelo://app?vid=94945039-c769-48e5-963d-b65d040459b1"},"vehicle_type_id":"4","last_reported":1727892802,"current_range_meters":38800,"station_id":"ce4bh4p2rcd13ifvqe0g","pricing_plan_id":"cebpf4jnsgd1na2vs0mg"},{"bike_id":"0c7936cf-f508-4786-bc01-68b5384c5cce","system_id":"levelo_inurba_marseille","lat":43.33013,"lon":5.39052,"is_reserved":false,"is_disabled":false,"rental_uris":{"android":"levelo://app?vid=0c7936cf-f508-4786-bc01-68b5384c5cce","ios":"levelo://app?vid=0c7936cf-f508-4786-bc01-68b5384c5cce"},"vehicle_type_id":"4","last_reported":1727892802,"current_range_meters":14400,"station_id":"ce4bhr92rcd13ifvqhrg","pricing_plan_id":"cebpf4jnsgd1na2vs0mg"},{"bike_id":"2a31f69a-3191-4942-aed6-8939e8f0b9ff","system_id":"levelo_inurba_marseille","lat":43.30588,"lon":5.37224,"is_reserved":false,"is_disabled":false,"rental_uris":{"android":"levelo://app?vid=2a31f69a-3191-4942-aed6-8939e8f0b9ff","ios":"levelo://app?vid=2a31f69a-3191-4942-aed6-8939e8f0b9ff"},"vehicle_type_id":"4","last_reported":1727892802,"current_range_meters":24400,"station_id":"ce4bgqh2rcd13ifvqc4g","pricing_plan_id":"cebpf4jnsgd1na2vs0mg"},{"bike_id":"1d75505e-ffb7-4a18-8a0b-7195700d7697","system_id":"levelo_inurba_marseille","lat":43.29985,"lon":5.37182,"is_reserved":false,"is_disabled":false,"rental_uris":{"android":"levelo://app?vid=1d75505e-ffb7-4a18-8a0b-7195700d7697","ios":"levelo://app?vid=1d75505e-ffb7-4a18-8a0b-7195700d7697"},"vehicle_type_id":"4","last_reported":1727892802,"current_range_meters":19600,"station_id":"ce4bgr92rcd13ifvqc7g","pricing_plan_id":"cebpf4jnsgd1na2vs0mg"},{"bike_id":"edcec755-5e83-4e40-86bc-adc5a35e2a82","system_id":"levelo_inurba_marseille","lat":43.292593,"lon":5.384403,"is_reserved":false,"is_disabled":false,"rental_uris":{"android":"levelo://app?vid=edcec755-5e83-4e40-86bc-adc5a35e2a82","ios":"levelo://app?vid=edcec755-5e83-4e40-86bc-adc5a35e2a82"},"vehicle_type_id":"4","last_reported":1727892802,"current_range_meters":6800,"station_id":"ce4bh692rcd13ifvqea0","pricing_plan_id":"cebpf4jnsgd1na2vs0mg"},{"bike_id":"a55b9c25-3b14-439c-b25c-d90cfd2310dd","system_id":"levelo_inurba_marseille","lat":43.29044,"lon":5.37565,"is_reserved":false,"is_disabled":false,"rental_uris":{"android":"levelo://app?vid=a55b9c25-3b14-439c-b25c-d90cfd2310dd","ios":"levelo://app?vid=a55b9c25-3b14-439c-b25c-d90cfd2310dd"},"vehicle_type_id":"4","last_reported":1727892802,"current_range_meters":6800,"station_id":"ce4bh692rcd13ifvqe90","pricing_plan_id":"cebpf4jnsgd1na2vs0mg"},{"bike_id":"24d92f51-0476-4c2e-838c-c91673ebb0c9","system_id":"levelo_inurba_marseille","lat":43.28155,"lon":5.42637,"is_reserved":false,"is_disabled":false,"rental_uris":{"android":"levelo://app?vid=24d92f51-0476-4c2e-838c-c91673ebb0c9","ios":"levelo://app?vid=24d92f51-0476-4c2e-838c-c91673ebb0c9"},"vehicle_type_id":"4","last_reported":1727892802,"current_range_meters":38800,"station_id":"ce4bhnh2rcd13ifvqgug","pricing_plan_id":"cebpf4jnsgd1na2vs0mg"},{"bike_id":"f7b9a415-3b10-4a77-a6ba-09882654679c","system_id":"levelo_inurba_marseille","lat":43.29281,"lon":5.40133,"is_reserved":false,"is_disabled":false,"rental_uris":{"android":"levelo://app?vid=f7b9a415-3b10-4a77-a6ba-09882654679c","ios":"levelo://app?vid=f7b9a415-3b10-4a77-a6ba-09882654679c"},"vehicle_type_id":"4","last_reported":1727892802,"current_range_meters":3600,"station_id":"ce4bh312rcd13ifvqdk0","pricing_plan_id":"cebpf4jnsgd1na2vs0mg"},{"bike_id":"2fea03ff-5567-4dd4-a53b-61c5a2b3f28c","system_id":"levelo_inurba_marseille","lat":43.29576,"lon":5.39972,"is_reserved":false,"is_disabled":false,"rental_uris":{"android":"levelo://app?vid=2fea03ff-5567-4dd4-a53b-61c5a2b3f28c","ios":"levelo://app?vid=2fea03ff-5567-4dd4-a53b-61c5a2b3f28c"},"vehicle_type_id":"4","last_reported":1727892802,"current_range_meters":20800,"station_id":"ce4bh312rcd13ifvqdj0","pricing_plan_id":"cebpf4jnsgd1na2vs0mg"},{"bike_id":"0d38caac-4e1b-4bc6-8634-fba8549655ca","system_id":"levelo_inurba_marseille","lat":43.3211,"lon":5.36779,"is_reserved":false,"is_disabled":false,"rental_uris":{"android":"levelo://app?vid=0d38caac-4e1b-4bc6-8634-fba8549655ca","ios":"levelo://app?vid=0d38caac-4e1b-4bc6-8634-fba8549655ca"},"vehicle_type_id":"4","last_reported":1727892802,"current_range_meters":38800,"station_id":"ce4bhrh2rcd13ifvqhug","pricing_plan_id":"cebpf4jnsgd1na2vs0mg"},{"bike_id":"e2c709ab-362f-4f28-8df2-e58b4fabe9a9","system_id":"levelo_inurba_marseille","lat":43.28097,"lon":5.37842,"is_reserved":false,"is_disabled":false,"rental_uris":{"android":"levelo://app?vid=e2c709ab-362f-4f28-8df2-e58b4fabe9a9","ios":"levelo://app?vid=e2c709ab-362f-4f28-8df2-e58b4fabe9a9"},"vehicle_type_id":"4","last_reported":1727892802,"current_range_meters":9600,"station_id":"ce4bha12rcd13ifvqee0","pricing_plan_id":"cebpf4jnsgd1na2vs0mg"},{"bike_id":"8cbfe876-1653-419e-b4a7-5232c69813a1","system_id":"levelo_inurba_marseille","lat":43.27812,"lon":5.40719,"is_reserved":false,"is_disabled":false,"rental_uris":{"android":"levelo://app?vid=8cbfe876-1653-419e-b4a7-5232c69813a1","ios":"levelo://app?vid=8cbfe876-1653-419e-b4a7-5232c69813a1"},"vehicle_type_id":"4","last_reported":1727892802,"current_range_meters":16000,"station_id":"ce4bhnh2rcd13ifvqgtg","pricing_plan_id":"cebpf4jnsgd1na2vs0mg"},{"bike_id":"d5b1b584-0623-4321-9636-b71cd55bf70a","system_id":"levelo_inurba_marseille","lat":43.29552,"lon":5.42296,"is_reserved":false,"is_disabled":false,"rental_uris":{"android":"levelo://app?vid=d5b1b584-0623-4321-9636-b71cd55bf70a","ios":"levelo://app?vid=d5b1b584-0623-4321-9636-b71cd55bf70a"},"vehicle_type_id":"4","last_reported":1727892802,"current_range_meters":39200,"station_id":"ce4bhph2rcd13ifvqhdg","pricing_plan_id":"cebpf4jnsgd1na2vs0mg"},{"bike_id":"244b6c9b-f197-4618-a8c9-5e3c388ab8d8","system_id":"levelo_inurba_marseille","lat":43.292087,"lon":5.393123,"is_reserved":false,"is_disabled":false,"rental_uris":{"android":"levelo://app?vid=244b6c9b-f197-4618-a8c9-5e3c388ab8d8","ios":"levelo://app?vid=244b6c9b-f197-4618-a8c9-5e3c388ab8d8"},"vehicle_type_id":"4","last_reported":1727892802,"current_range_meters":23200,"station_id":"ce4bh192rcd13ifvqdd0","pricing_plan_id":"cebpf4jnsgd1na2vs0mg"},{"bike_id":"499cb64c-6fb8-4407-89d8-a118e3c5c28d","system_id":"levelo_inurba_marseille","lat":43.27991,"lon":5.40016,"is_reserved":false,"is_disabled":false,"rental_uris":{"android":"levelo://app?vid=499cb64c-6fb8-4407-89d8-a118e3c5c28d","ios":"levelo://app?vid=499cb64c-6fb8-4407-89d8-a118e3c5c28d"},"vehicle_type_id":"4","last_reported":1727892802,"current_range_meters":24800,"station_id":"ce4bho92rcd13ifvqh4g","pricing_plan_id":"cebpf4jnsgd1na2vs0mg"},{"bike_id":"69425a54-3f5f-4f4d-b4ff-7fdc46fa9422","system_id":"levelo_inurba_marseille","lat":43.32032,"lon":5.4156,"is_reserved":false,"is_disabled":false,"rental_uris":{"android":"levelo://app?vid=69425a54-3f5f-4f4d-b4ff-7fdc46fa9422","ios":"levelo://app?vid=69425a54-3f5f-4f4d-b4ff-7fdc46fa9422"},"vehicle_type_id":"4","last_reported":1727892802,"current_range_meters":16800,"station_id":"ce4bhq92rcd13ifvqhkg","pricing_plan_id":"cebpf4jnsgd1na2vs0mg"},{"bike_id":"80528afb-5ee9-4f47-9381-7cd05b948a03","system_id":"levelo_inurba_marseille","lat":43.27989,"lon":5.40037,"is_reserved":false,"is_disabled":false,"rental_uris":{"android":"levelo://app?vid=80528afb-5ee9-4f47-9381-7cd05b948a03","ios":"levelo://app?vid=80528afb-5ee9-4f47-9381-7cd05b948a03"},"vehicle_type_id":"4","last_reported":1727892802,"current_range_meters":38000,"station_id":"ce4bho92rcd13ifvqh4g","pricing_plan_id":"cebpf4jnsgd1na2vs0mg"},{"bike_id":"e8ea8191-84ae-4b25-aaf3-7b4fe0bbf62b","system_id":"levelo_inurba_marseille","lat":43.30319,"lon":5.40443,"is_reserved":false,"is_disabled":false,"rental_uris":{"android":"levelo://app?vid=e8ea8191-84ae-4b25-aaf3-7b4fe0bbf62b","ios":"levelo://app?vid=e8ea8191-84ae-4b25-aaf3-7b4fe0bbf62b"},"vehicle_type_id":"4","last_reported":1727892802,"current_range_meters":36400,"station_id":"ce4bh012rcd13ifvqd10","pricing_plan_id":"cebpf4jnsgd1na2vs0mg"},{"bike_id":"f8bfc8e9-cbf9-4be7-891b-20e4969fd26a","system_id":"levelo_inurba_marseille","lat":43.30592,"lon":5.37212,"is_reserved":false,"is_disabled":false,"rental_uris":{"android":"levelo://app?vid=f8bfc8e9-cbf9-4be7-891b-20e4969fd26a","ios":"levelo://app?vid=f8bfc8e9-cbf9-4be7-891b-20e4969fd26a"},"vehicle_type_id":"4","last_reported":1727892802,"current_range_meters":38800,"station_id":"ce4bgqh2rcd13ifvqc4g","pricing_plan_id":"cebpf4jnsgd1na2vs0mg"},{"bike_id":"99ff6a93-9afd-403c-83e9-6bb6100170e6","system_id":"levelo_inurba_marseille","lat":43.32535,"lon":5.41454,"is_reserved":false,"is_disabled":false,"rental_uris":{"android":"levelo://app?vid=99ff6a93-9afd-403c-83e9-6bb6100170e6","ios":"levelo://app?vid=99ff6a93-9afd-403c-83e9-6bb6100170e6"},"vehicle_type_id":"4","last_reported":1727892802,"current_range_meters":37600,"station_id":"ce4bhq12rcd13ifvqhhg","pricing_plan_id":"cebpf4jnsgd1na2vs0mg"},{"bike_id":"1f8d1e3d-9d2a-4e06-afd4-5fea70da48f3","system_id":"levelo_inurba_marseille","lat":43.2466,"lon":5.38169,"is_reserved":false,"is_disabled":false,"rental_uris":{"android":"levelo://app?vid=1f8d1e3d-9d2a-4e06-afd4-5fea70da48f3","ios":"levelo://app?vid=1f8d1e3d-9d2a-4e06-afd4-5fea70da48f3"},"vehicle_type_id":"4","last_reported":1727892802,"current_range_meters":38000,"station_id":"ce4bhih2rcd13ifvqfr0","pricing_plan_id":"cebpf4jnsgd1na2vs0mg"},{"bike_id":"7fdd9c45-cf71-409d-b715-cdbb21940bb1","system_id":"levelo_inurba_marseille","lat":43.29274,"lon":5.36853,"is_reserved":false,"is_disabled":false,"rental_uris":{"android":"levelo://app?vid=7fdd9c45-cf71-409d-b715-cdbb21940bb1","ios":"levelo://app?vid=7fdd9c45-cf71-409d-b715-cdbb21940bb1"},"vehicle_type_id":"4","last_reported":1727892802,"current_range_meters":18000,"station_id":"ce4bhbp2rcd13ifvqesg","pricing_plan_id":"cebpf4jnsgd1na2vs0mg"},{"bike_id":"5ba09014-95c2-47cf-8478-22d88a901c57","system_id":"levelo_inurba_marseille","lat":43.30143,"lon":5.37422,"is_reserved":false,"is_disabled":false,"rental_uris":{"android":"levelo://app?vid=5ba09014-95c2-47cf-8478-22d88a901c57","ios":"levelo://app?vid=5ba09014-95c2-47cf-8478-22d88a901c57"},"vehicle_type_id":"4","last_reported":1727892802,"current_range_meters":36800,"station_id":"ce4bgs92rcd13ifvqcc0","pricing_plan_id":"cebpf4jnsgd1na2vs0mg"},{"bike_id":"bc57dd02-c984-4718-9539-75579673faa9","system_id":"levelo_inurba_marseille","lat":43.29972,"lon":5.38493,"is_reserved":false,"is_disabled":false,"rental_uris":{"android":"levelo://app?vid=bc57dd02-c984-4718-9539-75579673faa9","ios":"levelo://app?vid=bc57dd02-c984-4718-9539-75579673faa9"},"vehicle_type_id":"4","last_reported":1727892802,"current_range_meters":24000,"station_id":"ce4bgj92rcd13ifvqbd0","pricing_plan_id":"cebpf4jnsgd1na2vs0mg"},{"bike_id":"6e01237d-ab2c-4f28-a897-02949f7dd5c9","system_id":"levelo_inurba_marseille","lat":43.31713,"lon":5.43716,"is_reserved":false,"is_disabled":false,"rental_uris":{"android":"levelo://app?vid=6e01237d-ab2c-4f28-a897-02949f7dd5c9","ios":"levelo://app?vid=6e01237d-ab2c-4f28-a897-02949f7dd5c9"},"vehicle_type_id":"4","last_reported":1727892802,"current_range_meters":17200,"station_id":"ce4bhp92rcd13ifvqhcg","pricing_plan_id":"cebpf4jnsgd1na2vs0mg"},{"bike_id":"85f983f7-8708-4653-9ae5-64caacaeefa1","system_id":"levelo_inurba_marseille","lat":43.30246,"lon":5.40084,"is_reserved":false,"is_disabled":false,"rental_uris":{"android":"levelo://app?vid=85f983f7-8708-4653-9ae5-64caacaeefa1","ios":"levelo://app?vid=85f983f7-8708-4653-9ae5-64caacaeefa1"},"vehicle_type_id":"4","last_reported":1727892802,"current_range_meters":24400,"station_id":"ce4bgvh2rcd13ifvqcs0","pricing_plan_id":"cebpf4jnsgd1na2vs0mg"},{"bike_id":"dc92d372-6210-4517-8767-9d1a627fbf1d","system_id":"levelo_inurba_marseille","lat":43.25503,"lon":5.37653,"is_reserved":false,"is_disabled":false,"rental_uris":{"android":"levelo://app?vid=dc92d372-6210-4517-8767-9d1a627fbf1d","ios":"levelo://app?vid=dc92d372-6210-4517-8767-9d1a627fbf1d"},"vehicle_type_id":"4","last_reported":1727892802,"current_range_meters":36000,"station_id":"ce4bhh12rcd13ifvqff0","pricing_plan_id":"cebpf4jnsgd1na2vs0mg"},{"bike_id":"5b95b53b-de42-4354-8e1a-9524026b6a69","system_id":"levelo_inurba_marseille","lat":43.27915,"lon":5.39589,"is_reserved":false,"is_disabled":false,"rental_uris":{"android":"levelo://app?vid=5b95b53b-de42-4354-8e1a-9524026b6a69","ios":"levelo://app?vid=5b95b53b-de42-4354-8e1a-9524026b6a69"},"vehicle_type_id":"4","last_reported":1727892802,"current_range_meters":35200,"station_id":"ce4bhf92rcd13ifvqf40","pricing_plan_id":"cebpf4jnsgd1na2vs0mg"},{"bike_id":"508b3170-34e3-430c-b754-dd4ea96fae6e","system_id":"levelo_inurba_marseille","lat":43.28727,"lon":5.36089,"is_reserved":false,"is_disabled":false,"rental_uris":{"android":"levelo://app?vid=508b3170-34e3-430c-b754-dd4ea96fae6e","ios":"levelo://app?vid=508b3170-34e3-430c-b754-dd4ea96fae6e"},"vehicle_type_id":"4","last_reported":1727892802,"current_range_meters":38800,"station_id":"cki0cbj6b192h4jlfktg","pricing_plan_id":"cebpf4jnsgd1na2vs0mg"},{"bike_id":"30077ecd-1d3c-4ffe-bf30-a1a2991e1aca","system_id":"levelo_inurba_marseille","lat":43.23055,"lon":5.35498,"is_reserved":false,"is_disabled":false,"rental_uris":{"android":"levelo://app?vid=30077ecd-1d3c-4ffe-bf30-a1a2991e1aca","ios":"levelo://app?vid=30077ecd-1d3c-4ffe-bf30-a1a2991e1aca"},"vehicle_type_id":"4","last_reported":1727892802,"current_range_meters":36800,"station_id":"cpo3342slgdg3j2ifvpg","pricing_plan_id":"cebpf4jnsgd1na2vs0mg"},{"bike_id":"1bdcae76-e8ee-4e04-b74b-b52b6e564e4a","system_id":"levelo_inurba_marseille","lat":43.28108,"lon":5.37843,"is_reserved":false,"is_disabled":false,"rental_uris":{"android":"levelo://app?vid=1bdcae76-e8ee-4e04-b74b-b52b6e564e4a","ios":"levelo://app?vid=1bdcae76-e8ee-4e04-b74b-b52b6e564e4a"},"vehicle_type_id":"4","last_reported":1727892802,"current_range_meters":16800,"station_id":"ce4bha12rcd13ifvqee0","pricing_plan_id":"cebpf4jnsgd1na2vs0mg"},{"bike_id":"123ff6ed-4385-4a10-999b-eb298bcab43c","system_id":"levelo_inurba_marseille","lat":43.33025,"lon":5.39044,"is_reserved":false,"is_disabled":false,"rental_uris":{"android":"levelo://app?vid=123ff6ed-4385-4a10-999b-eb298bcab43c","ios":"levelo://app?vid=123ff6ed-4385-4a10-999b-eb298bcab43c"},"vehicle_type_id":"4","last_reported":1727892802,"current_range_meters":38800,"station_id":"ce4bhr92rcd13ifvqhrg","pricing_plan_id":"cebpf4jnsgd1na2vs0mg"},{"bike_id":"ad9bd38c-6e21-41e8-8513-132c1c15c21b","system_id":"levelo_inurba_marseille","lat":43.2987,"lon":5.43682,"is_reserved":false,"is_disabled":false,"rental_uris":{"android":"levelo://app?vid=ad9bd38c-6e21-41e8-8513-132c1c15c21b","ios":"levelo://app?vid=ad9bd38c-6e21-41e8-8513-132c1c15c21b"},"vehicle_type_id":"4","last_reported":1727892802,"current_range_meters":20000,"station_id":"ce4bhpp2rcd13ifvqhfg","pricing_plan_id":"cebpf4jnsgd1na2vs0mg"},{"bike_id":"3c8429f1-8026-4096-b02a-f5b7b84a408e","system_id":"levelo_inurba_marseille","lat":43.28923,"lon":5.38418,"is_reserved":false,"is_disabled":false,"rental_uris":{"android":"levelo://app?vid=3c8429f1-8026-4096-b02a-f5b7b84a408e","ios":"levelo://app?vid=3c8429f1-8026-4096-b02a-f5b7b84a408e"},"vehicle_type_id":"4","last_reported":1727892802,"current_range_meters":33600,"station_id":"ce4bh612rcd13ifvqe6g","pricing_plan_id":"cebpf4jnsgd1na2vs0mg"},{"bike_id":"b46e4c61-8163-485d-9be2-65e5149b61a2","system_id":"levelo_inurba_marseille","lat":43.26058,"lon":5.39403,"is_reserved":false,"is_disabled":false,"rental_uris":{"android":"levelo://app?vid=b46e4c61-8163-485d-9be2-65e5149b61a2","ios":"levelo://app?vid=b46e4c61-8163-485d-9be2-65e5149b61a2"},"vehicle_type_id":"4","last_reported":1727892802,"current_range_meters":24800,"station_id":"ce4bhh92rcd13ifvqfj0","pricing_plan_id":"cebpf4jnsgd1na2vs0mg"},{"bike_id":"1005daca-4e8f-4995-b74f-e596a9bae47b","system_id":"levelo_inurba_marseille","lat":43.26805,"lon":5.4027,"is_reserved":false,"is_disabled":false,"rental_uris":{"android":"levelo://app?vid=1005daca-4e8f-4995-b74f-e596a9bae47b","ios":"levelo://app?vid=1005daca-4e8f-4995-b74f-e596a9bae47b"},"vehicle_type_id":"4","last_reported":1727892802,"current_range_meters":10000,"station_id":"ce501612rcd8frsf0b60","pricing_plan_id":"cebpf4jnsgd1na2vs0mg"},{"bike_id":"38ef59b3-b946-4ca5-beac-73d11ed95720","system_id":"levelo_inurba_marseille","lat":43.28161,"lon":5.42644,"is_reserved":false,"is_disabled":false,"rental_uris":{"android":"levelo://app?vid=38ef59b3-b946-4ca5-beac-73d11ed95720","ios":"levelo://app?vid=38ef59b3-b946-4ca5-beac-73d11ed95720"},"vehicle_type_id":"4","last_reported":1727892802,"current_range_meters":13600,"station_id":"ce4bhnh2rcd13ifvqgug","pricing_plan_id":"cebpf4jnsgd1na2vs0mg"},{"bike_id":"751769b1-62db-464a-bf18-4222d99d9e30","system_id":"levelo_inurba_marseille","lat":43.24996,"lon":5.38935,"is_reserved":false,"is_disabled":false,"rental_uris":{"android":"levelo://app?vid=751769b1-62db-464a-bf18-4222d99d9e30","ios":"levelo://app?vid=751769b1-62db-464a-bf18-4222d99d9e30"},"vehicle_type_id":"4","last_reported":1727892802,"current_range_meters":38800,"station_id":"ce4bhgp2rcd13ifvqfd0","pricing_plan_id":"cebpf4jnsgd1na2vs0mg"},{"bike_id":"202bebf1-d05e-4077-a593-5c9a835551ff","system_id":"levelo_inurba_marseille","lat":43.302636,"lon":5.397051,"is_reserved":false,"is_disabled":false,"rental_uris":{"android":"levelo://app?vid=202bebf1-d05e-4077-a593-5c9a835551ff","ios":"levelo://app?vid=202bebf1-d05e-4077-a593-5c9a835551ff"},"vehicle_type_id":"4","last_reported":1727892802,"current_range_meters":2800,"station_id":"","pricing_plan_id":"cebpf4jnsgd1na2vs0mg"},{"bike_id":"ab699ff9-4730-461a-8db4-fdeab15c0f36","system_id":"levelo_inurba_marseille","lat":43.29025,"lon":5.38652,"is_reserved":false,"is_disabled":false,"rental_uris":{"android":"levelo://app?vid=ab699ff9-4730-461a-8db4-fdeab15c0f36","ios":"levelo://app?vid=ab699ff9-4730-461a-8db4-fdeab15c0f36"},"vehicle_type_id":"4","last_reported":1727892802,"current_range_meters":38800,"station_id":"ce4bh4p2rcd13ifvqe0g","pricing_plan_id":"cebpf4jnsgd1na2vs0mg"},{"bike_id":"0c96b1bb-428c-438b-9e93-a7688a1db556","system_id":"levelo_inurba_marseille","lat":43.31753,"lon":5.39021,"is_reserved":false,"is_disabled":false,"rental_uris":{"android":"levelo://app?vid=0c96b1bb-428c-438b-9e93-a7688a1db556","ios":"levelo://app?vid=0c96b1bb-428c-438b-9e93-a7688a1db556"},"vehicle_type_id":"4","last_reported":1727892802,"current_range_meters":8000,"station_id":"ce4bhqp2rcd13ifvqhng","pricing_plan_id":"cebpf4jnsgd1na2vs0mg"},{"bike_id":"9313cccd-55d8-4da2-887a-860e5af5bfc4","system_id":"levelo_inurba_marseille","lat":43.3171,"lon":5.43711,"is_reserved":false,"is_disabled":false,"rental_uris":{"android":"levelo://app?vid=9313cccd-55d8-4da2-887a-860e5af5bfc4","ios":"levelo://app?vid=9313cccd-55d8-4da2-887a-860e5af5bfc4"},"vehicle_type_id":"4","last_reported":1727892802,"current_range_meters":20000,"station_id":"ce4bhp92rcd13ifvqhcg","pricing_plan_id":"cebpf4jnsgd1na2vs0mg"},{"bike_id":"cddc9843-fee7-437e-b2f3-26f36fa987eb","system_id":"levelo_inurba_marseille","lat":43.27172,"lon":5.40998,"is_reserved":false,"is_disabled":false,"rental_uris":{"android":"levelo://app?vid=cddc9843-fee7-437e-b2f3-26f36fa987eb","ios":"levelo://app?vid=cddc9843-fee7-437e-b2f3-26f36fa987eb"},"vehicle_type_id":"4","last_reported":1727892802,"current_range_meters":18000,"station_id":"ce4bhl12rcd13ifvqgf0","pricing_plan_id":"cebpf4jnsgd1na2vs0mg"},{"bike_id":"af4beb08-abc9-4e05-a4c4-3e808b637c25","system_id":"levelo_inurba_marseille","lat":43.32366,"lon":5.3889,"is_reserved":false,"is_disabled":false,"rental_uris":{"android":"levelo://app?vid=af4beb08-abc9-4e05-a4c4-3e808b637c25","ios":"levelo://app?vid=af4beb08-abc9-4e05-a4c4-3e808b637c25"},"vehicle_type_id":"4","last_reported":1727892802,"current_range_meters":5600,"station_id":"ce4bhqp2rcd13ifvqhog","pricing_plan_id":"cebpf4jnsgd1na2vs0mg"},{"bike_id":"05ea7464-f5d1-462f-b9c6-e544cfc28818","system_id":"levelo_inurba_marseille","lat":43.29516,"lon":5.39044,"is_reserved":false,"is_disabled":false,"rental_uris":{"android":"levelo://app?vid=05ea7464-f5d1-462f-b9c6-e544cfc28818","ios":"levelo://app?vid=05ea7464-f5d1-462f-b9c6-e544cfc28818"},"vehicle_type_id":"4","last_reported":1727892802,"current_range_meters":32000,"station_id":"ce4bh3p2rcd13ifvqdp0","pricing_plan_id":"cebpf4jnsgd1na2vs0mg"},{"bike_id":"b482df99-7ee8-4eea-8d8b-1d22667db679","system_id":"levelo_inurba_marseille","lat":43.29334,"lon":5.42828,"is_reserved":false,"is_disabled":false,"rental_uris":{"android":"levelo://app?vid=b482df99-7ee8-4eea-8d8b-1d22667db679","ios":"levelo://app?vid=b482df99-7ee8-4eea-8d8b-1d22667db679"},"vehicle_type_id":"4","last_reported":1727892802,"current_range_meters":20400,"station_id":"","pricing_plan_id":"cebpf4jnsgd1na2vs0mg"},{"bike_id":"ef531ee4-2820-4dff-98a7-e3a605e42506","system_id":"levelo_inurba_marseille","lat":43.30329,"lon":5.4044,"is_reserved":false,"is_disabled":false,"rental_uris":{"android":"levelo://app?vid=ef531ee4-2820-4dff-98a7-e3a605e42506","ios":"levelo://app?vid=ef531ee4-2820-4dff-98a7-e3a605e42506"},"vehicle_type_id":"4","last_reported":1727892802,"current_range_meters":38800,"station_id":"ce4bh012rcd13ifvqd10","pricing_plan_id":"cebpf4jnsgd1na2vs0mg"},{"bike_id":"6ebf84a8-f4c3-4b20-9c8e-4d5ea7ee0800","system_id":"levelo_inurba_marseille","lat":43.3119,"lon":5.42953,"is_reserved":false,"is_disabled":false,"rental_uris":{"android":"levelo://app?vid=6ebf84a8-f4c3-4b20-9c8e-4d5ea7ee0800","ios":"levelo://app?vid=6ebf84a8-f4c3-4b20-9c8e-4d5ea7ee0800"},"vehicle_type_id":"4","last_reported":1727892802,"current_range_meters":6800,"station_id":"ce4bhp92rcd13ifvqhcg","pricing_plan_id":"cebpf4jnsgd1na2vs0mg"},{"bike_id":"2396aba7-c99b-4b8e-97f0-cc89734783f1","system_id":"levelo_inurba_marseille","lat":43.26208,"lon":5.37927,"is_reserved":false,"is_disabled":false,"rental_uris":{"android":"levelo://app?vid=2396aba7-c99b-4b8e-97f0-cc89734783f1","ios":"levelo://app?vid=2396aba7-c99b-4b8e-97f0-cc89734783f1"},"vehicle_type_id":"4","last_reported":1727892802,"current_range_meters":30000,"station_id":"ce4bhjp2rcd13ifvqg90","pricing_plan_id":"cebpf4jnsgd1na2vs0mg"},{"bike_id":"b21058d9-6ad9-4b9f-b92b-c9b8be1260ca","system_id":"levelo_inurba_marseille","lat":43.29033,"lon":5.38674,"is_reserved":false,"is_disabled":false,"rental_uris":{"android":"levelo://app?vid=b21058d9-6ad9-4b9f-b92b-c9b8be1260ca","ios":"levelo://app?vid=b21058d9-6ad9-4b9f-b92b-c9b8be1260ca"},"vehicle_type_id":"4","last_reported":1727892802,"current_range_meters":38800,"station_id":"ce4bh4p2rcd13ifvqe0g","pricing_plan_id":"cebpf4jnsgd1na2vs0mg"},{"bike_id":"9ace08f0-1de2-49a3-8db3-00be4c395904","system_id":"levelo_inurba_marseille","lat":43.25085,"lon":5.39524,"is_reserved":false,"is_disabled":false,"rental_uris":{"android":"levelo://app?vid=9ace08f0-1de2-49a3-8db3-00be4c395904","ios":"levelo://app?vid=9ace08f0-1de2-49a3-8db3-00be4c395904"},"vehicle_type_id":"4","last_reported":1727892802,"current_range_meters":39200,"station_id":"ce4bhm12rcd13ifvqgkg","pricing_plan_id":"cebpf4jnsgd1na2vs0mg"},{"bike_id":"53c6fe7a-c5f0-4c29-bdb6-08c6c7db5c71","system_id":"levelo_inurba_marseille","lat":43.32082,"lon":5.36772,"is_reserved":false,"is_disabled":false,"rental_uris":{"android":"levelo://app?vid=53c6fe7a-c5f0-4c29-bdb6-08c6c7db5c71","ios":"levelo://app?vid=53c6fe7a-c5f0-4c29-bdb6-08c6c7db5c71"},"vehicle_type_id":"4","last_reported":1727892802,"current_range_meters":14800,"station_id":"ce4bhrh2rcd13ifvqhug","pricing_plan_id":"cebpf4jnsgd1na2vs0mg"},{"bike_id":"5f9b9d40-4fc6-41a0-bd90-04150d6a63ea","system_id":"levelo_inurba_marseille","lat":43.31067,"lon":5.38367,"is_reserved":false,"is_disabled":false,"rental_uris":{"android":"levelo://app?vid=5f9b9d40-4fc6-41a0-bd90-04150d6a63ea","ios":"levelo://app?vid=5f9b9d40-4fc6-41a0-bd90-04150d6a63ea"},"vehicle_type_id":"4","last_reported":1727892802,"current_range_meters":10000,"station_id":"ce4bgv92rcd13ifvqcr0","pricing_plan_id":"cebpf4jnsgd1na2vs0mg"},{"bike_id":"e90c140b-0760-4bb0-aca2-3fa138cf7d4c","system_id":"levelo_inurba_marseille","lat":43.2883,"lon":5.39334,"is_reserved":false,"is_disabled":false,"rental_uris":{"android":"levelo://app?vid=e90c140b-0760-4bb0-aca2-3fa138cf7d4c","ios":"levelo://app?vid=e90c140b-0760-4bb0-aca2-3fa138cf7d4c"},"vehicle_type_id":"4","last_reported":1727892802,"current_range_meters":37600,"station_id":"ce4bh2p2rcd13ifvqdi0","pricing_plan_id":"cebpf4jnsgd1na2vs0mg"},{"bike_id":"5562a07e-7835-44b1-9c5e-f038b9ccbc18","system_id":"levelo_inurba_marseille","lat":43.28819,"lon":5.3918,"is_reserved":false,"is_disabled":false,"rental_uris":{"android":"levelo://app?vid=5562a07e-7835-44b1-9c5e-f038b9ccbc18","ios":"levelo://app?vid=5562a07e-7835-44b1-9c5e-f038b9ccbc18"},"vehicle_type_id":"4","last_reported":1727892802,"current_range_meters":36800,"station_id":"","pricing_plan_id":"cebpf4jnsgd1na2vs0mg"},{"bike_id":"6ce60676-3f86-4aaa-a5df-572436c32ad4","system_id":"levelo_inurba_marseille","lat":43.23192,"lon":5.35551,"is_reserved":false,"is_disabled":false,"rental_uris":{"android":"levelo://app?vid=6ce60676-3f86-4aaa-a5df-572436c32ad4","ios":"levelo://app?vid=6ce60676-3f86-4aaa-a5df-572436c32ad4"},"vehicle_type_id":"4","last_reported":1727892802,"current_range_meters":24400,"station_id":"ce4bhu92rcd13ifvqi70","pricing_plan_id":"cebpf4jnsgd1na2vs0mg"},{"bike_id":"92956c01-9282-4d6d-af22-88b69ff8ad02","system_id":"levelo_inurba_marseille","lat":43.29536,"lon":5.39025,"is_reserved":false,"is_disabled":false,"rental_uris":{"android":"levelo://app?vid=92956c01-9282-4d6d-af22-88b69ff8ad02","ios":"levelo://app?vid=92956c01-9282-4d6d-af22-88b69ff8ad02"},"vehicle_type_id":"4","last_reported":1727892802,"current_range_meters":35200,"station_id":"ce4bh3p2rcd13ifvqdp0","pricing_plan_id":"cebpf4jnsgd1na2vs0mg"},{"bike_id":"50f9bd0f-f3b7-4a5b-90a0-9e6744d790d2","system_id":"levelo_inurba_marseille","lat":43.29407,"lon":5.38637,"is_reserved":false,"is_disabled":false,"rental_uris":{"android":"levelo://app?vid=50f9bd0f-f3b7-4a5b-90a0-9e6744d790d2","ios":"levelo://app?vid=50f9bd0f-f3b7-4a5b-90a0-9e6744d790d2"},"vehicle_type_id":"4","last_reported":1727892802,"current_range_meters":38800,"station_id":"ce4bh2h2rcd13ifvqdh0","pricing_plan_id":"cebpf4jnsgd1na2vs0mg"},{"bike_id":"5eb05752-df29-470d-b11a-ef802cd70df1","system_id":"levelo_inurba_marseille","lat":43.301788,"lon":5.366338,"is_reserved":false,"is_disabled":false,"rental_uris":{"android":"levelo://app?vid=5eb05752-df29-470d-b11a-ef802cd70df1","ios":"levelo://app?vid=5eb05752-df29-470d-b11a-ef802cd70df1"},"vehicle_type_id":"4","last_reported":1727892802,"current_range_meters":12000,"station_id":"ce4bgrh2rcd13ifvqc8g","pricing_plan_id":"cebpf4jnsgd1na2vs0mg"},{"bike_id":"cafe6493-94e2-4dd3-a434-2d8fb26a9bc8","system_id":"levelo_inurba_marseille","lat":43.33023,"lon":5.39038,"is_reserved":false,"is_disabled":false,"rental_uris":{"android":"levelo://app?vid=cafe6493-94e2-4dd3-a434-2d8fb26a9bc8","ios":"levelo://app?vid=cafe6493-94e2-4dd3-a434-2d8fb26a9bc8"},"vehicle_type_id":"4","last_reported":1727892802,"current_range_meters":2000,"station_id":"ce4bhr92rcd13ifvqhrg","pricing_plan_id":"cebpf4jnsgd1na2vs0mg"},{"bike_id":"8fca1e2c-2b8f-4833-8179-ab1b9eea0206","system_id":"levelo_inurba_marseille","lat":43.289246,"lon":5.383932,"is_reserved":false,"is_disabled":false,"rental_uris":{"android":"levelo://app?vid=8fca1e2c-2b8f-4833-8179-ab1b9eea0206","ios":"levelo://app?vid=8fca1e2c-2b8f-4833-8179-ab1b9eea0206"},"vehicle_type_id":"4","last_reported":1727892802,"current_range_meters":20400,"station_id":"ce4bh612rcd13ifvqe6g","pricing_plan_id":"cebpf4jnsgd1na2vs0mg"},{"bike_id":"3f52831f-d1ca-4522-99f2-ca762dcd1821","system_id":"levelo_inurba_marseille","lat":43.317538,"lon":5.390154,"is_reserved":false,"is_disabled":false,"rental_uris":{"android":"levelo://app?vid=3f52831f-d1ca-4522-99f2-ca762dcd1821","ios":"levelo://app?vid=3f52831f-d1ca-4522-99f2-ca762dcd1821"},"vehicle_type_id":"4","last_reported":1727892802,"current_range_meters":7200,"station_id":"ce4bhqp2rcd13ifvqhng","pricing_plan_id":"cebpf4jnsgd1na2vs0mg"},{"bike_id":"c9896eba-aaec-44f9-9b8a-e57e089dac5b","system_id":"levelo_inurba_marseille","lat":43.269609,"lon":5.38651,"is_reserved":false,"is_disabled":false,"rental_uris":{"android":"levelo://app?vid=c9896eba-aaec-44f9-9b8a-e57e089dac5b","ios":"levelo://app?vid=c9896eba-aaec-44f9-9b8a-e57e089dac5b"},"vehicle_type_id":"4","last_reported":1727892802,"current_range_meters":22800,"station_id":"ce4bhh92rcd13ifvqfh0","pricing_plan_id":"cebpf4jnsgd1na2vs0mg"},{"bike_id":"2dbfc124-aed4-490b-99da-d41b2e392df6","system_id":"levelo_inurba_marseille","lat":43.31498,"lon":5.37312,"is_reserved":false,"is_disabled":false,"rental_uris":{"android":"levelo://app?vid=2dbfc124-aed4-490b-99da-d41b2e392df6","ios":"levelo://app?vid=2dbfc124-aed4-490b-99da-d41b2e392df6"},"vehicle_type_id":"4","last_reported":1727892802,"current_range_meters":28000,"station_id":"ce4bgt12rcd13ifvqcd0","pricing_plan_id":"cebpf4jnsgd1na2vs0mg"},{"bike_id":"47b82b6e-6a4d-45c2-9b74-52556e73971e","system_id":"levelo_inurba_marseille","lat":43.30099,"lon":5.39075,"is_reserved":false,"is_disabled":false,"rental_uris":{"android":"levelo://app?vid=47b82b6e-6a4d-45c2-9b74-52556e73971e","ios":"levelo://app?vid=47b82b6e-6a4d-45c2-9b74-52556e73971e"},"vehicle_type_id":"4","last_reported":1727892802,"current_range_meters":30400,"station_id":"ce4bh012rcd13ifvqd00","pricing_plan_id":"cebpf4jnsgd1na2vs0mg"},{"bike_id":"ceee71b5-ee63-42a3-ae18-2ab4cbec44d9","system_id":"levelo_inurba_marseille","lat":43.24804,"lon":5.37458,"is_reserved":false,"is_disabled":false,"rental_uris":{"android":"levelo://app?vid=ceee71b5-ee63-42a3-ae18-2ab4cbec44d9","ios":"levelo://app?vid=ceee71b5-ee63-42a3-ae18-2ab4cbec44d9"},"vehicle_type_id":"4","last_reported":1727892802,"current_range_meters":32800,"station_id":"ce4bhgh2rcd13ifvqfb0","pricing_plan_id":"cebpf4jnsgd1na2vs0mg"},{"bike_id":"74925788-746e-4704-86a3-45ee3bc0ed44","system_id":"levelo_inurba_marseille","lat":43.27994,"lon":5.41658,"is_reserved":false,"is_disabled":false,"rental_uris":{"android":"levelo://app?vid=74925788-746e-4704-86a3-45ee3bc0ed44","ios":"levelo://app?vid=74925788-746e-4704-86a3-45ee3bc0ed44"},"vehicle_type_id":"4","last_reported":1727892802,"current_range_meters":6400,"station_id":"ce4bho12rcd13ifvqh1g","pricing_plan_id":"cebpf4jnsgd1na2vs0mg"},{"bike_id":"785ff0d2-ad8b-4a28-aec8-f07bea988d3e","system_id":"levelo_inurba_marseille","lat":43.25869,"lon":5.39903,"is_reserved":false,"is_disabled":false,"rental_uris":{"android":"levelo://app?vid=785ff0d2-ad8b-4a28-aec8-f07bea988d3e","ios":"levelo://app?vid=785ff0d2-ad8b-4a28-aec8-f07bea988d3e"},"vehicle_type_id":"4","last_reported":1727892802,"current_range_meters":8400,"station_id":"ce4bhl92rcd13ifvqghg","pricing_plan_id":"cebpf4jnsgd1na2vs0mg"},{"bike_id":"418d7258-530e-44a3-a585-36caaf0158c4","system_id":"levelo_inurba_marseille","lat":43.29268,"lon":5.38448,"is_reserved":false,"is_disabled":false,"rental_uris":{"android":"levelo://app?vid=418d7258-530e-44a3-a585-36caaf0158c4","ios":"levelo://app?vid=418d7258-530e-44a3-a585-36caaf0158c4"},"vehicle_type_id":"4","last_reported":1727892802,"current_range_meters":25200,"station_id":"ce4bh692rcd13ifvqea0","pricing_plan_id":"cebpf4jnsgd1na2vs0mg"},{"bike_id":"dec2eda8-e00e-476e-b4cb-bd642857a70d","system_id":"levelo_inurba_marseille","lat":43.30136,"lon":5.38782,"is_reserved":false,"is_disabled":false,"rental_uris":{"android":"levelo://app?vid=dec2eda8-e00e-476e-b4cb-bd642857a70d","ios":"levelo://app?vid=dec2eda8-e00e-476e-b4cb-bd642857a70d"},"vehicle_type_id":"4","last_reported":1727892802,"current_range_meters":19600,"station_id":"ce4bghh2rcd13ifvqb60","pricing_plan_id":"cebpf4jnsgd1na2vs0mg"},{"bike_id":"21f3997c-70ba-40bb-97bf-afaafb36fe33","system_id":"levelo_inurba_marseille","lat":43.29926,"lon":5.3815,"is_reserved":false,"is_disabled":false,"rental_uris":{"android":"levelo://app?vid=21f3997c-70ba-40bb-97bf-afaafb36fe33","ios":"levelo://app?vid=21f3997c-70ba-40bb-97bf-afaafb36fe33"},"vehicle_type_id":"4","last_reported":1727892802,"current_range_meters":19200,"station_id":"ce4bgj12rcd13ifvqbc0","pricing_plan_id":"cebpf4jnsgd1na2vs0mg"},{"bike_id":"97d68af4-7ae3-4acf-bda2-c67ef55165dd","system_id":"levelo_inurba_marseille","lat":43.27996,"lon":5.4166,"is_reserved":false,"is_disabled":false,"rental_uris":{"android":"levelo://app?vid=97d68af4-7ae3-4acf-bda2-c67ef55165dd","ios":"levelo://app?vid=97d68af4-7ae3-4acf-bda2-c67ef55165dd"},"vehicle_type_id":"4","last_reported":1727892802,"current_range_meters":16800,"station_id":"ce4bho12rcd13ifvqh1g","pricing_plan_id":"cebpf4jnsgd1na2vs0mg"},{"bike_id":"2b769238-5ec5-4162-b52b-987ddf715384","system_id":"levelo_inurba_marseille","lat":43.30795,"lon":5.43521,"is_reserved":false,"is_disabled":false,"rental_uris":{"android":"levelo://app?vid=2b769238-5ec5-4162-b52b-987ddf715384","ios":"levelo://app?vid=2b769238-5ec5-4162-b52b-987ddf715384"},"vehicle_type_id":"4","last_reported":1727892802,"current_range_meters":17600,"station_id":"ce4bhph2rcd13ifvqheg","pricing_plan_id":"cebpf4jnsgd1na2vs0mg"},{"bike_id":"c8e4ff73-620c-4248-92f7-758d5098242c","system_id":"levelo_inurba_marseille","lat":43.22916,"lon":5.35366,"is_reserved":false,"is_disabled":false,"rental_uris":{"android":"levelo://app?vid=c8e4ff73-620c-4248-92f7-758d5098242c","ios":"levelo://app?vid=c8e4ff73-620c-4248-92f7-758d5098242c"},"vehicle_type_id":"4","last_reported":1727892802,"current_range_meters":31200,"station_id":"cpo3532slgdg3j2ikp40","pricing_plan_id":"cebpf4jnsgd1na2vs0mg"},{"bike_id":"fe8a9b08-db81-4ef1-ab92-a58a79518b84","system_id":"levelo_inurba_marseille","lat":43.31269,"lon":5.40179,"is_reserved":false,"is_disabled":false,"rental_uris":{"android":"levelo://app?vid=fe8a9b08-db81-4ef1-ab92-a58a79518b84","ios":"levelo://app?vid=fe8a9b08-db81-4ef1-ab92-a58a79518b84"},"vehicle_type_id":"4","last_reported":1727892802,"current_range_meters":30800,"station_id":"ce4bh492rcd13ifvqdug","pricing_plan_id":"cebpf4jnsgd1na2vs0mg"},{"bike_id":"a2c9d47a-1ac9-412d-9066-c56e5bab3cc7","system_id":"levelo_inurba_marseille","lat":43.2882,"lon":5.39188,"is_reserved":false,"is_disabled":false,"rental_uris":{"android":"levelo://app?vid=a2c9d47a-1ac9-412d-9066-c56e5bab3cc7","ios":"levelo://app?vid=a2c9d47a-1ac9-412d-9066-c56e5bab3cc7"},"vehicle_type_id":"4","last_reported":1727892802,"current_range_meters":10000,"station_id":"","pricing_plan_id":"cebpf4jnsgd1na2vs0mg"},{"bike_id":"2a550bc4-26d9-48bb-96a8-0d849fc01e9a","system_id":"levelo_inurba_marseille","lat":43.30143,"lon":5.39837,"is_reserved":false,"is_disabled":false,"rental_uris":{"android":"levelo://app?vid=2a550bc4-26d9-48bb-96a8-0d849fc01e9a","ios":"levelo://app?vid=2a550bc4-26d9-48bb-96a8-0d849fc01e9a"},"vehicle_type_id":"4","last_reported":1727892802,"current_range_meters":28000,"station_id":"ce4bh0h2rcd13ifvqd40","pricing_plan_id":"cebpf4jnsgd1na2vs0mg"},{"bike_id":"2138010f-728f-4b3c-8e48-7d74788acdd1","system_id":"levelo_inurba_marseille","lat":43.284698,"lon":5.391657,"is_reserved":false,"is_disabled":false,"rental_uris":{"android":"levelo://app?vid=2138010f-728f-4b3c-8e48-7d74788acdd1","ios":"levelo://app?vid=2138010f-728f-4b3c-8e48-7d74788acdd1"},"vehicle_type_id":"4","last_reported":1727892802,"current_range_meters":30000,"station_id":"ce4bhoh2rcd13ifvqh5g","pricing_plan_id":"cebpf4jnsgd1na2vs0mg"},{"bike_id":"bf6c284e-628a-4b5f-9004-3c185baed596","system_id":"levelo_inurba_marseille","lat":43.24997,"lon":5.3894,"is_reserved":false,"is_disabled":false,"rental_uris":{"android":"levelo://app?vid=bf6c284e-628a-4b5f-9004-3c185baed596","ios":"levelo://app?vid=bf6c284e-628a-4b5f-9004-3c185baed596"},"vehicle_type_id":"4","last_reported":1727892802,"current_range_meters":2800,"station_id":"ce4bhgp2rcd13ifvqfd0","pricing_plan_id":"cebpf4jnsgd1na2vs0mg"},{"bike_id":"340f9ee7-1757-4488-9374-3982ac0e4f3f","system_id":"levelo_inurba_marseille","lat":43.28987,"lon":5.37839,"is_reserved":false,"is_disabled":false,"rental_uris":{"android":"levelo://app?vid=340f9ee7-1757-4488-9374-3982ac0e4f3f","ios":"levelo://app?vid=340f9ee7-1757-4488-9374-3982ac0e4f3f"},"vehicle_type_id":"4","last_reported":1727892802,"current_range_meters":9600,"station_id":"ce4bh9p2rcd13ifvqed0","pricing_plan_id":"cebpf4jnsgd1na2vs0mg"},{"bike_id":"374a5b1f-b62a-4fd4-b87f-f0a89b7d8574","system_id":"levelo_inurba_marseille","lat":43.3032,"lon":5.40442,"is_reserved":false,"is_disabled":false,"rental_uris":{"android":"levelo://app?vid=374a5b1f-b62a-4fd4-b87f-f0a89b7d8574","ios":"levelo://app?vid=374a5b1f-b62a-4fd4-b87f-f0a89b7d8574"},"vehicle_type_id":"4","last_reported":1727892802,"current_range_meters":18000,"station_id":"ce4bh012rcd13ifvqd10","pricing_plan_id":"cebpf4jnsgd1na2vs0mg"},{"bike_id":"efd7f4a4-f643-4e47-8711-5f41bbf16e36","system_id":"levelo_inurba_marseille","lat":43.295934,"lon":5.368394,"is_reserved":false,"is_disabled":false,"rental_uris":{"android":"levelo://app?vid=efd7f4a4-f643-4e47-8711-5f41bbf16e36","ios":"levelo://app?vid=efd7f4a4-f643-4e47-8711-5f41bbf16e36"},"vehicle_type_id":"4","last_reported":1727892802,"current_range_meters":21600,"station_id":"ce4bgup2rcd13ifvqcn0","pricing_plan_id":"cebpf4jnsgd1na2vs0mg"},{"bike_id":"f9bc1128-ef78-4d22-b80b-8c72e8e4945d","system_id":"levelo_inurba_marseille","lat":43.29264,"lon":5.38446,"is_reserved":false,"is_disabled":false,"rental_uris":{"android":"levelo://app?vid=f9bc1128-ef78-4d22-b80b-8c72e8e4945d","ios":"levelo://app?vid=f9bc1128-ef78-4d22-b80b-8c72e8e4945d"},"vehicle_type_id":"4","last_reported":1727892802,"current_range_meters":22800,"station_id":"ce4bhp92rcd13ifvqhbg","pricing_plan_id":"cebpf4jnsgd1na2vs0mg"},{"bike_id":"b000d63f-5da8-4bff-9321-72d58490e007","system_id":"levelo_inurba_marseille","lat":43.299504,"lon":5.397609,"is_reserved":false,"is_disabled":false,"rental_uris":{"android":"levelo://app?vid=b000d63f-5da8-4bff-9321-72d58490e007","ios":"levelo://app?vid=b000d63f-5da8-4bff-9321-72d58490e007"},"vehicle_type_id":"4","last_reported":1727892802,"current_range_meters":19200,"station_id":"ce4bh292rcd13ifvqdf0","pricing_plan_id":"cebpf4jnsgd1na2vs0mg"},{"bike_id":"6d25be08-0b4a-48bc-ab94-c17bca6dd149","system_id":"levelo_inurba_marseille","lat":43.292653,"lon":5.384434,"is_reserved":false,"is_disabled":false,"rental_uris":{"android":"levelo://app?vid=6d25be08-0b4a-48bc-ab94-c17bca6dd149","ios":"levelo://app?vid=6d25be08-0b4a-48bc-ab94-c17bca6dd149"},"vehicle_type_id":"4","last_reported":1727892802,"current_range_meters":4800,"station_id":"ce4bh692rcd13ifvqea0","pricing_plan_id":"cebpf4jnsgd1na2vs0mg"},{"bike_id":"695047c7-52a2-4db8-8a16-7780657ed2cc","system_id":"levelo_inurba_marseille","lat":43.26057,"lon":5.39393,"is_reserved":false,"is_disabled":false,"rental_uris":{"android":"levelo://app?vid=695047c7-52a2-4db8-8a16-7780657ed2cc","ios":"levelo://app?vid=695047c7-52a2-4db8-8a16-7780657ed2cc"},"vehicle_type_id":"4","last_reported":1727892802,"current_range_meters":22800,"station_id":"ce4bhh92rcd13ifvqfj0","pricing_plan_id":"cebpf4jnsgd1na2vs0mg"},{"bike_id":"38677c3c-b9ff-436a-b386-d766bfba54a1","system_id":"levelo_inurba_marseille","lat":43.27992,"lon":5.4003,"is_reserved":false,"is_disabled":false,"rental_uris":{"android":"levelo://app?vid=38677c3c-b9ff-436a-b386-d766bfba54a1","ios":"levelo://app?vid=38677c3c-b9ff-436a-b386-d766bfba54a1"},"vehicle_type_id":"4","last_reported":1727892802,"current_range_meters":3200,"station_id":"ce4bho92rcd13ifvqh4g","pricing_plan_id":"cebpf4jnsgd1na2vs0mg"},{"bike_id":"82d7300e-98c3-4f85-b98f-32dd25838047","system_id":"levelo_inurba_marseille","lat":43.31217,"lon":5.36854,"is_reserved":false,"is_disabled":false,"rental_uris":{"android":"levelo://app?vid=82d7300e-98c3-4f85-b98f-32dd25838047","ios":"levelo://app?vid=82d7300e-98c3-4f85-b98f-32dd25838047"},"vehicle_type_id":"4","last_reported":1727892802,"current_range_meters":35200,"station_id":"ce4bgl92rcd13ifvqbq0","pricing_plan_id":"cebpf4jnsgd1na2vs0mg"},{"bike_id":"d79ae66b-397c-4581-b417-ed20cf093fe1","system_id":"levelo_inurba_marseille","lat":43.31228,"lon":5.36852,"is_reserved":false,"is_disabled":false,"rental_uris":{"android":"levelo://app?vid=d79ae66b-397c-4581-b417-ed20cf093fe1","ios":"levelo://app?vid=d79ae66b-397c-4581-b417-ed20cf093fe1"},"vehicle_type_id":"4","last_reported":1727892802,"current_range_meters":39200,"station_id":"ce4bgl92rcd13ifvqbq0","pricing_plan_id":"cebpf4jnsgd1na2vs0mg"},{"bike_id":"23fcd5dc-52e3-40b6-b601-8da82c35b64a","system_id":"levelo_inurba_marseille","lat":43.23189,"lon":5.35551,"is_reserved":false,"is_disabled":false,"rental_uris":{"android":"levelo://app?vid=23fcd5dc-52e3-40b6-b601-8da82c35b64a","ios":"levelo://app?vid=23fcd5dc-52e3-40b6-b601-8da82c35b64a"},"vehicle_type_id":"4","last_reported":1727892802,"current_range_meters":5600,"station_id":"ce4bhu92rcd13ifvqi70","pricing_plan_id":"cebpf4jnsgd1na2vs0mg"},{"bike_id":"c31b9c32-1716-4eec-aa79-f48f50ec5f06","system_id":"levelo_inurba_marseille","lat":43.23187,"lon":5.4,"is_reserved":false,"is_disabled":false,"rental_uris":{"android":"levelo://app?vid=c31b9c32-1716-4eec-aa79-f48f50ec5f06","ios":"levelo://app?vid=c31b9c32-1716-4eec-aa79-f48f50ec5f06"},"vehicle_type_id":"4","last_reported":1727892802,"current_range_meters":39200,"station_id":"ce4bhn12rcd13ifvqgqg","pricing_plan_id":"cebpf4jnsgd1na2vs0mg"},{"bike_id":"c0983b7c-bc71-4bb9-a2fd-91543247be90","system_id":"levelo_inurba_marseille","lat":43.29305,"lon":5.37177,"is_reserved":false,"is_disabled":false,"rental_uris":{"android":"levelo://app?vid=c0983b7c-bc71-4bb9-a2fd-91543247be90","ios":"levelo://app?vid=c0983b7c-bc71-4bb9-a2fd-91543247be90"},"vehicle_type_id":"4","last_reported":1727892802,"current_range_meters":18000,"station_id":"ce4bgh92rcd13ifvqb40","pricing_plan_id":"cebpf4jnsgd1na2vs0mg"},{"bike_id":"5d859c5d-dff8-4b20-81e1-72960281c79d","system_id":"levelo_inurba_marseille","lat":43.3248,"lon":5.36582,"is_reserved":false,"is_disabled":false,"rental_uris":{"android":"levelo://app?vid=5d859c5d-dff8-4b20-81e1-72960281c79d","ios":"levelo://app?vid=5d859c5d-dff8-4b20-81e1-72960281c79d"},"vehicle_type_id":"4","last_reported":1727892802,"current_range_meters":38800,"station_id":"ce4bhs12rcd13ifvqhvg","pricing_plan_id":"cebpf4jnsgd1na2vs0mg"},{"bike_id":"60e94a07-6f41-4780-97f2-417e38e582d5","system_id":"levelo_inurba_marseille","lat":43.29581,"lon":5.36747,"is_reserved":false,"is_disabled":false,"rental_uris":{"android":"levelo://app?vid=60e94a07-6f41-4780-97f2-417e38e582d5","ios":"levelo://app?vid=60e94a07-6f41-4780-97f2-417e38e582d5"},"vehicle_type_id":"4","last_reported":1727892802,"current_range_meters":38800,"station_id":"ce4bgph2rcd13ifvqc2g","pricing_plan_id":"cebpf4jnsgd1na2vs0mg"},{"bike_id":"1c7b42bf-32d8-4ce8-aa4b-48d5e754dce2","system_id":"levelo_inurba_marseille","lat":43.30326,"lon":5.40435,"is_reserved":false,"is_disabled":false,"rental_uris":{"android":"levelo://app?vid=1c7b42bf-32d8-4ce8-aa4b-48d5e754dce2","ios":"levelo://app?vid=1c7b42bf-32d8-4ce8-aa4b-48d5e754dce2"},"vehicle_type_id":"4","last_reported":1727892802,"current_range_meters":12400,"station_id":"ce4bh012rcd13ifvqd10","pricing_plan_id":"cebpf4jnsgd1na2vs0mg"},{"bike_id":"d9513a24-3235-43a7-b9a5-1c5cfe37603f","system_id":"levelo_inurba_marseille","lat":43.23055,"lon":5.35499,"is_reserved":false,"is_disabled":false,"rental_uris":{"android":"levelo://app?vid=d9513a24-3235-43a7-b9a5-1c5cfe37603f","ios":"levelo://app?vid=d9513a24-3235-43a7-b9a5-1c5cfe37603f"},"vehicle_type_id":"4","last_reported":1727892802,"current_range_meters":34000,"station_id":"cpo3342slgdg3j2ifvpg","pricing_plan_id":"cebpf4jnsgd1na2vs0mg"},{"bike_id":"772088a0-7828-4f69-ba5d-0f6cdb83dec2","system_id":"levelo_inurba_marseille","lat":43.337444,"lon":5.374475,"is_reserved":false,"is_disabled":false,"rental_uris":{"android":"levelo://app?vid=772088a0-7828-4f69-ba5d-0f6cdb83dec2","ios":"levelo://app?vid=772088a0-7828-4f69-ba5d-0f6cdb83dec2"},"vehicle_type_id":"4","last_reported":1727892802,"current_range_meters":4800,"station_id":"","pricing_plan_id":"cebpf4jnsgd1na2vs0mg"},{"bike_id":"ec4c179f-d579-4b68-b1a2-144a6359fa6c","system_id":"levelo_inurba_marseille","lat":43.30322,"lon":5.40458,"is_reserved":false,"is_disabled":false,"rental_uris":{"android":"levelo://app?vid=ec4c179f-d579-4b68-b1a2-144a6359fa6c","ios":"levelo://app?vid=ec4c179f-d579-4b68-b1a2-144a6359fa6c"},"vehicle_type_id":"4","last_reported":1727892802,"current_range_meters":38800,"station_id":"ce4bh012rcd13ifvqd10","pricing_plan_id":"cebpf4jnsgd1na2vs0mg"},{"bike_id":"89f79560-9417-4d80-afea-9f3796d9baaf","system_id":"levelo_inurba_marseille","lat":43.337444,"lon":5.374475,"is_reserved":false,"is_disabled":false,"rental_uris":{"android":"levelo://app?vid=89f79560-9417-4d80-afea-9f3796d9baaf","ios":"levelo://app?vid=89f79560-9417-4d80-afea-9f3796d9baaf"},"vehicle_type_id":"4","last_reported":1727892802,"current_range_meters":14000,"station_id":"","pricing_plan_id":"cebpf4jnsgd1na2vs0mg"},{"bike_id":"20261d7d-d2c8-40f2-b1c6-bc88e81dae24","system_id":"levelo_inurba_marseille","lat":43.32492,"lon":5.3826,"is_reserved":false,"is_disabled":false,"rental_uris":{"android":"levelo://app?vid=20261d7d-d2c8-40f2-b1c6-bc88e81dae24","ios":"levelo://app?vid=20261d7d-d2c8-40f2-b1c6-bc88e81dae24"},"vehicle_type_id":"4","last_reported":1727892802,"current_range_meters":38400,"station_id":"ce4bhqp2rcd13ifvqhog","pricing_plan_id":"cebpf4jnsgd1na2vs0mg"},{"bike_id":"fc806e01-6bdf-4c8c-9859-acf6230a62d6","system_id":"levelo_inurba_marseille","lat":43.23958,"lon":5.36636,"is_reserved":false,"is_disabled":false,"rental_uris":{"android":"levelo://app?vid=fc806e01-6bdf-4c8c-9859-acf6230a62d6","ios":"levelo://app?vid=fc806e01-6bdf-4c8c-9859-acf6230a62d6"},"vehicle_type_id":"4","last_reported":1727892802,"current_range_meters":37600,"station_id":"ce4bhi12rcd13ifvqfp0","pricing_plan_id":"cebpf4jnsgd1na2vs0mg"},{"bike_id":"ab97d79a-fe38-40a1-b88b-743bdb55fde2","system_id":"levelo_inurba_marseille","lat":43.28099,"lon":5.37848,"is_reserved":false,"is_disabled":false,"rental_uris":{"android":"levelo://app?vid=ab97d79a-fe38-40a1-b88b-743bdb55fde2","ios":"levelo://app?vid=ab97d79a-fe38-40a1-b88b-743bdb55fde2"},"vehicle_type_id":"4","last_reported":1727892802,"current_range_meters":38800,"station_id":"ce4bha12rcd13ifvqee0","pricing_plan_id":"cebpf4jnsgd1na2vs0mg"},{"bike_id":"7c112b80-e727-43f4-a323-433d661f0af6","system_id":"levelo_inurba_marseille","lat":43.29574,"lon":5.39988,"is_reserved":false,"is_disabled":false,"rental_uris":{"android":"levelo://app?vid=7c112b80-e727-43f4-a323-433d661f0af6","ios":"levelo://app?vid=7c112b80-e727-43f4-a323-433d661f0af6"},"vehicle_type_id":"4","last_reported":1727892802,"current_range_meters":8400,"station_id":"ce4bh312rcd13ifvqdj0","pricing_plan_id":"cebpf4jnsgd1na2vs0mg"},{"bike_id":"2b0693c0-ad8d-424c-befa-3b85cb467101","system_id":"levelo_inurba_marseille","lat":43.27991,"lon":5.41666,"is_reserved":false,"is_disabled":false,"rental_uris":{"android":"levelo://app?vid=2b0693c0-ad8d-424c-befa-3b85cb467101","ios":"levelo://app?vid=2b0693c0-ad8d-424c-befa-3b85cb467101"},"vehicle_type_id":"4","last_reported":1727892802,"current_range_meters":30800,"station_id":"ce4bho12rcd13ifvqh1g","pricing_plan_id":"cebpf4jnsgd1na2vs0mg"},{"bike_id":"30f7e0da-0005-4b87-82a4-8969ce48d0db","system_id":"levelo_inurba_marseille","lat":43.2466,"lon":5.38158,"is_reserved":false,"is_disabled":false,"rental_uris":{"android":"levelo://app?vid=30f7e0da-0005-4b87-82a4-8969ce48d0db","ios":"levelo://app?vid=30f7e0da-0005-4b87-82a4-8969ce48d0db"},"vehicle_type_id":"4","last_reported":1727892802,"current_range_meters":38800,"station_id":"ce4bhih2rcd13ifvqfr0","pricing_plan_id":"cebpf4jnsgd1na2vs0mg"},{"bike_id":"698d281f-c077-466c-ad7e-3ebe508cc17b","system_id":"levelo_inurba_marseille","lat":43.24164,"lon":5.36405,"is_reserved":false,"is_disabled":false,"rental_uris":{"android":"levelo://app?vid=698d281f-c077-466c-ad7e-3ebe508cc17b","ios":"levelo://app?vid=698d281f-c077-466c-ad7e-3ebe508cc17b"},"vehicle_type_id":"4","last_reported":1727892802,"current_range_meters":16000,"station_id":"cpo36qri1sfpv3e86is0","pricing_plan_id":"cebpf4jnsgd1na2vs0mg"},{"bike_id":"788f0ea2-e892-4b6f-92b9-2f6905dc9213","system_id":"levelo_inurba_marseille","lat":43.30257,"lon":5.40105,"is_reserved":false,"is_disabled":false,"rental_uris":{"android":"levelo://app?vid=788f0ea2-e892-4b6f-92b9-2f6905dc9213","ios":"levelo://app?vid=788f0ea2-e892-4b6f-92b9-2f6905dc9213"},"vehicle_type_id":"4","last_reported":1727892802,"current_range_meters":38800,"station_id":"ce4bgvh2rcd13ifvqcs0","pricing_plan_id":"cebpf4jnsgd1na2vs0mg"},{"bike_id":"540f1dac-c444-4530-8c07-6f614ac98bd9","system_id":"levelo_inurba_marseille","lat":43.24808,"lon":5.37461,"is_reserved":false,"is_disabled":false,"rental_uris":{"android":"levelo://app?vid=540f1dac-c444-4530-8c07-6f614ac98bd9","ios":"levelo://app?vid=540f1dac-c444-4530-8c07-6f614ac98bd9"},"vehicle_type_id":"4","last_reported":1727892802,"current_range_meters":17200,"station_id":"ce4bhgh2rcd13ifvqfb0","pricing_plan_id":"cebpf4jnsgd1na2vs0mg"},{"bike_id":"92354895-f8dd-434a-9a31-5379dafb51ee","system_id":"levelo_inurba_marseille","lat":43.33029,"lon":5.39053,"is_reserved":false,"is_disabled":false,"rental_uris":{"android":"levelo://app?vid=92354895-f8dd-434a-9a31-5379dafb51ee","ios":"levelo://app?vid=92354895-f8dd-434a-9a31-5379dafb51ee"},"vehicle_type_id":"4","last_reported":1727892802,"current_range_meters":26000,"station_id":"ce4bhr92rcd13ifvqhrg","pricing_plan_id":"cebpf4jnsgd1na2vs0mg"},{"bike_id":"5dbd7598-6bfb-43fb-afae-7ccdb18a612e","system_id":"levelo_inurba_marseille","lat":43.28717,"lon":5.39244,"is_reserved":false,"is_disabled":false,"rental_uris":{"android":"levelo://app?vid=5dbd7598-6bfb-43fb-afae-7ccdb18a612e","ios":"levelo://app?vid=5dbd7598-6bfb-43fb-afae-7ccdb18a612e"},"vehicle_type_id":"4","last_reported":1727892802,"current_range_meters":3200,"station_id":"ce4bh292rcd13ifvqdg0","pricing_plan_id":"cebpf4jnsgd1na2vs0mg"},{"bike_id":"0927edc0-a2c0-428a-a1e9-31ec3c4f6f54","system_id":"levelo_inurba_marseille","lat":43.30556,"lon":5.3921,"is_reserved":false,"is_disabled":false,"rental_uris":{"android":"levelo://app?vid=0927edc0-a2c0-428a-a1e9-31ec3c4f6f54","ios":"levelo://app?vid=0927edc0-a2c0-428a-a1e9-31ec3c4f6f54"},"vehicle_type_id":"4","last_reported":1727892802,"current_range_meters":14400,"station_id":"","pricing_plan_id":"cebpf4jnsgd1na2vs0mg"},{"bike_id":"74c92887-9168-4508-a776-701c93a6674b","system_id":"levelo_inurba_marseille","lat":43.28935,"lon":5.36643,"is_reserved":false,"is_disabled":false,"rental_uris":{"android":"levelo://app?vid=74c92887-9168-4508-a776-701c93a6674b","ios":"levelo://app?vid=74c92887-9168-4508-a776-701c93a6674b"},"vehicle_type_id":"4","last_reported":1727892802,"current_range_meters":38800,"station_id":"ce4bhap2rcd13ifvqek0","pricing_plan_id":"cebpf4jnsgd1na2vs0mg"},{"bike_id":"c33f1dd7-4706-4981-a6e8-453f1d0522a7","system_id":"levelo_inurba_marseille","lat":43.28724,"lon":5.36093,"is_reserved":false,"is_disabled":false,"rental_uris":{"android":"levelo://app?vid=c33f1dd7-4706-4981-a6e8-453f1d0522a7","ios":"levelo://app?vid=c33f1dd7-4706-4981-a6e8-453f1d0522a7"},"vehicle_type_id":"4","last_reported":1727892802,"current_range_meters":38800,"station_id":"cki0cbj6b192h4jlfktg","pricing_plan_id":"cebpf4jnsgd1na2vs0mg"},{"bike_id":"a5fbe0ca-eff9-4ca6-9bdd-e10f657944cf","system_id":"levelo_inurba_marseille","lat":43.30254,"lon":5.40086,"is_reserved":false,"is_disabled":false,"rental_uris":{"android":"levelo://app?vid=a5fbe0ca-eff9-4ca6-9bdd-e10f657944cf","ios":"levelo://app?vid=a5fbe0ca-eff9-4ca6-9bdd-e10f657944cf"},"vehicle_type_id":"4","last_reported":1727892802,"current_range_meters":24400,"station_id":"ce4bgvh2rcd13ifvqcs0","pricing_plan_id":"cebpf4jnsgd1na2vs0mg"},{"bike_id":"c389ab88-8014-4e2f-b139-4bd8a30c7985","system_id":"levelo_inurba_marseille","lat":43.31364,"lon":5.38484,"is_reserved":false,"is_disabled":false,"rental_uris":{"android":"levelo://app?vid=c389ab88-8014-4e2f-b139-4bd8a30c7985","ios":"levelo://app?vid=c389ab88-8014-4e2f-b139-4bd8a30c7985"},"vehicle_type_id":"4","last_reported":1727892802,"current_range_meters":6000,"station_id":"ce4bgt92rcd13ifvqcf0","pricing_plan_id":"cebpf4jnsgd1na2vs0mg"},{"bike_id":"6637cce3-944a-473d-80a3-90b69ab6fd46","system_id":"levelo_inurba_marseille","lat":43.30883,"lon":5.3965,"is_reserved":false,"is_disabled":false,"rental_uris":{"android":"levelo://app?vid=6637cce3-944a-473d-80a3-90b69ab6fd46","ios":"levelo://app?vid=6637cce3-944a-473d-80a3-90b69ab6fd46"},"vehicle_type_id":"4","last_reported":1727892802,"current_range_meters":6000,"station_id":"ce4bh012rcd13ifvqcv0","pricing_plan_id":"cebpf4jnsgd1na2vs0mg"},{"bike_id":"5084d4e8-22d7-4248-aec8-4997331ff1e0","system_id":"levelo_inurba_marseille","lat":43.22924,"lon":5.35375,"is_reserved":false,"is_disabled":false,"rental_uris":{"android":"levelo://app?vid=5084d4e8-22d7-4248-aec8-4997331ff1e0","ios":"levelo://app?vid=5084d4e8-22d7-4248-aec8-4997331ff1e0"},"vehicle_type_id":"4","last_reported":1727892802,"current_range_meters":37600,"station_id":"cpo3532slgdg3j2ikp40","pricing_plan_id":"cebpf4jnsgd1na2vs0mg"},{"bike_id":"038ae911-1fcc-4a20-ac34-1618ec56de65","system_id":"levelo_inurba_marseille","lat":43.29554,"lon":5.42287,"is_reserved":false,"is_disabled":false,"rental_uris":{"android":"levelo://app?vid=038ae911-1fcc-4a20-ac34-1618ec56de65","ios":"levelo://app?vid=038ae911-1fcc-4a20-ac34-1618ec56de65"},"vehicle_type_id":"4","last_reported":1727892802,"current_range_meters":33200,"station_id":"ce4bhph2rcd13ifvqhdg","pricing_plan_id":"cebpf4jnsgd1na2vs0mg"},{"bike_id":"839c9596-f91c-43e7-b990-8d1e0e90ea7a","system_id":"levelo_inurba_marseille","lat":43.28411,"lon":5.3497,"is_reserved":false,"is_disabled":false,"rental_uris":{"android":"levelo://app?vid=839c9596-f91c-43e7-b990-8d1e0e90ea7a","ios":"levelo://app?vid=839c9596-f91c-43e7-b990-8d1e0e90ea7a"},"vehicle_type_id":"4","last_reported":1727892802,"current_range_meters":6000,"station_id":"ce4bhbh2rcd13ifvqepg","pricing_plan_id":"cebpf4jnsgd1na2vs0mg"},{"bike_id":"2eb4a031-32f2-40b5-9858-5b75aed1fdf4","system_id":"levelo_inurba_marseille","lat":43.260662,"lon":5.393943,"is_reserved":false,"is_disabled":false,"rental_uris":{"android":"levelo://app?vid=2eb4a031-32f2-40b5-9858-5b75aed1fdf4","ios":"levelo://app?vid=2eb4a031-32f2-40b5-9858-5b75aed1fdf4"},"vehicle_type_id":"4","last_reported":1727892802,"current_range_meters":13600,"station_id":"ce4bhhh2rcd13ifvqfl0","pricing_plan_id":"cebpf4jnsgd1na2vs0mg"},{"bike_id":"6dd5df39-f796-47c2-b7f4-cc412ae77bc8","system_id":"levelo_inurba_marseille","lat":43.27812,"lon":5.40715,"is_reserved":false,"is_disabled":false,"rental_uris":{"android":"levelo://app?vid=6dd5df39-f796-47c2-b7f4-cc412ae77bc8","ios":"levelo://app?vid=6dd5df39-f796-47c2-b7f4-cc412ae77bc8"},"vehicle_type_id":"4","last_reported":1727892802,"current_range_meters":29600,"station_id":"ce4bhnh2rcd13ifvqgtg","pricing_plan_id":"cebpf4jnsgd1na2vs0mg"},{"bike_id":"99f62b0b-7150-4bac-8c33-878bd42b4853","system_id":"levelo_inurba_marseille","lat":43.26686,"lon":5.38277,"is_reserved":false,"is_disabled":false,"rental_uris":{"android":"levelo://app?vid=99f62b0b-7150-4bac-8c33-878bd42b4853","ios":"levelo://app?vid=99f62b0b-7150-4bac-8c33-878bd42b4853"},"vehicle_type_id":"4","last_reported":1727892802,"current_range_meters":38800,"station_id":"ce4bhg92rcd13ifvqf90","pricing_plan_id":"cebpf4jnsgd1na2vs0mg"},{"bike_id":"5c975bbb-ffb1-4634-be84-1b5c5e61db2e","system_id":"levelo_inurba_marseille","lat":43.33722,"lon":5.3919,"is_reserved":false,"is_disabled":false,"rental_uris":{"android":"levelo://app?vid=5c975bbb-ffb1-4634-be84-1b5c5e61db2e","ios":"levelo://app?vid=5c975bbb-ffb1-4634-be84-1b5c5e61db2e"},"vehicle_type_id":"4","last_reported":1727892802,"current_range_meters":8800,"station_id":"ce4bhr92rcd13ifvqhsg","pricing_plan_id":"cebpf4jnsgd1na2vs0mg"},{"bike_id":"bd61f1ee-33a7-423b-b8ef-fae5a7fac529","system_id":"levelo_inurba_marseille","lat":43.27177,"lon":5.40998,"is_reserved":false,"is_disabled":false,"rental_uris":{"android":"levelo://app?vid=bd61f1ee-33a7-423b-b8ef-fae5a7fac529","ios":"levelo://app?vid=bd61f1ee-33a7-423b-b8ef-fae5a7fac529"},"vehicle_type_id":"4","last_reported":1727892802,"current_range_meters":24800,"station_id":"ce4bhl12rcd13ifvqgf0","pricing_plan_id":"cebpf4jnsgd1na2vs0mg"},{"bike_id":"7eed491e-4325-4169-a385-0cd0988b5361","system_id":"levelo_inurba_marseille","lat":43.28724,"lon":5.37933,"is_reserved":false,"is_disabled":false,"rental_uris":{"android":"levelo://app?vid=7eed491e-4325-4169-a385-0cd0988b5361","ios":"levelo://app?vid=7eed491e-4325-4169-a385-0cd0988b5361"},"vehicle_type_id":"4","last_reported":1727892802,"current_range_meters":20800,"station_id":"ce4bh9p2rcd13ifvqec0","pricing_plan_id":"cebpf4jnsgd1na2vs0mg"},{"bike_id":"85b1adde-394d-4be1-b1b8-6fe7f12bf845","system_id":"levelo_inurba_marseille","lat":43.24664,"lon":5.38164,"is_reserved":false,"is_disabled":false,"rental_uris":{"android":"levelo://app?vid=85b1adde-394d-4be1-b1b8-6fe7f12bf845","ios":"levelo://app?vid=85b1adde-394d-4be1-b1b8-6fe7f12bf845"},"vehicle_type_id":"4","last_reported":1727892802,"current_range_meters":38800,"station_id":"ce4bhih2rcd13ifvqfr0","pricing_plan_id":"cebpf4jnsgd1na2vs0mg"},{"bike_id":"0e20427b-40a7-4c6e-969a-9c463139ab0f","system_id":"levelo_inurba_marseille","lat":43.29879,"lon":5.38919,"is_reserved":false,"is_disabled":false,"rental_uris":{"android":"levelo://app?vid=0e20427b-40a7-4c6e-969a-9c463139ab0f","ios":"levelo://app?vid=0e20427b-40a7-4c6e-969a-9c463139ab0f"},"vehicle_type_id":"4","last_reported":1727892802,"current_range_meters":3600,"station_id":"ce4bh392rcd13ifvqdl0","pricing_plan_id":"cebpf4jnsgd1na2vs0mg"},{"bike_id":"cae2603d-86d1-4763-945e-0250bd59ea7d","system_id":"levelo_inurba_marseille","lat":43.27055,"lon":5.40273,"is_reserved":false,"is_disabled":false,"rental_uris":{"android":"levelo://app?vid=cae2603d-86d1-4763-945e-0250bd59ea7d","ios":"levelo://app?vid=cae2603d-86d1-4763-945e-0250bd59ea7d"},"vehicle_type_id":"4","last_reported":1727892802,"current_range_meters":36400,"station_id":"ce4bhk92rcd13ifvqgc0","pricing_plan_id":"cebpf4jnsgd1na2vs0mg"},{"bike_id":"080d037e-509b-4bfd-aaca-5957b7531b39","system_id":"levelo_inurba_marseille","lat":43.30882,"lon":5.39645,"is_reserved":false,"is_disabled":false,"rental_uris":{"android":"levelo://app?vid=080d037e-509b-4bfd-aaca-5957b7531b39","ios":"levelo://app?vid=080d037e-509b-4bfd-aaca-5957b7531b39"},"vehicle_type_id":"4","last_reported":1727892802,"current_range_meters":33600,"station_id":"ce4bh012rcd13ifvqcv0","pricing_plan_id":"cebpf4jnsgd1na2vs0mg"},{"bike_id":"64bd957e-b978-44cb-a85c-928d627d24ec","system_id":"levelo_inurba_marseille","lat":43.35761,"lon":5.35874,"is_reserved":false,"is_disabled":false,"rental_uris":{"android":"levelo://app?vid=64bd957e-b978-44cb-a85c-928d627d24ec","ios":"levelo://app?vid=64bd957e-b978-44cb-a85c-928d627d24ec"},"vehicle_type_id":"4","last_reported":1727892802,"current_range_meters":17600,"station_id":"","pricing_plan_id":"cebpf4jnsgd1na2vs0mg"},{"bike_id":"9eecd779-c6c0-4e07-ac55-d8d18d2fd278","system_id":"levelo_inurba_marseille","lat":43.27995,"lon":5.40016,"is_reserved":false,"is_disabled":false,"rental_uris":{"android":"levelo://app?vid=9eecd779-c6c0-4e07-ac55-d8d18d2fd278","ios":"levelo://app?vid=9eecd779-c6c0-4e07-ac55-d8d18d2fd278"},"vehicle_type_id":"4","last_reported":1727892802,"current_range_meters":28400,"station_id":"ce4bho92rcd13ifvqh4g","pricing_plan_id":"cebpf4jnsgd1na2vs0mg"},{"bike_id":"586dfe32-4996-4b1b-bd79-144564ff30f0","system_id":"levelo_inurba_marseille","lat":43.25001,"lon":5.38924,"is_reserved":false,"is_disabled":false,"rental_uris":{"android":"levelo://app?vid=586dfe32-4996-4b1b-bd79-144564ff30f0","ios":"levelo://app?vid=586dfe32-4996-4b1b-bd79-144564ff30f0"},"vehicle_type_id":"4","last_reported":1727892802,"current_range_meters":2800,"station_id":"ce4bhgp2rcd13ifvqfd0","pricing_plan_id":"cebpf4jnsgd1na2vs0mg"},{"bike_id":"9980db2d-b78a-49f2-8c3e-c251718c3fd0","system_id":"levelo_inurba_marseille","lat":43.30317,"lon":5.40451,"is_reserved":false,"is_disabled":false,"rental_uris":{"android":"levelo://app?vid=9980db2d-b78a-49f2-8c3e-c251718c3fd0","ios":"levelo://app?vid=9980db2d-b78a-49f2-8c3e-c251718c3fd0"},"vehicle_type_id":"4","last_reported":1727892802,"current_range_meters":38800,"station_id":"ce4bh012rcd13ifvqd10","pricing_plan_id":"cebpf4jnsgd1na2vs0mg"},{"bike_id":"02299b85-fe43-4214-a7f4-fa336f1ac30f","system_id":"levelo_inurba_marseille","lat":43.30886,"lon":5.37193,"is_reserved":false,"is_disabled":false,"rental_uris":{"android":"levelo://app?vid=02299b85-fe43-4214-a7f4-fa336f1ac30f","ios":"levelo://app?vid=02299b85-fe43-4214-a7f4-fa336f1ac30f"},"vehicle_type_id":"4","last_reported":1727892802,"current_range_meters":32000,"station_id":"ce4bguh2rcd13ifvqckg","pricing_plan_id":"cebpf4jnsgd1na2vs0mg"},{"bike_id":"4ac5b21d-f552-4c0b-a28d-986f107a6b95","system_id":"levelo_inurba_marseille","lat":43.32406,"lon":5.39005,"is_reserved":false,"is_disabled":false,"rental_uris":{"android":"levelo://app?vid=4ac5b21d-f552-4c0b-a28d-986f107a6b95","ios":"levelo://app?vid=4ac5b21d-f552-4c0b-a28d-986f107a6b95"},"vehicle_type_id":"4","last_reported":1727892802,"current_range_meters":10800,"station_id":"","pricing_plan_id":"cebpf4jnsgd1na2vs0mg"},{"bike_id":"a5256179-c70d-4d15-b876-6a6aff4cd898","system_id":"levelo_inurba_marseille","lat":43.29794,"lon":5.40421,"is_reserved":false,"is_disabled":false,"rental_uris":{"android":"levelo://app?vid=a5256179-c70d-4d15-b876-6a6aff4cd898","ios":"levelo://app?vid=a5256179-c70d-4d15-b876-6a6aff4cd898"},"vehicle_type_id":"4","last_reported":1727892802,"current_range_meters":10800,"station_id":"ce4bh112rcd13ifvqd90","pricing_plan_id":"cebpf4jnsgd1na2vs0mg"},{"bike_id":"d72c81e8-bb91-491b-94cc-b8be681994e8","system_id":"levelo_inurba_marseille","lat":43.23963,"lon":5.36635,"is_reserved":false,"is_disabled":false,"rental_uris":{"android":"levelo://app?vid=d72c81e8-bb91-491b-94cc-b8be681994e8","ios":"levelo://app?vid=d72c81e8-bb91-491b-94cc-b8be681994e8"},"vehicle_type_id":"4","last_reported":1727892802,"current_range_meters":38400,"station_id":"ce4bhi12rcd13ifvqfp0","pricing_plan_id":"cebpf4jnsgd1na2vs0mg"},{"bike_id":"76627e4e-2255-42e9-ab08-43ab865606a4","system_id":"levelo_inurba_marseille","lat":43.25701,"lon":5.41124,"is_reserved":false,"is_disabled":false,"rental_uris":{"android":"levelo://app?vid=76627e4e-2255-42e9-ab08-43ab865606a4","ios":"levelo://app?vid=76627e4e-2255-42e9-ab08-43ab865606a4"},"vehicle_type_id":"4","last_reported":1727892802,"current_range_meters":38800,"station_id":"ce4bhkp2rcd13ifvqgd0","pricing_plan_id":"cebpf4jnsgd1na2vs0mg"},{"bike_id":"8ba1e812-2efa-4524-8466-35c1ebf85283","system_id":"levelo_inurba_marseille","lat":43.25101,"lon":5.40328,"is_reserved":false,"is_disabled":false,"rental_uris":{"android":"levelo://app?vid=8ba1e812-2efa-4524-8466-35c1ebf85283","ios":"levelo://app?vid=8ba1e812-2efa-4524-8466-35c1ebf85283"},"vehicle_type_id":"4","last_reported":1727892802,"current_range_meters":38000,"station_id":"ce4bhlh2rcd13ifvqgig","pricing_plan_id":"cebpf4jnsgd1na2vs0mg"},{"bike_id":"9b62e35f-6e3c-4a85-b72c-da5d726e7be0","system_id":"levelo_inurba_marseille","lat":43.24996,"lon":5.38938,"is_reserved":false,"is_disabled":false,"rental_uris":{"android":"levelo://app?vid=9b62e35f-6e3c-4a85-b72c-da5d726e7be0","ios":"levelo://app?vid=9b62e35f-6e3c-4a85-b72c-da5d726e7be0"},"vehicle_type_id":"4","last_reported":1727892802,"current_range_meters":10000,"station_id":"ce4bhgp2rcd13ifvqfd0","pricing_plan_id":"cebpf4jnsgd1na2vs0mg"},{"bike_id":"ce227556-9578-4c92-b908-1ab9c3394e2b","system_id":"levelo_inurba_marseille","lat":43.28852,"lon":5.3585,"is_reserved":false,"is_disabled":false,"rental_uris":{"android":"levelo://app?vid=ce227556-9578-4c92-b908-1ab9c3394e2b","ios":"levelo://app?vid=ce227556-9578-4c92-b908-1ab9c3394e2b"},"vehicle_type_id":"4","last_reported":1727892802,"current_range_meters":11600,"station_id":"ce4bhb12rcd13ifvqem0","pricing_plan_id":"cebpf4jnsgd1na2vs0mg"},{"bike_id":"01e77b0f-7cc2-4f21-bca1-292aaef4dbf5","system_id":"levelo_inurba_marseille","lat":43.23062,"lon":5.35491,"is_reserved":false,"is_disabled":false,"rental_uris":{"android":"levelo://app?vid=01e77b0f-7cc2-4f21-bca1-292aaef4dbf5","ios":"levelo://app?vid=01e77b0f-7cc2-4f21-bca1-292aaef4dbf5"},"vehicle_type_id":"4","last_reported":1727892802,"current_range_meters":24800,"station_id":"cpo3342slgdg3j2ifvpg","pricing_plan_id":"cebpf4jnsgd1na2vs0mg"},{"bike_id":"5dac9f59-99d8-47f9-b99a-06c3eeec022f","system_id":"levelo_inurba_marseille","lat":43.23062,"lon":5.35493,"is_reserved":false,"is_disabled":false,"rental_uris":{"android":"levelo://app?vid=5dac9f59-99d8-47f9-b99a-06c3eeec022f","ios":"levelo://app?vid=5dac9f59-99d8-47f9-b99a-06c3eeec022f"},"vehicle_type_id":"4","last_reported":1727892802,"current_range_meters":33600,"station_id":"cpo3342slgdg3j2ifvpg","pricing_plan_id":"cebpf4jnsgd1na2vs0mg"},{"bike_id":"3db8d5c4-dfd4-4607-8943-6e2b440e7a62","system_id":"levelo_inurba_marseille","lat":43.255841,"lon":5.393886,"is_reserved":false,"is_disabled":false,"rental_uris":{"android":"levelo://app?vid=3db8d5c4-dfd4-4607-8943-6e2b440e7a62","ios":"levelo://app?vid=3db8d5c4-dfd4-4607-8943-6e2b440e7a62"},"vehicle_type_id":"4","last_reported":1727892802,"current_range_meters":34000,"station_id":"ce4bhm12rcd13ifvqgkg","pricing_plan_id":"cebpf4jnsgd1na2vs0mg"},{"bike_id":"efd2971c-ec77-4061-b1f0-8eaedea13bce","system_id":"levelo_inurba_marseille","lat":43.28702,"lon":5.37377,"is_reserved":false,"is_disabled":false,"rental_uris":{"android":"levelo://app?vid=efd2971c-ec77-4061-b1f0-8eaedea13bce","ios":"levelo://app?vid=efd2971c-ec77-4061-b1f0-8eaedea13bce"},"vehicle_type_id":"4","last_reported":1727892802,"current_range_meters":36400,"station_id":"ce4bh3p2rcd13ifvqdq0","pricing_plan_id":"cebpf4jnsgd1na2vs0mg"},{"bike_id":"93abd138-ca66-449e-9b7e-6b25e4462043","system_id":"levelo_inurba_marseille","lat":43.33024,"lon":5.39035,"is_reserved":false,"is_disabled":false,"rental_uris":{"android":"levelo://app?vid=93abd138-ca66-449e-9b7e-6b25e4462043","ios":"levelo://app?vid=93abd138-ca66-449e-9b7e-6b25e4462043"},"vehicle_type_id":"4","last_reported":1727892802,"current_range_meters":12400,"station_id":"ce4bhr92rcd13ifvqhrg","pricing_plan_id":"cebpf4jnsgd1na2vs0mg"},{"bike_id":"2656314f-982e-4541-9a98-b333567c157a","system_id":"levelo_inurba_marseille","lat":43.29538,"lon":5.38547,"is_reserved":false,"is_disabled":false,"rental_uris":{"android":"levelo://app?vid=2656314f-982e-4541-9a98-b333567c157a","ios":"levelo://app?vid=2656314f-982e-4541-9a98-b333567c157a"},"vehicle_type_id":"4","last_reported":1727892802,"current_range_meters":38400,"station_id":"ce4bgih2rcd13ifvqba0","pricing_plan_id":"cebpf4jnsgd1na2vs0mg"},{"bike_id":"34a40bdb-ea12-49ce-a44e-9d927ff7712f","system_id":"levelo_inurba_marseille","lat":43.30879,"lon":5.3719,"is_reserved":false,"is_disabled":false,"rental_uris":{"android":"levelo://app?vid=34a40bdb-ea12-49ce-a44e-9d927ff7712f","ios":"levelo://app?vid=34a40bdb-ea12-49ce-a44e-9d927ff7712f"},"vehicle_type_id":"4","last_reported":1727892802,"current_range_meters":38000,"station_id":"ce4bguh2rcd13ifvqckg","pricing_plan_id":"cebpf4jnsgd1na2vs0mg"},{"bike_id":"dcab9c68-8ef9-4123-a2e5-70c16f03f212","system_id":"levelo_inurba_marseille","lat":43.32534,"lon":5.41005,"is_reserved":false,"is_disabled":false,"rental_uris":{"android":"levelo://app?vid=dcab9c68-8ef9-4123-a2e5-70c16f03f212","ios":"levelo://app?vid=dcab9c68-8ef9-4123-a2e5-70c16f03f212"},"vehicle_type_id":"4","last_reported":1727892802,"current_range_meters":14400,"station_id":"ce4bhq12rcd13ifvqhig","pricing_plan_id":"cebpf4jnsgd1na2vs0mg"},{"bike_id":"67fe5807-ebe6-4d1d-8c3e-df55c840cfbb","system_id":"levelo_inurba_marseille","lat":43.3172,"lon":5.42394,"is_reserved":false,"is_disabled":false,"rental_uris":{"android":"levelo://app?vid=67fe5807-ebe6-4d1d-8c3e-df55c840cfbb","ios":"levelo://app?vid=67fe5807-ebe6-4d1d-8c3e-df55c840cfbb"},"vehicle_type_id":"4","last_reported":1727892802,"current_range_meters":15200,"station_id":"ce4bhp92rcd13ifvqhbg","pricing_plan_id":"cebpf4jnsgd1na2vs0mg"},{"bike_id":"2bf766ce-d8f9-4fbb-83ad-7c991e54a3cc","system_id":"levelo_inurba_marseille","lat":43.27495,"lon":5.42455,"is_reserved":false,"is_disabled":false,"rental_uris":{"android":"levelo://app?vid=2bf766ce-d8f9-4fbb-83ad-7c991e54a3cc","ios":"levelo://app?vid=2bf766ce-d8f9-4fbb-83ad-7c991e54a3cc"},"vehicle_type_id":"4","last_reported":1727892802,"current_range_meters":8000,"station_id":"ce4bhn92rcd13ifvqgrg","pricing_plan_id":"cebpf4jnsgd1na2vs0mg"},{"bike_id":"025b9e2f-fa2a-447f-aee2-ca9ca105069e","system_id":"levelo_inurba_marseille","lat":43.26487,"lon":5.39545,"is_reserved":false,"is_disabled":false,"rental_uris":{"android":"levelo://app?vid=025b9e2f-fa2a-447f-aee2-ca9ca105069e","ios":"levelo://app?vid=025b9e2f-fa2a-447f-aee2-ca9ca105069e"},"vehicle_type_id":"4","last_reported":1727892802,"current_range_meters":32000,"station_id":"ce4bhi12rcd13ifvqfq0","pricing_plan_id":"cebpf4jnsgd1na2vs0mg"},{"bike_id":"067828e0-0d0f-414c-8687-10afc15f829f","system_id":"levelo_inurba_marseille","lat":43.27938,"lon":5.3869,"is_reserved":false,"is_disabled":false,"rental_uris":{"android":"levelo://app?vid=067828e0-0d0f-414c-8687-10afc15f829f","ios":"levelo://app?vid=067828e0-0d0f-414c-8687-10afc15f829f"},"vehicle_type_id":"4","last_reported":1727892802,"current_range_meters":36800,"station_id":"","pricing_plan_id":"cebpf4jnsgd1na2vs0mg"},{"bike_id":"0284f6bc-29aa-4334-bf16-4dfa1978370c","system_id":"levelo_inurba_marseille","lat":43.25853,"lon":5.39909,"is_reserved":false,"is_disabled":false,"rental_uris":{"android":"levelo://app?vid=0284f6bc-29aa-4334-bf16-4dfa1978370c","ios":"levelo://app?vid=0284f6bc-29aa-4334-bf16-4dfa1978370c"},"vehicle_type_id":"4","last_reported":1727892802,"current_range_meters":29600,"station_id":"ce4bhl92rcd13ifvqghg","pricing_plan_id":"cebpf4jnsgd1na2vs0mg"},{"bike_id":"c6ebb6b9-648b-44ee-92e1-556ebb90458c","system_id":"levelo_inurba_marseille","lat":43.27178,"lon":5.41003,"is_reserved":false,"is_disabled":false,"rental_uris":{"android":"levelo://app?vid=c6ebb6b9-648b-44ee-92e1-556ebb90458c","ios":"levelo://app?vid=c6ebb6b9-648b-44ee-92e1-556ebb90458c"},"vehicle_type_id":"4","last_reported":1727892802,"current_range_meters":27200,"station_id":"ce4bhl12rcd13ifvqgf0","pricing_plan_id":"cebpf4jnsgd1na2vs0mg"},{"bike_id":"952f6095-5fe6-46d8-81af-24fc12c297a7","system_id":"levelo_inurba_marseille","lat":43.2846,"lon":5.35887,"is_reserved":false,"is_disabled":false,"rental_uris":{"android":"levelo://app?vid=952f6095-5fe6-46d8-81af-24fc12c297a7","ios":"levelo://app?vid=952f6095-5fe6-46d8-81af-24fc12c297a7"},"vehicle_type_id":"4","last_reported":1727892802,"current_range_meters":8800,"station_id":"ce4bhah2rcd13ifvqei0","pricing_plan_id":"cebpf4jnsgd1na2vs0mg"},{"bike_id":"7f38c311-b5b5-4c8e-9b08-95dbdd5a02fd","system_id":"levelo_inurba_marseille","lat":43.28458,"lon":5.35891,"is_reserved":false,"is_disabled":false,"rental_uris":{"android":"levelo://app?vid=7f38c311-b5b5-4c8e-9b08-95dbdd5a02fd","ios":"levelo://app?vid=7f38c311-b5b5-4c8e-9b08-95dbdd5a02fd"},"vehicle_type_id":"4","last_reported":1727892802,"current_range_meters":29600,"station_id":"ce4bhah2rcd13ifvqei0","pricing_plan_id":"cebpf4jnsgd1na2vs0mg"},{"bike_id":"1eac6906-423b-4d9a-ab99-ac137135ba48","system_id":"levelo_inurba_marseille","lat":43.30884,"lon":5.39637,"is_reserved":false,"is_disabled":false,"rental_uris":{"android":"levelo://app?vid=1eac6906-423b-4d9a-ab99-ac137135ba48","ios":"levelo://app?vid=1eac6906-423b-4d9a-ab99-ac137135ba48"},"vehicle_type_id":"4","last_reported":1727892802,"current_range_meters":4400,"station_id":"ce4bh012rcd13ifvqcv0","pricing_plan_id":"cebpf4jnsgd1na2vs0mg"},{"bike_id":"751fa327-75ed-4c39-a38e-aaf26b35e417","system_id":"levelo_inurba_marseille","lat":43.30275,"lon":5.37701,"is_reserved":false,"is_disabled":false,"rental_uris":{"android":"levelo://app?vid=751fa327-75ed-4c39-a38e-aaf26b35e417","ios":"levelo://app?vid=751fa327-75ed-4c39-a38e-aaf26b35e417"},"vehicle_type_id":"4","last_reported":1727892802,"current_range_meters":29600,"station_id":"ce4bguh2rcd13ifvqcj0","pricing_plan_id":"cebpf4jnsgd1na2vs0mg"},{"bike_id":"240c2d3b-e7ad-4ac7-a617-9562dbf91691","system_id":"levelo_inurba_marseille","lat":43.29433,"lon":5.39768,"is_reserved":false,"is_disabled":false,"rental_uris":{"android":"levelo://app?vid=240c2d3b-e7ad-4ac7-a617-9562dbf91691","ios":"levelo://app?vid=240c2d3b-e7ad-4ac7-a617-9562dbf91691"},"vehicle_type_id":"4","last_reported":1727892802,"current_range_meters":4400,"station_id":"ce4bh3h2rcd13ifvqdo0","pricing_plan_id":"cebpf4jnsgd1na2vs0mg"},{"bike_id":"3835ed04-7ba2-4dfe-b030-c702cf5902ec","system_id":"levelo_inurba_marseille","lat":43.24078,"lon":5.37757,"is_reserved":false,"is_disabled":false,"rental_uris":{"android":"levelo://app?vid=3835ed04-7ba2-4dfe-b030-c702cf5902ec","ios":"levelo://app?vid=3835ed04-7ba2-4dfe-b030-c702cf5902ec"},"vehicle_type_id":"4","last_reported":1727892802,"current_range_meters":35600,"station_id":"ce4bhnp2rcd13ifvqgvg","pricing_plan_id":"cebpf4jnsgd1na2vs0mg"},{"bike_id":"9161e513-85fa-4197-979f-1789b7b497d5","system_id":"levelo_inurba_marseille","lat":43.2931,"lon":5.37169,"is_reserved":false,"is_disabled":false,"rental_uris":{"android":"levelo://app?vid=9161e513-85fa-4197-979f-1789b7b497d5","ios":"levelo://app?vid=9161e513-85fa-4197-979f-1789b7b497d5"},"vehicle_type_id":"4","last_reported":1727892802,"current_range_meters":14000,"station_id":"ce4bgh92rcd13ifvqb40","pricing_plan_id":"cebpf4jnsgd1na2vs0mg"},{"bike_id":"824d2cae-8043-4d73-8df4-e64d057b4175","system_id":"levelo_inurba_marseille","lat":43.24998,"lon":5.38935,"is_reserved":false,"is_disabled":false,"rental_uris":{"android":"levelo://app?vid=824d2cae-8043-4d73-8df4-e64d057b4175","ios":"levelo://app?vid=824d2cae-8043-4d73-8df4-e64d057b4175"},"vehicle_type_id":"4","last_reported":1727892802,"current_range_meters":28000,"station_id":"ce4bhgp2rcd13ifvqfd0","pricing_plan_id":"cebpf4jnsgd1na2vs0mg"},{"bike_id":"b9d25e0d-b60d-4bea-99b3-8ba699c3c28b","system_id":"levelo_inurba_marseille","lat":43.27174,"lon":5.40991,"is_reserved":false,"is_disabled":false,"rental_uris":{"android":"levelo://app?vid=b9d25e0d-b60d-4bea-99b3-8ba699c3c28b","ios":"levelo://app?vid=b9d25e0d-b60d-4bea-99b3-8ba699c3c28b"},"vehicle_type_id":"4","last_reported":1727892802,"current_range_meters":15200,"station_id":"ce4bhl12rcd13ifvqgf0","pricing_plan_id":"cebpf4jnsgd1na2vs0mg"},{"bike_id":"5836f09f-f5a7-4c2e-a3af-6117a1c8eceb","system_id":"levelo_inurba_marseille","lat":43.2971,"lon":5.36605,"is_reserved":false,"is_disabled":false,"rental_uris":{"android":"levelo://app?vid=5836f09f-f5a7-4c2e-a3af-6117a1c8eceb","ios":"levelo://app?vid=5836f09f-f5a7-4c2e-a3af-6117a1c8eceb"},"vehicle_type_id":"4","last_reported":1727892802,"current_range_meters":25200,"station_id":"ce4bgn12rcd13ifvqbt0","pricing_plan_id":"cebpf4jnsgd1na2vs0mg"},{"bike_id":"52e2689c-0e2a-41b5-9bef-0cdd30f104fe","system_id":"levelo_inurba_marseille","lat":43.29267,"lon":5.38439,"is_reserved":false,"is_disabled":false,"rental_uris":{"android":"levelo://app?vid=52e2689c-0e2a-41b5-9bef-0cdd30f104fe","ios":"levelo://app?vid=52e2689c-0e2a-41b5-9bef-0cdd30f104fe"},"vehicle_type_id":"4","last_reported":1727892802,"current_range_meters":3200,"station_id":"ce4bh692rcd13ifvqea0","pricing_plan_id":"cebpf4jnsgd1na2vs0mg"},{"bike_id":"c7bdad1c-ef35-4b4b-b0d0-e1d53b60a789","system_id":"levelo_inurba_marseille","lat":43.32486,"lon":5.365551,"is_reserved":false,"is_disabled":false,"rental_uris":{"android":"levelo://app?vid=c7bdad1c-ef35-4b4b-b0d0-e1d53b60a789","ios":"levelo://app?vid=c7bdad1c-ef35-4b4b-b0d0-e1d53b60a789"},"vehicle_type_id":"4","last_reported":1727892802,"current_range_meters":13600,"station_id":"ce4bhs12rcd13ifvqhvg","pricing_plan_id":"cebpf4jnsgd1na2vs0mg"},{"bike_id":"c903368d-a15b-4f89-897f-9fea01ff95ce","system_id":"levelo_inurba_marseille","lat":43.2572,"lon":5.41109,"is_reserved":false,"is_disabled":false,"rental_uris":{"android":"levelo://app?vid=c903368d-a15b-4f89-897f-9fea01ff95ce","ios":"levelo://app?vid=c903368d-a15b-4f89-897f-9fea01ff95ce"},"vehicle_type_id":"4","last_reported":1727892802,"current_range_meters":38800,"station_id":"ce4bhkp2rcd13ifvqgd0","pricing_plan_id":"cebpf4jnsgd1na2vs0mg"},{"bike_id":"0dbb5e03-5397-4753-aaa7-105e76802ecc","system_id":"levelo_inurba_marseille","lat":43.29269,"lon":5.3685,"is_reserved":false,"is_disabled":false,"rental_uris":{"android":"levelo://app?vid=0dbb5e03-5397-4753-aaa7-105e76802ecc","ios":"levelo://app?vid=0dbb5e03-5397-4753-aaa7-105e76802ecc"},"vehicle_type_id":"4","last_reported":1727892802,"current_range_meters":21600,"station_id":"ce4bhbp2rcd13ifvqesg","pricing_plan_id":"cebpf4jnsgd1na2vs0mg"},{"bike_id":"084de269-f9be-4ca8-8560-ac288ccca131","system_id":"levelo_inurba_marseille","lat":43.29379,"lon":5.37834,"is_reserved":false,"is_disabled":false,"rental_uris":{"android":"levelo://app?vid=084de269-f9be-4ca8-8560-ac288ccca131","ios":"levelo://app?vid=084de269-f9be-4ca8-8560-ac288ccca131"},"vehicle_type_id":"4","last_reported":1727892802,"current_range_meters":17600,"station_id":"ce4bgjh2rcd13ifvqbf0","pricing_plan_id":"cebpf4jnsgd1na2vs0mg"},{"bike_id":"b55974ec-e0dc-4c1e-bcc0-e5c6852e1e49","system_id":"levelo_inurba_marseille","lat":43.29533,"lon":5.3855,"is_reserved":false,"is_disabled":false,"rental_uris":{"android":"levelo://app?vid=b55974ec-e0dc-4c1e-bcc0-e5c6852e1e49","ios":"levelo://app?vid=b55974ec-e0dc-4c1e-bcc0-e5c6852e1e49"},"vehicle_type_id":"4","last_reported":1727892802,"current_range_meters":6800,"station_id":"ce4bgih2rcd13ifvqba0","pricing_plan_id":"cebpf4jnsgd1na2vs0mg"},{"bike_id":"6ad0532e-394d-49c7-8560-0e3a398460a3","system_id":"levelo_inurba_marseille","lat":43.2845,"lon":5.35587,"is_reserved":false,"is_disabled":false,"rental_uris":{"android":"levelo://app?vid=6ad0532e-394d-49c7-8560-0e3a398460a3","ios":"levelo://app?vid=6ad0532e-394d-49c7-8560-0e3a398460a3"},"vehicle_type_id":"4","last_reported":1727892802,"current_range_meters":23200,"station_id":"","pricing_plan_id":"cebpf4jnsgd1na2vs0mg"},{"bike_id":"770efab6-702b-4abf-a006-25442ee48ed1","system_id":"levelo_inurba_marseille","lat":43.26563,"lon":5.39005,"is_reserved":false,"is_disabled":false,"rental_uris":{"android":"levelo://app?vid=770efab6-702b-4abf-a006-25442ee48ed1","ios":"levelo://app?vid=770efab6-702b-4abf-a006-25442ee48ed1"},"vehicle_type_id":"4","last_reported":1727892802,"current_range_meters":28000,"station_id":"ce4bhe12rcd13ifvqf30","pricing_plan_id":"cebpf4jnsgd1na2vs0mg"},{"bike_id":"060809ff-8c38-4d59-bcd7-c7896ac8689e","system_id":"levelo_inurba_marseille","lat":43.30183,"lon":5.36638,"is_reserved":false,"is_disabled":false,"rental_uris":{"android":"levelo://app?vid=060809ff-8c38-4d59-bcd7-c7896ac8689e","ios":"levelo://app?vid=060809ff-8c38-4d59-bcd7-c7896ac8689e"},"vehicle_type_id":"4","last_reported":1727892802,"current_range_meters":6000,"station_id":"ce4bgrh2rcd13ifvqc8g","pricing_plan_id":"cebpf4jnsgd1na2vs0mg"},{"bike_id":"17707c72-7e1a-43f0-b6a9-ce5db1091cb8","system_id":"levelo_inurba_marseille","lat":43.27957,"lon":5.38758,"is_reserved":false,"is_disabled":false,"rental_uris":{"android":"levelo://app?vid=17707c72-7e1a-43f0-b6a9-ce5db1091cb8","ios":"levelo://app?vid=17707c72-7e1a-43f0-b6a9-ce5db1091cb8"},"vehicle_type_id":"4","last_reported":1727892802,"current_range_meters":8400,"station_id":"ce4bhg12rcd13ifvqf80","pricing_plan_id":"cebpf4jnsgd1na2vs0mg"},{"bike_id":"a23e0f33-5a43-451e-94b1-3ae4ff1d6313","system_id":"levelo_inurba_marseille","lat":43.28684,"lon":5.38663,"is_reserved":false,"is_disabled":false,"rental_uris":{"android":"levelo://app?vid=a23e0f33-5a43-451e-94b1-3ae4ff1d6313","ios":"levelo://app?vid=a23e0f33-5a43-451e-94b1-3ae4ff1d6313"},"vehicle_type_id":"4","last_reported":1727892802,"current_range_meters":38000,"station_id":"ce4bh492rcd13ifvqdug","pricing_plan_id":"cebpf4jnsgd1na2vs0mg"},{"bike_id":"6b315d99-3ae8-4acd-8c24-9531c7a83eb8","system_id":"levelo_inurba_marseille","lat":43.23064,"lon":5.35497,"is_reserved":false,"is_disabled":false,"rental_uris":{"android":"levelo://app?vid=6b315d99-3ae8-4acd-8c24-9531c7a83eb8","ios":"levelo://app?vid=6b315d99-3ae8-4acd-8c24-9531c7a83eb8"},"vehicle_type_id":"4","last_reported":1727892802,"current_range_meters":28000,"station_id":"cpo3342slgdg3j2ifvpg","pricing_plan_id":"cebpf4jnsgd1na2vs0mg"},{"bike_id":"22fc134c-a738-43b9-9cf8-33161084e27f","system_id":"levelo_inurba_marseille","lat":43.27992,"lon":5.41658,"is_reserved":false,"is_disabled":false,"rental_uris":{"android":"levelo://app?vid=22fc134c-a738-43b9-9cf8-33161084e27f","ios":"levelo://app?vid=22fc134c-a738-43b9-9cf8-33161084e27f"},"vehicle_type_id":"4","last_reported":1727892802,"current_range_meters":4800,"station_id":"ce4bho12rcd13ifvqh1g","pricing_plan_id":"cebpf4jnsgd1na2vs0mg"},{"bike_id":"62682ccf-54e2-439e-a7d1-ba7321b0b1f1","system_id":"levelo_inurba_marseille","lat":43.28734,"lon":5.37711,"is_reserved":false,"is_disabled":false,"rental_uris":{"android":"levelo://app?vid=62682ccf-54e2-439e-a7d1-ba7321b0b1f1","ios":"levelo://app?vid=62682ccf-54e2-439e-a7d1-ba7321b0b1f1"},"vehicle_type_id":"4","last_reported":1727892802,"current_range_meters":2800,"station_id":"ce4bgkp2rcd13ifvqbmg","pricing_plan_id":"cebpf4jnsgd1na2vs0mg"},{"bike_id":"fb23861c-d385-4897-9786-38455b7e26f3","system_id":"levelo_inurba_marseille","lat":43.28448,"lon":5.39187,"is_reserved":false,"is_disabled":false,"rental_uris":{"android":"levelo://app?vid=fb23861c-d385-4897-9786-38455b7e26f3","ios":"levelo://app?vid=fb23861c-d385-4897-9786-38455b7e26f3"},"vehicle_type_id":"4","last_reported":1727892802,"current_range_meters":16000,"station_id":"ce4bhoh2rcd13ifvqh5g","pricing_plan_id":"cebpf4jnsgd1na2vs0mg"},{"bike_id":"7dd50f63-a3b2-4d90-a719-a3b9c401c244","system_id":"levelo_inurba_marseille","lat":43.27072,"lon":5.42286,"is_reserved":false,"is_disabled":false,"rental_uris":{"android":"levelo://app?vid=7dd50f63-a3b2-4d90-a719-a3b9c401c244","ios":"levelo://app?vid=7dd50f63-a3b2-4d90-a719-a3b9c401c244"},"vehicle_type_id":"4","last_reported":1727892802,"current_range_meters":6400,"station_id":"ce4bhk92rcd13ifvqgb0","pricing_plan_id":"cebpf4jnsgd1na2vs0mg"},{"bike_id":"d988d6e5-a0a9-4780-aa4a-de35e963dbf6","system_id":"levelo_inurba_marseille","lat":43.29423,"lon":5.3862,"is_reserved":false,"is_disabled":false,"rental_uris":{"android":"levelo://app?vid=d988d6e5-a0a9-4780-aa4a-de35e963dbf6","ios":"levelo://app?vid=d988d6e5-a0a9-4780-aa4a-de35e963dbf6"},"vehicle_type_id":"4","last_reported":1727892802,"current_range_meters":34000,"station_id":"ce4bh2h2rcd13ifvqdh0","pricing_plan_id":"cebpf4jnsgd1na2vs0mg"},{"bike_id":"9cbbab00-5320-4d52-8d7f-bad878bc90ea","system_id":"levelo_inurba_marseille","lat":43.2306,"lon":5.3549,"is_reserved":false,"is_disabled":false,"rental_uris":{"android":"levelo://app?vid=9cbbab00-5320-4d52-8d7f-bad878bc90ea","ios":"levelo://app?vid=9cbbab00-5320-4d52-8d7f-bad878bc90ea"},"vehicle_type_id":"4","last_reported":1727892802,"current_range_meters":22000,"station_id":"cpo3342slgdg3j2ifvpg","pricing_plan_id":"cebpf4jnsgd1na2vs0mg"},{"bike_id":"a9dc5c4a-ff7b-4cc8-875a-6a9fb97512eb","system_id":"levelo_inurba_marseille","lat":43.2894,"lon":5.40766,"is_reserved":false,"is_disabled":false,"rental_uris":{"android":"levelo://app?vid=a9dc5c4a-ff7b-4cc8-875a-6a9fb97512eb","ios":"levelo://app?vid=a9dc5c4a-ff7b-4cc8-875a-6a9fb97512eb"},"vehicle_type_id":"4","last_reported":1727892802,"current_range_meters":38800,"station_id":"","pricing_plan_id":"cebpf4jnsgd1na2vs0mg"},{"bike_id":"4dc5118e-5204-4e84-b326-91a552acd1f8","system_id":"levelo_inurba_marseille","lat":43.25727,"lon":5.41109,"is_reserved":false,"is_disabled":false,"rental_uris":{"android":"levelo://app?vid=4dc5118e-5204-4e84-b326-91a552acd1f8","ios":"levelo://app?vid=4dc5118e-5204-4e84-b326-91a552acd1f8"},"vehicle_type_id":"4","last_reported":1727892802,"current_range_meters":38800,"station_id":"ce4bhkp2rcd13ifvqgd0","pricing_plan_id":"cebpf4jnsgd1na2vs0mg"},{"bike_id":"3dd4ba1a-254f-4b4f-99ff-e9304d6c80e2","system_id":"levelo_inurba_marseille","lat":43.2957,"lon":5.37535,"is_reserved":false,"is_disabled":false,"rental_uris":{"android":"levelo://app?vid=3dd4ba1a-254f-4b4f-99ff-e9304d6c80e2","ios":"levelo://app?vid=3dd4ba1a-254f-4b4f-99ff-e9304d6c80e2"},"vehicle_type_id":"4","last_reported":1727892802,"current_range_meters":38400,"station_id":"ce4bgh92rcd13ifvqb50","pricing_plan_id":"cebpf4jnsgd1na2vs0mg"},{"bike_id":"f3821704-2877-494b-9b06-b184970799f8","system_id":"levelo_inurba_marseille","lat":43.32111,"lon":5.3678,"is_reserved":false,"is_disabled":false,"rental_uris":{"android":"levelo://app?vid=f3821704-2877-494b-9b06-b184970799f8","ios":"levelo://app?vid=f3821704-2877-494b-9b06-b184970799f8"},"vehicle_type_id":"4","last_reported":1727892802,"current_range_meters":36000,"station_id":"ce4bhrh2rcd13ifvqhug","pricing_plan_id":"cebpf4jnsgd1na2vs0mg"},{"bike_id":"25826531-57f2-428e-8b27-3f05d5efd4bb","system_id":"levelo_inurba_marseille","lat":43.31711,"lon":5.43713,"is_reserved":false,"is_disabled":false,"rental_uris":{"android":"levelo://app?vid=25826531-57f2-428e-8b27-3f05d5efd4bb","ios":"levelo://app?vid=25826531-57f2-428e-8b27-3f05d5efd4bb"},"vehicle_type_id":"4","last_reported":1727892802,"current_range_meters":11200,"station_id":"ce4bhp92rcd13ifvqhcg","pricing_plan_id":"cebpf4jnsgd1na2vs0mg"},{"bike_id":"cc0cd3c1-df07-4385-87bf-d7227f41888e","system_id":"levelo_inurba_marseille","lat":43.27569,"lon":5.38414,"is_reserved":false,"is_disabled":false,"rental_uris":{"android":"levelo://app?vid=cc0cd3c1-df07-4385-87bf-d7227f41888e","ios":"levelo://app?vid=cc0cd3c1-df07-4385-87bf-d7227f41888e"},"vehicle_type_id":"4","last_reported":1727892802,"current_range_meters":38000,"station_id":"ce4bhh92rcd13ifvqfi0","pricing_plan_id":"cebpf4jnsgd1na2vs0mg"},{"bike_id":"6a1f33ff-2986-4f82-b257-aa492c1c8f53","system_id":"levelo_inurba_marseille","lat":43.33026,"lon":5.39038,"is_reserved":false,"is_disabled":false,"rental_uris":{"android":"levelo://app?vid=6a1f33ff-2986-4f82-b257-aa492c1c8f53","ios":"levelo://app?vid=6a1f33ff-2986-4f82-b257-aa492c1c8f53"},"vehicle_type_id":"4","last_reported":1727892802,"current_range_meters":38800,"station_id":"ce4bhr92rcd13ifvqhrg","pricing_plan_id":"cebpf4jnsgd1na2vs0mg"},{"bike_id":"5d740bc1-7b80-4dcb-a26a-882cecd8e8f4","system_id":"levelo_inurba_marseille","lat":43.315293,"lon":5.380353,"is_reserved":false,"is_disabled":false,"rental_uris":{"android":"levelo://app?vid=5d740bc1-7b80-4dcb-a26a-882cecd8e8f4","ios":"levelo://app?vid=5d740bc1-7b80-4dcb-a26a-882cecd8e8f4"},"vehicle_type_id":"4","last_reported":1727892802,"current_range_meters":35200,"station_id":"ce4bhsp2rcd13ifvqi50","pricing_plan_id":"cebpf4jnsgd1na2vs0mg"},{"bike_id":"b49e2ca5-5f04-4e14-8f65-fceba0611375","system_id":"levelo_inurba_marseille","lat":43.28267,"lon":5.35074,"is_reserved":false,"is_disabled":false,"rental_uris":{"android":"levelo://app?vid=b49e2ca5-5f04-4e14-8f65-fceba0611375","ios":"levelo://app?vid=b49e2ca5-5f04-4e14-8f65-fceba0611375"},"vehicle_type_id":"4","last_reported":1727892802,"current_range_meters":26000,"station_id":"ce4bhbp2rcd13ifvqerg","pricing_plan_id":"cebpf4jnsgd1na2vs0mg"},{"bike_id":"28a3fe48-963a-434e-9875-65bbe078f858","system_id":"levelo_inurba_marseille","lat":43.2904,"lon":5.35919,"is_reserved":false,"is_disabled":false,"rental_uris":{"android":"levelo://app?vid=28a3fe48-963a-434e-9875-65bbe078f858","ios":"levelo://app?vid=28a3fe48-963a-434e-9875-65bbe078f858"},"vehicle_type_id":"4","last_reported":1727892802,"current_range_meters":23200,"station_id":"ce4bha92rcd13ifvqeg0","pricing_plan_id":"cebpf4jnsgd1na2vs0mg"},{"bike_id":"b4440e30-ff9b-4921-950e-90c495afc768","system_id":"levelo_inurba_marseille","lat":43.29594,"lon":5.38104,"is_reserved":false,"is_disabled":false,"rental_uris":{"android":"levelo://app?vid=b4440e30-ff9b-4921-950e-90c495afc768","ios":"levelo://app?vid=b4440e30-ff9b-4921-950e-90c495afc768"},"vehicle_type_id":"4","last_reported":1727892802,"current_range_meters":24800,"station_id":"ce4bgl12rcd13ifvqbo0","pricing_plan_id":"cebpf4jnsgd1na2vs0mg"},