{"last_updated":1731827335,"ttl":60,"version":"2.2","data":{"bikes":[{"bike_id":"9c319bd8-1c7c-46bb-824e-2a1d218223bc","system_id":"levelo_inurba_marseille","lat":43.25117,"lon":5.40321,"is_reserved":false,"is_disabled":false,"rental_uris":{"android":"levelo://app?vid=9c319bd8-1c7c-46bb-824e-2a1d218223bc","ios":"levelo://app?vid=9c319bd8-1c7c-46bb-824e-2a1d218223bc"},"vehicle_type_id":"4","last_reported":1731827335,"current_range_meters":32400,"station_id":"ce4bhlh2rcd13ifvqgig","pricing_plan_id":"cebpf4jnsgd1na2vs0mg"},{"bike_id":"44c7e5bd-d2fe-47b1-a18f-b4643bcfab9c","system_id":"levelo_inurba_marseille","lat":43.29201,"lon":5.39332,"is_reserved":false,"is_disabled":false,"rental_uris":{"android":"levelo://app?vid=44c7e5bd-d2fe-47b1-a18f-b4643bcfab9c","ios":"levelo://app?vid=44c7e5bd-d2fe-47b1-a18f-b4643bcfab9c"},"vehicle_type_id":"4","last_reported":1731827335,"current_range_meters":27200,"station_id":"ce4bh192rcd13ifvqdd0","pricing_plan_id":"cebpf4jnsgd1na2vs0mg"},{"bike_id":"8f64f783-a592-44e3-bbda-2c129afa1260","system_id":"levelo_inurba_marseille","lat":43.24649,"lon":5.38905,"is_reserved":false,"is_disabled":false,"rental_uris":{"android":"levelo://app?vid=8f64f783-a592-44e3-bbda-2c129afa1260","ios":"levelo://app?vid=8f64f783-a592-44e3-bbda-2c129afa1260"},"vehicle_type_id":"4","last_reported":1731827335,"current_range_meters":39200,"station_id":"ce4bhg12rcd13ifvqf60","pricing_plan_id":"cebpf4jnsgd1na2vs0mg"},{"bike_id":"a13d7bdc-98d8-490a-987b-0aa6e9786c96","system_id":"levelo_inurba_marseille","lat":43.24475,"lon":5.3964,"is_reserved":false,"is_disabled":false,"rental_uris":{"android":"levelo://app?vid=a13d7bdc-98d8-490a-987b-0aa6e9786c96","ios":"levelo://app?vid=a13d7bdc-98d8-490a-987b-0aa6e9786c96"},"vehicle_type_id":"4","last_reported":1731827335,"current_range_meters":27600,"station_id":"ce4bhlp2rcd13ifvqgjg","pricing_plan_id":"cebpf4jnsgd1na2vs0mg"},{"bike_id":"b72a3afc-44c7-46c5-841c-3ff0bdffd996","system_id":"levelo_inurba_marseille","lat":43.25579,"lon":5.38236,"is_reserved":false,"is_disabled":false,"rental_uris":{"android":"levelo://app?vid=b72a3afc-44c7-46c5-841c-3ff0bdffd996","ios":"levelo://app?vid=b72a3afc-44c7-46c5-841c-3ff0bdffd996"},"vehicle_type_id":"4","last_reported":1731827335,"current_range_meters":30000,"station_id":"ce4bhih2rcd13ifvqfs0","pricing_plan_id":"cebpf4jnsgd1na2vs0mg"},{"bike_id":"5fc65484-ca9d-4d04-abb0-59c0c73b1826","system_id":"levelo_inurba_marseille","lat":43.29556,"lon":5.42277,"is_reserved":false,"is_disabled":false,"rental_uris":{"android":"levelo://app?vid=5fc65484-ca9d-4d04-abb0-59c0c73b1826","ios":"levelo://app?vid=5fc65484-ca9d-4d04-abb0-59c0c73b1826"},"vehicle_type_id":"4","last_reported":1731827335,"current_range_meters":6800,"station_id":"ce4bhph2rcd13ifvqhdg","pricing_plan_id":"cebpf4jnsgd1na2vs0mg"},{"bike_id":"641e3cf3-7cd4-4453-9ca4-19b1e8a5ec27","system_id":"levelo_inurba_marseille","lat":43.26028,"lon":5.37548,"is_reserved":false,"is_disabled":false,"rental_uris":{"android":"levelo://app?vid=641e3cf3-7cd4-4453-9ca4-19b1e8a5ec27","ios":"levelo://app?vid=641e3cf3-7cd4-4453-9ca4-19b1e8a5ec27"},"vehicle_type_id":"4","last_reported":1731827335,"current_range_meters":37600,"station_id":"ce4bhgh2rcd13ifvqfa0","pricing_plan_id":"cebpf4jnsgd1na2vs0mg"},{"bike_id":"45c178a2-06a1-4784-9547-3194078b2f63","system_id":"levelo_inurba_marseille","lat":43.28696,"lon":5.37411,"is_reserved":false,"is_disabled":false,"rental_uris":{"android":"levelo://app?vid=45c178a2-06a1-4784-9547-3194078b2f63","ios":"levelo://app?vid=45c178a2-06a1-4784-9547-3194078b2f63"},"vehicle_type_id":"4","last_reported":1731827335,"current_range_meters":38800,"station_id":"ce4bh3p2rcd13ifvqdq0","pricing_plan_id":"cebpf4jnsgd1na2vs0mg"},{"bike_id":"0672d165-d197-4474-bbec-2df95543fd2f","system_id":"levelo_inurba_marseille","lat":43.29899,"lon":5.43658,"is_reserved":false,"is_disabled":false,"rental_uris":{"android":"levelo://app?vid=0672d165-d197-4474-bbec-2df95543fd2f","ios":"levelo://app?vid=0672d165-d197-4474-bbec-2df95543fd2f"},"vehicle_type_id":"4","last_reported":1731827335,"current_range_meters":8400,"station_id":"ce4bhpp2rcd13ifvqhfg","pricing_plan_id":"cebpf4jnsgd1na2vs0mg"},{"bike_id":"d9d8a7d9-cde4-4fab-ab69-fcee8fe6a6da","system_id":"levelo_inurba_marseille","lat":43.2487,"lon":5.39217,"is_reserved":false,"is_disabled":false,"rental_uris":{"android":"levelo://app?vid=d9d8a7d9-cde4-4fab-ab69-fcee8fe6a6da","ios":"levelo://app?vid=d9d8a7d9-cde4-4fab-ab69-fcee8fe6a6da"},"vehicle_type_id":"4","last_reported":1731827335,"current_range_meters":9600,"station_id":"ce4bhgp2rcd13ifvqfd0","pricing_plan_id":"cebpf4jnsgd1na2vs0mg"},{"bike_id":"083dbee0-0e04-4a5e-93ff-4f8789a778b7","system_id":"levelo_inurba_marseille","lat":43.22927,"lon":5.35383,"is_reserved":false,"is_disabled":false,"rental_uris":{"android":"levelo://app?vid=083dbee0-0e04-4a5e-93ff-4f8789a778b7","ios":"levelo://app?vid=083dbee0-0e04-4a5e-93ff-4f8789a778b7"},"vehicle_type_id":"4","last_reported":1731827335,"current_range_meters":38800,"station_id":"cpo3532slgdg3j2ikp40","pricing_plan_id":"cebpf4jnsgd1na2vs0mg"},{"bike_id":"5d392c08-4651-4065-9762-d9f710a618ff","system_id":"levelo_inurba_marseille","lat":43.29556,"lon":5.42278,"is_reserved":false,"is_disabled":false,"rental_uris":{"android":"levelo://app?vid=5d392c08-4651-4065-9762-d9f710a618ff","ios":"levelo://app?vid=5d392c08-4651-4065-9762-d9f710a618ff"},"vehicle_type_id":"4","last_reported":1731827335,"current_range_meters":38000,"station_id":"ce4bhph2rcd13ifvqhdg","pricing_plan_id":"cebpf4jnsgd1na2vs0mg"},{"bike_id":"8901474b-089d-4954-abaf-cc92cf1a5b47","system_id":"levelo_inurba_marseille","lat":43.26932,"lon":5.38911,"is_reserved":false,"is_disabled":false,"rental_uris":{"android":"levelo://app?vid=8901474b-089d-4954-abaf-cc92cf1a5b47","ios":"levelo://app?vid=8901474b-089d-4954-abaf-cc92cf1a5b47"},"vehicle_type_id":"4","last_reported":1731827335,"current_range_meters":27600,"station_id":"ce4bhhh2rcd13ifvqfl0","pricing_plan_id":"cebpf4jnsgd1na2vs0mg"},{"bike_id":"fa4d3d6b-2f22-40c0-b10a-f7a96055bc74","system_id":"levelo_inurba_marseille","lat":43.28698,"lon":5.37386,"is_reserved":false,"is_disabled":false,"rental_uris":{"android":"levelo://app?vid=fa4d3d6b-2f22-40c0-b10a-f7a96055bc74","ios":"levelo://app?vid=fa4d3d6b-2f22-40c0-b10a-f7a96055bc74"},"vehicle_type_id":"4","last_reported":1731827335,"current_range_meters":38800,"station_id":"ce4bh3p2rcd13ifvqdq0","pricing_plan_id":"cebpf4jnsgd1na2vs0mg"},{"bike_id":"4543c786-8fc8-4b79-a2f5-ca90faccf506","system_id":"levelo_inurba_marseille","lat":43.24079,"lon":5.37757,"is_reserved":false,"is_disabled":false,"rental_uris":{"android":"levelo://app?vid=4543c786-8fc8-4b79-a2f5-ca90faccf506","ios":"levelo://app?vid=4543c786-8fc8-4b79-a2f5-ca90faccf506"},"vehicle_type_id":"4","last_reported":1731827335,"current_range_meters":38800,"station_id":"ce4bhnp2rcd13ifvqgvg","pricing_plan_id":"cebpf4jnsgd1na2vs0mg"},{"bike_id":"b361c1fc-f63b-4883-ac7d-1a695da9acca","system_id":"levelo_inurba_marseille","lat":43.24173,"lon":5.39731,"is_reserved":false,"is_disabled":false,"rental_uris":{"android":"levelo://app?vid=b361c1fc-f63b-4883-ac7d-1a695da9acca","ios":"levelo://app?vid=b361c1fc-f63b-4883-ac7d-1a695da9acca"},"vehicle_type_id":"4","last_reported":1731827335,"current_range_meters":33600,"station_id":"ce4bhn12rcd13ifvqgpg","pricing_plan_id":"cebpf4jnsgd1na2vs0mg"},{"bike_id":"bcbdfed7-2144-44cc-82de-eaeb2d2be6c4","system_id":"levelo_inurba_marseille","lat":43.28353,"lon":5.38116,"is_reserved":false,"is_disabled":false,"rental_uris":{"android":"levelo://app?vid=bcbdfed7-2144-44cc-82de-eaeb2d2be6c4","ios":"levelo://app?vid=bcbdfed7-2144-44cc-82de-eaeb2d2be6c4"},"vehicle_type_id":"4","last_reported":1731827335,"current_range_meters":17600,"station_id":"ce4bh412rcd13ifvqdr0","pricing_plan_id":"cebpf4jnsgd1na2vs0mg"},{"bike_id":"4c167bc3-2964-4625-adc0-c92e539ad80f","system_id":"levelo_inurba_marseille","lat":43.282827,"lon":5.40803,"is_reserved":false,"is_disabled":false,"rental_uris":{"android":"levelo://app?vid=4c167bc3-2964-4625-adc0-c92e539ad80f","ios":"levelo://app?vid=4c167bc3-2964-4625-adc0-c92e539ad80f"},"vehicle_type_id":"4","last_reported":1731827335,"current_range_meters":36400,"station_id":"","pricing_plan_id":"cebpf4jnsgd1na2vs0mg"},{"bike_id":"60411acc-29b1-494f-a816-31b079e6f4f3","system_id":"levelo_inurba_marseille","lat":43.30283,"lon":5.37706,"is_reserved":false,"is_disabled":false,"rental_uris":{"android":"levelo://app?vid=60411acc-29b1-494f-a816-31b079e6f4f3","ios":"levelo://app?vid=60411acc-29b1-494f-a816-31b079e6f4f3"},"vehicle_type_id":"4","last_reported":1731827335,"current_range_meters":24000,"station_id":"ce4bguh2rcd13ifvqcj0","pricing_plan_id":"cebpf4jnsgd1na2vs0mg"},{"bike_id":"fabff28c-cc12-4f7b-affc-36605f33dfae","system_id":"levelo_inurba_marseille","lat":43.29864,"lon":5.39764,"is_reserved":false,"is_disabled":false,"rental_uris":{"android":"levelo://app?vid=fabff28c-cc12-4f7b-affc-36605f33dfae","ios":"levelo://app?vid=fabff28c-cc12-4f7b-affc-36605f33dfae"},"vehicle_type_id":"4","last_reported":1731827335,"current_range_meters":39200,"station_id":"ce4bh0h2rcd13ifvqd50","pricing_plan_id":"cebpf4jnsgd1na2vs0mg"},{"bike_id":"6b021c86-2252-4183-9dc4-904f3a106b9a","system_id":"levelo_inurba_marseille","lat":43.25114,"lon":5.40325,"is_reserved":false,"is_disabled":false,"rental_uris":{"android":"levelo://app?vid=6b021c86-2252-4183-9dc4-904f3a106b9a","ios":"levelo://app?vid=6b021c86-2252-4183-9dc4-904f3a106b9a"},"vehicle_type_id":"4","last_reported":1731827335,"current_range_meters":26800,"station_id":"ce4bhlh2rcd13ifvqgig","pricing_plan_id":"cebpf4jnsgd1na2vs0mg"},{"bike_id":"6b0ea79e-cb12-4a50-9845-e4686b3cacc8","system_id":"levelo_inurba_marseille","lat":43.295751,"lon":5.399791,"is_reserved":false,"is_disabled":false,"rental_uris":{"android":"levelo://app?vid=6b0ea79e-cb12-4a50-9845-e4686b3cacc8","ios":"levelo://app?vid=6b0ea79e-cb12-4a50-9845-e4686b3cacc8"},"vehicle_type_id":"4","last_reported":1731827335,"current_range_meters":10800,"station_id":"","pricing_plan_id":"cebpf4jnsgd1na2vs0mg"},{"bike_id":"6b3b29cc-0d16-4209-baf0-d9aa368351c0","system_id":"levelo_inurba_marseille","lat":43.32523,"lon":5.41476,"is_reserved":false,"is_disabled":false,"rental_uris":{"android":"levelo://app?vid=6b3b29cc-0d16-4209-baf0-d9aa368351c0","ios":"levelo://app?vid=6b3b29cc-0d16-4209-baf0-d9aa368351c0"},"vehicle_type_id":"4","last_reported":1731827335,"current_range_meters":38800,"station_id":"ce4bhq12rcd13ifvqhhg","pricing_plan_id":"cebpf4jnsgd1na2vs0mg"},{"bike_id":"ab1e2336-b4d1-4295-8ba5-67ecc35322d1","system_id":"levelo_inurba_marseille","lat":43.24995,"lon":5.38938,"is_reserved":false,"is_disabled":false,"rental_uris":{"android":"levelo://app?vid=ab1e2336-b4d1-4295-8ba5-67ecc35322d1","ios":"levelo://app?vid=ab1e2336-b4d1-4295-8ba5-67ecc35322d1"},"vehicle_type_id":"4","last_reported":1731827335,"current_range_meters":11200,"station_id":"ce4bhgp2rcd13ifvqfd0","pricing_plan_id":"cebpf4jnsgd1na2vs0mg"},{"bike_id":"a42a666c-f775-4471-8635-d240c1d4ae9f","system_id":"levelo_inurba_marseille","lat":43.30607,"lon":5.37238,"is_reserved":false,"is_disabled":false,"rental_uris":{"android":"levelo://app?vid=a42a666c-f775-4471-8635-d240c1d4ae9f","ios":"levelo://app?vid=a42a666c-f775-4471-8635-d240c1d4ae9f"},"vehicle_type_id":"4","last_reported":1731827335,"current_range_meters":34800,"station_id":"ce4bgqh2rcd13ifvqc4g","pricing_plan_id":"cebpf4jnsgd1na2vs0mg"},{"bike_id":"72499688-a320-4333-843e-c093213a74e4","system_id":"levelo_inurba_marseille","lat":43.23057,"lon":5.35493,"is_reserved":false,"is_disabled":false,"rental_uris":{"android":"levelo://app?vid=72499688-a320-4333-843e-c093213a74e4","ios":"levelo://app?vid=72499688-a320-4333-843e-c093213a74e4"},"vehicle_type_id":"4","last_reported":1731827335,"current_range_meters":6000,"station_id":"cpo3342slgdg3j2ifvpg","pricing_plan_id":"cebpf4jnsgd1na2vs0mg"},{"bike_id":"702f7e8a-668d-480d-bd1f-6dd087fea726","system_id":"levelo_inurba_marseille","lat":43.30595,"lon":5.3724,"is_reserved":false,"is_disabled":false,"rental_uris":{"android":"levelo://app?vid=702f7e8a-668d-480d-bd1f-6dd087fea726","ios":"levelo://app?vid=702f7e8a-668d-480d-bd1f-6dd087fea726"},"vehicle_type_id":"4","last_reported":1731827335,"current_range_meters":38800,"station_id":"ce4bgqh2rcd13ifvqc4g","pricing_plan_id":"cebpf4jnsgd1na2vs0mg"},{"bike_id":"2dbb2de1-6b20-470a-a5a8-98f709fd3897","system_id":"levelo_inurba_marseille","lat":43.24998,"lon":5.38923,"is_reserved":false,"is_disabled":false,"rental_uris":{"android":"levelo://app?vid=2dbb2de1-6b20-470a-a5a8-98f709fd3897","ios":"levelo://app?vid=2dbb2de1-6b20-470a-a5a8-98f709fd3897"},"vehicle_type_id":"4","last_reported":1731827335,"current_range_meters":27600,"station_id":"ce4bhgp2rcd13ifvqfd0","pricing_plan_id":"cebpf4jnsgd1na2vs0mg"},{"bike_id":"cfb84728-fd61-4b96-a4bf-5bedd95d8ccb","system_id":"levelo_inurba_marseille","lat":43.32342,"lon":5.40616,"is_reserved":false,"is_disabled":false,"rental_uris":{"android":"levelo://app?vid=cfb84728-fd61-4b96-a4bf-5bedd95d8ccb","ios":"levelo://app?vid=cfb84728-fd61-4b96-a4bf-5bedd95d8ccb"},"vehicle_type_id":"4","last_reported":1731827335,"current_range_meters":38400,"station_id":"ce4bhq92rcd13ifvqhjg","pricing_plan_id":"cebpf4jnsgd1na2vs0mg"},{"bike_id":"7cf438d8-b1d8-49cd-a040-7a7802b38a16","system_id":"levelo_inurba_marseille","lat":43.28101,"lon":5.37848,"is_reserved":false,"is_disabled":false,"rental_uris":{"android":"levelo://app?vid=7cf438d8-b1d8-49cd-a040-7a7802b38a16","ios":"levelo://app?vid=7cf438d8-b1d8-49cd-a040-7a7802b38a16"},"vehicle_type_id":"4","last_reported":1731827335,"current_range_meters":38800,"station_id":"ce4bha12rcd13ifvqee0","pricing_plan_id":"cebpf4jnsgd1na2vs0mg"},{"bike_id":"0e1d2e7a-8318-45fe-af1b-31857eb1aac8","system_id":"levelo_inurba_marseille","lat":43.23957,"lon":5.36628,"is_reserved":false,"is_disabled":false,"rental_uris":{"android":"levelo://app?vid=0e1d2e7a-8318-45fe-af1b-31857eb1aac8","ios":"levelo://app?vid=0e1d2e7a-8318-45fe-af1b-31857eb1aac8"},"vehicle_type_id":"4","last_reported":1731827335,"current_range_meters":25200,"station_id":"ce4bhi12rcd13ifvqfp0","pricing_plan_id":"cebpf4jnsgd1na2vs0mg"},{"bike_id":"d3d6c01f-3a4b-4f9b-a5b9-2d9687fae2ab","system_id":"levelo_inurba_marseille","lat":43.27947,"lon":5.410416,"is_reserved":false,"is_disabled":false,"rental_uris":{"android":"levelo://app?vid=d3d6c01f-3a4b-4f9b-a5b9-2d9687fae2ab","ios":"levelo://app?vid=d3d6c01f-3a4b-4f9b-a5b9-2d9687fae2ab"},"vehicle_type_id":"4","last_reported":1731827335,"current_range_meters":35600,"station_id":"ce4bhnp2rcd13ifvqh0g","pricing_plan_id":"cebpf4jnsgd1na2vs0mg"},{"bike_id":"2bd3ae1c-22d2-4b0f-9fd7-42d6b84fc3a3","system_id":"levelo_inurba_marseille","lat":43.336,"lon":5.41031,"is_reserved":false,"is_disabled":false,"rental_uris":{"android":"levelo://app?vid=2bd3ae1c-22d2-4b0f-9fd7-42d6b84fc3a3","ios":"levelo://app?vid=2bd3ae1c-22d2-4b0f-9fd7-42d6b84fc3a3"},"vehicle_type_id":"4","last_reported":1731827335,"current_range_meters":20000,"station_id":"ce4bhqh2rcd13ifvqhmg","pricing_plan_id":"cebpf4jnsgd1na2vs0mg"},{"bike_id":"79b76398-f4aa-422b-b325-2360d07a8784","system_id":"levelo_inurba_marseille","lat":43.33729,"lon":5.39179,"is_reserved":false,"is_disabled":false,"rental_uris":{"android":"levelo://app?vid=79b76398-f4aa-422b-b325-2360d07a8784","ios":"levelo://app?vid=79b76398-f4aa-422b-b325-2360d07a8784"},"vehicle_type_id":"4","last_reported":1731827335,"current_range_meters":38800,"station_id":"ce4bhr92rcd13ifvqhsg","pricing_plan_id":"cebpf4jnsgd1na2vs0mg"},{"bike_id":"87f4ca05-76ff-4730-92d8-e6ff014a6758","system_id":"levelo_inurba_marseille","lat":43.28465,"lon":5.35882,"is_reserved":false,"is_disabled":false,"rental_uris":{"android":"levelo://app?vid=87f4ca05-76ff-4730-92d8-e6ff014a6758","ios":"levelo://app?vid=87f4ca05-76ff-4730-92d8-e6ff014a6758"},"vehicle_type_id":"4","last_reported":1731827335,"current_range_meters":39200,"station_id":"ce4bhah2rcd13ifvqei0","pricing_plan_id":"cebpf4jnsgd1na2vs0mg"},{"bike_id":"efd07578-0d87-479b-a620-d02e7740eb0d","system_id":"levelo_inurba_marseille","lat":43.24388,"lon":5.37064,"is_reserved":false,"is_disabled":false,"rental_uris":{"android":"levelo://app?vid=efd07578-0d87-479b-a620-d02e7740eb0d","ios":"levelo://app?vid=efd07578-0d87-479b-a620-d02e7740eb0d"},"vehicle_type_id":"4","last_reported":1731827335,"current_range_meters":38000,"station_id":"ce4bhhh2rcd13ifvqfk0","pricing_plan_id":"cebpf4jnsgd1na2vs0mg"},{"bike_id":"c1c93210-0c12-44ae-b8e9-7b125b8d22a1","system_id":"levelo_inurba_marseille","lat":43.29439,"lon":5.39754,"is_reserved":false,"is_disabled":false,"rental_uris":{"android":"levelo://app?vid=c1c93210-0c12-44ae-b8e9-7b125b8d22a1","ios":"levelo://app?vid=c1c93210-0c12-44ae-b8e9-7b125b8d22a1"},"vehicle_type_id":"4","last_reported":1731827335,"current_range_meters":36800,"station_id":"ce4bh3h2rcd13ifvqdo0","pricing_plan_id":"cebpf4jnsgd1na2vs0mg"},{"bike_id":"7ab381ea-419e-4dd7-be48-e55550c20a7d","system_id":"levelo_inurba_marseille","lat":43.258612,"lon":5.398954,"is_reserved":false,"is_disabled":false,"rental_uris":{"android":"levelo://app?vid=7ab381ea-419e-4dd7-be48-e55550c20a7d","ios":"levelo://app?vid=7ab381ea-419e-4dd7-be48-e55550c20a7d"},"vehicle_type_id":"4","last_reported":1731827335,"current_range_meters":38400,"station_id":"ce4bhl92rcd13ifvqghg","pricing_plan_id":"cebpf4jnsgd1na2vs0mg"},{"bike_id":"3fcbe528-45e3-439d-80db-ce667e24fe73","system_id":"levelo_inurba_marseille","lat":43.23059,"lon":5.35492,"is_reserved":false,"is_disabled":false,"rental_uris":{"android":"levelo://app?vid=3fcbe528-45e3-439d-80db-ce667e24fe73","ios":"levelo://app?vid=3fcbe528-45e3-439d-80db-ce667e24fe73"},"vehicle_type_id":"4","last_reported":1731827335,"current_range_meters":17600,"station_id":"cpo3342slgdg3j2ifvpg","pricing_plan_id":"cebpf4jnsgd1na2vs0mg"},{"bike_id":"362ea0ff-d49e-4f5d-b49c-d7b90bf98662","system_id":"levelo_inurba_marseille","lat":43.30156,"lon":5.38083,"is_reserved":false,"is_disabled":false,"rental_uris":{"android":"levelo://app?vid=362ea0ff-d49e-4f5d-b49c-d7b90bf98662","ios":"levelo://app?vid=362ea0ff-d49e-4f5d-b49c-d7b90bf98662"},"vehicle_type_id":"4","last_reported":1731827335,"current_range_meters":16400,"station_id":"ce4bgjp2rcd13ifvqbh0","pricing_plan_id":"cebpf4jnsgd1na2vs0mg"},{"bike_id":"b2f45d15-d036-4f36-a361-a492e289342e","system_id":"levelo_inurba_marseille","lat":43.22929,"lon":5.35375,"is_reserved":false,"is_disabled":false,"rental_uris":{"android":"levelo://app?vid=b2f45d15-d036-4f36-a361-a492e289342e","ios":"levelo://app?vid=b2f45d15-d036-4f36-a361-a492e289342e"},"vehicle_type_id":"4","last_reported":1731827335,"current_range_meters":36400,"station_id":"cpo3532slgdg3j2ikp40","pricing_plan_id":"cebpf4jnsgd1na2vs0mg"},{"bike_id":"db0085fb-8c79-4ddd-9c9c-5f619ed839e1","system_id":"levelo_inurba_marseille","lat":43.27613,"lon":5.36133,"is_reserved":false,"is_disabled":false,"rental_uris":{"android":"levelo://app?vid=db0085fb-8c79-4ddd-9c9c-5f619ed839e1","ios":"levelo://app?vid=db0085fb-8c79-4ddd-9c9c-5f619ed839e1"},"vehicle_type_id":"4","last_reported":1731827335,"current_range_meters":32400,"station_id":"ce4bgj92rcd13ifvqbe0","pricing_plan_id":"cebpf4jnsgd1na2vs0mg"},{"bike_id":"564cb66c-5e6f-4516-b226-94b193d2d44f","system_id":"levelo_inurba_marseille","lat":43.30137,"lon":5.3806,"is_reserved":false,"is_disabled":false,"rental_uris":{"android":"levelo://app?vid=564cb66c-5e6f-4516-b226-94b193d2d44f","ios":"levelo://app?vid=564cb66c-5e6f-4516-b226-94b193d2d44f"},"vehicle_type_id":"4","last_reported":1731827335,"current_range_meters":38400,"station_id":"ce4bgjp2rcd13ifvqbh0","pricing_plan_id":"cebpf4jnsgd1na2vs0mg"},{"bike_id":"d886faba-ab2b-4b0c-9539-76a921001817","system_id":"levelo_inurba_marseille","lat":43.30882,"lon":5.39646,"is_reserved":false,"is_disabled":false,"rental_uris":{"android":"levelo://app?vid=d886faba-ab2b-4b0c-9539-76a921001817","ios":"levelo://app?vid=d886faba-ab2b-4b0c-9539-76a921001817"},"vehicle_type_id":"4","last_reported":1731827335,"current_range_meters":33200,"station_id":"ce4bh012rcd13ifvqcv0","pricing_plan_id":"cebpf4jnsgd1na2vs0mg"},{"bike_id":"af4eb732-706e-44bf-8285-9a12812ac693","system_id":"levelo_inurba_marseille","lat":43.24084,"lon":5.37757,"is_reserved":false,"is_disabled":false,"rental_uris":{"android":"levelo://app?vid=af4eb732-706e-44bf-8285-9a12812ac693","ios":"levelo://app?vid=af4eb732-706e-44bf-8285-9a12812ac693"},"vehicle_type_id":"4","last_reported":1731827335,"current_range_meters":36800,"station_id":"ce4bhnp2rcd13ifvqgvg","pricing_plan_id":"cebpf4jnsgd1na2vs0mg"},{"bike_id":"c3979bf8-19b8-44f8-9c55-905eeba667a1","system_id":"levelo_inurba_marseille","lat":43.25109,"lon":5.4032,"is_reserved":false,"is_disabled":false,"rental_uris":{"android":"levelo://app?vid=c3979bf8-19b8-44f8-9c55-905eeba667a1","ios":"levelo://app?vid=c3979bf8-19b8-44f8-9c55-905eeba667a1"},"vehicle_type_id":"4","last_reported":1731827335,"current_range_meters":39200,"station_id":"ce4bhlh2rcd13ifvqgig","pricing_plan_id":"cebpf4jnsgd1na2vs0mg"},{"bike_id":"b9d17975-7192-4fb7-a010-d46568b0fe0a","system_id":"levelo_inurba_marseille","lat":43.27916,"lon":5.39574,"is_reserved":false,"is_disabled":false,"rental_uris":{"android":"levelo://app?vid=b9d17975-7192-4fb7-a010-d46568b0fe0a","ios":"levelo://app?vid=b9d17975-7192-4fb7-a010-d46568b0fe0a"},"vehicle_type_id":"4","last_reported":1731827335,"current_range_meters":28400,"station_id":"ce4bhf92rcd13ifvqf40","pricing_plan_id":"cebpf4jnsgd1na2vs0mg"},{"bike_id":"b631e519-28d2-4cfa-a3fe-9973870675b2","system_id":"levelo_inurba_marseille","lat":43.24543,"lon":5.39533,"is_reserved":false,"is_disabled":false,"rental_uris":{"android":"levelo://app?vid=b631e519-28d2-4cfa-a3fe-9973870675b2","ios":"levelo://app?vid=b631e519-28d2-4cfa-a3fe-9973870675b2"},"vehicle_type_id":"4","last_reported":1731827335,"current_range_meters":10800,"station_id":"ce4bhlp2rcd13ifvqgjg","pricing_plan_id":"cebpf4jnsgd1na2vs0mg"},{"bike_id":"813af9a4-9b14-40c9-8204-9843d74ef545","system_id":"levelo_inurba_marseille","lat":43.29587,"lon":5.36738,"is_reserved":false,"is_disabled":false,"rental_uris":{"android":"levelo://app?vid=813af9a4-9b14-40c9-8204-9843d74ef545","ios":"levelo://app?vid=813af9a4-9b14-40c9-8204-9843d74ef545"},"vehicle_type_id":"4","last_reported":1731827335,"current_range_meters":38800,"station_id":"ce4bgph2rcd13ifvqc2g","pricing_plan_id":"cebpf4jnsgd1na2vs0mg"},{"bike_id":"8fc19385-158a-491b-b10f-9c5819f23bf2","system_id":"levelo_inurba_marseille","lat":43.32532,"lon":5.41451,"is_reserved":false,"is_disabled":false,"rental_uris":{"android":"levelo://app?vid=8fc19385-158a-491b-b10f-9c5819f23bf2","ios":"levelo://app?vid=8fc19385-158a-491b-b10f-9c5819f23bf2"},"vehicle_type_id":"4","last_reported":1731827335,"current_range_meters":19600,"station_id":"ce4bhq12rcd13ifvqhhg","pricing_plan_id":"cebpf4jnsgd1na2vs0mg"},{"bike_id":"e54a0007-265b-49a9-b82e-9b47ac08e350","system_id":"levelo_inurba_marseille","lat":43.30599,"lon":5.39355,"is_reserved":false,"is_disabled":false,"rental_uris":{"android":"levelo://app?vid=e54a0007-265b-49a9-b82e-9b47ac08e350","ios":"levelo://app?vid=e54a0007-265b-49a9-b82e-9b47ac08e350"},"vehicle_type_id":"4","last_reported":1731827335,"current_range_meters":36400,"station_id":"ce4bh0p2rcd13ifvqd80","pricing_plan_id":"cebpf4jnsgd1na2vs0mg"},{"bike_id":"95f650e6-603f-4925-8e5f-853d93f641f8","system_id":"levelo_inurba_marseille","lat":43.30595,"lon":5.39355,"is_reserved":false,"is_disabled":false,"rental_uris":{"android":"levelo://app?vid=95f650e6-603f-4925-8e5f-853d93f641f8","ios":"levelo://app?vid=95f650e6-603f-4925-8e5f-853d93f641f8"},"vehicle_type_id":"4","last_reported":1731827335,"current_range_meters":38400,"station_id":"ce4bh0p2rcd13ifvqd80","pricing_plan_id":"cebpf4jnsgd1na2vs0mg"},{"bike_id":"b128a8d7-7942-4d37-9966-cfc17584ff0d","system_id":"levelo_inurba_marseille","lat":43.28059,"lon":5.40775,"is_reserved":false,"is_disabled":false,"rental_uris":{"android":"levelo://app?vid=b128a8d7-7942-4d37-9966-cfc17584ff0d","ios":"levelo://app?vid=b128a8d7-7942-4d37-9966-cfc17584ff0d"},"vehicle_type_id":"4","last_reported":1731827335,"current_range_meters":16000,"station_id":"","pricing_plan_id":"cebpf4jnsgd1na2vs0mg"},{"bike_id":"0c2a5471-1258-465a-861b-af745bf735bc","system_id":"levelo_inurba_marseille","lat":43.29879,"lon":5.39736,"is_reserved":false,"is_disabled":false,"rental_uris":{"android":"levelo://app?vid=0c2a5471-1258-465a-861b-af745bf735bc","ios":"levelo://app?vid=0c2a5471-1258-465a-861b-af745bf735bc"},"vehicle_type_id":"4","last_reported":1731827335,"current_range_meters":7200,"station_id":"ce4bh0h2rcd13ifvqd50","pricing_plan_id":"cebpf4jnsgd1na2vs0mg"},{"bike_id":"62869ff0-723d-468c-bc17-d9b1f5888b24","system_id":"levelo_inurba_marseille","lat":43.29578,"lon":5.39983,"is_reserved":false,"is_disabled":false,"rental_uris":{"android":"levelo://app?vid=62869ff0-723d-468c-bc17-d9b1f5888b24","ios":"levelo://app?vid=62869ff0-723d-468c-bc17-d9b1f5888b24"},"vehicle_type_id":"4","last_reported":1731827335,"current_range_meters":38800,"station_id":"ce4bh312rcd13ifvqdj0","pricing_plan_id":"cebpf4jnsgd1na2vs0mg"},{"bike_id":"98e8f116-8e6d-44de-aa8d-307238c5688c","system_id":"levelo_inurba_marseille","lat":43.30796,"lon":5.43518,"is_reserved":false,"is_disabled":false,"rental_uris":{"android":"levelo://app?vid=98e8f116-8e6d-44de-aa8d-307238c5688c","ios":"levelo://app?vid=98e8f116-8e6d-44de-aa8d-307238c5688c"},"vehicle_type_id":"4","last_reported":1731827335,"current_range_meters":38800,"station_id":"ce4bhph2rcd13ifvqheg","pricing_plan_id":"cebpf4jnsgd1na2vs0mg"},{"bike_id":"e35ea461-2c76-480f-88e8-2878f34a36e3","system_id":"levelo_inurba_marseille","lat":43.2872,"lon":5.37947,"is_reserved":false,"is_disabled":false,"rental_uris":{"android":"levelo://app?vid=e35ea461-2c76-480f-88e8-2878f34a36e3","ios":"levelo://app?vid=e35ea461-2c76-480f-88e8-2878f34a36e3"},"vehicle_type_id":"4","last_reported":1731827335,"current_range_meters":12800,"station_id":"ce4bh9p2rcd13ifvqec0","pricing_plan_id":"cebpf4jnsgd1na2vs0mg"},{"bike_id":"8b8091d9-8831-4b6c-ad12-201ff8e72ec6","system_id":"levelo_inurba_marseille","lat":43.27924,"lon":5.41425,"is_reserved":false,"is_disabled":false,"rental_uris":{"android":"levelo://app?vid=8b8091d9-8831-4b6c-ad12-201ff8e72ec6","ios":"levelo://app?vid=8b8091d9-8831-4b6c-ad12-201ff8e72ec6"},"vehicle_type_id":"4","last_reported":1731827335,"current_range_meters":35600,"station_id":"","pricing_plan_id":"cebpf4jnsgd1na2vs0mg"},{"bike_id":"0d090cbd-7bd8-48ce-96b4-17fa666688e1","system_id":"levelo_inurba_marseille","lat":43.34147,"lon":5.4091,"is_reserved":false,"is_disabled":false,"rental_uris":{"android":"levelo://app?vid=0d090cbd-7bd8-48ce-96b4-17fa666688e1","ios":"levelo://app?vid=0d090cbd-7bd8-48ce-96b4-17fa666688e1"},"vehicle_type_id":"4","last_reported":1731827335,"current_range_meters":26800,"station_id":"ce4bhqh2rcd13ifvqhlg","pricing_plan_id":"cebpf4jnsgd1na2vs0mg"},{"bike_id":"7e3df5ea-9017-49ae-9cd6-399ea603748b","system_id":"levelo_inurba_marseille","lat":43.31077,"lon":5.42432,"is_reserved":false,"is_disabled":false,"rental_uris":{"android":"levelo://app?vid=7e3df5ea-9017-49ae-9cd6-399ea603748b","ios":"levelo://app?vid=7e3df5ea-9017-49ae-9cd6-399ea603748b"},"vehicle_type_id":"4","last_reported":1731827335,"current_range_meters":24800,"station_id":"ce4bhp92rcd13ifvqhag","pricing_plan_id":"cebpf4jnsgd1na2vs0mg"},{"bike_id":"c7819d65-71cb-421a-85c6-b48855dedfc5","system_id":"levelo_inurba_marseille","lat":43.32339,"lon":5.40631,"is_reserved":false,"is_disabled":false,"rental_uris":{"android":"levelo://app?vid=c7819d65-71cb-421a-85c6-b48855dedfc5","ios":"levelo://app?vid=c7819d65-71cb-421a-85c6-b48855dedfc5"},"vehicle_type_id":"4","last_reported":1731827335,"current_range_meters":39200,"station_id":"ce4bhq92rcd13ifvqhjg","pricing_plan_id":"cebpf4jnsgd1na2vs0mg"},{"bike_id":"75920a68-20af-4e25-8f9a-eebdafdde0c1","system_id":"levelo_inurba_marseille","lat":43.32337,"lon":5.40617,"is_reserved":false,"is_disabled":false,"rental_uris":{"android":"levelo://app?vid=75920a68-20af-4e25-8f9a-eebdafdde0c1","ios":"levelo://app?vid=75920a68-20af-4e25-8f9a-eebdafdde0c1"},"vehicle_type_id":"4","last_reported":1731827335,"current_range_meters":38800,"station_id":"ce4bhq92rcd13ifvqhjg","pricing_plan_id":"cebpf4jnsgd1na2vs0mg"},{"bike_id":"0ece85f4-e736-4389-a3cc-3765002dc8dc","system_id":"levelo_inurba_marseille","lat":43.27561,"lon":5.38419,"is_reserved":false,"is_disabled":false,"rental_uris":{"android":"levelo://app?vid=0ece85f4-e736-4389-a3cc-3765002dc8dc","ios":"levelo://app?vid=0ece85f4-e736-4389-a3cc-3765002dc8dc"},"vehicle_type_id":"4","last_reported":1731827335,"current_range_meters":39200,"station_id":"ce4bhh92rcd13ifvqfi0","pricing_plan_id":"cebpf4jnsgd1na2vs0mg"},{"bike_id":"95dc1d29-de6b-4b02-8633-320de4a8f602","system_id":"levelo_inurba_marseille","lat":43.28698,"lon":5.37385,"is_reserved":false,"is_disabled":false,"rental_uris":{"android":"levelo://app?vid=95dc1d29-de6b-4b02-8633-320de4a8f602","ios":"levelo://app?vid=95dc1d29-de6b-4b02-8633-320de4a8f602"},"vehicle_type_id":"4","last_reported":1731827335,"current_range_meters":27600,"station_id":"ce4bh3p2rcd13ifvqdq0","pricing_plan_id":"cebpf4jnsgd1na2vs0mg"},{"bike_id":"7fc6dc11-7562-49f9-aa4d-4cdb59cca13b","system_id":"levelo_inurba_marseille","lat":43.25079,"lon":5.39497,"is_reserved":false,"is_disabled":false,"rental_uris":{"android":"levelo://app?vid=7fc6dc11-7562-49f9-aa4d-4cdb59cca13b","ios":"levelo://app?vid=7fc6dc11-7562-49f9-aa4d-4cdb59cca13b"},"vehicle_type_id":"4","last_reported":1731827335,"current_range_meters":26800,"station_id":"ce4bhm12rcd13ifvqgkg","pricing_plan_id":"cebpf4jnsgd1na2vs0mg"},{"bike_id":"65ec5b8c-68ba-40a3-bd6e-d2e54bfdab9c","system_id":"levelo_inurba_marseille","lat":43.31272,"lon":5.40167,"is_reserved":false,"is_disabled":false,"rental_uris":{"android":"levelo://app?vid=65ec5b8c-68ba-40a3-bd6e-d2e54bfdab9c","ios":"levelo://app?vid=65ec5b8c-68ba-40a3-bd6e-d2e54bfdab9c"},"vehicle_type_id":"4","last_reported":1731827335,"current_range_meters":36800,"station_id":"ce4bh092rcd13ifvqd30","pricing_plan_id":"cebpf4jnsgd1na2vs0mg"},{"bike_id":"0b580216-b07f-4821-a19d-686462be0488","system_id":"levelo_inurba_marseille","lat":43.22935,"lon":5.35378,"is_reserved":false,"is_disabled":false,"rental_uris":{"android":"levelo://app?vid=0b580216-b07f-4821-a19d-686462be0488","ios":"levelo://app?vid=0b580216-b07f-4821-a19d-686462be0488"},"vehicle_type_id":"4","last_reported":1731827335,"current_range_meters":36400,"station_id":"cpo3532slgdg3j2ikp40","pricing_plan_id":"cebpf4jnsgd1na2vs0mg"},{"bike_id":"8ec12441-0a09-48b5-9b60-4ec15c08e11c","system_id":"levelo_inurba_marseille","lat":43.23198,"lon":5.39963,"is_reserved":false,"is_disabled":false,"rental_uris":{"android":"levelo://app?vid=8ec12441-0a09-48b5-9b60-4ec15c08e11c","ios":"levelo://app?vid=8ec12441-0a09-48b5-9b60-4ec15c08e11c"},"vehicle_type_id":"4","last_reported":1731827335,"current_range_meters":9600,"station_id":"ce4bhn12rcd13ifvqgqg","pricing_plan_id":"cebpf4jnsgd1na2vs0mg"},{"bike_id":"919c2b04-2f05-4beb-9728-c90882114e9c","system_id":"levelo_inurba_marseille","lat":43.32365,"lon":5.38879,"is_reserved":false,"is_disabled":false,"rental_uris":{"android":"levelo://app?vid=919c2b04-2f05-4beb-9728-c90882114e9c","ios":"levelo://app?vid=919c2b04-2f05-4beb-9728-c90882114e9c"},"vehicle_type_id":"4","last_reported":1731827335,"current_range_meters":17600,"station_id":"ce4bhqp2rcd13ifvqhog","pricing_plan_id":"cebpf4jnsgd1na2vs0mg"},{"bike_id":"6c09764b-b705-4bff-8274-3ff08e7b8ec5","system_id":"levelo_inurba_marseille","lat":43.25581,"lon":5.38237,"is_reserved":false,"is_disabled":false,"rental_uris":{"android":"levelo://app?vid=6c09764b-b705-4bff-8274-3ff08e7b8ec5","ios":"levelo://app?vid=6c09764b-b705-4bff-8274-3ff08e7b8ec5"},"vehicle_type_id":"4","last_reported":1731827335,"current_range_meters":38400,"station_id":"ce4bhih2rcd13ifvqfs0","pricing_plan_id":"cebpf4jnsgd1na2vs0mg"},{"bike_id":"31f63ef9-c049-441d-a759-cf5947f4bacb","system_id":"levelo_inurba_marseille","lat":43.30641,"lon":5.40076,"is_reserved":false,"is_disabled":false,"rental_uris":{"android":"levelo://app?vid=31f63ef9-c049-441d-a759-cf5947f4bacb","ios":"levelo://app?vid=31f63ef9-c049-441d-a759-cf5947f4bacb"},"vehicle_type_id":"4","last_reported":1731827335,"current_range_meters":38800,"station_id":"ce4bh112rcd13ifvqda0","pricing_plan_id":"cebpf4jnsgd1na2vs0mg"},{"bike_id":"4138345b-cc1d-40b0-8916-e8013770729a","system_id":"levelo_inurba_marseille","lat":43.24642,"lon":5.3889,"is_reserved":false,"is_disabled":false,"rental_uris":{"android":"levelo://app?vid=4138345b-cc1d-40b0-8916-e8013770729a","ios":"levelo://app?vid=4138345b-cc1d-40b0-8916-e8013770729a"},"vehicle_type_id":"4","last_reported":1731827335,"current_range_meters":36800,"station_id":"ce4bhg12rcd13ifvqf60","pricing_plan_id":"cebpf4jnsgd1na2vs0mg"},{"bike_id":"d30949a9-1f1d-4600-85be-3e3730fcd848","system_id":"levelo_inurba_marseille","lat":43.2904,"lon":5.39977,"is_reserved":false,"is_disabled":false,"rental_uris":{"android":"levelo://app?vid=d30949a9-1f1d-4600-85be-3e3730fcd848","ios":"levelo://app?vid=d30949a9-1f1d-4600-85be-3e3730fcd848"},"vehicle_type_id":"4","last_reported":1731827335,"current_range_meters":32400,"station_id":"ce4bh392rcd13ifvqdm0","pricing_plan_id":"cebpf4jnsgd1na2vs0mg"},{"bike_id":"fd9420c1-2eaa-4137-b93c-afc5545251d8","system_id":"levelo_inurba_marseille","lat":43.29561,"lon":5.42283,"is_reserved":false,"is_disabled":false,"rental_uris":{"android":"levelo://app?vid=fd9420c1-2eaa-4137-b93c-afc5545251d8","ios":"levelo://app?vid=fd9420c1-2eaa-4137-b93c-afc5545251d8"},"vehicle_type_id":"4","last_reported":1731827335,"current_range_meters":38800,"station_id":"ce4bhph2rcd13ifvqhdg","pricing_plan_id":"cebpf4jnsgd1na2vs0mg"},{"bike_id":"18f0ce5e-8c81-4738-aab7-3779ce42e7fd","system_id":"levelo_inurba_marseille","lat":43.30416,"lon":5.39752,"is_reserved":false,"is_disabled":false,"rental_uris":{"android":"levelo://app?vid=18f0ce5e-8c81-4738-aab7-3779ce42e7fd","ios":"levelo://app?vid=18f0ce5e-8c81-4738-aab7-3779ce42e7fd"},"vehicle_type_id":"4","last_reported":1731827335,"current_range_meters":17600,"station_id":"ce4bh092rcd13ifvqd20","pricing_plan_id":"cebpf4jnsgd1na2vs0mg"},{"bike_id":"deaffe6f-3d3a-4cc9-acc5-2632916739ab","system_id":"levelo_inurba_marseille","lat":43.24181,"lon":5.3972,"is_reserved":false,"is_disabled":false,"rental_uris":{"android":"levelo://app?vid=deaffe6f-3d3a-4cc9-acc5-2632916739ab","ios":"levelo://app?vid=deaffe6f-3d3a-4cc9-acc5-2632916739ab"},"vehicle_type_id":"4","last_reported":1731827335,"current_range_meters":33200,"station_id":"ce4bhn12rcd13ifvqgpg","pricing_plan_id":"cebpf4jnsgd1na2vs0mg"},{"bike_id":"87119aad-ad8b-4504-8d03-d8d8d5751481","system_id":"levelo_inurba_marseille","lat":43.27907,"lon":5.4121,"is_reserved":false,"is_disabled":false,"rental_uris":{"android":"levelo://app?vid=87119aad-ad8b-4504-8d03-d8d8d5751481","ios":"levelo://app?vid=87119aad-ad8b-4504-8d03-d8d8d5751481"},"vehicle_type_id":"4","last_reported":1731827335,"current_range_meters":24400,"station_id":"","pricing_plan_id":"cebpf4jnsgd1na2vs0mg"},{"bike_id":"47b4c5f7-af8d-4ed4-934d-2257f0d3fe18","system_id":"levelo_inurba_marseille","lat":43.24075,"lon":5.37758,"is_reserved":false,"is_disabled":false,"rental_uris":{"android":"levelo://app?vid=47b4c5f7-af8d-4ed4-934d-2257f0d3fe18","ios":"levelo://app?vid=47b4c5f7-af8d-4ed4-934d-2257f0d3fe18"},"vehicle_type_id":"4","last_reported":1731827335,"current_range_meters":38800,"station_id":"ce4bhnp2rcd13ifvqgvg","pricing_plan_id":"cebpf4jnsgd1na2vs0mg"},{"bike_id":"ba57f1ef-3fbb-4816-9e62-2e0737689f5e","system_id":"levelo_inurba_marseille","lat":43.33611,"lon":5.41031,"is_reserved":false,"is_disabled":false,"rental_uris":{"android":"levelo://app?vid=ba57f1ef-3fbb-4816-9e62-2e0737689f5e","ios":"levelo://app?vid=ba57f1ef-3fbb-4816-9e62-2e0737689f5e"},"vehicle_type_id":"4","last_reported":1731827335,"current_range_meters":38800,"station_id":"ce4bhqh2rcd13ifvqhmg","pricing_plan_id":"cebpf4jnsgd1na2vs0mg"},{"bike_id":"4df96d24-58e7-4ba9-9234-e475332e4941","system_id":"levelo_inurba_marseille","lat":43.26056,"lon":5.39389,"is_reserved":false,"is_disabled":false,"rental_uris":{"android":"levelo://app?vid=4df96d24-58e7-4ba9-9234-e475332e4941","ios":"levelo://app?vid=4df96d24-58e7-4ba9-9234-e475332e4941"},"vehicle_type_id":"4","last_reported":1731827335,"current_range_meters":39200,"station_id":"ce4bhh92rcd13ifvqfj0","pricing_plan_id":"cebpf4jnsgd1na2vs0mg"},{"bike_id":"18f4ec1e-0d10-4635-ac46-ef382095bfa6","system_id":"levelo_inurba_marseille","lat":43.3014,"lon":5.38062,"is_reserved":false,"is_disabled":false,"rental_uris":{"android":"levelo://app?vid=18f4ec1e-0d10-4635-ac46-ef382095bfa6","ios":"levelo://app?vid=18f4ec1e-0d10-4635-ac46-ef382095bfa6"},"vehicle_type_id":"4","last_reported":1731827335,"current_range_meters":33600,"station_id":"ce4bgjp2rcd13ifvqbh0","pricing_plan_id":"cebpf4jnsgd1na2vs0mg"},{"bike_id":"6da298a1-b1e6-4ba8-a57a-5400211d4b87","system_id":"levelo_inurba_marseille","lat":43.279934,"lon":5.4166,"is_reserved":false,"is_disabled":false,"rental_uris":{"android":"levelo://app?vid=6da298a1-b1e6-4ba8-a57a-5400211d4b87","ios":"levelo://app?vid=6da298a1-b1e6-4ba8-a57a-5400211d4b87"},"vehicle_type_id":"4","last_reported":1731827335,"current_range_meters":29600,"station_id":"ce4bho12rcd13ifvqh1g","pricing_plan_id":"cebpf4jnsgd1na2vs0mg"},{"bike_id":"bb854a25-6d1a-4bc3-8d11-c39bd005775c","system_id":"levelo_inurba_marseille","lat":43.32103,"lon":5.3678,"is_reserved":false,"is_disabled":false,"rental_uris":{"android":"levelo://app?vid=bb854a25-6d1a-4bc3-8d11-c39bd005775c","ios":"levelo://app?vid=bb854a25-6d1a-4bc3-8d11-c39bd005775c"},"vehicle_type_id":"4","last_reported":1731827335,"current_range_meters":28400,"station_id":"ce4bhrh2rcd13ifvqhug","pricing_plan_id":"cebpf4jnsgd1na2vs0mg"},{"bike_id":"461b8f01-20f2-4b5b-be2f-179315653034","system_id":"levelo_inurba_marseille","lat":43.27066,"lon":5.42278,"is_reserved":false,"is_disabled":false,"rental_uris":{"android":"levelo://app?vid=461b8f01-20f2-4b5b-be2f-179315653034","ios":"levelo://app?vid=461b8f01-20f2-4b5b-be2f-179315653034"},"vehicle_type_id":"4","last_reported":1731827335,"current_range_meters":38800,"station_id":"ce4bhk92rcd13ifvqgb0","pricing_plan_id":"cebpf4jnsgd1na2vs0mg"},{"bike_id":"345b30bd-59f1-497c-bb57-70a47ee693c5","system_id":"levelo_inurba_marseille","lat":43.30806,"lon":5.43521,"is_reserved":false,"is_disabled":false,"rental_uris":{"android":"levelo://app?vid=345b30bd-59f1-497c-bb57-70a47ee693c5","ios":"levelo://app?vid=345b30bd-59f1-497c-bb57-70a47ee693c5"},"vehicle_type_id":"4","last_reported":1731827335,"current_range_meters":16800,"station_id":"ce4bhph2rcd13ifvqheg","pricing_plan_id":"cebpf4jnsgd1na2vs0mg"},{"bike_id":"12867844-fa2a-41b2-8d74-706d4ef15909","system_id":"levelo_inurba_marseille","lat":43.337613,"lon":5.374326,"is_reserved":false,"is_disabled":false,"rental_uris":{"android":"levelo://app?vid=12867844-fa2a-41b2-8d74-706d4ef15909","ios":"levelo://app?vid=12867844-fa2a-41b2-8d74-706d4ef15909"},"vehicle_type_id":"4","last_reported":1731827335,"current_range_meters":35200,"station_id":"","pricing_plan_id":"cebpf4jnsgd1na2vs0mg"},{"bike_id":"3455c789-2e35-4152-8de0-fa613ba872df","system_id":"levelo_inurba_marseille","lat":43.32363,"lon":5.38892,"is_reserved":false,"is_disabled":false,"rental_uris":{"android":"levelo://app?vid=3455c789-2e35-4152-8de0-fa613ba872df","ios":"levelo://app?vid=3455c789-2e35-4152-8de0-fa613ba872df"},"vehicle_type_id":"4","last_reported":1731827335,"current_range_meters":34000,"station_id":"ce4bhqp2rcd13ifvqhog","pricing_plan_id":"cebpf4jnsgd1na2vs0mg"},{"bike_id":"0f94c962-6bca-4904-9b9e-b573544d963c","system_id":"levelo_inurba_marseille","lat":43.27616,"lon":5.36112,"is_reserved":false,"is_disabled":false,"rental_uris":{"android":"levelo://app?vid=0f94c962-6bca-4904-9b9e-b573544d963c","ios":"levelo://app?vid=0f94c962-6bca-4904-9b9e-b573544d963c"},"vehicle_type_id":"4","last_reported":1731827335,"current_range_meters":30000,"station_id":"ce4bgj92rcd13ifvqbe0","pricing_plan_id":"cebpf4jnsgd1na2vs0mg"},{"bike_id":"93029be8-c148-40c6-a98e-a5d31e4e4fd0","system_id":"levelo_inurba_marseille","lat":43.28349,"lon":5.3811,"is_reserved":false,"is_disabled":false,"rental_uris":{"android":"levelo://app?vid=93029be8-c148-40c6-a98e-a5d31e4e4fd0","ios":"levelo://app?vid=93029be8-c148-40c6-a98e-a5d31e4e4fd0"},"vehicle_type_id":"4","last_reported":1731827335,"current_range_meters":38800,"station_id":"ce4bh412rcd13ifvqdr0","pricing_plan_id":"cebpf4jnsgd1na2vs0mg"},{"bike_id":"8c32be87-379a-46c3-8a9b-2ad2031438ef","system_id":"levelo_inurba_marseille","lat":43.31083,"lon":5.42432,"is_reserved":false,"is_disabled":false,"rental_uris":{"android":"levelo://app?vid=8c32be87-379a-46c3-8a9b-2ad2031438ef","ios":"levelo://app?vid=8c32be87-379a-46c3-8a9b-2ad2031438ef"},"vehicle_type_id":"4","last_reported":1731827335,"current_range_meters":40000,"station_id":"ce4bhp92rcd13ifvqhag","pricing_plan_id":"cebpf4jnsgd1na2vs0mg"},{"bike_id":"7cadb4cf-c20e-49ae-a7c3-3a75db5f5ad2","system_id":"levelo_inurba_marseille","lat":43.31273,"lon":5.40166,"is_reserved":false,"is_disabled":false,"rental_uris":{"android":"levelo://app?vid=7cadb4cf-c20e-49ae-a7c3-3a75db5f5ad2","ios":"levelo://app?vid=7cadb4cf-c20e-49ae-a7c3-3a75db5f5ad2"},"vehicle_type_id":"4","last_reported":1731827335,"current_range_meters":37600,"station_id":"ce4bh092rcd13ifvqd30","pricing_plan_id":"cebpf4jnsgd1na2vs0mg"},{"bike_id":"08556236-18aa-48b5-821c-02152b23fea2","system_id":"levelo_inurba_marseille","lat":43.27075,"lon":5.42279,"is_reserved":false,"is_disabled":false,"rental_uris":{"android":"levelo://app?vid=08556236-18aa-48b5-821c-02152b23fea2","ios":"levelo://app?vid=08556236-18aa-48b5-821c-02152b23fea2"},"vehicle_type_id":"4","last_reported":1731827335,"current_range_meters":16800,"station_id":"ce4bhk92rcd13ifvqgb0","pricing_plan_id":"cebpf4jnsgd1na2vs0mg"},{"bike_id":"56428505-172c-4b4f-906d-8c6ca9064f2c","system_id":"levelo_inurba_marseille","lat":43.24393,"lon":5.3706,"is_reserved":false,"is_disabled":false,"rental_uris":{"android":"levelo://app?vid=56428505-172c-4b4f-906d-8c6ca9064f2c","ios":"levelo://app?vid=56428505-172c-4b4f-906d-8c6ca9064f2c"},"vehicle_type_id":"4","last_reported":1731827335,"current_range_meters":9200,"station_id":"ce4bhhh2rcd13ifvqfk0","pricing_plan_id":"cebpf4jnsgd1na2vs0mg"},{"bike_id":"28b79275-ade8-45ee-b25a-14126dd5c2bf","system_id":"levelo_inurba_marseille","lat":43.24813,"lon":5.3746,"is_reserved":false,"is_disabled":false,"rental_uris":{"android":"levelo://app?vid=28b79275-ade8-45ee-b25a-14126dd5c2bf","ios":"levelo://app?vid=28b79275-ade8-45ee-b25a-14126dd5c2bf"},"vehicle_type_id":"4","last_reported":1731827335,"current_range_meters":37600,"station_id":"ce4bhgh2rcd13ifvqfb0","pricing_plan_id":"cebpf4jnsgd1na2vs0mg"},{"bike_id":"3228d7df-dfb5-4c33-b5ce-60443e65f786","system_id":"levelo_inurba_marseille","lat":43.28719,"lon":5.37933,"is_reserved":false,"is_disabled":false,"rental_uris":{"android":"levelo://app?vid=3228d7df-dfb5-4c33-b5ce-60443e65f786","ios":"levelo://app?vid=3228d7df-dfb5-4c33-b5ce-60443e65f786"},"vehicle_type_id":"4","last_reported":1731827335,"current_range_meters":11200,"station_id":"ce4bh9p2rcd13ifvqec0","pricing_plan_id":"cebpf4jnsgd1na2vs0mg"},{"bike_id":"197019d9-cb9a-40a3-8d0d-41e308275835","system_id":"levelo_inurba_marseille","lat":43.27811,"lon":5.40709,"is_reserved":false,"is_disabled":false,"rental_uris":{"android":"levelo://app?vid=197019d9-cb9a-40a3-8d0d-41e308275835","ios":"levelo://app?vid=197019d9-cb9a-40a3-8d0d-41e308275835"},"vehicle_type_id":"4","last_reported":1731827335,"current_range_meters":17200,"station_id":"ce4bhnh2rcd13ifvqgtg","pricing_plan_id":"cebpf4jnsgd1na2vs0mg"},{"bike_id":"6b76da8b-8346-4b5f-a49b-cdde5bffd08b","system_id":"levelo_inurba_marseille","lat":43.278075,"lon":5.407072,"is_reserved":false,"is_disabled":false,"rental_uris":{"android":"levelo://app?vid=6b76da8b-8346-4b5f-a49b-cdde5bffd08b","ios":"levelo://app?vid=6b76da8b-8346-4b5f-a49b-cdde5bffd08b"},"vehicle_type_id":"4","last_reported":1731827335,"current_range_meters":38800,"station_id":"ce4bhnh2rcd13ifvqgtg","pricing_plan_id":"cebpf4jnsgd1na2vs0mg"},{"bike_id":"29b4b37b-f701-47a6-a128-f3171ca95432","system_id":"levelo_inurba_marseille","lat":43.25867,"lon":5.39929,"is_reserved":false,"is_disabled":false,"rental_uris":{"android":"levelo://app?vid=29b4b37b-f701-47a6-a128-f3171ca95432","ios":"levelo://app?vid=29b4b37b-f701-47a6-a128-f3171ca95432"},"vehicle_type_id":"4","last_reported":1731827335,"current_range_meters":36400,"station_id":"ce4bhl92rcd13ifvqghg","pricing_plan_id":"cebpf4jnsgd1na2vs0mg"},{"bike_id":"8216f57a-06ae-4f03-ad77-ce23f2d1436a","system_id":"levelo_inurba_marseille","lat":43.31326,"lon":5.39694,"is_reserved":false,"is_disabled":false,"rental_uris":{"android":"levelo://app?vid=8216f57a-06ae-4f03-ad77-ce23f2d1436a","ios":"levelo://app?vid=8216f57a-06ae-4f03-ad77-ce23f2d1436a"},"vehicle_type_id":"4","last_reported":1731827335,"current_range_meters":38800,"station_id":"ce4bgvp2rcd13ifvqcu0","pricing_plan_id":"cebpf4jnsgd1na2vs0mg"},{"bike_id":"edfd1161-812f-476b-a791-a88ab67c66a9","system_id":"levelo_inurba_marseille","lat":43.27686,"lon":5.38895,"is_reserved":false,"is_disabled":false,"rental_uris":{"android":"levelo://app?vid=edfd1161-812f-476b-a791-a88ab67c66a9","ios":"levelo://app?vid=edfd1161-812f-476b-a791-a88ab67c66a9"},"vehicle_type_id":"4","last_reported":1731827335,"current_range_meters":38800,"station_id":"ce4bhi12rcd13ifvqfo0","pricing_plan_id":"cebpf4jnsgd1na2vs0mg"},{"bike_id":"f739d4a4-a834-4196-8391-84b17fdc37c1","system_id":"levelo_inurba_marseille","lat":43.28277,"lon":5.35077,"is_reserved":false,"is_disabled":false,"rental_uris":{"android":"levelo://app?vid=f739d4a4-a834-4196-8391-84b17fdc37c1","ios":"levelo://app?vid=f739d4a4-a834-4196-8391-84b17fdc37c1"},"vehicle_type_id":"4","last_reported":1731827335,"current_range_meters":37600,"station_id":"ce4bhbp2rcd13ifvqerg","pricing_plan_id":"cebpf4jnsgd1na2vs0mg"},{"bike_id":"5950fe25-2692-4098-b43e-a976f21e3cbe","system_id":"levelo_inurba_marseille","lat":43.302186,"lon":5.394698,"is_reserved":false,"is_disabled":false,"rental_uris":{"android":"levelo://app?vid=5950fe25-2692-4098-b43e-a976f21e3cbe","ios":"levelo://app?vid=5950fe25-2692-4098-b43e-a976f21e3cbe"},"vehicle_type_id":"4","last_reported":1731827335,"current_range_meters":38800,"station_id":"ce4bh0p2rcd13ifvqd70","pricing_plan_id":"cebpf4jnsgd1na2vs0mg"},{"bike_id":"ef14df2e-76a6-4463-9e17-7726d237e6a7","system_id":"levelo_inurba_marseille","lat":43.33607,"lon":5.41034,"is_reserved":false,"is_disabled":false,"rental_uris":{"android":"levelo://app?vid=ef14df2e-76a6-4463-9e17-7726d237e6a7","ios":"levelo://app?vid=ef14df2e-76a6-4463-9e17-7726d237e6a7"},"vehicle_type_id":"4","last_reported":1731827335,"current_range_meters":38800,"station_id":"ce4bhqh2rcd13ifvqhmg","pricing_plan_id":"cebpf4jnsgd1na2vs0mg"},{"bike_id":"a2472f17-8be8-4e47-b766-66c9d1d07c21","system_id":"levelo_inurba_marseille","lat":43.24651,"lon":5.38899,"is_reserved":false,"is_disabled":false,"rental_uris":{"android":"levelo://app?vid=a2472f17-8be8-4e47-b766-66c9d1d07c21","ios":"levelo://app?vid=a2472f17-8be8-4e47-b766-66c9d1d07c21"},"vehicle_type_id":"4","last_reported":1731827335,"current_range_meters":2800,"station_id":"ce4bhg12rcd13ifvqf60","pricing_plan_id":"cebpf4jnsgd1na2vs0mg"},{"bike_id":"81cf6351-3327-4488-b284-573f1582e694","system_id":"levelo_inurba_marseille","lat":43.26678,"lon":5.38261,"is_reserved":false,"is_disabled":false,"rental_uris":{"android":"levelo://app?vid=81cf6351-3327-4488-b284-573f1582e694","ios":"levelo://app?vid=81cf6351-3327-4488-b284-573f1582e694"},"vehicle_type_id":"4","last_reported":1731827335,"current_range_meters":38000,"station_id":"ce4bhg92rcd13ifvqf90","pricing_plan_id":"cebpf4jnsgd1na2vs0mg"},{"bike_id":"38745989-9e9a-4946-859d-5aa430e9ea79","system_id":"levelo_inurba_marseille","lat":43.29558,"lon":5.42283,"is_reserved":false,"is_disabled":false,"rental_uris":{"android":"levelo://app?vid=38745989-9e9a-4946-859d-5aa430e9ea79","ios":"levelo://app?vid=38745989-9e9a-4946-859d-5aa430e9ea79"},"vehicle_type_id":"4","last_reported":1731827335,"current_range_meters":18800,"station_id":"ce4bhph2rcd13ifvqhdg","pricing_plan_id":"cebpf4jnsgd1na2vs0mg"},{"bike_id":"01bc35cd-26f4-49a9-a235-11681323c7dc","system_id":"levelo_inurba_marseille","lat":43.24664,"lon":5.3816,"is_reserved":false,"is_disabled":false,"rental_uris":{"android":"levelo://app?vid=01bc35cd-26f4-49a9-a235-11681323c7dc","ios":"levelo://app?vid=01bc35cd-26f4-49a9-a235-11681323c7dc"},"vehicle_type_id":"4","last_reported":1731827335,"current_range_meters":14400,"station_id":"ce4bhih2rcd13ifvqfr0","pricing_plan_id":"cebpf4jnsgd1na2vs0mg"},{"bike_id":"d663e219-aed2-4e56-8788-d140d0f35f54","system_id":"levelo_inurba_marseille","lat":43.31326,"lon":5.39688,"is_reserved":false,"is_disabled":false,"rental_uris":{"android":"levelo://app?vid=d663e219-aed2-4e56-8788-d140d0f35f54","ios":"levelo://app?vid=d663e219-aed2-4e56-8788-d140d0f35f54"},"vehicle_type_id":"4","last_reported":1731827335,"current_range_meters":39200,"station_id":"ce4bgvp2rcd13ifvqcu0","pricing_plan_id":"cebpf4jnsgd1na2vs0mg"},{"bike_id":"70815b00-1c56-4fa3-b94e-3e9017cb0b91","system_id":"levelo_inurba_marseille","lat":43.27837,"lon":5.39213,"is_reserved":false,"is_disabled":false,"rental_uris":{"android":"levelo://app?vid=70815b00-1c56-4fa3-b94e-3e9017cb0b91","ios":"levelo://app?vid=70815b00-1c56-4fa3-b94e-3e9017cb0b91"},"vehicle_type_id":"4","last_reported":1731827335,"current_range_meters":39200,"station_id":"ce4bhjp2rcd13ifvqga0","pricing_plan_id":"cebpf4jnsgd1na2vs0mg"},{"bike_id":"16e3de90-cdab-40a0-975d-f264f65e738c","system_id":"levelo_inurba_marseille","lat":43.28149,"lon":5.4265,"is_reserved":false,"is_disabled":false,"rental_uris":{"android":"levelo://app?vid=16e3de90-cdab-40a0-975d-f264f65e738c","ios":"levelo://app?vid=16e3de90-cdab-40a0-975d-f264f65e738c"},"vehicle_type_id":"4","last_reported":1731827335,"current_range_meters":34000,"station_id":"ce4bhnh2rcd13ifvqgug","pricing_plan_id":"cebpf4jnsgd1na2vs0mg"},{"bike_id":"f74cb454-54c7-4a36-8cd4-f45d0dbf5e84","system_id":"levelo_inurba_marseille","lat":43.282593,"lon":5.350455,"is_reserved":false,"is_disabled":false,"rental_uris":{"android":"levelo://app?vid=f74cb454-54c7-4a36-8cd4-f45d0dbf5e84","ios":"levelo://app?vid=f74cb454-54c7-4a36-8cd4-f45d0dbf5e84"},"vehicle_type_id":"4","last_reported":1731827335,"current_range_meters":21600,"station_id":"ce4bgup2rcd13ifvqcn0","pricing_plan_id":"cebpf4jnsgd1na2vs0mg"},{"bike_id":"5efc400a-a762-46bf-b45a-5cf81c484c66","system_id":"levelo_inurba_marseille","lat":43.25869,"lon":5.39897,"is_reserved":false,"is_disabled":false,"rental_uris":{"android":"levelo://app?vid=5efc400a-a762-46bf-b45a-5cf81c484c66","ios":"levelo://app?vid=5efc400a-a762-46bf-b45a-5cf81c484c66"},"vehicle_type_id":"4","last_reported":1731827335,"current_range_meters":37600,"station_id":"ce4bhl92rcd13ifvqghg","pricing_plan_id":"cebpf4jnsgd1na2vs0mg"},{"bike_id":"0019aa8e-5465-41a8-83a2-1bdd40f8ac0b","system_id":"levelo_inurba_marseille","lat":43.29888,"lon":5.39733,"is_reserved":false,"is_disabled":false,"rental_uris":{"android":"levelo://app?vid=0019aa8e-5465-41a8-83a2-1bdd40f8ac0b","ios":"levelo://app?vid=0019aa8e-5465-41a8-83a2-1bdd40f8ac0b"},"vehicle_type_id":"4","last_reported":1731827335,"current_range_meters":38800,"station_id":"ce4bh0h2rcd13ifvqd50","pricing_plan_id":"cebpf4jnsgd1na2vs0mg"},{"bike_id":"9c3fa8d8-70b9-4c4f-9de9-09c6e2a49f45","system_id":"levelo_inurba_marseille","lat":43.29208,"lon":5.39326,"is_reserved":false,"is_disabled":false,"rental_uris":{"android":"levelo://app?vid=9c3fa8d8-70b9-4c4f-9de9-09c6e2a49f45","ios":"levelo://app?vid=9c3fa8d8-70b9-4c4f-9de9-09c6e2a49f45"},"vehicle_type_id":"4","last_reported":1731827335,"current_range_meters":38000,"station_id":"ce4bh192rcd13ifvqdd0","pricing_plan_id":"cebpf4jnsgd1na2vs0mg"},{"bike_id":"e9532a61-d838-43a6-b8d5-f4bd8bb3814e","system_id":"levelo_inurba_marseille","lat":43.27323,"lon":5.39082,"is_reserved":false,"is_disabled":false,"rental_uris":{"android":"levelo://app?vid=e9532a61-d838-43a6-b8d5-f4bd8bb3814e","ios":"levelo://app?vid=e9532a61-d838-43a6-b8d5-f4bd8bb3814e"},"vehicle_type_id":"4","last_reported":1731827335,"current_range_meters":36000,"station_id":"ce4bhgp2rcd13ifvqfe0","pricing_plan_id":"cebpf4jnsgd1na2vs0mg"},{"bike_id":"50aeced8-948a-4715-8527-200035423178","system_id":"levelo_inurba_marseille","lat":43.28,"lon":5.40014,"is_reserved":false,"is_disabled":false,"rental_uris":{"android":"levelo://app?vid=50aeced8-948a-4715-8527-200035423178","ios":"levelo://app?vid=50aeced8-948a-4715-8527-200035423178"},"vehicle_type_id":"4","last_reported":1731827335,"current_range_meters":34000,"station_id":"ce4bho92rcd13ifvqh4g","pricing_plan_id":"cebpf4jnsgd1na2vs0mg"},{"bike_id":"db4a3c39-c602-4c14-bf61-77eae88de939","system_id":"levelo_inurba_marseille","lat":43.28353,"lon":5.3811,"is_reserved":false,"is_disabled":false,"rental_uris":{"android":"levelo://app?vid=db4a3c39-c602-4c14-bf61-77eae88de939","ios":"levelo://app?vid=db4a3c39-c602-4c14-bf61-77eae88de939"},"vehicle_type_id":"4","last_reported":1731827335,"current_range_meters":16000,"station_id":"ce4bh412rcd13ifvqdr0","pricing_plan_id":"cebpf4jnsgd1na2vs0mg"},{"bike_id":"d9ab48a2-5870-4a07-8651-e8aff256aae6","system_id":"levelo_inurba_marseille","lat":43.259273,"lon":5.409077,"is_reserved":false,"is_disabled":false,"rental_uris":{"android":"levelo://app?vid=d9ab48a2-5870-4a07-8651-e8aff256aae6","ios":"levelo://app?vid=d9ab48a2-5870-4a07-8651-e8aff256aae6"},"vehicle_type_id":"4","last_reported":1731827335,"current_range_meters":36000,"station_id":"ce4bhm92rcd13ifvqglg","pricing_plan_id":"cebpf4jnsgd1na2vs0mg"},{"bike_id":"f2e1e914-0b40-4feb-8206-2e45b3c56327","system_id":"levelo_inurba_marseille","lat":43.28609,"lon":5.37058,"is_reserved":false,"is_disabled":false,"rental_uris":{"android":"levelo://app?vid=f2e1e914-0b40-4feb-8206-2e45b3c56327","ios":"levelo://app?vid=f2e1e914-0b40-4feb-8206-2e45b3c56327"},"vehicle_type_id":"4","last_reported":1731827335,"current_range_meters":23200,"station_id":"ce4bht12rcd13ifvqi60","pricing_plan_id":"cebpf4jnsgd1na2vs0mg"},{"bike_id":"90925457-87b8-44b0-a947-705f55ac3518","system_id":"levelo_inurba_marseille","lat":43.28273,"lon":5.35071,"is_reserved":false,"is_disabled":false,"rental_uris":{"android":"levelo://app?vid=90925457-87b8-44b0-a947-705f55ac3518","ios":"levelo://app?vid=90925457-87b8-44b0-a947-705f55ac3518"},"vehicle_type_id":"4","last_reported":1731827335,"current_range_meters":8800,"station_id":"ce4bhbp2rcd13ifvqerg","pricing_plan_id":"cebpf4jnsgd1na2vs0mg"},{"bike_id":"22729281-a652-4d0e-9935-de91a5d586ea","system_id":"levelo_inurba_marseille","lat":43.32071,"lon":5.41552,"is_reserved":false,"is_disabled":false,"rental_uris":{"android":"levelo://app?vid=22729281-a652-4d0e-9935-de91a5d586ea","ios":"levelo://app?vid=22729281-a652-4d0e-9935-de91a5d586ea"},"vehicle_type_id":"4","last_reported":1731827335,"current_range_meters":19600,"station_id":"ce4bhq92rcd13ifvqhkg","pricing_plan_id":"cebpf4jnsgd1na2vs0mg"},{"bike_id":"cf395567-1526-467c-bbe7-bf7d18ab0b1c","system_id":"levelo_inurba_marseille","lat":43.28863,"lon":5.35832,"is_reserved":false,"is_disabled":false,"rental_uris":{"android":"levelo://app?vid=cf395567-1526-467c-bbe7-bf7d18ab0b1c","ios":"levelo://app?vid=cf395567-1526-467c-bbe7-bf7d18ab0b1c"},"vehicle_type_id":"4","last_reported":1731827335,"current_range_meters":22400,"station_id":"ce4bhb12rcd13ifvqem0","pricing_plan_id":"cebpf4jnsgd1na2vs0mg"},{"bike_id":"433949ed-544c-418f-a9f9-25e9b8a19fcf","system_id":"levelo_inurba_marseille","lat":43.28098,"lon":5.3784,"is_reserved":false,"is_disabled":false,"rental_uris":{"android":"levelo://app?vid=433949ed-544c-418f-a9f9-25e9b8a19fcf","ios":"levelo://app?vid=433949ed-544c-418f-a9f9-25e9b8a19fcf"},"vehicle_type_id":"4","last_reported":1731827335,"current_range_meters":36400,"station_id":"ce4bha12rcd13ifvqee0","pricing_plan_id":"cebpf4jnsgd1na2vs0mg"},{"bike_id":"9f92a7ac-738d-40f9-93b9-933c1f0ff525","system_id":"levelo_inurba_marseille","lat":43.32363,"lon":5.38888,"is_reserved":false,"is_disabled":false,"rental_uris":{"android":"levelo://app?vid=9f92a7ac-738d-40f9-93b9-933c1f0ff525","ios":"levelo://app?vid=9f92a7ac-738d-40f9-93b9-933c1f0ff525"},"vehicle_type_id":"4","last_reported":1731827335,"current_range_meters":20800,"station_id":"ce4bhqp2rcd13ifvqhog","pricing_plan_id":"cebpf4jnsgd1na2vs0mg"},{"bike_id":"67a228d1-a47f-48fe-8fa7-84b592be5578","system_id":"levelo_inurba_marseille","lat":43.26193,"lon":5.37447,"is_reserved":false,"is_disabled":false,"rental_uris":{"android":"levelo://app?vid=67a228d1-a47f-48fe-8fa7-84b592be5578","ios":"levelo://app?vid=67a228d1-a47f-48fe-8fa7-84b592be5578"},"vehicle_type_id":"4","last_reported":1731827335,"current_range_meters":10000,"station_id":"ce4bhgp2rcd13ifvqfc0","pricing_plan_id":"cebpf4jnsgd1na2vs0mg"},{"bike_id":"136ab823-6180-4027-a33a-ee63f85045cd","system_id":"levelo_inurba_marseille","lat":43.30595,"lon":5.37222,"is_reserved":false,"is_disabled":false,"rental_uris":{"android":"levelo://app?vid=136ab823-6180-4027-a33a-ee63f85045cd","ios":"levelo://app?vid=136ab823-6180-4027-a33a-ee63f85045cd"},"vehicle_type_id":"4","last_reported":1731827335,"current_range_meters":22000,"station_id":"ce4bgqh2rcd13ifvqc4g","pricing_plan_id":"cebpf4jnsgd1na2vs0mg"},{"bike_id":"4b65d93a-a2e2-4e4e-a517-b94c00e506f8","system_id":"levelo_inurba_marseille","lat":43.30796,"lon":5.43519,"is_reserved":false,"is_disabled":false,"rental_uris":{"android":"levelo://app?vid=4b65d93a-a2e2-4e4e-a517-b94c00e506f8","ios":"levelo://app?vid=4b65d93a-a2e2-4e4e-a517-b94c00e506f8"},"vehicle_type_id":"4","last_reported":1731827335,"current_range_meters":7200,"station_id":"ce4bhph2rcd13ifvqheg","pricing_plan_id":"cebpf4jnsgd1na2vs0mg"},{"bike_id":"b117ce81-ae91-4466-bc7d-09a9b54c6f00","system_id":"levelo_inurba_marseille","lat":43.23185,"lon":5.39984,"is_reserved":false,"is_disabled":false,"rental_uris":{"android":"levelo://app?vid=b117ce81-ae91-4466-bc7d-09a9b54c6f00","ios":"levelo://app?vid=b117ce81-ae91-4466-bc7d-09a9b54c6f00"},"vehicle_type_id":"4","last_reported":1731827335,"current_range_meters":12800,"station_id":"ce4bhn12rcd13ifvqgqg","pricing_plan_id":"cebpf4jnsgd1na2vs0mg"},{"bike_id":"6812be0c-bf33-4852-96bf-44a22c1ff27d","system_id":"levelo_inurba_marseille","lat":43.26678,"lon":5.38269,"is_reserved":false,"is_disabled":false,"rental_uris":{"android":"levelo://app?vid=6812be0c-bf33-4852-96bf-44a22c1ff27d","ios":"levelo://app?vid=6812be0c-bf33-4852-96bf-44a22c1ff27d"},"vehicle_type_id":"4","last_reported":1731827335,"current_range_meters":24800,"station_id":"ce4bhg92rcd13ifvqf90","pricing_plan_id":"cebpf4jnsgd1na2vs0mg"},{"bike_id":"2398fe86-93a1-486d-aecf-1bdbc5e188b6","system_id":"levelo_inurba_marseille","lat":43.28345,"lon":5.38114,"is_reserved":false,"is_disabled":false,"rental_uris":{"android":"levelo://app?vid=2398fe86-93a1-486d-aecf-1bdbc5e188b6","ios":"levelo://app?vid=2398fe86-93a1-486d-aecf-1bdbc5e188b6"},"vehicle_type_id":"4","last_reported":1731827335,"current_range_meters":16800,"station_id":"ce4bh412rcd13ifvqdr0","pricing_plan_id":"cebpf4jnsgd1na2vs0mg"},{"bike_id":"d54f2dfa-2ad2-469a-8720-163ef98eb87d","system_id":"levelo_inurba_marseille","lat":43.25118,"lon":5.39502,"is_reserved":false,"is_disabled":false,"rental_uris":{"android":"levelo://app?vid=d54f2dfa-2ad2-469a-8720-163ef98eb87d","ios":"levelo://app?vid=d54f2dfa-2ad2-469a-8720-163ef98eb87d"},"vehicle_type_id":"4","last_reported":1731827335,"current_range_meters":18800,"station_id":"ce4bhm12rcd13ifvqgkg","pricing_plan_id":"cebpf4jnsgd1na2vs0mg"},{"bike_id":"3e2fe740-f9b9-43d8-80f8-89468a275288","system_id":"levelo_inurba_marseille","lat":43.29971,"lon":5.38479,"is_reserved":false,"is_disabled":false,"rental_uris":{"android":"levelo://app?vid=3e2fe740-f9b9-43d8-80f8-89468a275288","ios":"levelo://app?vid=3e2fe740-f9b9-43d8-80f8-89468a275288"},"vehicle_type_id":"4","last_reported":1731827335,"current_range_meters":14400,"station_id":"ce4bgj92rcd13ifvqbd0","pricing_plan_id":"cebpf4jnsgd1na2vs0mg"},{"bike_id":"dedbe598-ac0c-4e22-af0a-2f5863148f4b","system_id":"levelo_inurba_marseille","lat":43.31079,"lon":5.38365,"is_reserved":false,"is_disabled":false,"rental_uris":{"android":"levelo://app?vid=dedbe598-ac0c-4e22-af0a-2f5863148f4b","ios":"levelo://app?vid=dedbe598-ac0c-4e22-af0a-2f5863148f4b"},"vehicle_type_id":"4","last_reported":1731827335,"current_range_meters":37600,"station_id":"ce4bgv92rcd13ifvqcr0","pricing_plan_id":"cebpf4jnsgd1na2vs0mg"},{"bike_id":"40131c97-5534-4979-8808-2f9e4d317ef9","system_id":"levelo_inurba_marseille","lat":43.32348,"lon":5.40625,"is_reserved":false,"is_disabled":false,"rental_uris":{"android":"levelo://app?vid=40131c97-5534-4979-8808-2f9e4d317ef9","ios":"levelo://app?vid=40131c97-5534-4979-8808-2f9e4d317ef9"},"vehicle_type_id":"4","last_reported":1731827335,"current_range_meters":9200,"station_id":"ce4bhq92rcd13ifvqhjg","pricing_plan_id":"cebpf4jnsgd1na2vs0mg"},{"bike_id":"4f01fa73-c9c0-4fc0-986b-b2a94d270e4a","system_id":"levelo_inurba_marseille","lat":43.302519,"lon":5.400883,"is_reserved":false,"is_disabled":false,"rental_uris":{"android":"levelo://app?vid=4f01fa73-c9c0-4fc0-986b-b2a94d270e4a","ios":"levelo://app?vid=4f01fa73-c9c0-4fc0-986b-b2a94d270e4a"},"vehicle_type_id":"4","last_reported":1731827335,"current_range_meters":10800,"station_id":"ce4bgvh2rcd13ifvqcs0","pricing_plan_id":"cebpf4jnsgd1na2vs0mg"},{"bike_id":"6d757fef-4f26-43f9-ac2c-ffab39bf7dae","system_id":"levelo_inurba_marseille","lat":43.32249,"lon":5.36901,"is_reserved":false,"is_disabled":false,"rental_uris":{"android":"levelo://app?vid=6d757fef-4f26-43f9-ac2c-ffab39bf7dae","ios":"levelo://app?vid=6d757fef-4f26-43f9-ac2c-ffab39bf7dae"},"vehicle_type_id":"4","last_reported":1731827335,"current_range_meters":16400,"station_id":"","pricing_plan_id":"cebpf4jnsgd1na2vs0mg"},{"bike_id":"d61ade2d-2a62-45c7-aa0c-ad3400ec0ddf","system_id":"levelo_inurba_marseille","lat":43.2955,"lon":5.42284,"is_reserved":false,"is_disabled":false,"rental_uris":{"android":"levelo://app?vid=d61ade2d-2a62-45c7-aa0c-ad3400ec0ddf","ios":"levelo://app?vid=d61ade2d-2a62-45c7-aa0c-ad3400ec0ddf"},"vehicle_type_id":"4","last_reported":1731827335,"current_range_meters":38800,"station_id":"ce4bhph2rcd13ifvqhdg","pricing_plan_id":"cebpf4jnsgd1na2vs0mg"},{"bike_id":"172e75b7-2c27-416d-8cb9-e8c3a1cbb2e9","system_id":"levelo_inurba_marseille","lat":43.32366,"lon":5.3888,"is_reserved":false,"is_disabled":false,"rental_uris":{"android":"levelo://app?vid=172e75b7-2c27-416d-8cb9-e8c3a1cbb2e9","ios":"levelo://app?vid=172e75b7-2c27-416d-8cb9-e8c3a1cbb2e9"},"vehicle_type_id":"4","last_reported":1731827335,"current_range_meters":38800,"station_id":"ce4bhqp2rcd13ifvqhog","pricing_plan_id":"cebpf4jnsgd1na2vs0mg"},{"bike_id":"145343e6-5f14-40dd-8c01-2d0edef4223e","system_id":"levelo_inurba_marseille","lat":43.31764,"lon":5.39007,"is_reserved":false,"is_disabled":false,"rental_uris":{"android":"levelo://app?vid=145343e6-5f14-40dd-8c01-2d0edef4223e","ios":"levelo://app?vid=145343e6-5f14-40dd-8c01-2d0edef4223e"},"vehicle_type_id":"4","last_reported":1731827335,"current_range_meters":38000,"station_id":"ce4bhqp2rcd13ifvqhng","pricing_plan_id":"cebpf4jnsgd1na2vs0mg"},{"bike_id":"8b74058c-77b1-487c-beaf-581927b32063","system_id":"levelo_inurba_marseille","lat":43.29953,"lon":5.37184,"is_reserved":false,"is_disabled":false,"rental_uris":{"android":"levelo://app?vid=8b74058c-77b1-487c-beaf-581927b32063","ios":"levelo://app?vid=8b74058c-77b1-487c-beaf-581927b32063"},"vehicle_type_id":"4","last_reported":1731827335,"current_range_meters":38800,"station_id":"ce4bgr92rcd13ifvqc7g","pricing_plan_id":"cebpf4jnsgd1na2vs0mg"},{"bike_id":"b66a4c5e-8277-41e3-b4be-fcff950cddd4","system_id":"levelo_inurba_marseille","lat":43.2465,"lon":5.38894,"is_reserved":false,"is_disabled":false,"rental_uris":{"android":"levelo://app?vid=b66a4c5e-8277-41e3-b4be-fcff950cddd4","ios":"levelo://app?vid=b66a4c5e-8277-41e3-b4be-fcff950cddd4"},"vehicle_type_id":"4","last_reported":1731827335,"current_range_meters":30800,"station_id":"ce4bhg12rcd13ifvqf60","pricing_plan_id":"cebpf4jnsgd1na2vs0mg"},{"bike_id":"53437ef7-ee07-4a39-81f3-2dc3ce6bea74","system_id":"levelo_inurba_marseille","lat":43.26555,"lon":5.37284,"is_reserved":false,"is_disabled":false,"rental_uris":{"android":"levelo://app?vid=53437ef7-ee07-4a39-81f3-2dc3ce6bea74","ios":"levelo://app?vid=53437ef7-ee07-4a39-81f3-2dc3ce6bea74"},"vehicle_type_id":"4","last_reported":1731827335,"current_range_meters":38800,"station_id":"ce4bhg12rcd13ifvqf70","pricing_plan_id":"cebpf4jnsgd1na2vs0mg"},{"bike_id":"06d15233-716a-4bad-8241-6b0afcbc7471","system_id":"levelo_inurba_marseille","lat":43.26567,"lon":5.39,"is_reserved":false,"is_disabled":false,"rental_uris":{"android":"levelo://app?vid=06d15233-716a-4bad-8241-6b0afcbc7471","ios":"levelo://app?vid=06d15233-716a-4bad-8241-6b0afcbc7471"},"vehicle_type_id":"4","last_reported":1731827335,"current_range_meters":38400,"station_id":"ce4bhe12rcd13ifvqf30","pricing_plan_id":"cebpf4jnsgd1na2vs0mg"},{"bike_id":"3cb028b2-e9b4-4b5d-869e-e3723400af16","system_id":"levelo_inurba_marseille","lat":43.3302,"lon":5.39036,"is_reserved":false,"is_disabled":false,"rental_uris":{"android":"levelo://app?vid=3cb028b2-e9b4-4b5d-869e-e3723400af16","ios":"levelo://app?vid=3cb028b2-e9b4-4b5d-869e-e3723400af16"},"vehicle_type_id":"4","last_reported":1731827335,"current_range_meters":33600,"station_id":"ce4bhr92rcd13ifvqhrg","pricing_plan_id":"cebpf4jnsgd1na2vs0mg"},{"bike_id":"dbafefb7-6744-41ac-ba21-e08eb13be5fe","system_id":"levelo_inurba_marseille","lat":43.24077,"lon":5.37747,"is_reserved":false,"is_disabled":false,"rental_uris":{"android":"levelo://app?vid=dbafefb7-6744-41ac-ba21-e08eb13be5fe","ios":"levelo://app?vid=dbafefb7-6744-41ac-ba21-e08eb13be5fe"},"vehicle_type_id":"4","last_reported":1731827335,"current_range_meters":38800,"station_id":"ce4bhnp2rcd13ifvqgvg","pricing_plan_id":"cebpf4jnsgd1na2vs0mg"},{"bike_id":"c06ac134-ba79-48c7-9d78-9369aa6d16dc","system_id":"levelo_inurba_marseille","lat":43.29266,"lon":5.40145,"is_reserved":false,"is_disabled":false,"rental_uris":{"android":"levelo://app?vid=c06ac134-ba79-48c7-9d78-9369aa6d16dc","ios":"levelo://app?vid=c06ac134-ba79-48c7-9d78-9369aa6d16dc"},"vehicle_type_id":"4","last_reported":1731827335,"current_range_meters":39200,"station_id":"ce4bh312rcd13ifvqdk0","pricing_plan_id":"cebpf4jnsgd1na2vs0mg"},{"bike_id":"07aa8518-e9e2-4342-a5ff-fec482b7b933","system_id":"levelo_inurba_marseille","lat":43.307159,"lon":5.375264,"is_reserved":false,"is_disabled":false,"rental_uris":{"android":"levelo://app?vid=07aa8518-e9e2-4342-a5ff-fec482b7b933","ios":"levelo://app?vid=07aa8518-e9e2-4342-a5ff-fec482b7b933"},"vehicle_type_id":"4","last_reported":1731827335,"current_range_meters":36800,"station_id":"ce4bgs92rcd13ifvqcc0","pricing_plan_id":"cebpf4jnsgd1na2vs0mg"},{"bike_id":"432a4d77-23aa-4e43-834c-bf5e91db3985","system_id":"levelo_inurba_marseille","lat":43.30318,"lon":5.4044,"is_reserved":false,"is_disabled":false,"rental_uris":{"android":"levelo://app?vid=432a4d77-23aa-4e43-834c-bf5e91db3985","ios":"levelo://app?vid=432a4d77-23aa-4e43-834c-bf5e91db3985"},"vehicle_type_id":"4","last_reported":1731827335,"current_range_meters":16000,"station_id":"ce4bh012rcd13ifvqd10","pricing_plan_id":"cebpf4jnsgd1na2vs0mg"},{"bike_id":"a7f9b1ff-073c-4bb9-865b-47d795a80a25","system_id":"levelo_inurba_marseille","lat":43.2799,"lon":5.4167,"is_reserved":false,"is_disabled":false,"rental_uris":{"android":"levelo://app?vid=a7f9b1ff-073c-4bb9-865b-47d795a80a25","ios":"levelo://app?vid=a7f9b1ff-073c-4bb9-865b-47d795a80a25"},"vehicle_type_id":"4","last_reported":1731827335,"current_range_meters":38000,"station_id":"ce4bho12rcd13ifvqh1g","pricing_plan_id":"cebpf4jnsgd1na2vs0mg"},{"bike_id":"7f41242b-0722-4400-b7aa-88e9bafc0cb6","system_id":"levelo_inurba_marseille","lat":43.29569,"lon":5.37516,"is_reserved":false,"is_disabled":false,"rental_uris":{"android":"levelo://app?vid=7f41242b-0722-4400-b7aa-88e9bafc0cb6","ios":"levelo://app?vid=7f41242b-0722-4400-b7aa-88e9bafc0cb6"},"vehicle_type_id":"4","last_reported":1731827335,"current_range_meters":39200,"station_id":"ce4bgh92rcd13ifvqb50","pricing_plan_id":"cebpf4jnsgd1na2vs0mg"},{"bike_id":"a4e8e96c-867e-4521-9861-087b3f6c78bd","system_id":"levelo_inurba_marseille","lat":43.249951,"lon":5.389243,"is_reserved":false,"is_disabled":false,"rental_uris":{"android":"levelo://app?vid=a4e8e96c-867e-4521-9861-087b3f6c78bd","ios":"levelo://app?vid=a4e8e96c-867e-4521-9861-087b3f6c78bd"},"vehicle_type_id":"4","last_reported":1731827335,"current_range_meters":38800,"station_id":"ce4bhgp2rcd13ifvqfd0","pricing_plan_id":"cebpf4jnsgd1na2vs0mg"},{"bike_id":"9b255d94-ee94-41ce-968c-16898d9f52f3","system_id":"levelo_inurba_marseille","lat":43.239647,"lon":5.366329,"is_reserved":false,"is_disabled":false,"rental_uris":{"android":"levelo://app?vid=9b255d94-ee94-41ce-968c-16898d9f52f3","ios":"levelo://app?vid=9b255d94-ee94-41ce-968c-16898d9f52f3"},"vehicle_type_id":"4","last_reported":1731827335,"current_range_meters":38800,"station_id":"ce4bhi12rcd13ifvqfp0","pricing_plan_id":"cebpf4jnsgd1na2vs0mg"},{"bike_id":"693680f3-24ea-4d4e-87cf-4344e3551ab7","system_id":"levelo_inurba_marseille","lat":43.25862,"lon":5.39903,"is_reserved":false,"is_disabled":false,"rental_uris":{"android":"levelo://app?vid=693680f3-24ea-4d4e-87cf-4344e3551ab7","ios":"levelo://app?vid=693680f3-24ea-4d4e-87cf-4344e3551ab7"},"vehicle_type_id":"4","last_reported":1731827335,"current_range_meters":7200,"station_id":"ce4bhl92rcd13ifvqghg","pricing_plan_id":"cebpf4jnsgd1na2vs0mg"},{"bike_id":"1f7ddd9a-7ae1-4f47-aa3a-c9c9bc8358da","system_id":"levelo_inurba_marseille","lat":43.2558,"lon":5.38233,"is_reserved":false,"is_disabled":false,"rental_uris":{"android":"levelo://app?vid=1f7ddd9a-7ae1-4f47-aa3a-c9c9bc8358da","ios":"levelo://app?vid=1f7ddd9a-7ae1-4f47-aa3a-c9c9bc8358da"},"vehicle_type_id":"4","last_reported":1731827335,"current_range_meters":39200,"station_id":"ce4bhih2rcd13ifvqfs0","pricing_plan_id":"cebpf4jnsgd1na2vs0mg"},{"bike_id":"eb93b13e-d79d-4675-a72c-ca067641e771","system_id":"levelo_inurba_marseille","lat":43.251143,"lon":5.403162,"is_reserved":false,"is_disabled":false,"rental_uris":{"android":"levelo://app?vid=eb93b13e-d79d-4675-a72c-ca067641e771","ios":"levelo://app?vid=eb93b13e-d79d-4675-a72c-ca067641e771"},"vehicle_type_id":"4","last_reported":1731827335,"current_range_meters":29600,"station_id":"ce4bhlh2rcd13ifvqgig","pricing_plan_id":"cebpf4jnsgd1na2vs0mg"},{"bike_id":"e18ff774-8836-43bc-9a96-111b7f960167","system_id":"levelo_inurba_marseille","lat":43.31717,"lon":5.43711,"is_reserved":false,"is_disabled":false,"rental_uris":{"android":"levelo://app?vid=e18ff774-8836-43bc-9a96-111b7f960167","ios":"levelo://app?vid=e18ff774-8836-43bc-9a96-111b7f960167"},"vehicle_type_id":"4","last_reported":1731827335,"current_range_meters":37600,"station_id":"ce4bhp92rcd13ifvqhcg","pricing_plan_id":"cebpf4jnsgd1na2vs0mg"},{"bike_id":"cc8f0397-cd92-46fd-9a26-a79b795ba590","system_id":"levelo_inurba_marseille","lat":43.28345,"lon":5.38121,"is_reserved":false,"is_disabled":false,"rental_uris":{"android":"levelo://app?vid=cc8f0397-cd92-46fd-9a26-a79b795ba590","ios":"levelo://app?vid=cc8f0397-cd92-46fd-9a26-a79b795ba590"},"vehicle_type_id":"4","last_reported":1731827335,"current_range_meters":38400,"station_id":"ce4bh412rcd13ifvqdr0","pricing_plan_id":"cebpf4jnsgd1na2vs0mg"},{"bike_id":"d4cf1962-c4fc-4987-82ad-e066e34a5012","system_id":"levelo_inurba_marseille","lat":43.34142,"lon":5.40902,"is_reserved":false,"is_disabled":false,"rental_uris":{"android":"levelo://app?vid=d4cf1962-c4fc-4987-82ad-e066e34a5012","ios":"levelo://app?vid=d4cf1962-c4fc-4987-82ad-e066e34a5012"},"vehicle_type_id":"4","last_reported":1731827335,"current_range_meters":39200,"station_id":"ce4bhqh2rcd13ifvqhlg","pricing_plan_id":"cebpf4jnsgd1na2vs0mg"},{"bike_id":"e2415f3f-5249-4f59-8e05-0d8db28b1a9c","system_id":"levelo_inurba_marseille","lat":43.30318,"lon":5.4044,"is_reserved":false,"is_disabled":false,"rental_uris":{"android":"levelo://app?vid=e2415f3f-5249-4f59-8e05-0d8db28b1a9c","ios":"levelo://app?vid=e2415f3f-5249-4f59-8e05-0d8db28b1a9c"},"vehicle_type_id":"4","last_reported":1731827335,"current_range_meters":35600,"station_id":"ce4bh012rcd13ifvqd10","pricing_plan_id":"cebpf4jnsgd1na2vs0mg"},{"bike_id":"55de28cf-e37c-4724-b81f-8a648780c5b9","system_id":"levelo_inurba_marseille","lat":43.23193,"lon":5.3555,"is_reserved":false,"is_disabled":false,"rental_uris":{"android":"levelo://app?vid=55de28cf-e37c-4724-b81f-8a648780c5b9","ios":"levelo://app?vid=55de28cf-e37c-4724-b81f-8a648780c5b9"},"vehicle_type_id":"4","last_reported":1731827335,"current_range_meters":36800,"station_id":"ce4bhu92rcd13ifvqi70","pricing_plan_id":"cebpf4jnsgd1na2vs0mg"},{"bike_id":"c3e7d7f6-3549-4f95-81b6-4e0fe27159e8","system_id":"levelo_inurba_marseille","lat":43.29223,"lon":5.36072,"is_reserved":false,"is_disabled":false,"rental_uris":{"android":"levelo://app?vid=c3e7d7f6-3549-4f95-81b6-4e0fe27159e8","ios":"levelo://app?vid=c3e7d7f6-3549-4f95-81b6-4e0fe27159e8"},"vehicle_type_id":"4","last_reported":1731827335,"current_range_meters":23200,"station_id":"ce4bhbh2rcd13ifvqeqg","pricing_plan_id":"cebpf4jnsgd1na2vs0mg"},{"bike_id":"2f45b233-2383-458f-9d35-3f63ae0b380a","system_id":"levelo_inurba_marseille","lat":43.30254,"lon":5.40102,"is_reserved":false,"is_disabled":false,"rental_uris":{"android":"levelo://app?vid=2f45b233-2383-458f-9d35-3f63ae0b380a","ios":"levelo://app?vid=2f45b233-2383-458f-9d35-3f63ae0b380a"},"vehicle_type_id":"4","last_reported":1731827335,"current_range_meters":5600,"station_id":"ce4bgvh2rcd13ifvqcs0","pricing_plan_id":"cebpf4jnsgd1na2vs0mg"},{"bike_id":"6c6781be-5972-4c90-a851-4de56048eaad","system_id":"levelo_inurba_marseille","lat":43.29447,"lon":5.39753,"is_reserved":false,"is_disabled":false,"rental_uris":{"android":"levelo://app?vid=6c6781be-5972-4c90-a851-4de56048eaad","ios":"levelo://app?vid=6c6781be-5972-4c90-a851-4de56048eaad"},"vehicle_type_id":"4","last_reported":1731827335,"current_range_meters":38800,"station_id":"ce4bh3h2rcd13ifvqdo0","pricing_plan_id":"cebpf4jnsgd1na2vs0mg"},{"bike_id":"b79639c8-f683-439e-96da-8387beb8a08f","system_id":"levelo_inurba_marseille","lat":43.31083,"lon":5.42432,"is_reserved":false,"is_disabled":false,"rental_uris":{"android":"levelo://app?vid=b79639c8-f683-439e-96da-8387beb8a08f","ios":"levelo://app?vid=b79639c8-f683-439e-96da-8387beb8a08f"},"vehicle_type_id":"4","last_reported":1731827335,"current_range_meters":40000,"station_id":"ce4bhp92rcd13ifvqhag","pricing_plan_id":"cebpf4jnsgd1na2vs0mg"},{"bike_id":"0096dac0-07b9-4fb1-885e-c11d86e6b711","system_id":"levelo_inurba_marseille","lat":43.30946,"lon":5.39043,"is_reserved":false,"is_disabled":false,"rental_uris":{"android":"levelo://app?vid=0096dac0-07b9-4fb1-885e-c11d86e6b711","ios":"levelo://app?vid=0096dac0-07b9-4fb1-885e-c11d86e6b711"},"vehicle_type_id":"4","last_reported":1731827335,"current_range_meters":39200,"station_id":"ce4bgup2rcd13ifvqco0","pricing_plan_id":"cebpf4jnsgd1na2vs0mg"},{"bike_id":"d9e5a9a0-4575-4246-b60b-b13f94cf19c6","system_id":"levelo_inurba_marseille","lat":43.29517,"lon":5.39409,"is_reserved":false,"is_disabled":false,"rental_uris":{"android":"levelo://app?vid=d9e5a9a0-4575-4246-b60b-b13f94cf19c6","ios":"levelo://app?vid=d9e5a9a0-4575-4246-b60b-b13f94cf19c6"},"vehicle_type_id":"4","last_reported":1731827335,"current_range_meters":39200,"station_id":"ce4bh292rcd13ifvqdf0","pricing_plan_id":"cebpf4jnsgd1na2vs0mg"},{"bike_id":"cc7eaf9b-2c4d-496e-a8c3-41a4a3313bb9","system_id":"levelo_inurba_marseille","lat":43.32659,"lon":5.40989,"is_reserved":false,"is_disabled":false,"rental_uris":{"android":"levelo://app?vid=cc7eaf9b-2c4d-496e-a8c3-41a4a3313bb9","ios":"levelo://app?vid=cc7eaf9b-2c4d-496e-a8c3-41a4a3313bb9"},"vehicle_type_id":"4","last_reported":1731827335,"current_range_meters":38800,"station_id":"ce4bhpp2rcd13ifvqhgg","pricing_plan_id":"cebpf4jnsgd1na2vs0mg"},{"bike_id":"aaaf8aae-53a7-46f2-bc5a-7b42ea1053b6","system_id":"levelo_inurba_marseille","lat":43.27812,"lon":5.40726,"is_reserved":false,"is_disabled":false,"rental_uris":{"android":"levelo://app?vid=aaaf8aae-53a7-46f2-bc5a-7b42ea1053b6","ios":"levelo://app?vid=aaaf8aae-53a7-46f2-bc5a-7b42ea1053b6"},"vehicle_type_id":"4","last_reported":1731827335,"current_range_meters":39200,"station_id":"ce4bhnh2rcd13ifvqgtg","pricing_plan_id":"cebpf4jnsgd1na2vs0mg"},{"bike_id":"6926a87c-5739-4741-9d0f-4b148ee18c3c","system_id":"levelo_inurba_marseille","lat":43.27073,"lon":5.42276,"is_reserved":false,"is_disabled":false,"rental_uris":{"android":"levelo://app?vid=6926a87c-5739-4741-9d0f-4b148ee18c3c","ios":"levelo://app?vid=6926a87c-5739-4741-9d0f-4b148ee18c3c"},"vehicle_type_id":"4","last_reported":1731827335,"current_range_meters":2800,"station_id":"ce4bhk92rcd13ifvqgb0","pricing_plan_id":"cebpf4jnsgd1na2vs0mg"},{"bike_id":"22245193-bf12-48de-9143-6c7f5028a950","system_id":"levelo_inurba_marseille","lat":43.29971,"lon":5.38497,"is_reserved":false,"is_disabled":false,"rental_uris":{"android":"levelo://app?vid=22245193-bf12-48de-9143-6c7f5028a950","ios":"levelo://app?vid=22245193-bf12-48de-9143-6c7f5028a950"},"vehicle_type_id":"4","last_reported":1731827335,"current_range_meters":39200,"station_id":"ce4bgj92rcd13ifvqbd0","pricing_plan_id":"cebpf4jnsgd1na2vs0mg"},{"bike_id":"eb9a84f5-6092-4dc4-a3c0-a07efb437c77","system_id":"levelo_inurba_marseille","lat":43.337605,"lon":5.374349,"is_reserved":false,"is_disabled":false,"rental_uris":{"android":"levelo://app?vid=eb9a84f5-6092-4dc4-a3c0-a07efb437c77","ios":"levelo://app?vid=eb9a84f5-6092-4dc4-a3c0-a07efb437c77"},"vehicle_type_id":"4","last_reported":1731827335,"current_range_meters":7200,"station_id":"","pricing_plan_id":"cebpf4jnsgd1na2vs0mg"},{"bike_id":"db5ce6e8-bb75-48c2-a390-a3f436007695","system_id":"levelo_inurba_marseille","lat":43.28858,"lon":5.35837,"is_reserved":false,"is_disabled":false,"rental_uris":{"android":"levelo://app?vid=db5ce6e8-bb75-48c2-a390-a3f436007695","ios":"levelo://app?vid=db5ce6e8-bb75-48c2-a390-a3f436007695"},"vehicle_type_id":"4","last_reported":1731827335,"current_range_meters":34000,"station_id":"ce4bhb12rcd13ifvqem0","pricing_plan_id":"cebpf4jnsgd1na2vs0mg"},{"bike_id":"ea13a766-b2b1-4d5e-8bf6-b4d471af3488","system_id":"levelo_inurba_marseille","lat":43.29269,"lon":5.40147,"is_reserved":false,"is_disabled":false,"rental_uris":{"android":"levelo://app?vid=ea13a766-b2b1-4d5e-8bf6-b4d471af3488","ios":"levelo://app?vid=ea13a766-b2b1-4d5e-8bf6-b4d471af3488"},"vehicle_type_id":"4","last_reported":1731827335,"current_range_meters":38800,"station_id":"ce4bh312rcd13ifvqdk0","pricing_plan_id":"cebpf4jnsgd1na2vs0mg"},{"bike_id":"33ab6938-287f-4c55-954b-cfc915b387f8","system_id":"levelo_inurba_marseille","lat":43.29902,"lon":5.37482,"is_reserved":false,"is_disabled":false,"rental_uris":{"android":"levelo://app?vid=33ab6938-287f-4c55-954b-cfc915b387f8","ios":"levelo://app?vid=33ab6938-287f-4c55-954b-cfc915b387f8"},"vehicle_type_id":"4","last_reported":1731827335,"current_range_meters":30800,"station_id":"ce4bgjh2rcd13ifvqbg0","pricing_plan_id":"cebpf4jnsgd1na2vs0mg"},{"bike_id":"d88b7fc7-f231-498f-9588-ffbda47921d6","system_id":"levelo_inurba_marseille","lat":43.3089,"lon":5.39635,"is_reserved":false,"is_disabled":false,"rental_uris":{"android":"levelo://app?vid=d88b7fc7-f231-498f-9588-ffbda47921d6","ios":"levelo://app?vid=d88b7fc7-f231-498f-9588-ffbda47921d6"},"vehicle_type_id":"4","last_reported":1731827335,"current_range_meters":23200,"station_id":"ce4bh012rcd13ifvqcv0","pricing_plan_id":"cebpf4jnsgd1na2vs0mg"},{"bike_id":"22ea48db-755d-43c3-a7d2-0beff01815d8","system_id":"levelo_inurba_marseille","lat":43.33773,"lon":5.37442,"is_reserved":false,"is_disabled":false,"rental_uris":{"android":"levelo://app?vid=22ea48db-755d-43c3-a7d2-0beff01815d8","ios":"levelo://app?vid=22ea48db-755d-43c3-a7d2-0beff01815d8"},"vehicle_type_id":"4","last_reported":1731827335,"current_range_meters":9200,"station_id":"","pricing_plan_id":"cebpf4jnsgd1na2vs0mg"},{"bike_id":"e572c8c8-2c29-468a-9de9-47bf2d2e9b00","system_id":"levelo_inurba_marseille","lat":43.2749,"lon":5.4246,"is_reserved":false,"is_disabled":false,"rental_uris":{"android":"levelo://app?vid=e572c8c8-2c29-468a-9de9-47bf2d2e9b00","ios":"levelo://app?vid=e572c8c8-2c29-468a-9de9-47bf2d2e9b00"},"vehicle_type_id":"4","last_reported":1731827335,"current_range_meters":29600,"station_id":"ce4bhn92rcd13ifvqgrg","pricing_plan_id":"cebpf4jnsgd1na2vs0mg"},{"bike_id":"103382d6-ae1b-4a2e-b6c9-db019482ab2a","system_id":"levelo_inurba_marseille","lat":43.31889,"lon":5.40726,"is_reserved":false,"is_disabled":false,"rental_uris":{"android":"levelo://app?vid=103382d6-ae1b-4a2e-b6c9-db019482ab2a","ios":"levelo://app?vid=103382d6-ae1b-4a2e-b6c9-db019482ab2a"},"vehicle_type_id":"4","last_reported":1731827335,"current_range_meters":38800,"station_id":"ce4bhq12rcd13ifvqhig","pricing_plan_id":"cebpf4jnsgd1na2vs0mg"},{"bike_id":"eacd9ebb-691f-4a83-85ee-81beefc74253","system_id":"levelo_inurba_marseille","lat":43.33728,"lon":5.39184,"is_reserved":false,"is_disabled":false,"rental_uris":{"android":"levelo://app?vid=eacd9ebb-691f-4a83-85ee-81beefc74253","ios":"levelo://app?vid=eacd9ebb-691f-4a83-85ee-81beefc74253"},"vehicle_type_id":"4","last_reported":1731827335,"current_range_meters":38000,"station_id":"ce4bhr92rcd13ifvqhsg","pricing_plan_id":"cebpf4jnsgd1na2vs0mg"},{"bike_id":"a1862017-f597-4949-a306-4d7c53cc8b86","system_id":"levelo_inurba_marseille","lat":43.24164,"lon":5.36404,"is_reserved":false,"is_disabled":false,"rental_uris":{"android":"levelo://app?vid=a1862017-f597-4949-a306-4d7c53cc8b86","ios":"levelo://app?vid=a1862017-f597-4949-a306-4d7c53cc8b86"},"vehicle_type_id":"4","last_reported":1731827335,"current_range_meters":8800,"station_id":"cpo36qri1sfpv3e86is0","pricing_plan_id":"cebpf4jnsgd1na2vs0mg"},{"bike_id":"93d2376b-d24b-4c4a-bf7c-d9d7da5c25f0","system_id":"levelo_inurba_marseille","lat":43.2306,"lon":5.35489,"is_reserved":false,"is_disabled":false,"rental_uris":{"android":"levelo://app?vid=93d2376b-d24b-4c4a-bf7c-d9d7da5c25f0","ios":"levelo://app?vid=93d2376b-d24b-4c4a-bf7c-d9d7da5c25f0"},"vehicle_type_id":"4","last_reported":1731827335,"current_range_meters":14400,"station_id":"cpo3342slgdg3j2ifvpg","pricing_plan_id":"cebpf4jnsgd1na2vs0mg"},{"bike_id":"9bc771c0-32f2-45e4-aab6-5ca13b1421b2","system_id":"levelo_inurba_marseille","lat":43.26792,"lon":5.39414,"is_reserved":false,"is_disabled":false,"rental_uris":{"android":"levelo://app?vid=9bc771c0-32f2-45e4-aab6-5ca13b1421b2","ios":"levelo://app?vid=9bc771c0-32f2-45e4-aab6-5ca13b1421b2"},"vehicle_type_id":"4","last_reported":1731827335,"current_range_meters":20800,"station_id":"ce4bhh12rcd13ifvqfg0","pricing_plan_id":"cebpf4jnsgd1na2vs0mg"},{"bike_id":"eb0b6258-25b5-4174-825d-16bccd206154","system_id":"levelo_inurba_marseille","lat":43.33026,"lon":5.39039,"is_reserved":false,"is_disabled":false,"rental_uris":{"android":"levelo://app?vid=eb0b6258-25b5-4174-825d-16bccd206154","ios":"levelo://app?vid=eb0b6258-25b5-4174-825d-16bccd206154"},"vehicle_type_id":"4","last_reported":1731827335,"current_range_meters":8800,"station_id":"ce4bhr92rcd13ifvqhrg","pricing_plan_id":"cebpf4jnsgd1na2vs0mg"},{"bike_id":"ca655f3b-8380-4045-b3f8-8acaa0e83ede","system_id":"levelo_inurba_marseille","lat":43.33739,"lon":5.37423,"is_reserved":false,"is_disabled":false,"rental_uris":{"android":"levelo://app?vid=ca655f3b-8380-4045-b3f8-8acaa0e83ede","ios":"levelo://app?vid=ca655f3b-8380-4045-b3f8-8acaa0e83ede"},"vehicle_type_id":"4","last_reported":1731827335,"current_range_meters":34000,"station_id":"","pricing_plan_id":"cebpf4jnsgd1na2vs0mg"},{"bike_id":"b230996c-d77d-4247-849f-334562eb2377","system_id":"levelo_inurba_marseille","lat":43.28857,"lon":5.35843,"is_reserved":false,"is_disabled":false,"rental_uris":{"android":"levelo://app?vid=b230996c-d77d-4247-849f-334562eb2377","ios":"levelo://app?vid=b230996c-d77d-4247-849f-334562eb2377"},"vehicle_type_id":"4","last_reported":1731827335,"current_range_meters":28800,"station_id":"ce4bhb12rcd13ifvqem0","pricing_plan_id":"cebpf4jnsgd1na2vs0mg"},{"bike_id":"de28e0e0-f078-4c74-8f21-7f60030fd996","system_id":"levelo_inurba_marseille","lat":43.24077,"lon":5.37757,"is_reserved":false,"is_disabled":false,"rental_uris":{"android":"levelo://app?vid=de28e0e0-f078-4c74-8f21-7f60030fd996","ios":"levelo://app?vid=de28e0e0-f078-4c74-8f21-7f60030fd996"},"vehicle_type_id":"4","last_reported":1731827335,"current_range_meters":38000,"station_id":"ce4bhnp2rcd13ifvqgvg","pricing_plan_id":"cebpf4jnsgd1na2vs0mg"},{"bike_id":"a6b8c285-acc9-4039-9531-1aae39136a33","system_id":"levelo_inurba_marseille","lat":43.312042,"lon":5.367348,"is_reserved":false,"is_disabled":false,"rental_uris":{"android":"levelo://app?vid=a6b8c285-acc9-4039-9531-1aae39136a33","ios":"levelo://app?vid=a6b8c285-acc9-4039-9531-1aae39136a33"},"vehicle_type_id":"4","last_reported":1731827335,"current_range_meters":11600,"station_id":"","pricing_plan_id":"cebpf4jnsgd1na2vs0mg"},{"bike_id":"04e579be-d930-46e5-bb29-40fdc45896e1","system_id":"levelo_inurba_marseille","lat":43.32627,"lon":5.36199,"is_reserved":false,"is_disabled":false,"rental_uris":{"android":"levelo://app?vid=04e579be-d930-46e5-bb29-40fdc45896e1","ios":"levelo://app?vid=04e579be-d930-46e5-bb29-40fdc45896e1"},"vehicle_type_id":"4","last_reported":1731827335,"current_range_meters":7200,"station_id":"","pricing_plan_id":"cebpf4jnsgd1na2vs0mg"},{"bike_id":"37b940f2-53f1-40b3-bcdc-a092eab2c248","system_id":"levelo_inurba_marseille","lat":43.239547,"lon":5.366281,"is_reserved":false,"is_disabled":false,"rental_uris":{"android":"levelo://app?vid=37b940f2-53f1-40b3-bcdc-a092eab2c248","ios":"levelo://app?vid=37b940f2-53f1-40b3-bcdc-a092eab2c248"},"vehicle_type_id":"4","last_reported":1731827335,"current_range_meters":22000,"station_id":"ce4bhi12rcd13ifvqfp0","pricing_plan_id":"cebpf4jnsgd1na2vs0mg"},{"bike_id":"c747e4d2-9767-4a3d-9667-2cf2ceee011c","system_id":"levelo_inurba_marseille","lat":43.295593,"lon":5.42293,"is_reserved":false,"is_disabled":false,"rental_uris":{"android":"levelo://app?vid=c747e4d2-9767-4a3d-9667-2cf2ceee011c","ios":"levelo://app?vid=c747e4d2-9767-4a3d-9667-2cf2ceee011c"},"vehicle_type_id":"4","last_reported":1731827335,"current_range_meters":30400,"station_id":"ce4bgup2rcd13ifvqco0","pricing_plan_id":"cebpf4jnsgd1na2vs0mg"},{"bike_id":"900707cc-26f2-4ea2-8fed-9690c6b8ed62","system_id":"levelo_inurba_marseille","lat":43.25583,"lon":5.38236,"is_reserved":false,"is_disabled":false,"rental_uris":{"android":"levelo://app?vid=900707cc-26f2-4ea2-8fed-9690c6b8ed62","ios":"levelo://app?vid=900707cc-26f2-4ea2-8fed-9690c6b8ed62"},"vehicle_type_id":"4","last_reported":1731827335,"current_range_meters":18800,"station_id":"ce4bhih2rcd13ifvqfs0","pricing_plan_id":"cebpf4jnsgd1na2vs0mg"},{"bike_id":"51016256-29c2-4628-a678-302169f745db","system_id":"levelo_inurba_marseille","lat":43.2593,"lon":5.40912,"is_reserved":false,"is_disabled":false,"rental_uris":{"android":"levelo://app?vid=51016256-29c2-4628-a678-302169f745db","ios":"levelo://app?vid=51016256-29c2-4628-a678-302169f745db"},"vehicle_type_id":"4","last_reported":1731827335,"current_range_meters":35200,"station_id":"ce4bhm92rcd13ifvqglg","pricing_plan_id":"cebpf4jnsgd1na2vs0mg"},{"bike_id":"5245229e-cccc-428a-99d0-dd4569301465","system_id":"levelo_inurba_marseille","lat":43.2841,"lon":5.37522,"is_reserved":false,"is_disabled":false,"rental_uris":{"android":"levelo://app?vid=5245229e-cccc-428a-99d0-dd4569301465","ios":"levelo://app?vid=5245229e-cccc-428a-99d0-dd4569301465"},"vehicle_type_id":"4","last_reported":1731827335,"current_range_meters":37600,"station_id":"ce4bh412rcd13ifvqds0","pricing_plan_id":"cebpf4jnsgd1na2vs0mg"},{"bike_id":"725370d6-2557-416d-a2cd-5fb440542122","system_id":"levelo_inurba_marseille","lat":43.29964,"lon":5.385,"is_reserved":false,"is_disabled":false,"rental_uris":{"android":"levelo://app?vid=725370d6-2557-416d-a2cd-5fb440542122","ios":"levelo://app?vid=725370d6-2557-416d-a2cd-5fb440542122"},"vehicle_type_id":"4","last_reported":1731827335,"current_range_meters":22400,"station_id":"ce4bgj92rcd13ifvqbd0","pricing_plan_id":"cebpf4jnsgd1na2vs0mg"},{"bike_id":"56075252-74df-41bd-8879-5a4ae6ac7900","system_id":"levelo_inurba_marseille","lat":43.24385,"lon":5.37051,"is_reserved":false,"is_disabled":false,"rental_uris":{"android":"levelo://app?vid=56075252-74df-41bd-8879-5a4ae6ac7900","ios":"levelo://app?vid=56075252-74df-41bd-8879-5a4ae6ac7900"},"vehicle_type_id":"4","last_reported":1731827335,"current_range_meters":13600,"station_id":"ce4bhhh2rcd13ifvqfk0","pricing_plan_id":"cebpf4jnsgd1na2vs0mg"},{"bike_id":"056a94b6-4f3f-4f91-8ff9-1afc6326f8f2","system_id":"levelo_inurba_marseille","lat":43.3064,"lon":5.40079,"is_reserved":false,"is_disabled":false,"rental_uris":{"android":"levelo://app?vid=056a94b6-4f3f-4f91-8ff9-1afc6326f8f2","ios":"levelo://app?vid=056a94b6-4f3f-4f91-8ff9-1afc6326f8f2"},"vehicle_type_id":"4","last_reported":1731827335,"current_range_meters":39200,"station_id":"ce4bh112rcd13ifvqda0","pricing_plan_id":"cebpf4jnsgd1na2vs0mg"},{"bike_id":"776c19bb-9271-4d1b-b450-71b28ade05f5","system_id":"levelo_inurba_marseille","lat":43.23188,"lon":5.355557,"is_reserved":false,"is_disabled":false,"rental_uris":{"android":"levelo://app?vid=776c19bb-9271-4d1b-b450-71b28ade05f5","ios":"levelo://app?vid=776c19bb-9271-4d1b-b450-71b28ade05f5"},"vehicle_type_id":"4","last_reported":1731827335,"current_range_meters":36400,"station_id":"ce4bhu92rcd13ifvqi70","pricing_plan_id":"cebpf4jnsgd1na2vs0mg"},{"bike_id":"3731846e-2218-45f1-ac96-76a41185ff9d","system_id":"levelo_inurba_marseille","lat":43.24167,"lon":5.36396,"is_reserved":false,"is_disabled":false,"rental_uris":{"android":"levelo://app?vid=3731846e-2218-45f1-ac96-76a41185ff9d","ios":"levelo://app?vid=3731846e-2218-45f1-ac96-76a41185ff9d"},"vehicle_type_id":"4","last_reported":1731827335,"current_range_meters":37600,"station_id":"cpo36qri1sfpv3e86is0","pricing_plan_id":"cebpf4jnsgd1na2vs0mg"},{"bike_id":"21008f9f-3bc3-4acd-9a0a-f8e343a3bfe6","system_id":"levelo_inurba_marseille","lat":43.2293,"lon":5.35375,"is_reserved":false,"is_disabled":false,"rental_uris":{"android":"levelo://app?vid=21008f9f-3bc3-4acd-9a0a-f8e343a3bfe6","ios":"levelo://app?vid=21008f9f-3bc3-4acd-9a0a-f8e343a3bfe6"},"vehicle_type_id":"4","last_reported":1731827335,"current_range_meters":38000,"station_id":"cpo3532slgdg3j2ikp40","pricing_plan_id":"cebpf4jnsgd1na2vs0mg"},{"bike_id":"1ab38242-77f0-4584-96b9-0f51cafaaa3b","system_id":"levelo_inurba_marseille","lat":43.297954,"lon":5.393378,"is_reserved":false,"is_disabled":false,"rental_uris":{"android":"levelo://app?vid=1ab38242-77f0-4584-96b9-0f51cafaaa3b","ios":"levelo://app?vid=1ab38242-77f0-4584-96b9-0f51cafaaa3b"},"vehicle_type_id":"4","last_reported":1731827335,"current_range_meters":38800,"station_id":"chh1huq6cuj3fo74tm60","pricing_plan_id":"cebpf4jnsgd1na2vs0mg"},{"bike_id":"92ac4858-87d6-4ceb-8f6e-004635a816a8","system_id":"levelo_inurba_marseille","lat":43.27784,"lon":5.40725,"is_reserved":false,"is_disabled":false,"rental_uris":{"android":"levelo://app?vid=92ac4858-87d6-4ceb-8f6e-004635a816a8","ios":"levelo://app?vid=92ac4858-87d6-4ceb-8f6e-004635a816a8"},"vehicle_type_id":"4","last_reported":1731827335,"current_range_meters":28000,"station_id":"ce4bhnh2rcd13ifvqgtg","pricing_plan_id":"cebpf4jnsgd1na2vs0mg"},{"bike_id":"af712ab9-ece6-4723-8ff8-2d7fe5a88cad","system_id":"levelo_inurba_marseille","lat":43.31074,"lon":5.3836,"is_reserved":false,"is_disabled":false,"rental_uris":{"android":"levelo://app?vid=af712ab9-ece6-4723-8ff8-2d7fe5a88cad","ios":"levelo://app?vid=af712ab9-ece6-4723-8ff8-2d7fe5a88cad"},"vehicle_type_id":"4","last_reported":1731827335,"current_range_meters":28400,"station_id":"ce4bgv92rcd13ifvqcr0","pricing_plan_id":"cebpf4jnsgd1na2vs0mg"},{"bike_id":"1396ab55-0e44-4ee6-a17e-86cf36813da1","system_id":"levelo_inurba_marseille","lat":43.24176,"lon":5.39738,"is_reserved":false,"is_disabled":false,"rental_uris":{"android":"levelo://app?vid=1396ab55-0e44-4ee6-a17e-86cf36813da1","ios":"levelo://app?vid=1396ab55-0e44-4ee6-a17e-86cf36813da1"},"vehicle_type_id":"4","last_reported":1731827335,"current_range_meters":28800,"station_id":"ce4bhn12rcd13ifvqgpg","pricing_plan_id":"cebpf4jnsgd1na2vs0mg"},{"bike_id":"0a014134-405b-4dc1-8f23-0f60986e5d81","system_id":"levelo_inurba_marseille","lat":43.2621,"lon":5.37445,"is_reserved":false,"is_disabled":false,"rental_uris":{"android":"levelo://app?vid=0a014134-405b-4dc1-8f23-0f60986e5d81","ios":"levelo://app?vid=0a014134-405b-4dc1-8f23-0f60986e5d81"},"vehicle_type_id":"4","last_reported":1731827335,"current_range_meters":33200,"station_id":"ce4bhgp2rcd13ifvqfc0","pricing_plan_id":"cebpf4jnsgd1na2vs0mg"},{"bike_id":"a2b165e7-8d8d-4922-9ef2-c24fcea2bf58","system_id":"levelo_inurba_marseille","lat":43.27074,"lon":5.42278,"is_reserved":false,"is_disabled":false,"rental_uris":{"android":"levelo://app?vid=a2b165e7-8d8d-4922-9ef2-c24fcea2bf58","ios":"levelo://app?vid=a2b165e7-8d8d-4922-9ef2-c24fcea2bf58"},"vehicle_type_id":"4","last_reported":1731827335,"current_range_meters":28800,"station_id":"ce4bhk92rcd13ifvqgb0","pricing_plan_id":"cebpf4jnsgd1na2vs0mg"},{"bike_id":"52729566-dd2f-4c13-bb21-c2b6cf4ac493","system_id":"levelo_inurba_marseille","lat":43.29522,"lon":5.39041,"is_reserved":false,"is_disabled":false,"rental_uris":{"android":"levelo://app?vid=52729566-dd2f-4c13-bb21-c2b6cf4ac493","ios":"levelo://app?vid=52729566-dd2f-4c13-bb21-c2b6cf4ac493"},"vehicle_type_id":"4","last_reported":1731827335,"current_range_meters":15200,"station_id":"ce4bh3p2rcd13ifvqdp0","pricing_plan_id":"cebpf4jnsgd1na2vs0mg"},{"bike_id":"a2ef2c30-43ab-44ac-b3c0-3670b3921da1","system_id":"levelo_inurba_marseille","lat":43.29678,"lon":5.37294,"is_reserved":false,"is_disabled":false,"rental_uris":{"android":"levelo://app?vid=a2ef2c30-43ab-44ac-b3c0-3670b3921da1","ios":"levelo://app?vid=a2ef2c30-43ab-44ac-b3c0-3670b3921da1"},"vehicle_type_id":"4","last_reported":1731827335,"current_range_meters":37600,"station_id":"ce4bgk12rcd13ifvqbj0","pricing_plan_id":"cebpf4jnsgd1na2vs0mg"},{"bike_id":"6134c1f6-b136-4b0c-9ad2-b5f87de5bedf","system_id":"levelo_inurba_marseille","lat":43.30593,"lon":5.37235,"is_reserved":false,"is_disabled":false,"rental_uris":{"android":"levelo://app?vid=6134c1f6-b136-4b0c-9ad2-b5f87de5bedf","ios":"levelo://app?vid=6134c1f6-b136-4b0c-9ad2-b5f87de5bedf"},"vehicle_type_id":"4","last_reported":1731827335,"current_range_meters":39200,"station_id":"ce4bgqh2rcd13ifvqc4g","pricing_plan_id":"cebpf4jnsgd1na2vs0mg"},{"bike_id":"d4498861-3c60-4389-beb1-4767aeaaf2a0","system_id":"levelo_inurba_marseille","lat":43.28612,"lon":5.35106,"is_reserved":false,"is_disabled":false,"rental_uris":{"android":"levelo://app?vid=d4498861-3c60-4389-beb1-4767aeaaf2a0","ios":"levelo://app?vid=d4498861-3c60-4389-beb1-4767aeaaf2a0"},"vehicle_type_id":"4","last_reported":1731827335,"current_range_meters":6800,"station_id":"ce4bhch2rcd13ifvqeug","pricing_plan_id":"cebpf4jnsgd1na2vs0mg"},{"bike_id":"7cb325b1-4211-4fb9-b61b-c4931508c31f","system_id":"levelo_inurba_marseille","lat":43.29261,"lon":5.40146,"is_reserved":false,"is_disabled":false,"rental_uris":{"android":"levelo://app?vid=7cb325b1-4211-4fb9-b61b-c4931508c31f","ios":"levelo://app?vid=7cb325b1-4211-4fb9-b61b-c4931508c31f"},"vehicle_type_id":"4","last_reported":1731827335,"current_range_meters":23200,"station_id":"ce4bh312rcd13ifvqdk0","pricing_plan_id":"cebpf4jnsgd1na2vs0mg"},{"bike_id":"8f5ba682-4b27-42f9-a389-5683a76cce2b","system_id":"levelo_inurba_marseille","lat":43.24176,"lon":5.39728,"is_reserved":false,"is_disabled":false,"rental_uris":{"android":"levelo://app?vid=8f5ba682-4b27-42f9-a389-5683a76cce2b","ios":"levelo://app?vid=8f5ba682-4b27-42f9-a389-5683a76cce2b"},"vehicle_type_id":"4","last_reported":1731827335,"current_range_meters":30800,"station_id":"ce4bhn12rcd13ifvqgpg","pricing_plan_id":"cebpf4jnsgd1na2vs0mg"},{"bike_id":"538ff880-7009-4230-aa76-28de0d1a5a41","system_id":"levelo_inurba_marseille","lat":43.24392,"lon":5.3706,"is_reserved":false,"is_disabled":false,"rental_uris":{"android":"levelo://app?vid=538ff880-7009-4230-aa76-28de0d1a5a41","ios":"levelo://app?vid=538ff880-7009-4230-aa76-28de0d1a5a41"},"vehicle_type_id":"4","last_reported":1731827335,"current_range_meters":15200,"station_id":"ce4bhhh2rcd13ifvqfk0","pricing_plan_id":"cebpf4jnsgd1na2vs0mg"},{"bike_id":"3b3cdb38-8c6d-42d4-99b9-4fef005d7e67","system_id":"levelo_inurba_marseille","lat":43.28036,"lon":5.36944,"is_reserved":false,"is_disabled":false,"rental_uris":{"android":"levelo://app?vid=3b3cdb38-8c6d-42d4-99b9-4fef005d7e67","ios":"levelo://app?vid=3b3cdb38-8c6d-42d4-99b9-4fef005d7e67"},"vehicle_type_id":"4","last_reported":1731827335,"current_range_meters":38400,"station_id":"ce4bha12rcd13ifvqef0","pricing_plan_id":"cebpf4jnsgd1na2vs0mg"},{"bike_id":"a84f5389-258d-4508-9c0f-32ee5d326b43","system_id":"levelo_inurba_marseille","lat":43.33767,"lon":5.37475,"is_reserved":false,"is_disabled":false,"rental_uris":{"android":"levelo://app?vid=a84f5389-258d-4508-9c0f-32ee5d326b43","ios":"levelo://app?vid=a84f5389-258d-4508-9c0f-32ee5d326b43"},"vehicle_type_id":"4","last_reported":1731827335,"current_range_meters":30800,"station_id":"","pricing_plan_id":"cebpf4jnsgd1na2vs0mg"},{"bike_id":"e7d7f3cf-bc77-4769-8411-2c08d663e043","system_id":"levelo_inurba_marseille","lat":43.28609,"lon":5.35101,"is_reserved":false,"is_disabled":false,"rental_uris":{"android":"levelo://app?vid=e7d7f3cf-bc77-4769-8411-2c08d663e043","ios":"levelo://app?vid=e7d7f3cf-bc77-4769-8411-2c08d663e043"},"vehicle_type_id":"4","last_reported":1731827335,"current_range_meters":37600,"station_id":"ce4bhch2rcd13ifvqeug","pricing_plan_id":"cebpf4jnsgd1na2vs0mg"},{"bike_id":"85e04372-53d4-4775-939e-d05c86eae748","system_id":"levelo_inurba_marseille","lat":43.26207,"lon":5.37927,"is_reserved":false,"is_disabled":false,"rental_uris":{"android":"levelo://app?vid=85e04372-53d4-4775-939e-d05c86eae748","ios":"levelo://app?vid=85e04372-53d4-4775-939e-d05c86eae748"},"vehicle_type_id":"4","last_reported":1731827335,"current_range_meters":8800,"station_id":"ce4bhjp2rcd13ifvqg90","pricing_plan_id":"cebpf4jnsgd1na2vs0mg"},{"bike_id":"063500a8-92d6-41a9-9a5c-c28b4516289c","system_id":"levelo_inurba_marseille","lat":43.2839,"lon":5.37525,"is_reserved":false,"is_disabled":false,"rental_uris":{"android":"levelo://app?vid=063500a8-92d6-41a9-9a5c-c28b4516289c","ios":"levelo://app?vid=063500a8-92d6-41a9-9a5c-c28b4516289c"},"vehicle_type_id":"4","last_reported":1731827335,"current_range_meters":38400,"station_id":"ce4bh412rcd13ifvqds0","pricing_plan_id":"cebpf4jnsgd1na2vs0mg"},{"bike_id":"ed8cfcce-fcd3-4866-b7bb-3032e5fedbfd","system_id":"levelo_inurba_marseille","lat":43.32343,"lon":5.40618,"is_reserved":false,"is_disabled":false,"rental_uris":{"android":"levelo://app?vid=ed8cfcce-fcd3-4866-b7bb-3032e5fedbfd","ios":"levelo://app?vid=ed8cfcce-fcd3-4866-b7bb-3032e5fedbfd"},"vehicle_type_id":"4","last_reported":1731827335,"current_range_meters":27600,"station_id":"ce4bhq92rcd13ifvqhjg","pricing_plan_id":"cebpf4jnsgd1na2vs0mg"},{"bike_id":"50f52a7b-755c-48c2-9a91-73ebef190fd8","system_id":"levelo_inurba_marseille","lat":43.305293,"lon":5.384164,"is_reserved":false,"is_disabled":false,"rental_uris":{"android":"levelo://app?vid=50f52a7b-755c-48c2-9a91-73ebef190fd8","ios":"levelo://app?vid=50f52a7b-755c-48c2-9a91-73ebef190fd8"},"vehicle_type_id":"4","last_reported":1731827335,"current_range_meters":35600,"station_id":"ce4bgg92rcd13ifvqb30","pricing_plan_id":"cebpf4jnsgd1na2vs0mg"},