{"last_updated":1740953265,"ttl":60,"version":"2.2","data":{"bikes":[{"bike_id":"819fc6fd-4768-4c11-82f9-0b5fd0b62d4a","system_id":"levelo_inurba_marseille","lat":43.342501,"lon":5.378,"is_reserved":false,"is_disabled":true,"rental_uris":{"android":"levelo://app?vid=819fc6fd-4768-4c11-82f9-0b5fd0b62d4a","ios":"levelo://app?vid=819fc6fd-4768-4c11-82f9-0b5fd0b62d4a"},"vehicle_type_id":"4","last_reported":1740953265,"current_range_meters":0,"station_id":"","pricing_plan_id":"cebpf4jnsgd1na2vs0mg"},{"bike_id":"303c2b96-5131-48b9-8dd0-e5a82865f4bc","system_id":"levelo_inurba_marseille","lat":43.35322,"lon":5.36568,"is_reserved":false,"is_disabled":true,"rental_uris":{"android":"levelo://app?vid=303c2b96-5131-48b9-8dd0-e5a82865f4bc","ios":"levelo://app?vid=303c2b96-5131-48b9-8dd0-e5a82865f4bc"},"vehicle_type_id":"4","last_reported":1740953265,"current_range_meters":0,"station_id":"","pricing_plan_id":"cebpf4jnsgd1na2vs0mg"},{"bike_id":"d5458f89-73a3-43f1-9894-000389f52995","system_id":"levelo_inurba_marseille","lat":43.27617,"lon":5.41496,"is_reserved":false,"is_disabled":true,"rental_uris":{"android":"levelo://app?vid=d5458f89-73a3-43f1-9894-000389f52995","ios":"levelo://app?vid=d5458f89-73a3-43f1-9894-000389f52995"},"vehicle_type_id":"4","last_reported":1740953265,"current_range_meters":0,"station_id":"","pricing_plan_id":"cebpf4jnsgd1na2vs0mg"},{"bike_id":"ea6a02cb-3810-403c-ab47-423df20fff9f","system_id":"levelo_inurba_marseille","lat":43.28843,"lon":5.44872,"is_reserved":false,"is_disabled":true,"rental_uris":{"android":"levelo://app?vid=ea6a02cb-3810-403c-ab47-423df20fff9f","ios":"levelo://app?vid=ea6a02cb-3810-403c-ab47-423df20fff9f"},"vehicle_type_id":"4","last_reported":1740953265,"current_range_meters":0,"station_id":"","pricing_plan_id":"cebpf4jnsgd1na2vs0mg"},{"bike_id":"c97d5f89-f7c1-4c92-8623-a2279c8e3212","system_id":"levelo_inurba_marseille","lat":43.30451,"lon":5.40766,"is_reserved":false,"is_disabled":true,"rental_uris":{"android":"levelo://app?vid=c97d5f89-f7c1-4c92-8623-a2279c8e3212","ios":"levelo://app?vid=c97d5f89-f7c1-4c92-8623-a2279c8e3212"},"vehicle_type_id":"4","last_reported":1740953265,"current_range_meters":0,"station_id":"","pricing_plan_id":"cebpf4jnsgd1na2vs0mg"},{"bike_id":"afcec8eb-28d8-4889-8879-0897cb5957e3","system_id":"levelo_inurba_marseille","lat":43.2799,"lon":5.40573,"is_reserved":false,"is_disabled":true,"rental_uris":{"android":"levelo://app?vid=afcec8eb-28d8-4889-8879-0897cb5957e3","ios":"levelo://app?vid=afcec8eb-28d8-4889-8879-0897cb5957e3"},"vehicle_type_id":"4","last_reported":1740953265,"current_range_meters":0,"station_id":"","pricing_plan_id":"cebpf4jnsgd1na2vs0mg"},{"bike_id":"7299c7f5-b19a-415a-98fb-92e8f867f54e","system_id":"levelo_inurba_marseille","lat":43.31683,"lon":5.39689,"is_reserved":false,"is_disabled":true,"rental_uris":{"android":"levelo://app?vid=7299c7f5-b19a-415a-98fb-92e8f867f54e","ios":"levelo://app?vid=7299c7f5-b19a-415a-98fb-92e8f867f54e"},"vehicle_type_id":"4","last_reported":1740953265,"current_range_meters":0,"station_id":"","pricing_plan_id":"cebpf4jnsgd1na2vs0mg"},{"bike_id":"7e4d3656-3992-4e9e-8ea8-70a70bbfce85","system_id":"levelo_inurba_marseille","lat":43.30138,"lon":5.38788,"is_reserved":false,"is_disabled":true,"rental_uris":{"android":"levelo://app?vid=7e4d3656-3992-4e9e-8ea8-70a70bbfce85","ios":"levelo://app?vid=7e4d3656-3992-4e9e-8ea8-70a70bbfce85"},"vehicle_type_id":"4","last_reported":1740953265,"current_range_meters":0,"station_id":"ce4bghh2rcd13ifvqb60","pricing_plan_id":"cebpf4jnsgd1na2vs0mg"},{"bike_id":"aa37c472-82c2-4d53-879a-25881fca771e","system_id":"levelo_inurba_marseille","lat":43.31217,"lon":5.36877,"is_reserved":false,"is_disabled":true,"rental_uris":{"android":"levelo://app?vid=aa37c472-82c2-4d53-879a-25881fca771e","ios":"levelo://app?vid=aa37c472-82c2-4d53-879a-25881fca771e"},"vehicle_type_id":"4","last_reported":1740953265,"current_range_meters":0,"station_id":"ce4bgl92rcd13ifvqbq0","pricing_plan_id":"cebpf4jnsgd1na2vs0mg"},{"bike_id":"ec5839fe-f775-4eb6-8517-1e3cbc51f490","system_id":"levelo_inurba_marseille","lat":43.31234,"lon":5.36867,"is_reserved":false,"is_disabled":true,"rental_uris":{"android":"levelo://app?vid=ec5839fe-f775-4eb6-8517-1e3cbc51f490","ios":"levelo://app?vid=ec5839fe-f775-4eb6-8517-1e3cbc51f490"},"vehicle_type_id":"4","last_reported":1740953265,"current_range_meters":0,"station_id":"ce4bgl92rcd13ifvqbq0","pricing_plan_id":"cebpf4jnsgd1na2vs0mg"},{"bike_id":"c505eebc-4dab-4790-978f-6a47cee7f8c9","system_id":"levelo_inurba_marseille","lat":43.30888,"lon":5.39666,"is_reserved":false,"is_disabled":true,"rental_uris":{"android":"levelo://app?vid=c505eebc-4dab-4790-978f-6a47cee7f8c9","ios":"levelo://app?vid=c505eebc-4dab-4790-978f-6a47cee7f8c9"},"vehicle_type_id":"4","last_reported":1740953265,"current_range_meters":0,"station_id":"ce4bh012rcd13ifvqcv0","pricing_plan_id":"cebpf4jnsgd1na2vs0mg"},{"bike_id":"f196a785-9f77-41c7-872a-663d71337354","system_id":"levelo_inurba_marseille","lat":43.27209,"lon":5.39185,"is_reserved":false,"is_disabled":true,"rental_uris":{"android":"levelo://app?vid=f196a785-9f77-41c7-872a-663d71337354","ios":"levelo://app?vid=f196a785-9f77-41c7-872a-663d71337354"},"vehicle_type_id":"4","last_reported":1740953265,"current_range_meters":0,"station_id":"ce4bhhp2rcd13ifvqfm0","pricing_plan_id":"cebpf4jnsgd1na2vs0mg"},{"bike_id":"07b77577-e8a4-4f1c-8356-a31af5db79f7","system_id":"levelo_inurba_marseille","lat":43.25722,"lon":5.41115,"is_reserved":false,"is_disabled":true,"rental_uris":{"android":"levelo://app?vid=07b77577-e8a4-4f1c-8356-a31af5db79f7","ios":"levelo://app?vid=07b77577-e8a4-4f1c-8356-a31af5db79f7"},"vehicle_type_id":"4","last_reported":1740953265,"current_range_meters":0,"station_id":"ce4bhkp2rcd13ifvqgd0","pricing_plan_id":"cebpf4jnsgd1na2vs0mg"},{"bike_id":"5470a9d6-cc14-47be-aa41-6413d29a0781","system_id":"levelo_inurba_marseille","lat":43.23147,"lon":5.43701,"is_reserved":false,"is_disabled":true,"rental_uris":{"android":"levelo://app?vid=5470a9d6-cc14-47be-aa41-6413d29a0781","ios":"levelo://app?vid=5470a9d6-cc14-47be-aa41-6413d29a0781"},"vehicle_type_id":"4","last_reported":1740953265,"current_range_meters":0,"station_id":"ce4bhmp2rcd13ifvqgog","pricing_plan_id":"cebpf4jnsgd1na2vs0mg"},{"bike_id":"d000173b-3e6e-46b8-9984-18e230b90d15","system_id":"levelo_inurba_marseille","lat":43.2319,"lon":5.3556,"is_reserved":false,"is_disabled":true,"rental_uris":{"android":"levelo://app?vid=d000173b-3e6e-46b8-9984-18e230b90d15","ios":"levelo://app?vid=d000173b-3e6e-46b8-9984-18e230b90d15"},"vehicle_type_id":"4","last_reported":1740953265,"current_range_meters":0,"station_id":"ce4bhu92rcd13ifvqi70","pricing_plan_id":"cebpf4jnsgd1na2vs0mg"},{"bike_id":"a65cb524-c756-42a0-9639-a6505770c05b","system_id":"levelo_inurba_marseille","lat":43.35027,"lon":5.36692,"is_reserved":false,"is_disabled":true,"rental_uris":{"android":"levelo://app?vid=a65cb524-c756-42a0-9639-a6505770c05b","ios":"levelo://app?vid=a65cb524-c756-42a0-9639-a6505770c05b"},"vehicle_type_id":"4","last_reported":1740953265,"current_range_meters":400,"station_id":"","pricing_plan_id":"cebpf4jnsgd1na2vs0mg"},{"bike_id":"5e41ebac-b19a-42ea-ac5e-08806c6478bf","system_id":"levelo_inurba_marseille","lat":43.3119,"lon":5.38713,"is_reserved":false,"is_disabled":true,"rental_uris":{"android":"levelo://app?vid=5e41ebac-b19a-42ea-ac5e-08806c6478bf","ios":"levelo://app?vid=5e41ebac-b19a-42ea-ac5e-08806c6478bf"},"vehicle_type_id":"4","last_reported":1740953265,"current_range_meters":400,"station_id":"ce4bgv12rcd13ifvqcp0","pricing_plan_id":"cebpf4jnsgd1na2vs0mg"},{"bike_id":"f5cdbd46-c5c8-4cb6-902b-a441c586f8bf","system_id":"levelo_inurba_marseille","lat":43.30877,"lon":5.3964,"is_reserved":false,"is_disabled":true,"rental_uris":{"android":"levelo://app?vid=f5cdbd46-c5c8-4cb6-902b-a441c586f8bf","ios":"levelo://app?vid=f5cdbd46-c5c8-4cb6-902b-a441c586f8bf"},"vehicle_type_id":"4","last_reported":1740953265,"current_range_meters":400,"station_id":"ce4bh012rcd13ifvqcv0","pricing_plan_id":"cebpf4jnsgd1na2vs0mg"},{"bike_id":"6bead628-b45f-47a3-8763-22c7c035af2e","system_id":"levelo_inurba_marseille","lat":43.33246,"lon":5.39759,"is_reserved":false,"is_disabled":true,"rental_uris":{"android":"levelo://app?vid=6bead628-b45f-47a3-8763-22c7c035af2e","ios":"levelo://app?vid=6bead628-b45f-47a3-8763-22c7c035af2e"},"vehicle_type_id":"4","last_reported":1740953265,"current_range_meters":800,"station_id":"","pricing_plan_id":"cebpf4jnsgd1na2vs0mg"},{"bike_id":"37027680-60c8-47ac-a054-ecb5f9410b1d","system_id":"levelo_inurba_marseille","lat":43.27999,"lon":5.41653,"is_reserved":false,"is_disabled":true,"rental_uris":{"android":"levelo://app?vid=37027680-60c8-47ac-a054-ecb5f9410b1d","ios":"levelo://app?vid=37027680-60c8-47ac-a054-ecb5f9410b1d"},"vehicle_type_id":"4","last_reported":1740953265,"current_range_meters":800,"station_id":"ce4bho12rcd13ifvqh1g","pricing_plan_id":"cebpf4jnsgd1na2vs0mg"},{"bike_id":"297c0bb7-18e9-46f6-bbeb-ab0bf743200a","system_id":"levelo_inurba_marseille","lat":43.29558,"lon":5.42284,"is_reserved":false,"is_disabled":true,"rental_uris":{"android":"levelo://app?vid=297c0bb7-18e9-46f6-bbeb-ab0bf743200a","ios":"levelo://app?vid=297c0bb7-18e9-46f6-bbeb-ab0bf743200a"},"vehicle_type_id":"4","last_reported":1740953265,"current_range_meters":800,"station_id":"ce4bhph2rcd13ifvqhdg","pricing_plan_id":"cebpf4jnsgd1na2vs0mg"},{"bike_id":"c9c6f74c-af47-4e7f-90fc-7a80a710863b","system_id":"levelo_inurba_marseille","lat":43.32362,"lon":5.38899,"is_reserved":false,"is_disabled":true,"rental_uris":{"android":"levelo://app?vid=c9c6f74c-af47-4e7f-90fc-7a80a710863b","ios":"levelo://app?vid=c9c6f74c-af47-4e7f-90fc-7a80a710863b"},"vehicle_type_id":"4","last_reported":1740953265,"current_range_meters":800,"station_id":"ce4bhqp2rcd13ifvqhog","pricing_plan_id":"cebpf4jnsgd1na2vs0mg"},{"bike_id":"cafc6b7c-e658-40c8-abd3-ef3ab7526eb9","system_id":"levelo_inurba_marseille","lat":43.27496,"lon":5.42455,"is_reserved":false,"is_disabled":true,"rental_uris":{"android":"levelo://app?vid=cafc6b7c-e658-40c8-abd3-ef3ab7526eb9","ios":"levelo://app?vid=cafc6b7c-e658-40c8-abd3-ef3ab7526eb9"},"vehicle_type_id":"4","last_reported":1740953265,"current_range_meters":1200,"station_id":"ce4bhn92rcd13ifvqgrg","pricing_plan_id":"cebpf4jnsgd1na2vs0mg"},{"bike_id":"3b0617cd-034a-4e00-a26c-30bb9cda1e8f","system_id":"levelo_inurba_marseille","lat":43.31068,"lon":5.38355,"is_reserved":false,"is_disabled":true,"rental_uris":{"android":"levelo://app?vid=3b0617cd-034a-4e00-a26c-30bb9cda1e8f","ios":"levelo://app?vid=3b0617cd-034a-4e00-a26c-30bb9cda1e8f"},"vehicle_type_id":"4","last_reported":1740953265,"current_range_meters":1600,"station_id":"ce4bgv92rcd13ifvqcr0","pricing_plan_id":"cebpf4jnsgd1na2vs0mg"},{"bike_id":"9bd5a280-c0f8-4724-ace0-0c317306efc0","system_id":"levelo_inurba_marseille","lat":43.29272,"lon":5.40111,"is_reserved":false,"is_disabled":true,"rental_uris":{"android":"levelo://app?vid=9bd5a280-c0f8-4724-ace0-0c317306efc0","ios":"levelo://app?vid=9bd5a280-c0f8-4724-ace0-0c317306efc0"},"vehicle_type_id":"4","last_reported":1740953265,"current_range_meters":1600,"station_id":"ce4bh312rcd13ifvqdk0","pricing_plan_id":"cebpf4jnsgd1na2vs0mg"},{"bike_id":"09dd3675-3481-4067-a8c0-48ac686f0f03","system_id":"levelo_inurba_marseille","lat":43.27927,"lon":5.42665,"is_reserved":false,"is_disabled":false,"rental_uris":{"android":"levelo://app?vid=09dd3675-3481-4067-a8c0-48ac686f0f03","ios":"levelo://app?vid=09dd3675-3481-4067-a8c0-48ac686f0f03"},"vehicle_type_id":"4","last_reported":1740953265,"current_range_meters":2800,"station_id":"","pricing_plan_id":"cebpf4jnsgd1na2vs0mg"},{"bike_id":"80bd9ceb-323c-4f20-a137-9cbe0eb9c79c","system_id":"levelo_inurba_marseille","lat":43.28149,"lon":5.44571,"is_reserved":false,"is_disabled":false,"rental_uris":{"android":"levelo://app?vid=80bd9ceb-323c-4f20-a137-9cbe0eb9c79c","ios":"levelo://app?vid=80bd9ceb-323c-4f20-a137-9cbe0eb9c79c"},"vehicle_type_id":"4","last_reported":1740953265,"current_range_meters":2800,"station_id":"","pricing_plan_id":"cebpf4jnsgd1na2vs0mg"},{"bike_id":"78fe23d3-44a1-4b20-8edc-570083bb03c0","system_id":"levelo_inurba_marseille","lat":43.25015,"lon":5.38946,"is_reserved":false,"is_disabled":false,"rental_uris":{"android":"levelo://app?vid=78fe23d3-44a1-4b20-8edc-570083bb03c0","ios":"levelo://app?vid=78fe23d3-44a1-4b20-8edc-570083bb03c0"},"vehicle_type_id":"4","last_reported":1740953265,"current_range_meters":2800,"station_id":"ce4bhgp2rcd13ifvqfd0","pricing_plan_id":"cebpf4jnsgd1na2vs0mg"},{"bike_id":"05efb80a-a1a5-4b4d-8733-2780fddf4e5b","system_id":"levelo_inurba_marseille","lat":43.28069,"lon":5.4081,"is_reserved":false,"is_disabled":false,"rental_uris":{"android":"levelo://app?vid=05efb80a-a1a5-4b4d-8733-2780fddf4e5b","ios":"levelo://app?vid=05efb80a-a1a5-4b4d-8733-2780fddf4e5b"},"vehicle_type_id":"4","last_reported":1740953265,"current_range_meters":3200,"station_id":"","pricing_plan_id":"cebpf4jnsgd1na2vs0mg"},{"bike_id":"b07555c5-3a6c-4852-8dfe-5f8cb9c6048e","system_id":"levelo_inurba_marseille","lat":43.28147,"lon":5.42634,"is_reserved":false,"is_disabled":false,"rental_uris":{"android":"levelo://app?vid=b07555c5-3a6c-4852-8dfe-5f8cb9c6048e","ios":"levelo://app?vid=b07555c5-3a6c-4852-8dfe-5f8cb9c6048e"},"vehicle_type_id":"4","last_reported":1740953265,"current_range_meters":3200,"station_id":"ce4bhnh2rcd13ifvqgug","pricing_plan_id":"cebpf4jnsgd1na2vs0mg"},{"bike_id":"d5de36dd-5d22-4765-8f01-09ddd8b02c2e","system_id":"levelo_inurba_marseille","lat":43.32953,"lon":5.409,"is_reserved":false,"is_disabled":false,"rental_uris":{"android":"levelo://app?vid=d5de36dd-5d22-4765-8f01-09ddd8b02c2e","ios":"levelo://app?vid=d5de36dd-5d22-4765-8f01-09ddd8b02c2e"},"vehicle_type_id":"4","last_reported":1740953265,"current_range_meters":3600,"station_id":"","pricing_plan_id":"cebpf4jnsgd1na2vs0mg"},{"bike_id":"bbfd2121-d605-4774-ba32-5ad06351b622","system_id":"levelo_inurba_marseille","lat":43.31379,"lon":5.38488,"is_reserved":false,"is_disabled":false,"rental_uris":{"android":"levelo://app?vid=bbfd2121-d605-4774-ba32-5ad06351b622","ios":"levelo://app?vid=bbfd2121-d605-4774-ba32-5ad06351b622"},"vehicle_type_id":"4","last_reported":1740953265,"current_range_meters":4000,"station_id":"ce4bgt92rcd13ifvqcf0","pricing_plan_id":"cebpf4jnsgd1na2vs0mg"},{"bike_id":"a3100b3c-d204-4694-98d2-c99d42b8f0ba","system_id":"levelo_inurba_marseille","lat":43.25097,"lon":5.40362,"is_reserved":false,"is_disabled":false,"rental_uris":{"android":"levelo://app?vid=a3100b3c-d204-4694-98d2-c99d42b8f0ba","ios":"levelo://app?vid=a3100b3c-d204-4694-98d2-c99d42b8f0ba"},"vehicle_type_id":"4","last_reported":1740953265,"current_range_meters":4000,"station_id":"ce4bhlh2rcd13ifvqgig","pricing_plan_id":"cebpf4jnsgd1na2vs0mg"},{"bike_id":"1646e501-b1ed-4a8a-92fd-76a38827e611","system_id":"levelo_inurba_marseille","lat":43.31994,"lon":5.38144,"is_reserved":false,"is_disabled":false,"rental_uris":{"android":"levelo://app?vid=1646e501-b1ed-4a8a-92fd-76a38827e611","ios":"levelo://app?vid=1646e501-b1ed-4a8a-92fd-76a38827e611"},"vehicle_type_id":"4","last_reported":1740953265,"current_range_meters":4000,"station_id":"ce4bhr12rcd13ifvqhpg","pricing_plan_id":"cebpf4jnsgd1na2vs0mg"},{"bike_id":"2fcd25b0-c421-4d0f-ba30-5f6f5ff608f3","system_id":"levelo_inurba_marseille","lat":43.30755,"lon":5.38627,"is_reserved":false,"is_disabled":false,"rental_uris":{"android":"levelo://app?vid=2fcd25b0-c421-4d0f-ba30-5f6f5ff608f3","ios":"levelo://app?vid=2fcd25b0-c421-4d0f-ba30-5f6f5ff608f3"},"vehicle_type_id":"4","last_reported":1740953265,"current_range_meters":4400,"station_id":"","pricing_plan_id":"cebpf4jnsgd1na2vs0mg"},{"bike_id":"57ca885b-c340-4689-9fde-0eb95e62e97b","system_id":"levelo_inurba_marseille","lat":43.29799,"lon":5.381,"is_reserved":false,"is_disabled":false,"rental_uris":{"android":"levelo://app?vid=57ca885b-c340-4689-9fde-0eb95e62e97b","ios":"levelo://app?vid=57ca885b-c340-4689-9fde-0eb95e62e97b"},"vehicle_type_id":"4","last_reported":1740953265,"current_range_meters":4400,"station_id":"ce4bgip2rcd13ifvqbb0","pricing_plan_id":"cebpf4jnsgd1na2vs0mg"},{"bike_id":"1c77af3e-ba46-44fb-aaf7-65314955d8b7","system_id":"levelo_inurba_marseille","lat":43.29602,"lon":5.38091,"is_reserved":false,"is_disabled":false,"rental_uris":{"android":"levelo://app?vid=1c77af3e-ba46-44fb-aaf7-65314955d8b7","ios":"levelo://app?vid=1c77af3e-ba46-44fb-aaf7-65314955d8b7"},"vehicle_type_id":"4","last_reported":1740953265,"current_range_meters":4400,"station_id":"ce4bgl12rcd13ifvqbo0","pricing_plan_id":"cebpf4jnsgd1na2vs0mg"},{"bike_id":"4d2fb8b3-56e0-4564-90a6-dae11c646c53","system_id":"levelo_inurba_marseille","lat":43.28848,"lon":5.39326,"is_reserved":false,"is_disabled":false,"rental_uris":{"android":"levelo://app?vid=4d2fb8b3-56e0-4564-90a6-dae11c646c53","ios":"levelo://app?vid=4d2fb8b3-56e0-4564-90a6-dae11c646c53"},"vehicle_type_id":"4","last_reported":1740953265,"current_range_meters":4400,"station_id":"ce4bh2p2rcd13ifvqdi0","pricing_plan_id":"cebpf4jnsgd1na2vs0mg"},{"bike_id":"020e76f3-8739-43a9-87b2-4eef420375ab","system_id":"levelo_inurba_marseille","lat":43.28446,"lon":5.39202,"is_reserved":false,"is_disabled":false,"rental_uris":{"android":"levelo://app?vid=020e76f3-8739-43a9-87b2-4eef420375ab","ios":"levelo://app?vid=020e76f3-8739-43a9-87b2-4eef420375ab"},"vehicle_type_id":"4","last_reported":1740953265,"current_range_meters":4800,"station_id":"ce4bhoh2rcd13ifvqh5g","pricing_plan_id":"cebpf4jnsgd1na2vs0mg"},{"bike_id":"e913bf1c-62e3-449e-bff2-f1f8b1e444ed","system_id":"levelo_inurba_marseille","lat":43.30964,"lon":5.3716,"is_reserved":false,"is_disabled":false,"rental_uris":{"android":"levelo://app?vid=e913bf1c-62e3-449e-bff2-f1f8b1e444ed","ios":"levelo://app?vid=e913bf1c-62e3-449e-bff2-f1f8b1e444ed"},"vehicle_type_id":"4","last_reported":1740953265,"current_range_meters":5600,"station_id":"","pricing_plan_id":"cebpf4jnsgd1na2vs0mg"},{"bike_id":"53ebed9a-fd1a-4d94-96e3-0c8bc5887ace","system_id":"levelo_inurba_marseille","lat":43.3141,"lon":5.3938,"is_reserved":false,"is_disabled":false,"rental_uris":{"android":"levelo://app?vid=53ebed9a-fd1a-4d94-96e3-0c8bc5887ace","ios":"levelo://app?vid=53ebed9a-fd1a-4d94-96e3-0c8bc5887ace"},"vehicle_type_id":"4","last_reported":1740953265,"current_range_meters":6000,"station_id":"","pricing_plan_id":"cebpf4jnsgd1na2vs0mg"},{"bike_id":"ae03108c-e447-492c-923f-9045e585e378","system_id":"levelo_inurba_marseille","lat":43.31224,"lon":5.36843,"is_reserved":false,"is_disabled":true,"rental_uris":{"android":"levelo://app?vid=ae03108c-e447-492c-923f-9045e585e378","ios":"levelo://app?vid=ae03108c-e447-492c-923f-9045e585e378"},"vehicle_type_id":"4","last_reported":1740953265,"current_range_meters":6400,"station_id":"ce4bgl92rcd13ifvqbq0","pricing_plan_id":"cebpf4jnsgd1na2vs0mg"},{"bike_id":"b811c60a-6933-40a7-84ba-ba9cab9803d2","system_id":"levelo_inurba_marseille","lat":43.24997,"lon":5.38948,"is_reserved":false,"is_disabled":false,"rental_uris":{"android":"levelo://app?vid=b811c60a-6933-40a7-84ba-ba9cab9803d2","ios":"levelo://app?vid=b811c60a-6933-40a7-84ba-ba9cab9803d2"},"vehicle_type_id":"4","last_reported":1740953265,"current_range_meters":6400,"station_id":"ce4bhgp2rcd13ifvqfd0","pricing_plan_id":"cebpf4jnsgd1na2vs0mg"},{"bike_id":"ea731fe0-f368-4c85-8313-0d046c7fe180","system_id":"levelo_inurba_marseille","lat":43.31197,"lon":5.37222,"is_reserved":false,"is_disabled":false,"rental_uris":{"android":"levelo://app?vid=ea731fe0-f368-4c85-8313-0d046c7fe180","ios":"levelo://app?vid=ea731fe0-f368-4c85-8313-0d046c7fe180"},"vehicle_type_id":"4","last_reported":1740953265,"current_range_meters":6800,"station_id":"","pricing_plan_id":"cebpf4jnsgd1na2vs0mg"},{"bike_id":"8efca51d-c83e-41ea-8f50-e7b7c09a505d","system_id":"levelo_inurba_marseille","lat":43.28477,"lon":5.38419,"is_reserved":false,"is_disabled":false,"rental_uris":{"android":"levelo://app?vid=8efca51d-c83e-41ea-8f50-e7b7c09a505d","ios":"levelo://app?vid=8efca51d-c83e-41ea-8f50-e7b7c09a505d"},"vehicle_type_id":"4","last_reported":1740953265,"current_range_meters":6800,"station_id":"ce4bh512rcd13ifvqe3g","pricing_plan_id":"cebpf4jnsgd1na2vs0mg"},{"bike_id":"04b3114d-71e2-4665-b060-3924ff591f86","system_id":"levelo_inurba_marseille","lat":43.28614,"lon":5.35112,"is_reserved":false,"is_disabled":false,"rental_uris":{"android":"levelo://app?vid=04b3114d-71e2-4665-b060-3924ff591f86","ios":"levelo://app?vid=04b3114d-71e2-4665-b060-3924ff591f86"},"vehicle_type_id":"4","last_reported":1740953265,"current_range_meters":6800,"station_id":"ce4bhch2rcd13ifvqeug","pricing_plan_id":"cebpf4jnsgd1na2vs0mg"},{"bike_id":"318dcb1b-9247-409e-9dad-ff18bd11104d","system_id":"levelo_inurba_marseille","lat":43.24794,"lon":5.37452,"is_reserved":false,"is_disabled":false,"rental_uris":{"android":"levelo://app?vid=318dcb1b-9247-409e-9dad-ff18bd11104d","ios":"levelo://app?vid=318dcb1b-9247-409e-9dad-ff18bd11104d"},"vehicle_type_id":"4","last_reported":1740953265,"current_range_meters":6800,"station_id":"ce4bhgh2rcd13ifvqfb0","pricing_plan_id":"cebpf4jnsgd1na2vs0mg"},{"bike_id":"fcddcf6e-0309-42bd-8c02-daddb266a538","system_id":"levelo_inurba_marseille","lat":43.258884,"lon":5.384704,"is_reserved":false,"is_disabled":false,"rental_uris":{"android":"levelo://app?vid=fcddcf6e-0309-42bd-8c02-daddb266a538","ios":"levelo://app?vid=fcddcf6e-0309-42bd-8c02-daddb266a538"},"vehicle_type_id":"4","last_reported":1740953265,"current_range_meters":6800,"station_id":"ce4bhih2rcd13ifvqfs0","pricing_plan_id":"cebpf4jnsgd1na2vs0mg"},{"bike_id":"eafe4694-db55-4cde-85aa-971c3787bde8","system_id":"levelo_inurba_marseille","lat":43.24167,"lon":5.36414,"is_reserved":false,"is_disabled":false,"rental_uris":{"android":"levelo://app?vid=eafe4694-db55-4cde-85aa-971c3787bde8","ios":"levelo://app?vid=eafe4694-db55-4cde-85aa-971c3787bde8"},"vehicle_type_id":"4","last_reported":1740953265,"current_range_meters":6800,"station_id":"cpo36qri1sfpv3e86is0","pricing_plan_id":"cebpf4jnsgd1na2vs0mg"},{"bike_id":"3cbb5843-7d6f-4ab1-8221-c879ecca96e4","system_id":"levelo_inurba_marseille","lat":43.32717,"lon":5.3632,"is_reserved":false,"is_disabled":false,"rental_uris":{"android":"levelo://app?vid=3cbb5843-7d6f-4ab1-8221-c879ecca96e4","ios":"levelo://app?vid=3cbb5843-7d6f-4ab1-8221-c879ecca96e4"},"vehicle_type_id":"4","last_reported":1740953265,"current_range_meters":7200,"station_id":"","pricing_plan_id":"cebpf4jnsgd1na2vs0mg"},{"bike_id":"8e2ea686-2ed9-4286-b302-de7e1e0dbacd","system_id":"levelo_inurba_marseille","lat":43.30274,"lon":5.39668,"is_reserved":false,"is_disabled":false,"rental_uris":{"android":"levelo://app?vid=8e2ea686-2ed9-4286-b302-de7e1e0dbacd","ios":"levelo://app?vid=8e2ea686-2ed9-4286-b302-de7e1e0dbacd"},"vehicle_type_id":"4","last_reported":1740953265,"current_range_meters":7200,"station_id":"","pricing_plan_id":"cebpf4jnsgd1na2vs0mg"},{"bike_id":"76d97f00-053b-4a61-a3cf-c4ee7e918fe4","system_id":"levelo_inurba_marseille","lat":43.31323,"lon":5.39685,"is_reserved":false,"is_disabled":false,"rental_uris":{"android":"levelo://app?vid=76d97f00-053b-4a61-a3cf-c4ee7e918fe4","ios":"levelo://app?vid=76d97f00-053b-4a61-a3cf-c4ee7e918fe4"},"vehicle_type_id":"4","last_reported":1740953265,"current_range_meters":7200,"station_id":"ce4bgvp2rcd13ifvqcu0","pricing_plan_id":"cebpf4jnsgd1na2vs0mg"},{"bike_id":"27ee9ae2-c5e7-4c2e-ad90-0c911cf7f55f","system_id":"levelo_inurba_marseille","lat":43.25009,"lon":5.38925,"is_reserved":false,"is_disabled":false,"rental_uris":{"android":"levelo://app?vid=27ee9ae2-c5e7-4c2e-ad90-0c911cf7f55f","ios":"levelo://app?vid=27ee9ae2-c5e7-4c2e-ad90-0c911cf7f55f"},"vehicle_type_id":"4","last_reported":1740953265,"current_range_meters":7200,"station_id":"ce4bhgp2rcd13ifvqfd0","pricing_plan_id":"cebpf4jnsgd1na2vs0mg"},{"bike_id":"3b899ec8-5a44-4ffd-8e3c-ea3713149e76","system_id":"levelo_inurba_marseille","lat":43.25733,"lon":5.41113,"is_reserved":false,"is_disabled":false,"rental_uris":{"android":"levelo://app?vid=3b899ec8-5a44-4ffd-8e3c-ea3713149e76","ios":"levelo://app?vid=3b899ec8-5a44-4ffd-8e3c-ea3713149e76"},"vehicle_type_id":"4","last_reported":1740953265,"current_range_meters":7200,"station_id":"ce4bhkp2rcd13ifvqgd0","pricing_plan_id":"cebpf4jnsgd1na2vs0mg"},{"bike_id":"da83a632-cd86-47d6-862a-46cfb5563955","system_id":"levelo_inurba_marseille","lat":43.25114,"lon":5.40328,"is_reserved":false,"is_disabled":false,"rental_uris":{"android":"levelo://app?vid=da83a632-cd86-47d6-862a-46cfb5563955","ios":"levelo://app?vid=da83a632-cd86-47d6-862a-46cfb5563955"},"vehicle_type_id":"4","last_reported":1740953265,"current_range_meters":7200,"station_id":"ce4bhlh2rcd13ifvqgig","pricing_plan_id":"cebpf4jnsgd1na2vs0mg"},{"bike_id":"97e8d4c3-f9a5-4604-95d3-9a0f93d23194","system_id":"levelo_inurba_marseille","lat":43.291916,"lon":5.40893,"is_reserved":false,"is_disabled":false,"rental_uris":{"android":"levelo://app?vid=97e8d4c3-f9a5-4604-95d3-9a0f93d23194","ios":"levelo://app?vid=97e8d4c3-f9a5-4604-95d3-9a0f93d23194"},"vehicle_type_id":"4","last_reported":1740953265,"current_range_meters":8000,"station_id":"","pricing_plan_id":"cebpf4jnsgd1na2vs0mg"},{"bike_id":"e151f398-bc42-4dd9-9bc3-ea73757a0d45","system_id":"levelo_inurba_marseille","lat":43.31324,"lon":5.39701,"is_reserved":false,"is_disabled":false,"rental_uris":{"android":"levelo://app?vid=e151f398-bc42-4dd9-9bc3-ea73757a0d45","ios":"levelo://app?vid=e151f398-bc42-4dd9-9bc3-ea73757a0d45"},"vehicle_type_id":"4","last_reported":1740953265,"current_range_meters":8000,"station_id":"ce4bgvp2rcd13ifvqcu0","pricing_plan_id":"cebpf4jnsgd1na2vs0mg"},{"bike_id":"0e314370-1306-42e4-b2ab-3264c713c460","system_id":"levelo_inurba_marseille","lat":43.27835,"lon":5.39209,"is_reserved":false,"is_disabled":false,"rental_uris":{"android":"levelo://app?vid=0e314370-1306-42e4-b2ab-3264c713c460","ios":"levelo://app?vid=0e314370-1306-42e4-b2ab-3264c713c460"},"vehicle_type_id":"4","last_reported":1740953265,"current_range_meters":8000,"station_id":"ce4bhjp2rcd13ifvqga0","pricing_plan_id":"cebpf4jnsgd1na2vs0mg"},{"bike_id":"3a00af1d-64b3-4f0c-9ae0-dc76fb5014f4","system_id":"levelo_inurba_marseille","lat":43.29556,"lon":5.42272,"is_reserved":false,"is_disabled":false,"rental_uris":{"android":"levelo://app?vid=3a00af1d-64b3-4f0c-9ae0-dc76fb5014f4","ios":"levelo://app?vid=3a00af1d-64b3-4f0c-9ae0-dc76fb5014f4"},"vehicle_type_id":"4","last_reported":1740953265,"current_range_meters":8000,"station_id":"ce4bhph2rcd13ifvqhdg","pricing_plan_id":"cebpf4jnsgd1na2vs0mg"},{"bike_id":"0693b9d6-4a9d-4e38-bfa2-80f934bcc2e3","system_id":"levelo_inurba_marseille","lat":43.2417,"lon":5.36402,"is_reserved":false,"is_disabled":false,"rental_uris":{"android":"levelo://app?vid=0693b9d6-4a9d-4e38-bfa2-80f934bcc2e3","ios":"levelo://app?vid=0693b9d6-4a9d-4e38-bfa2-80f934bcc2e3"},"vehicle_type_id":"4","last_reported":1740953265,"current_range_meters":8000,"station_id":"cpo36qri1sfpv3e86is0","pricing_plan_id":"cebpf4jnsgd1na2vs0mg"},{"bike_id":"0e4d5d36-7d5d-4fbf-9597-759cc9a1b223","system_id":"levelo_inurba_marseille","lat":43.30563,"lon":5.37246,"is_reserved":false,"is_disabled":false,"rental_uris":{"android":"levelo://app?vid=0e4d5d36-7d5d-4fbf-9597-759cc9a1b223","ios":"levelo://app?vid=0e4d5d36-7d5d-4fbf-9597-759cc9a1b223"},"vehicle_type_id":"4","last_reported":1740953265,"current_range_meters":8400,"station_id":"","pricing_plan_id":"cebpf4jnsgd1na2vs0mg"},{"bike_id":"8d351040-3fc2-4c93-82a1-c66ebec4a7f0","system_id":"levelo_inurba_marseille","lat":43.27916,"lon":5.39588,"is_reserved":false,"is_disabled":false,"rental_uris":{"android":"levelo://app?vid=8d351040-3fc2-4c93-82a1-c66ebec4a7f0","ios":"levelo://app?vid=8d351040-3fc2-4c93-82a1-c66ebec4a7f0"},"vehicle_type_id":"4","last_reported":1740953265,"current_range_meters":8400,"station_id":"ce4bhf92rcd13ifvqf40","pricing_plan_id":"cebpf4jnsgd1na2vs0mg"},{"bike_id":"5365f3e3-1095-4284-be0e-5e73a795384b","system_id":"levelo_inurba_marseille","lat":43.25729,"lon":5.41107,"is_reserved":false,"is_disabled":false,"rental_uris":{"android":"levelo://app?vid=5365f3e3-1095-4284-be0e-5e73a795384b","ios":"levelo://app?vid=5365f3e3-1095-4284-be0e-5e73a795384b"},"vehicle_type_id":"4","last_reported":1740953265,"current_range_meters":8400,"station_id":"ce4bhkp2rcd13ifvqgd0","pricing_plan_id":"cebpf4jnsgd1na2vs0mg"},{"bike_id":"59ef5800-ff3c-4c18-9229-7ba16507dc77","system_id":"levelo_inurba_marseille","lat":43.27827,"lon":5.40753,"is_reserved":false,"is_disabled":false,"rental_uris":{"android":"levelo://app?vid=59ef5800-ff3c-4c18-9229-7ba16507dc77","ios":"levelo://app?vid=59ef5800-ff3c-4c18-9229-7ba16507dc77"},"vehicle_type_id":"4","last_reported":1740953265,"current_range_meters":8400,"station_id":"ce4bhnh2rcd13ifvqgtg","pricing_plan_id":"cebpf4jnsgd1na2vs0mg"},{"bike_id":"de0374b1-5b21-43cc-9ff6-5bd80acc1bd8","system_id":"levelo_inurba_marseille","lat":43.28259,"lon":5.35076,"is_reserved":false,"is_disabled":false,"rental_uris":{"android":"levelo://app?vid=de0374b1-5b21-43cc-9ff6-5bd80acc1bd8","ios":"levelo://app?vid=de0374b1-5b21-43cc-9ff6-5bd80acc1bd8"},"vehicle_type_id":"4","last_reported":1740953265,"current_range_meters":8800,"station_id":"ce4bhbp2rcd13ifvqerg","pricing_plan_id":"cebpf4jnsgd1na2vs0mg"},{"bike_id":"f711a177-8c95-4e96-bcaf-e6e0dc33f59e","system_id":"levelo_inurba_marseille","lat":43.24381,"lon":5.37053,"is_reserved":false,"is_disabled":false,"rental_uris":{"android":"levelo://app?vid=f711a177-8c95-4e96-bcaf-e6e0dc33f59e","ios":"levelo://app?vid=f711a177-8c95-4e96-bcaf-e6e0dc33f59e"},"vehicle_type_id":"4","last_reported":1740953265,"current_range_meters":8800,"station_id":"ce4bhhh2rcd13ifvqfk0","pricing_plan_id":"cebpf4jnsgd1na2vs0mg"},{"bike_id":"5a9ed32d-635a-4b6a-99eb-e8d9d052f6d4","system_id":"levelo_inurba_marseille","lat":43.25714,"lon":5.41104,"is_reserved":false,"is_disabled":false,"rental_uris":{"android":"levelo://app?vid=5a9ed32d-635a-4b6a-99eb-e8d9d052f6d4","ios":"levelo://app?vid=5a9ed32d-635a-4b6a-99eb-e8d9d052f6d4"},"vehicle_type_id":"4","last_reported":1740953265,"current_range_meters":8800,"station_id":"ce4bhkp2rcd13ifvqgd0","pricing_plan_id":"cebpf4jnsgd1na2vs0mg"},{"bike_id":"35d95d72-1d3e-4c7a-b702-cf399579e390","system_id":"levelo_inurba_marseille","lat":43.27813,"lon":5.40711,"is_reserved":false,"is_disabled":false,"rental_uris":{"android":"levelo://app?vid=35d95d72-1d3e-4c7a-b702-cf399579e390","ios":"levelo://app?vid=35d95d72-1d3e-4c7a-b702-cf399579e390"},"vehicle_type_id":"4","last_reported":1740953265,"current_range_meters":8800,"station_id":"ce4bhnh2rcd13ifvqgtg","pricing_plan_id":"cebpf4jnsgd1na2vs0mg"},{"bike_id":"bae8e615-6f72-446a-9e54-b9d8bf3e3a79","system_id":"levelo_inurba_marseille","lat":43.28721,"lon":5.36092,"is_reserved":false,"is_disabled":false,"rental_uris":{"android":"levelo://app?vid=bae8e615-6f72-446a-9e54-b9d8bf3e3a79","ios":"levelo://app?vid=bae8e615-6f72-446a-9e54-b9d8bf3e3a79"},"vehicle_type_id":"4","last_reported":1740953265,"current_range_meters":8800,"station_id":"cki0cbj6b192h4jlfktg","pricing_plan_id":"cebpf4jnsgd1na2vs0mg"},{"bike_id":"ce0b9129-82da-419b-bd6d-729d79c4d8be","system_id":"levelo_inurba_marseille","lat":43.284155,"lon":5.380679,"is_reserved":false,"is_disabled":false,"rental_uris":{"android":"levelo://app?vid=ce0b9129-82da-419b-bd6d-729d79c4d8be","ios":"levelo://app?vid=ce0b9129-82da-419b-bd6d-729d79c4d8be"},"vehicle_type_id":"4","last_reported":1740953265,"current_range_meters":9200,"station_id":"ce4bhg92rcd13ifvqf90","pricing_plan_id":"cebpf4jnsgd1na2vs0mg"},{"bike_id":"97d34d4c-0e7c-4d3d-9a3c-fd26ccd48a3b","system_id":"levelo_inurba_marseille","lat":43.29535,"lon":5.38544,"is_reserved":false,"is_disabled":false,"rental_uris":{"android":"levelo://app?vid=97d34d4c-0e7c-4d3d-9a3c-fd26ccd48a3b","ios":"levelo://app?vid=97d34d4c-0e7c-4d3d-9a3c-fd26ccd48a3b"},"vehicle_type_id":"4","last_reported":1740953265,"current_range_meters":9600,"station_id":"ce4bgih2rcd13ifvqba0","pricing_plan_id":"cebpf4jnsgd1na2vs0mg"},{"bike_id":"8f6ccb25-eead-40b2-a3a0-e6130c68a4ab","system_id":"levelo_inurba_marseille","lat":43.28598,"lon":5.39486,"is_reserved":false,"is_disabled":false,"rental_uris":{"android":"levelo://app?vid=8f6ccb25-eead-40b2-a3a0-e6130c68a4ab","ios":"levelo://app?vid=8f6ccb25-eead-40b2-a3a0-e6130c68a4ab"},"vehicle_type_id":"4","last_reported":1740953265,"current_range_meters":9600,"station_id":"ce4bh292rcd13ifvqdg0","pricing_plan_id":"cebpf4jnsgd1na2vs0mg"},{"bike_id":"d606c3a5-ef02-42b0-930d-884ebc257989","system_id":"levelo_inurba_marseille","lat":43.28698,"lon":5.37403,"is_reserved":false,"is_disabled":false,"rental_uris":{"android":"levelo://app?vid=d606c3a5-ef02-42b0-930d-884ebc257989","ios":"levelo://app?vid=d606c3a5-ef02-42b0-930d-884ebc257989"},"vehicle_type_id":"4","last_reported":1740953265,"current_range_meters":9600,"station_id":"ce4bh3p2rcd13ifvqdq0","pricing_plan_id":"cebpf4jnsgd1na2vs0mg"},{"bike_id":"3197c5b0-21af-481b-bcc8-d254b5db5e46","system_id":"levelo_inurba_marseille","lat":43.27376,"lon":5.36255,"is_reserved":false,"is_disabled":false,"rental_uris":{"android":"levelo://app?vid=3197c5b0-21af-481b-bcc8-d254b5db5e46","ios":"levelo://app?vid=3197c5b0-21af-481b-bcc8-d254b5db5e46"},"vehicle_type_id":"4","last_reported":1740953265,"current_range_meters":9600,"station_id":"ce4bhbh2rcd13ifvqeo0","pricing_plan_id":"cebpf4jnsgd1na2vs0mg"},{"bike_id":"1d3c7fd7-b709-4008-8e9f-a0f764fe60d9","system_id":"levelo_inurba_marseille","lat":43.28212,"lon":5.38625,"is_reserved":false,"is_disabled":false,"rental_uris":{"android":"levelo://app?vid=1d3c7fd7-b709-4008-8e9f-a0f764fe60d9","ios":"levelo://app?vid=1d3c7fd7-b709-4008-8e9f-a0f764fe60d9"},"vehicle_type_id":"4","last_reported":1740953265,"current_range_meters":10000,"station_id":"","pricing_plan_id":"cebpf4jnsgd1na2vs0mg"},{"bike_id":"827852fb-8eea-4d89-a222-a9f71090e1a1","system_id":"levelo_inurba_marseille","lat":43.30951,"lon":5.3904,"is_reserved":false,"is_disabled":false,"rental_uris":{"android":"levelo://app?vid=827852fb-8eea-4d89-a222-a9f71090e1a1","ios":"levelo://app?vid=827852fb-8eea-4d89-a222-a9f71090e1a1"},"vehicle_type_id":"4","last_reported":1740953265,"current_range_meters":10000,"station_id":"ce4bgup2rcd13ifvqco0","pricing_plan_id":"cebpf4jnsgd1na2vs0mg"},{"bike_id":"24c526bd-d370-4ef3-8593-b03621bdcb47","system_id":"levelo_inurba_marseille","lat":43.28399,"lon":5.37528,"is_reserved":false,"is_disabled":false,"rental_uris":{"android":"levelo://app?vid=24c526bd-d370-4ef3-8593-b03621bdcb47","ios":"levelo://app?vid=24c526bd-d370-4ef3-8593-b03621bdcb47"},"vehicle_type_id":"4","last_reported":1740953265,"current_range_meters":10000,"station_id":"ce4bh412rcd13ifvqds0","pricing_plan_id":"cebpf4jnsgd1na2vs0mg"},{"bike_id":"f7201458-4a84-41e3-9432-885042a6d55a","system_id":"levelo_inurba_marseille","lat":43.26207,"lon":5.3745,"is_reserved":false,"is_disabled":false,"rental_uris":{"android":"levelo://app?vid=f7201458-4a84-41e3-9432-885042a6d55a","ios":"levelo://app?vid=f7201458-4a84-41e3-9432-885042a6d55a"},"vehicle_type_id":"4","last_reported":1740953265,"current_range_meters":10000,"station_id":"ce4bhgp2rcd13ifvqfc0","pricing_plan_id":"cebpf4jnsgd1na2vs0mg"},{"bike_id":"d15a920c-600b-4ae1-bbc4-6f27080680ca","system_id":"levelo_inurba_marseille","lat":43.24672,"lon":5.38155,"is_reserved":false,"is_disabled":false,"rental_uris":{"android":"levelo://app?vid=d15a920c-600b-4ae1-bbc4-6f27080680ca","ios":"levelo://app?vid=d15a920c-600b-4ae1-bbc4-6f27080680ca"},"vehicle_type_id":"4","last_reported":1740953265,"current_range_meters":10000,"station_id":"ce4bhih2rcd13ifvqfr0","pricing_plan_id":"cebpf4jnsgd1na2vs0mg"},{"bike_id":"c883cb19-6a18-4d7a-89ca-779f5c64b781","system_id":"levelo_inurba_marseille","lat":43.27826,"lon":5.392,"is_reserved":false,"is_disabled":false,"rental_uris":{"android":"levelo://app?vid=c883cb19-6a18-4d7a-89ca-779f5c64b781","ios":"levelo://app?vid=c883cb19-6a18-4d7a-89ca-779f5c64b781"},"vehicle_type_id":"4","last_reported":1740953265,"current_range_meters":10000,"station_id":"ce4bhjp2rcd13ifvqga0","pricing_plan_id":"cebpf4jnsgd1na2vs0mg"},{"bike_id":"902d4f9e-c598-4fd4-bd35-847d4b7a6b35","system_id":"levelo_inurba_marseille","lat":43.2781,"lon":5.40715,"is_reserved":false,"is_disabled":false,"rental_uris":{"android":"levelo://app?vid=902d4f9e-c598-4fd4-bd35-847d4b7a6b35","ios":"levelo://app?vid=902d4f9e-c598-4fd4-bd35-847d4b7a6b35"},"vehicle_type_id":"4","last_reported":1740953265,"current_range_meters":10000,"station_id":"ce4bhnh2rcd13ifvqgtg","pricing_plan_id":"cebpf4jnsgd1na2vs0mg"},{"bike_id":"4cb16c1e-94e8-463e-9f2d-59234e663607","system_id":"levelo_inurba_marseille","lat":43.28724,"lon":5.36085,"is_reserved":false,"is_disabled":false,"rental_uris":{"android":"levelo://app?vid=4cb16c1e-94e8-463e-9f2d-59234e663607","ios":"levelo://app?vid=4cb16c1e-94e8-463e-9f2d-59234e663607"},"vehicle_type_id":"4","last_reported":1740953265,"current_range_meters":10000,"station_id":"cki0cbj6b192h4jlfktg","pricing_plan_id":"cebpf4jnsgd1na2vs0mg"},{"bike_id":"3c9c65ff-a2a8-4c52-a6f4-62bcc77556ef","system_id":"levelo_inurba_marseille","lat":43.24141,"lon":5.36441,"is_reserved":false,"is_disabled":false,"rental_uris":{"android":"levelo://app?vid=3c9c65ff-a2a8-4c52-a6f4-62bcc77556ef","ios":"levelo://app?vid=3c9c65ff-a2a8-4c52-a6f4-62bcc77556ef"},"vehicle_type_id":"4","last_reported":1740953265,"current_range_meters":10000,"station_id":"cpo36qri1sfpv3e86is0","pricing_plan_id":"cebpf4jnsgd1na2vs0mg"},{"bike_id":"88d09cbc-1497-4fea-99b9-c1fe29ff58f0","system_id":"levelo_inurba_marseille","lat":43.28054,"lon":5.36601,"is_reserved":false,"is_disabled":false,"rental_uris":{"android":"levelo://app?vid=88d09cbc-1497-4fea-99b9-c1fe29ff58f0","ios":"levelo://app?vid=88d09cbc-1497-4fea-99b9-c1fe29ff58f0"},"vehicle_type_id":"4","last_reported":1740953265,"current_range_meters":10800,"station_id":"","pricing_plan_id":"cebpf4jnsgd1na2vs0mg"},{"bike_id":"367fb4ce-d5e7-4054-aafc-c4d30cf921b6","system_id":"levelo_inurba_marseille","lat":43.29618,"lon":5.37311,"is_reserved":false,"is_disabled":false,"rental_uris":{"android":"levelo://app?vid=367fb4ce-d5e7-4054-aafc-c4d30cf921b6","ios":"levelo://app?vid=367fb4ce-d5e7-4054-aafc-c4d30cf921b6"},"vehicle_type_id":"4","last_reported":1740953265,"current_range_meters":10800,"station_id":"","pricing_plan_id":"cebpf4jnsgd1na2vs0mg"},{"bike_id":"a3e4e670-96af-42cb-8c2e-a7c558780b0b","system_id":"levelo_inurba_marseille","lat":43.24067,"lon":5.37767,"is_reserved":false,"is_disabled":false,"rental_uris":{"android":"levelo://app?vid=a3e4e670-96af-42cb-8c2e-a7c558780b0b","ios":"levelo://app?vid=a3e4e670-96af-42cb-8c2e-a7c558780b0b"},"vehicle_type_id":"4","last_reported":1740953265,"current_range_meters":10800,"station_id":"ce4bhnp2rcd13ifvqgvg","pricing_plan_id":"cebpf4jnsgd1na2vs0mg"},{"bike_id":"41e9e4b8-e4ab-4977-92a7-bb833bde980c","system_id":"levelo_inurba_marseille","lat":43.29554,"lon":5.4228,"is_reserved":false,"is_disabled":false,"rental_uris":{"android":"levelo://app?vid=41e9e4b8-e4ab-4977-92a7-bb833bde980c","ios":"levelo://app?vid=41e9e4b8-e4ab-4977-92a7-bb833bde980c"},"vehicle_type_id":"4","last_reported":1740953265,"current_range_meters":10800,"station_id":"ce4bhph2rcd13ifvqhdg","pricing_plan_id":"cebpf4jnsgd1na2vs0mg"},{"bike_id":"61e3c74e-7012-4cb6-8ef4-17db5d82fdf7","system_id":"levelo_inurba_marseille","lat":43.25323,"lon":5.3928,"is_reserved":false,"is_disabled":false,"rental_uris":{"android":"levelo://app?vid=61e3c74e-7012-4cb6-8ef4-17db5d82fdf7","ios":"levelo://app?vid=61e3c74e-7012-4cb6-8ef4-17db5d82fdf7"},"vehicle_type_id":"4","last_reported":1740953265,"current_range_meters":11200,"station_id":"","pricing_plan_id":"cebpf4jnsgd1na2vs0mg"},{"bike_id":"afaa6ab0-706f-48b9-9e8b-246ecf081361","system_id":"levelo_inurba_marseille","lat":43.24391,"lon":5.37054,"is_reserved":false,"is_disabled":false,"rental_uris":{"android":"levelo://app?vid=afaa6ab0-706f-48b9-9e8b-246ecf081361","ios":"levelo://app?vid=afaa6ab0-706f-48b9-9e8b-246ecf081361"},"vehicle_type_id":"4","last_reported":1740953265,"current_range_meters":11200,"station_id":"ce4bhhh2rcd13ifvqfk0","pricing_plan_id":"cebpf4jnsgd1na2vs0mg"},{"bike_id":"a20e6d10-3a48-45b7-92fd-a1243587151b","system_id":"levelo_inurba_marseille","lat":43.25104,"lon":5.40332,"is_reserved":false,"is_disabled":false,"rental_uris":{"android":"levelo://app?vid=a20e6d10-3a48-45b7-92fd-a1243587151b","ios":"levelo://app?vid=a20e6d10-3a48-45b7-92fd-a1243587151b"},"vehicle_type_id":"4","last_reported":1740953265,"current_range_meters":11200,"station_id":"ce4bhlh2rcd13ifvqgig","pricing_plan_id":"cebpf4jnsgd1na2vs0mg"},{"bike_id":"12ab922a-f881-4968-9e63-ec8d58f2ca05","system_id":"levelo_inurba_marseille","lat":43.24808,"lon":5.37447,"is_reserved":false,"is_disabled":false,"rental_uris":{"android":"levelo://app?vid=12ab922a-f881-4968-9e63-ec8d58f2ca05","ios":"levelo://app?vid=12ab922a-f881-4968-9e63-ec8d58f2ca05"},"vehicle_type_id":"4","last_reported":1740953265,"current_range_meters":11600,"station_id":"ce4bhgh2rcd13ifvqfb0","pricing_plan_id":"cebpf4jnsgd1na2vs0mg"},{"bike_id":"a6616dd5-92cc-467b-9e35-342ed34b28ea","system_id":"levelo_inurba_marseille","lat":43.28725,"lon":5.36082,"is_reserved":false,"is_disabled":false,"rental_uris":{"android":"levelo://app?vid=a6616dd5-92cc-467b-9e35-342ed34b28ea","ios":"levelo://app?vid=a6616dd5-92cc-467b-9e35-342ed34b28ea"},"vehicle_type_id":"4","last_reported":1740953265,"current_range_meters":11600,"station_id":"cki0cbj6b192h4jlfktg","pricing_plan_id":"cebpf4jnsgd1na2vs0mg"},{"bike_id":"15ddbfca-bcf9-45d5-8b30-f858bd4acbae","system_id":"levelo_inurba_marseille","lat":43.29275,"lon":5.38444,"is_reserved":false,"is_disabled":false,"rental_uris":{"android":"levelo://app?vid=15ddbfca-bcf9-45d5-8b30-f858bd4acbae","ios":"levelo://app?vid=15ddbfca-bcf9-45d5-8b30-f858bd4acbae"},"vehicle_type_id":"4","last_reported":1740953265,"current_range_meters":12000,"station_id":"ce4bh692rcd13ifvqea0","pricing_plan_id":"cebpf4jnsgd1na2vs0mg"},{"bike_id":"566361a1-59aa-48e3-ba2e-2c58d8211bd0","system_id":"levelo_inurba_marseille","lat":43.28857,"lon":5.35852,"is_reserved":false,"is_disabled":false,"rental_uris":{"android":"levelo://app?vid=566361a1-59aa-48e3-ba2e-2c58d8211bd0","ios":"levelo://app?vid=566361a1-59aa-48e3-ba2e-2c58d8211bd0"},"vehicle_type_id":"4","last_reported":1740953265,"current_range_meters":12000,"station_id":"ce4bhb12rcd13ifvqem0","pricing_plan_id":"cebpf4jnsgd1na2vs0mg"},{"bike_id":"8ae3b1c3-aaad-4efb-802c-97a1e162b8ab","system_id":"levelo_inurba_marseille","lat":43.25579,"lon":5.38234,"is_reserved":false,"is_disabled":false,"rental_uris":{"android":"levelo://app?vid=8ae3b1c3-aaad-4efb-802c-97a1e162b8ab","ios":"levelo://app?vid=8ae3b1c3-aaad-4efb-802c-97a1e162b8ab"},"vehicle_type_id":"4","last_reported":1740953265,"current_range_meters":12000,"station_id":"ce4bhih2rcd13ifvqfs0","pricing_plan_id":"cebpf4jnsgd1na2vs0mg"},{"bike_id":"e0c607bf-7f3d-4c22-8ed8-7156f04c1a25","system_id":"levelo_inurba_marseille","lat":43.28158,"lon":5.42641,"is_reserved":false,"is_disabled":false,"rental_uris":{"android":"levelo://app?vid=e0c607bf-7f3d-4c22-8ed8-7156f04c1a25","ios":"levelo://app?vid=e0c607bf-7f3d-4c22-8ed8-7156f04c1a25"},"vehicle_type_id":"4","last_reported":1740953265,"current_range_meters":12000,"station_id":"ce4bhnh2rcd13ifvqgug","pricing_plan_id":"cebpf4jnsgd1na2vs0mg"},{"bike_id":"f2c0ca3b-8324-45cc-9282-3b53540210ba","system_id":"levelo_inurba_marseille","lat":43.29554,"lon":5.42281,"is_reserved":false,"is_disabled":false,"rental_uris":{"android":"levelo://app?vid=f2c0ca3b-8324-45cc-9282-3b53540210ba","ios":"levelo://app?vid=f2c0ca3b-8324-45cc-9282-3b53540210ba"},"vehicle_type_id":"4","last_reported":1740953265,"current_range_meters":12000,"station_id":"ce4bhph2rcd13ifvqhdg","pricing_plan_id":"cebpf4jnsgd1na2vs0mg"},{"bike_id":"cfcb0273-7337-4621-96ed-1e1413e21f71","system_id":"levelo_inurba_marseille","lat":43.31052,"lon":5.38937,"is_reserved":false,"is_disabled":false,"rental_uris":{"android":"levelo://app?vid=cfcb0273-7337-4621-96ed-1e1413e21f71","ios":"levelo://app?vid=cfcb0273-7337-4621-96ed-1e1413e21f71"},"vehicle_type_id":"4","last_reported":1740953265,"current_range_meters":12400,"station_id":"","pricing_plan_id":"cebpf4jnsgd1na2vs0mg"},{"bike_id":"49cff6cb-6cf9-4833-8caa-1d03920ad21e","system_id":"levelo_inurba_marseille","lat":43.30429,"lon":5.38885,"is_reserved":false,"is_disabled":false,"rental_uris":{"android":"levelo://app?vid=49cff6cb-6cf9-4833-8caa-1d03920ad21e","ios":"levelo://app?vid=49cff6cb-6cf9-4833-8caa-1d03920ad21e"},"vehicle_type_id":"4","last_reported":1740953265,"current_range_meters":12400,"station_id":"ce4bgk12rcd13ifvqbi0","pricing_plan_id":"cebpf4jnsgd1na2vs0mg"},{"bike_id":"78b83f52-c5a6-4c25-a933-23d391bd81e7","system_id":"levelo_inurba_marseille","lat":43.29839,"lon":5.36282,"is_reserved":false,"is_disabled":false,"rental_uris":{"android":"levelo://app?vid=78b83f52-c5a6-4c25-a933-23d391bd81e7","ios":"levelo://app?vid=78b83f52-c5a6-4c25-a933-23d391bd81e7"},"vehicle_type_id":"4","last_reported":1740953265,"current_range_meters":12400,"station_id":"ce4bgpp2rcd13ifvqc3g","pricing_plan_id":"cebpf4jnsgd1na2vs0mg"},{"bike_id":"94601201-a01b-491a-846a-5d9968f2226a","system_id":"levelo_inurba_marseille","lat":43.31116,"lon":5.37773,"is_reserved":false,"is_disabled":false,"rental_uris":{"android":"levelo://app?vid=94601201-a01b-491a-846a-5d9968f2226a","ios":"levelo://app?vid=94601201-a01b-491a-846a-5d9968f2226a"},"vehicle_type_id":"4","last_reported":1740953265,"current_range_meters":12400,"station_id":"ce4bgt92rcd13ifvqcg0","pricing_plan_id":"cebpf4jnsgd1na2vs0mg"},{"bike_id":"d008fca3-d7b5-4acc-9527-541bf3ce98e7","system_id":"levelo_inurba_marseille","lat":43.30651,"lon":5.40067,"is_reserved":false,"is_disabled":false,"rental_uris":{"android":"levelo://app?vid=d008fca3-d7b5-4acc-9527-541bf3ce98e7","ios":"levelo://app?vid=d008fca3-d7b5-4acc-9527-541bf3ce98e7"},"vehicle_type_id":"4","last_reported":1740953265,"current_range_meters":12400,"station_id":"ce4bh112rcd13ifvqda0","pricing_plan_id":"cebpf4jnsgd1na2vs0mg"},{"bike_id":"f67ae6d8-7150-48ad-9966-f1875832f0b1","system_id":"levelo_inurba_marseille","lat":43.275684,"lon":5.384278,"is_reserved":false,"is_disabled":false,"rental_uris":{"android":"levelo://app?vid=f67ae6d8-7150-48ad-9966-f1875832f0b1","ios":"levelo://app?vid=f67ae6d8-7150-48ad-9966-f1875832f0b1"},"vehicle_type_id":"4","last_reported":1740953265,"current_range_meters":12800,"station_id":"ce4bhh92rcd13ifvqfi0","pricing_plan_id":"cebpf4jnsgd1na2vs0mg"},{"bike_id":"18ed809a-93be-4ceb-a90d-b4661309b51d","system_id":"levelo_inurba_marseille","lat":43.30953,"lon":5.37445,"is_reserved":false,"is_disabled":false,"rental_uris":{"android":"levelo://app?vid=18ed809a-93be-4ceb-a90d-b4661309b51d","ios":"levelo://app?vid=18ed809a-93be-4ceb-a90d-b4661309b51d"},"vehicle_type_id":"4","last_reported":1740953265,"current_range_meters":13600,"station_id":"","pricing_plan_id":"cebpf4jnsgd1na2vs0mg"},{"bike_id":"d292c1a1-5d48-4870-96f4-cf5f26c43837","system_id":"levelo_inurba_marseille","lat":43.27912,"lon":5.42663,"is_reserved":false,"is_disabled":false,"rental_uris":{"android":"levelo://app?vid=d292c1a1-5d48-4870-96f4-cf5f26c43837","ios":"levelo://app?vid=d292c1a1-5d48-4870-96f4-cf5f26c43837"},"vehicle_type_id":"4","last_reported":1740953265,"current_range_meters":13600,"station_id":"","pricing_plan_id":"cebpf4jnsgd1na2vs0mg"},{"bike_id":"b9bb3a4f-109c-4a77-b568-caf784ecb79b","system_id":"levelo_inurba_marseille","lat":43.293643,"lon":5.378523,"is_reserved":false,"is_disabled":false,"rental_uris":{"android":"levelo://app?vid=b9bb3a4f-109c-4a77-b568-caf784ecb79b","ios":"levelo://app?vid=b9bb3a4f-109c-4a77-b568-caf784ecb79b"},"vehicle_type_id":"4","last_reported":1740953265,"current_range_meters":13600,"station_id":"ce4bgjh2rcd13ifvqbf0","pricing_plan_id":"cebpf4jnsgd1na2vs0mg"},{"bike_id":"627bd7fd-0fcc-4e03-9b9a-f5c00ac410f7","system_id":"levelo_inurba_marseille","lat":43.30592,"lon":5.39361,"is_reserved":false,"is_disabled":false,"rental_uris":{"android":"levelo://app?vid=627bd7fd-0fcc-4e03-9b9a-f5c00ac410f7","ios":"levelo://app?vid=627bd7fd-0fcc-4e03-9b9a-f5c00ac410f7"},"vehicle_type_id":"4","last_reported":1740953265,"current_range_meters":13600,"station_id":"ce4bh0p2rcd13ifvqd80","pricing_plan_id":"cebpf4jnsgd1na2vs0mg"},{"bike_id":"6b46004f-4edb-4030-b1fc-dc3fa9f0e4b6","system_id":"levelo_inurba_marseille","lat":43.25109,"lon":5.40332,"is_reserved":false,"is_disabled":false,"rental_uris":{"android":"levelo://app?vid=6b46004f-4edb-4030-b1fc-dc3fa9f0e4b6","ios":"levelo://app?vid=6b46004f-4edb-4030-b1fc-dc3fa9f0e4b6"},"vehicle_type_id":"4","last_reported":1740953265,"current_range_meters":13600,"station_id":"ce4bhlh2rcd13ifvqgig","pricing_plan_id":"cebpf4jnsgd1na2vs0mg"},{"bike_id":"1307fc65-524d-4570-b1d0-3705c0568da3","system_id":"levelo_inurba_marseille","lat":43.27812,"lon":5.40713,"is_reserved":false,"is_disabled":false,"rental_uris":{"android":"levelo://app?vid=1307fc65-524d-4570-b1d0-3705c0568da3","ios":"levelo://app?vid=1307fc65-524d-4570-b1d0-3705c0568da3"},"vehicle_type_id":"4","last_reported":1740953265,"current_range_meters":13600,"station_id":"ce4bhnh2rcd13ifvqgtg","pricing_plan_id":"cebpf4jnsgd1na2vs0mg"},{"bike_id":"6fb39270-a11f-4609-b84b-0fd0bd679219","system_id":"levelo_inurba_marseille","lat":43.299,"lon":5.43664,"is_reserved":false,"is_disabled":false,"rental_uris":{"android":"levelo://app?vid=6fb39270-a11f-4609-b84b-0fd0bd679219","ios":"levelo://app?vid=6fb39270-a11f-4609-b84b-0fd0bd679219"},"vehicle_type_id":"4","last_reported":1740953265,"current_range_meters":13600,"station_id":"ce4bhpp2rcd13ifvqhfg","pricing_plan_id":"cebpf4jnsgd1na2vs0mg"},{"bike_id":"9c32cbd4-b6a1-44a3-85c5-c2ca2c7493ec","system_id":"levelo_inurba_marseille","lat":43.32365,"lon":5.38882,"is_reserved":false,"is_disabled":false,"rental_uris":{"android":"levelo://app?vid=9c32cbd4-b6a1-44a3-85c5-c2ca2c7493ec","ios":"levelo://app?vid=9c32cbd4-b6a1-44a3-85c5-c2ca2c7493ec"},"vehicle_type_id":"4","last_reported":1740953265,"current_range_meters":13600,"station_id":"ce4bhqp2rcd13ifvqhog","pricing_plan_id":"cebpf4jnsgd1na2vs0mg"},{"bike_id":"c5b35fc3-133b-4fcd-9bc1-000b1b46221f","system_id":"levelo_inurba_marseille","lat":43.24161,"lon":5.36406,"is_reserved":false,"is_disabled":false,"rental_uris":{"android":"levelo://app?vid=c5b35fc3-133b-4fcd-9bc1-000b1b46221f","ios":"levelo://app?vid=c5b35fc3-133b-4fcd-9bc1-000b1b46221f"},"vehicle_type_id":"4","last_reported":1740953265,"current_range_meters":13600,"station_id":"cpo36qri1sfpv3e86is0","pricing_plan_id":"cebpf4jnsgd1na2vs0mg"},{"bike_id":"0b06deb1-9955-4324-8add-e24fe7b1f29d","system_id":"levelo_inurba_marseille","lat":43.28116,"lon":5.37809,"is_reserved":false,"is_disabled":false,"rental_uris":{"android":"levelo://app?vid=0b06deb1-9955-4324-8add-e24fe7b1f29d","ios":"levelo://app?vid=0b06deb1-9955-4324-8add-e24fe7b1f29d"},"vehicle_type_id":"4","last_reported":1740953265,"current_range_meters":14000,"station_id":"ce4bha12rcd13ifvqee0","pricing_plan_id":"cebpf4jnsgd1na2vs0mg"},{"bike_id":"781ab538-640d-4870-af8b-470c14b8e81a","system_id":"levelo_inurba_marseille","lat":43.28935,"lon":5.36633,"is_reserved":false,"is_disabled":false,"rental_uris":{"android":"levelo://app?vid=781ab538-640d-4870-af8b-470c14b8e81a","ios":"levelo://app?vid=781ab538-640d-4870-af8b-470c14b8e81a"},"vehicle_type_id":"4","last_reported":1740953265,"current_range_meters":14000,"station_id":"ce4bhap2rcd13ifvqek0","pricing_plan_id":"cebpf4jnsgd1na2vs0mg"},{"bike_id":"0b4e7ef9-221c-4a2a-9f9b-4db2bb826919","system_id":"levelo_inurba_marseille","lat":43.24811,"lon":5.3746,"is_reserved":false,"is_disabled":false,"rental_uris":{"android":"levelo://app?vid=0b4e7ef9-221c-4a2a-9f9b-4db2bb826919","ios":"levelo://app?vid=0b4e7ef9-221c-4a2a-9f9b-4db2bb826919"},"vehicle_type_id":"4","last_reported":1740953265,"current_range_meters":14000,"station_id":"ce4bhgh2rcd13ifvqfb0","pricing_plan_id":"cebpf4jnsgd1na2vs0mg"},{"bike_id":"edc1a413-247b-4125-8ff6-3193d9b9b0b7","system_id":"levelo_inurba_marseille","lat":43.24386,"lon":5.37061,"is_reserved":false,"is_disabled":false,"rental_uris":{"android":"levelo://app?vid=edc1a413-247b-4125-8ff6-3193d9b9b0b7","ios":"levelo://app?vid=edc1a413-247b-4125-8ff6-3193d9b9b0b7"},"vehicle_type_id":"4","last_reported":1740953265,"current_range_meters":14000,"station_id":"ce4bhhh2rcd13ifvqfk0","pricing_plan_id":"cebpf4jnsgd1na2vs0mg"},{"bike_id":"09393a00-973d-43b6-814c-ce2027404caf","system_id":"levelo_inurba_marseille","lat":43.25814,"lon":5.39425,"is_reserved":false,"is_disabled":false,"rental_uris":{"android":"levelo://app?vid=09393a00-973d-43b6-814c-ce2027404caf","ios":"levelo://app?vid=09393a00-973d-43b6-814c-ce2027404caf"},"vehicle_type_id":"4","last_reported":1740953265,"current_range_meters":14000,"station_id":"ce4bhip2rcd13ifvqft0","pricing_plan_id":"cebpf4jnsgd1na2vs0mg"},{"bike_id":"39d82624-ea19-4844-a592-f67f7bd5f616","system_id":"levelo_inurba_marseille","lat":43.29619,"lon":5.3731,"is_reserved":false,"is_disabled":false,"rental_uris":{"android":"levelo://app?vid=39d82624-ea19-4844-a592-f67f7bd5f616","ios":"levelo://app?vid=39d82624-ea19-4844-a592-f67f7bd5f616"},"vehicle_type_id":"4","last_reported":1740953265,"current_range_meters":14400,"station_id":"","pricing_plan_id":"cebpf4jnsgd1na2vs0mg"},{"bike_id":"d29e82e5-442b-4177-903e-3742ab7d0a8c","system_id":"levelo_inurba_marseille","lat":43.30023,"lon":5.37465,"is_reserved":false,"is_disabled":false,"rental_uris":{"android":"levelo://app?vid=d29e82e5-442b-4177-903e-3742ab7d0a8c","ios":"levelo://app?vid=d29e82e5-442b-4177-903e-3742ab7d0a8c"},"vehicle_type_id":"4","last_reported":1740953265,"current_range_meters":14400,"station_id":"","pricing_plan_id":"cebpf4jnsgd1na2vs0mg"},{"bike_id":"2c5f6957-d531-40e4-8342-1a9be631de97","system_id":"levelo_inurba_marseille","lat":43.28411,"lon":5.37526,"is_reserved":false,"is_disabled":false,"rental_uris":{"android":"levelo://app?vid=2c5f6957-d531-40e4-8342-1a9be631de97","ios":"levelo://app?vid=2c5f6957-d531-40e4-8342-1a9be631de97"},"vehicle_type_id":"4","last_reported":1740953265,"current_range_meters":14400,"station_id":"ce4bh412rcd13ifvqds0","pricing_plan_id":"cebpf4jnsgd1na2vs0mg"},{"bike_id":"670122a3-157a-4ef1-82d1-a5574649dac0","system_id":"levelo_inurba_marseille","lat":43.2396,"lon":5.36626,"is_reserved":false,"is_disabled":false,"rental_uris":{"android":"levelo://app?vid=670122a3-157a-4ef1-82d1-a5574649dac0","ios":"levelo://app?vid=670122a3-157a-4ef1-82d1-a5574649dac0"},"vehicle_type_id":"4","last_reported":1740953265,"current_range_meters":14400,"station_id":"ce4bhi12rcd13ifvqfp0","pricing_plan_id":"cebpf4jnsgd1na2vs0mg"},{"bike_id":"21a25fa3-011a-487c-a6a1-9a4a8b99ec63","system_id":"levelo_inurba_marseille","lat":43.31264,"lon":5.37756,"is_reserved":false,"is_disabled":false,"rental_uris":{"android":"levelo://app?vid=21a25fa3-011a-487c-a6a1-9a4a8b99ec63","ios":"levelo://app?vid=21a25fa3-011a-487c-a6a1-9a4a8b99ec63"},"vehicle_type_id":"4","last_reported":1740953265,"current_range_meters":14800,"station_id":"","pricing_plan_id":"cebpf4jnsgd1na2vs0mg"},{"bike_id":"3495a79b-07bc-439e-94f1-f63668354302","system_id":"levelo_inurba_marseille","lat":43.28349,"lon":5.38111,"is_reserved":false,"is_disabled":false,"rental_uris":{"android":"levelo://app?vid=3495a79b-07bc-439e-94f1-f63668354302","ios":"levelo://app?vid=3495a79b-07bc-439e-94f1-f63668354302"},"vehicle_type_id":"4","last_reported":1740953265,"current_range_meters":14800,"station_id":"ce4bh412rcd13ifvqdr0","pricing_plan_id":"cebpf4jnsgd1na2vs0mg"},{"bike_id":"07352076-70ba-4434-8a5b-9768ede35bdf","system_id":"levelo_inurba_marseille","lat":43.29063,"lon":5.37156,"is_reserved":false,"is_disabled":false,"rental_uris":{"android":"levelo://app?vid=07352076-70ba-4434-8a5b-9768ede35bdf","ios":"levelo://app?vid=07352076-70ba-4434-8a5b-9768ede35bdf"},"vehicle_type_id":"4","last_reported":1740953265,"current_range_meters":14800,"station_id":"ce4bh5p2rcd13ifvqe4g","pricing_plan_id":"cebpf4jnsgd1na2vs0mg"},{"bike_id":"3540c589-9554-4809-a9dc-9e143004422b","system_id":"levelo_inurba_marseille","lat":43.27493,"lon":5.42449,"is_reserved":false,"is_disabled":false,"rental_uris":{"android":"levelo://app?vid=3540c589-9554-4809-a9dc-9e143004422b","ios":"levelo://app?vid=3540c589-9554-4809-a9dc-9e143004422b"},"vehicle_type_id":"4","last_reported":1740953265,"current_range_meters":14800,"station_id":"ce4bhn92rcd13ifvqgrg","pricing_plan_id":"cebpf4jnsgd1na2vs0mg"},{"bike_id":"45e6ed2f-8b37-4217-96dd-71d8268a36a2","system_id":"levelo_inurba_marseille","lat":43.31429,"lon":5.39371,"is_reserved":false,"is_disabled":false,"rental_uris":{"android":"levelo://app?vid=45e6ed2f-8b37-4217-96dd-71d8268a36a2","ios":"levelo://app?vid=45e6ed2f-8b37-4217-96dd-71d8268a36a2"},"vehicle_type_id":"4","last_reported":1740953265,"current_range_meters":15200,"station_id":"","pricing_plan_id":"cebpf4jnsgd1na2vs0mg"},{"bike_id":"2848430c-e0ac-406b-99f8-d4a1f7459337","system_id":"levelo_inurba_marseille","lat":43.2127,"lon":5.35346,"is_reserved":false,"is_disabled":false,"rental_uris":{"android":"levelo://app?vid=2848430c-e0ac-406b-99f8-d4a1f7459337","ios":"levelo://app?vid=2848430c-e0ac-406b-99f8-d4a1f7459337"},"vehicle_type_id":"4","last_reported":1740953265,"current_range_meters":15200,"station_id":"","pricing_plan_id":"cebpf4jnsgd1na2vs0mg"},{"bike_id":"648445c4-2d1b-4af1-aa41-f717826c5401","system_id":"levelo_inurba_marseille","lat":43.296,"lon":5.38117,"is_reserved":false,"is_disabled":false,"rental_uris":{"android":"levelo://app?vid=648445c4-2d1b-4af1-aa41-f717826c5401","ios":"levelo://app?vid=648445c4-2d1b-4af1-aa41-f717826c5401"},"vehicle_type_id":"4","last_reported":1740953265,"current_range_meters":15200,"station_id":"ce4bgl12rcd13ifvqbo0","pricing_plan_id":"cebpf4jnsgd1na2vs0mg"},{"bike_id":"8bf52093-0b86-44a0-a0c3-e238a01b0574","system_id":"levelo_inurba_marseille","lat":43.292301,"lon":5.360703,"is_reserved":false,"is_disabled":false,"rental_uris":{"android":"levelo://app?vid=8bf52093-0b86-44a0-a0c3-e238a01b0574","ios":"levelo://app?vid=8bf52093-0b86-44a0-a0c3-e238a01b0574"},"vehicle_type_id":"4","last_reported":1740953265,"current_range_meters":15200,"station_id":"ce4bguh2rcd13ifvqcj0","pricing_plan_id":"cebpf4jnsgd1na2vs0mg"},{"bike_id":"8b4e7d69-f78d-4a90-b52a-0e7e042fcf9b","system_id":"levelo_inurba_marseille","lat":43.29261,"lon":5.40895,"is_reserved":false,"is_disabled":false,"rental_uris":{"android":"levelo://app?vid=8b4e7d69-f78d-4a90-b52a-0e7e042fcf9b","ios":"levelo://app?vid=8b4e7d69-f78d-4a90-b52a-0e7e042fcf9b"},"vehicle_type_id":"4","last_reported":1740953265,"current_range_meters":15200,"station_id":"ce4bh192rcd13ifvqdc0","pricing_plan_id":"cebpf4jnsgd1na2vs0mg"},{"bike_id":"a531b33e-0c70-4fda-a8fd-f89898decd7c","system_id":"levelo_inurba_marseille","lat":43.28704,"lon":5.37416,"is_reserved":false,"is_disabled":false,"rental_uris":{"android":"levelo://app?vid=a531b33e-0c70-4fda-a8fd-f89898decd7c","ios":"levelo://app?vid=a531b33e-0c70-4fda-a8fd-f89898decd7c"},"vehicle_type_id":"4","last_reported":1740953265,"current_range_meters":15200,"station_id":"ce4bh3p2rcd13ifvqdq0","pricing_plan_id":"cebpf4jnsgd1na2vs0mg"},{"bike_id":"4344c971-43c3-4c92-b0ff-47be87956c14","system_id":"levelo_inurba_marseille","lat":43.28407,"lon":5.37532,"is_reserved":false,"is_disabled":false,"rental_uris":{"android":"levelo://app?vid=4344c971-43c3-4c92-b0ff-47be87956c14","ios":"levelo://app?vid=4344c971-43c3-4c92-b0ff-47be87956c14"},"vehicle_type_id":"4","last_reported":1740953265,"current_range_meters":15200,"station_id":"ce4bh412rcd13ifvqds0","pricing_plan_id":"cebpf4jnsgd1na2vs0mg"},{"bike_id":"a4befc2e-2274-4931-b766-4cd55656eb23","system_id":"levelo_inurba_marseille","lat":43.24399,"lon":5.37045,"is_reserved":false,"is_disabled":false,"rental_uris":{"android":"levelo://app?vid=a4befc2e-2274-4931-b766-4cd55656eb23","ios":"levelo://app?vid=a4befc2e-2274-4931-b766-4cd55656eb23"},"vehicle_type_id":"4","last_reported":1740953265,"current_range_meters":15200,"station_id":"ce4bhhh2rcd13ifvqfk0","pricing_plan_id":"cebpf4jnsgd1na2vs0mg"},{"bike_id":"4dd78a9f-9698-4bed-9997-ee4fd5bc3a76","system_id":"levelo_inurba_marseille","lat":43.27071,"lon":5.42284,"is_reserved":false,"is_disabled":false,"rental_uris":{"android":"levelo://app?vid=4dd78a9f-9698-4bed-9997-ee4fd5bc3a76","ios":"levelo://app?vid=4dd78a9f-9698-4bed-9997-ee4fd5bc3a76"},"vehicle_type_id":"4","last_reported":1740953265,"current_range_meters":15200,"station_id":"ce4bhk92rcd13ifvqgb0","pricing_plan_id":"cebpf4jnsgd1na2vs0mg"},{"bike_id":"b51c9290-e38c-4595-bba0-956a32f0c3b3","system_id":"levelo_inurba_marseille","lat":43.27071,"lon":5.42281,"is_reserved":false,"is_disabled":false,"rental_uris":{"android":"levelo://app?vid=b51c9290-e38c-4595-bba0-956a32f0c3b3","ios":"levelo://app?vid=b51c9290-e38c-4595-bba0-956a32f0c3b3"},"vehicle_type_id":"4","last_reported":1740953265,"current_range_meters":15200,"station_id":"ce4bhk92rcd13ifvqgb0","pricing_plan_id":"cebpf4jnsgd1na2vs0mg"},{"bike_id":"687cd9e6-0cef-4cf3-a0fd-75f582330f2e","system_id":"levelo_inurba_marseille","lat":43.337444,"lon":5.374475,"is_reserved":false,"is_disabled":false,"rental_uris":{"android":"levelo://app?vid=687cd9e6-0cef-4cf3-a0fd-75f582330f2e","ios":"levelo://app?vid=687cd9e6-0cef-4cf3-a0fd-75f582330f2e"},"vehicle_type_id":"4","last_reported":1740953265,"current_range_meters":16000,"station_id":"","pricing_plan_id":"cebpf4jnsgd1na2vs0mg"},{"bike_id":"bb1daae0-3ebe-45b3-a6a0-de6d9aae618a","system_id":"levelo_inurba_marseille","lat":43.299133,"lon":5.374661,"is_reserved":false,"is_disabled":false,"rental_uris":{"android":"levelo://app?vid=bb1daae0-3ebe-45b3-a6a0-de6d9aae618a","ios":"levelo://app?vid=bb1daae0-3ebe-45b3-a6a0-de6d9aae618a"},"vehicle_type_id":"4","last_reported":1740953265,"current_range_meters":16000,"station_id":"ce4bgjh2rcd13ifvqbg0","pricing_plan_id":"cebpf4jnsgd1na2vs0mg"},{"bike_id":"ca5edb48-c193-49eb-b738-99f416095581","system_id":"levelo_inurba_marseille","lat":43.28942,"lon":5.36614,"is_reserved":false,"is_disabled":false,"rental_uris":{"android":"levelo://app?vid=ca5edb48-c193-49eb-b738-99f416095581","ios":"levelo://app?vid=ca5edb48-c193-49eb-b738-99f416095581"},"vehicle_type_id":"4","last_reported":1740953265,"current_range_meters":16000,"station_id":"ce4bhap2rcd13ifvqek0","pricing_plan_id":"cebpf4jnsgd1na2vs0mg"},{"bike_id":"05c5652e-f473-4c7f-aa5b-d18dd96fe6c0","system_id":"levelo_inurba_marseille","lat":43.27986,"lon":5.41663,"is_reserved":false,"is_disabled":false,"rental_uris":{"android":"levelo://app?vid=05c5652e-f473-4c7f-aa5b-d18dd96fe6c0","ios":"levelo://app?vid=05c5652e-f473-4c7f-aa5b-d18dd96fe6c0"},"vehicle_type_id":"4","last_reported":1740953265,"current_range_meters":16000,"station_id":"ce4bho12rcd13ifvqh1g","pricing_plan_id":"cebpf4jnsgd1na2vs0mg"},{"bike_id":"69379c57-b1c7-4e95-b8eb-049067b38329","system_id":"levelo_inurba_marseille","lat":43.27491,"lon":5.42451,"is_reserved":false,"is_disabled":false,"rental_uris":{"android":"levelo://app?vid=69379c57-b1c7-4e95-b8eb-049067b38329","ios":"levelo://app?vid=69379c57-b1c7-4e95-b8eb-049067b38329"},"vehicle_type_id":"4","last_reported":1740953265,"current_range_meters":16400,"station_id":"ce4bhn92rcd13ifvqgrg","pricing_plan_id":"cebpf4jnsgd1na2vs0mg"},{"bike_id":"76f0ecc2-74d2-4458-9089-c4bdf8553e65","system_id":"levelo_inurba_marseille","lat":43.27174,"lon":5.41972,"is_reserved":false,"is_disabled":false,"rental_uris":{"android":"levelo://app?vid=76f0ecc2-74d2-4458-9089-c4bdf8553e65","ios":"levelo://app?vid=76f0ecc2-74d2-4458-9089-c4bdf8553e65"},"vehicle_type_id":"4","last_reported":1740953265,"current_range_meters":16800,"station_id":"","pricing_plan_id":"cebpf4jnsgd1na2vs0mg"},{"bike_id":"094c0b15-000f-4053-a468-1220311592ad","system_id":"levelo_inurba_marseille","lat":43.31073,"lon":5.38359,"is_reserved":false,"is_disabled":false,"rental_uris":{"android":"levelo://app?vid=094c0b15-000f-4053-a468-1220311592ad","ios":"levelo://app?vid=094c0b15-000f-4053-a468-1220311592ad"},"vehicle_type_id":"4","last_reported":1740953265,"current_range_meters":16800,"station_id":"ce4bgv92rcd13ifvqcr0","pricing_plan_id":"cebpf4jnsgd1na2vs0mg"},{"bike_id":"68637cb7-a80c-4ff7-b3c5-35ec8928b167","system_id":"levelo_inurba_marseille","lat":43.26199,"lon":5.37444,"is_reserved":false,"is_disabled":false,"rental_uris":{"android":"levelo://app?vid=68637cb7-a80c-4ff7-b3c5-35ec8928b167","ios":"levelo://app?vid=68637cb7-a80c-4ff7-b3c5-35ec8928b167"},"vehicle_type_id":"4","last_reported":1740953265,"current_range_meters":16800,"station_id":"ce4bhgp2rcd13ifvqfc0","pricing_plan_id":"cebpf4jnsgd1na2vs0mg"},{"bike_id":"dc9f73cd-8a57-47e9-8824-6ff8e23da710","system_id":"levelo_inurba_marseille","lat":43.24073,"lon":5.37763,"is_reserved":false,"is_disabled":false,"rental_uris":{"android":"levelo://app?vid=dc9f73cd-8a57-47e9-8824-6ff8e23da710","ios":"levelo://app?vid=dc9f73cd-8a57-47e9-8824-6ff8e23da710"},"vehicle_type_id":"4","last_reported":1740953265,"current_range_meters":16800,"station_id":"ce4bhnp2rcd13ifvqgvg","pricing_plan_id":"cebpf4jnsgd1na2vs0mg"},{"bike_id":"2e575722-39bd-45a0-9851-60fefefc4f1a","system_id":"levelo_inurba_marseille","lat":43.28705,"lon":5.39996,"is_reserved":false,"is_disabled":false,"rental_uris":{"android":"levelo://app?vid=2e575722-39bd-45a0-9851-60fefefc4f1a","ios":"levelo://app?vid=2e575722-39bd-45a0-9851-60fefefc4f1a"},"vehicle_type_id":"4","last_reported":1740953265,"current_range_meters":16800,"station_id":"ce4bho92rcd13ifvqh3g","pricing_plan_id":"cebpf4jnsgd1na2vs0mg"},{"bike_id":"a599b1f5-ede0-429e-89c4-1c926aeeaec1","system_id":"levelo_inurba_marseille","lat":43.30937,"lon":5.40143,"is_reserved":false,"is_disabled":false,"rental_uris":{"android":"levelo://app?vid=a599b1f5-ede0-429e-89c4-1c926aeeaec1","ios":"levelo://app?vid=a599b1f5-ede0-429e-89c4-1c926aeeaec1"},"vehicle_type_id":"4","last_reported":1740953265,"current_range_meters":17200,"station_id":"ce4bgvp2rcd13ifvqct0","pricing_plan_id":"cebpf4jnsgd1na2vs0mg"},{"bike_id":"723acd6a-9b0c-476a-814f-fdd661ef6b12","system_id":"levelo_inurba_marseille","lat":43.30661,"lon":5.40087,"is_reserved":false,"is_disabled":false,"rental_uris":{"android":"levelo://app?vid=723acd6a-9b0c-476a-814f-fdd661ef6b12","ios":"levelo://app?vid=723acd6a-9b0c-476a-814f-fdd661ef6b12"},"vehicle_type_id":"4","last_reported":1740953265,"current_range_meters":17200,"station_id":"ce4bh112rcd13ifvqda0","pricing_plan_id":"cebpf4jnsgd1na2vs0mg"},{"bike_id":"c33169c6-73c7-474c-82cb-ab1ba732e42e","system_id":"levelo_inurba_marseille","lat":43.29437,"lon":5.39758,"is_reserved":false,"is_disabled":false,"rental_uris":{"android":"levelo://app?vid=c33169c6-73c7-474c-82cb-ab1ba732e42e","ios":"levelo://app?vid=c33169c6-73c7-474c-82cb-ab1ba732e42e"},"vehicle_type_id":"4","last_reported":1740953265,"current_range_meters":17200,"station_id":"ce4bh3h2rcd13ifvqdo0","pricing_plan_id":"cebpf4jnsgd1na2vs0mg"},{"bike_id":"0846796b-c260-4b2b-8113-c556f70f4309","system_id":"levelo_inurba_marseille","lat":43.32705,"lon":5.39232,"is_reserved":false,"is_disabled":false,"rental_uris":{"android":"levelo://app?vid=0846796b-c260-4b2b-8113-c556f70f4309","ios":"levelo://app?vid=0846796b-c260-4b2b-8113-c556f70f4309"},"vehicle_type_id":"4","last_reported":1740953265,"current_range_meters":17600,"station_id":"","pricing_plan_id":"cebpf4jnsgd1na2vs0mg"},{"bike_id":"ee64b076-db53-4a07-8a61-f790fb3d7f18","system_id":"levelo_inurba_marseille","lat":43.29598,"lon":5.37335,"is_reserved":false,"is_disabled":false,"rental_uris":{"android":"levelo://app?vid=ee64b076-db53-4a07-8a61-f790fb3d7f18","ios":"levelo://app?vid=ee64b076-db53-4a07-8a61-f790fb3d7f18"},"vehicle_type_id":"4","last_reported":1740953265,"current_range_meters":17600,"station_id":"","pricing_plan_id":"cebpf4jnsgd1na2vs0mg"},{"bike_id":"76394e5b-b5d3-409a-954a-e09b2559a295","system_id":"levelo_inurba_marseille","lat":43.2316,"lon":5.3579,"is_reserved":false,"is_disabled":false,"rental_uris":{"android":"levelo://app?vid=76394e5b-b5d3-409a-954a-e09b2559a295","ios":"levelo://app?vid=76394e5b-b5d3-409a-954a-e09b2559a295"},"vehicle_type_id":"4","last_reported":1740953265,"current_range_meters":17600,"station_id":"","pricing_plan_id":"cebpf4jnsgd1na2vs0mg"},{"bike_id":"aaace025-3089-417e-a8d0-a68c689fb08f","system_id":"levelo_inurba_marseille","lat":43.28401,"lon":5.37551,"is_reserved":false,"is_disabled":false,"rental_uris":{"android":"levelo://app?vid=aaace025-3089-417e-a8d0-a68c689fb08f","ios":"levelo://app?vid=aaace025-3089-417e-a8d0-a68c689fb08f"},"vehicle_type_id":"4","last_reported":1740953265,"current_range_meters":17600,"station_id":"ce4bh412rcd13ifvqds0","pricing_plan_id":"cebpf4jnsgd1na2vs0mg"},{"bike_id":"360cb8fb-ae2d-4942-a777-0b20fe1843ea","system_id":"levelo_inurba_marseille","lat":43.26552,"lon":5.37284,"is_reserved":false,"is_disabled":false,"rental_uris":{"android":"levelo://app?vid=360cb8fb-ae2d-4942-a777-0b20fe1843ea","ios":"levelo://app?vid=360cb8fb-ae2d-4942-a777-0b20fe1843ea"},"vehicle_type_id":"4","last_reported":1740953265,"current_range_meters":17600,"station_id":"ce4bhg12rcd13ifvqf70","pricing_plan_id":"cebpf4jnsgd1na2vs0mg"},{"bike_id":"553e3afb-3686-4ac0-a033-58eaeab25741","system_id":"levelo_inurba_marseille","lat":43.27073,"lon":5.42282,"is_reserved":false,"is_disabled":false,"rental_uris":{"android":"levelo://app?vid=553e3afb-3686-4ac0-a033-58eaeab25741","ios":"levelo://app?vid=553e3afb-3686-4ac0-a033-58eaeab25741"},"vehicle_type_id":"4","last_reported":1740953265,"current_range_meters":17600,"station_id":"ce4bhk92rcd13ifvqgb0","pricing_plan_id":"cebpf4jnsgd1na2vs0mg"},{"bike_id":"ab1060c6-b742-499d-b43e-31b55742689d","system_id":"levelo_inurba_marseille","lat":43.278,"lon":5.40703,"is_reserved":false,"is_disabled":false,"rental_uris":{"android":"levelo://app?vid=ab1060c6-b742-499d-b43e-31b55742689d","ios":"levelo://app?vid=ab1060c6-b742-499d-b43e-31b55742689d"},"vehicle_type_id":"4","last_reported":1740953265,"current_range_meters":17600,"station_id":"ce4bhnh2rcd13ifvqgtg","pricing_plan_id":"cebpf4jnsgd1na2vs0mg"},{"bike_id":"62cb0cc9-5e6c-492a-b088-33fea151eb3e","system_id":"levelo_inurba_marseille","lat":43.27912,"lon":5.41668,"is_reserved":false,"is_disabled":false,"rental_uris":{"android":"levelo://app?vid=62cb0cc9-5e6c-492a-b088-33fea151eb3e","ios":"levelo://app?vid=62cb0cc9-5e6c-492a-b088-33fea151eb3e"},"vehicle_type_id":"4","last_reported":1740953265,"current_range_meters":18000,"station_id":"","pricing_plan_id":"cebpf4jnsgd1na2vs0mg"},{"bike_id":"db6557e3-d612-45f1-870f-c403bf17088e","system_id":"levelo_inurba_marseille","lat":43.21276,"lon":5.3535,"is_reserved":false,"is_disabled":false,"rental_uris":{"android":"levelo://app?vid=db6557e3-d612-45f1-870f-c403bf17088e","ios":"levelo://app?vid=db6557e3-d612-45f1-870f-c403bf17088e"},"vehicle_type_id":"4","last_reported":1740953265,"current_range_meters":18000,"station_id":"","pricing_plan_id":"cebpf4jnsgd1na2vs0mg"},{"bike_id":"123d5adf-8e93-46cc-93b8-80cd2a012f7c","system_id":"levelo_inurba_marseille","lat":43.27128,"lon":5.42305,"is_reserved":false,"is_disabled":false,"rental_uris":{"android":"levelo://app?vid=123d5adf-8e93-46cc-93b8-80cd2a012f7c","ios":"levelo://app?vid=123d5adf-8e93-46cc-93b8-80cd2a012f7c"},"vehicle_type_id":"4","last_reported":1740953265,"current_range_meters":18000,"station_id":"","pricing_plan_id":"cebpf4jnsgd1na2vs0mg"},{"bike_id":"f52cb430-51f4-4ab8-9f8b-6083a50fe509","system_id":"levelo_inurba_marseille","lat":43.30586,"lon":5.37203,"is_reserved":false,"is_disabled":false,"rental_uris":{"android":"levelo://app?vid=f52cb430-51f4-4ab8-9f8b-6083a50fe509","ios":"levelo://app?vid=f52cb430-51f4-4ab8-9f8b-6083a50fe509"},"vehicle_type_id":"4","last_reported":1740953265,"current_range_meters":18000,"station_id":"ce4bgqh2rcd13ifvqc4g","pricing_plan_id":"cebpf4jnsgd1na2vs0mg"},{"bike_id":"ca0e9643-2963-4c44-801e-0e6e8b7a0440","system_id":"levelo_inurba_marseille","lat":43.28404,"lon":5.37505,"is_reserved":false,"is_disabled":false,"rental_uris":{"android":"levelo://app?vid=ca0e9643-2963-4c44-801e-0e6e8b7a0440","ios":"levelo://app?vid=ca0e9643-2963-4c44-801e-0e6e8b7a0440"},"vehicle_type_id":"4","last_reported":1740953265,"current_range_meters":18000,"station_id":"ce4bh412rcd13ifvqds0","pricing_plan_id":"cebpf4jnsgd1na2vs0mg"},{"bike_id":"29b6825d-f401-463c-a300-2cce33b52aa3","system_id":"levelo_inurba_marseille","lat":43.28722,"lon":5.37935,"is_reserved":false,"is_disabled":false,"rental_uris":{"android":"levelo://app?vid=29b6825d-f401-463c-a300-2cce33b52aa3","ios":"levelo://app?vid=29b6825d-f401-463c-a300-2cce33b52aa3"},"vehicle_type_id":"4","last_reported":1740953265,"current_range_meters":18000,"station_id":"ce4bh9p2rcd13ifvqec0","pricing_plan_id":"cebpf4jnsgd1na2vs0mg"},{"bike_id":"8325dad4-1989-447f-b883-aaa2a76a4725","system_id":"levelo_inurba_marseille","lat":43.24377,"lon":5.37063,"is_reserved":false,"is_disabled":false,"rental_uris":{"android":"levelo://app?vid=8325dad4-1989-447f-b883-aaa2a76a4725","ios":"levelo://app?vid=8325dad4-1989-447f-b883-aaa2a76a4725"},"vehicle_type_id":"4","last_reported":1740953265,"current_range_meters":18000,"station_id":"ce4bhhh2rcd13ifvqfk0","pricing_plan_id":"cebpf4jnsgd1na2vs0mg"},{"bike_id":"a2b1df92-4430-43e7-aefa-aead754347cf","system_id":"levelo_inurba_marseille","lat":43.25714,"lon":5.41102,"is_reserved":false,"is_disabled":false,"rental_uris":{"android":"levelo://app?vid=a2b1df92-4430-43e7-aefa-aead754347cf","ios":"levelo://app?vid=a2b1df92-4430-43e7-aefa-aead754347cf"},"vehicle_type_id":"4","last_reported":1740953265,"current_range_meters":18000,"station_id":"ce4bhkp2rcd13ifvqgd0","pricing_plan_id":"cebpf4jnsgd1na2vs0mg"},{"bike_id":"f42c20a7-9375-4938-911b-eade8fd97b56","system_id":"levelo_inurba_marseille","lat":43.23149,"lon":5.43722,"is_reserved":false,"is_disabled":false,"rental_uris":{"android":"levelo://app?vid=f42c20a7-9375-4938-911b-eade8fd97b56","ios":"levelo://app?vid=f42c20a7-9375-4938-911b-eade8fd97b56"},"vehicle_type_id":"4","last_reported":1740953265,"current_range_meters":18000,"station_id":"ce4bhmp2rcd13ifvqgog","pricing_plan_id":"cebpf4jnsgd1na2vs0mg"},{"bike_id":"36c4d28b-a1e8-4ec8-899d-5b78e5851159","system_id":"levelo_inurba_marseille","lat":43.27812,"lon":5.40717,"is_reserved":false,"is_disabled":false,"rental_uris":{"android":"levelo://app?vid=36c4d28b-a1e8-4ec8-899d-5b78e5851159","ios":"levelo://app?vid=36c4d28b-a1e8-4ec8-899d-5b78e5851159"},"vehicle_type_id":"4","last_reported":1740953265,"current_range_meters":18000,"station_id":"ce4bhnh2rcd13ifvqgtg","pricing_plan_id":"cebpf4jnsgd1na2vs0mg"},{"bike_id":"05f79b85-f3d0-43dc-8446-f0e096c99a76","system_id":"levelo_inurba_marseille","lat":43.29373,"lon":5.42815,"is_reserved":false,"is_disabled":false,"rental_uris":{"android":"levelo://app?vid=05f79b85-f3d0-43dc-8446-f0e096c99a76","ios":"levelo://app?vid=05f79b85-f3d0-43dc-8446-f0e096c99a76"},"vehicle_type_id":"4","last_reported":1740953265,"current_range_meters":18800,"station_id":"","pricing_plan_id":"cebpf4jnsgd1na2vs0mg"},{"bike_id":"f9b4a0cc-3144-4dd7-8cf7-1339c1dd92ae","system_id":"levelo_inurba_marseille","lat":43.28673,"lon":5.38667,"is_reserved":false,"is_disabled":false,"rental_uris":{"android":"levelo://app?vid=f9b4a0cc-3144-4dd7-8cf7-1339c1dd92ae","ios":"levelo://app?vid=f9b4a0cc-3144-4dd7-8cf7-1339c1dd92ae"},"vehicle_type_id":"4","last_reported":1740953265,"current_range_meters":18800,"station_id":"ce4bh492rcd13ifvqdug","pricing_plan_id":"cebpf4jnsgd1na2vs0mg"},{"bike_id":"ba1ba081-a651-458b-864c-f93419b9b0b6","system_id":"levelo_inurba_marseille","lat":43.25013,"lon":5.38911,"is_reserved":false,"is_disabled":false,"rental_uris":{"android":"levelo://app?vid=ba1ba081-a651-458b-864c-f93419b9b0b6","ios":"levelo://app?vid=ba1ba081-a651-458b-864c-f93419b9b0b6"},"vehicle_type_id":"4","last_reported":1740953265,"current_range_meters":18800,"station_id":"ce4bhgp2rcd13ifvqfd0","pricing_plan_id":"cebpf4jnsgd1na2vs0mg"},{"bike_id":"0b1d16a8-c879-4989-bfe7-7eb35a59ec23","system_id":"levelo_inurba_marseille","lat":43.25185,"lon":5.37827,"is_reserved":false,"is_disabled":false,"rental_uris":{"android":"levelo://app?vid=0b1d16a8-c879-4989-bfe7-7eb35a59ec23","ios":"levelo://app?vid=0b1d16a8-c879-4989-bfe7-7eb35a59ec23"},"vehicle_type_id":"4","last_reported":1740953265,"current_range_meters":19200,"station_id":"","pricing_plan_id":"cebpf4jnsgd1na2vs0mg"},{"bike_id":"4300cf9b-3f21-4db1-957e-9b9d93ea7ac9","system_id":"levelo_inurba_marseille","lat":43.3108,"lon":5.38139,"is_reserved":false,"is_disabled":false,"rental_uris":{"android":"levelo://app?vid=4300cf9b-3f21-4db1-957e-9b9d93ea7ac9","ios":"levelo://app?vid=4300cf9b-3f21-4db1-957e-9b9d93ea7ac9"},"vehicle_type_id":"4","last_reported":1740953265,"current_range_meters":19200,"station_id":"","pricing_plan_id":"cebpf4jnsgd1na2vs0mg"},{"bike_id":"2e98121c-8891-4ab6-a9c5-0c0bca4f1004","system_id":"levelo_inurba_marseille","lat":43.30974,"lon":5.37121,"is_reserved":false,"is_disabled":false,"rental_uris":{"android":"levelo://app?vid=2e98121c-8891-4ab6-a9c5-0c0bca4f1004","ios":"levelo://app?vid=2e98121c-8891-4ab6-a9c5-0c0bca4f1004"},"vehicle_type_id":"4","last_reported":1740953265,"current_range_meters":19200,"station_id":"","pricing_plan_id":"cebpf4jnsgd1na2vs0mg"},{"bike_id":"88858c28-5a08-41e9-b766-6b2e555e71e3","system_id":"levelo_inurba_marseille","lat":43.29608,"lon":5.38132,"is_reserved":false,"is_disabled":false,"rental_uris":{"android":"levelo://app?vid=88858c28-5a08-41e9-b766-6b2e555e71e3","ios":"levelo://app?vid=88858c28-5a08-41e9-b766-6b2e555e71e3"},"vehicle_type_id":"4","last_reported":1740953265,"current_range_meters":19200,"station_id":"ce4bgl12rcd13ifvqbo0","pricing_plan_id":"cebpf4jnsgd1na2vs0mg"},{"bike_id":"f4a61973-99eb-4f6b-bbf3-b2aa5d8433a4","system_id":"levelo_inurba_marseille","lat":43.295719,"lon":5.399724,"is_reserved":false,"is_disabled":false,"rental_uris":{"android":"levelo://app?vid=f4a61973-99eb-4f6b-bbf3-b2aa5d8433a4","ios":"levelo://app?vid=f4a61973-99eb-4f6b-bbf3-b2aa5d8433a4"},"vehicle_type_id":"4","last_reported":1740953265,"current_range_meters":19200,"station_id":"ce4bh312rcd13ifvqdj0","pricing_plan_id":"cebpf4jnsgd1na2vs0mg"},{"bike_id":"f5d18c14-1c92-4b46-8b35-92792ed3055a","system_id":"levelo_inurba_marseille","lat":43.286988,"lon":5.400043,"is_reserved":false,"is_disabled":false,"rental_uris":{"android":"levelo://app?vid=f5d18c14-1c92-4b46-8b35-92792ed3055a","ios":"levelo://app?vid=f5d18c14-1c92-4b46-8b35-92792ed3055a"},"vehicle_type_id":"4","last_reported":1740953265,"current_range_meters":19200,"station_id":"ce4bh392rcd13ifvqdm0","pricing_plan_id":"cebpf4jnsgd1na2vs0mg"},{"bike_id":"b1244363-4b14-4f04-92a3-504fdb19589c","system_id":"levelo_inurba_marseille","lat":43.28696,"lon":5.37391,"is_reserved":false,"is_disabled":false,"rental_uris":{"android":"levelo://app?vid=b1244363-4b14-4f04-92a3-504fdb19589c","ios":"levelo://app?vid=b1244363-4b14-4f04-92a3-504fdb19589c"},"vehicle_type_id":"4","last_reported":1740953265,"current_range_meters":19200,"station_id":"ce4bh3p2rcd13ifvqdq0","pricing_plan_id":"cebpf4jnsgd1na2vs0mg"},{"bike_id":"132dd1c8-eaff-40bd-ab95-ca5ba6f07040","system_id":"levelo_inurba_marseille","lat":43.28337,"lon":5.38102,"is_reserved":false,"is_disabled":false,"rental_uris":{"android":"levelo://app?vid=132dd1c8-eaff-40bd-ab95-ca5ba6f07040","ios":"levelo://app?vid=132dd1c8-eaff-40bd-ab95-ca5ba6f07040"},"vehicle_type_id":"4","last_reported":1740953265,"current_range_meters":19200,"station_id":"ce4bh412rcd13ifvqdr0","pricing_plan_id":"cebpf4jnsgd1na2vs0mg"},{"bike_id":"fb82a47c-3c96-4bda-afcd-af9c04501056","system_id":"levelo_inurba_marseille","lat":43.28408,"lon":5.37524,"is_reserved":false,"is_disabled":false,"rental_uris":{"android":"levelo://app?vid=fb82a47c-3c96-4bda-afcd-af9c04501056","ios":"levelo://app?vid=fb82a47c-3c96-4bda-afcd-af9c04501056"},"vehicle_type_id":"4","last_reported":1740953265,"current_range_meters":19200,"station_id":"ce4bh412rcd13ifvqds0","pricing_plan_id":"cebpf4jnsgd1na2vs0mg"},{"bike_id":"11482981-350c-4147-9146-ca524584ac63","system_id":"levelo_inurba_marseille","lat":43.28482,"lon":5.38583,"is_reserved":false,"is_disabled":false,"rental_uris":{"android":"levelo://app?vid=11482981-350c-4147-9146-ca524584ac63","ios":"levelo://app?vid=11482981-350c-4147-9146-ca524584ac63"},"vehicle_type_id":"4","last_reported":1740953265,"current_range_meters":19200,"station_id":"ce4bh8p2rcd13ifvqeb0","pricing_plan_id":"cebpf4jnsgd1na2vs0mg"},{"bike_id":"932b83e5-e917-4aff-818d-0cd0defd1cf8","system_id":"levelo_inurba_marseille","lat":43.28939,"lon":5.36642,"is_reserved":false,"is_disabled":false,"rental_uris":{"android":"levelo://app?vid=932b83e5-e917-4aff-818d-0cd0defd1cf8","ios":"levelo://app?vid=932b83e5-e917-4aff-818d-0cd0defd1cf8"},"vehicle_type_id":"4","last_reported":1740953265,"current_range_meters":19200,"station_id":"ce4bhap2rcd13ifvqek0","pricing_plan_id":"cebpf4jnsgd1na2vs0mg"},{"bike_id":"22dbf706-a1f8-4781-976d-fafbe5dfeac0","system_id":"levelo_inurba_marseille","lat":43.25825,"lon":5.39441,"is_reserved":false,"is_disabled":false,"rental_uris":{"android":"levelo://app?vid=22dbf706-a1f8-4781-976d-fafbe5dfeac0","ios":"levelo://app?vid=22dbf706-a1f8-4781-976d-fafbe5dfeac0"},"vehicle_type_id":"4","last_reported":1740953265,"current_range_meters":19200,"station_id":"ce4bhip2rcd13ifvqft0","pricing_plan_id":"cebpf4jnsgd1na2vs0mg"},{"bike_id":"6df526da-e0fc-42b8-897e-57cca2fda7cc","system_id":"levelo_inurba_marseille","lat":43.27069,"lon":5.42284,"is_reserved":false,"is_disabled":false,"rental_uris":{"android":"levelo://app?vid=6df526da-e0fc-42b8-897e-57cca2fda7cc","ios":"levelo://app?vid=6df526da-e0fc-42b8-897e-57cca2fda7cc"},"vehicle_type_id":"4","last_reported":1740953265,"current_range_meters":19200,"station_id":"ce4bhk92rcd13ifvqgb0","pricing_plan_id":"cebpf4jnsgd1na2vs0mg"},{"bike_id":"42270d13-d8e7-4a24-8714-40ef5dd2f047","system_id":"levelo_inurba_marseille","lat":43.25124,"lon":5.40305,"is_reserved":false,"is_disabled":false,"rental_uris":{"android":"levelo://app?vid=42270d13-d8e7-4a24-8714-40ef5dd2f047","ios":"levelo://app?vid=42270d13-d8e7-4a24-8714-40ef5dd2f047"},"vehicle_type_id":"4","last_reported":1740953265,"current_range_meters":19200,"station_id":"ce4bhlh2rcd13ifvqgig","pricing_plan_id":"cebpf4jnsgd1na2vs0mg"},{"bike_id":"056e5918-eaae-4bb0-a14f-4ff0f6c20d5c","system_id":"levelo_inurba_marseille","lat":43.24134,"lon":5.3635,"is_reserved":false,"is_disabled":false,"rental_uris":{"android":"levelo://app?vid=056e5918-eaae-4bb0-a14f-4ff0f6c20d5c","ios":"levelo://app?vid=056e5918-eaae-4bb0-a14f-4ff0f6c20d5c"},"vehicle_type_id":"4","last_reported":1740953265,"current_range_meters":19200,"station_id":"cpo36qri1sfpv3e86is0","pricing_plan_id":"cebpf4jnsgd1na2vs0mg"},{"bike_id":"35014492-4fa7-424f-9de1-245fd9957f92","system_id":"levelo_inurba_marseille","lat":43.29706,"lon":5.36613,"is_reserved":false,"is_disabled":false,"rental_uris":{"android":"levelo://app?vid=35014492-4fa7-424f-9de1-245fd9957f92","ios":"levelo://app?vid=35014492-4fa7-424f-9de1-245fd9957f92"},"vehicle_type_id":"4","last_reported":1740953265,"current_range_meters":19600,"station_id":"ce4bgn12rcd13ifvqbt0","pricing_plan_id":"cebpf4jnsgd1na2vs0mg"},{"bike_id":"742849d5-1413-479a-a110-edfe053bed5f","system_id":"levelo_inurba_marseille","lat":43.31348,"lon":5.36713,"is_reserved":false,"is_disabled":false,"rental_uris":{"android":"levelo://app?vid=742849d5-1413-479a-a110-edfe053bed5f","ios":"levelo://app?vid=742849d5-1413-479a-a110-edfe053bed5f"},"vehicle_type_id":"4","last_reported":1740953265,"current_range_meters":19600,"station_id":"ce4bgr92rcd13ifvqc6g","pricing_plan_id":"cebpf4jnsgd1na2vs0mg"},{"bike_id":"8e8c3dfd-b43a-43a4-9d1e-4746b5b9c549","system_id":"levelo_inurba_marseille","lat":43.30211,"lon":5.39458,"is_reserved":false,"is_disabled":false,"rental_uris":{"android":"levelo://app?vid=8e8c3dfd-b43a-43a4-9d1e-4746b5b9c549","ios":"levelo://app?vid=8e8c3dfd-b43a-43a4-9d1e-4746b5b9c549"},"vehicle_type_id":"4","last_reported":1740953265,"current_range_meters":19600,"station_id":"ce4bh0p2rcd13ifvqd70","pricing_plan_id":"cebpf4jnsgd1na2vs0mg"},{"bike_id":"9cb0bbe0-1cc8-4748-a2fb-70b0e52979aa","system_id":"levelo_inurba_marseille","lat":43.30639,"lon":5.40094,"is_reserved":false,"is_disabled":false,"rental_uris":{"android":"levelo://app?vid=9cb0bbe0-1cc8-4748-a2fb-70b0e52979aa","ios":"levelo://app?vid=9cb0bbe0-1cc8-4748-a2fb-70b0e52979aa"},"vehicle_type_id":"4","last_reported":1740953265,"current_range_meters":19600,"station_id":"ce4bh112rcd13ifvqda0","pricing_plan_id":"cebpf4jnsgd1na2vs0mg"},{"bike_id":"12998719-c5fe-456e-983b-742fc55d6128","system_id":"levelo_inurba_marseille","lat":43.23965,"lon":5.36635,"is_reserved":false,"is_disabled":false,"rental_uris":{"android":"levelo://app?vid=12998719-c5fe-456e-983b-742fc55d6128","ios":"levelo://app?vid=12998719-c5fe-456e-983b-742fc55d6128"},"vehicle_type_id":"4","last_reported":1740953265,"current_range_meters":19600,"station_id":"ce4bhi12rcd13ifvqfp0","pricing_plan_id":"cebpf4jnsgd1na2vs0mg"},{"bike_id":"5e0fdbbe-9704-4c3d-a4d8-7d65cd69edba","system_id":"levelo_inurba_marseille","lat":43.25124,"lon":5.40339,"is_reserved":false,"is_disabled":false,"rental_uris":{"android":"levelo://app?vid=5e0fdbbe-9704-4c3d-a4d8-7d65cd69edba","ios":"levelo://app?vid=5e0fdbbe-9704-4c3d-a4d8-7d65cd69edba"},"vehicle_type_id":"4","last_reported":1740953265,"current_range_meters":19600,"station_id":"ce4bhlh2rcd13ifvqgig","pricing_plan_id":"cebpf4jnsgd1na2vs0mg"},{"bike_id":"882ff3c9-c6fe-402f-84ad-87614da4ea79","system_id":"levelo_inurba_marseille","lat":43.28759,"lon":5.37317,"is_reserved":false,"is_disabled":false,"rental_uris":{"android":"levelo://app?vid=882ff3c9-c6fe-402f-84ad-87614da4ea79","ios":"levelo://app?vid=882ff3c9-c6fe-402f-84ad-87614da4ea79"},"vehicle_type_id":"4","last_reported":1740953265,"current_range_meters":20000,"station_id":"","pricing_plan_id":"cebpf4jnsgd1na2vs0mg"},{"bike_id":"0cd6de10-d5ea-4e4a-8a09-6d9651ff9234","system_id":"levelo_inurba_marseille","lat":43.31331,"lon":5.3969,"is_reserved":false,"is_disabled":false,"rental_uris":{"android":"levelo://app?vid=0cd6de10-d5ea-4e4a-8a09-6d9651ff9234","ios":"levelo://app?vid=0cd6de10-d5ea-4e4a-8a09-6d9651ff9234"},"vehicle_type_id":"4","last_reported":1740953265,"current_range_meters":20000,"station_id":"ce4bgvp2rcd13ifvqcu0","pricing_plan_id":"cebpf4jnsgd1na2vs0mg"},{"bike_id":"4aaec2e6-2dfb-4159-821a-7a493fa8e5f4","system_id":"levelo_inurba_marseille","lat":43.25002,"lon":5.38912,"is_reserved":false,"is_disabled":false,"rental_uris":{"android":"levelo://app?vid=4aaec2e6-2dfb-4159-821a-7a493fa8e5f4","ios":"levelo://app?vid=4aaec2e6-2dfb-4159-821a-7a493fa8e5f4"},"vehicle_type_id":"4","last_reported":1740953265,"current_range_meters":20000,"station_id":"ce4bhgp2rcd13ifvqfd0","pricing_plan_id":"cebpf4jnsgd1na2vs0mg"},{"bike_id":"34a75d4c-0c61-46f8-976e-230fd7c1307e","system_id":"levelo_inurba_marseille","lat":43.28938,"lon":5.36641,"is_reserved":false,"is_disabled":false,"rental_uris":{"android":"levelo://app?vid=34a75d4c-0c61-46f8-976e-230fd7c1307e","ios":"levelo://app?vid=34a75d4c-0c61-46f8-976e-230fd7c1307e"},"vehicle_type_id":"4","last_reported":1740953265,"current_range_meters":20400,"station_id":"ce4bhap2rcd13ifvqek0","pricing_plan_id":"cebpf4jnsgd1na2vs0mg"},{"bike_id":"447599a2-e931-4452-96de-dc4b7ffd53d9","system_id":"levelo_inurba_marseille","lat":43.27815,"lon":5.407,"is_reserved":false,"is_disabled":false,"rental_uris":{"android":"levelo://app?vid=447599a2-e931-4452-96de-dc4b7ffd53d9","ios":"levelo://app?vid=447599a2-e931-4452-96de-dc4b7ffd53d9"},"vehicle_type_id":"4","last_reported":1740953265,"current_range_meters":20400,"station_id":"ce4bhnh2rcd13ifvqgtg","pricing_plan_id":"cebpf4jnsgd1na2vs0mg"},{"bike_id":"bc6ecef1-cfb0-4aa1-86dd-8f1894764b4f","system_id":"levelo_inurba_marseille","lat":43.28436,"lon":5.39218,"is_reserved":false,"is_disabled":false,"rental_uris":{"android":"levelo://app?vid=bc6ecef1-cfb0-4aa1-86dd-8f1894764b4f","ios":"levelo://app?vid=bc6ecef1-cfb0-4aa1-86dd-8f1894764b4f"},"vehicle_type_id":"4","last_reported":1740953265,"current_range_meters":20800,"station_id":"ce4bhoh2rcd13ifvqh5g","pricing_plan_id":"cebpf4jnsgd1na2vs0mg"},{"bike_id":"faa8f9c3-a9db-44d7-9fa5-0540e7be5ea0","system_id":"levelo_inurba_marseille","lat":43.27485,"lon":5.43491,"is_reserved":false,"is_disabled":false,"rental_uris":{"android":"levelo://app?vid=faa8f9c3-a9db-44d7-9fa5-0540e7be5ea0","ios":"levelo://app?vid=faa8f9c3-a9db-44d7-9fa5-0540e7be5ea0"},"vehicle_type_id":"4","last_reported":1740953265,"current_range_meters":21600,"station_id":"","pricing_plan_id":"cebpf4jnsgd1na2vs0mg"},{"bike_id":"bb9b5542-d457-40b9-9c80-b3564f56dba0","system_id":"levelo_inurba_marseille","lat":43.30434,"lon":5.38883,"is_reserved":false,"is_disabled":false,"rental_uris":{"android":"levelo://app?vid=bb9b5542-d457-40b9-9c80-b3564f56dba0","ios":"levelo://app?vid=bb9b5542-d457-40b9-9c80-b3564f56dba0"},"vehicle_type_id":"4","last_reported":1740953265,"current_range_meters":21600,"station_id":"ce4bgk12rcd13ifvqbi0","pricing_plan_id":"cebpf4jnsgd1na2vs0mg"},{"bike_id":"e4aa75e4-8090-45ab-8299-df1fbd03a230","system_id":"levelo_inurba_marseille","lat":43.30784,"lon":5.37647,"is_reserved":false,"is_disabled":false,"rental_uris":{"android":"levelo://app?vid=e4aa75e4-8090-45ab-8299-df1fbd03a230","ios":"levelo://app?vid=e4aa75e4-8090-45ab-8299-df1fbd03a230"},"vehicle_type_id":"4","last_reported":1740953265,"current_range_meters":21600,"station_id":"ce4bgv92rcd13ifvqcq0","pricing_plan_id":"cebpf4jnsgd1na2vs0mg"},{"bike_id":"c12c7b0c-c7f6-453b-8705-ca41756e47c5","system_id":"levelo_inurba_marseille","lat":43.23967,"lon":5.36633,"is_reserved":false,"is_disabled":false,"rental_uris":{"android":"levelo://app?vid=c12c7b0c-c7f6-453b-8705-ca41756e47c5","ios":"levelo://app?vid=c12c7b0c-c7f6-453b-8705-ca41756e47c5"},"vehicle_type_id":"4","last_reported":1740953265,"current_range_meters":21600,"station_id":"ce4bhi12rcd13ifvqfp0","pricing_plan_id":"cebpf4jnsgd1na2vs0mg"},{"bike_id":"b49050a7-0ea8-46d2-9831-68f0b93f9b29","system_id":"levelo_inurba_marseille","lat":43.24156,"lon":5.36433,"is_reserved":false,"is_disabled":false,"rental_uris":{"android":"levelo://app?vid=b49050a7-0ea8-46d2-9831-68f0b93f9b29","ios":"levelo://app?vid=b49050a7-0ea8-46d2-9831-68f0b93f9b29"},"vehicle_type_id":"4","last_reported":1740953265,"current_range_meters":21600,"station_id":"cpo36qri1sfpv3e86is0","pricing_plan_id":"cebpf4jnsgd1na2vs0mg"},{"bike_id":"88ea3635-d6ec-4847-b8de-04e30512df40","system_id":"levelo_inurba_marseille","lat":43.29899,"lon":5.39645,"is_reserved":false,"is_disabled":false,"rental_uris":{"android":"levelo://app?vid=88ea3635-d6ec-4847-b8de-04e30512df40","ios":"levelo://app?vid=88ea3635-d6ec-4847-b8de-04e30512df40"},"vehicle_type_id":"4","last_reported":1740953265,"current_range_meters":22000,"station_id":"","pricing_plan_id":"cebpf4jnsgd1na2vs0mg"},{"bike_id":"751f951d-3b0b-452b-9980-b5e609b5f2bb","system_id":"levelo_inurba_marseille","lat":43.30435,"lon":5.38942,"is_reserved":false,"is_disabled":false,"rental_uris":{"android":"levelo://app?vid=751f951d-3b0b-452b-9980-b5e609b5f2bb","ios":"levelo://app?vid=751f951d-3b0b-452b-9980-b5e609b5f2bb"},"vehicle_type_id":"4","last_reported":1740953265,"current_range_meters":22000,"station_id":"ce4bgk12rcd13ifvqbi0","pricing_plan_id":"cebpf4jnsgd1na2vs0mg"},{"bike_id":"ab610526-eed2-4898-ab3a-2dad53cbca46","system_id":"levelo_inurba_marseille","lat":43.28701,"lon":5.37386,"is_reserved":false,"is_disabled":false,"rental_uris":{"android":"levelo://app?vid=ab610526-eed2-4898-ab3a-2dad53cbca46","ios":"levelo://app?vid=ab610526-eed2-4898-ab3a-2dad53cbca46"},"vehicle_type_id":"4","last_reported":1740953265,"current_range_meters":22000,"station_id":"ce4bh3p2rcd13ifvqdq0","pricing_plan_id":"cebpf4jnsgd1na2vs0mg"},{"bike_id":"9120d6be-a999-49d0-bd8e-053cabeecd04","system_id":"levelo_inurba_marseille","lat":43.28942,"lon":5.36637,"is_reserved":false,"is_disabled":false,"rental_uris":{"android":"levelo://app?vid=9120d6be-a999-49d0-bd8e-053cabeecd04","ios":"levelo://app?vid=9120d6be-a999-49d0-bd8e-053cabeecd04"},"vehicle_type_id":"4","last_reported":1740953265,"current_range_meters":22000,"station_id":"ce4bhap2rcd13ifvqek0","pricing_plan_id":"cebpf4jnsgd1na2vs0mg"},{"bike_id":"24662830-d79d-4740-8154-0d7aa777d222","system_id":"levelo_inurba_marseille","lat":43.2668,"lon":5.38266,"is_reserved":false,"is_disabled":false,"rental_uris":{"android":"levelo://app?vid=24662830-d79d-4740-8154-0d7aa777d222","ios":"levelo://app?vid=24662830-d79d-4740-8154-0d7aa777d222"},"vehicle_type_id":"4","last_reported":1740953265,"current_range_meters":22000,"station_id":"ce4bhg92rcd13ifvqf90","pricing_plan_id":"cebpf4jnsgd1na2vs0mg"},{"bike_id":"91776541-ed77-4520-a61f-cbf21ad72d06","system_id":"levelo_inurba_marseille","lat":43.23965,"lon":5.36637,"is_reserved":false,"is_disabled":false,"rental_uris":{"android":"levelo://app?vid=91776541-ed77-4520-a61f-cbf21ad72d06","ios":"levelo://app?vid=91776541-ed77-4520-a61f-cbf21ad72d06"},"vehicle_type_id":"4","last_reported":1740953265,"current_range_meters":22000,"station_id":"ce4bhi12rcd13ifvqfp0","pricing_plan_id":"cebpf4jnsgd1na2vs0mg"},{"bike_id":"4191113c-3884-4939-977c-0bdd8bdb4f59","system_id":"levelo_inurba_marseille","lat":43.25823,"lon":5.39429,"is_reserved":false,"is_disabled":false,"rental_uris":{"android":"levelo://app?vid=4191113c-3884-4939-977c-0bdd8bdb4f59","ios":"levelo://app?vid=4191113c-3884-4939-977c-0bdd8bdb4f59"},"vehicle_type_id":"4","last_reported":1740953265,"current_range_meters":22000,"station_id":"ce4bhip2rcd13ifvqft0","pricing_plan_id":"cebpf4jnsgd1na2vs0mg"},{"bike_id":"6644bb0e-51c3-4cfa-9a8b-1cde2ef1e639","system_id":"levelo_inurba_marseille","lat":43.23156,"lon":5.43698,"is_reserved":false,"is_disabled":false,"rental_uris":{"android":"levelo://app?vid=6644bb0e-51c3-4cfa-9a8b-1cde2ef1e639","ios":"levelo://app?vid=6644bb0e-51c3-4cfa-9a8b-1cde2ef1e639"},"vehicle_type_id":"4","last_reported":1740953265,"current_range_meters":22000,"station_id":"ce4bhmp2rcd13ifvqgog","pricing_plan_id":"cebpf4jnsgd1na2vs0mg"},{"bike_id":"d5871994-6bbc-4539-90ae-04244fd18631","system_id":"levelo_inurba_marseille","lat":43.28733,"lon":5.40057,"is_reserved":false,"is_disabled":false,"rental_uris":{"android":"levelo://app?vid=d5871994-6bbc-4539-90ae-04244fd18631","ios":"levelo://app?vid=d5871994-6bbc-4539-90ae-04244fd18631"},"vehicle_type_id":"4","last_reported":1740953265,"current_range_meters":22400,"station_id":"","pricing_plan_id":"cebpf4jnsgd1na2vs0mg"},{"bike_id":"43099ed8-c284-4b7a-993c-835512f450ad","system_id":"levelo_inurba_marseille","lat":43.32922,"lon":5.43009,"is_reserved":false,"is_disabled":false,"rental_uris":{"android":"levelo://app?vid=43099ed8-c284-4b7a-993c-835512f450ad","ios":"levelo://app?vid=43099ed8-c284-4b7a-993c-835512f450ad"},"vehicle_type_id":"4","last_reported":1740953265,"current_range_meters":22400,"station_id":"","pricing_plan_id":"cebpf4jnsgd1na2vs0mg"},{"bike_id":"e3d6cad6-6956-491e-82d7-fe3c4516609f","system_id":"levelo_inurba_marseille","lat":43.29186,"lon":5.39333,"is_reserved":false,"is_disabled":false,"rental_uris":{"android":"levelo://app?vid=e3d6cad6-6956-491e-82d7-fe3c4516609f","ios":"levelo://app?vid=e3d6cad6-6956-491e-82d7-fe3c4516609f"},"vehicle_type_id":"4","last_reported":1740953265,"current_range_meters":22400,"station_id":"ce4bh192rcd13ifvqdd0","pricing_plan_id":"cebpf4jnsgd1na2vs0mg"},{"bike_id":"f7cd7d8d-392c-45f4-b69d-0565e30bfeea","system_id":"levelo_inurba_marseille","lat":43.28105,"lon":5.37835,"is_reserved":false,"is_disabled":false,"rental_uris":{"android":"levelo://app?vid=f7cd7d8d-392c-45f4-b69d-0565e30bfeea","ios":"levelo://app?vid=f7cd7d8d-392c-45f4-b69d-0565e30bfeea"},"vehicle_type_id":"4","last_reported":1740953265,"current_range_meters":22400,"station_id":"ce4bha12rcd13ifvqee0","pricing_plan_id":"cebpf4jnsgd1na2vs0mg"},{"bike_id":"fa29bf4d-cc92-46a0-9cba-21a5926657ec","system_id":"levelo_inurba_marseille","lat":43.23951,"lon":5.36713,"is_reserved":false,"is_disabled":false,"rental_uris":{"android":"levelo://app?vid=fa29bf4d-cc92-46a0-9cba-21a5926657ec","ios":"levelo://app?vid=fa29bf4d-cc92-46a0-9cba-21a5926657ec"},"vehicle_type_id":"4","last_reported":1740953265,"current_range_meters":22800,"station_id":"","pricing_plan_id":"cebpf4jnsgd1na2vs0mg"},{"bike_id":"8c9728be-4b7f-4290-81b4-6aa548e38b33","system_id":"levelo_inurba_marseille","lat":43.23872,"lon":5.3655,"is_reserved":false,"is_disabled":false,"rental_uris":{"android":"levelo://app?vid=8c9728be-4b7f-4290-81b4-6aa548e38b33","ios":"levelo://app?vid=8c9728be-4b7f-4290-81b4-6aa548e38b33"},"vehicle_type_id":"4","last_reported":1740953265,"current_range_meters":22800,"station_id":"","pricing_plan_id":"cebpf4jnsgd1na2vs0mg"},{"bike_id":"4052b9a9-bfc0-47d2-95d1-88e71e94bb7c","system_id":"levelo_inurba_marseille","lat":43.32714,"lon":5.39041,"is_reserved":false,"is_disabled":false,"rental_uris":{"android":"levelo://app?vid=4052b9a9-bfc0-47d2-95d1-88e71e94bb7c","ios":"levelo://app?vid=4052b9a9-bfc0-47d2-95d1-88e71e94bb7c"},"vehicle_type_id":"4","last_reported":1740953265,"current_range_meters":22800,"station_id":"","pricing_plan_id":"cebpf4jnsgd1na2vs0mg"},{"bike_id":"94f84b8c-e021-4c1e-8ed0-f390bcea07c5","system_id":"levelo_inurba_marseille","lat":43.25004,"lon":5.38928,"is_reserved":false,"is_disabled":false,"rental_uris":{"android":"levelo://app?vid=94f84b8c-e021-4c1e-8ed0-f390bcea07c5","ios":"levelo://app?vid=94f84b8c-e021-4c1e-8ed0-f390bcea07c5"},"vehicle_type_id":"4","last_reported":1740953265,"current_range_meters":22800,"station_id":"ce4bhgp2rcd13ifvqfd0","pricing_plan_id":"cebpf4jnsgd1na2vs0mg"},{"bike_id":"5a605fc2-8bdd-4bb3-bf76-9387d76aad2b","system_id":"levelo_inurba_marseille","lat":43.24161,"lon":5.39732,"is_reserved":false,"is_disabled":false,"rental_uris":{"android":"levelo://app?vid=5a605fc2-8bdd-4bb3-bf76-9387d76aad2b","ios":"levelo://app?vid=5a605fc2-8bdd-4bb3-bf76-9387d76aad2b"},"vehicle_type_id":"4","last_reported":1740953265,"current_range_meters":22800,"station_id":"ce4bhn12rcd13ifvqgpg","pricing_plan_id":"cebpf4jnsgd1na2vs0mg"},{"bike_id":"804b43dc-5a6f-4fa2-ad1f-47d552a6a8d0","system_id":"levelo_inurba_marseille","lat":43.32458,"lon":5.36563,"is_reserved":false,"is_disabled":false,"rental_uris":{"android":"levelo://app?vid=804b43dc-5a6f-4fa2-ad1f-47d552a6a8d0","ios":"levelo://app?vid=804b43dc-5a6f-4fa2-ad1f-47d552a6a8d0"},"vehicle_type_id":"4","last_reported":1740953265,"current_range_meters":22800,"station_id":"ce4bhs12rcd13ifvqhvg","pricing_plan_id":"cebpf4jnsgd1na2vs0mg"},{"bike_id":"31accac7-daa1-48e4-9364-efbbdee2d729","system_id":"levelo_inurba_marseille","lat":43.31423,"lon":5.38612,"is_reserved":false,"is_disabled":false,"rental_uris":{"android":"levelo://app?vid=31accac7-daa1-48e4-9364-efbbdee2d729","ios":"levelo://app?vid=31accac7-daa1-48e4-9364-efbbdee2d729"},"vehicle_type_id":"4","last_reported":1740953265,"current_range_meters":23200,"station_id":"","pricing_plan_id":"cebpf4jnsgd1na2vs0mg"},{"bike_id":"3b4e4ee0-90a7-4227-ae52-182a4c076787","system_id":"levelo_inurba_marseille","lat":43.29179,"lon":5.39822,"is_reserved":false,"is_disabled":false,"rental_uris":{"android":"levelo://app?vid=3b4e4ee0-90a7-4227-ae52-182a4c076787","ios":"levelo://app?vid=3b4e4ee0-90a7-4227-ae52-182a4c076787"},"vehicle_type_id":"4","last_reported":1740953265,"current_range_meters":23200,"station_id":"","pricing_plan_id":"cebpf4jnsgd1na2vs0mg"},{"bike_id":"7831a329-73dd-4ede-aacc-370ca03acd0a","system_id":"levelo_inurba_marseille","lat":43.29907,"lon":5.38135,"is_reserved":false,"is_disabled":false,"rental_uris":{"android":"levelo://app?vid=7831a329-73dd-4ede-aacc-370ca03acd0a","ios":"levelo://app?vid=7831a329-73dd-4ede-aacc-370ca03acd0a"},"vehicle_type_id":"4","last_reported":1740953265,"current_range_meters":23200,"station_id":"ce4bgj12rcd13ifvqbc0","pricing_plan_id":"cebpf4jnsgd1na2vs0mg"},