{"last_updated":1759148499,"ttl":60,"version":"2.2","data":{"bikes":[{"bike_id":"28072a77-eefd-4cfa-bd68-7696e02f507d","system_id":"levelo_inurba_marseille","lat":43.32553,"lon":5.36832,"is_reserved":false,"is_disabled":false,"rental_uris":{"android":"levelo://app?vid=28072a77-eefd-4cfa-bd68-7696e02f507d","ios":"levelo://app?vid=28072a77-eefd-4cfa-bd68-7696e02f507d"},"vehicle_type_id":"4","last_reported":1759148499,"current_range_meters":2800,"station_id":"","pricing_plan_id":"cebpf4jnsgd1na2vs0mg"},{"bike_id":"01bf55f2-4ac6-46f6-8504-3267bf31e1a6","system_id":"levelo_inurba_marseille","lat":43.2973,"lon":5.381787,"is_reserved":false,"is_disabled":false,"rental_uris":{"android":"levelo://app?vid=01bf55f2-4ac6-46f6-8504-3267bf31e1a6","ios":"levelo://app?vid=01bf55f2-4ac6-46f6-8504-3267bf31e1a6"},"vehicle_type_id":"4","last_reported":1759148499,"current_range_meters":2800,"station_id":"","pricing_plan_id":"cebpf4jnsgd1na2vs0mg"},{"bike_id":"e8d979f7-193e-4b9b-969e-5fceb4d8c3c2","system_id":"levelo_inurba_marseille","lat":43.2721,"lon":5.39173,"is_reserved":false,"is_disabled":false,"rental_uris":{"android":"levelo://app?vid=e8d979f7-193e-4b9b-969e-5fceb4d8c3c2","ios":"levelo://app?vid=e8d979f7-193e-4b9b-969e-5fceb4d8c3c2"},"vehicle_type_id":"4","last_reported":1759148499,"current_range_meters":2800,"station_id":"ce4bhhp2rcd13ifvqfm0","pricing_plan_id":"cebpf4jnsgd1na2vs0mg"},{"bike_id":"045cdc09-1575-4afe-9b00-f15193f28ae4","system_id":"levelo_inurba_marseille","lat":43.28425,"lon":5.34979,"is_reserved":false,"is_disabled":false,"rental_uris":{"android":"levelo://app?vid=045cdc09-1575-4afe-9b00-f15193f28ae4","ios":"levelo://app?vid=045cdc09-1575-4afe-9b00-f15193f28ae4"},"vehicle_type_id":"4","last_reported":1759148499,"current_range_meters":2800,"station_id":"ce4bhbh2rcd13ifvqepg","pricing_plan_id":"cebpf4jnsgd1na2vs0mg"},{"bike_id":"239ac5ef-923b-43e2-894c-b0d584a4fc9d","system_id":"levelo_inurba_marseille","lat":43.29628,"lon":5.37725,"is_reserved":false,"is_disabled":false,"rental_uris":{"android":"levelo://app?vid=239ac5ef-923b-43e2-894c-b0d584a4fc9d","ios":"levelo://app?vid=239ac5ef-923b-43e2-894c-b0d584a4fc9d"},"vehicle_type_id":"4","last_reported":1759148499,"current_range_meters":3200,"station_id":"ce4bgi92rcd13ifvqb90","pricing_plan_id":"cebpf4jnsgd1na2vs0mg"},{"bike_id":"ecb280d5-514f-421e-8bf8-6edff9a65285","system_id":"levelo_inurba_marseille","lat":43.28425,"lon":5.34981,"is_reserved":false,"is_disabled":false,"rental_uris":{"android":"levelo://app?vid=ecb280d5-514f-421e-8bf8-6edff9a65285","ios":"levelo://app?vid=ecb280d5-514f-421e-8bf8-6edff9a65285"},"vehicle_type_id":"4","last_reported":1759148499,"current_range_meters":3200,"station_id":"ce4bhbh2rcd13ifvqepg","pricing_plan_id":"cebpf4jnsgd1na2vs0mg"},{"bike_id":"3daa03b4-5a49-46a8-ba0a-dd3964e6c7d0","system_id":"levelo_inurba_marseille","lat":43.27958,"lon":5.38694,"is_reserved":false,"is_disabled":false,"rental_uris":{"android":"levelo://app?vid=3daa03b4-5a49-46a8-ba0a-dd3964e6c7d0","ios":"levelo://app?vid=3daa03b4-5a49-46a8-ba0a-dd3964e6c7d0"},"vehicle_type_id":"4","last_reported":1759148499,"current_range_meters":3200,"station_id":"ce4bhg12rcd13ifvqf80","pricing_plan_id":"cebpf4jnsgd1na2vs0mg"},{"bike_id":"dcf56f09-9948-4099-bec3-c96b083f5834","system_id":"levelo_inurba_marseille","lat":43.23156,"lon":5.43707,"is_reserved":false,"is_disabled":false,"rental_uris":{"android":"levelo://app?vid=dcf56f09-9948-4099-bec3-c96b083f5834","ios":"levelo://app?vid=dcf56f09-9948-4099-bec3-c96b083f5834"},"vehicle_type_id":"4","last_reported":1759148499,"current_range_meters":3200,"station_id":"ce4bhmp2rcd13ifvqgog","pricing_plan_id":"cebpf4jnsgd1na2vs0mg"},{"bike_id":"b0bfd988-5617-4482-9bb9-8cf83fe92ebe","system_id":"levelo_inurba_marseille","lat":43.29268,"lon":5.38445,"is_reserved":false,"is_disabled":false,"rental_uris":{"android":"levelo://app?vid=b0bfd988-5617-4482-9bb9-8cf83fe92ebe","ios":"levelo://app?vid=b0bfd988-5617-4482-9bb9-8cf83fe92ebe"},"vehicle_type_id":"4","last_reported":1759148499,"current_range_meters":3600,"station_id":"ce4bh692rcd13ifvqea0","pricing_plan_id":"cebpf4jnsgd1na2vs0mg"},{"bike_id":"42886354-d92d-4500-b946-0f8a417830a5","system_id":"levelo_inurba_marseille","lat":43.29042,"lon":5.35914,"is_reserved":false,"is_disabled":false,"rental_uris":{"android":"levelo://app?vid=42886354-d92d-4500-b946-0f8a417830a5","ios":"levelo://app?vid=42886354-d92d-4500-b946-0f8a417830a5"},"vehicle_type_id":"4","last_reported":1759148499,"current_range_meters":3600,"station_id":"ce4bha92rcd13ifvqeg0","pricing_plan_id":"cebpf4jnsgd1na2vs0mg"},{"bike_id":"356ab9e0-2f63-493f-94be-18197ef12706","system_id":"levelo_inurba_marseille","lat":43.28619,"lon":5.35104,"is_reserved":false,"is_disabled":false,"rental_uris":{"android":"levelo://app?vid=356ab9e0-2f63-493f-94be-18197ef12706","ios":"levelo://app?vid=356ab9e0-2f63-493f-94be-18197ef12706"},"vehicle_type_id":"4","last_reported":1759148499,"current_range_meters":3600,"station_id":"ce4bhch2rcd13ifvqeug","pricing_plan_id":"cebpf4jnsgd1na2vs0mg"},{"bike_id":"934ea1ec-b7f6-49a1-9efa-287317d4eb22","system_id":"levelo_inurba_marseille","lat":43.29048,"lon":5.35914,"is_reserved":false,"is_disabled":false,"rental_uris":{"android":"levelo://app?vid=934ea1ec-b7f6-49a1-9efa-287317d4eb22","ios":"levelo://app?vid=934ea1ec-b7f6-49a1-9efa-287317d4eb22"},"vehicle_type_id":"4","last_reported":1759148499,"current_range_meters":4000,"station_id":"","pricing_plan_id":"cebpf4jnsgd1na2vs0mg"},{"bike_id":"24e5e440-c2b3-481a-9aae-b51854e6c228","system_id":"levelo_inurba_marseille","lat":43.290058,"lon":5.356168,"is_reserved":false,"is_disabled":true,"rental_uris":{"android":"levelo://app?vid=24e5e440-c2b3-481a-9aae-b51854e6c228","ios":"levelo://app?vid=24e5e440-c2b3-481a-9aae-b51854e6c228"},"vehicle_type_id":"4","last_reported":1759148499,"current_range_meters":4400,"station_id":"","pricing_plan_id":"cebpf4jnsgd1na2vs0mg"},{"bike_id":"bdd6566a-56fd-40d4-8110-b23337e01aa2","system_id":"levelo_inurba_marseille","lat":43.26585,"lon":5.40314,"is_reserved":false,"is_disabled":false,"rental_uris":{"android":"levelo://app?vid=bdd6566a-56fd-40d4-8110-b23337e01aa2","ios":"levelo://app?vid=bdd6566a-56fd-40d4-8110-b23337e01aa2"},"vehicle_type_id":"4","last_reported":1759148499,"current_range_meters":4400,"station_id":"ce4bhmp2rcd13ifvqgng","pricing_plan_id":"cebpf4jnsgd1na2vs0mg"},{"bike_id":"25daa159-1027-4d6f-ba8d-fc49f69f36a6","system_id":"levelo_inurba_marseille","lat":43.29048,"lon":5.39962,"is_reserved":false,"is_disabled":false,"rental_uris":{"android":"levelo://app?vid=25daa159-1027-4d6f-ba8d-fc49f69f36a6","ios":"levelo://app?vid=25daa159-1027-4d6f-ba8d-fc49f69f36a6"},"vehicle_type_id":"4","last_reported":1759148499,"current_range_meters":4400,"station_id":"ce4bh392rcd13ifvqdm0","pricing_plan_id":"cebpf4jnsgd1na2vs0mg"},{"bike_id":"2fa51b80-bf8d-47be-a690-42b1756dc06a","system_id":"levelo_inurba_marseille","lat":43.27497,"lon":5.4245,"is_reserved":false,"is_disabled":false,"rental_uris":{"android":"levelo://app?vid=2fa51b80-bf8d-47be-a690-42b1756dc06a","ios":"levelo://app?vid=2fa51b80-bf8d-47be-a690-42b1756dc06a"},"vehicle_type_id":"4","last_reported":1759148499,"current_range_meters":4400,"station_id":"ce4bhn92rcd13ifvqgrg","pricing_plan_id":"cebpf4jnsgd1na2vs0mg"},{"bike_id":"70c4c544-e0a4-4c09-a2d0-499f49f6a1ee","system_id":"levelo_inurba_marseille","lat":43.30538,"lon":5.3656,"is_reserved":false,"is_disabled":false,"rental_uris":{"android":"levelo://app?vid=70c4c544-e0a4-4c09-a2d0-499f49f6a1ee","ios":"levelo://app?vid=70c4c544-e0a4-4c09-a2d0-499f49f6a1ee"},"vehicle_type_id":"4","last_reported":1759148499,"current_range_meters":4400,"station_id":"ce4bgs12rcd13ifvqcag","pricing_plan_id":"cebpf4jnsgd1na2vs0mg"},{"bike_id":"0cd2196e-c511-44c5-ba25-2c6a601d9e33","system_id":"levelo_inurba_marseille","lat":43.324653,"lon":5.415396,"is_reserved":false,"is_disabled":false,"rental_uris":{"android":"levelo://app?vid=0cd2196e-c511-44c5-ba25-2c6a601d9e33","ios":"levelo://app?vid=0cd2196e-c511-44c5-ba25-2c6a601d9e33"},"vehicle_type_id":"4","last_reported":1759148499,"current_range_meters":4800,"station_id":"ce4bhq12rcd13ifvqhhg","pricing_plan_id":"cebpf4jnsgd1na2vs0mg"},{"bike_id":"5f6b205a-21be-4ed1-9cd4-0a2db954bdc9","system_id":"levelo_inurba_marseille","lat":43.28404,"lon":5.37514,"is_reserved":false,"is_disabled":false,"rental_uris":{"android":"levelo://app?vid=5f6b205a-21be-4ed1-9cd4-0a2db954bdc9","ios":"levelo://app?vid=5f6b205a-21be-4ed1-9cd4-0a2db954bdc9"},"vehicle_type_id":"4","last_reported":1759148499,"current_range_meters":4800,"station_id":"ce4bh412rcd13ifvqds0","pricing_plan_id":"cebpf4jnsgd1na2vs0mg"},{"bike_id":"6a30fb30-222d-4a8c-aed7-5f7e42220ff3","system_id":"levelo_inurba_marseille","lat":43.30138,"lon":5.37404,"is_reserved":false,"is_disabled":false,"rental_uris":{"android":"levelo://app?vid=6a30fb30-222d-4a8c-aed7-5f7e42220ff3","ios":"levelo://app?vid=6a30fb30-222d-4a8c-aed7-5f7e42220ff3"},"vehicle_type_id":"4","last_reported":1759148499,"current_range_meters":4800,"station_id":"ce4bgs92rcd13ifvqcc0","pricing_plan_id":"cebpf4jnsgd1na2vs0mg"},{"bike_id":"2466c422-eef5-46d4-a88f-b2f672af5ced","system_id":"levelo_inurba_marseille","lat":43.28366,"lon":5.38604,"is_reserved":false,"is_disabled":false,"rental_uris":{"android":"levelo://app?vid=2466c422-eef5-46d4-a88f-b2f672af5ced","ios":"levelo://app?vid=2466c422-eef5-46d4-a88f-b2f672af5ced"},"vehicle_type_id":"4","last_reported":1759148499,"current_range_meters":4800,"station_id":"ce4bh492rcd13ifvqdvg","pricing_plan_id":"cebpf4jnsgd1na2vs0mg"},{"bike_id":"37c43101-3dbe-42be-99ae-fe2f533bdb38","system_id":"levelo_inurba_marseille","lat":43.29006,"lon":5.35611,"is_reserved":false,"is_disabled":false,"rental_uris":{"android":"levelo://app?vid=37c43101-3dbe-42be-99ae-fe2f533bdb38","ios":"levelo://app?vid=37c43101-3dbe-42be-99ae-fe2f533bdb38"},"vehicle_type_id":"4","last_reported":1759148499,"current_range_meters":4800,"station_id":"ce4bhb92rcd13ifvqen0","pricing_plan_id":"cebpf4jnsgd1na2vs0mg"},{"bike_id":"debfb271-4075-4682-ab16-7fec655566f6","system_id":"levelo_inurba_marseille","lat":43.29711,"lon":5.3771,"is_reserved":false,"is_disabled":false,"rental_uris":{"android":"levelo://app?vid=debfb271-4075-4682-ab16-7fec655566f6","ios":"levelo://app?vid=debfb271-4075-4682-ab16-7fec655566f6"},"vehicle_type_id":"4","last_reported":1759148499,"current_range_meters":4800,"station_id":"ce4bgkh2rcd13ifvqbl0","pricing_plan_id":"cebpf4jnsgd1na2vs0mg"},{"bike_id":"aa9f8bd5-6757-4b61-9768-7fe2133ae6a3","system_id":"levelo_inurba_marseille","lat":43.265712,"lon":5.390061,"is_reserved":false,"is_disabled":false,"rental_uris":{"android":"levelo://app?vid=aa9f8bd5-6757-4b61-9768-7fe2133ae6a3","ios":"levelo://app?vid=aa9f8bd5-6757-4b61-9768-7fe2133ae6a3"},"vehicle_type_id":"4","last_reported":1759148499,"current_range_meters":4800,"station_id":"ce4bhe12rcd13ifvqf30","pricing_plan_id":"cebpf4jnsgd1na2vs0mg"},{"bike_id":"eb627543-2338-4d8b-afd7-a084474df881","system_id":"levelo_inurba_marseille","lat":43.293036,"lon":5.374507,"is_reserved":false,"is_disabled":false,"rental_uris":{"android":"levelo://app?vid=eb627543-2338-4d8b-afd7-a084474df881","ios":"levelo://app?vid=eb627543-2338-4d8b-afd7-a084474df881"},"vehicle_type_id":"4","last_reported":1759148499,"current_range_meters":5600,"station_id":"ce4bgi12rcd13ifvqb70","pricing_plan_id":"cebpf4jnsgd1na2vs0mg"},{"bike_id":"7a25021a-459e-4712-8524-a7979e46bbe2","system_id":"levelo_inurba_marseille","lat":43.231558,"lon":5.437238,"is_reserved":false,"is_disabled":false,"rental_uris":{"android":"levelo://app?vid=7a25021a-459e-4712-8524-a7979e46bbe2","ios":"levelo://app?vid=7a25021a-459e-4712-8524-a7979e46bbe2"},"vehicle_type_id":"4","last_reported":1759148499,"current_range_meters":5600,"station_id":"ce4bhmp2rcd13ifvqgog","pricing_plan_id":"cebpf4jnsgd1na2vs0mg"},{"bike_id":"0fbccb42-1287-4f8a-b735-1c2a2ff66fc2","system_id":"levelo_inurba_marseille","lat":43.30799,"lon":5.38162,"is_reserved":false,"is_disabled":false,"rental_uris":{"android":"levelo://app?vid=0fbccb42-1287-4f8a-b735-1c2a2ff66fc2","ios":"levelo://app?vid=0fbccb42-1287-4f8a-b735-1c2a2ff66fc2"},"vehicle_type_id":"4","last_reported":1759148499,"current_range_meters":4800,"station_id":"ce4bgt12rcd13ifvqce0","pricing_plan_id":"cebpf4jnsgd1na2vs0mg"},{"bike_id":"846b9ad1-a37c-4e96-83a1-cfe56d80f0d2","system_id":"levelo_inurba_marseille","lat":43.26282,"lon":5.39844,"is_reserved":false,"is_disabled":false,"rental_uris":{"android":"levelo://app?vid=846b9ad1-a37c-4e96-83a1-cfe56d80f0d2","ios":"levelo://app?vid=846b9ad1-a37c-4e96-83a1-cfe56d80f0d2"},"vehicle_type_id":"4","last_reported":1759148499,"current_range_meters":6000,"station_id":"","pricing_plan_id":"cebpf4jnsgd1na2vs0mg"},{"bike_id":"26172944-106b-4b4e-9e3c-562a87d00a0c","system_id":"levelo_inurba_marseille","lat":43.290321,"lon":5.376542,"is_reserved":false,"is_disabled":false,"rental_uris":{"android":"levelo://app?vid=26172944-106b-4b4e-9e3c-562a87d00a0c","ios":"levelo://app?vid=26172944-106b-4b4e-9e3c-562a87d00a0c"},"vehicle_type_id":"4","last_reported":1759148499,"current_range_meters":6000,"station_id":"","pricing_plan_id":"cebpf4jnsgd1na2vs0mg"},{"bike_id":"514345b2-4279-42e7-b03a-533de1584ac3","system_id":"levelo_inurba_marseille","lat":43.30176,"lon":5.36589,"is_reserved":false,"is_disabled":false,"rental_uris":{"android":"levelo://app?vid=514345b2-4279-42e7-b03a-533de1584ac3","ios":"levelo://app?vid=514345b2-4279-42e7-b03a-533de1584ac3"},"vehicle_type_id":"4","last_reported":1759148499,"current_range_meters":6400,"station_id":"ce4bgrh2rcd13ifvqc8g","pricing_plan_id":"cebpf4jnsgd1na2vs0mg"},{"bike_id":"7a4d18e9-4f5a-4ba3-8801-40d7e1c4879d","system_id":"levelo_inurba_marseille","lat":43.26211,"lon":5.37444,"is_reserved":false,"is_disabled":false,"rental_uris":{"android":"levelo://app?vid=7a4d18e9-4f5a-4ba3-8801-40d7e1c4879d","ios":"levelo://app?vid=7a4d18e9-4f5a-4ba3-8801-40d7e1c4879d"},"vehicle_type_id":"4","last_reported":1759148499,"current_range_meters":6400,"station_id":"ce4bhgp2rcd13ifvqfc0","pricing_plan_id":"cebpf4jnsgd1na2vs0mg"},{"bike_id":"697470c7-1e7d-47fa-9bf3-69454528a61d","system_id":"levelo_inurba_marseille","lat":43.30542,"lon":5.36705,"is_reserved":false,"is_disabled":false,"rental_uris":{"android":"levelo://app?vid=697470c7-1e7d-47fa-9bf3-69454528a61d","ios":"levelo://app?vid=697470c7-1e7d-47fa-9bf3-69454528a61d"},"vehicle_type_id":"4","last_reported":1759148499,"current_range_meters":6400,"station_id":"ce4bgrp2rcd13ifvqc9g","pricing_plan_id":"cebpf4jnsgd1na2vs0mg"},{"bike_id":"eed8effd-8409-43ce-9166-e4e8bc595125","system_id":"levelo_inurba_marseille","lat":43.30437,"lon":5.38885,"is_reserved":false,"is_disabled":false,"rental_uris":{"android":"levelo://app?vid=eed8effd-8409-43ce-9166-e4e8bc595125","ios":"levelo://app?vid=eed8effd-8409-43ce-9166-e4e8bc595125"},"vehicle_type_id":"4","last_reported":1759148499,"current_range_meters":6400,"station_id":"ce4bgk12rcd13ifvqbi0","pricing_plan_id":"cebpf4jnsgd1na2vs0mg"},{"bike_id":"17c0277b-3283-44e0-b7d1-bbd5980bc0bf","system_id":"levelo_inurba_marseille","lat":43.29964,"lon":5.38501,"is_reserved":false,"is_disabled":false,"rental_uris":{"android":"levelo://app?vid=17c0277b-3283-44e0-b7d1-bbd5980bc0bf","ios":"levelo://app?vid=17c0277b-3283-44e0-b7d1-bbd5980bc0bf"},"vehicle_type_id":"4","last_reported":1759148499,"current_range_meters":6000,"station_id":"ce4bgj92rcd13ifvqbd0","pricing_plan_id":"cebpf4jnsgd1na2vs0mg"},{"bike_id":"2d41286a-0b1b-4b74-8f1c-9998585ffca4","system_id":"levelo_inurba_marseille","lat":43.296928,"lon":5.376994,"is_reserved":false,"is_disabled":false,"rental_uris":{"android":"levelo://app?vid=2d41286a-0b1b-4b74-8f1c-9998585ffca4","ios":"levelo://app?vid=2d41286a-0b1b-4b74-8f1c-9998585ffca4"},"vehicle_type_id":"4","last_reported":1759148499,"current_range_meters":6800,"station_id":"ce4bgkh2rcd13ifvqbl0","pricing_plan_id":"cebpf4jnsgd1na2vs0mg"},{"bike_id":"1d988d48-4abb-4636-977c-34358db2fd33","system_id":"levelo_inurba_marseille","lat":43.30911,"lon":5.36852,"is_reserved":false,"is_disabled":false,"rental_uris":{"android":"levelo://app?vid=1d988d48-4abb-4636-977c-34358db2fd33","ios":"levelo://app?vid=1d988d48-4abb-4636-977c-34358db2fd33"},"vehicle_type_id":"4","last_reported":1759148499,"current_range_meters":6800,"station_id":"","pricing_plan_id":"cebpf4jnsgd1na2vs0mg"},{"bike_id":"541ba6c7-e743-4679-9394-be2b808cf5a3","system_id":"levelo_inurba_marseille","lat":43.25583,"lon":5.38237,"is_reserved":false,"is_disabled":false,"rental_uris":{"android":"levelo://app?vid=541ba6c7-e743-4679-9394-be2b808cf5a3","ios":"levelo://app?vid=541ba6c7-e743-4679-9394-be2b808cf5a3"},"vehicle_type_id":"4","last_reported":1759148499,"current_range_meters":6800,"station_id":"ce4bhih2rcd13ifvqfs0","pricing_plan_id":"cebpf4jnsgd1na2vs0mg"},{"bike_id":"4c02c545-ad59-45b1-9b9c-d3678a5922c7","system_id":"levelo_inurba_marseille","lat":43.337444,"lon":5.374475,"is_reserved":false,"is_disabled":false,"rental_uris":{"android":"levelo://app?vid=4c02c545-ad59-45b1-9b9c-d3678a5922c7","ios":"levelo://app?vid=4c02c545-ad59-45b1-9b9c-d3678a5922c7"},"vehicle_type_id":"4","last_reported":1759148499,"current_range_meters":6800,"station_id":"","pricing_plan_id":"cebpf4jnsgd1na2vs0mg"},{"bike_id":"c097f066-7651-435e-913f-a8a7838aba88","system_id":"levelo_inurba_marseille","lat":43.33722,"lon":5.37459,"is_reserved":false,"is_disabled":false,"rental_uris":{"android":"levelo://app?vid=c097f066-7651-435e-913f-a8a7838aba88","ios":"levelo://app?vid=c097f066-7651-435e-913f-a8a7838aba88"},"vehicle_type_id":"4","last_reported":1759148499,"current_range_meters":6800,"station_id":"","pricing_plan_id":"cebpf4jnsgd1na2vs0mg"},{"bike_id":"1dd68e7b-95b9-4b42-8916-0520c2d3844e","system_id":"levelo_inurba_marseille","lat":43.30334,"lon":5.40431,"is_reserved":false,"is_disabled":false,"rental_uris":{"android":"levelo://app?vid=1dd68e7b-95b9-4b42-8916-0520c2d3844e","ios":"levelo://app?vid=1dd68e7b-95b9-4b42-8916-0520c2d3844e"},"vehicle_type_id":"4","last_reported":1759148499,"current_range_meters":6800,"station_id":"ce4bh012rcd13ifvqd10","pricing_plan_id":"cebpf4jnsgd1na2vs0mg"},{"bike_id":"03350417-1098-4d6c-b8fe-9e64358744bf","system_id":"levelo_inurba_marseille","lat":43.3322,"lon":5.4128,"is_reserved":false,"is_disabled":false,"rental_uris":{"android":"levelo://app?vid=03350417-1098-4d6c-b8fe-9e64358744bf","ios":"levelo://app?vid=03350417-1098-4d6c-b8fe-9e64358744bf"},"vehicle_type_id":"4","last_reported":1759148499,"current_range_meters":6800,"station_id":"","pricing_plan_id":"cebpf4jnsgd1na2vs0mg"},{"bike_id":"720ebe36-e38e-486a-9868-5de94cb18173","system_id":"levelo_inurba_marseille","lat":43.31271,"lon":5.40172,"is_reserved":false,"is_disabled":false,"rental_uris":{"android":"levelo://app?vid=720ebe36-e38e-486a-9868-5de94cb18173","ios":"levelo://app?vid=720ebe36-e38e-486a-9868-5de94cb18173"},"vehicle_type_id":"4","last_reported":1759148499,"current_range_meters":6800,"station_id":"ce4bh092rcd13ifvqd30","pricing_plan_id":"cebpf4jnsgd1na2vs0mg"},{"bike_id":"5f2fe553-a3fb-4db8-90ec-d80c5da60c5c","system_id":"levelo_inurba_marseille","lat":43.32481,"lon":5.36571,"is_reserved":false,"is_disabled":false,"rental_uris":{"android":"levelo://app?vid=5f2fe553-a3fb-4db8-90ec-d80c5da60c5c","ios":"levelo://app?vid=5f2fe553-a3fb-4db8-90ec-d80c5da60c5c"},"vehicle_type_id":"4","last_reported":1759148499,"current_range_meters":7200,"station_id":"ce4bhs12rcd13ifvqhvg","pricing_plan_id":"cebpf4jnsgd1na2vs0mg"},{"bike_id":"3cf5268c-86da-45d6-bf71-ed65c562ba2a","system_id":"levelo_inurba_marseille","lat":43.2993,"lon":5.38002,"is_reserved":false,"is_disabled":false,"rental_uris":{"android":"levelo://app?vid=3cf5268c-86da-45d6-bf71-ed65c562ba2a","ios":"levelo://app?vid=3cf5268c-86da-45d6-bf71-ed65c562ba2a"},"vehicle_type_id":"4","last_reported":1759148499,"current_range_meters":7200,"station_id":"","pricing_plan_id":"cebpf4jnsgd1na2vs0mg"},{"bike_id":"5d087a60-134c-4df2-8aab-88bbf6ad4e1a","system_id":"levelo_inurba_marseille","lat":43.2315,"lon":5.43711,"is_reserved":false,"is_disabled":false,"rental_uris":{"android":"levelo://app?vid=5d087a60-134c-4df2-8aab-88bbf6ad4e1a","ios":"levelo://app?vid=5d087a60-134c-4df2-8aab-88bbf6ad4e1a"},"vehicle_type_id":"4","last_reported":1759148499,"current_range_meters":7200,"station_id":"ce4bhmp2rcd13ifvqgog","pricing_plan_id":"cebpf4jnsgd1na2vs0mg"},{"bike_id":"d16f46f5-3d43-4933-b088-bc397093924a","system_id":"levelo_inurba_marseille","lat":43.298537,"lon":5.362979,"is_reserved":false,"is_disabled":false,"rental_uris":{"android":"levelo://app?vid=d16f46f5-3d43-4933-b088-bc397093924a","ios":"levelo://app?vid=d16f46f5-3d43-4933-b088-bc397093924a"},"vehicle_type_id":"4","last_reported":1759148499,"current_range_meters":7200,"station_id":"ce4bgpp2rcd13ifvqc3g","pricing_plan_id":"cebpf4jnsgd1na2vs0mg"},{"bike_id":"f5e6cbff-1444-43c6-835c-303354ed82ba","system_id":"levelo_inurba_marseille","lat":43.33735,"lon":5.39181,"is_reserved":false,"is_disabled":false,"rental_uris":{"android":"levelo://app?vid=f5e6cbff-1444-43c6-835c-303354ed82ba","ios":"levelo://app?vid=f5e6cbff-1444-43c6-835c-303354ed82ba"},"vehicle_type_id":"4","last_reported":1759148499,"current_range_meters":8000,"station_id":"ce4bhr92rcd13ifvqhsg","pricing_plan_id":"cebpf4jnsgd1na2vs0mg"},{"bike_id":"c67501b0-9112-434a-b3e5-4cbae40b4260","system_id":"levelo_inurba_marseille","lat":43.27204,"lon":5.39177,"is_reserved":false,"is_disabled":false,"rental_uris":{"android":"levelo://app?vid=c67501b0-9112-434a-b3e5-4cbae40b4260","ios":"levelo://app?vid=c67501b0-9112-434a-b3e5-4cbae40b4260"},"vehicle_type_id":"4","last_reported":1759148499,"current_range_meters":8000,"station_id":"ce4bhhp2rcd13ifvqfm0","pricing_plan_id":"cebpf4jnsgd1na2vs0mg"},{"bike_id":"8a4a8404-2223-404b-b9d6-fda388efd3eb","system_id":"levelo_inurba_marseille","lat":43.225399,"lon":5.348524,"is_reserved":false,"is_disabled":false,"rental_uris":{"android":"levelo://app?vid=8a4a8404-2223-404b-b9d6-fda388efd3eb","ios":"levelo://app?vid=8a4a8404-2223-404b-b9d6-fda388efd3eb"},"vehicle_type_id":"4","last_reported":1759148499,"current_range_meters":8000,"station_id":"","pricing_plan_id":"cebpf4jnsgd1na2vs0mg"},{"bike_id":"bc85c2b7-fb13-477a-bbd7-01f47d27e6a2","system_id":"levelo_inurba_marseille","lat":43.23197,"lon":5.35573,"is_reserved":false,"is_disabled":false,"rental_uris":{"android":"levelo://app?vid=bc85c2b7-fb13-477a-bbd7-01f47d27e6a2","ios":"levelo://app?vid=bc85c2b7-fb13-477a-bbd7-01f47d27e6a2"},"vehicle_type_id":"4","last_reported":1759148499,"current_range_meters":6400,"station_id":"ce4bhu92rcd13ifvqi70","pricing_plan_id":"cebpf4jnsgd1na2vs0mg"},{"bike_id":"61a76e0c-266c-48c2-8dda-057075ad01b8","system_id":"levelo_inurba_marseille","lat":43.2596,"lon":5.41373,"is_reserved":false,"is_disabled":false,"rental_uris":{"android":"levelo://app?vid=61a76e0c-266c-48c2-8dda-057075ad01b8","ios":"levelo://app?vid=61a76e0c-266c-48c2-8dda-057075ad01b8"},"vehicle_type_id":"4","last_reported":1759148499,"current_range_meters":8000,"station_id":"","pricing_plan_id":"cebpf4jnsgd1na2vs0mg"},{"bike_id":"f7c0041d-9d41-43b5-9f8d-c510cdab7ad0","system_id":"levelo_inurba_marseille","lat":43.292,"lon":5.39318,"is_reserved":false,"is_disabled":false,"rental_uris":{"android":"levelo://app?vid=f7c0041d-9d41-43b5-9f8d-c510cdab7ad0","ios":"levelo://app?vid=f7c0041d-9d41-43b5-9f8d-c510cdab7ad0"},"vehicle_type_id":"4","last_reported":1759148499,"current_range_meters":8000,"station_id":"ce4bh192rcd13ifvqdd0","pricing_plan_id":"cebpf4jnsgd1na2vs0mg"},{"bike_id":"c9916796-5f07-4d22-aceb-87882fb08ac5","system_id":"levelo_inurba_marseille","lat":43.30587,"lon":5.36594,"is_reserved":false,"is_disabled":false,"rental_uris":{"android":"levelo://app?vid=c9916796-5f07-4d22-aceb-87882fb08ac5","ios":"levelo://app?vid=c9916796-5f07-4d22-aceb-87882fb08ac5"},"vehicle_type_id":"4","last_reported":1759148499,"current_range_meters":8400,"station_id":"ce4bgs12rcd13ifvqcag","pricing_plan_id":"cebpf4jnsgd1na2vs0mg"},{"bike_id":"ba89d756-4474-408d-b64d-98c8530d09bb","system_id":"levelo_inurba_marseille","lat":43.29099,"lon":5.38133,"is_reserved":false,"is_disabled":false,"rental_uris":{"android":"levelo://app?vid=ba89d756-4474-408d-b64d-98c8530d09bb","ios":"levelo://app?vid=ba89d756-4474-408d-b64d-98c8530d09bb"},"vehicle_type_id":"4","last_reported":1759148499,"current_range_meters":8400,"station_id":"ce4bh512rcd13ifvqe2g","pricing_plan_id":"cebpf4jnsgd1na2vs0mg"},{"bike_id":"1aa11bbc-1264-4f84-82f7-926b3977fcea","system_id":"levelo_inurba_marseille","lat":43.27318,"lon":5.39065,"is_reserved":false,"is_disabled":false,"rental_uris":{"android":"levelo://app?vid=1aa11bbc-1264-4f84-82f7-926b3977fcea","ios":"levelo://app?vid=1aa11bbc-1264-4f84-82f7-926b3977fcea"},"vehicle_type_id":"4","last_reported":1759148499,"current_range_meters":8400,"station_id":"ce4bhgp2rcd13ifvqfe0","pricing_plan_id":"cebpf4jnsgd1na2vs0mg"},{"bike_id":"0d532b0d-6a84-4234-b49f-fff16d7c2dc2","system_id":"levelo_inurba_marseille","lat":43.29256,"lon":5.408976,"is_reserved":false,"is_disabled":false,"rental_uris":{"android":"levelo://app?vid=0d532b0d-6a84-4234-b49f-fff16d7c2dc2","ios":"levelo://app?vid=0d532b0d-6a84-4234-b49f-fff16d7c2dc2"},"vehicle_type_id":"4","last_reported":1759148499,"current_range_meters":8400,"station_id":"ce4bh192rcd13ifvqdc0","pricing_plan_id":"cebpf4jnsgd1na2vs0mg"},{"bike_id":"a2447a40-9c94-428e-b7b0-7a3357a6d9d9","system_id":"levelo_inurba_marseille","lat":43.30469,"lon":5.37909,"is_reserved":false,"is_disabled":false,"rental_uris":{"android":"levelo://app?vid=a2447a40-9c94-428e-b7b0-7a3357a6d9d9","ios":"levelo://app?vid=a2447a40-9c94-428e-b7b0-7a3357a6d9d9"},"vehicle_type_id":"4","last_reported":1759148499,"current_range_meters":8400,"station_id":"ce4bgup2rcd13ifvqcn0","pricing_plan_id":"cebpf4jnsgd1na2vs0mg"},{"bike_id":"258ab053-1083-4ca9-a32a-1e85f085fc22","system_id":"levelo_inurba_marseille","lat":43.337444,"lon":5.374475,"is_reserved":false,"is_disabled":false,"rental_uris":{"android":"levelo://app?vid=258ab053-1083-4ca9-a32a-1e85f085fc22","ios":"levelo://app?vid=258ab053-1083-4ca9-a32a-1e85f085fc22"},"vehicle_type_id":"4","last_reported":1759148499,"current_range_meters":8400,"station_id":"","pricing_plan_id":"cebpf4jnsgd1na2vs0mg"},{"bike_id":"8b353c9e-13c5-42ee-a76f-ccbd6269a3dc","system_id":"levelo_inurba_marseille","lat":43.30424,"lon":5.366666,"is_reserved":false,"is_disabled":false,"rental_uris":{"android":"levelo://app?vid=8b353c9e-13c5-42ee-a76f-ccbd6269a3dc","ios":"levelo://app?vid=8b353c9e-13c5-42ee-a76f-ccbd6269a3dc"},"vehicle_type_id":"4","last_reported":1759148499,"current_range_meters":8800,"station_id":"","pricing_plan_id":"cebpf4jnsgd1na2vs0mg"},{"bike_id":"b1681cb4-c653-4e75-8ad2-9e0a83da33eb","system_id":"levelo_inurba_marseille","lat":43.33602,"lon":5.41026,"is_reserved":false,"is_disabled":false,"rental_uris":{"android":"levelo://app?vid=b1681cb4-c653-4e75-8ad2-9e0a83da33eb","ios":"levelo://app?vid=b1681cb4-c653-4e75-8ad2-9e0a83da33eb"},"vehicle_type_id":"4","last_reported":1759148499,"current_range_meters":8800,"station_id":"ce4bhqh2rcd13ifvqhmg","pricing_plan_id":"cebpf4jnsgd1na2vs0mg"},{"bike_id":"6eeea41b-aa60-4f14-a3fb-55ba3b641da2","system_id":"levelo_inurba_marseille","lat":43.298621,"lon":5.389066,"is_reserved":false,"is_disabled":true,"rental_uris":{"android":"levelo://app?vid=6eeea41b-aa60-4f14-a3fb-55ba3b641da2","ios":"levelo://app?vid=6eeea41b-aa60-4f14-a3fb-55ba3b641da2"},"vehicle_type_id":"4","last_reported":1759148499,"current_range_meters":8800,"station_id":"ce4bh392rcd13ifvqdl0","pricing_plan_id":"cebpf4jnsgd1na2vs0mg"},{"bike_id":"fc15a742-9baf-4f5c-86f9-37e414332829","system_id":"levelo_inurba_marseille","lat":43.292755,"lon":5.384313,"is_reserved":false,"is_disabled":false,"rental_uris":{"android":"levelo://app?vid=fc15a742-9baf-4f5c-86f9-37e414332829","ios":"levelo://app?vid=fc15a742-9baf-4f5c-86f9-37e414332829"},"vehicle_type_id":"4","last_reported":1759148499,"current_range_meters":8800,"station_id":"ce4bh692rcd13ifvqea0","pricing_plan_id":"cebpf4jnsgd1na2vs0mg"},{"bike_id":"d22476df-3d36-437e-8b82-4a5cad0581c1","system_id":"levelo_inurba_marseille","lat":43.30796,"lon":5.38167,"is_reserved":false,"is_disabled":false,"rental_uris":{"android":"levelo://app?vid=d22476df-3d36-437e-8b82-4a5cad0581c1","ios":"levelo://app?vid=d22476df-3d36-437e-8b82-4a5cad0581c1"},"vehicle_type_id":"4","last_reported":1759148499,"current_range_meters":8800,"station_id":"ce4bgt12rcd13ifvqce0","pricing_plan_id":"cebpf4jnsgd1na2vs0mg"},{"bike_id":"cfe27c5b-bda4-4fdd-9060-b0678b4091a1","system_id":"levelo_inurba_marseille","lat":43.295769,"lon":5.375199,"is_reserved":false,"is_disabled":false,"rental_uris":{"android":"levelo://app?vid=cfe27c5b-bda4-4fdd-9060-b0678b4091a1","ios":"levelo://app?vid=cfe27c5b-bda4-4fdd-9060-b0678b4091a1"},"vehicle_type_id":"4","last_reported":1759148499,"current_range_meters":0,"station_id":"ce4bgh92rcd13ifvqb50","pricing_plan_id":"cebpf4jnsgd1na2vs0mg"},{"bike_id":"abb1e6ae-bcf0-448c-95c5-a2fff152806d","system_id":"levelo_inurba_marseille","lat":43.29204,"lon":5.39317,"is_reserved":false,"is_disabled":false,"rental_uris":{"android":"levelo://app?vid=abb1e6ae-bcf0-448c-95c5-a2fff152806d","ios":"levelo://app?vid=abb1e6ae-bcf0-448c-95c5-a2fff152806d"},"vehicle_type_id":"4","last_reported":1759148499,"current_range_meters":9200,"station_id":"ce4bh192rcd13ifvqdd0","pricing_plan_id":"cebpf4jnsgd1na2vs0mg"},{"bike_id":"2c6518be-b3f0-42d2-93c9-c1de9e54885f","system_id":"levelo_inurba_marseille","lat":43.29227,"lon":5.38219,"is_reserved":false,"is_disabled":false,"rental_uris":{"android":"levelo://app?vid=2c6518be-b3f0-42d2-93c9-c1de9e54885f","ios":"levelo://app?vid=2c6518be-b3f0-42d2-93c9-c1de9e54885f"},"vehicle_type_id":"4","last_reported":1759148499,"current_range_meters":9200,"station_id":"","pricing_plan_id":"cebpf4jnsgd1na2vs0mg"},{"bike_id":"3cb1dae7-6bcd-41e5-b1b7-c1d25c751a99","system_id":"levelo_inurba_marseille","lat":43.337635,"lon":5.374385,"is_reserved":false,"is_disabled":false,"rental_uris":{"android":"levelo://app?vid=3cb1dae7-6bcd-41e5-b1b7-c1d25c751a99","ios":"levelo://app?vid=3cb1dae7-6bcd-41e5-b1b7-c1d25c751a99"},"vehicle_type_id":"4","last_reported":1759148499,"current_range_meters":9200,"station_id":"","pricing_plan_id":"cebpf4jnsgd1na2vs0mg"},{"bike_id":"ae96b4f5-8b82-4798-9f1e-494da8888604","system_id":"levelo_inurba_marseille","lat":43.24096,"lon":5.37752,"is_reserved":false,"is_disabled":false,"rental_uris":{"android":"levelo://app?vid=ae96b4f5-8b82-4798-9f1e-494da8888604","ios":"levelo://app?vid=ae96b4f5-8b82-4798-9f1e-494da8888604"},"vehicle_type_id":"4","last_reported":1759148499,"current_range_meters":9200,"station_id":"ce4bhnp2rcd13ifvqgvg","pricing_plan_id":"cebpf4jnsgd1na2vs0mg"},{"bike_id":"ee96a502-9b76-492e-840a-498b02aefe72","system_id":"levelo_inurba_marseille","lat":43.32355,"lon":5.39217,"is_reserved":false,"is_disabled":false,"rental_uris":{"android":"levelo://app?vid=ee96a502-9b76-492e-840a-498b02aefe72","ios":"levelo://app?vid=ee96a502-9b76-492e-840a-498b02aefe72"},"vehicle_type_id":"4","last_reported":1759148499,"current_range_meters":9200,"station_id":"","pricing_plan_id":"cebpf4jnsgd1na2vs0mg"},{"bike_id":"3cfe1c8c-e106-4556-bdd8-a0e4680a7011","system_id":"levelo_inurba_marseille","lat":43.306469,"lon":5.40104,"is_reserved":false,"is_disabled":false,"rental_uris":{"android":"levelo://app?vid=3cfe1c8c-e106-4556-bdd8-a0e4680a7011","ios":"levelo://app?vid=3cfe1c8c-e106-4556-bdd8-a0e4680a7011"},"vehicle_type_id":"4","last_reported":1759148499,"current_range_meters":9200,"station_id":"ce4bh112rcd13ifvqda0","pricing_plan_id":"cebpf4jnsgd1na2vs0mg"},{"bike_id":"0dc0e189-1350-424c-9497-52719aa2d2d2","system_id":"levelo_inurba_marseille","lat":43.30139,"lon":5.37403,"is_reserved":false,"is_disabled":false,"rental_uris":{"android":"levelo://app?vid=0dc0e189-1350-424c-9497-52719aa2d2d2","ios":"levelo://app?vid=0dc0e189-1350-424c-9497-52719aa2d2d2"},"vehicle_type_id":"4","last_reported":1759148499,"current_range_meters":8800,"station_id":"ce4bgs92rcd13ifvqcc0","pricing_plan_id":"cebpf4jnsgd1na2vs0mg"},{"bike_id":"1dad2113-89e2-44fc-a0b6-ddd6a09baff1","system_id":"levelo_inurba_marseille","lat":43.337444,"lon":5.374475,"is_reserved":false,"is_disabled":false,"rental_uris":{"android":"levelo://app?vid=1dad2113-89e2-44fc-a0b6-ddd6a09baff1","ios":"levelo://app?vid=1dad2113-89e2-44fc-a0b6-ddd6a09baff1"},"vehicle_type_id":"4","last_reported":1759148499,"current_range_meters":9200,"station_id":"","pricing_plan_id":"cebpf4jnsgd1na2vs0mg"},{"bike_id":"e6e27dfb-44a5-49b1-85be-30ebda5a88f0","system_id":"levelo_inurba_marseille","lat":43.31878,"lon":5.39981,"is_reserved":false,"is_disabled":false,"rental_uris":{"android":"levelo://app?vid=e6e27dfb-44a5-49b1-85be-30ebda5a88f0","ios":"levelo://app?vid=e6e27dfb-44a5-49b1-85be-30ebda5a88f0"},"vehicle_type_id":"4","last_reported":1759148499,"current_range_meters":9600,"station_id":"","pricing_plan_id":"cebpf4jnsgd1na2vs0mg"},{"bike_id":"883fc31a-7ef2-4211-9c4a-8f469a27bf17","system_id":"levelo_inurba_marseille","lat":43.29725,"lon":5.37683,"is_reserved":false,"is_disabled":false,"rental_uris":{"android":"levelo://app?vid=883fc31a-7ef2-4211-9c4a-8f469a27bf17","ios":"levelo://app?vid=883fc31a-7ef2-4211-9c4a-8f469a27bf17"},"vehicle_type_id":"4","last_reported":1759148499,"current_range_meters":9600,"station_id":"ce4bgkh2rcd13ifvqbl0","pricing_plan_id":"cebpf4jnsgd1na2vs0mg"},{"bike_id":"16ee748d-2cdc-4002-9156-acd1eec598c2","system_id":"levelo_inurba_marseille","lat":43.25937,"lon":5.40904,"is_reserved":false,"is_disabled":false,"rental_uris":{"android":"levelo://app?vid=16ee748d-2cdc-4002-9156-acd1eec598c2","ios":"levelo://app?vid=16ee748d-2cdc-4002-9156-acd1eec598c2"},"vehicle_type_id":"4","last_reported":1759148499,"current_range_meters":9600,"station_id":"ce4bhm92rcd13ifvqglg","pricing_plan_id":"cebpf4jnsgd1na2vs0mg"},{"bike_id":"f6277ba7-4d0f-44ac-96db-754d11e041e4","system_id":"levelo_inurba_marseille","lat":43.27374,"lon":5.36254,"is_reserved":false,"is_disabled":false,"rental_uris":{"android":"levelo://app?vid=f6277ba7-4d0f-44ac-96db-754d11e041e4","ios":"levelo://app?vid=f6277ba7-4d0f-44ac-96db-754d11e041e4"},"vehicle_type_id":"4","last_reported":1759148499,"current_range_meters":9600,"station_id":"ce4bhbh2rcd13ifvqeo0","pricing_plan_id":"cebpf4jnsgd1na2vs0mg"},{"bike_id":"d3f20c51-8a56-4d8d-8b6f-fac66e738214","system_id":"levelo_inurba_marseille","lat":43.267,"lon":5.38279,"is_reserved":false,"is_disabled":false,"rental_uris":{"android":"levelo://app?vid=d3f20c51-8a56-4d8d-8b6f-fac66e738214","ios":"levelo://app?vid=d3f20c51-8a56-4d8d-8b6f-fac66e738214"},"vehicle_type_id":"4","last_reported":1759148499,"current_range_meters":9200,"station_id":"ce4bhg92rcd13ifvqf90","pricing_plan_id":"cebpf4jnsgd1na2vs0mg"},{"bike_id":"e62d0b11-3ab5-4d4f-afe5-ddf1e0e826e3","system_id":"levelo_inurba_marseille","lat":43.30259,"lon":5.37718,"is_reserved":false,"is_disabled":false,"rental_uris":{"android":"levelo://app?vid=e62d0b11-3ab5-4d4f-afe5-ddf1e0e826e3","ios":"levelo://app?vid=e62d0b11-3ab5-4d4f-afe5-ddf1e0e826e3"},"vehicle_type_id":"4","last_reported":1759148499,"current_range_meters":9600,"station_id":"ce4bguh2rcd13ifvqcj0","pricing_plan_id":"cebpf4jnsgd1na2vs0mg"},{"bike_id":"5fe7f407-3191-4d84-bcf8-5bce6d58e56d","system_id":"levelo_inurba_marseille","lat":43.22933,"lon":5.35387,"is_reserved":false,"is_disabled":false,"rental_uris":{"android":"levelo://app?vid=5fe7f407-3191-4d84-bcf8-5bce6d58e56d","ios":"levelo://app?vid=5fe7f407-3191-4d84-bcf8-5bce6d58e56d"},"vehicle_type_id":"4","last_reported":1759148499,"current_range_meters":9600,"station_id":"cpo3532slgdg3j2ikp40","pricing_plan_id":"cebpf4jnsgd1na2vs0mg"},{"bike_id":"495d3978-63a6-4ee5-a026-0847d3aca687","system_id":"levelo_inurba_marseille","lat":43.23946,"lon":5.36648,"is_reserved":false,"is_disabled":false,"rental_uris":{"android":"levelo://app?vid=495d3978-63a6-4ee5-a026-0847d3aca687","ios":"levelo://app?vid=495d3978-63a6-4ee5-a026-0847d3aca687"},"vehicle_type_id":"4","last_reported":1759148499,"current_range_meters":9600,"station_id":"ce4bhi12rcd13ifvqfp0","pricing_plan_id":"cebpf4jnsgd1na2vs0mg"},{"bike_id":"c08cf660-eb8b-496b-a94d-a1a9e2a646d5","system_id":"levelo_inurba_marseille","lat":43.28727,"lon":5.40028,"is_reserved":false,"is_disabled":false,"rental_uris":{"android":"levelo://app?vid=c08cf660-eb8b-496b-a94d-a1a9e2a646d5","ios":"levelo://app?vid=c08cf660-eb8b-496b-a94d-a1a9e2a646d5"},"vehicle_type_id":"4","last_reported":1759148499,"current_range_meters":9600,"station_id":"ce4bho92rcd13ifvqh3g","pricing_plan_id":"cebpf4jnsgd1na2vs0mg"},{"bike_id":"d50b55d4-424e-49fc-a5c5-3b55fc3b781c","system_id":"levelo_inurba_marseille","lat":43.28273,"lon":5.35072,"is_reserved":false,"is_disabled":false,"rental_uris":{"android":"levelo://app?vid=d50b55d4-424e-49fc-a5c5-3b55fc3b781c","ios":"levelo://app?vid=d50b55d4-424e-49fc-a5c5-3b55fc3b781c"},"vehicle_type_id":"4","last_reported":1759148499,"current_range_meters":9600,"station_id":"ce4bhbp2rcd13ifvqerg","pricing_plan_id":"cebpf4jnsgd1na2vs0mg"},{"bike_id":"0bb42ba0-c20f-44e0-adc8-cc2e6a54b742","system_id":"levelo_inurba_marseille","lat":43.33772,"lon":5.37426,"is_reserved":false,"is_disabled":false,"rental_uris":{"android":"levelo://app?vid=0bb42ba0-c20f-44e0-adc8-cc2e6a54b742","ios":"levelo://app?vid=0bb42ba0-c20f-44e0-adc8-cc2e6a54b742"},"vehicle_type_id":"4","last_reported":1759148499,"current_range_meters":9600,"station_id":"","pricing_plan_id":"cebpf4jnsgd1na2vs0mg"},{"bike_id":"5fb6bf0d-5e73-4899-9dcb-6a9a1fa6134a","system_id":"levelo_inurba_marseille","lat":43.33606,"lon":5.41026,"is_reserved":false,"is_disabled":false,"rental_uris":{"android":"levelo://app?vid=5fb6bf0d-5e73-4899-9dcb-6a9a1fa6134a","ios":"levelo://app?vid=5fb6bf0d-5e73-4899-9dcb-6a9a1fa6134a"},"vehicle_type_id":"4","last_reported":1759148499,"current_range_meters":9600,"station_id":"ce4bhqh2rcd13ifvqhmg","pricing_plan_id":"cebpf4jnsgd1na2vs0mg"},{"bike_id":"d34568d4-9fa0-468b-b8aa-7e877f7e6945","system_id":"levelo_inurba_marseille","lat":43.2572,"lon":5.41113,"is_reserved":false,"is_disabled":false,"rental_uris":{"android":"levelo://app?vid=d34568d4-9fa0-468b-b8aa-7e877f7e6945","ios":"levelo://app?vid=d34568d4-9fa0-468b-b8aa-7e877f7e6945"},"vehicle_type_id":"4","last_reported":1759148499,"current_range_meters":10000,"station_id":"ce4bhkp2rcd13ifvqgd0","pricing_plan_id":"cebpf4jnsgd1na2vs0mg"},{"bike_id":"e7a07ee7-ff27-4e97-adec-6f7b9b9085bf","system_id":"levelo_inurba_marseille","lat":43.288685,"lon":5.425099,"is_reserved":false,"is_disabled":false,"rental_uris":{"android":"levelo://app?vid=e7a07ee7-ff27-4e97-adec-6f7b9b9085bf","ios":"levelo://app?vid=e7a07ee7-ff27-4e97-adec-6f7b9b9085bf"},"vehicle_type_id":"4","last_reported":1759148499,"current_range_meters":10000,"station_id":"st_d3b462108ojc7389ooeg","pricing_plan_id":"cebpf4jnsgd1na2vs0mg"},{"bike_id":"d7d09523-34bb-44d2-9695-02f0abea9b47","system_id":"levelo_inurba_marseille","lat":43.29749,"lon":5.37886,"is_reserved":false,"is_disabled":false,"rental_uris":{"android":"levelo://app?vid=d7d09523-34bb-44d2-9695-02f0abea9b47","ios":"levelo://app?vid=d7d09523-34bb-44d2-9695-02f0abea9b47"},"vehicle_type_id":"4","last_reported":1759148499,"current_range_meters":10000,"station_id":"","pricing_plan_id":"cebpf4jnsgd1na2vs0mg"},{"bike_id":"3a45ad4e-c047-4eeb-8190-8c8280b6a4b7","system_id":"levelo_inurba_marseille","lat":43.293,"lon":5.37452,"is_reserved":false,"is_disabled":false,"rental_uris":{"android":"levelo://app?vid=3a45ad4e-c047-4eeb-8190-8c8280b6a4b7","ios":"levelo://app?vid=3a45ad4e-c047-4eeb-8190-8c8280b6a4b7"},"vehicle_type_id":"4","last_reported":1759148499,"current_range_meters":10000,"station_id":"ce4bgi12rcd13ifvqb70","pricing_plan_id":"cebpf4jnsgd1na2vs0mg"},{"bike_id":"385ca5ef-86ce-4abe-962d-da8aa1a2e76c","system_id":"levelo_inurba_marseille","lat":43.29251,"lon":5.4091,"is_reserved":false,"is_disabled":false,"rental_uris":{"android":"levelo://app?vid=385ca5ef-86ce-4abe-962d-da8aa1a2e76c","ios":"levelo://app?vid=385ca5ef-86ce-4abe-962d-da8aa1a2e76c"},"vehicle_type_id":"4","last_reported":1759148499,"current_range_meters":10000,"station_id":"ce4bh192rcd13ifvqdc0","pricing_plan_id":"cebpf4jnsgd1na2vs0mg"},{"bike_id":"b6fa6fb8-3985-489e-91ba-6bb6c42bc4f7","system_id":"levelo_inurba_marseille","lat":43.33767,"lon":5.37417,"is_reserved":false,"is_disabled":false,"rental_uris":{"android":"levelo://app?vid=b6fa6fb8-3985-489e-91ba-6bb6c42bc4f7","ios":"levelo://app?vid=b6fa6fb8-3985-489e-91ba-6bb6c42bc4f7"},"vehicle_type_id":"4","last_reported":1759148499,"current_range_meters":10000,"station_id":"","pricing_plan_id":"cebpf4jnsgd1na2vs0mg"},{"bike_id":"e5378695-fba9-432a-9cfb-3b5b05e40fec","system_id":"levelo_inurba_marseille","lat":43.337986,"lon":5.374304,"is_reserved":false,"is_disabled":false,"rental_uris":{"android":"levelo://app?vid=e5378695-fba9-432a-9cfb-3b5b05e40fec","ios":"levelo://app?vid=e5378695-fba9-432a-9cfb-3b5b05e40fec"},"vehicle_type_id":"4","last_reported":1759148499,"current_range_meters":10000,"station_id":"","pricing_plan_id":"cebpf4jnsgd1na2vs0mg"},{"bike_id":"20c1c77a-f4d0-45da-bf37-9dfdc8268d18","system_id":"levelo_inurba_marseille","lat":43.319982,"lon":5.381525,"is_reserved":false,"is_disabled":false,"rental_uris":{"android":"levelo://app?vid=20c1c77a-f4d0-45da-bf37-9dfdc8268d18","ios":"levelo://app?vid=20c1c77a-f4d0-45da-bf37-9dfdc8268d18"},"vehicle_type_id":"4","last_reported":1759148499,"current_range_meters":10800,"station_id":"ce4bhr12rcd13ifvqhpg","pricing_plan_id":"cebpf4jnsgd1na2vs0mg"},{"bike_id":"b6de0b53-9e56-4697-b816-d81407ef1c6a","system_id":"levelo_inurba_marseille","lat":43.30322,"lon":5.40432,"is_reserved":false,"is_disabled":false,"rental_uris":{"android":"levelo://app?vid=b6de0b53-9e56-4697-b816-d81407ef1c6a","ios":"levelo://app?vid=b6de0b53-9e56-4697-b816-d81407ef1c6a"},"vehicle_type_id":"4","last_reported":1759148499,"current_range_meters":10800,"station_id":"ce4bh012rcd13ifvqd10","pricing_plan_id":"cebpf4jnsgd1na2vs0mg"},{"bike_id":"35e8f722-b82a-4247-beb8-7e2827829ce6","system_id":"levelo_inurba_marseille","lat":43.32405,"lon":5.3911,"is_reserved":false,"is_disabled":false,"rental_uris":{"android":"levelo://app?vid=35e8f722-b82a-4247-beb8-7e2827829ce6","ios":"levelo://app?vid=35e8f722-b82a-4247-beb8-7e2827829ce6"},"vehicle_type_id":"4","last_reported":1759148499,"current_range_meters":10800,"station_id":"","pricing_plan_id":"cebpf4jnsgd1na2vs0mg"},{"bike_id":"c74023ed-5283-4375-bfd9-df793df9a207","system_id":"levelo_inurba_marseille","lat":43.23185,"lon":5.39975,"is_reserved":false,"is_disabled":false,"rental_uris":{"android":"levelo://app?vid=c74023ed-5283-4375-bfd9-df793df9a207","ios":"levelo://app?vid=c74023ed-5283-4375-bfd9-df793df9a207"},"vehicle_type_id":"4","last_reported":1759148499,"current_range_meters":10800,"station_id":"ce4bhn12rcd13ifvqgqg","pricing_plan_id":"cebpf4jnsgd1na2vs0mg"},{"bike_id":"02bb1a77-85ca-42cb-ba0b-3fc3f8dcbe6c","system_id":"levelo_inurba_marseille","lat":43.31378,"lon":5.38492,"is_reserved":false,"is_disabled":false,"rental_uris":{"android":"levelo://app?vid=02bb1a77-85ca-42cb-ba0b-3fc3f8dcbe6c","ios":"levelo://app?vid=02bb1a77-85ca-42cb-ba0b-3fc3f8dcbe6c"},"vehicle_type_id":"4","last_reported":1759148499,"current_range_meters":11200,"station_id":"ce4bgt92rcd13ifvqcf0","pricing_plan_id":"cebpf4jnsgd1na2vs0mg"},{"bike_id":"4822dd99-56ec-44f6-a9b9-ee0ae5dcc1bf","system_id":"levelo_inurba_marseille","lat":43.30009,"lon":5.39994,"is_reserved":false,"is_disabled":false,"rental_uris":{"android":"levelo://app?vid=4822dd99-56ec-44f6-a9b9-ee0ae5dcc1bf","ios":"levelo://app?vid=4822dd99-56ec-44f6-a9b9-ee0ae5dcc1bf"},"vehicle_type_id":"4","last_reported":1759148499,"current_range_meters":11200,"station_id":"ce4bh0h2rcd13ifvqd40","pricing_plan_id":"cebpf4jnsgd1na2vs0mg"},{"bike_id":"d6c734f5-0e13-46a8-8e3e-fda40abe4b7d","system_id":"levelo_inurba_marseille","lat":43.302139,"lon":5.394708,"is_reserved":false,"is_disabled":false,"rental_uris":{"android":"levelo://app?vid=d6c734f5-0e13-46a8-8e3e-fda40abe4b7d","ios":"levelo://app?vid=d6c734f5-0e13-46a8-8e3e-fda40abe4b7d"},"vehicle_type_id":"4","last_reported":1759148499,"current_range_meters":11600,"station_id":"ce4bhgh2rcd13ifvqfa0","pricing_plan_id":"cebpf4jnsgd1na2vs0mg"},{"bike_id":"7c104ebf-6e16-4446-8038-c1a402dfea20","system_id":"levelo_inurba_marseille","lat":43.30883,"lon":5.39653,"is_reserved":false,"is_disabled":false,"rental_uris":{"android":"levelo://app?vid=7c104ebf-6e16-4446-8038-c1a402dfea20","ios":"levelo://app?vid=7c104ebf-6e16-4446-8038-c1a402dfea20"},"vehicle_type_id":"4","last_reported":1759148499,"current_range_meters":11600,"station_id":"ce4bh012rcd13ifvqcv0","pricing_plan_id":"cebpf4jnsgd1na2vs0mg"},{"bike_id":"80b98ce0-3233-47ce-84db-722943723d1e","system_id":"levelo_inurba_marseille","lat":43.269329,"lon":5.38928,"is_reserved":false,"is_disabled":false,"rental_uris":{"android":"levelo://app?vid=80b98ce0-3233-47ce-84db-722943723d1e","ios":"levelo://app?vid=80b98ce0-3233-47ce-84db-722943723d1e"},"vehicle_type_id":"4","last_reported":1759148499,"current_range_meters":11600,"station_id":"","pricing_plan_id":"cebpf4jnsgd1na2vs0mg"},{"bike_id":"9c4235da-d3d0-4056-aa6b-c6aa6e8e7367","system_id":"levelo_inurba_marseille","lat":43.306974,"lon":5.374796,"is_reserved":false,"is_disabled":false,"rental_uris":{"android":"levelo://app?vid=9c4235da-d3d0-4056-aa6b-c6aa6e8e7367","ios":"levelo://app?vid=9c4235da-d3d0-4056-aa6b-c6aa6e8e7367"},"vehicle_type_id":"4","last_reported":1759148499,"current_range_meters":11600,"station_id":"","pricing_plan_id":"cebpf4jnsgd1na2vs0mg"},{"bike_id":"f060d515-f268-4371-95a2-f04eea0ad05f","system_id":"levelo_inurba_marseille","lat":43.24628,"lon":5.43146,"is_reserved":false,"is_disabled":false,"rental_uris":{"android":"levelo://app?vid=f060d515-f268-4371-95a2-f04eea0ad05f","ios":"levelo://app?vid=f060d515-f268-4371-95a2-f04eea0ad05f"},"vehicle_type_id":"4","last_reported":1759148499,"current_range_meters":11600,"station_id":"st_d2m6c4gdas8pm72e190g","pricing_plan_id":"cebpf4jnsgd1na2vs0mg"},{"bike_id":"ee6406f7-9f33-4935-a835-0f3904e54bc4","system_id":"levelo_inurba_marseille","lat":43.31875,"lon":5.37317,"is_reserved":false,"is_disabled":true,"rental_uris":{"android":"levelo://app?vid=ee6406f7-9f33-4935-a835-0f3904e54bc4","ios":"levelo://app?vid=ee6406f7-9f33-4935-a835-0f3904e54bc4"},"vehicle_type_id":"4","last_reported":1759148499,"current_range_meters":12000,"station_id":"ce4bgt12rcd13ifvqcd0","pricing_plan_id":"cebpf4jnsgd1na2vs0mg"},{"bike_id":"a58f44d2-4c4d-4214-9ca7-9c9d13cd98a5","system_id":"levelo_inurba_marseille","lat":43.30177,"lon":5.36618,"is_reserved":false,"is_disabled":false,"rental_uris":{"android":"levelo://app?vid=a58f44d2-4c4d-4214-9ca7-9c9d13cd98a5","ios":"levelo://app?vid=a58f44d2-4c4d-4214-9ca7-9c9d13cd98a5"},"vehicle_type_id":"4","last_reported":1759148499,"current_range_meters":12000,"station_id":"ce4bgrh2rcd13ifvqc8g","pricing_plan_id":"cebpf4jnsgd1na2vs0mg"},{"bike_id":"050e1bfc-8a7e-4196-8d0d-c5e9fc444eff","system_id":"levelo_inurba_marseille","lat":43.30631,"lon":5.40091,"is_reserved":false,"is_disabled":false,"rental_uris":{"android":"levelo://app?vid=050e1bfc-8a7e-4196-8d0d-c5e9fc444eff","ios":"levelo://app?vid=050e1bfc-8a7e-4196-8d0d-c5e9fc444eff"},"vehicle_type_id":"4","last_reported":1759148499,"current_range_meters":12000,"station_id":"ce4bh112rcd13ifvqda0","pricing_plan_id":"cebpf4jnsgd1na2vs0mg"},{"bike_id":"acc3b39c-e4a0-49da-bf03-93dc77ff17aa","system_id":"levelo_inurba_marseille","lat":43.30947,"lon":5.39024,"is_reserved":false,"is_disabled":false,"rental_uris":{"android":"levelo://app?vid=acc3b39c-e4a0-49da-bf03-93dc77ff17aa","ios":"levelo://app?vid=acc3b39c-e4a0-49da-bf03-93dc77ff17aa"},"vehicle_type_id":"4","last_reported":1759148499,"current_range_meters":12400,"station_id":"ce4bgup2rcd13ifvqco0","pricing_plan_id":"cebpf4jnsgd1na2vs0mg"},{"bike_id":"8e22cf14-b2b4-4b09-90a7-6c182d85a696","system_id":"levelo_inurba_marseille","lat":43.30559,"lon":5.36688,"is_reserved":false,"is_disabled":false,"rental_uris":{"android":"levelo://app?vid=8e22cf14-b2b4-4b09-90a7-6c182d85a696","ios":"levelo://app?vid=8e22cf14-b2b4-4b09-90a7-6c182d85a696"},"vehicle_type_id":"4","last_reported":1759148499,"current_range_meters":12400,"station_id":"ce4bgrp2rcd13ifvqc9g","pricing_plan_id":"cebpf4jnsgd1na2vs0mg"},{"bike_id":"964f1d41-4597-4711-a8d4-7856812cf647","system_id":"levelo_inurba_marseille","lat":43.24179,"lon":5.39731,"is_reserved":false,"is_disabled":false,"rental_uris":{"android":"levelo://app?vid=964f1d41-4597-4711-a8d4-7856812cf647","ios":"levelo://app?vid=964f1d41-4597-4711-a8d4-7856812cf647"},"vehicle_type_id":"4","last_reported":1759148499,"current_range_meters":12400,"station_id":"ce4bhn12rcd13ifvqgpg","pricing_plan_id":"cebpf4jnsgd1na2vs0mg"},{"bike_id":"ec021ffa-3048-49e2-80a8-645eb0241089","system_id":"levelo_inurba_marseille","lat":43.30524,"lon":5.36706,"is_reserved":false,"is_disabled":false,"rental_uris":{"android":"levelo://app?vid=ec021ffa-3048-49e2-80a8-645eb0241089","ios":"levelo://app?vid=ec021ffa-3048-49e2-80a8-645eb0241089"},"vehicle_type_id":"4","last_reported":1759148499,"current_range_meters":12800,"station_id":"ce4bgrp2rcd13ifvqc9g","pricing_plan_id":"cebpf4jnsgd1na2vs0mg"},{"bike_id":"9ea60a90-576e-4494-a843-908dbae44d00","system_id":"levelo_inurba_marseille","lat":43.297108,"lon":5.37692,"is_reserved":false,"is_disabled":false,"rental_uris":{"android":"levelo://app?vid=9ea60a90-576e-4494-a843-908dbae44d00","ios":"levelo://app?vid=9ea60a90-576e-4494-a843-908dbae44d00"},"vehicle_type_id":"4","last_reported":1759148499,"current_range_meters":12800,"station_id":"ce4bgkh2rcd13ifvqbl0","pricing_plan_id":"cebpf4jnsgd1na2vs0mg"},{"bike_id":"ade00133-316a-486b-ad8e-40009b44a891","system_id":"levelo_inurba_marseille","lat":43.26672,"lon":5.38266,"is_reserved":false,"is_disabled":false,"rental_uris":{"android":"levelo://app?vid=ade00133-316a-486b-ad8e-40009b44a891","ios":"levelo://app?vid=ade00133-316a-486b-ad8e-40009b44a891"},"vehicle_type_id":"4","last_reported":1759148499,"current_range_meters":12800,"station_id":"ce4bhg92rcd13ifvqf90","pricing_plan_id":"cebpf4jnsgd1na2vs0mg"},{"bike_id":"160779b0-b771-4dbb-a97d-96ee77247548","system_id":"levelo_inurba_marseille","lat":43.29217,"lon":5.36049,"is_reserved":false,"is_disabled":false,"rental_uris":{"android":"levelo://app?vid=160779b0-b771-4dbb-a97d-96ee77247548","ios":"levelo://app?vid=160779b0-b771-4dbb-a97d-96ee77247548"},"vehicle_type_id":"4","last_reported":1759148499,"current_range_meters":12800,"station_id":"ce4bhbh2rcd13ifvqeqg","pricing_plan_id":"cebpf4jnsgd1na2vs0mg"},{"bike_id":"92907e8c-6af4-4743-9810-38c0b52ce79b","system_id":"levelo_inurba_marseille","lat":43.239571,"lon":5.36649,"is_reserved":false,"is_disabled":false,"rental_uris":{"android":"levelo://app?vid=92907e8c-6af4-4743-9810-38c0b52ce79b","ios":"levelo://app?vid=92907e8c-6af4-4743-9810-38c0b52ce79b"},"vehicle_type_id":"4","last_reported":1759148499,"current_range_meters":12800,"station_id":"ce4bhi12rcd13ifvqfp0","pricing_plan_id":"cebpf4jnsgd1na2vs0mg"},{"bike_id":"ea59b303-6900-42ad-9e79-5b0f95bedd6c","system_id":"levelo_inurba_marseille","lat":43.30437,"lon":5.36856,"is_reserved":false,"is_disabled":false,"rental_uris":{"android":"levelo://app?vid=ea59b303-6900-42ad-9e79-5b0f95bedd6c","ios":"levelo://app?vid=ea59b303-6900-42ad-9e79-5b0f95bedd6c"},"vehicle_type_id":"4","last_reported":1759148499,"current_range_meters":12800,"station_id":"","pricing_plan_id":"cebpf4jnsgd1na2vs0mg"},{"bike_id":"0eda2527-f3ce-4552-96df-04220f592c11","system_id":"levelo_inurba_marseille","lat":43.21195,"lon":5.35068,"is_reserved":false,"is_disabled":false,"rental_uris":{"android":"levelo://app?vid=0eda2527-f3ce-4552-96df-04220f592c11","ios":"levelo://app?vid=0eda2527-f3ce-4552-96df-04220f592c11"},"vehicle_type_id":"4","last_reported":1759148499,"current_range_meters":12800,"station_id":"st_cvj6sg6p6f1abm77japg","pricing_plan_id":"cebpf4jnsgd1na2vs0mg"},{"bike_id":"e254d7bf-19d8-4099-8210-8c0dd3fc6ec2","system_id":"levelo_inurba_marseille","lat":43.26693,"lon":5.382753,"is_reserved":false,"is_disabled":false,"rental_uris":{"android":"levelo://app?vid=e254d7bf-19d8-4099-8210-8c0dd3fc6ec2","ios":"levelo://app?vid=e254d7bf-19d8-4099-8210-8c0dd3fc6ec2"},"vehicle_type_id":"4","last_reported":1759148499,"current_range_meters":12800,"station_id":"ce4bhg92rcd13ifvqf90","pricing_plan_id":"cebpf4jnsgd1na2vs0mg"},{"bike_id":"a07a513e-e5a9-4481-8592-d991379bc662","system_id":"levelo_inurba_marseille","lat":43.33735,"lon":5.37481,"is_reserved":false,"is_disabled":false,"rental_uris":{"android":"levelo://app?vid=a07a513e-e5a9-4481-8592-d991379bc662","ios":"levelo://app?vid=a07a513e-e5a9-4481-8592-d991379bc662"},"vehicle_type_id":"4","last_reported":1759148499,"current_range_meters":12800,"station_id":"","pricing_plan_id":"cebpf4jnsgd1na2vs0mg"},{"bike_id":"8c0227e3-55e8-4994-aa0c-9b6ee99b7e26","system_id":"levelo_inurba_marseille","lat":43.230495,"lon":5.354932,"is_reserved":false,"is_disabled":false,"rental_uris":{"android":"levelo://app?vid=8c0227e3-55e8-4994-aa0c-9b6ee99b7e26","ios":"levelo://app?vid=8c0227e3-55e8-4994-aa0c-9b6ee99b7e26"},"vehicle_type_id":"4","last_reported":1759148499,"current_range_meters":13600,"station_id":"cpo3342slgdg3j2ifvpg","pricing_plan_id":"cebpf4jnsgd1na2vs0mg"},{"bike_id":"7dc10ae7-7366-4aef-afb3-946c513f88ef","system_id":"levelo_inurba_marseille","lat":43.27999,"lon":5.36408,"is_reserved":false,"is_disabled":false,"rental_uris":{"android":"levelo://app?vid=7dc10ae7-7366-4aef-afb3-946c513f88ef","ios":"levelo://app?vid=7dc10ae7-7366-4aef-afb3-946c513f88ef"},"vehicle_type_id":"4","last_reported":1759148499,"current_range_meters":13600,"station_id":"ce4bha12rcd13ifvqef0","pricing_plan_id":"cebpf4jnsgd1na2vs0mg"},{"bike_id":"8c986307-df22-41f8-9c2d-42ccabc665aa","system_id":"levelo_inurba_marseille","lat":43.30209,"lon":5.36631,"is_reserved":false,"is_disabled":false,"rental_uris":{"android":"levelo://app?vid=8c986307-df22-41f8-9c2d-42ccabc665aa","ios":"levelo://app?vid=8c986307-df22-41f8-9c2d-42ccabc665aa"},"vehicle_type_id":"4","last_reported":1759148499,"current_range_meters":13600,"station_id":"ce4bgrh2rcd13ifvqc8g","pricing_plan_id":"cebpf4jnsgd1na2vs0mg"},{"bike_id":"5bc706f5-2fff-47d7-b0c1-893539c1eb6c","system_id":"levelo_inurba_marseille","lat":43.28288,"lon":5.3511,"is_reserved":false,"is_disabled":false,"rental_uris":{"android":"levelo://app?vid=5bc706f5-2fff-47d7-b0c1-893539c1eb6c","ios":"levelo://app?vid=5bc706f5-2fff-47d7-b0c1-893539c1eb6c"},"vehicle_type_id":"4","last_reported":1759148499,"current_range_meters":13600,"station_id":"ce4bhbp2rcd13ifvqerg","pricing_plan_id":"cebpf4jnsgd1na2vs0mg"},{"bike_id":"4d55b62f-115f-4ea6-8c3f-0f7dc63c68ea","system_id":"levelo_inurba_marseille","lat":43.302899,"lon":5.365665,"is_reserved":false,"is_disabled":false,"rental_uris":{"android":"levelo://app?vid=4d55b62f-115f-4ea6-8c3f-0f7dc63c68ea","ios":"levelo://app?vid=4d55b62f-115f-4ea6-8c3f-0f7dc63c68ea"},"vehicle_type_id":"4","last_reported":1759148499,"current_range_meters":12800,"station_id":"ce4bgjh2rcd13ifvqbg0","pricing_plan_id":"cebpf4jnsgd1na2vs0mg"},{"bike_id":"a63906d9-70e3-4694-a19f-f783d775e9bb","system_id":"levelo_inurba_marseille","lat":43.31272,"lon":5.37405,"is_reserved":false,"is_disabled":false,"rental_uris":{"android":"levelo://app?vid=a63906d9-70e3-4694-a19f-f783d775e9bb","ios":"levelo://app?vid=a63906d9-70e3-4694-a19f-f783d775e9bb"},"vehicle_type_id":"4","last_reported":1759148499,"current_range_meters":13600,"station_id":"","pricing_plan_id":"cebpf4jnsgd1na2vs0mg"},{"bike_id":"24ccb1ec-b61e-4fe8-9271-25b08c928377","system_id":"levelo_inurba_marseille","lat":43.27199,"lon":5.39189,"is_reserved":false,"is_disabled":false,"rental_uris":{"android":"levelo://app?vid=24ccb1ec-b61e-4fe8-9271-25b08c928377","ios":"levelo://app?vid=24ccb1ec-b61e-4fe8-9271-25b08c928377"},"vehicle_type_id":"4","last_reported":1759148499,"current_range_meters":14000,"station_id":"ce4bhhp2rcd13ifvqfm0","pricing_plan_id":"cebpf4jnsgd1na2vs0mg"},{"bike_id":"6208b55e-5829-429c-bbd4-b74a6a76be82","system_id":"levelo_inurba_marseille","lat":43.33606,"lon":5.4103,"is_reserved":false,"is_disabled":false,"rental_uris":{"android":"levelo://app?vid=6208b55e-5829-429c-bbd4-b74a6a76be82","ios":"levelo://app?vid=6208b55e-5829-429c-bbd4-b74a6a76be82"},"vehicle_type_id":"4","last_reported":1759148499,"current_range_meters":14000,"station_id":"ce4bhqh2rcd13ifvqhmg","pricing_plan_id":"cebpf4jnsgd1na2vs0mg"},{"bike_id":"38e2c70b-424c-464d-bee2-3170b9e9776b","system_id":"levelo_inurba_marseille","lat":43.29022,"lon":5.35921,"is_reserved":false,"is_disabled":false,"rental_uris":{"android":"levelo://app?vid=38e2c70b-424c-464d-bee2-3170b9e9776b","ios":"levelo://app?vid=38e2c70b-424c-464d-bee2-3170b9e9776b"},"vehicle_type_id":"4","last_reported":1759148499,"current_range_meters":14000,"station_id":"ce4bha92rcd13ifvqeg0","pricing_plan_id":"cebpf4jnsgd1na2vs0mg"},{"bike_id":"055320a6-895c-4f00-b0fd-7cb560611640","system_id":"levelo_inurba_marseille","lat":43.2797,"lon":5.4109,"is_reserved":false,"is_disabled":false,"rental_uris":{"android":"levelo://app?vid=055320a6-895c-4f00-b0fd-7cb560611640","ios":"levelo://app?vid=055320a6-895c-4f00-b0fd-7cb560611640"},"vehicle_type_id":"4","last_reported":1759148499,"current_range_meters":14000,"station_id":"ce4bhnp2rcd13ifvqh0g","pricing_plan_id":"cebpf4jnsgd1na2vs0mg"},{"bike_id":"e9789c59-2fe2-4f51-8a64-e1d3cc3bcad5","system_id":"levelo_inurba_marseille","lat":43.26214,"lon":5.37435,"is_reserved":false,"is_disabled":false,"rental_uris":{"android":"levelo://app?vid=e9789c59-2fe2-4f51-8a64-e1d3cc3bcad5","ios":"levelo://app?vid=e9789c59-2fe2-4f51-8a64-e1d3cc3bcad5"},"vehicle_type_id":"4","last_reported":1759148499,"current_range_meters":14000,"station_id":"ce4bhgp2rcd13ifvqfc0","pricing_plan_id":"cebpf4jnsgd1na2vs0mg"},{"bike_id":"c627b34a-8e81-4438-af3b-4fd0aab1c160","system_id":"levelo_inurba_marseille","lat":43.29695,"lon":5.3601,"is_reserved":false,"is_disabled":false,"rental_uris":{"android":"levelo://app?vid=c627b34a-8e81-4438-af3b-4fd0aab1c160","ios":"levelo://app?vid=c627b34a-8e81-4438-af3b-4fd0aab1c160"},"vehicle_type_id":"4","last_reported":1759148499,"current_range_meters":14000,"station_id":"","pricing_plan_id":"cebpf4jnsgd1na2vs0mg"},{"bike_id":"2af954c0-fb91-4958-bc96-94aaff7feea8","system_id":"levelo_inurba_marseille","lat":43.2867,"lon":5.38654,"is_reserved":false,"is_disabled":false,"rental_uris":{"android":"levelo://app?vid=2af954c0-fb91-4958-bc96-94aaff7feea8","ios":"levelo://app?vid=2af954c0-fb91-4958-bc96-94aaff7feea8"},"vehicle_type_id":"4","last_reported":1759148499,"current_range_meters":14400,"station_id":"ce4bh492rcd13ifvqdug","pricing_plan_id":"cebpf4jnsgd1na2vs0mg"},{"bike_id":"d60dc148-253b-4625-ae0c-8c88dcdb4260","system_id":"levelo_inurba_marseille","lat":43.272127,"lon":5.391798,"is_reserved":false,"is_disabled":false,"rental_uris":{"android":"levelo://app?vid=d60dc148-253b-4625-ae0c-8c88dcdb4260","ios":"levelo://app?vid=d60dc148-253b-4625-ae0c-8c88dcdb4260"},"vehicle_type_id":"4","last_reported":1759148499,"current_range_meters":14400,"station_id":"","pricing_plan_id":"cebpf4jnsgd1na2vs0mg"},{"bike_id":"0030cf69-75f8-4719-a372-efc52bdb748a","system_id":"levelo_inurba_marseille","lat":43.32838,"lon":5.45335,"is_reserved":false,"is_disabled":false,"rental_uris":{"android":"levelo://app?vid=0030cf69-75f8-4719-a372-efc52bdb748a","ios":"levelo://app?vid=0030cf69-75f8-4719-a372-efc52bdb748a"},"vehicle_type_id":"4","last_reported":1759148499,"current_range_meters":14400,"station_id":"","pricing_plan_id":"cebpf4jnsgd1na2vs0mg"},{"bike_id":"a9cd5665-4575-420b-bb7e-e441349a406a","system_id":"levelo_inurba_marseille","lat":43.28419,"lon":5.34979,"is_reserved":false,"is_disabled":true,"rental_uris":{"android":"levelo://app?vid=a9cd5665-4575-420b-bb7e-e441349a406a","ios":"levelo://app?vid=a9cd5665-4575-420b-bb7e-e441349a406a"},"vehicle_type_id":"4","last_reported":1759148499,"current_range_meters":14400,"station_id":"ce4bhbh2rcd13ifvqepg","pricing_plan_id":"cebpf4jnsgd1na2vs0mg"},{"bike_id":"b2cf005e-1bc5-4616-9e17-028539dbf7b3","system_id":"levelo_inurba_marseille","lat":43.28618,"lon":5.35101,"is_reserved":false,"is_disabled":false,"rental_uris":{"android":"levelo://app?vid=b2cf005e-1bc5-4616-9e17-028539dbf7b3","ios":"levelo://app?vid=b2cf005e-1bc5-4616-9e17-028539dbf7b3"},"vehicle_type_id":"4","last_reported":1759148499,"current_range_meters":14400,"station_id":"ce4bhch2rcd13ifvqeug","pricing_plan_id":"cebpf4jnsgd1na2vs0mg"},{"bike_id":"9f8016d4-7cfd-4da9-98fe-979484415ac7","system_id":"levelo_inurba_marseille","lat":43.30541,"lon":5.36703,"is_reserved":false,"is_disabled":false,"rental_uris":{"android":"levelo://app?vid=9f8016d4-7cfd-4da9-98fe-979484415ac7","ios":"levelo://app?vid=9f8016d4-7cfd-4da9-98fe-979484415ac7"},"vehicle_type_id":"4","last_reported":1759148499,"current_range_meters":14400,"station_id":"ce4bgrp2rcd13ifvqc9g","pricing_plan_id":"cebpf4jnsgd1na2vs0mg"},{"bike_id":"f052032c-182c-4d32-a999-ad73492e226e","system_id":"levelo_inurba_marseille","lat":43.289401,"lon":5.366452,"is_reserved":false,"is_disabled":false,"rental_uris":{"android":"levelo://app?vid=f052032c-182c-4d32-a999-ad73492e226e","ios":"levelo://app?vid=f052032c-182c-4d32-a999-ad73492e226e"},"vehicle_type_id":"4","last_reported":1759148499,"current_range_meters":14400,"station_id":"ce4bhap2rcd13ifvqek0","pricing_plan_id":"cebpf4jnsgd1na2vs0mg"},{"bike_id":"8163e3ac-fd5a-4fa7-824b-dde4e1e28f73","system_id":"levelo_inurba_marseille","lat":43.30142,"lon":5.37421,"is_reserved":false,"is_disabled":false,"rental_uris":{"android":"levelo://app?vid=8163e3ac-fd5a-4fa7-824b-dde4e1e28f73","ios":"levelo://app?vid=8163e3ac-fd5a-4fa7-824b-dde4e1e28f73"},"vehicle_type_id":"4","last_reported":1759148499,"current_range_meters":14400,"station_id":"ce4bgs92rcd13ifvqcc0","pricing_plan_id":"cebpf4jnsgd1na2vs0mg"},{"bike_id":"d9d20b2d-7895-42c9-ad62-c75649cfab71","system_id":"levelo_inurba_marseille","lat":43.29912,"lon":5.37488,"is_reserved":false,"is_disabled":false,"rental_uris":{"android":"levelo://app?vid=d9d20b2d-7895-42c9-ad62-c75649cfab71","ios":"levelo://app?vid=d9d20b2d-7895-42c9-ad62-c75649cfab71"},"vehicle_type_id":"4","last_reported":1759148499,"current_range_meters":14400,"station_id":"ce4bgjh2rcd13ifvqbg0","pricing_plan_id":"cebpf4jnsgd1na2vs0mg"},{"bike_id":"385fa573-6758-43e7-a2f4-f27be30ea572","system_id":"levelo_inurba_marseille","lat":43.32124,"lon":5.36754,"is_reserved":false,"is_disabled":false,"rental_uris":{"android":"levelo://app?vid=385fa573-6758-43e7-a2f4-f27be30ea572","ios":"levelo://app?vid=385fa573-6758-43e7-a2f4-f27be30ea572"},"vehicle_type_id":"4","last_reported":1759148499,"current_range_meters":14800,"station_id":"ce4bhrh2rcd13ifvqhug","pricing_plan_id":"cebpf4jnsgd1na2vs0mg"},{"bike_id":"0a8b0e4e-4151-4511-9a3e-a22258611e90","system_id":"levelo_inurba_marseille","lat":43.2397,"lon":5.3662,"is_reserved":false,"is_disabled":false,"rental_uris":{"android":"levelo://app?vid=0a8b0e4e-4151-4511-9a3e-a22258611e90","ios":"levelo://app?vid=0a8b0e4e-4151-4511-9a3e-a22258611e90"},"vehicle_type_id":"4","last_reported":1759148499,"current_range_meters":14800,"station_id":"","pricing_plan_id":"cebpf4jnsgd1na2vs0mg"},{"bike_id":"dc0e4970-2a89-4556-a3c1-0eecb81fbb93","system_id":"levelo_inurba_marseille","lat":43.336011,"lon":5.41026,"is_reserved":false,"is_disabled":false,"rental_uris":{"android":"levelo://app?vid=dc0e4970-2a89-4556-a3c1-0eecb81fbb93","ios":"levelo://app?vid=dc0e4970-2a89-4556-a3c1-0eecb81fbb93"},"vehicle_type_id":"4","last_reported":1759148499,"current_range_meters":14800,"station_id":"ce4bhqh2rcd13ifvqhmg","pricing_plan_id":"cebpf4jnsgd1na2vs0mg"},{"bike_id":"73b07c27-d591-4954-92c4-f07905fc8394","system_id":"levelo_inurba_marseille","lat":43.26556,"lon":5.37282,"is_reserved":false,"is_disabled":false,"rental_uris":{"android":"levelo://app?vid=73b07c27-d591-4954-92c4-f07905fc8394","ios":"levelo://app?vid=73b07c27-d591-4954-92c4-f07905fc8394"},"vehicle_type_id":"4","last_reported":1759148499,"current_range_meters":14800,"station_id":"ce4bhg12rcd13ifvqf70","pricing_plan_id":"cebpf4jnsgd1na2vs0mg"},{"bike_id":"aa123961-c527-4db0-9350-7d548f67905a","system_id":"levelo_inurba_marseille","lat":43.27946,"lon":5.38753,"is_reserved":false,"is_disabled":false,"rental_uris":{"android":"levelo://app?vid=aa123961-c527-4db0-9350-7d548f67905a","ios":"levelo://app?vid=aa123961-c527-4db0-9350-7d548f67905a"},"vehicle_type_id":"4","last_reported":1759148499,"current_range_meters":14800,"station_id":"ce4bh492rcd13ifvqdvg","pricing_plan_id":"cebpf4jnsgd1na2vs0mg"},{"bike_id":"ba1cfbb3-555c-4e6c-85db-b50e9395062e","system_id":"levelo_inurba_marseille","lat":43.246877,"lon":5.381936,"is_reserved":false,"is_disabled":false,"rental_uris":{"android":"levelo://app?vid=ba1cfbb3-555c-4e6c-85db-b50e9395062e","ios":"levelo://app?vid=ba1cfbb3-555c-4e6c-85db-b50e9395062e"},"vehicle_type_id":"4","last_reported":1759148499,"current_range_meters":14800,"station_id":"","pricing_plan_id":"cebpf4jnsgd1na2vs0mg"},{"bike_id":"ce5e157e-4ef2-4c41-9b3b-54d3eecbfa45","system_id":"levelo_inurba_marseille","lat":43.225355,"lon":5.348444,"is_reserved":false,"is_disabled":false,"rental_uris":{"android":"levelo://app?vid=ce5e157e-4ef2-4c41-9b3b-54d3eecbfa45","ios":"levelo://app?vid=ce5e157e-4ef2-4c41-9b3b-54d3eecbfa45"},"vehicle_type_id":"4","last_reported":1759148499,"current_range_meters":14800,"station_id":"","pricing_plan_id":"cebpf4jnsgd1na2vs0mg"},{"bike_id":"aebf0e68-ba27-412a-9ce2-11cc42127dee","system_id":"levelo_inurba_marseille","lat":43.337444,"lon":5.374475,"is_reserved":false,"is_disabled":false,"rental_uris":{"android":"levelo://app?vid=aebf0e68-ba27-412a-9ce2-11cc42127dee","ios":"levelo://app?vid=aebf0e68-ba27-412a-9ce2-11cc42127dee"},"vehicle_type_id":"4","last_reported":1759148499,"current_range_meters":14800,"station_id":"","pricing_plan_id":"cebpf4jnsgd1na2vs0mg"},{"bike_id":"19db827e-8838-40be-ba7a-1ee0d4aa85f9","system_id":"levelo_inurba_marseille","lat":43.21182,"lon":5.3508,"is_reserved":false,"is_disabled":false,"rental_uris":{"android":"levelo://app?vid=19db827e-8838-40be-ba7a-1ee0d4aa85f9","ios":"levelo://app?vid=19db827e-8838-40be-ba7a-1ee0d4aa85f9"},"vehicle_type_id":"4","last_reported":1759148499,"current_range_meters":15200,"station_id":"st_cvj6sg6p6f1abm77japg","pricing_plan_id":"cebpf4jnsgd1na2vs0mg"},{"bike_id":"e18b0798-8d8e-4b05-bfef-0e7a989f1f56","system_id":"levelo_inurba_marseille","lat":43.30606,"lon":5.37223,"is_reserved":false,"is_disabled":false,"rental_uris":{"android":"levelo://app?vid=e18b0798-8d8e-4b05-bfef-0e7a989f1f56","ios":"levelo://app?vid=e18b0798-8d8e-4b05-bfef-0e7a989f1f56"},"vehicle_type_id":"4","last_reported":1759148499,"current_range_meters":15200,"station_id":"ce4bgqh2rcd13ifvqc4g","pricing_plan_id":"cebpf4jnsgd1na2vs0mg"},{"bike_id":"bce65b8f-3f71-4dcb-8832-85a9d0f61ebf","system_id":"levelo_inurba_marseille","lat":43.279735,"lon":5.387446,"is_reserved":false,"is_disabled":false,"rental_uris":{"android":"levelo://app?vid=bce65b8f-3f71-4dcb-8832-85a9d0f61ebf","ios":"levelo://app?vid=bce65b8f-3f71-4dcb-8832-85a9d0f61ebf"},"vehicle_type_id":"4","last_reported":1759148499,"current_range_meters":15200,"station_id":"ce4bhg12rcd13ifvqf80","pricing_plan_id":"cebpf4jnsgd1na2vs0mg"},{"bike_id":"a408d320-bf90-449d-ac32-8786a8647ad5","system_id":"levelo_inurba_marseille","lat":43.28276,"lon":5.35056,"is_reserved":false,"is_disabled":false,"rental_uris":{"android":"levelo://app?vid=a408d320-bf90-449d-ac32-8786a8647ad5","ios":"levelo://app?vid=a408d320-bf90-449d-ac32-8786a8647ad5"},"vehicle_type_id":"4","last_reported":1759148499,"current_range_meters":15200,"station_id":"ce4bhbp2rcd13ifvqerg","pricing_plan_id":"cebpf4jnsgd1na2vs0mg"},{"bike_id":"14a3f0a0-90f3-46d9-8d60-42e197c98c4f","system_id":"levelo_inurba_marseille","lat":43.26568,"lon":5.37272,"is_reserved":false,"is_disabled":false,"rental_uris":{"android":"levelo://app?vid=14a3f0a0-90f3-46d9-8d60-42e197c98c4f","ios":"levelo://app?vid=14a3f0a0-90f3-46d9-8d60-42e197c98c4f"},"vehicle_type_id":"4","last_reported":1759148499,"current_range_meters":15200,"station_id":"ce4bhg12rcd13ifvqf70","pricing_plan_id":"cebpf4jnsgd1na2vs0mg"},{"bike_id":"1a04738a-bd05-4e7f-b716-ba8d78a51904","system_id":"levelo_inurba_marseille","lat":43.287074,"lon":5.393096,"is_reserved":false,"is_disabled":false,"rental_uris":{"android":"levelo://app?vid=1a04738a-bd05-4e7f-b716-ba8d78a51904","ios":"levelo://app?vid=1a04738a-bd05-4e7f-b716-ba8d78a51904"},"vehicle_type_id":"4","last_reported":1759148499,"current_range_meters":15200,"station_id":"","pricing_plan_id":"cebpf4jnsgd1na2vs0mg"},{"bike_id":"3634d4eb-e2d9-4dab-85f1-a5fe512e1c98","system_id":"levelo_inurba_marseille","lat":43.31391,"lon":5.36712,"is_reserved":false,"is_disabled":false,"rental_uris":{"android":"levelo://app?vid=3634d4eb-e2d9-4dab-85f1-a5fe512e1c98","ios":"levelo://app?vid=3634d4eb-e2d9-4dab-85f1-a5fe512e1c98"},"vehicle_type_id":"4","last_reported":1759148499,"current_range_meters":15200,"station_id":"","pricing_plan_id":"cebpf4jnsgd1na2vs0mg"},{"bike_id":"8cbcf5e7-b804-4925-bbed-5f57e8580ccf","system_id":"levelo_inurba_marseille","lat":43.31519,"lon":5.36803,"is_reserved":false,"is_disabled":false,"rental_uris":{"android":"levelo://app?vid=8cbcf5e7-b804-4925-bbed-5f57e8580ccf","ios":"levelo://app?vid=8cbcf5e7-b804-4925-bbed-5f57e8580ccf"},"vehicle_type_id":"4","last_reported":1759148499,"current_range_meters":15200,"station_id":"","pricing_plan_id":"cebpf4jnsgd1na2vs0mg"},{"bike_id":"56d6a008-a903-4bd5-8ee3-1cec5d05c634","system_id":"levelo_inurba_marseille","lat":43.31749,"lon":5.39024,"is_reserved":false,"is_disabled":false,"rental_uris":{"android":"levelo://app?vid=56d6a008-a903-4bd5-8ee3-1cec5d05c634","ios":"levelo://app?vid=56d6a008-a903-4bd5-8ee3-1cec5d05c634"},"vehicle_type_id":"4","last_reported":1759148499,"current_range_meters":15200,"station_id":"ce4bhqp2rcd13ifvqhng","pricing_plan_id":"cebpf4jnsgd1na2vs0mg"},{"bike_id":"0d9c40ec-031a-4831-b45d-0985976c931c","system_id":"levelo_inurba_marseille","lat":43.24074,"lon":5.37728,"is_reserved":false,"is_disabled":false,"rental_uris":{"android":"levelo://app?vid=0d9c40ec-031a-4831-b45d-0985976c931c","ios":"levelo://app?vid=0d9c40ec-031a-4831-b45d-0985976c931c"},"vehicle_type_id":"4","last_reported":1759148499,"current_range_meters":16000,"station_id":"ce4bhnp2rcd13ifvqgvg","pricing_plan_id":"cebpf4jnsgd1na2vs0mg"},{"bike_id":"f870ed24-999e-4694-a429-2c5a647be260","system_id":"levelo_inurba_marseille","lat":43.30239,"lon":5.40062,"is_reserved":false,"is_disabled":true,"rental_uris":{"android":"levelo://app?vid=f870ed24-999e-4694-a429-2c5a647be260","ios":"levelo://app?vid=f870ed24-999e-4694-a429-2c5a647be260"},"vehicle_type_id":"4","last_reported":1759148499,"current_range_meters":16000,"station_id":"ce4bgvh2rcd13ifvqcs0","pricing_plan_id":"cebpf4jnsgd1na2vs0mg"},{"bike_id":"f4ad2316-8e4e-4196-ab18-e613bd6527e8","system_id":"levelo_inurba_marseille","lat":43.28945,"lon":5.36403,"is_reserved":false,"is_disabled":false,"rental_uris":{"android":"levelo://app?vid=f4ad2316-8e4e-4196-ab18-e613bd6527e8","ios":"levelo://app?vid=f4ad2316-8e4e-4196-ab18-e613bd6527e8"},"vehicle_type_id":"4","last_reported":1759148499,"current_range_meters":16000,"station_id":"ce4bhc92rcd13ifvqetg","pricing_plan_id":"cebpf4jnsgd1na2vs0mg"},{"bike_id":"78edd212-3bd8-4a45-bced-089e3907902a","system_id":"levelo_inurba_marseille","lat":43.327375,"lon":5.423794,"is_reserved":false,"is_disabled":false,"rental_uris":{"android":"levelo://app?vid=78edd212-3bd8-4a45-bced-089e3907902a","ios":"levelo://app?vid=78edd212-3bd8-4a45-bced-089e3907902a"},"vehicle_type_id":"4","last_reported":1759148499,"current_range_meters":16000,"station_id":"","pricing_plan_id":"cebpf4jnsgd1na2vs0mg"},{"bike_id":"d0b9c708-a4f1-4c58-8831-1c40289b24d4","system_id":"levelo_inurba_marseille","lat":43.34149,"lon":5.40892,"is_reserved":false,"is_disabled":false,"rental_uris":{"android":"levelo://app?vid=d0b9c708-a4f1-4c58-8831-1c40289b24d4","ios":"levelo://app?vid=d0b9c708-a4f1-4c58-8831-1c40289b24d4"},"vehicle_type_id":"4","last_reported":1759148499,"current_range_meters":16000,"station_id":"ce4bhqh2rcd13ifvqhlg","pricing_plan_id":"cebpf4jnsgd1na2vs0mg"},{"bike_id":"f0d94024-ce8d-4fa5-94e5-b39b16b0fa09","system_id":"levelo_inurba_marseille","lat":43.32358,"lon":5.38884,"is_reserved":false,"is_disabled":false,"rental_uris":{"android":"levelo://app?vid=f0d94024-ce8d-4fa5-94e5-b39b16b0fa09","ios":"levelo://app?vid=f0d94024-ce8d-4fa5-94e5-b39b16b0fa09"},"vehicle_type_id":"4","last_reported":1759148499,"current_range_meters":16000,"station_id":"ce4bhqp2rcd13ifvqhog","pricing_plan_id":"cebpf4jnsgd1na2vs0mg"},{"bike_id":"8a039b52-fd27-4b2b-827f-a8f3f8c2e243","system_id":"levelo_inurba_marseille","lat":43.32482,"lon":5.36573,"is_reserved":false,"is_disabled":false,"rental_uris":{"android":"levelo://app?vid=8a039b52-fd27-4b2b-827f-a8f3f8c2e243","ios":"levelo://app?vid=8a039b52-fd27-4b2b-827f-a8f3f8c2e243"},"vehicle_type_id":"4","last_reported":1759148499,"current_range_meters":16000,"station_id":"ce4bhs12rcd13ifvqhvg","pricing_plan_id":"cebpf4jnsgd1na2vs0mg"},{"bike_id":"d9fd48c2-a090-48b9-a6f9-be1a3c1ef061","system_id":"levelo_inurba_marseille","lat":43.27374,"lon":5.36253,"is_reserved":false,"is_disabled":false,"rental_uris":{"android":"levelo://app?vid=d9fd48c2-a090-48b9-a6f9-be1a3c1ef061","ios":"levelo://app?vid=d9fd48c2-a090-48b9-a6f9-be1a3c1ef061"},"vehicle_type_id":"4","last_reported":1759148499,"current_range_meters":16000,"station_id":"ce4bhbh2rcd13ifvqeo0","pricing_plan_id":"cebpf4jnsgd1na2vs0mg"},{"bike_id":"ced244e6-90f6-4663-abbe-1f63c01c78f0","system_id":"levelo_inurba_marseille","lat":43.24088,"lon":5.37744,"is_reserved":false,"is_disabled":false,"rental_uris":{"android":"levelo://app?vid=ced244e6-90f6-4663-abbe-1f63c01c78f0","ios":"levelo://app?vid=ced244e6-90f6-4663-abbe-1f63c01c78f0"},"vehicle_type_id":"4","last_reported":1759148499,"current_range_meters":16000,"station_id":"ce4bhnp2rcd13ifvqgvg","pricing_plan_id":"cebpf4jnsgd1na2vs0mg"},{"bike_id":"36c1f0d4-98d0-441d-8881-74948ad6e7cc","system_id":"levelo_inurba_marseille","lat":43.33602,"lon":5.41031,"is_reserved":false,"is_disabled":false,"rental_uris":{"android":"levelo://app?vid=36c1f0d4-98d0-441d-8881-74948ad6e7cc","ios":"levelo://app?vid=36c1f0d4-98d0-441d-8881-74948ad6e7cc"},"vehicle_type_id":"4","last_reported":1759148499,"current_range_meters":16000,"station_id":"ce4bhqh2rcd13ifvqhmg","pricing_plan_id":"cebpf4jnsgd1na2vs0mg"},{"bike_id":"60439a97-5dd2-4616-ad31-e3dd28bda889","system_id":"levelo_inurba_marseille","lat":43.311053,"lon":5.385775,"is_reserved":false,"is_disabled":false,"rental_uris":{"android":"levelo://app?vid=60439a97-5dd2-4616-ad31-e3dd28bda889","ios":"levelo://app?vid=60439a97-5dd2-4616-ad31-e3dd28bda889"},"vehicle_type_id":"4","last_reported":1759148499,"current_range_meters":16000,"station_id":"","pricing_plan_id":"cebpf4jnsgd1na2vs0mg"},{"bike_id":"ad058db0-5ffb-4622-b04e-0e7bf3aab117","system_id":"levelo_inurba_marseille","lat":43.24631,"lon":5.43141,"is_reserved":false,"is_disabled":false,"rental_uris":{"android":"levelo://app?vid=ad058db0-5ffb-4622-b04e-0e7bf3aab117","ios":"levelo://app?vid=ad058db0-5ffb-4622-b04e-0e7bf3aab117"},"vehicle_type_id":"4","last_reported":1759148499,"current_range_meters":16000,"station_id":"st_d2m6c4gdas8pm72e190g","pricing_plan_id":"cebpf4jnsgd1na2vs0mg"},{"bike_id":"03e98d4a-d163-4d95-9af0-c596dc21844a","system_id":"levelo_inurba_marseille","lat":43.309056,"lon":5.368354,"is_reserved":false,"is_disabled":false,"rental_uris":{"android":"levelo://app?vid=03e98d4a-d163-4d95-9af0-c596dc21844a","ios":"levelo://app?vid=03e98d4a-d163-4d95-9af0-c596dc21844a"},"vehicle_type_id":"4","last_reported":1759148499,"current_range_meters":16000,"station_id":"ce4bgn92rcd13ifvqbvg","pricing_plan_id":"cebpf4jnsgd1na2vs0mg"},{"bike_id":"b8cc1bf1-694a-46a8-8c23-3d70e540df3d","system_id":"levelo_inurba_marseille","lat":43.258434,"lon":5.410193,"is_reserved":false,"is_disabled":false,"rental_uris":{"android":"levelo://app?vid=b8cc1bf1-694a-46a8-8c23-3d70e540df3d","ios":"levelo://app?vid=b8cc1bf1-694a-46a8-8c23-3d70e540df3d"},"vehicle_type_id":"4","last_reported":1759148499,"current_range_meters":16000,"station_id":"","pricing_plan_id":"cebpf4jnsgd1na2vs0mg"},{"bike_id":"99ce2063-5dfb-4ed3-a4a6-8fc3a54c4890","system_id":"levelo_inurba_marseille","lat":43.337444,"lon":5.374475,"is_reserved":false,"is_disabled":false,"rental_uris":{"android":"levelo://app?vid=99ce2063-5dfb-4ed3-a4a6-8fc3a54c4890","ios":"levelo://app?vid=99ce2063-5dfb-4ed3-a4a6-8fc3a54c4890"},"vehicle_type_id":"4","last_reported":1759148499,"current_range_meters":16000,"station_id":"","pricing_plan_id":"cebpf4jnsgd1na2vs0mg"},{"bike_id":"cd170905-765c-4d7e-b362-aece577e492d","system_id":"levelo_inurba_marseille","lat":43.27501,"lon":5.42459,"is_reserved":false,"is_disabled":false,"rental_uris":{"android":"levelo://app?vid=cd170905-765c-4d7e-b362-aece577e492d","ios":"levelo://app?vid=cd170905-765c-4d7e-b362-aece577e492d"},"vehicle_type_id":"4","last_reported":1759148499,"current_range_meters":16400,"station_id":"ce4bhn92rcd13ifvqgrg","pricing_plan_id":"cebpf4jnsgd1na2vs0mg"},{"bike_id":"91658db2-d6ae-4346-bb4d-02353c95c4ab","system_id":"levelo_inurba_marseille","lat":43.2409,"lon":5.37748,"is_reserved":false,"is_disabled":false,"rental_uris":{"android":"levelo://app?vid=91658db2-d6ae-4346-bb4d-02353c95c4ab","ios":"levelo://app?vid=91658db2-d6ae-4346-bb4d-02353c95c4ab"},"vehicle_type_id":"4","last_reported":1759148499,"current_range_meters":16400,"station_id":"","pricing_plan_id":"cebpf4jnsgd1na2vs0mg"},{"bike_id":"8384dd5a-5cf5-4774-afff-2dd30b3b2435","system_id":"levelo_inurba_marseille","lat":43.26555,"lon":5.37282,"is_reserved":false,"is_disabled":false,"rental_uris":{"android":"levelo://app?vid=8384dd5a-5cf5-4774-afff-2dd30b3b2435","ios":"levelo://app?vid=8384dd5a-5cf5-4774-afff-2dd30b3b2435"},"vehicle_type_id":"4","last_reported":1759148499,"current_range_meters":16400,"station_id":"ce4bhg12rcd13ifvqf70","pricing_plan_id":"cebpf4jnsgd1na2vs0mg"},{"bike_id":"4a945870-a652-433d-a286-d9cf79515671","system_id":"levelo_inurba_marseille","lat":43.30532,"lon":5.36701,"is_reserved":false,"is_disabled":false,"rental_uris":{"android":"levelo://app?vid=4a945870-a652-433d-a286-d9cf79515671","ios":"levelo://app?vid=4a945870-a652-433d-a286-d9cf79515671"},"vehicle_type_id":"4","last_reported":1759148499,"current_range_meters":16400,"station_id":"ce4bgrp2rcd13ifvqc9g","pricing_plan_id":"cebpf4jnsgd1na2vs0mg"},{"bike_id":"c622f243-50cc-4435-98ad-aaac51ff224a","system_id":"levelo_inurba_marseille","lat":43.337774,"lon":5.374285,"is_reserved":false,"is_disabled":false,"rental_uris":{"android":"levelo://app?vid=c622f243-50cc-4435-98ad-aaac51ff224a","ios":"levelo://app?vid=c622f243-50cc-4435-98ad-aaac51ff224a"},"vehicle_type_id":"4","last_reported":1759148499,"current_range_meters":16400,"station_id":"","pricing_plan_id":"cebpf4jnsgd1na2vs0mg"},{"bike_id":"872b098e-8d73-4e68-9657-856be53a7655","system_id":"levelo_inurba_marseille","lat":43.30929,"lon":5.36856,"is_reserved":false,"is_disabled":false,"rental_uris":{"android":"levelo://app?vid=872b098e-8d73-4e68-9657-856be53a7655","ios":"levelo://app?vid=872b098e-8d73-4e68-9657-856be53a7655"},"vehicle_type_id":"4","last_reported":1759148499,"current_range_meters":16400,"station_id":"ce4bgn92rcd13ifvqbvg","pricing_plan_id":"cebpf4jnsgd1na2vs0mg"},{"bike_id":"072c8944-a250-4146-8017-a5fbe5e6738b","system_id":"levelo_inurba_marseille","lat":43.21753,"lon":5.34595,"is_reserved":false,"is_disabled":false,"rental_uris":{"android":"levelo://app?vid=072c8944-a250-4146-8017-a5fbe5e6738b","ios":"levelo://app?vid=072c8944-a250-4146-8017-a5fbe5e6738b"},"vehicle_type_id":"4","last_reported":1759148499,"current_range_meters":16400,"station_id":"st_cvj6r9ubvosntc0bgbag","pricing_plan_id":"cebpf4jnsgd1na2vs0mg"},{"bike_id":"4be5f2e5-06ea-4df4-baed-51d58f6ebc10","system_id":"levelo_inurba_marseille","lat":43.26781,"lon":5.39417,"is_reserved":false,"is_disabled":false,"rental_uris":{"android":"levelo://app?vid=4be5f2e5-06ea-4df4-baed-51d58f6ebc10","ios":"levelo://app?vid=4be5f2e5-06ea-4df4-baed-51d58f6ebc10"},"vehicle_type_id":"4","last_reported":1759148499,"current_range_meters":16400,"station_id":"ce4bhh12rcd13ifvqfg0","pricing_plan_id":"cebpf4jnsgd1na2vs0mg"},{"bike_id":"00b3c5d5-9ad5-4872-b372-089fa3a04914","system_id":"levelo_inurba_marseille","lat":43.286376,"lon":5.354934,"is_reserved":false,"is_disabled":false,"rental_uris":{"android":"levelo://app?vid=00b3c5d5-9ad5-4872-b372-089fa3a04914","ios":"levelo://app?vid=00b3c5d5-9ad5-4872-b372-089fa3a04914"},"vehicle_type_id":"4","last_reported":1759148499,"current_range_meters":16400,"station_id":"","pricing_plan_id":"cebpf4jnsgd1na2vs0mg"},{"bike_id":"d310fb3c-51fd-428a-947a-97a053af481f","system_id":"levelo_inurba_marseille","lat":43.31389,"lon":5.36744,"is_reserved":false,"is_disabled":false,"rental_uris":{"android":"levelo://app?vid=d310fb3c-51fd-428a-947a-97a053af481f","ios":"levelo://app?vid=d310fb3c-51fd-428a-947a-97a053af481f"},"vehicle_type_id":"4","last_reported":1759148499,"current_range_meters":16400,"station_id":"","pricing_plan_id":"cebpf4jnsgd1na2vs0mg"},{"bike_id":"9699e9c1-d3e7-42df-b7b4-a2eb493da0b6","system_id":"levelo_inurba_marseille","lat":43.30887,"lon":5.39645,"is_reserved":false,"is_disabled":false,"rental_uris":{"android":"levelo://app?vid=9699e9c1-d3e7-42df-b7b4-a2eb493da0b6","ios":"levelo://app?vid=9699e9c1-d3e7-42df-b7b4-a2eb493da0b6"},"vehicle_type_id":"4","last_reported":1759148499,"current_range_meters":16400,"station_id":"ce4bh012rcd13ifvqcv0","pricing_plan_id":"cebpf4jnsgd1na2vs0mg"},{"bike_id":"56ca0258-bee9-4eb2-b3c5-63b5cd0b9e67","system_id":"levelo_inurba_marseille","lat":43.33737,"lon":5.37445,"is_reserved":false,"is_disabled":false,"rental_uris":{"android":"levelo://app?vid=56ca0258-bee9-4eb2-b3c5-63b5cd0b9e67","ios":"levelo://app?vid=56ca0258-bee9-4eb2-b3c5-63b5cd0b9e67"},"vehicle_type_id":"4","last_reported":1759148499,"current_range_meters":16400,"station_id":"","pricing_plan_id":"cebpf4jnsgd1na2vs0mg"},{"bike_id":"92662833-c6ac-4b02-b7df-1638b54b1972","system_id":"levelo_inurba_marseille","lat":43.33742,"lon":5.37449,"is_reserved":false,"is_disabled":false,"rental_uris":{"android":"levelo://app?vid=92662833-c6ac-4b02-b7df-1638b54b1972","ios":"levelo://app?vid=92662833-c6ac-4b02-b7df-1638b54b1972"},"vehicle_type_id":"4","last_reported":1759148499,"current_range_meters":16400,"station_id":"","pricing_plan_id":"cebpf4jnsgd1na2vs0mg"},{"bike_id":"f8d78e5f-60e1-4623-939f-49e76ff16505","system_id":"levelo_inurba_marseille","lat":43.33742,"lon":5.37448,"is_reserved":false,"is_disabled":false,"rental_uris":{"android":"levelo://app?vid=f8d78e5f-60e1-4623-939f-49e76ff16505","ios":"levelo://app?vid=f8d78e5f-60e1-4623-939f-49e76ff16505"},"vehicle_type_id":"4","last_reported":1759148499,"current_range_meters":16400,"station_id":"","pricing_plan_id":"cebpf4jnsgd1na2vs0mg"},{"bike_id":"aa761cc9-200b-4ea5-b1e6-2a9971f22436","system_id":"levelo_inurba_marseille","lat":43.26557,"lon":5.37285,"is_reserved":false,"is_disabled":false,"rental_uris":{"android":"levelo://app?vid=aa761cc9-200b-4ea5-b1e6-2a9971f22436","ios":"levelo://app?vid=aa761cc9-200b-4ea5-b1e6-2a9971f22436"},"vehicle_type_id":"4","last_reported":1759148499,"current_range_meters":16800,"station_id":"ce4bhg12rcd13ifvqf70","pricing_plan_id":"cebpf4jnsgd1na2vs0mg"},{"bike_id":"35674f30-45d2-4192-a400-f0f8445d4437","system_id":"levelo_inurba_marseille","lat":43.310548,"lon":5.400897,"is_reserved":false,"is_disabled":false,"rental_uris":{"android":"levelo://app?vid=35674f30-45d2-4192-a400-f0f8445d4437","ios":"levelo://app?vid=35674f30-45d2-4192-a400-f0f8445d4437"},"vehicle_type_id":"4","last_reported":1759148499,"current_range_meters":16800,"station_id":"","pricing_plan_id":"cebpf4jnsgd1na2vs0mg"},{"bike_id":"57082d27-7e48-4b10-8bef-132671ce8b03","system_id":"levelo_inurba_marseille","lat":43.301404,"lon":5.374262,"is_reserved":false,"is_disabled":false,"rental_uris":{"android":"levelo://app?vid=57082d27-7e48-4b10-8bef-132671ce8b03","ios":"levelo://app?vid=57082d27-7e48-4b10-8bef-132671ce8b03"},"vehicle_type_id":"4","last_reported":1759148499,"current_range_meters":16800,"station_id":"ce4bgs92rcd13ifvqcc0","pricing_plan_id":"cebpf4jnsgd1na2vs0mg"},{"bike_id":"96520869-d013-4e0c-a355-f7bbd728ba84","system_id":"levelo_inurba_marseille","lat":43.323644,"lon":5.367528,"is_reserved":false,"is_disabled":false,"rental_uris":{"android":"levelo://app?vid=96520869-d013-4e0c-a355-f7bbd728ba84","ios":"levelo://app?vid=96520869-d013-4e0c-a355-f7bbd728ba84"},"vehicle_type_id":"4","last_reported":1759148499,"current_range_meters":16800,"station_id":"ce4bhsh2rcd13ifvqi2g","pricing_plan_id":"cebpf4jnsgd1na2vs0mg"},{"bike_id":"35191531-125d-4215-9fe9-885f7751439b","system_id":"levelo_inurba_marseille","lat":43.28372,"lon":5.38604,"is_reserved":false,"is_disabled":false,"rental_uris":{"android":"levelo://app?vid=35191531-125d-4215-9fe9-885f7751439b","ios":"levelo://app?vid=35191531-125d-4215-9fe9-885f7751439b"},"vehicle_type_id":"4","last_reported":1759148499,"current_range_meters":16800,"station_id":"ce4bh492rcd13ifvqdvg","pricing_plan_id":"cebpf4jnsgd1na2vs0mg"},{"bike_id":"4628218f-f5e5-450c-b141-87f91c11590e","system_id":"levelo_inurba_marseille","lat":43.28156,"lon":5.426162,"is_reserved":false,"is_disabled":false,"rental_uris":{"android":"levelo://app?vid=4628218f-f5e5-450c-b141-87f91c11590e","ios":"levelo://app?vid=4628218f-f5e5-450c-b141-87f91c11590e"},"vehicle_type_id":"4","last_reported":1759148499,"current_range_meters":16800,"station_id":"ce4bhnh2rcd13ifvqgug","pricing_plan_id":"cebpf4jnsgd1na2vs0mg"},{"bike_id":"09dc7070-767f-485c-8bab-bf9eefcad225","system_id":"levelo_inurba_marseille","lat":43.29144,"lon":5.37715,"is_reserved":false,"is_disabled":false,"rental_uris":{"android":"levelo://app?vid=09dc7070-767f-485c-8bab-bf9eefcad225","ios":"levelo://app?vid=09dc7070-767f-485c-8bab-bf9eefcad225"},"vehicle_type_id":"4","last_reported":1759148499,"current_range_meters":16800,"station_id":"","pricing_plan_id":"cebpf4jnsgd1na2vs0mg"},{"bike_id":"738a51a6-02d0-4def-8f3f-9c82f6a6dd05","system_id":"levelo_inurba_marseille","lat":43.323637,"lon":5.36737,"is_reserved":false,"is_disabled":false,"rental_uris":{"android":"levelo://app?vid=738a51a6-02d0-4def-8f3f-9c82f6a6dd05","ios":"levelo://app?vid=738a51a6-02d0-4def-8f3f-9c82f6a6dd05"},"vehicle_type_id":"4","last_reported":1759148499,"current_range_meters":16800,"station_id":"ce4bhsh2rcd13ifvqi2g","pricing_plan_id":"cebpf4jnsgd1na2vs0mg"},{"bike_id":"9174e38a-f6c5-4657-8d7b-aa4f7ece4421","system_id":"levelo_inurba_marseille","lat":43.24263,"lon":5.37573,"is_reserved":false,"is_disabled":false,"rental_uris":{"android":"levelo://app?vid=9174e38a-f6c5-4657-8d7b-aa4f7ece4421","ios":"levelo://app?vid=9174e38a-f6c5-4657-8d7b-aa4f7ece4421"},"vehicle_type_id":"4","last_reported":1759148499,"current_range_meters":16800,"station_id":"","pricing_plan_id":"cebpf4jnsgd1na2vs0mg"},{"bike_id":"5c3b4228-b227-402c-a874-06485013760e","system_id":"levelo_inurba_marseille","lat":43.2315,"lon":5.43714,"is_reserved":false,"is_disabled":false,"rental_uris":{"android":"levelo://app?vid=5c3b4228-b227-402c-a874-06485013760e","ios":"levelo://app?vid=5c3b4228-b227-402c-a874-06485013760e"},"vehicle_type_id":"4","last_reported":1759148499,"current_range_meters":16800,"station_id":"ce4bhmp2rcd13ifvqgog","pricing_plan_id":"cebpf4jnsgd1na2vs0mg"},{"bike_id":"d7abea08-6f56-491d-8003-8bb162f65a23","system_id":"levelo_inurba_marseille","lat":43.27321,"lon":5.39081,"is_reserved":false,"is_disabled":false,"rental_uris":{"android":"levelo://app?vid=d7abea08-6f56-491d-8003-8bb162f65a23","ios":"levelo://app?vid=d7abea08-6f56-491d-8003-8bb162f65a23"},"vehicle_type_id":"4","last_reported":1759148499,"current_range_meters":16800,"station_id":"ce4bhgp2rcd13ifvqfe0","pricing_plan_id":"cebpf4jnsgd1na2vs0mg"},{"bike_id":"eff87eec-f56a-4fa3-96c2-d4aa6e0695b8","system_id":"levelo_inurba_marseille","lat":43.28432,"lon":5.37519,"is_reserved":false,"is_disabled":false,"rental_uris":{"android":"levelo://app?vid=eff87eec-f56a-4fa3-96c2-d4aa6e0695b8","ios":"levelo://app?vid=eff87eec-f56a-4fa3-96c2-d4aa6e0695b8"},"vehicle_type_id":"4","last_reported":1759148499,"current_range_meters":16800,"station_id":"ce4bh412rcd13ifvqds0","pricing_plan_id":"cebpf4jnsgd1na2vs0mg"},{"bike_id":"c64842eb-0f04-44f0-ab7e-8a910d80de06","system_id":"levelo_inurba_marseille","lat":43.30916,"lon":5.36837,"is_reserved":false,"is_disabled":false,"rental_uris":{"android":"levelo://app?vid=c64842eb-0f04-44f0-ab7e-8a910d80de06","ios":"levelo://app?vid=c64842eb-0f04-44f0-ab7e-8a910d80de06"},"vehicle_type_id":"4","last_reported":1759148499,"current_range_meters":17200,"station_id":"ce4bgn92rcd13ifvqbvg","pricing_plan_id":"cebpf4jnsgd1na2vs0mg"},{"bike_id":"0aba4fe3-5dca-4d79-8b9d-2fc77d6e7d70","system_id":"levelo_inurba_marseille","lat":43.28418,"lon":5.349815,"is_reserved":false,"is_disabled":false,"rental_uris":{"android":"levelo://app?vid=0aba4fe3-5dca-4d79-8b9d-2fc77d6e7d70","ios":"levelo://app?vid=0aba4fe3-5dca-4d79-8b9d-2fc77d6e7d70"},"vehicle_type_id":"4","last_reported":1759148499,"current_range_meters":17200,"station_id":"","pricing_plan_id":"cebpf4jnsgd1na2vs0mg"},{"bike_id":"6f316bf5-0c4d-41b9-8230-84bf4487f34f","system_id":"levelo_inurba_marseille","lat":43.23976,"lon":5.36617,"is_reserved":false,"is_disabled":false,"rental_uris":{"android":"levelo://app?vid=6f316bf5-0c4d-41b9-8230-84bf4487f34f","ios":"levelo://app?vid=6f316bf5-0c4d-41b9-8230-84bf4487f34f"},"vehicle_type_id":"4","last_reported":1759148499,"current_range_meters":17200,"station_id":"ce4bhi12rcd13ifvqfp0","pricing_plan_id":"cebpf4jnsgd1na2vs0mg"},{"bike_id":"74898dc7-8c2d-4900-a548-e66777267953","system_id":"levelo_inurba_marseille","lat":43.27565,"lon":5.35944,"is_reserved":false,"is_disabled":false,"rental_uris":{"android":"levelo://app?vid=74898dc7-8c2d-4900-a548-e66777267953","ios":"levelo://app?vid=74898dc7-8c2d-4900-a548-e66777267953"},"vehicle_type_id":"4","last_reported":1759148499,"current_range_meters":17200,"station_id":"","pricing_plan_id":"cebpf4jnsgd1na2vs0mg"},{"bike_id":"724e4a07-ffcf-450d-87ac-00fe79f03f7b","system_id":"levelo_inurba_marseille","lat":43.23155,"lon":5.43722,"is_reserved":false,"is_disabled":false,"rental_uris":{"android":"levelo://app?vid=724e4a07-ffcf-450d-87ac-00fe79f03f7b","ios":"levelo://app?vid=724e4a07-ffcf-450d-87ac-00fe79f03f7b"},"vehicle_type_id":"4","last_reported":1759148499,"current_range_meters":17200,"station_id":"ce4bhmp2rcd13ifvqgog","pricing_plan_id":"cebpf4jnsgd1na2vs0mg"},{"bike_id":"32c39961-808b-44e8-97fa-dd1646c3e5d1","system_id":"levelo_inurba_marseille","lat":43.29908,"lon":5.38325,"is_reserved":false,"is_disabled":false,"rental_uris":{"android":"levelo://app?vid=32c39961-808b-44e8-97fa-dd1646c3e5d1","ios":"levelo://app?vid=32c39961-808b-44e8-97fa-dd1646c3e5d1"},"vehicle_type_id":"4","last_reported":1759148499,"current_range_meters":17200,"station_id":"","pricing_plan_id":"cebpf4jnsgd1na2vs0mg"},{"bike_id":"2e3230a4-735c-4ef7-ab52-0cedc931c27a","system_id":"levelo_inurba_marseille","lat":43.31175,"lon":5.38708,"is_reserved":false,"is_disabled":false,"rental_uris":{"android":"levelo://app?vid=2e3230a4-735c-4ef7-ab52-0cedc931c27a","ios":"levelo://app?vid=2e3230a4-735c-4ef7-ab52-0cedc931c27a"},"vehicle_type_id":"4","last_reported":1759148499,"current_range_meters":16800,"station_id":"ce4bgv12rcd13ifvqcp0","pricing_plan_id":"cebpf4jnsgd1na2vs0mg"},{"bike_id":"6199221e-cb34-4ffc-a4c2-2cb3a099145c","system_id":"levelo_inurba_marseille","lat":43.2398,"lon":5.36598,"is_reserved":false,"is_disabled":false,"rental_uris":{"android":"levelo://app?vid=6199221e-cb34-4ffc-a4c2-2cb3a099145c","ios":"levelo://app?vid=6199221e-cb34-4ffc-a4c2-2cb3a099145c"},"vehicle_type_id":"4","last_reported":1759148499,"current_range_meters":17600,"station_id":"ce4bhi12rcd13ifvqfp0","pricing_plan_id":"cebpf4jnsgd1na2vs0mg"},{"bike_id":"8df0a37b-e894-41ad-9754-e120982e65a6","system_id":"levelo_inurba_marseille","lat":43.29221,"lon":5.35797,"is_reserved":false,"is_disabled":false,"rental_uris":{"android":"levelo://app?vid=8df0a37b-e894-41ad-9754-e120982e65a6","ios":"levelo://app?vid=8df0a37b-e894-41ad-9754-e120982e65a6"},"vehicle_type_id":"4","last_reported":1759148499,"current_range_meters":17600,"station_id":"ce4bhb12rcd13ifvqel0","pricing_plan_id":"cebpf4jnsgd1na2vs0mg"},{"bike_id":"bc1875da-bbc2-4246-b70e-c8eadcfdd1e9","system_id":"levelo_inurba_marseille","lat":43.24081,"lon":5.37758,"is_reserved":false,"is_disabled":false,"rental_uris":{"android":"levelo://app?vid=bc1875da-bbc2-4246-b70e-c8eadcfdd1e9","ios":"levelo://app?vid=bc1875da-bbc2-4246-b70e-c8eadcfdd1e9"},"vehicle_type_id":"4","last_reported":1759148499,"current_range_meters":17600,"station_id":"ce4bhnp2rcd13ifvqgvg","pricing_plan_id":"cebpf4jnsgd1na2vs0mg"},{"bike_id":"e27e1b84-fcb9-4229-ab17-6ab0cecb8bea","system_id":"levelo_inurba_marseille","lat":43.30147,"lon":5.37392,"is_reserved":false,"is_disabled":false,"rental_uris":{"android":"levelo://app?vid=e27e1b84-fcb9-4229-ab17-6ab0cecb8bea","ios":"levelo://app?vid=e27e1b84-fcb9-4229-ab17-6ab0cecb8bea"},"vehicle_type_id":"4","last_reported":1759148499,"current_range_meters":17600,"station_id":"ce4bgs92rcd13ifvqcc0","pricing_plan_id":"cebpf4jnsgd1na2vs0mg"},{"bike_id":"6ca7f74e-0578-429c-8d66-5e02da2e17f6","system_id":"levelo_inurba_marseille","lat":43.30927,"lon":5.3726,"is_reserved":false,"is_disabled":false,"rental_uris":{"android":"levelo://app?vid=6ca7f74e-0578-429c-8d66-5e02da2e17f6","ios":"levelo://app?vid=6ca7f74e-0578-429c-8d66-5e02da2e17f6"},"vehicle_type_id":"4","last_reported":1759148499,"current_range_meters":17600,"station_id":"","pricing_plan_id":"cebpf4jnsgd1na2vs0mg"},{"bike_id":"5d5b7140-9cb1-480e-a08d-7f4b9586e9e3","system_id":"levelo_inurba_marseille","lat":43.29568,"lon":5.37495,"is_reserved":false,"is_disabled":false,"rental_uris":{"android":"levelo://app?vid=5d5b7140-9cb1-480e-a08d-7f4b9586e9e3","ios":"levelo://app?vid=5d5b7140-9cb1-480e-a08d-7f4b9586e9e3"},"vehicle_type_id":"4","last_reported":1759148499,"current_range_meters":17600,"station_id":"","pricing_plan_id":"cebpf4jnsgd1na2vs0mg"},{"bike_id":"f44df0c8-3c0a-4103-982e-900169d96e81","system_id":"levelo_inurba_marseille","lat":43.3212,"lon":5.36765,"is_reserved":false,"is_disabled":false,"rental_uris":{"android":"levelo://app?vid=f44df0c8-3c0a-4103-982e-900169d96e81","ios":"levelo://app?vid=f44df0c8-3c0a-4103-982e-900169d96e81"},"vehicle_type_id":"4","last_reported":1759148499,"current_range_meters":17600,"station_id":"ce4bhrh2rcd13ifvqhug","pricing_plan_id":"cebpf4jnsgd1na2vs0mg"},{"bike_id":"05edc883-8f96-4f24-9d79-9b2e0848ced3","system_id":"levelo_inurba_marseille","lat":43.31329,"lon":5.3673,"is_reserved":false,"is_disabled":false,"rental_uris":{"android":"levelo://app?vid=05edc883-8f96-4f24-9d79-9b2e0848ced3","ios":"levelo://app?vid=05edc883-8f96-4f24-9d79-9b2e0848ced3"},"vehicle_type_id":"4","last_reported":1759148499,"current_range_meters":17600,"station_id":"ce4bgr92rcd13ifvqc6g","pricing_plan_id":"cebpf4jnsgd1na2vs0mg"},{"bike_id":"13604148-437a-4148-9ed9-019ca4e03ec3","system_id":"levelo_inurba_marseille","lat":43.24641,"lon":5.43145,"is_reserved":false,"is_disabled":false,"rental_uris":{"android":"levelo://app?vid=13604148-437a-4148-9ed9-019ca4e03ec3","ios":"levelo://app?vid=13604148-437a-4148-9ed9-019ca4e03ec3"},"vehicle_type_id":"4","last_reported":1759148499,"current_range_meters":17600,"station_id":"st_d2m6c4gdas8pm72e190g","pricing_plan_id":"cebpf4jnsgd1na2vs0mg"},{"bike_id":"4decf074-88b0-472b-979d-8fa63f44d2f4","system_id":"levelo_inurba_marseille","lat":43.27375,"lon":5.36259,"is_reserved":false,"is_disabled":false,"rental_uris":{"android":"levelo://app?vid=4decf074-88b0-472b-979d-8fa63f44d2f4","ios":"levelo://app?vid=4decf074-88b0-472b-979d-8fa63f44d2f4"},"vehicle_type_id":"4","last_reported":1759148499,"current_range_meters":17600,"station_id":"ce4bhbh2rcd13ifvqeo0","pricing_plan_id":"cebpf4jnsgd1na2vs0mg"},{"bike_id":"f59d44ff-8728-4fbb-b217-c11bcd11e8c3","system_id":"levelo_inurba_marseille","lat":43.28269,"lon":5.35051,"is_reserved":false,"is_disabled":false,"rental_uris":{"android":"levelo://app?vid=f59d44ff-8728-4fbb-b217-c11bcd11e8c3","ios":"levelo://app?vid=f59d44ff-8728-4fbb-b217-c11bcd11e8c3"},"vehicle_type_id":"4","last_reported":1759148499,"current_range_meters":17600,"station_id":"ce4bhbp2rcd13ifvqerg","pricing_plan_id":"cebpf4jnsgd1na2vs0mg"},{"bike_id":"8cdf72a1-7c51-4cb6-889a-6cf13f86cdae","system_id":"levelo_inurba_marseille","lat":43.26553,"lon":5.37255,"is_reserved":false,"is_disabled":false,"rental_uris":{"android":"levelo://app?vid=8cdf72a1-7c51-4cb6-889a-6cf13f86cdae","ios":"levelo://app?vid=8cdf72a1-7c51-4cb6-889a-6cf13f86cdae"},"vehicle_type_id":"4","last_reported":1759148499,"current_range_meters":17600,"station_id":"ce4bhg12rcd13ifvqf70","pricing_plan_id":"cebpf4jnsgd1na2vs0mg"},{"bike_id":"d2f46c9e-a53c-42a7-ad54-fd7c896f4565","system_id":"levelo_inurba_marseille","lat":43.33797,"lon":5.37428,"is_reserved":false,"is_disabled":false,"rental_uris":{"android":"levelo://app?vid=d2f46c9e-a53c-42a7-ad54-fd7c896f4565","ios":"levelo://app?vid=d2f46c9e-a53c-42a7-ad54-fd7c896f4565"},"vehicle_type_id":"4","last_reported":1759148499,"current_range_meters":17600,"station_id":"","pricing_plan_id":"cebpf4jnsgd1na2vs0mg"},{"bike_id":"c47f5c3e-1ff3-43b7-b740-1c081ef57305","system_id":"levelo_inurba_marseille","lat":43.296089,"lon":5.377258,"is_reserved":false,"is_disabled":false,"rental_uris":{"android":"levelo://app?vid=c47f5c3e-1ff3-43b7-b740-1c081ef57305","ios":"levelo://app?vid=c47f5c3e-1ff3-43b7-b740-1c081ef57305"},"vehicle_type_id":"4","last_reported":1759148499,"current_range_meters":18000,"station_id":"","pricing_plan_id":"cebpf4jnsgd1na2vs0mg"},{"bike_id":"4a32ca82-f23b-4f1c-990f-c8e5505ca5a6","system_id":"levelo_inurba_marseille","lat":43.30133,"lon":5.37416,"is_reserved":false,"is_disabled":false,"rental_uris":{"android":"levelo://app?vid=4a32ca82-f23b-4f1c-990f-c8e5505ca5a6","ios":"levelo://app?vid=4a32ca82-f23b-4f1c-990f-c8e5505ca5a6"},"vehicle_type_id":"4","last_reported":1759148499,"current_range_meters":18000,"station_id":"ce4bgs92rcd13ifvqcc0","pricing_plan_id":"cebpf4jnsgd1na2vs0mg"},{"bike_id":"f9574d5b-4a67-43fc-9668-2c2e41a8a8b8","system_id":"levelo_inurba_marseille","lat":43.2315,"lon":5.43715,"is_reserved":false,"is_disabled":false,"rental_uris":{"android":"levelo://app?vid=f9574d5b-4a67-43fc-9668-2c2e41a8a8b8","ios":"levelo://app?vid=f9574d5b-4a67-43fc-9668-2c2e41a8a8b8"},"vehicle_type_id":"4","last_reported":1759148499,"current_range_meters":18000,"station_id":"ce4bhmp2rcd13ifvqgog","pricing_plan_id":"cebpf4jnsgd1na2vs0mg"},{"bike_id":"b1f50093-2e11-4283-86a0-13302b5a1c02","system_id":"levelo_inurba_marseille","lat":43.26047,"lon":5.37534,"is_reserved":false,"is_disabled":false,"rental_uris":{"android":"levelo://app?vid=b1f50093-2e11-4283-86a0-13302b5a1c02","ios":"levelo://app?vid=b1f50093-2e11-4283-86a0-13302b5a1c02"},"vehicle_type_id":"4","last_reported":1759148499,"current_range_meters":18000,"station_id":"ce4bhgh2rcd13ifvqfa0","pricing_plan_id":"cebpf4jnsgd1na2vs0mg"},{"bike_id":"7bf50ef4-7f57-410b-b6e3-1e291c08d2ef","system_id":"levelo_inurba_marseille","lat":43.29625,"lon":5.3702,"is_reserved":false,"is_disabled":false,"rental_uris":{"android":"levelo://app?vid=7bf50ef4-7f57-410b-b6e3-1e291c08d2ef","ios":"levelo://app?vid=7bf50ef4-7f57-410b-b6e3-1e291c08d2ef"},"vehicle_type_id":"4","last_reported":1759148499,"current_range_meters":18000,"station_id":"","pricing_plan_id":"cebpf4jnsgd1na2vs0mg"},