{"last_updated":1767702315,"ttl":60,"version":"2.2","data":{"bikes":[{"bike_id":"e600f5e1-15cd-43f0-9cd0-de54ecd25135","system_id":"levelo_inurba_marseille","lat":43.24166,"lon":5.39697,"is_reserved":false,"is_disabled":false,"rental_uris":{"android":"levelo://app?vid=e600f5e1-15cd-43f0-9cd0-de54ecd25135","ios":"levelo://app?vid=e600f5e1-15cd-43f0-9cd0-de54ecd25135"},"vehicle_type_id":"4","last_reported":1767702315,"current_range_meters":2800,"station_id":"ce4bhn12rcd13ifvqgpg","pricing_plan_id":"cebpf4jnsgd1na2vs0mg"},{"bike_id":"7021d223-1fad-4cfa-9032-11f32093e238","system_id":"levelo_inurba_marseille","lat":43.32547,"lon":5.41451,"is_reserved":false,"is_disabled":false,"rental_uris":{"android":"levelo://app?vid=7021d223-1fad-4cfa-9032-11f32093e238","ios":"levelo://app?vid=7021d223-1fad-4cfa-9032-11f32093e238"},"vehicle_type_id":"4","last_reported":1767702315,"current_range_meters":2800,"station_id":"ce4bhq12rcd13ifvqhhg","pricing_plan_id":"cebpf4jnsgd1na2vs0mg"},{"bike_id":"972bd070-c735-4135-b8b0-fabca324ac27","system_id":"levelo_inurba_marseille","lat":43.26936,"lon":5.40233,"is_reserved":false,"is_disabled":false,"rental_uris":{"android":"levelo://app?vid=972bd070-c735-4135-b8b0-fabca324ac27","ios":"levelo://app?vid=972bd070-c735-4135-b8b0-fabca324ac27"},"vehicle_type_id":"4","last_reported":1767702315,"current_range_meters":2800,"station_id":"cjm6bp8fraef2m0cb0m0","pricing_plan_id":"cebpf4jnsgd1na2vs0mg"},{"bike_id":"2e8e84f6-e40c-4841-aa42-1159f089db20","system_id":"levelo_inurba_marseille","lat":43.28486,"lon":5.38529,"is_reserved":false,"is_disabled":false,"rental_uris":{"android":"levelo://app?vid=2e8e84f6-e40c-4841-aa42-1159f089db20","ios":"levelo://app?vid=2e8e84f6-e40c-4841-aa42-1159f089db20"},"vehicle_type_id":"4","last_reported":1767702315,"current_range_meters":2800,"station_id":"ce4bh8p2rcd13ifvqeb0","pricing_plan_id":"cebpf4jnsgd1na2vs0mg"},{"bike_id":"4bd3b48e-7ebe-4ed9-a7d5-3c824b47debd","system_id":"levelo_inurba_marseille","lat":43.30254,"lon":5.40069,"is_reserved":false,"is_disabled":false,"rental_uris":{"android":"levelo://app?vid=4bd3b48e-7ebe-4ed9-a7d5-3c824b47debd","ios":"levelo://app?vid=4bd3b48e-7ebe-4ed9-a7d5-3c824b47debd"},"vehicle_type_id":"4","last_reported":1767702315,"current_range_meters":2800,"station_id":"ce4bgvh2rcd13ifvqcs0","pricing_plan_id":"cebpf4jnsgd1na2vs0mg"},{"bike_id":"a0e8d739-6fac-4b9d-a985-d21edc98266e","system_id":"levelo_inurba_marseille","lat":43.31617,"lon":5.38451,"is_reserved":false,"is_disabled":false,"rental_uris":{"android":"levelo://app?vid=a0e8d739-6fac-4b9d-a985-d21edc98266e","ios":"levelo://app?vid=a0e8d739-6fac-4b9d-a985-d21edc98266e"},"vehicle_type_id":"4","last_reported":1767702315,"current_range_meters":2800,"station_id":"","pricing_plan_id":"cebpf4jnsgd1na2vs0mg"},{"bike_id":"7b955b3d-6743-4688-9268-a00334508f3e","system_id":"levelo_inurba_marseille","lat":43.29486,"lon":5.37953,"is_reserved":false,"is_disabled":false,"rental_uris":{"android":"levelo://app?vid=7b955b3d-6743-4688-9268-a00334508f3e","ios":"levelo://app?vid=7b955b3d-6743-4688-9268-a00334508f3e"},"vehicle_type_id":"4","last_reported":1767702315,"current_range_meters":2800,"station_id":"","pricing_plan_id":"cebpf4jnsgd1na2vs0mg"},{"bike_id":"9635bea0-f844-4d25-9ad9-4fdbf1fc89e1","system_id":"levelo_inurba_marseille","lat":43.30161,"lon":5.38084,"is_reserved":false,"is_disabled":false,"rental_uris":{"android":"levelo://app?vid=9635bea0-f844-4d25-9ad9-4fdbf1fc89e1","ios":"levelo://app?vid=9635bea0-f844-4d25-9ad9-4fdbf1fc89e1"},"vehicle_type_id":"4","last_reported":1767702315,"current_range_meters":2800,"station_id":"ce4bgjp2rcd13ifvqbh0","pricing_plan_id":"cebpf4jnsgd1na2vs0mg"},{"bike_id":"1ed18920-86c3-43b1-b9f4-96beaa73ad5a","system_id":"levelo_inurba_marseille","lat":43.30192,"lon":5.36631,"is_reserved":false,"is_disabled":false,"rental_uris":{"android":"levelo://app?vid=1ed18920-86c3-43b1-b9f4-96beaa73ad5a","ios":"levelo://app?vid=1ed18920-86c3-43b1-b9f4-96beaa73ad5a"},"vehicle_type_id":"4","last_reported":1767702315,"current_range_meters":3200,"station_id":"ce4bgrh2rcd13ifvqc8g","pricing_plan_id":"cebpf4jnsgd1na2vs0mg"},{"bike_id":"2e528fe6-fabc-4702-b8bb-1f0c51127554","system_id":"levelo_inurba_marseille","lat":43.28162,"lon":5.42636,"is_reserved":false,"is_disabled":false,"rental_uris":{"android":"levelo://app?vid=2e528fe6-fabc-4702-b8bb-1f0c51127554","ios":"levelo://app?vid=2e528fe6-fabc-4702-b8bb-1f0c51127554"},"vehicle_type_id":"4","last_reported":1767702315,"current_range_meters":3200,"station_id":"ce4bhnh2rcd13ifvqgug","pricing_plan_id":"cebpf4jnsgd1na2vs0mg"},{"bike_id":"419cb740-8c7e-479a-bb49-6ba3575fce98","system_id":"levelo_inurba_marseille","lat":43.29026,"lon":5.3814,"is_reserved":false,"is_disabled":false,"rental_uris":{"android":"levelo://app?vid=419cb740-8c7e-479a-bb49-6ba3575fce98","ios":"levelo://app?vid=419cb740-8c7e-479a-bb49-6ba3575fce98"},"vehicle_type_id":"4","last_reported":1767702315,"current_range_meters":3200,"station_id":"ce4bh4p2rcd13ifvqe1g","pricing_plan_id":"cebpf4jnsgd1na2vs0mg"},{"bike_id":"bf9ac294-030a-4b24-9371-6fae52f905ee","system_id":"levelo_inurba_marseille","lat":43.28798,"lon":5.36398,"is_reserved":false,"is_disabled":false,"rental_uris":{"android":"levelo://app?vid=bf9ac294-030a-4b24-9371-6fae52f905ee","ios":"levelo://app?vid=bf9ac294-030a-4b24-9371-6fae52f905ee"},"vehicle_type_id":"4","last_reported":1767702315,"current_range_meters":3200,"station_id":"","pricing_plan_id":"cebpf4jnsgd1na2vs0mg"},{"bike_id":"5b32e82b-506a-48f0-89b1-457762ead484","system_id":"levelo_inurba_marseille","lat":43.293831,"lon":5.378561,"is_reserved":false,"is_disabled":false,"rental_uris":{"android":"levelo://app?vid=5b32e82b-506a-48f0-89b1-457762ead484","ios":"levelo://app?vid=5b32e82b-506a-48f0-89b1-457762ead484"},"vehicle_type_id":"4","last_reported":1767702315,"current_range_meters":3200,"station_id":"ce4bgjh2rcd13ifvqbf0","pricing_plan_id":"cebpf4jnsgd1na2vs0mg"},{"bike_id":"98738c70-885f-4f56-97b9-49a71c197f9a","system_id":"levelo_inurba_marseille","lat":43.24177,"lon":5.36438,"is_reserved":false,"is_disabled":false,"rental_uris":{"android":"levelo://app?vid=98738c70-885f-4f56-97b9-49a71c197f9a","ios":"levelo://app?vid=98738c70-885f-4f56-97b9-49a71c197f9a"},"vehicle_type_id":"4","last_reported":1767702315,"current_range_meters":3200,"station_id":"cpo36qri1sfpv3e86is0","pricing_plan_id":"cebpf4jnsgd1na2vs0mg"},{"bike_id":"00a438d1-2ca2-4b2f-8c1b-6564f55c1efd","system_id":"levelo_inurba_marseille","lat":43.30362,"lon":5.43064,"is_reserved":false,"is_disabled":false,"rental_uris":{"android":"levelo://app?vid=00a438d1-2ca2-4b2f-8c1b-6564f55c1efd","ios":"levelo://app?vid=00a438d1-2ca2-4b2f-8c1b-6564f55c1efd"},"vehicle_type_id":"4","last_reported":1767702315,"current_range_meters":3200,"station_id":"","pricing_plan_id":"cebpf4jnsgd1na2vs0mg"},{"bike_id":"e9610580-3979-4024-b702-0412abaec69b","system_id":"levelo_inurba_marseille","lat":43.31177,"lon":5.38135,"is_reserved":false,"is_disabled":false,"rental_uris":{"android":"levelo://app?vid=e9610580-3979-4024-b702-0412abaec69b","ios":"levelo://app?vid=e9610580-3979-4024-b702-0412abaec69b"},"vehicle_type_id":"4","last_reported":1767702315,"current_range_meters":3200,"station_id":"","pricing_plan_id":"cebpf4jnsgd1na2vs0mg"},{"bike_id":"f8cc116c-8a47-476a-84ed-1ae454f8faff","system_id":"levelo_inurba_marseille","lat":43.29211,"lon":5.36065,"is_reserved":false,"is_disabled":false,"rental_uris":{"android":"levelo://app?vid=f8cc116c-8a47-476a-84ed-1ae454f8faff","ios":"levelo://app?vid=f8cc116c-8a47-476a-84ed-1ae454f8faff"},"vehicle_type_id":"4","last_reported":1767702315,"current_range_meters":3200,"station_id":"ce4bhbh2rcd13ifvqeqg","pricing_plan_id":"cebpf4jnsgd1na2vs0mg"},{"bike_id":"2c27ec0a-e1a6-45d7-8934-b7b3f64dcd18","system_id":"levelo_inurba_marseille","lat":43.27337,"lon":5.38716,"is_reserved":false,"is_disabled":false,"rental_uris":{"android":"levelo://app?vid=2c27ec0a-e1a6-45d7-8934-b7b3f64dcd18","ios":"levelo://app?vid=2c27ec0a-e1a6-45d7-8934-b7b3f64dcd18"},"vehicle_type_id":"4","last_reported":1767702315,"current_range_meters":3200,"station_id":"ce4bgvh2rcd13ifvqcs0","pricing_plan_id":"cebpf4jnsgd1na2vs0mg"},{"bike_id":"931bf855-058d-4d1a-b24b-4b90b45762fb","system_id":"levelo_inurba_marseille","lat":43.23958,"lon":5.36631,"is_reserved":false,"is_disabled":false,"rental_uris":{"android":"levelo://app?vid=931bf855-058d-4d1a-b24b-4b90b45762fb","ios":"levelo://app?vid=931bf855-058d-4d1a-b24b-4b90b45762fb"},"vehicle_type_id":"4","last_reported":1767702315,"current_range_meters":3600,"station_id":"ce4bhi12rcd13ifvqfp0","pricing_plan_id":"cebpf4jnsgd1na2vs0mg"},{"bike_id":"a79f864e-d065-4c7a-833d-cf14f861d8c8","system_id":"levelo_inurba_marseille","lat":43.258238,"lon":5.394445,"is_reserved":false,"is_disabled":false,"rental_uris":{"android":"levelo://app?vid=a79f864e-d065-4c7a-833d-cf14f861d8c8","ios":"levelo://app?vid=a79f864e-d065-4c7a-833d-cf14f861d8c8"},"vehicle_type_id":"4","last_reported":1767702315,"current_range_meters":3600,"station_id":"ce4bhip2rcd13ifvqft0","pricing_plan_id":"cebpf4jnsgd1na2vs0mg"},{"bike_id":"e7cf03a5-1f5f-4868-8ad1-f5e215d0106a","system_id":"levelo_inurba_marseille","lat":43.284815,"lon":5.385511,"is_reserved":false,"is_disabled":true,"rental_uris":{"android":"levelo://app?vid=e7cf03a5-1f5f-4868-8ad1-f5e215d0106a","ios":"levelo://app?vid=e7cf03a5-1f5f-4868-8ad1-f5e215d0106a"},"vehicle_type_id":"4","last_reported":1767702315,"current_range_meters":3600,"station_id":"ce4bh8p2rcd13ifvqeb0","pricing_plan_id":"cebpf4jnsgd1na2vs0mg"},{"bike_id":"ab879403-7aaa-4924-8e9e-09193a082159","system_id":"levelo_inurba_marseille","lat":43.28479,"lon":5.48408,"is_reserved":false,"is_disabled":false,"rental_uris":{"android":"levelo://app?vid=ab879403-7aaa-4924-8e9e-09193a082159","ios":"levelo://app?vid=ab879403-7aaa-4924-8e9e-09193a082159"},"vehicle_type_id":"4","last_reported":1767702315,"current_range_meters":3600,"station_id":"","pricing_plan_id":"cebpf4jnsgd1na2vs0mg"},{"bike_id":"3f4936a1-51a0-4cc0-905d-15676dda0b53","system_id":"levelo_inurba_marseille","lat":43.28856,"lon":5.42524,"is_reserved":false,"is_disabled":false,"rental_uris":{"android":"levelo://app?vid=3f4936a1-51a0-4cc0-905d-15676dda0b53","ios":"levelo://app?vid=3f4936a1-51a0-4cc0-905d-15676dda0b53"},"vehicle_type_id":"4","last_reported":1767702315,"current_range_meters":4000,"station_id":"st_d3b462108ojc7389ooeg","pricing_plan_id":"cebpf4jnsgd1na2vs0mg"},{"bike_id":"ed6b2dd3-9819-4f1b-94df-a7a8812750ca","system_id":"levelo_inurba_marseille","lat":43.24167,"lon":5.39707,"is_reserved":false,"is_disabled":false,"rental_uris":{"android":"levelo://app?vid=ed6b2dd3-9819-4f1b-94df-a7a8812750ca","ios":"levelo://app?vid=ed6b2dd3-9819-4f1b-94df-a7a8812750ca"},"vehicle_type_id":"4","last_reported":1767702315,"current_range_meters":4000,"station_id":"ce4bhn12rcd13ifvqgpg","pricing_plan_id":"cebpf4jnsgd1na2vs0mg"},{"bike_id":"2299f6f8-489b-427e-9484-81efc5a9abcb","system_id":"levelo_inurba_marseille","lat":43.23155,"lon":5.43694,"is_reserved":false,"is_disabled":false,"rental_uris":{"android":"levelo://app?vid=2299f6f8-489b-427e-9484-81efc5a9abcb","ios":"levelo://app?vid=2299f6f8-489b-427e-9484-81efc5a9abcb"},"vehicle_type_id":"4","last_reported":1767702315,"current_range_meters":4000,"station_id":"ce4bhmp2rcd13ifvqgog","pricing_plan_id":"cebpf4jnsgd1na2vs0mg"},{"bike_id":"1faa2c1c-623d-4c7b-b6d0-30570519c684","system_id":"levelo_inurba_marseille","lat":43.30532,"lon":5.36706,"is_reserved":false,"is_disabled":false,"rental_uris":{"android":"levelo://app?vid=1faa2c1c-623d-4c7b-b6d0-30570519c684","ios":"levelo://app?vid=1faa2c1c-623d-4c7b-b6d0-30570519c684"},"vehicle_type_id":"4","last_reported":1767702315,"current_range_meters":4000,"station_id":"ce4bgrp2rcd13ifvqc9g","pricing_plan_id":"cebpf4jnsgd1na2vs0mg"},{"bike_id":"a9d496c8-5506-4b4f-a998-1de06b457e15","system_id":"levelo_inurba_marseille","lat":43.31335,"lon":5.36745,"is_reserved":false,"is_disabled":false,"rental_uris":{"android":"levelo://app?vid=a9d496c8-5506-4b4f-a998-1de06b457e15","ios":"levelo://app?vid=a9d496c8-5506-4b4f-a998-1de06b457e15"},"vehicle_type_id":"4","last_reported":1767702315,"current_range_meters":4000,"station_id":"ce4bgr92rcd13ifvqc6g","pricing_plan_id":"cebpf4jnsgd1na2vs0mg"},{"bike_id":"f26ff975-07a0-4c80-ba97-925c8b28de6d","system_id":"levelo_inurba_marseille","lat":43.25931,"lon":5.40904,"is_reserved":false,"is_disabled":true,"rental_uris":{"android":"levelo://app?vid=f26ff975-07a0-4c80-ba97-925c8b28de6d","ios":"levelo://app?vid=f26ff975-07a0-4c80-ba97-925c8b28de6d"},"vehicle_type_id":"4","last_reported":1767702315,"current_range_meters":4000,"station_id":"ce4bhm92rcd13ifvqglg","pricing_plan_id":"cebpf4jnsgd1na2vs0mg"},{"bike_id":"269faeda-f958-4c96-a603-702591889c06","system_id":"levelo_inurba_marseille","lat":43.270658,"lon":5.422826,"is_reserved":false,"is_disabled":false,"rental_uris":{"android":"levelo://app?vid=269faeda-f958-4c96-a603-702591889c06","ios":"levelo://app?vid=269faeda-f958-4c96-a603-702591889c06"},"vehicle_type_id":"4","last_reported":1767702315,"current_range_meters":4000,"station_id":"ce4bhk92rcd13ifvqgb0","pricing_plan_id":"cebpf4jnsgd1na2vs0mg"},{"bike_id":"438148d1-4441-4c2a-9fb4-0da67b1d1c82","system_id":"levelo_inurba_marseille","lat":43.299071,"lon":5.381458,"is_reserved":false,"is_disabled":false,"rental_uris":{"android":"levelo://app?vid=438148d1-4441-4c2a-9fb4-0da67b1d1c82","ios":"levelo://app?vid=438148d1-4441-4c2a-9fb4-0da67b1d1c82"},"vehicle_type_id":"4","last_reported":1767702315,"current_range_meters":4000,"station_id":"ce4bgj12rcd13ifvqbc0","pricing_plan_id":"cebpf4jnsgd1na2vs0mg"},{"bike_id":"4b0eb6bf-8d2a-46a3-875c-0677ddbf0536","system_id":"levelo_inurba_marseille","lat":43.2257,"lon":5.4163,"is_reserved":false,"is_disabled":false,"rental_uris":{"android":"levelo://app?vid=4b0eb6bf-8d2a-46a3-875c-0677ddbf0536","ios":"levelo://app?vid=4b0eb6bf-8d2a-46a3-875c-0677ddbf0536"},"vehicle_type_id":"4","last_reported":1767702315,"current_range_meters":4000,"station_id":"st_d2o4gvlbi1j2169b742g","pricing_plan_id":"cebpf4jnsgd1na2vs0mg"},{"bike_id":"445c0dfb-3931-4cf1-b184-a3eca62d01a2","system_id":"levelo_inurba_marseille","lat":43.29624,"lon":5.37739,"is_reserved":false,"is_disabled":false,"rental_uris":{"android":"levelo://app?vid=445c0dfb-3931-4cf1-b184-a3eca62d01a2","ios":"levelo://app?vid=445c0dfb-3931-4cf1-b184-a3eca62d01a2"},"vehicle_type_id":"4","last_reported":1767702315,"current_range_meters":4400,"station_id":"ce4bgi92rcd13ifvqb90","pricing_plan_id":"cebpf4jnsgd1na2vs0mg"},{"bike_id":"4475b542-ba01-401d-a805-cfef4e4f235c","system_id":"levelo_inurba_marseille","lat":43.29612,"lon":5.3775,"is_reserved":false,"is_disabled":false,"rental_uris":{"android":"levelo://app?vid=4475b542-ba01-401d-a805-cfef4e4f235c","ios":"levelo://app?vid=4475b542-ba01-401d-a805-cfef4e4f235c"},"vehicle_type_id":"4","last_reported":1767702315,"current_range_meters":4400,"station_id":"ce4bgi92rcd13ifvqb90","pricing_plan_id":"cebpf4jnsgd1na2vs0mg"},{"bike_id":"ab47307a-57ce-410d-8cd9-abde76818236","system_id":"levelo_inurba_marseille","lat":43.30549,"lon":5.36713,"is_reserved":false,"is_disabled":false,"rental_uris":{"android":"levelo://app?vid=ab47307a-57ce-410d-8cd9-abde76818236","ios":"levelo://app?vid=ab47307a-57ce-410d-8cd9-abde76818236"},"vehicle_type_id":"4","last_reported":1767702315,"current_range_meters":4400,"station_id":"ce4bgrp2rcd13ifvqc9g","pricing_plan_id":"cebpf4jnsgd1na2vs0mg"},{"bike_id":"fbac0902-f2a3-4124-8e33-1970e7ae1402","system_id":"levelo_inurba_marseille","lat":43.28999,"lon":5.35615,"is_reserved":false,"is_disabled":false,"rental_uris":{"android":"levelo://app?vid=fbac0902-f2a3-4124-8e33-1970e7ae1402","ios":"levelo://app?vid=fbac0902-f2a3-4124-8e33-1970e7ae1402"},"vehicle_type_id":"4","last_reported":1767702315,"current_range_meters":4400,"station_id":"ce4bhb92rcd13ifvqen0","pricing_plan_id":"cebpf4jnsgd1na2vs0mg"},{"bike_id":"40707d19-1578-4bca-9a90-567e6b76cbbc","system_id":"levelo_inurba_marseille","lat":43.28078,"lon":5.39663,"is_reserved":false,"is_disabled":false,"rental_uris":{"android":"levelo://app?vid=40707d19-1578-4bca-9a90-567e6b76cbbc","ios":"levelo://app?vid=40707d19-1578-4bca-9a90-567e6b76cbbc"},"vehicle_type_id":"4","last_reported":1767702315,"current_range_meters":4400,"station_id":"ce4bho12rcd13ifvqh2g","pricing_plan_id":"cebpf4jnsgd1na2vs0mg"},{"bike_id":"ebb75531-7719-4351-9c5e-1ff8c7592cb4","system_id":"levelo_inurba_marseille","lat":43.29228,"lon":5.36086,"is_reserved":false,"is_disabled":false,"rental_uris":{"android":"levelo://app?vid=ebb75531-7719-4351-9c5e-1ff8c7592cb4","ios":"levelo://app?vid=ebb75531-7719-4351-9c5e-1ff8c7592cb4"},"vehicle_type_id":"4","last_reported":1767702315,"current_range_meters":4400,"station_id":"ce4bhbh2rcd13ifvqeqg","pricing_plan_id":"cebpf4jnsgd1na2vs0mg"},{"bike_id":"d6ccf16b-4ef4-4a54-926d-ad2dbfc1dc2c","system_id":"levelo_inurba_marseille","lat":43.28482,"lon":5.48396,"is_reserved":false,"is_disabled":false,"rental_uris":{"android":"levelo://app?vid=d6ccf16b-4ef4-4a54-926d-ad2dbfc1dc2c","ios":"levelo://app?vid=d6ccf16b-4ef4-4a54-926d-ad2dbfc1dc2c"},"vehicle_type_id":"4","last_reported":1767702315,"current_range_meters":4400,"station_id":"","pricing_plan_id":"cebpf4jnsgd1na2vs0mg"},{"bike_id":"64028f59-dec0-4410-bbe5-cb254a748b4e","system_id":"levelo_inurba_marseille","lat":43.29628,"lon":5.37749,"is_reserved":false,"is_disabled":false,"rental_uris":{"android":"levelo://app?vid=64028f59-dec0-4410-bbe5-cb254a748b4e","ios":"levelo://app?vid=64028f59-dec0-4410-bbe5-cb254a748b4e"},"vehicle_type_id":"4","last_reported":1767702315,"current_range_meters":4400,"station_id":"ce4bgi92rcd13ifvqb90","pricing_plan_id":"cebpf4jnsgd1na2vs0mg"},{"bike_id":"30aaab04-7eaa-48dd-8869-0d6185d01f68","system_id":"levelo_inurba_marseille","lat":43.29966,"lon":5.38484,"is_reserved":false,"is_disabled":false,"rental_uris":{"android":"levelo://app?vid=30aaab04-7eaa-48dd-8869-0d6185d01f68","ios":"levelo://app?vid=30aaab04-7eaa-48dd-8869-0d6185d01f68"},"vehicle_type_id":"4","last_reported":1767702315,"current_range_meters":4400,"station_id":"ce4bgj92rcd13ifvqbd0","pricing_plan_id":"cebpf4jnsgd1na2vs0mg"},{"bike_id":"353e7cf9-caeb-4f66-a929-6ba9791edb43","system_id":"levelo_inurba_marseille","lat":43.32111,"lon":5.36797,"is_reserved":false,"is_disabled":false,"rental_uris":{"android":"levelo://app?vid=353e7cf9-caeb-4f66-a929-6ba9791edb43","ios":"levelo://app?vid=353e7cf9-caeb-4f66-a929-6ba9791edb43"},"vehicle_type_id":"4","last_reported":1767702315,"current_range_meters":4400,"station_id":"ce4bhrh2rcd13ifvqhug","pricing_plan_id":"cebpf4jnsgd1na2vs0mg"},{"bike_id":"0522cccc-9c6f-4899-954d-3b706ed61513","system_id":"levelo_inurba_marseille","lat":43.2718,"lon":5.40998,"is_reserved":false,"is_disabled":false,"rental_uris":{"android":"levelo://app?vid=0522cccc-9c6f-4899-954d-3b706ed61513","ios":"levelo://app?vid=0522cccc-9c6f-4899-954d-3b706ed61513"},"vehicle_type_id":"4","last_reported":1767702315,"current_range_meters":4400,"station_id":"ce4bhl12rcd13ifvqgf0","pricing_plan_id":"cebpf4jnsgd1na2vs0mg"},{"bike_id":"4f878b80-dd0e-49a1-af04-3b2255d509d8","system_id":"levelo_inurba_marseille","lat":43.27041,"lon":5.38317,"is_reserved":false,"is_disabled":false,"rental_uris":{"android":"levelo://app?vid=4f878b80-dd0e-49a1-af04-3b2255d509d8","ios":"levelo://app?vid=4f878b80-dd0e-49a1-af04-3b2255d509d8"},"vehicle_type_id":"4","last_reported":1767702315,"current_range_meters":4800,"station_id":"st_d3n2fo6cfp8s73cte1j0","pricing_plan_id":"cebpf4jnsgd1na2vs0mg"},{"bike_id":"868f69bf-a7b0-45d1-8bcf-5a8d8ec63388","system_id":"levelo_inurba_marseille","lat":43.296142,"lon":5.377252,"is_reserved":false,"is_disabled":false,"rental_uris":{"android":"levelo://app?vid=868f69bf-a7b0-45d1-8bcf-5a8d8ec63388","ios":"levelo://app?vid=868f69bf-a7b0-45d1-8bcf-5a8d8ec63388"},"vehicle_type_id":"4","last_reported":1767702315,"current_range_meters":4800,"station_id":"ce4bgi92rcd13ifvqb90","pricing_plan_id":"cebpf4jnsgd1na2vs0mg"},{"bike_id":"9d382bc4-297f-4c54-a692-f954c87dbd6b","system_id":"levelo_inurba_marseille","lat":43.278069,"lon":5.407337,"is_reserved":false,"is_disabled":false,"rental_uris":{"android":"levelo://app?vid=9d382bc4-297f-4c54-a692-f954c87dbd6b","ios":"levelo://app?vid=9d382bc4-297f-4c54-a692-f954c87dbd6b"},"vehicle_type_id":"4","last_reported":1767702315,"current_range_meters":4800,"station_id":"ce4bhnh2rcd13ifvqgtg","pricing_plan_id":"cebpf4jnsgd1na2vs0mg"},{"bike_id":"238d648a-e098-4396-88de-0b43e9b9c05f","system_id":"levelo_inurba_marseille","lat":43.26677,"lon":5.40228,"is_reserved":false,"is_disabled":false,"rental_uris":{"android":"levelo://app?vid=238d648a-e098-4396-88de-0b43e9b9c05f","ios":"levelo://app?vid=238d648a-e098-4396-88de-0b43e9b9c05f"},"vehicle_type_id":"4","last_reported":1767702315,"current_range_meters":4800,"station_id":"","pricing_plan_id":"cebpf4jnsgd1na2vs0mg"},{"bike_id":"6470287d-a8df-45ef-a85f-2e447246a04d","system_id":"levelo_inurba_marseille","lat":43.31709,"lon":5.39998,"is_reserved":false,"is_disabled":false,"rental_uris":{"android":"levelo://app?vid=6470287d-a8df-45ef-a85f-2e447246a04d","ios":"levelo://app?vid=6470287d-a8df-45ef-a85f-2e447246a04d"},"vehicle_type_id":"4","last_reported":1767702315,"current_range_meters":4800,"station_id":"","pricing_plan_id":"cebpf4jnsgd1na2vs0mg"},{"bike_id":"78e2864f-f734-48a5-a69c-1ba0ebe24f90","system_id":"levelo_inurba_marseille","lat":43.29761,"lon":5.37782,"is_reserved":false,"is_disabled":false,"rental_uris":{"android":"levelo://app?vid=78e2864f-f734-48a5-a69c-1ba0ebe24f90","ios":"levelo://app?vid=78e2864f-f734-48a5-a69c-1ba0ebe24f90"},"vehicle_type_id":"4","last_reported":1767702315,"current_range_meters":4800,"station_id":"","pricing_plan_id":"cebpf4jnsgd1na2vs0mg"},{"bike_id":"c579c5ce-7a15-4dc8-a202-6ec7ea4354cc","system_id":"levelo_inurba_marseille","lat":43.31047,"lon":5.39377,"is_reserved":false,"is_disabled":false,"rental_uris":{"android":"levelo://app?vid=c579c5ce-7a15-4dc8-a202-6ec7ea4354cc","ios":"levelo://app?vid=c579c5ce-7a15-4dc8-a202-6ec7ea4354cc"},"vehicle_type_id":"4","last_reported":1767702315,"current_range_meters":4800,"station_id":"","pricing_plan_id":"cebpf4jnsgd1na2vs0mg"},{"bike_id":"5e592483-c6b7-4361-b018-c1eaad0a5a6c","system_id":"levelo_inurba_marseille","lat":43.27971,"lon":5.38737,"is_reserved":false,"is_disabled":false,"rental_uris":{"android":"levelo://app?vid=5e592483-c6b7-4361-b018-c1eaad0a5a6c","ios":"levelo://app?vid=5e592483-c6b7-4361-b018-c1eaad0a5a6c"},"vehicle_type_id":"4","last_reported":1767702315,"current_range_meters":4800,"station_id":"ce4bhg12rcd13ifvqf80","pricing_plan_id":"cebpf4jnsgd1na2vs0mg"},{"bike_id":"44324209-cab0-40f1-9b14-b6d55fb3fe7b","system_id":"levelo_inurba_marseille","lat":43.30087,"lon":5.39096,"is_reserved":false,"is_disabled":true,"rental_uris":{"android":"levelo://app?vid=44324209-cab0-40f1-9b14-b6d55fb3fe7b","ios":"levelo://app?vid=44324209-cab0-40f1-9b14-b6d55fb3fe7b"},"vehicle_type_id":"4","last_reported":1767702315,"current_range_meters":5600,"station_id":"ce4bh192rcd13ifvqdb0","pricing_plan_id":"cebpf4jnsgd1na2vs0mg"},{"bike_id":"ba5c535d-f3e9-4f48-a5b2-4ca940fa9ceb","system_id":"levelo_inurba_marseille","lat":43.28853,"lon":5.35851,"is_reserved":false,"is_disabled":false,"rental_uris":{"android":"levelo://app?vid=ba5c535d-f3e9-4f48-a5b2-4ca940fa9ceb","ios":"levelo://app?vid=ba5c535d-f3e9-4f48-a5b2-4ca940fa9ceb"},"vehicle_type_id":"4","last_reported":1767702315,"current_range_meters":5600,"station_id":"ce4bhb12rcd13ifvqem0","pricing_plan_id":"cebpf4jnsgd1na2vs0mg"},{"bike_id":"6190ac21-c766-46cf-b588-e4310640e40e","system_id":"levelo_inurba_marseille","lat":43.29645,"lon":5.39067,"is_reserved":false,"is_disabled":false,"rental_uris":{"android":"levelo://app?vid=6190ac21-c766-46cf-b588-e4310640e40e","ios":"levelo://app?vid=6190ac21-c766-46cf-b588-e4310640e40e"},"vehicle_type_id":"4","last_reported":1767702315,"current_range_meters":5600,"station_id":"","pricing_plan_id":"cebpf4jnsgd1na2vs0mg"},{"bike_id":"cc670fc3-bb82-472e-be48-527470981644","system_id":"levelo_inurba_marseille","lat":43.246622,"lon":5.381757,"is_reserved":false,"is_disabled":false,"rental_uris":{"android":"levelo://app?vid=cc670fc3-bb82-472e-be48-527470981644","ios":"levelo://app?vid=cc670fc3-bb82-472e-be48-527470981644"},"vehicle_type_id":"4","last_reported":1767702315,"current_range_meters":5600,"station_id":"ce4bhih2rcd13ifvqfr0","pricing_plan_id":"cebpf4jnsgd1na2vs0mg"},{"bike_id":"5bf18eef-41a3-4eeb-90d3-342b87530897","system_id":"levelo_inurba_marseille","lat":43.310447,"lon":5.371728,"is_reserved":false,"is_disabled":false,"rental_uris":{"android":"levelo://app?vid=5bf18eef-41a3-4eeb-90d3-342b87530897","ios":"levelo://app?vid=5bf18eef-41a3-4eeb-90d3-342b87530897"},"vehicle_type_id":"4","last_reported":1767702315,"current_range_meters":5600,"station_id":"st_d4kl2rp97mjs73e7tdfg","pricing_plan_id":"cebpf4jnsgd1na2vs0mg"},{"bike_id":"a1b0d5c4-760d-430c-982e-582a9cb03d16","system_id":"levelo_inurba_marseille","lat":43.29035,"lon":5.38086,"is_reserved":false,"is_disabled":false,"rental_uris":{"android":"levelo://app?vid=a1b0d5c4-760d-430c-982e-582a9cb03d16","ios":"levelo://app?vid=a1b0d5c4-760d-430c-982e-582a9cb03d16"},"vehicle_type_id":"4","last_reported":1767702315,"current_range_meters":5600,"station_id":"ce4bh4p2rcd13ifvqe1g","pricing_plan_id":"cebpf4jnsgd1na2vs0mg"},{"bike_id":"cd2a84dd-2416-4ab2-bb23-917dca3d06c0","system_id":"levelo_inurba_marseille","lat":43.25341,"lon":5.421639,"is_reserved":false,"is_disabled":false,"rental_uris":{"android":"levelo://app?vid=cd2a84dd-2416-4ab2-bb23-917dca3d06c0","ios":"levelo://app?vid=cd2a84dd-2416-4ab2-bb23-917dca3d06c0"},"vehicle_type_id":"4","last_reported":1767702315,"current_range_meters":5600,"station_id":"st_d2m65c5bi1j21697t3ng","pricing_plan_id":"cebpf4jnsgd1na2vs0mg"},{"bike_id":"9cb6f7b6-d231-4e4c-b752-c02687b48f97","system_id":"levelo_inurba_marseille","lat":43.28866,"lon":5.42521,"is_reserved":false,"is_disabled":false,"rental_uris":{"android":"levelo://app?vid=9cb6f7b6-d231-4e4c-b752-c02687b48f97","ios":"levelo://app?vid=9cb6f7b6-d231-4e4c-b752-c02687b48f97"},"vehicle_type_id":"4","last_reported":1767702315,"current_range_meters":5600,"station_id":"st_d3b462108ojc7389ooeg","pricing_plan_id":"cebpf4jnsgd1na2vs0mg"},{"bike_id":"69304a06-c31d-4f90-bee5-5152895d3519","system_id":"levelo_inurba_marseille","lat":43.2718,"lon":5.40994,"is_reserved":false,"is_disabled":true,"rental_uris":{"android":"levelo://app?vid=69304a06-c31d-4f90-bee5-5152895d3519","ios":"levelo://app?vid=69304a06-c31d-4f90-bee5-5152895d3519"},"vehicle_type_id":"4","last_reported":1767702315,"current_range_meters":5600,"station_id":"ce4bhl12rcd13ifvqgf0","pricing_plan_id":"cebpf4jnsgd1na2vs0mg"},{"bike_id":"ab9c8640-540b-416a-a58e-06d1055a4d4b","system_id":"levelo_inurba_marseille","lat":43.30557,"lon":5.36671,"is_reserved":false,"is_disabled":false,"rental_uris":{"android":"levelo://app?vid=ab9c8640-540b-416a-a58e-06d1055a4d4b","ios":"levelo://app?vid=ab9c8640-540b-416a-a58e-06d1055a4d4b"},"vehicle_type_id":"4","last_reported":1767702315,"current_range_meters":5600,"station_id":"ce4bgrp2rcd13ifvqc9g","pricing_plan_id":"cebpf4jnsgd1na2vs0mg"},{"bike_id":"91f215fe-a0b7-4449-aae0-f5ea9a48d5cc","system_id":"levelo_inurba_marseille","lat":43.2509,"lon":5.39513,"is_reserved":false,"is_disabled":false,"rental_uris":{"android":"levelo://app?vid=91f215fe-a0b7-4449-aae0-f5ea9a48d5cc","ios":"levelo://app?vid=91f215fe-a0b7-4449-aae0-f5ea9a48d5cc"},"vehicle_type_id":"4","last_reported":1767702315,"current_range_meters":5600,"station_id":"ce4bhm12rcd13ifvqgkg","pricing_plan_id":"cebpf4jnsgd1na2vs0mg"},{"bike_id":"6c6c2beb-34e7-41f4-806d-300db39ef2db","system_id":"levelo_inurba_marseille","lat":43.24394,"lon":5.37062,"is_reserved":false,"is_disabled":false,"rental_uris":{"android":"levelo://app?vid=6c6c2beb-34e7-41f4-806d-300db39ef2db","ios":"levelo://app?vid=6c6c2beb-34e7-41f4-806d-300db39ef2db"},"vehicle_type_id":"4","last_reported":1767702315,"current_range_meters":5600,"station_id":"ce4bhhh2rcd13ifvqfk0","pricing_plan_id":"cebpf4jnsgd1na2vs0mg"},{"bike_id":"da35753b-543a-44dc-8c12-dc7288bb953e","system_id":"levelo_inurba_marseille","lat":43.31299,"lon":5.3674,"is_reserved":false,"is_disabled":false,"rental_uris":{"android":"levelo://app?vid=da35753b-543a-44dc-8c12-dc7288bb953e","ios":"levelo://app?vid=da35753b-543a-44dc-8c12-dc7288bb953e"},"vehicle_type_id":"4","last_reported":1767702315,"current_range_meters":5600,"station_id":"","pricing_plan_id":"cebpf4jnsgd1na2vs0mg"},{"bike_id":"3c8cd6af-4397-4a6a-a9f4-c097068fb96d","system_id":"levelo_inurba_marseille","lat":43.26297,"lon":5.39813,"is_reserved":false,"is_disabled":false,"rental_uris":{"android":"levelo://app?vid=3c8cd6af-4397-4a6a-a9f4-c097068fb96d","ios":"levelo://app?vid=3c8cd6af-4397-4a6a-a9f4-c097068fb96d"},"vehicle_type_id":"4","last_reported":1767702315,"current_range_meters":5600,"station_id":"","pricing_plan_id":"cebpf4jnsgd1na2vs0mg"},{"bike_id":"524a9ad4-beef-4328-987a-ed7969e656d2","system_id":"levelo_inurba_marseille","lat":43.25921,"lon":5.40907,"is_reserved":false,"is_disabled":false,"rental_uris":{"android":"levelo://app?vid=524a9ad4-beef-4328-987a-ed7969e656d2","ios":"levelo://app?vid=524a9ad4-beef-4328-987a-ed7969e656d2"},"vehicle_type_id":"4","last_reported":1767702315,"current_range_meters":5600,"station_id":"ce4bhm92rcd13ifvqglg","pricing_plan_id":"cebpf4jnsgd1na2vs0mg"},{"bike_id":"58432d52-3928-4d1c-ab95-fb6c11ada18b","system_id":"levelo_inurba_marseille","lat":43.31161,"lon":5.37773,"is_reserved":false,"is_disabled":false,"rental_uris":{"android":"levelo://app?vid=58432d52-3928-4d1c-ab95-fb6c11ada18b","ios":"levelo://app?vid=58432d52-3928-4d1c-ab95-fb6c11ada18b"},"vehicle_type_id":"4","last_reported":1767702315,"current_range_meters":5600,"station_id":"","pricing_plan_id":"cebpf4jnsgd1na2vs0mg"},{"bike_id":"79cfc786-e797-4ba2-87bb-76af39e40fb3","system_id":"levelo_inurba_marseille","lat":43.28931,"lon":5.36636,"is_reserved":false,"is_disabled":false,"rental_uris":{"android":"levelo://app?vid=79cfc786-e797-4ba2-87bb-76af39e40fb3","ios":"levelo://app?vid=79cfc786-e797-4ba2-87bb-76af39e40fb3"},"vehicle_type_id":"4","last_reported":1767702315,"current_range_meters":6000,"station_id":"ce4bhap2rcd13ifvqek0","pricing_plan_id":"cebpf4jnsgd1na2vs0mg"},{"bike_id":"1d1aa57c-101c-4cf2-9f41-6e829b5c2500","system_id":"levelo_inurba_marseille","lat":43.30298,"lon":5.36893,"is_reserved":false,"is_disabled":false,"rental_uris":{"android":"levelo://app?vid=1d1aa57c-101c-4cf2-9f41-6e829b5c2500","ios":"levelo://app?vid=1d1aa57c-101c-4cf2-9f41-6e829b5c2500"},"vehicle_type_id":"4","last_reported":1767702315,"current_range_meters":6000,"station_id":"ce4bgqh2rcd13ifvqc5g","pricing_plan_id":"cebpf4jnsgd1na2vs0mg"},{"bike_id":"44e7a6b0-32f7-43dc-9ef2-3f4cc856431d","system_id":"levelo_inurba_marseille","lat":43.23961,"lon":5.36639,"is_reserved":false,"is_disabled":false,"rental_uris":{"android":"levelo://app?vid=44e7a6b0-32f7-43dc-9ef2-3f4cc856431d","ios":"levelo://app?vid=44e7a6b0-32f7-43dc-9ef2-3f4cc856431d"},"vehicle_type_id":"4","last_reported":1767702315,"current_range_meters":6000,"station_id":"ce4bhi12rcd13ifvqfp0","pricing_plan_id":"cebpf4jnsgd1na2vs0mg"},{"bike_id":"df7337f7-a443-485f-946c-e99819254d4e","system_id":"levelo_inurba_marseille","lat":43.31055,"lon":5.4013,"is_reserved":false,"is_disabled":false,"rental_uris":{"android":"levelo://app?vid=df7337f7-a443-485f-946c-e99819254d4e","ios":"levelo://app?vid=df7337f7-a443-485f-946c-e99819254d4e"},"vehicle_type_id":"4","last_reported":1767702315,"current_range_meters":6000,"station_id":"","pricing_plan_id":"cebpf4jnsgd1na2vs0mg"},{"bike_id":"1af2e362-7fe9-44e8-b51c-b385360caabf","system_id":"levelo_inurba_marseille","lat":43.29263,"lon":5.36847,"is_reserved":false,"is_disabled":false,"rental_uris":{"android":"levelo://app?vid=1af2e362-7fe9-44e8-b51c-b385360caabf","ios":"levelo://app?vid=1af2e362-7fe9-44e8-b51c-b385360caabf"},"vehicle_type_id":"4","last_reported":1767702315,"current_range_meters":6000,"station_id":"ce4bhbp2rcd13ifvqesg","pricing_plan_id":"cebpf4jnsgd1na2vs0mg"},{"bike_id":"6515b4d7-173d-409b-a153-5f74bb9ea39b","system_id":"levelo_inurba_marseille","lat":43.24074,"lon":5.37766,"is_reserved":false,"is_disabled":false,"rental_uris":{"android":"levelo://app?vid=6515b4d7-173d-409b-a153-5f74bb9ea39b","ios":"levelo://app?vid=6515b4d7-173d-409b-a153-5f74bb9ea39b"},"vehicle_type_id":"4","last_reported":1767702315,"current_range_meters":6000,"station_id":"ce4bhnp2rcd13ifvqgvg","pricing_plan_id":"cebpf4jnsgd1na2vs0mg"},{"bike_id":"70daa543-1773-4fc8-a39b-865bf2d12adc","system_id":"levelo_inurba_marseille","lat":43.29451,"lon":5.37934,"is_reserved":false,"is_disabled":true,"rental_uris":{"android":"levelo://app?vid=70daa543-1773-4fc8-a39b-865bf2d12adc","ios":"levelo://app?vid=70daa543-1773-4fc8-a39b-865bf2d12adc"},"vehicle_type_id":"4","last_reported":1767702315,"current_range_meters":6000,"station_id":"","pricing_plan_id":"cebpf4jnsgd1na2vs0mg"},{"bike_id":"c9b87726-8bf1-4969-9d96-4aed66906683","system_id":"levelo_inurba_marseille","lat":43.25518,"lon":5.376587,"is_reserved":false,"is_disabled":false,"rental_uris":{"android":"levelo://app?vid=c9b87726-8bf1-4969-9d96-4aed66906683","ios":"levelo://app?vid=c9b87726-8bf1-4969-9d96-4aed66906683"},"vehicle_type_id":"4","last_reported":1767702315,"current_range_meters":6000,"station_id":"ce4bhh12rcd13ifvqff0","pricing_plan_id":"cebpf4jnsgd1na2vs0mg"},{"bike_id":"802fe12d-f14a-45a9-ab39-7a7c51870c15","system_id":"levelo_inurba_marseille","lat":43.3169,"lon":5.3986,"is_reserved":false,"is_disabled":false,"rental_uris":{"android":"levelo://app?vid=802fe12d-f14a-45a9-ab39-7a7c51870c15","ios":"levelo://app?vid=802fe12d-f14a-45a9-ab39-7a7c51870c15"},"vehicle_type_id":"4","last_reported":1767702315,"current_range_meters":6000,"station_id":"","pricing_plan_id":"cebpf4jnsgd1na2vs0mg"},{"bike_id":"1d0c1f6a-afc9-438e-b122-35ddf4fabdc4","system_id":"levelo_inurba_marseille","lat":43.2962,"lon":5.3775,"is_reserved":false,"is_disabled":false,"rental_uris":{"android":"levelo://app?vid=1d0c1f6a-afc9-438e-b122-35ddf4fabdc4","ios":"levelo://app?vid=1d0c1f6a-afc9-438e-b122-35ddf4fabdc4"},"vehicle_type_id":"4","last_reported":1767702315,"current_range_meters":6000,"station_id":"ce4bgi92rcd13ifvqb90","pricing_plan_id":"cebpf4jnsgd1na2vs0mg"},{"bike_id":"8f26f480-a0fb-4a52-b078-593bd5c29a1c","system_id":"levelo_inurba_marseille","lat":43.29486,"lon":5.39049,"is_reserved":false,"is_disabled":false,"rental_uris":{"android":"levelo://app?vid=8f26f480-a0fb-4a52-b078-593bd5c29a1c","ios":"levelo://app?vid=8f26f480-a0fb-4a52-b078-593bd5c29a1c"},"vehicle_type_id":"4","last_reported":1767702315,"current_range_meters":6000,"station_id":"ce4bh3p2rcd13ifvqdp0","pricing_plan_id":"cebpf4jnsgd1na2vs0mg"},{"bike_id":"da31b777-8dd4-4252-95a4-f633d3930cdf","system_id":"levelo_inurba_marseille","lat":43.28001,"lon":5.41662,"is_reserved":false,"is_disabled":false,"rental_uris":{"android":"levelo://app?vid=da31b777-8dd4-4252-95a4-f633d3930cdf","ios":"levelo://app?vid=da31b777-8dd4-4252-95a4-f633d3930cdf"},"vehicle_type_id":"4","last_reported":1767702315,"current_range_meters":6000,"station_id":"ce4bho12rcd13ifvqh1g","pricing_plan_id":"cebpf4jnsgd1na2vs0mg"},{"bike_id":"64cf0efb-83a2-48da-adf6-516927c39a91","system_id":"levelo_inurba_marseille","lat":43.23143,"lon":5.43722,"is_reserved":false,"is_disabled":false,"rental_uris":{"android":"levelo://app?vid=64cf0efb-83a2-48da-adf6-516927c39a91","ios":"levelo://app?vid=64cf0efb-83a2-48da-adf6-516927c39a91"},"vehicle_type_id":"4","last_reported":1767702315,"current_range_meters":6000,"station_id":"ce4bhmp2rcd13ifvqgog","pricing_plan_id":"cebpf4jnsgd1na2vs0mg"},{"bike_id":"82f0f70b-0663-44cb-9854-d607e821e4a5","system_id":"levelo_inurba_marseille","lat":43.292602,"lon":5.409076,"is_reserved":false,"is_disabled":false,"rental_uris":{"android":"levelo://app?vid=82f0f70b-0663-44cb-9854-d607e821e4a5","ios":"levelo://app?vid=82f0f70b-0663-44cb-9854-d607e821e4a5"},"vehicle_type_id":"4","last_reported":1767702315,"current_range_meters":6000,"station_id":"ce4bh192rcd13ifvqdc0","pricing_plan_id":"cebpf4jnsgd1na2vs0mg"},{"bike_id":"9e75e4df-3863-4065-b371-91603a64bae0","system_id":"levelo_inurba_marseille","lat":43.23151,"lon":5.43701,"is_reserved":false,"is_disabled":false,"rental_uris":{"android":"levelo://app?vid=9e75e4df-3863-4065-b371-91603a64bae0","ios":"levelo://app?vid=9e75e4df-3863-4065-b371-91603a64bae0"},"vehicle_type_id":"4","last_reported":1767702315,"current_range_meters":6000,"station_id":"ce4bhmp2rcd13ifvqgog","pricing_plan_id":"cebpf4jnsgd1na2vs0mg"},{"bike_id":"38fe8d74-8399-43ad-b9ef-2d5a01f29535","system_id":"levelo_inurba_marseille","lat":43.25088,"lon":5.39527,"is_reserved":false,"is_disabled":false,"rental_uris":{"android":"levelo://app?vid=38fe8d74-8399-43ad-b9ef-2d5a01f29535","ios":"levelo://app?vid=38fe8d74-8399-43ad-b9ef-2d5a01f29535"},"vehicle_type_id":"4","last_reported":1767702315,"current_range_meters":6000,"station_id":"ce4bhm12rcd13ifvqgkg","pricing_plan_id":"cebpf4jnsgd1na2vs0mg"},{"bike_id":"b293846c-6512-4ab5-bcc0-365d91f63879","system_id":"levelo_inurba_marseille","lat":43.23127,"lon":5.43675,"is_reserved":false,"is_disabled":false,"rental_uris":{"android":"levelo://app?vid=b293846c-6512-4ab5-bcc0-365d91f63879","ios":"levelo://app?vid=b293846c-6512-4ab5-bcc0-365d91f63879"},"vehicle_type_id":"4","last_reported":1767702315,"current_range_meters":6000,"station_id":"ce4bhmp2rcd13ifvqgog","pricing_plan_id":"cebpf4jnsgd1na2vs0mg"},{"bike_id":"2c2b33f7-80d5-4af6-8066-8ea96f1838f0","system_id":"levelo_inurba_marseille","lat":43.29172,"lon":5.37919,"is_reserved":false,"is_disabled":false,"rental_uris":{"android":"levelo://app?vid=2c2b33f7-80d5-4af6-8066-8ea96f1838f0","ios":"levelo://app?vid=2c2b33f7-80d5-4af6-8066-8ea96f1838f0"},"vehicle_type_id":"4","last_reported":1767702315,"current_range_meters":6000,"station_id":"","pricing_plan_id":"cebpf4jnsgd1na2vs0mg"},{"bike_id":"083b93d2-b3c9-427c-b766-b080ed5faf54","system_id":"levelo_inurba_marseille","lat":43.291914,"lon":5.357886,"is_reserved":false,"is_disabled":false,"rental_uris":{"android":"levelo://app?vid=083b93d2-b3c9-427c-b766-b080ed5faf54","ios":"levelo://app?vid=083b93d2-b3c9-427c-b766-b080ed5faf54"},"vehicle_type_id":"4","last_reported":1767702315,"current_range_meters":6000,"station_id":"ce4bhb12rcd13ifvqel0","pricing_plan_id":"cebpf4jnsgd1na2vs0mg"},{"bike_id":"b9f7b50d-4eff-4b3c-b608-f2267a320ec1","system_id":"levelo_inurba_marseille","lat":43.28848,"lon":5.42523,"is_reserved":false,"is_disabled":false,"rental_uris":{"android":"levelo://app?vid=b9f7b50d-4eff-4b3c-b608-f2267a320ec1","ios":"levelo://app?vid=b9f7b50d-4eff-4b3c-b608-f2267a320ec1"},"vehicle_type_id":"4","last_reported":1767702315,"current_range_meters":6000,"station_id":"st_d3b462108ojc7389ooeg","pricing_plan_id":"cebpf4jnsgd1na2vs0mg"},{"bike_id":"6ab5dc12-676b-4308-ad4a-bc536aac0b39","system_id":"levelo_inurba_marseille","lat":43.31274,"lon":5.374,"is_reserved":false,"is_disabled":false,"rental_uris":{"android":"levelo://app?vid=6ab5dc12-676b-4308-ad4a-bc536aac0b39","ios":"levelo://app?vid=6ab5dc12-676b-4308-ad4a-bc536aac0b39"},"vehicle_type_id":"4","last_reported":1767702315,"current_range_meters":6400,"station_id":"","pricing_plan_id":"cebpf4jnsgd1na2vs0mg"},{"bike_id":"84b0369a-a1e6-4d66-b798-d784f515d2d0","system_id":"levelo_inurba_marseille","lat":43.29917,"lon":5.38154,"is_reserved":false,"is_disabled":false,"rental_uris":{"android":"levelo://app?vid=84b0369a-a1e6-4d66-b798-d784f515d2d0","ios":"levelo://app?vid=84b0369a-a1e6-4d66-b798-d784f515d2d0"},"vehicle_type_id":"4","last_reported":1767702315,"current_range_meters":6400,"station_id":"ce4bgj12rcd13ifvqbc0","pricing_plan_id":"cebpf4jnsgd1na2vs0mg"},{"bike_id":"662d6bf2-cebb-4666-972d-1dec2318e01b","system_id":"levelo_inurba_marseille","lat":43.271828,"lon":5.409933,"is_reserved":false,"is_disabled":false,"rental_uris":{"android":"levelo://app?vid=662d6bf2-cebb-4666-972d-1dec2318e01b","ios":"levelo://app?vid=662d6bf2-cebb-4666-972d-1dec2318e01b"},"vehicle_type_id":"4","last_reported":1767702315,"current_range_meters":6400,"station_id":"ce4bhl12rcd13ifvqgf0","pricing_plan_id":"cebpf4jnsgd1na2vs0mg"},{"bike_id":"9f9b4746-71c5-448b-9590-8fd8371c1599","system_id":"levelo_inurba_marseille","lat":43.22551,"lon":5.41635,"is_reserved":false,"is_disabled":false,"rental_uris":{"android":"levelo://app?vid=9f9b4746-71c5-448b-9590-8fd8371c1599","ios":"levelo://app?vid=9f9b4746-71c5-448b-9590-8fd8371c1599"},"vehicle_type_id":"4","last_reported":1767702315,"current_range_meters":6400,"station_id":"st_d2o4gvlbi1j2169b742g","pricing_plan_id":"cebpf4jnsgd1na2vs0mg"},{"bike_id":"d25c1254-5ba5-4cef-9983-c90b3ec9b80a","system_id":"levelo_inurba_marseille","lat":43.30475,"lon":5.4106,"is_reserved":false,"is_disabled":false,"rental_uris":{"android":"levelo://app?vid=d25c1254-5ba5-4cef-9983-c90b3ec9b80a","ios":"levelo://app?vid=d25c1254-5ba5-4cef-9983-c90b3ec9b80a"},"vehicle_type_id":"4","last_reported":1767702315,"current_range_meters":6400,"station_id":"","pricing_plan_id":"cebpf4jnsgd1na2vs0mg"},{"bike_id":"0f293502-121a-4187-becd-00c74b272d97","system_id":"levelo_inurba_marseille","lat":43.21181,"lon":5.35082,"is_reserved":false,"is_disabled":false,"rental_uris":{"android":"levelo://app?vid=0f293502-121a-4187-becd-00c74b272d97","ios":"levelo://app?vid=0f293502-121a-4187-becd-00c74b272d97"},"vehicle_type_id":"4","last_reported":1767702315,"current_range_meters":6400,"station_id":"st_cvj6sg6p6f1abm77japg","pricing_plan_id":"cebpf4jnsgd1na2vs0mg"},{"bike_id":"78399c66-07bf-4f4a-b2dc-de9b40e72c5f","system_id":"levelo_inurba_marseille","lat":43.23952,"lon":5.36642,"is_reserved":false,"is_disabled":false,"rental_uris":{"android":"levelo://app?vid=78399c66-07bf-4f4a-b2dc-de9b40e72c5f","ios":"levelo://app?vid=78399c66-07bf-4f4a-b2dc-de9b40e72c5f"},"vehicle_type_id":"4","last_reported":1767702315,"current_range_meters":6400,"station_id":"ce4bhi12rcd13ifvqfp0","pricing_plan_id":"cebpf4jnsgd1na2vs0mg"},{"bike_id":"eda26c9e-1de5-46d8-8133-e4e92339d527","system_id":"levelo_inurba_marseille","lat":43.24396,"lon":5.37066,"is_reserved":false,"is_disabled":false,"rental_uris":{"android":"levelo://app?vid=eda26c9e-1de5-46d8-8133-e4e92339d527","ios":"levelo://app?vid=eda26c9e-1de5-46d8-8133-e4e92339d527"},"vehicle_type_id":"4","last_reported":1767702315,"current_range_meters":6400,"station_id":"ce4bhhh2rcd13ifvqfk0","pricing_plan_id":"cebpf4jnsgd1na2vs0mg"},{"bike_id":"91f03c1f-ca17-4724-805d-e3ea13945ed3","system_id":"levelo_inurba_marseille","lat":43.28475,"lon":5.384155,"is_reserved":false,"is_disabled":false,"rental_uris":{"android":"levelo://app?vid=91f03c1f-ca17-4724-805d-e3ea13945ed3","ios":"levelo://app?vid=91f03c1f-ca17-4724-805d-e3ea13945ed3"},"vehicle_type_id":"4","last_reported":1767702315,"current_range_meters":6400,"station_id":"ce4bh5p2rcd13ifvqe4g","pricing_plan_id":"cebpf4jnsgd1na2vs0mg"},{"bike_id":"efeb4d43-411b-4a48-8a5d-24f1c2a32317","system_id":"levelo_inurba_marseille","lat":43.26686,"lon":5.38271,"is_reserved":false,"is_disabled":true,"rental_uris":{"android":"levelo://app?vid=efeb4d43-411b-4a48-8a5d-24f1c2a32317","ios":"levelo://app?vid=efeb4d43-411b-4a48-8a5d-24f1c2a32317"},"vehicle_type_id":"4","last_reported":1767702315,"current_range_meters":6400,"station_id":"ce4bhg92rcd13ifvqf90","pricing_plan_id":"cebpf4jnsgd1na2vs0mg"},{"bike_id":"ab9868fa-bd50-4843-b9cf-8d256fc0aa24","system_id":"levelo_inurba_marseille","lat":43.25931,"lon":5.40905,"is_reserved":false,"is_disabled":false,"rental_uris":{"android":"levelo://app?vid=ab9868fa-bd50-4843-b9cf-8d256fc0aa24","ios":"levelo://app?vid=ab9868fa-bd50-4843-b9cf-8d256fc0aa24"},"vehicle_type_id":"4","last_reported":1767702315,"current_range_meters":6400,"station_id":"ce4bhm92rcd13ifvqglg","pricing_plan_id":"cebpf4jnsgd1na2vs0mg"},{"bike_id":"41f54ea5-6f88-45f1-a241-b51bcaf483a2","system_id":"levelo_inurba_marseille","lat":43.22931,"lon":5.35386,"is_reserved":false,"is_disabled":false,"rental_uris":{"android":"levelo://app?vid=41f54ea5-6f88-45f1-a241-b51bcaf483a2","ios":"levelo://app?vid=41f54ea5-6f88-45f1-a241-b51bcaf483a2"},"vehicle_type_id":"4","last_reported":1767702315,"current_range_meters":6400,"station_id":"cpo3532slgdg3j2ikp40","pricing_plan_id":"cebpf4jnsgd1na2vs0mg"},{"bike_id":"40ef5c73-5486-43cb-8929-d818e25dffa6","system_id":"levelo_inurba_marseille","lat":43.32652,"lon":5.41944,"is_reserved":false,"is_disabled":false,"rental_uris":{"android":"levelo://app?vid=40ef5c73-5486-43cb-8929-d818e25dffa6","ios":"levelo://app?vid=40ef5c73-5486-43cb-8929-d818e25dffa6"},"vehicle_type_id":"4","last_reported":1767702315,"current_range_meters":6400,"station_id":"","pricing_plan_id":"cebpf4jnsgd1na2vs0mg"},{"bike_id":"a56d0349-7b3d-4364-8207-77bec6eb100d","system_id":"levelo_inurba_marseille","lat":43.31498,"lon":5.37282,"is_reserved":false,"is_disabled":false,"rental_uris":{"android":"levelo://app?vid=a56d0349-7b3d-4364-8207-77bec6eb100d","ios":"levelo://app?vid=a56d0349-7b3d-4364-8207-77bec6eb100d"},"vehicle_type_id":"4","last_reported":1767702315,"current_range_meters":6400,"station_id":"ce4bgt12rcd13ifvqcd0","pricing_plan_id":"cebpf4jnsgd1na2vs0mg"},{"bike_id":"671729d8-1472-46e6-9234-dc84c6097a13","system_id":"levelo_inurba_marseille","lat":43.24013,"lon":5.40729,"is_reserved":false,"is_disabled":false,"rental_uris":{"android":"levelo://app?vid=671729d8-1472-46e6-9234-dc84c6097a13","ios":"levelo://app?vid=671729d8-1472-46e6-9234-dc84c6097a13"},"vehicle_type_id":"4","last_reported":1767702315,"current_range_meters":6400,"station_id":"","pricing_plan_id":"cebpf4jnsgd1na2vs0mg"},{"bike_id":"bcba726c-86cc-4920-9b66-bf7117212d7c","system_id":"levelo_inurba_marseille","lat":43.29762,"lon":5.37782,"is_reserved":false,"is_disabled":false,"rental_uris":{"android":"levelo://app?vid=bcba726c-86cc-4920-9b66-bf7117212d7c","ios":"levelo://app?vid=bcba726c-86cc-4920-9b66-bf7117212d7c"},"vehicle_type_id":"4","last_reported":1767702315,"current_range_meters":6400,"station_id":"","pricing_plan_id":"cebpf4jnsgd1na2vs0mg"},{"bike_id":"341fa175-b404-4e99-a30d-b02f1e1adee4","system_id":"levelo_inurba_marseille","lat":43.24391,"lon":5.37077,"is_reserved":false,"is_disabled":false,"rental_uris":{"android":"levelo://app?vid=341fa175-b404-4e99-a30d-b02f1e1adee4","ios":"levelo://app?vid=341fa175-b404-4e99-a30d-b02f1e1adee4"},"vehicle_type_id":"4","last_reported":1767702315,"current_range_meters":6400,"station_id":"","pricing_plan_id":"cebpf4jnsgd1na2vs0mg"},{"bike_id":"8f1dcf1e-ec47-4cfd-9ca8-b695074a8473","system_id":"levelo_inurba_marseille","lat":43.239645,"lon":5.366258,"is_reserved":false,"is_disabled":false,"rental_uris":{"android":"levelo://app?vid=8f1dcf1e-ec47-4cfd-9ca8-b695074a8473","ios":"levelo://app?vid=8f1dcf1e-ec47-4cfd-9ca8-b695074a8473"},"vehicle_type_id":"4","last_reported":1767702315,"current_range_meters":6400,"station_id":"ce4bhi12rcd13ifvqfp0","pricing_plan_id":"cebpf4jnsgd1na2vs0mg"},{"bike_id":"77c6e077-c5cf-4e32-a75b-b4333f5b5292","system_id":"levelo_inurba_marseille","lat":43.31051,"lon":5.37169,"is_reserved":false,"is_disabled":false,"rental_uris":{"android":"levelo://app?vid=77c6e077-c5cf-4e32-a75b-b4333f5b5292","ios":"levelo://app?vid=77c6e077-c5cf-4e32-a75b-b4333f5b5292"},"vehicle_type_id":"4","last_reported":1767702315,"current_range_meters":6400,"station_id":"st_d4kl2rp97mjs73e7tdfg","pricing_plan_id":"cebpf4jnsgd1na2vs0mg"},{"bike_id":"b3d46066-d9af-4077-b1da-7d7459dbf7a5","system_id":"levelo_inurba_marseille","lat":43.29697,"lon":5.37909,"is_reserved":false,"is_disabled":false,"rental_uris":{"android":"levelo://app?vid=b3d46066-d9af-4077-b1da-7d7459dbf7a5","ios":"levelo://app?vid=b3d46066-d9af-4077-b1da-7d7459dbf7a5"},"vehicle_type_id":"4","last_reported":1767702315,"current_range_meters":6800,"station_id":"","pricing_plan_id":"cebpf4jnsgd1na2vs0mg"},{"bike_id":"aeaceaee-d425-4cd1-8a1f-fe9063bf8aca","system_id":"levelo_inurba_marseille","lat":43.26307,"lon":5.39855,"is_reserved":false,"is_disabled":false,"rental_uris":{"android":"levelo://app?vid=aeaceaee-d425-4cd1-8a1f-fe9063bf8aca","ios":"levelo://app?vid=aeaceaee-d425-4cd1-8a1f-fe9063bf8aca"},"vehicle_type_id":"4","last_reported":1767702315,"current_range_meters":6800,"station_id":"","pricing_plan_id":"cebpf4jnsgd1na2vs0mg"},{"bike_id":"12c3c7a7-f460-4f98-8ff5-5de83296a8f5","system_id":"levelo_inurba_marseille","lat":43.27827,"lon":5.39232,"is_reserved":false,"is_disabled":false,"rental_uris":{"android":"levelo://app?vid=12c3c7a7-f460-4f98-8ff5-5de83296a8f5","ios":"levelo://app?vid=12c3c7a7-f460-4f98-8ff5-5de83296a8f5"},"vehicle_type_id":"4","last_reported":1767702315,"current_range_meters":6800,"station_id":"ce4bhjp2rcd13ifvqga0","pricing_plan_id":"cebpf4jnsgd1na2vs0mg"},{"bike_id":"5c78052d-8b4f-4e51-8ddb-87be6fb225ca","system_id":"levelo_inurba_marseille","lat":43.2319,"lon":5.35554,"is_reserved":false,"is_disabled":false,"rental_uris":{"android":"levelo://app?vid=5c78052d-8b4f-4e51-8ddb-87be6fb225ca","ios":"levelo://app?vid=5c78052d-8b4f-4e51-8ddb-87be6fb225ca"},"vehicle_type_id":"4","last_reported":1767702315,"current_range_meters":6800,"station_id":"ce4bhu92rcd13ifvqi70","pricing_plan_id":"cebpf4jnsgd1na2vs0mg"},{"bike_id":"438b5b87-2ead-4a56-9315-220edfc8d6d2","system_id":"levelo_inurba_marseille","lat":43.3117,"lon":5.3685,"is_reserved":false,"is_disabled":false,"rental_uris":{"android":"levelo://app?vid=438b5b87-2ead-4a56-9315-220edfc8d6d2","ios":"levelo://app?vid=438b5b87-2ead-4a56-9315-220edfc8d6d2"},"vehicle_type_id":"4","last_reported":1767702315,"current_range_meters":6800,"station_id":"","pricing_plan_id":"cebpf4jnsgd1na2vs0mg"},{"bike_id":"8028e0cc-e765-41ec-b4f3-082e3918dbd5","system_id":"levelo_inurba_marseille","lat":43.27942,"lon":5.41064,"is_reserved":false,"is_disabled":false,"rental_uris":{"android":"levelo://app?vid=8028e0cc-e765-41ec-b4f3-082e3918dbd5","ios":"levelo://app?vid=8028e0cc-e765-41ec-b4f3-082e3918dbd5"},"vehicle_type_id":"4","last_reported":1767702315,"current_range_meters":6800,"station_id":"ce4bhnp2rcd13ifvqh0g","pricing_plan_id":"cebpf4jnsgd1na2vs0mg"},{"bike_id":"073846b3-05ad-4cd1-b323-f1a405b8e200","system_id":"levelo_inurba_marseille","lat":43.273809,"lon":5.362574,"is_reserved":false,"is_disabled":false,"rental_uris":{"android":"levelo://app?vid=073846b3-05ad-4cd1-b323-f1a405b8e200","ios":"levelo://app?vid=073846b3-05ad-4cd1-b323-f1a405b8e200"},"vehicle_type_id":"4","last_reported":1767702315,"current_range_meters":6800,"station_id":"ce4bhbh2rcd13ifvqepg","pricing_plan_id":"cebpf4jnsgd1na2vs0mg"},{"bike_id":"d8c06048-428c-4885-a31f-55edb4b42195","system_id":"levelo_inurba_marseille","lat":43.26237,"lon":5.38835,"is_reserved":false,"is_disabled":false,"rental_uris":{"android":"levelo://app?vid=d8c06048-428c-4885-a31f-55edb4b42195","ios":"levelo://app?vid=d8c06048-428c-4885-a31f-55edb4b42195"},"vehicle_type_id":"4","last_reported":1767702315,"current_range_meters":6800,"station_id":"","pricing_plan_id":"cebpf4jnsgd1na2vs0mg"},{"bike_id":"14494bec-dc0c-470c-b701-ec21574c7266","system_id":"levelo_inurba_marseille","lat":43.2929,"lon":5.37185,"is_reserved":false,"is_disabled":false,"rental_uris":{"android":"levelo://app?vid=14494bec-dc0c-470c-b701-ec21574c7266","ios":"levelo://app?vid=14494bec-dc0c-470c-b701-ec21574c7266"},"vehicle_type_id":"4","last_reported":1767702315,"current_range_meters":6800,"station_id":"ce4bgh92rcd13ifvqb40","pricing_plan_id":"cebpf4jnsgd1na2vs0mg"},{"bike_id":"28710909-6836-4051-8df5-ac7ea21a74d1","system_id":"levelo_inurba_marseille","lat":43.31498,"lon":5.38633,"is_reserved":false,"is_disabled":false,"rental_uris":{"android":"levelo://app?vid=28710909-6836-4051-8df5-ac7ea21a74d1","ios":"levelo://app?vid=28710909-6836-4051-8df5-ac7ea21a74d1"},"vehicle_type_id":"4","last_reported":1767702315,"current_range_meters":6800,"station_id":"","pricing_plan_id":"cebpf4jnsgd1na2vs0mg"},{"bike_id":"1e73728e-4392-47e2-968e-c94992b57df0","system_id":"levelo_inurba_marseille","lat":43.23191,"lon":5.35568,"is_reserved":false,"is_disabled":false,"rental_uris":{"android":"levelo://app?vid=1e73728e-4392-47e2-968e-c94992b57df0","ios":"levelo://app?vid=1e73728e-4392-47e2-968e-c94992b57df0"},"vehicle_type_id":"4","last_reported":1767702315,"current_range_meters":6800,"station_id":"ce4bhu92rcd13ifvqi70","pricing_plan_id":"cebpf4jnsgd1na2vs0mg"},{"bike_id":"11a9d746-21f2-472e-a773-79943d206c1e","system_id":"levelo_inurba_marseille","lat":43.29609,"lon":5.37713,"is_reserved":false,"is_disabled":false,"rental_uris":{"android":"levelo://app?vid=11a9d746-21f2-472e-a773-79943d206c1e","ios":"levelo://app?vid=11a9d746-21f2-472e-a773-79943d206c1e"},"vehicle_type_id":"4","last_reported":1767702315,"current_range_meters":6800,"station_id":"ce4bgi92rcd13ifvqb90","pricing_plan_id":"cebpf4jnsgd1na2vs0mg"},{"bike_id":"a184e25a-1604-4e63-9035-4f507c575ca1","system_id":"levelo_inurba_marseille","lat":43.31404,"lon":5.37192,"is_reserved":false,"is_disabled":false,"rental_uris":{"android":"levelo://app?vid=a184e25a-1604-4e63-9035-4f507c575ca1","ios":"levelo://app?vid=a184e25a-1604-4e63-9035-4f507c575ca1"},"vehicle_type_id":"4","last_reported":1767702315,"current_range_meters":6800,"station_id":"","pricing_plan_id":"cebpf4jnsgd1na2vs0mg"},{"bike_id":"02734be4-e329-40a6-9dec-56624bb436bd","system_id":"levelo_inurba_marseille","lat":43.28492,"lon":5.38544,"is_reserved":false,"is_disabled":false,"rental_uris":{"android":"levelo://app?vid=02734be4-e329-40a6-9dec-56624bb436bd","ios":"levelo://app?vid=02734be4-e329-40a6-9dec-56624bb436bd"},"vehicle_type_id":"4","last_reported":1767702315,"current_range_meters":6800,"station_id":"ce4bh8p2rcd13ifvqeb0","pricing_plan_id":"cebpf4jnsgd1na2vs0mg"},{"bike_id":"d041035f-430b-4791-aafc-a5144cc83e1d","system_id":"levelo_inurba_marseille","lat":43.29437,"lon":5.39755,"is_reserved":false,"is_disabled":false,"rental_uris":{"android":"levelo://app?vid=d041035f-430b-4791-aafc-a5144cc83e1d","ios":"levelo://app?vid=d041035f-430b-4791-aafc-a5144cc83e1d"},"vehicle_type_id":"4","last_reported":1767702315,"current_range_meters":6800,"station_id":"ce4bh3h2rcd13ifvqdo0","pricing_plan_id":"cebpf4jnsgd1na2vs0mg"},{"bike_id":"87e8b266-b373-4616-baea-2d580c40657d","system_id":"levelo_inurba_marseille","lat":43.31677,"lon":5.37461,"is_reserved":false,"is_disabled":false,"rental_uris":{"android":"levelo://app?vid=87e8b266-b373-4616-baea-2d580c40657d","ios":"levelo://app?vid=87e8b266-b373-4616-baea-2d580c40657d"},"vehicle_type_id":"4","last_reported":1767702315,"current_range_meters":6800,"station_id":"","pricing_plan_id":"cebpf4jnsgd1na2vs0mg"},{"bike_id":"6a1f68a8-4c0d-48e4-8253-89c4ff19b6ce","system_id":"levelo_inurba_marseille","lat":43.284762,"lon":5.484006,"is_reserved":false,"is_disabled":false,"rental_uris":{"android":"levelo://app?vid=6a1f68a8-4c0d-48e4-8253-89c4ff19b6ce","ios":"levelo://app?vid=6a1f68a8-4c0d-48e4-8253-89c4ff19b6ce"},"vehicle_type_id":"4","last_reported":1767702315,"current_range_meters":6800,"station_id":"","pricing_plan_id":"cebpf4jnsgd1na2vs0mg"},{"bike_id":"27fd1dae-9b5f-4946-91a5-7e16675cd4af","system_id":"levelo_inurba_marseille","lat":43.25582,"lon":5.38234,"is_reserved":false,"is_disabled":false,"rental_uris":{"android":"levelo://app?vid=27fd1dae-9b5f-4946-91a5-7e16675cd4af","ios":"levelo://app?vid=27fd1dae-9b5f-4946-91a5-7e16675cd4af"},"vehicle_type_id":"4","last_reported":1767702315,"current_range_meters":6800,"station_id":"ce4bhih2rcd13ifvqfs0","pricing_plan_id":"cebpf4jnsgd1na2vs0mg"},{"bike_id":"980e7374-b8d7-4723-b090-e412249f3333","system_id":"levelo_inurba_marseille","lat":43.28401,"lon":5.37534,"is_reserved":false,"is_disabled":false,"rental_uris":{"android":"levelo://app?vid=980e7374-b8d7-4723-b090-e412249f3333","ios":"levelo://app?vid=980e7374-b8d7-4723-b090-e412249f3333"},"vehicle_type_id":"4","last_reported":1767702315,"current_range_meters":6800,"station_id":"ce4bh412rcd13ifvqds0","pricing_plan_id":"cebpf4jnsgd1na2vs0mg"},{"bike_id":"dcd17e5a-74df-42d5-bc07-aacf87e896f6","system_id":"levelo_inurba_marseille","lat":43.24065,"lon":5.37721,"is_reserved":false,"is_disabled":false,"rental_uris":{"android":"levelo://app?vid=dcd17e5a-74df-42d5-bc07-aacf87e896f6","ios":"levelo://app?vid=dcd17e5a-74df-42d5-bc07-aacf87e896f6"},"vehicle_type_id":"4","last_reported":1767702315,"current_range_meters":6800,"station_id":"ce4bhnp2rcd13ifvqgvg","pricing_plan_id":"cebpf4jnsgd1na2vs0mg"},{"bike_id":"a56df372-151e-4fe2-8949-dd650d263775","system_id":"levelo_inurba_marseille","lat":43.28309,"lon":5.38929,"is_reserved":false,"is_disabled":false,"rental_uris":{"android":"levelo://app?vid=a56df372-151e-4fe2-8949-dd650d263775","ios":"levelo://app?vid=a56df372-151e-4fe2-8949-dd650d263775"},"vehicle_type_id":"4","last_reported":1767702315,"current_range_meters":6800,"station_id":"","pricing_plan_id":"cebpf4jnsgd1na2vs0mg"},{"bike_id":"307a64ca-f552-49b9-80b0-a69f761f5934","system_id":"levelo_inurba_marseille","lat":43.26376,"lon":5.41081,"is_reserved":false,"is_disabled":false,"rental_uris":{"android":"levelo://app?vid=307a64ca-f552-49b9-80b0-a69f761f5934","ios":"levelo://app?vid=307a64ca-f552-49b9-80b0-a69f761f5934"},"vehicle_type_id":"4","last_reported":1767702315,"current_range_meters":6800,"station_id":"st_d4e5ca6na9uc73bfl5fg","pricing_plan_id":"cebpf4jnsgd1na2vs0mg"},{"bike_id":"5708ece5-55a8-46d7-b581-87436581528b","system_id":"levelo_inurba_marseille","lat":43.27072,"lon":5.42274,"is_reserved":false,"is_disabled":false,"rental_uris":{"android":"levelo://app?vid=5708ece5-55a8-46d7-b581-87436581528b","ios":"levelo://app?vid=5708ece5-55a8-46d7-b581-87436581528b"},"vehicle_type_id":"4","last_reported":1767702315,"current_range_meters":7200,"station_id":"ce4bhk92rcd13ifvqgb0","pricing_plan_id":"cebpf4jnsgd1na2vs0mg"},{"bike_id":"207d484c-8461-4dd2-bcd8-adfebe5bfd4e","system_id":"levelo_inurba_marseille","lat":43.25924,"lon":5.40918,"is_reserved":false,"is_disabled":false,"rental_uris":{"android":"levelo://app?vid=207d484c-8461-4dd2-bcd8-adfebe5bfd4e","ios":"levelo://app?vid=207d484c-8461-4dd2-bcd8-adfebe5bfd4e"},"vehicle_type_id":"4","last_reported":1767702315,"current_range_meters":7200,"station_id":"ce4bhm92rcd13ifvqglg","pricing_plan_id":"cebpf4jnsgd1na2vs0mg"},{"bike_id":"2b1bae36-193a-499b-bb7e-403bbcf0b6b5","system_id":"levelo_inurba_marseille","lat":43.27797,"lon":5.40752,"is_reserved":false,"is_disabled":false,"rental_uris":{"android":"levelo://app?vid=2b1bae36-193a-499b-bb7e-403bbcf0b6b5","ios":"levelo://app?vid=2b1bae36-193a-499b-bb7e-403bbcf0b6b5"},"vehicle_type_id":"4","last_reported":1767702315,"current_range_meters":7200,"station_id":"ce4bhnh2rcd13ifvqgtg","pricing_plan_id":"cebpf4jnsgd1na2vs0mg"},{"bike_id":"e86c54c0-f671-46b3-9822-d8e47a8f4357","system_id":"levelo_inurba_marseille","lat":43.28876,"lon":5.4251,"is_reserved":false,"is_disabled":false,"rental_uris":{"android":"levelo://app?vid=e86c54c0-f671-46b3-9822-d8e47a8f4357","ios":"levelo://app?vid=e86c54c0-f671-46b3-9822-d8e47a8f4357"},"vehicle_type_id":"4","last_reported":1767702315,"current_range_meters":7200,"station_id":"st_d3b462108ojc7389ooeg","pricing_plan_id":"cebpf4jnsgd1na2vs0mg"},{"bike_id":"49e7e4bf-d14c-455f-a285-224ffc1f66f2","system_id":"levelo_inurba_marseille","lat":43.24636,"lon":5.43164,"is_reserved":false,"is_disabled":false,"rental_uris":{"android":"levelo://app?vid=49e7e4bf-d14c-455f-a285-224ffc1f66f2","ios":"levelo://app?vid=49e7e4bf-d14c-455f-a285-224ffc1f66f2"},"vehicle_type_id":"4","last_reported":1767702315,"current_range_meters":7200,"station_id":"st_d2m6c4gdas8pm72e190g","pricing_plan_id":"cebpf4jnsgd1na2vs0mg"},{"bike_id":"0032ba1d-9238-4223-b1a7-c312da3d013b","system_id":"levelo_inurba_marseille","lat":43.278097,"lon":5.407124,"is_reserved":false,"is_disabled":false,"rental_uris":{"android":"levelo://app?vid=0032ba1d-9238-4223-b1a7-c312da3d013b","ios":"levelo://app?vid=0032ba1d-9238-4223-b1a7-c312da3d013b"},"vehicle_type_id":"4","last_reported":1767702315,"current_range_meters":7200,"station_id":"ce4bhnh2rcd13ifvqgtg","pricing_plan_id":"cebpf4jnsgd1na2vs0mg"},{"bike_id":"9aeefce9-aebc-463a-aca9-dd7d9bb2249d","system_id":"levelo_inurba_marseille","lat":43.3116,"lon":5.38732,"is_reserved":false,"is_disabled":false,"rental_uris":{"android":"levelo://app?vid=9aeefce9-aebc-463a-aca9-dd7d9bb2249d","ios":"levelo://app?vid=9aeefce9-aebc-463a-aca9-dd7d9bb2249d"},"vehicle_type_id":"4","last_reported":1767702315,"current_range_meters":7200,"station_id":"ce4bgv12rcd13ifvqcp0","pricing_plan_id":"cebpf4jnsgd1na2vs0mg"},{"bike_id":"565f99b7-e9e2-4b44-8331-6450d9ae6732","system_id":"levelo_inurba_marseille","lat":43.32112,"lon":5.36776,"is_reserved":false,"is_disabled":false,"rental_uris":{"android":"levelo://app?vid=565f99b7-e9e2-4b44-8331-6450d9ae6732","ios":"levelo://app?vid=565f99b7-e9e2-4b44-8331-6450d9ae6732"},"vehicle_type_id":"4","last_reported":1767702315,"current_range_meters":7200,"station_id":"ce4bhrh2rcd13ifvqhug","pricing_plan_id":"cebpf4jnsgd1na2vs0mg"},{"bike_id":"59c30222-41ab-40da-979f-08c128e275a9","system_id":"levelo_inurba_marseille","lat":43.246261,"lon":5.431403,"is_reserved":false,"is_disabled":false,"rental_uris":{"android":"levelo://app?vid=59c30222-41ab-40da-979f-08c128e275a9","ios":"levelo://app?vid=59c30222-41ab-40da-979f-08c128e275a9"},"vehicle_type_id":"4","last_reported":1767702315,"current_range_meters":7200,"station_id":"st_d2m6c4gdas8pm72e190g","pricing_plan_id":"cebpf4jnsgd1na2vs0mg"},{"bike_id":"a189c7e9-2059-416c-bc22-9ffb3c8e4803","system_id":"levelo_inurba_marseille","lat":43.29704,"lon":5.36601,"is_reserved":false,"is_disabled":false,"rental_uris":{"android":"levelo://app?vid=a189c7e9-2059-416c-bc22-9ffb3c8e4803","ios":"levelo://app?vid=a189c7e9-2059-416c-bc22-9ffb3c8e4803"},"vehicle_type_id":"4","last_reported":1767702315,"current_range_meters":7200,"station_id":"ce4bgn12rcd13ifvqbt0","pricing_plan_id":"cebpf4jnsgd1na2vs0mg"},{"bike_id":"fb1a0b48-368d-4184-8906-a0902490ada4","system_id":"levelo_inurba_marseille","lat":43.26998,"lon":5.3875,"is_reserved":false,"is_disabled":false,"rental_uris":{"android":"levelo://app?vid=fb1a0b48-368d-4184-8906-a0902490ada4","ios":"levelo://app?vid=fb1a0b48-368d-4184-8906-a0902490ada4"},"vehicle_type_id":"4","last_reported":1767702315,"current_range_meters":7200,"station_id":"","pricing_plan_id":"cebpf4jnsgd1na2vs0mg"},{"bike_id":"f8fa6138-13d6-49d0-bc3f-4e0461ffcbc5","system_id":"levelo_inurba_marseille","lat":43.29935,"lon":5.38616,"is_reserved":false,"is_disabled":false,"rental_uris":{"android":"levelo://app?vid=f8fa6138-13d6-49d0-bc3f-4e0461ffcbc5","ios":"levelo://app?vid=f8fa6138-13d6-49d0-bc3f-4e0461ffcbc5"},"vehicle_type_id":"4","last_reported":1767702315,"current_range_meters":7200,"station_id":"","pricing_plan_id":"cebpf4jnsgd1na2vs0mg"},{"bike_id":"9265da08-af6b-41f8-a564-a7a5e4a8d66e","system_id":"levelo_inurba_marseille","lat":43.28474,"lon":5.48392,"is_reserved":false,"is_disabled":false,"rental_uris":{"android":"levelo://app?vid=9265da08-af6b-41f8-a564-a7a5e4a8d66e","ios":"levelo://app?vid=9265da08-af6b-41f8-a564-a7a5e4a8d66e"},"vehicle_type_id":"4","last_reported":1767702315,"current_range_meters":7200,"station_id":"","pricing_plan_id":"cebpf4jnsgd1na2vs0mg"},{"bike_id":"27d9b984-914c-44c6-abe9-2fee68ccfc43","system_id":"levelo_inurba_marseille","lat":43.3316,"lon":5.37706,"is_reserved":false,"is_disabled":false,"rental_uris":{"android":"levelo://app?vid=27d9b984-914c-44c6-abe9-2fee68ccfc43","ios":"levelo://app?vid=27d9b984-914c-44c6-abe9-2fee68ccfc43"},"vehicle_type_id":"4","last_reported":1767702315,"current_range_meters":7200,"station_id":"st_d46cu089ee8s73dldbu0","pricing_plan_id":"cebpf4jnsgd1na2vs0mg"},{"bike_id":"0b51251b-9805-4326-8779-f19c1e8a8afd","system_id":"levelo_inurba_marseille","lat":43.261952,"lon":5.37457,"is_reserved":false,"is_disabled":false,"rental_uris":{"android":"levelo://app?vid=0b51251b-9805-4326-8779-f19c1e8a8afd","ios":"levelo://app?vid=0b51251b-9805-4326-8779-f19c1e8a8afd"},"vehicle_type_id":"4","last_reported":1767702315,"current_range_meters":7200,"station_id":"ce4bhgp2rcd13ifvqfc0","pricing_plan_id":"cebpf4jnsgd1na2vs0mg"},{"bike_id":"9c58abfd-af51-407b-8d39-d024a5edbe43","system_id":"levelo_inurba_marseille","lat":43.31072,"lon":5.38361,"is_reserved":false,"is_disabled":false,"rental_uris":{"android":"levelo://app?vid=9c58abfd-af51-407b-8d39-d024a5edbe43","ios":"levelo://app?vid=9c58abfd-af51-407b-8d39-d024a5edbe43"},"vehicle_type_id":"4","last_reported":1767702315,"current_range_meters":7200,"station_id":"ce4bgv92rcd13ifvqcr0","pricing_plan_id":"cebpf4jnsgd1na2vs0mg"},{"bike_id":"7a5278f5-f061-488d-b2a2-8df4e443d682","system_id":"levelo_inurba_marseille","lat":43.26954,"lon":5.40298,"is_reserved":false,"is_disabled":false,"rental_uris":{"android":"levelo://app?vid=7a5278f5-f061-488d-b2a2-8df4e443d682","ios":"levelo://app?vid=7a5278f5-f061-488d-b2a2-8df4e443d682"},"vehicle_type_id":"4","last_reported":1767702315,"current_range_meters":7200,"station_id":"cjm6bp8fraef2m0cb0m0","pricing_plan_id":"cebpf4jnsgd1na2vs0mg"},{"bike_id":"ad9c57a4-d8a7-41c0-8bf9-21a179390ca8","system_id":"levelo_inurba_marseille","lat":43.28531,"lon":5.44097,"is_reserved":false,"is_disabled":false,"rental_uris":{"android":"levelo://app?vid=ad9c57a4-d8a7-41c0-8bf9-21a179390ca8","ios":"levelo://app?vid=ad9c57a4-d8a7-41c0-8bf9-21a179390ca8"},"vehicle_type_id":"4","last_reported":1767702315,"current_range_meters":7200,"station_id":"st_d3j3df2ikq2c7380ej80","pricing_plan_id":"cebpf4jnsgd1na2vs0mg"},{"bike_id":"0597b508-1261-4db8-9e17-c13a262518a7","system_id":"levelo_inurba_marseille","lat":43.29021,"lon":5.35641,"is_reserved":false,"is_disabled":false,"rental_uris":{"android":"levelo://app?vid=0597b508-1261-4db8-9e17-c13a262518a7","ios":"levelo://app?vid=0597b508-1261-4db8-9e17-c13a262518a7"},"vehicle_type_id":"4","last_reported":1767702315,"current_range_meters":7200,"station_id":"ce4bhb92rcd13ifvqen0","pricing_plan_id":"cebpf4jnsgd1na2vs0mg"},{"bike_id":"f7266f96-97df-4d00-8894-b574c422868e","system_id":"levelo_inurba_marseille","lat":43.2871,"lon":5.36113,"is_reserved":false,"is_disabled":false,"rental_uris":{"android":"levelo://app?vid=f7266f96-97df-4d00-8894-b574c422868e","ios":"levelo://app?vid=f7266f96-97df-4d00-8894-b574c422868e"},"vehicle_type_id":"4","last_reported":1767702315,"current_range_meters":8000,"station_id":"cki0cbj6b192h4jlfktg","pricing_plan_id":"cebpf4jnsgd1na2vs0mg"},{"bike_id":"e10d2e97-3324-4923-8226-ed68a3a3ab41","system_id":"levelo_inurba_marseille","lat":43.298596,"lon":5.362835,"is_reserved":false,"is_disabled":false,"rental_uris":{"android":"levelo://app?vid=e10d2e97-3324-4923-8226-ed68a3a3ab41","ios":"levelo://app?vid=e10d2e97-3324-4923-8226-ed68a3a3ab41"},"vehicle_type_id":"4","last_reported":1767702315,"current_range_meters":8000,"station_id":"ce4bgpp2rcd13ifvqc3g","pricing_plan_id":"cebpf4jnsgd1na2vs0mg"},{"bike_id":"d599e143-3cfd-4dd2-ba0d-054f2e412eda","system_id":"levelo_inurba_marseille","lat":43.28267,"lon":5.35076,"is_reserved":false,"is_disabled":false,"rental_uris":{"android":"levelo://app?vid=d599e143-3cfd-4dd2-ba0d-054f2e412eda","ios":"levelo://app?vid=d599e143-3cfd-4dd2-ba0d-054f2e412eda"},"vehicle_type_id":"4","last_reported":1767702315,"current_range_meters":8000,"station_id":"ce4bhbp2rcd13ifvqerg","pricing_plan_id":"cebpf4jnsgd1na2vs0mg"},{"bike_id":"f75b0410-7374-4824-96ab-6b516b680266","system_id":"levelo_inurba_marseille","lat":43.26496,"lon":5.39578,"is_reserved":false,"is_disabled":false,"rental_uris":{"android":"levelo://app?vid=f75b0410-7374-4824-96ab-6b516b680266","ios":"levelo://app?vid=f75b0410-7374-4824-96ab-6b516b680266"},"vehicle_type_id":"4","last_reported":1767702315,"current_range_meters":8000,"station_id":"ce4bhi12rcd13ifvqfq0","pricing_plan_id":"cebpf4jnsgd1na2vs0mg"},{"bike_id":"be75706c-d84a-4279-b5a3-376dba45c6a6","system_id":"levelo_inurba_marseille","lat":43.24803,"lon":5.37464,"is_reserved":false,"is_disabled":false,"rental_uris":{"android":"levelo://app?vid=be75706c-d84a-4279-b5a3-376dba45c6a6","ios":"levelo://app?vid=be75706c-d84a-4279-b5a3-376dba45c6a6"},"vehicle_type_id":"4","last_reported":1767702315,"current_range_meters":8000,"station_id":"ce4bhgh2rcd13ifvqfb0","pricing_plan_id":"cebpf4jnsgd1na2vs0mg"},{"bike_id":"9429cadb-a739-4f5f-8c2b-cc91a27439eb","system_id":"levelo_inurba_marseille","lat":43.27696,"lon":5.42069,"is_reserved":false,"is_disabled":false,"rental_uris":{"android":"levelo://app?vid=9429cadb-a739-4f5f-8c2b-cc91a27439eb","ios":"levelo://app?vid=9429cadb-a739-4f5f-8c2b-cc91a27439eb"},"vehicle_type_id":"4","last_reported":1767702315,"current_range_meters":8000,"station_id":"","pricing_plan_id":"cebpf4jnsgd1na2vs0mg"},{"bike_id":"f3cb6086-5e80-4c80-9631-a61f6105ed91","system_id":"levelo_inurba_marseille","lat":43.31343,"lon":5.36742,"is_reserved":false,"is_disabled":false,"rental_uris":{"android":"levelo://app?vid=f3cb6086-5e80-4c80-9631-a61f6105ed91","ios":"levelo://app?vid=f3cb6086-5e80-4c80-9631-a61f6105ed91"},"vehicle_type_id":"4","last_reported":1767702315,"current_range_meters":8000,"station_id":"ce4bgr92rcd13ifvqc6g","pricing_plan_id":"cebpf4jnsgd1na2vs0mg"},{"bike_id":"7e9901e5-0ecb-4064-a195-f0e8bbeeaa5c","system_id":"levelo_inurba_marseille","lat":43.28496,"lon":5.38571,"is_reserved":false,"is_disabled":false,"rental_uris":{"android":"levelo://app?vid=7e9901e5-0ecb-4064-a195-f0e8bbeeaa5c","ios":"levelo://app?vid=7e9901e5-0ecb-4064-a195-f0e8bbeeaa5c"},"vehicle_type_id":"4","last_reported":1767702315,"current_range_meters":8000,"station_id":"ce4bh8p2rcd13ifvqeb0","pricing_plan_id":"cebpf4jnsgd1na2vs0mg"},{"bike_id":"9543aad1-f2c5-4f3f-ab6a-e1b8918ce8ce","system_id":"levelo_inurba_marseille","lat":43.29899,"lon":5.38499,"is_reserved":false,"is_disabled":false,"rental_uris":{"android":"levelo://app?vid=9543aad1-f2c5-4f3f-ab6a-e1b8918ce8ce","ios":"levelo://app?vid=9543aad1-f2c5-4f3f-ab6a-e1b8918ce8ce"},"vehicle_type_id":"4","last_reported":1767702315,"current_range_meters":8000,"station_id":"","pricing_plan_id":"cebpf4jnsgd1na2vs0mg"},{"bike_id":"15bf6c3d-bc89-4e44-bfe7-ef27538e093c","system_id":"levelo_inurba_marseille","lat":43.24631,"lon":5.43161,"is_reserved":false,"is_disabled":false,"rental_uris":{"android":"levelo://app?vid=15bf6c3d-bc89-4e44-bfe7-ef27538e093c","ios":"levelo://app?vid=15bf6c3d-bc89-4e44-bfe7-ef27538e093c"},"vehicle_type_id":"4","last_reported":1767702315,"current_range_meters":8000,"station_id":"st_d2m6c4gdas8pm72e190g","pricing_plan_id":"cebpf4jnsgd1na2vs0mg"},{"bike_id":"bbfa127a-c4cd-452d-b148-18597fd04b45","system_id":"levelo_inurba_marseille","lat":43.2558,"lon":5.38251,"is_reserved":false,"is_disabled":false,"rental_uris":{"android":"levelo://app?vid=bbfa127a-c4cd-452d-b148-18597fd04b45","ios":"levelo://app?vid=bbfa127a-c4cd-452d-b148-18597fd04b45"},"vehicle_type_id":"4","last_reported":1767702315,"current_range_meters":8000,"station_id":"ce4bhih2rcd13ifvqfs0","pricing_plan_id":"cebpf4jnsgd1na2vs0mg"},{"bike_id":"969b1719-3fa2-4d7b-b48c-3f3c994a3da7","system_id":"levelo_inurba_marseille","lat":43.29204,"lon":5.39565,"is_reserved":false,"is_disabled":false,"rental_uris":{"android":"levelo://app?vid=969b1719-3fa2-4d7b-b48c-3f3c994a3da7","ios":"levelo://app?vid=969b1719-3fa2-4d7b-b48c-3f3c994a3da7"},"vehicle_type_id":"4","last_reported":1767702315,"current_range_meters":8000,"station_id":"","pricing_plan_id":"cebpf4jnsgd1na2vs0mg"},{"bike_id":"f236f8bf-a48c-4e01-9edf-a292131d7beb","system_id":"levelo_inurba_marseille","lat":43.25082,"lon":5.39501,"is_reserved":false,"is_disabled":false,"rental_uris":{"android":"levelo://app?vid=f236f8bf-a48c-4e01-9edf-a292131d7beb","ios":"levelo://app?vid=f236f8bf-a48c-4e01-9edf-a292131d7beb"},"vehicle_type_id":"4","last_reported":1767702315,"current_range_meters":8000,"station_id":"ce4bhm12rcd13ifvqgkg","pricing_plan_id":"cebpf4jnsgd1na2vs0mg"},{"bike_id":"48bd195f-e255-4287-ab8c-d4db56b26ae3","system_id":"levelo_inurba_marseille","lat":43.31146,"lon":5.38737,"is_reserved":false,"is_disabled":false,"rental_uris":{"android":"levelo://app?vid=48bd195f-e255-4287-ab8c-d4db56b26ae3","ios":"levelo://app?vid=48bd195f-e255-4287-ab8c-d4db56b26ae3"},"vehicle_type_id":"4","last_reported":1767702315,"current_range_meters":8000,"station_id":"ce4bgv12rcd13ifvqcp0","pricing_plan_id":"cebpf4jnsgd1na2vs0mg"},{"bike_id":"c773f61c-a83f-41d9-bdd4-df8791dcab70","system_id":"levelo_inurba_marseille","lat":43.29794,"lon":5.37762,"is_reserved":false,"is_disabled":false,"rental_uris":{"android":"levelo://app?vid=c773f61c-a83f-41d9-bdd4-df8791dcab70","ios":"levelo://app?vid=c773f61c-a83f-41d9-bdd4-df8791dcab70"},"vehicle_type_id":"4","last_reported":1767702315,"current_range_meters":8000,"station_id":"","pricing_plan_id":"cebpf4jnsgd1na2vs0mg"},{"bike_id":"e35627f3-e8ef-4d4a-9cf6-75aababa9398","system_id":"levelo_inurba_marseille","lat":43.24418,"lon":5.37081,"is_reserved":false,"is_disabled":false,"rental_uris":{"android":"levelo://app?vid=e35627f3-e8ef-4d4a-9cf6-75aababa9398","ios":"levelo://app?vid=e35627f3-e8ef-4d4a-9cf6-75aababa9398"},"vehicle_type_id":"4","last_reported":1767702315,"current_range_meters":8000,"station_id":"ce4bhhh2rcd13ifvqfk0","pricing_plan_id":"cebpf4jnsgd1na2vs0mg"},{"bike_id":"bf0a0489-ec91-406d-a7a0-4b4e36bfc3bb","system_id":"levelo_inurba_marseille","lat":43.229333,"lon":5.353798,"is_reserved":false,"is_disabled":false,"rental_uris":{"android":"levelo://app?vid=bf0a0489-ec91-406d-a7a0-4b4e36bfc3bb","ios":"levelo://app?vid=bf0a0489-ec91-406d-a7a0-4b4e36bfc3bb"},"vehicle_type_id":"4","last_reported":1767702315,"current_range_meters":8000,"station_id":"cpo3532slgdg3j2ikp40","pricing_plan_id":"cebpf4jnsgd1na2vs0mg"},{"bike_id":"79050b2d-51dd-4422-b5f7-33cfc5837f53","system_id":"levelo_inurba_marseille","lat":43.312748,"lon":5.377591,"is_reserved":false,"is_disabled":false,"rental_uris":{"android":"levelo://app?vid=79050b2d-51dd-4422-b5f7-33cfc5837f53","ios":"levelo://app?vid=79050b2d-51dd-4422-b5f7-33cfc5837f53"},"vehicle_type_id":"4","last_reported":1767702315,"current_range_meters":8000,"station_id":"","pricing_plan_id":"cebpf4jnsgd1na2vs0mg"},{"bike_id":"46e9ff29-49e0-4240-b2d3-9dae95342edb","system_id":"levelo_inurba_marseille","lat":43.25785,"lon":5.41032,"is_reserved":false,"is_disabled":false,"rental_uris":{"android":"levelo://app?vid=46e9ff29-49e0-4240-b2d3-9dae95342edb","ios":"levelo://app?vid=46e9ff29-49e0-4240-b2d3-9dae95342edb"},"vehicle_type_id":"4","last_reported":1767702315,"current_range_meters":8000,"station_id":"","pricing_plan_id":"cebpf4jnsgd1na2vs0mg"},{"bike_id":"8015c7a3-ca99-4bed-b795-854d89867176","system_id":"levelo_inurba_marseille","lat":43.300345,"lon":5.373509,"is_reserved":false,"is_disabled":false,"rental_uris":{"android":"levelo://app?vid=8015c7a3-ca99-4bed-b795-854d89867176","ios":"levelo://app?vid=8015c7a3-ca99-4bed-b795-854d89867176"},"vehicle_type_id":"4","last_reported":1767702315,"current_range_meters":8000,"station_id":"","pricing_plan_id":"cebpf4jnsgd1na2vs0mg"},{"bike_id":"999e74f3-d4b2-444d-89bc-239d909db7d5","system_id":"levelo_inurba_marseille","lat":43.30082,"lon":5.36958,"is_reserved":false,"is_disabled":false,"rental_uris":{"android":"levelo://app?vid=999e74f3-d4b2-444d-89bc-239d909db7d5","ios":"levelo://app?vid=999e74f3-d4b2-444d-89bc-239d909db7d5"},"vehicle_type_id":"4","last_reported":1767702315,"current_range_meters":8000,"station_id":"","pricing_plan_id":"cebpf4jnsgd1na2vs0mg"},{"bike_id":"b317fec0-bb47-4cc0-932a-12d8650393aa","system_id":"levelo_inurba_marseille","lat":43.33594,"lon":5.41038,"is_reserved":false,"is_disabled":false,"rental_uris":{"android":"levelo://app?vid=b317fec0-bb47-4cc0-932a-12d8650393aa","ios":"levelo://app?vid=b317fec0-bb47-4cc0-932a-12d8650393aa"},"vehicle_type_id":"4","last_reported":1767702315,"current_range_meters":8000,"station_id":"ce4bhqh2rcd13ifvqhmg","pricing_plan_id":"cebpf4jnsgd1na2vs0mg"},{"bike_id":"a64de1f7-3574-4633-a39c-4e77af724a95","system_id":"levelo_inurba_marseille","lat":43.27184,"lon":5.40999,"is_reserved":false,"is_disabled":false,"rental_uris":{"android":"levelo://app?vid=a64de1f7-3574-4633-a39c-4e77af724a95","ios":"levelo://app?vid=a64de1f7-3574-4633-a39c-4e77af724a95"},"vehicle_type_id":"4","last_reported":1767702315,"current_range_meters":8000,"station_id":"ce4bhl12rcd13ifvqgf0","pricing_plan_id":"cebpf4jnsgd1na2vs0mg"},{"bike_id":"457ab89b-b063-4df3-817e-022e47241d70","system_id":"levelo_inurba_marseille","lat":43.28843,"lon":5.35854,"is_reserved":false,"is_disabled":false,"rental_uris":{"android":"levelo://app?vid=457ab89b-b063-4df3-817e-022e47241d70","ios":"levelo://app?vid=457ab89b-b063-4df3-817e-022e47241d70"},"vehicle_type_id":"4","last_reported":1767702315,"current_range_meters":8000,"station_id":"ce4bhb12rcd13ifvqem0","pricing_plan_id":"cebpf4jnsgd1na2vs0mg"},{"bike_id":"027a8973-2875-41b4-bb24-d124d5326ef2","system_id":"levelo_inurba_marseille","lat":43.2695,"lon":5.38625,"is_reserved":false,"is_disabled":false,"rental_uris":{"android":"levelo://app?vid=027a8973-2875-41b4-bb24-d124d5326ef2","ios":"levelo://app?vid=027a8973-2875-41b4-bb24-d124d5326ef2"},"vehicle_type_id":"4","last_reported":1767702315,"current_range_meters":8000,"station_id":"ce4bhh92rcd13ifvqfh0","pricing_plan_id":"cebpf4jnsgd1na2vs0mg"},{"bike_id":"1c443ae8-c486-4898-ba52-b5c1dcdc3e04","system_id":"levelo_inurba_marseille","lat":43.27191,"lon":5.40996,"is_reserved":false,"is_disabled":false,"rental_uris":{"android":"levelo://app?vid=1c443ae8-c486-4898-ba52-b5c1dcdc3e04","ios":"levelo://app?vid=1c443ae8-c486-4898-ba52-b5c1dcdc3e04"},"vehicle_type_id":"4","last_reported":1767702315,"current_range_meters":8000,"station_id":"ce4bhl12rcd13ifvqgf0","pricing_plan_id":"cebpf4jnsgd1na2vs0mg"},{"bike_id":"49d4c477-d82c-4845-ae00-302004d2baeb","system_id":"levelo_inurba_marseille","lat":43.25314,"lon":5.42185,"is_reserved":false,"is_disabled":false,"rental_uris":{"android":"levelo://app?vid=49d4c477-d82c-4845-ae00-302004d2baeb","ios":"levelo://app?vid=49d4c477-d82c-4845-ae00-302004d2baeb"},"vehicle_type_id":"4","last_reported":1767702315,"current_range_meters":8000,"station_id":"st_d2m65c5bi1j21697t3ng","pricing_plan_id":"cebpf4jnsgd1na2vs0mg"},{"bike_id":"e48a82ff-e3e3-4ca8-b537-67fb859dafe3","system_id":"levelo_inurba_marseille","lat":43.28153,"lon":5.42654,"is_reserved":false,"is_disabled":false,"rental_uris":{"android":"levelo://app?vid=e48a82ff-e3e3-4ca8-b537-67fb859dafe3","ios":"levelo://app?vid=e48a82ff-e3e3-4ca8-b537-67fb859dafe3"},"vehicle_type_id":"4","last_reported":1767702315,"current_range_meters":8000,"station_id":"ce4bhnh2rcd13ifvqgug","pricing_plan_id":"cebpf4jnsgd1na2vs0mg"},{"bike_id":"71c53044-c0ca-48e9-968f-ab1ba6524736","system_id":"levelo_inurba_marseille","lat":43.239691,"lon":5.366071,"is_reserved":false,"is_disabled":false,"rental_uris":{"android":"levelo://app?vid=71c53044-c0ca-48e9-968f-ab1ba6524736","ios":"levelo://app?vid=71c53044-c0ca-48e9-968f-ab1ba6524736"},"vehicle_type_id":"4","last_reported":1767702315,"current_range_meters":8000,"station_id":"ce4bhi12rcd13ifvqfp0","pricing_plan_id":"cebpf4jnsgd1na2vs0mg"},{"bike_id":"98a4d564-e7b2-4212-8790-309787597c11","system_id":"levelo_inurba_marseille","lat":43.24468,"lon":5.42539,"is_reserved":false,"is_disabled":false,"rental_uris":{"android":"levelo://app?vid=98a4d564-e7b2-4212-8790-309787597c11","ios":"levelo://app?vid=98a4d564-e7b2-4212-8790-309787597c11"},"vehicle_type_id":"4","last_reported":1767702315,"current_range_meters":8000,"station_id":"st_d4a3vfp97mjs738cd8kg","pricing_plan_id":"cebpf4jnsgd1na2vs0mg"},{"bike_id":"65abfba9-190a-4a23-89ee-b7e60341596f","system_id":"levelo_inurba_marseille","lat":43.287222,"lon":5.379382,"is_reserved":false,"is_disabled":false,"rental_uris":{"android":"levelo://app?vid=65abfba9-190a-4a23-89ee-b7e60341596f","ios":"levelo://app?vid=65abfba9-190a-4a23-89ee-b7e60341596f"},"vehicle_type_id":"4","last_reported":1767702315,"current_range_meters":8000,"station_id":"ce4bh9p2rcd13ifvqec0","pricing_plan_id":"cebpf4jnsgd1na2vs0mg"},{"bike_id":"8d944767-1ef6-43c3-8a98-0f3b9ef41daa","system_id":"levelo_inurba_marseille","lat":43.28414,"lon":5.34996,"is_reserved":false,"is_disabled":false,"rental_uris":{"android":"levelo://app?vid=8d944767-1ef6-43c3-8a98-0f3b9ef41daa","ios":"levelo://app?vid=8d944767-1ef6-43c3-8a98-0f3b9ef41daa"},"vehicle_type_id":"4","last_reported":1767702315,"current_range_meters":8400,"station_id":"ce4bhbh2rcd13ifvqepg","pricing_plan_id":"cebpf4jnsgd1na2vs0mg"},{"bike_id":"1313acba-7b1f-4fba-a3ae-de2fc601fe32","system_id":"levelo_inurba_marseille","lat":43.260834,"lon":5.397487,"is_reserved":false,"is_disabled":false,"rental_uris":{"android":"levelo://app?vid=1313acba-7b1f-4fba-a3ae-de2fc601fe32","ios":"levelo://app?vid=1313acba-7b1f-4fba-a3ae-de2fc601fe32"},"vehicle_type_id":"4","last_reported":1767702315,"current_range_meters":8400,"station_id":"ce4bhl92rcd13ifvqghg","pricing_plan_id":"cebpf4jnsgd1na2vs0mg"},{"bike_id":"b0ab1f2d-e0b6-43ff-beee-12b61f19d088","system_id":"levelo_inurba_marseille","lat":43.30132,"lon":5.37422,"is_reserved":false,"is_disabled":false,"rental_uris":{"android":"levelo://app?vid=b0ab1f2d-e0b6-43ff-beee-12b61f19d088","ios":"levelo://app?vid=b0ab1f2d-e0b6-43ff-beee-12b61f19d088"},"vehicle_type_id":"4","last_reported":1767702315,"current_range_meters":8400,"station_id":"ce4bgs92rcd13ifvqcc0","pricing_plan_id":"cebpf4jnsgd1na2vs0mg"},{"bike_id":"552c7302-4e7e-4b7e-a972-e3e8cdef5add","system_id":"levelo_inurba_marseille","lat":43.27965,"lon":5.41033,"is_reserved":false,"is_disabled":false,"rental_uris":{"android":"levelo://app?vid=552c7302-4e7e-4b7e-a972-e3e8cdef5add","ios":"levelo://app?vid=552c7302-4e7e-4b7e-a972-e3e8cdef5add"},"vehicle_type_id":"4","last_reported":1767702315,"current_range_meters":8400,"station_id":"ce4bhnp2rcd13ifvqh0g","pricing_plan_id":"cebpf4jnsgd1na2vs0mg"},{"bike_id":"e9ebb3e3-66e8-49c5-9725-2d758f1b330e","system_id":"levelo_inurba_marseille","lat":43.29545,"lon":5.37522,"is_reserved":false,"is_disabled":false,"rental_uris":{"android":"levelo://app?vid=e9ebb3e3-66e8-49c5-9725-2d758f1b330e","ios":"levelo://app?vid=e9ebb3e3-66e8-49c5-9725-2d758f1b330e"},"vehicle_type_id":"4","last_reported":1767702315,"current_range_meters":8400,"station_id":"ce4bgkp2rcd13ifvqbmg","pricing_plan_id":"cebpf4jnsgd1na2vs0mg"},{"bike_id":"6a37a502-8a4f-4bc7-83bd-16348e8cf97e","system_id":"levelo_inurba_marseille","lat":43.32094,"lon":5.36774,"is_reserved":false,"is_disabled":false,"rental_uris":{"android":"levelo://app?vid=6a37a502-8a4f-4bc7-83bd-16348e8cf97e","ios":"levelo://app?vid=6a37a502-8a4f-4bc7-83bd-16348e8cf97e"},"vehicle_type_id":"4","last_reported":1767702315,"current_range_meters":8400,"station_id":"ce4bhrh2rcd13ifvqhug","pricing_plan_id":"cebpf4jnsgd1na2vs0mg"},{"bike_id":"c12ea4a3-bcf0-4ab0-a612-03910cec9930","system_id":"levelo_inurba_marseille","lat":43.280764,"lon":5.396523,"is_reserved":false,"is_disabled":false,"rental_uris":{"android":"levelo://app?vid=c12ea4a3-bcf0-4ab0-a612-03910cec9930","ios":"levelo://app?vid=c12ea4a3-bcf0-4ab0-a612-03910cec9930"},"vehicle_type_id":"4","last_reported":1767702315,"current_range_meters":8400,"station_id":"ce4bho12rcd13ifvqh2g","pricing_plan_id":"cebpf4jnsgd1na2vs0mg"},{"bike_id":"4cc62c5b-7b96-458c-93c6-1056b3366a99","system_id":"levelo_inurba_marseille","lat":43.27954,"lon":5.41041,"is_reserved":false,"is_disabled":false,"rental_uris":{"android":"levelo://app?vid=4cc62c5b-7b96-458c-93c6-1056b3366a99","ios":"levelo://app?vid=4cc62c5b-7b96-458c-93c6-1056b3366a99"},"vehicle_type_id":"4","last_reported":1767702315,"current_range_meters":8400,"station_id":"ce4bhnp2rcd13ifvqh0g","pricing_plan_id":"cebpf4jnsgd1na2vs0mg"},{"bike_id":"1cc14a4e-8f2c-4bea-9c25-f855a4eff001","system_id":"levelo_inurba_marseille","lat":43.28628,"lon":5.35103,"is_reserved":false,"is_disabled":false,"rental_uris":{"android":"levelo://app?vid=1cc14a4e-8f2c-4bea-9c25-f855a4eff001","ios":"levelo://app?vid=1cc14a4e-8f2c-4bea-9c25-f855a4eff001"},"vehicle_type_id":"4","last_reported":1767702315,"current_range_meters":8400,"station_id":"ce4bhch2rcd13ifvqeug","pricing_plan_id":"cebpf4jnsgd1na2vs0mg"},{"bike_id":"a3da1827-148b-41c2-bd04-cbeb3bb21a64","system_id":"levelo_inurba_marseille","lat":43.27941,"lon":5.38683,"is_reserved":false,"is_disabled":false,"rental_uris":{"android":"levelo://app?vid=a3da1827-148b-41c2-bd04-cbeb3bb21a64","ios":"levelo://app?vid=a3da1827-148b-41c2-bd04-cbeb3bb21a64"},"vehicle_type_id":"4","last_reported":1767702315,"current_range_meters":8400,"station_id":"","pricing_plan_id":"cebpf4jnsgd1na2vs0mg"},{"bike_id":"a5cd3047-741e-41dd-a5d0-b6b968201741","system_id":"levelo_inurba_marseille","lat":43.309459,"lon":5.39021,"is_reserved":false,"is_disabled":false,"rental_uris":{"android":"levelo://app?vid=a5cd3047-741e-41dd-a5d0-b6b968201741","ios":"levelo://app?vid=a5cd3047-741e-41dd-a5d0-b6b968201741"},"vehicle_type_id":"4","last_reported":1767702315,"current_range_meters":8400,"station_id":"ce4bgup2rcd13ifvqco0","pricing_plan_id":"cebpf4jnsgd1na2vs0mg"},{"bike_id":"cccedf1f-544a-43fc-88c9-0f2af297f59c","system_id":"levelo_inurba_marseille","lat":43.31393,"lon":5.39285,"is_reserved":false,"is_disabled":false,"rental_uris":{"android":"levelo://app?vid=cccedf1f-544a-43fc-88c9-0f2af297f59c","ios":"levelo://app?vid=cccedf1f-544a-43fc-88c9-0f2af297f59c"},"vehicle_type_id":"4","last_reported":1767702315,"current_range_meters":8400,"station_id":"","pricing_plan_id":"cebpf4jnsgd1na2vs0mg"},{"bike_id":"888a69ee-511b-4ff8-86bc-b04ea3de1397","system_id":"levelo_inurba_marseille","lat":43.25827,"lon":5.39448,"is_reserved":false,"is_disabled":false,"rental_uris":{"android":"levelo://app?vid=888a69ee-511b-4ff8-86bc-b04ea3de1397","ios":"levelo://app?vid=888a69ee-511b-4ff8-86bc-b04ea3de1397"},"vehicle_type_id":"4","last_reported":1767702315,"current_range_meters":8400,"station_id":"ce4bhip2rcd13ifvqft0","pricing_plan_id":"cebpf4jnsgd1na2vs0mg"},{"bike_id":"174e0a88-28ce-484e-8861-adcbe3a929da","system_id":"levelo_inurba_marseille","lat":43.28482,"lon":5.483879,"is_reserved":false,"is_disabled":false,"rental_uris":{"android":"levelo://app?vid=174e0a88-28ce-484e-8861-adcbe3a929da","ios":"levelo://app?vid=174e0a88-28ce-484e-8861-adcbe3a929da"},"vehicle_type_id":"4","last_reported":1767702315,"current_range_meters":8400,"station_id":"st_d3svhcjqgbts73a3dn0g","pricing_plan_id":"cebpf4jnsgd1na2vs0mg"},{"bike_id":"4584a5f3-9926-4f4a-b157-26b71a3bd67f","system_id":"levelo_inurba_marseille","lat":43.293095,"lon":5.376164,"is_reserved":false,"is_disabled":false,"rental_uris":{"android":"levelo://app?vid=4584a5f3-9926-4f4a-b157-26b71a3bd67f","ios":"levelo://app?vid=4584a5f3-9926-4f4a-b157-26b71a3bd67f"},"vehicle_type_id":"4","last_reported":1767702315,"current_range_meters":8400,"station_id":"","pricing_plan_id":"cebpf4jnsgd1na2vs0mg"},{"bike_id":"b8408ccb-17d0-4ba3-b31e-918a33cf6e7d","system_id":"levelo_inurba_marseille","lat":43.24667,"lon":5.381667,"is_reserved":false,"is_disabled":true,"rental_uris":{"android":"levelo://app?vid=b8408ccb-17d0-4ba3-b31e-918a33cf6e7d","ios":"levelo://app?vid=b8408ccb-17d0-4ba3-b31e-918a33cf6e7d"},"vehicle_type_id":"4","last_reported":1767702315,"current_range_meters":8400,"station_id":"ce4bhih2rcd13ifvqfr0","pricing_plan_id":"cebpf4jnsgd1na2vs0mg"},{"bike_id":"9b21424a-1587-45e4-bf2a-4284accabf77","system_id":"levelo_inurba_marseille","lat":43.28481,"lon":5.48403,"is_reserved":false,"is_disabled":false,"rental_uris":{"android":"levelo://app?vid=9b21424a-1587-45e4-bf2a-4284accabf77","ios":"levelo://app?vid=9b21424a-1587-45e4-bf2a-4284accabf77"},"vehicle_type_id":"4","last_reported":1767702315,"current_range_meters":8400,"station_id":"","pricing_plan_id":"cebpf4jnsgd1na2vs0mg"},{"bike_id":"25dbcc45-049f-4343-9bae-ee809280083a","system_id":"levelo_inurba_marseille","lat":43.28383,"lon":5.38468,"is_reserved":false,"is_disabled":false,"rental_uris":{"android":"levelo://app?vid=25dbcc45-049f-4343-9bae-ee809280083a","ios":"levelo://app?vid=25dbcc45-049f-4343-9bae-ee809280083a"},"vehicle_type_id":"4","last_reported":1767702315,"current_range_meters":8400,"station_id":"","pricing_plan_id":"cebpf4jnsgd1na2vs0mg"},{"bike_id":"2b249141-87e2-4eaa-8d21-183c28a1a8bb","system_id":"levelo_inurba_marseille","lat":43.29775,"lon":5.42773,"is_reserved":false,"is_disabled":false,"rental_uris":{"android":"levelo://app?vid=2b249141-87e2-4eaa-8d21-183c28a1a8bb","ios":"levelo://app?vid=2b249141-87e2-4eaa-8d21-183c28a1a8bb"},"vehicle_type_id":"4","last_reported":1767702315,"current_range_meters":8400,"station_id":"st_d3md5207bmas73dh9klg","pricing_plan_id":"cebpf4jnsgd1na2vs0mg"},{"bike_id":"0aad047e-e145-4966-9f7d-ccc03dda2149","system_id":"levelo_inurba_marseille","lat":43.32105,"lon":5.3679,"is_reserved":false,"is_disabled":false,"rental_uris":{"android":"levelo://app?vid=0aad047e-e145-4966-9f7d-ccc03dda2149","ios":"levelo://app?vid=0aad047e-e145-4966-9f7d-ccc03dda2149"},"vehicle_type_id":"4","last_reported":1767702315,"current_range_meters":8400,"station_id":"ce4bhrh2rcd13ifvqhug","pricing_plan_id":"cebpf4jnsgd1na2vs0mg"},{"bike_id":"be52c303-8015-4e2f-882c-a7d5c0a8a7ac","system_id":"levelo_inurba_marseille","lat":43.286142,"lon":5.398738,"is_reserved":false,"is_disabled":false,"rental_uris":{"android":"levelo://app?vid=be52c303-8015-4e2f-882c-a7d5c0a8a7ac","ios":"levelo://app?vid=be52c303-8015-4e2f-882c-a7d5c0a8a7ac"},"vehicle_type_id":"4","last_reported":1767702315,"current_range_meters":8800,"station_id":"st_d4a7ka997mjs738ck50g","pricing_plan_id":"cebpf4jnsgd1na2vs0mg"},{"bike_id":"997ae0ea-3acb-47e8-812b-a5461f693510","system_id":"levelo_inurba_marseille","lat":43.279379,"lon":5.410482,"is_reserved":false,"is_disabled":false,"rental_uris":{"android":"levelo://app?vid=997ae0ea-3acb-47e8-812b-a5461f693510","ios":"levelo://app?vid=997ae0ea-3acb-47e8-812b-a5461f693510"},"vehicle_type_id":"4","last_reported":1767702315,"current_range_meters":8800,"station_id":"ce4bhnp2rcd13ifvqh0g","pricing_plan_id":"cebpf4jnsgd1na2vs0mg"},{"bike_id":"f10b558f-7242-43aa-8400-44ba55773041","system_id":"levelo_inurba_marseille","lat":43.29718,"lon":5.36625,"is_reserved":false,"is_disabled":false,"rental_uris":{"android":"levelo://app?vid=f10b558f-7242-43aa-8400-44ba55773041","ios":"levelo://app?vid=f10b558f-7242-43aa-8400-44ba55773041"},"vehicle_type_id":"4","last_reported":1767702315,"current_range_meters":8800,"station_id":"ce4bgn12rcd13ifvqbt0","pricing_plan_id":"cebpf4jnsgd1na2vs0mg"},{"bike_id":"869dc87a-815e-4676-957b-27d9cc78f6c6","system_id":"levelo_inurba_marseille","lat":43.240775,"lon":5.377595,"is_reserved":false,"is_disabled":false,"rental_uris":{"android":"levelo://app?vid=869dc87a-815e-4676-957b-27d9cc78f6c6","ios":"levelo://app?vid=869dc87a-815e-4676-957b-27d9cc78f6c6"},"vehicle_type_id":"4","last_reported":1767702315,"current_range_meters":8800,"station_id":"ce4bhnp2rcd13ifvqgvg","pricing_plan_id":"cebpf4jnsgd1na2vs0mg"},{"bike_id":"98dca6e3-26ba-4371-b766-f637ffb9cb2e","system_id":"levelo_inurba_marseille","lat":43.301489,"lon":5.380914,"is_reserved":false,"is_disabled":false,"rental_uris":{"android":"levelo://app?vid=98dca6e3-26ba-4371-b766-f637ffb9cb2e","ios":"levelo://app?vid=98dca6e3-26ba-4371-b766-f637ffb9cb2e"},"vehicle_type_id":"4","last_reported":1767702315,"current_range_meters":8800,"station_id":"ce4bgjp2rcd13ifvqbh0","pricing_plan_id":"cebpf4jnsgd1na2vs0mg"},{"bike_id":"24303c60-0f07-4b07-92cf-4c7bb79ce966","system_id":"levelo_inurba_marseille","lat":43.279955,"lon":5.416662,"is_reserved":false,"is_disabled":false,"rental_uris":{"android":"levelo://app?vid=24303c60-0f07-4b07-92cf-4c7bb79ce966","ios":"levelo://app?vid=24303c60-0f07-4b07-92cf-4c7bb79ce966"},"vehicle_type_id":"4","last_reported":1767702315,"current_range_meters":8800,"station_id":"ce4bho12rcd13ifvqh1g","pricing_plan_id":"cebpf4jnsgd1na2vs0mg"},{"bike_id":"921ef35d-c861-4168-ad49-4406c450f0c5","system_id":"levelo_inurba_marseille","lat":43.28982,"lon":5.37818,"is_reserved":false,"is_disabled":false,"rental_uris":{"android":"levelo://app?vid=921ef35d-c861-4168-ad49-4406c450f0c5","ios":"levelo://app?vid=921ef35d-c861-4168-ad49-4406c450f0c5"},"vehicle_type_id":"4","last_reported":1767702315,"current_range_meters":8800,"station_id":"ce4bh9p2rcd13ifvqed0","pricing_plan_id":"cebpf4jnsgd1na2vs0mg"},{"bike_id":"2af0ce7c-ca3c-4dfe-9ab3-190f23e26597","system_id":"levelo_inurba_marseille","lat":43.238731,"lon":5.365227,"is_reserved":false,"is_disabled":false,"rental_uris":{"android":"levelo://app?vid=2af0ce7c-ca3c-4dfe-9ab3-190f23e26597","ios":"levelo://app?vid=2af0ce7c-ca3c-4dfe-9ab3-190f23e26597"},"vehicle_type_id":"4","last_reported":1767702315,"current_range_meters":8800,"station_id":"","pricing_plan_id":"cebpf4jnsgd1na2vs0mg"},{"bike_id":"b4fd28d0-2b97-4a8b-b977-d70ca0ae4069","system_id":"levelo_inurba_marseille","lat":43.29795,"lon":5.40424,"is_reserved":false,"is_disabled":false,"rental_uris":{"android":"levelo://app?vid=b4fd28d0-2b97-4a8b-b977-d70ca0ae4069","ios":"levelo://app?vid=b4fd28d0-2b97-4a8b-b977-d70ca0ae4069"},"vehicle_type_id":"4","last_reported":1767702315,"current_range_meters":8800,"station_id":"ce4bh112rcd13ifvqd90","pricing_plan_id":"cebpf4jnsgd1na2vs0mg"},{"bike_id":"83f5c9b2-f37e-4635-817a-992d595185c8","system_id":"levelo_inurba_marseille","lat":43.30531,"lon":5.36713,"is_reserved":false,"is_disabled":false,"rental_uris":{"android":"levelo://app?vid=83f5c9b2-f37e-4635-817a-992d595185c8","ios":"levelo://app?vid=83f5c9b2-f37e-4635-817a-992d595185c8"},"vehicle_type_id":"4","last_reported":1767702315,"current_range_meters":8800,"station_id":"ce4bgrp2rcd13ifvqc9g","pricing_plan_id":"cebpf4jnsgd1na2vs0mg"},{"bike_id":"1aab9789-bffd-4a51-8860-d68a520871ab","system_id":"levelo_inurba_marseille","lat":43.33555,"lon":5.37463,"is_reserved":false,"is_disabled":true,"rental_uris":{"android":"levelo://app?vid=1aab9789-bffd-4a51-8860-d68a520871ab","ios":"levelo://app?vid=1aab9789-bffd-4a51-8860-d68a520871ab"},"vehicle_type_id":"4","last_reported":1767702315,"current_range_meters":8800,"station_id":"st_d46tts09ee8s73dlu43g","pricing_plan_id":"cebpf4jnsgd1na2vs0mg"},{"bike_id":"03bb26cc-5abe-463b-b42d-df12dfc80fb1","system_id":"levelo_inurba_marseille","lat":43.27998,"lon":5.4004,"is_reserved":false,"is_disabled":false,"rental_uris":{"android":"levelo://app?vid=03bb26cc-5abe-463b-b42d-df12dfc80fb1","ios":"levelo://app?vid=03bb26cc-5abe-463b-b42d-df12dfc80fb1"},"vehicle_type_id":"4","last_reported":1767702315,"current_range_meters":8800,"station_id":"ce4bho92rcd13ifvqh4g","pricing_plan_id":"cebpf4jnsgd1na2vs0mg"},{"bike_id":"61debeef-1260-4028-94d3-69cc0fe23180","system_id":"levelo_inurba_marseille","lat":43.27183,"lon":5.40994,"is_reserved":false,"is_disabled":false,"rental_uris":{"android":"levelo://app?vid=61debeef-1260-4028-94d3-69cc0fe23180","ios":"levelo://app?vid=61debeef-1260-4028-94d3-69cc0fe23180"},"vehicle_type_id":"4","last_reported":1767702315,"current_range_meters":8800,"station_id":"ce4bhl12rcd13ifvqgf0","pricing_plan_id":"cebpf4jnsgd1na2vs0mg"},{"bike_id":"722cbb73-0ec9-4f08-89c7-c23af9aed8be","system_id":"levelo_inurba_marseille","lat":43.30512,"lon":5.36538,"is_reserved":false,"is_disabled":false,"rental_uris":{"android":"levelo://app?vid=722cbb73-0ec9-4f08-89c7-c23af9aed8be","ios":"levelo://app?vid=722cbb73-0ec9-4f08-89c7-c23af9aed8be"},"vehicle_type_id":"4","last_reported":1767702315,"current_range_meters":8800,"station_id":"","pricing_plan_id":"cebpf4jnsgd1na2vs0mg"},{"bike_id":"59f38118-6a4d-4e62-8844-f6df1659fc07","system_id":"levelo_inurba_marseille","lat":43.29919,"lon":5.43666,"is_reserved":false,"is_disabled":false,"rental_uris":{"android":"levelo://app?vid=59f38118-6a4d-4e62-8844-f6df1659fc07","ios":"levelo://app?vid=59f38118-6a4d-4e62-8844-f6df1659fc07"},"vehicle_type_id":"4","last_reported":1767702315,"current_range_meters":8800,"station_id":"ce4bhpp2rcd13ifvqhfg","pricing_plan_id":"cebpf4jnsgd1na2vs0mg"},{"bike_id":"48d4c45e-d2a8-4c04-8400-ce8bb7d75548","system_id":"levelo_inurba_marseille","lat":43.25939,"lon":5.4091,"is_reserved":false,"is_disabled":false,"rental_uris":{"android":"levelo://app?vid=48d4c45e-d2a8-4c04-8400-ce8bb7d75548","ios":"levelo://app?vid=48d4c45e-d2a8-4c04-8400-ce8bb7d75548"},"vehicle_type_id":"4","last_reported":1767702315,"current_range_meters":8800,"station_id":"ce4bhm92rcd13ifvqglg","pricing_plan_id":"cebpf4jnsgd1na2vs0mg"},{"bike_id":"17bc629f-7332-48d3-a7ec-087f06179642","system_id":"levelo_inurba_marseille","lat":43.24088,"lon":5.37762,"is_reserved":false,"is_disabled":false,"rental_uris":{"android":"levelo://app?vid=17bc629f-7332-48d3-a7ec-087f06179642","ios":"levelo://app?vid=17bc629f-7332-48d3-a7ec-087f06179642"},"vehicle_type_id":"4","last_reported":1767702315,"current_range_meters":8800,"station_id":"ce4bhnp2rcd13ifvqgvg","pricing_plan_id":"cebpf4jnsgd1na2vs0mg"},{"bike_id":"d8090836-f7a3-4625-996e-b2067964f9f7","system_id":"levelo_inurba_marseille","lat":43.27807,"lon":5.40708,"is_reserved":false,"is_disabled":false,"rental_uris":{"android":"levelo://app?vid=d8090836-f7a3-4625-996e-b2067964f9f7","ios":"levelo://app?vid=d8090836-f7a3-4625-996e-b2067964f9f7"},"vehicle_type_id":"4","last_reported":1767702315,"current_range_meters":8800,"station_id":"ce4bhnh2rcd13ifvqgtg","pricing_plan_id":"cebpf4jnsgd1na2vs0mg"},{"bike_id":"3a1a012f-e2cb-489c-8aaa-49659e7dafd1","system_id":"levelo_inurba_marseille","lat":43.292277,"lon":5.360634,"is_reserved":false,"is_disabled":false,"rental_uris":{"android":"levelo://app?vid=3a1a012f-e2cb-489c-8aaa-49659e7dafd1","ios":"levelo://app?vid=3a1a012f-e2cb-489c-8aaa-49659e7dafd1"},"vehicle_type_id":"4","last_reported":1767702315,"current_range_meters":8800,"station_id":"ce4bhbh2rcd13ifvqeqg","pricing_plan_id":"cebpf4jnsgd1na2vs0mg"},{"bike_id":"d2af2eb3-9ddc-491a-9ca6-8130c2050338","system_id":"levelo_inurba_marseille","lat":43.26685,"lon":5.382688,"is_reserved":false,"is_disabled":false,"rental_uris":{"android":"levelo://app?vid=d2af2eb3-9ddc-491a-9ca6-8130c2050338","ios":"levelo://app?vid=d2af2eb3-9ddc-491a-9ca6-8130c2050338"},"vehicle_type_id":"4","last_reported":1767702315,"current_range_meters":8800,"station_id":"ce4bhg92rcd13ifvqf90","pricing_plan_id":"cebpf4jnsgd1na2vs0mg"},{"bike_id":"deb370eb-6d0d-4eb0-bd01-5a69594d18dc","system_id":"levelo_inurba_marseille","lat":43.24076,"lon":5.37765,"is_reserved":false,"is_disabled":false,"rental_uris":{"android":"levelo://app?vid=deb370eb-6d0d-4eb0-bd01-5a69594d18dc","ios":"levelo://app?vid=deb370eb-6d0d-4eb0-bd01-5a69594d18dc"},"vehicle_type_id":"4","last_reported":1767702315,"current_range_meters":8800,"station_id":"ce4bhnp2rcd13ifvqgvg","pricing_plan_id":"cebpf4jnsgd1na2vs0mg"},{"bike_id":"bec6c24a-06be-45cf-9bed-193788bd3b60","system_id":"levelo_inurba_marseille","lat":43.31362,"lon":5.3675,"is_reserved":false,"is_disabled":false,"rental_uris":{"android":"levelo://app?vid=bec6c24a-06be-45cf-9bed-193788bd3b60","ios":"levelo://app?vid=bec6c24a-06be-45cf-9bed-193788bd3b60"},"vehicle_type_id":"4","last_reported":1767702315,"current_range_meters":8800,"station_id":"ce4bgr92rcd13ifvqc6g","pricing_plan_id":"cebpf4jnsgd1na2vs0mg"},{"bike_id":"849341b4-4be0-44f9-a1e7-7a81b9d42787","system_id":"levelo_inurba_marseille","lat":43.25931,"lon":5.40916,"is_reserved":false,"is_disabled":false,"rental_uris":{"android":"levelo://app?vid=849341b4-4be0-44f9-a1e7-7a81b9d42787","ios":"levelo://app?vid=849341b4-4be0-44f9-a1e7-7a81b9d42787"},"vehicle_type_id":"4","last_reported":1767702315,"current_range_meters":8800,"station_id":"ce4bhm92rcd13ifvqglg","pricing_plan_id":"cebpf4jnsgd1na2vs0mg"},{"bike_id":"da485c09-58f3-4aa8-b9eb-e5024b97d2e0","system_id":"levelo_inurba_marseille","lat":43.25924,"lon":5.40904,"is_reserved":false,"is_disabled":false,"rental_uris":{"android":"levelo://app?vid=da485c09-58f3-4aa8-b9eb-e5024b97d2e0","ios":"levelo://app?vid=da485c09-58f3-4aa8-b9eb-e5024b97d2e0"},"vehicle_type_id":"4","last_reported":1767702315,"current_range_meters":8800,"station_id":"ce4bhm92rcd13ifvqglg","pricing_plan_id":"cebpf4jnsgd1na2vs0mg"},