{"last_updated":1773923932,"ttl":60,"version":"2.2","data":{"bikes":[{"bike_id":"f030c05f-bd2e-429f-a81e-907056f81eb1","system_id":"levelo_inurba_marseille","lat":43.24163,"lon":5.36384,"is_reserved":false,"is_disabled":false,"rental_uris":{"android":"levelo://app?vid=f030c05f-bd2e-429f-a81e-907056f81eb1","ios":"levelo://app?vid=f030c05f-bd2e-429f-a81e-907056f81eb1"},"vehicle_type_id":"4","last_reported":1773923933,"current_range_meters":2800,"station_id":"cpo36qri1sfpv3e86is0","pricing_plan_id":"cebpf4jnsgd1na2vs0mg"},{"bike_id":"21fa13f4-757f-4da4-a71b-8698609684c5","system_id":"levelo_inurba_marseille","lat":43.29269,"lon":5.36828,"is_reserved":false,"is_disabled":false,"rental_uris":{"android":"levelo://app?vid=21fa13f4-757f-4da4-a71b-8698609684c5","ios":"levelo://app?vid=21fa13f4-757f-4da4-a71b-8698609684c5"},"vehicle_type_id":"4","last_reported":1773923933,"current_range_meters":2800,"station_id":"ce4bhbp2rcd13ifvqesg","pricing_plan_id":"cebpf4jnsgd1na2vs0mg"},{"bike_id":"27d89984-817d-4030-a56a-bb0c0a15e0a0","system_id":"levelo_inurba_marseille","lat":43.30285,"lon":5.37697,"is_reserved":false,"is_disabled":false,"rental_uris":{"android":"levelo://app?vid=27d89984-817d-4030-a56a-bb0c0a15e0a0","ios":"levelo://app?vid=27d89984-817d-4030-a56a-bb0c0a15e0a0"},"vehicle_type_id":"4","last_reported":1773923933,"current_range_meters":2800,"station_id":"ce4bguh2rcd13ifvqcj0","pricing_plan_id":"cebpf4jnsgd1na2vs0mg"},{"bike_id":"888c9bc4-0d4c-4cfa-81ca-1822505dac01","system_id":"levelo_inurba_marseille","lat":43.29717,"lon":5.36604,"is_reserved":false,"is_disabled":false,"rental_uris":{"android":"levelo://app?vid=888c9bc4-0d4c-4cfa-81ca-1822505dac01","ios":"levelo://app?vid=888c9bc4-0d4c-4cfa-81ca-1822505dac01"},"vehicle_type_id":"4","last_reported":1773923933,"current_range_meters":2800,"station_id":"ce4bgn12rcd13ifvqbt0","pricing_plan_id":"cebpf4jnsgd1na2vs0mg"},{"bike_id":"726ab143-f8fd-4618-a508-db7e708d8420","system_id":"levelo_inurba_marseille","lat":43.30136,"lon":5.38779,"is_reserved":false,"is_disabled":false,"rental_uris":{"android":"levelo://app?vid=726ab143-f8fd-4618-a508-db7e708d8420","ios":"levelo://app?vid=726ab143-f8fd-4618-a508-db7e708d8420"},"vehicle_type_id":"4","last_reported":1773923933,"current_range_meters":2800,"station_id":"ce4bghh2rcd13ifvqb60","pricing_plan_id":"cebpf4jnsgd1na2vs0mg"},{"bike_id":"211e13a4-8553-4cba-bc36-2b4ecae54d77","system_id":"levelo_inurba_marseille","lat":43.24076,"lon":5.37758,"is_reserved":false,"is_disabled":false,"rental_uris":{"android":"levelo://app?vid=211e13a4-8553-4cba-bc36-2b4ecae54d77","ios":"levelo://app?vid=211e13a4-8553-4cba-bc36-2b4ecae54d77"},"vehicle_type_id":"4","last_reported":1773923933,"current_range_meters":2800,"station_id":"ce4bhnp2rcd13ifvqgvg","pricing_plan_id":"cebpf4jnsgd1na2vs0mg"},{"bike_id":"b1678298-3f5b-4e9b-bb34-63fa7c9d9c9c","system_id":"levelo_inurba_marseille","lat":43.28482,"lon":5.4839,"is_reserved":false,"is_disabled":false,"rental_uris":{"android":"levelo://app?vid=b1678298-3f5b-4e9b-bb34-63fa7c9d9c9c","ios":"levelo://app?vid=b1678298-3f5b-4e9b-bb34-63fa7c9d9c9c"},"vehicle_type_id":"4","last_reported":1773923933,"current_range_meters":2800,"station_id":"","pricing_plan_id":"cebpf4jnsgd1na2vs0mg"},{"bike_id":"641fadc8-18c8-4da9-af42-22c7c4e3360c","system_id":"levelo_inurba_marseille","lat":43.24845,"lon":5.37445,"is_reserved":false,"is_disabled":false,"rental_uris":{"android":"levelo://app?vid=641fadc8-18c8-4da9-af42-22c7c4e3360c","ios":"levelo://app?vid=641fadc8-18c8-4da9-af42-22c7c4e3360c"},"vehicle_type_id":"4","last_reported":1773923933,"current_range_meters":2800,"station_id":"","pricing_plan_id":"cebpf4jnsgd1na2vs0mg"},{"bike_id":"b479353b-fe14-4392-b2d7-5de9d2a8735a","system_id":"levelo_inurba_marseille","lat":43.32235,"lon":5.43836,"is_reserved":false,"is_disabled":false,"rental_uris":{"android":"levelo://app?vid=b479353b-fe14-4392-b2d7-5de9d2a8735a","ios":"levelo://app?vid=b479353b-fe14-4392-b2d7-5de9d2a8735a"},"vehicle_type_id":"4","last_reported":1773923933,"current_range_meters":2800,"station_id":"","pricing_plan_id":"cebpf4jnsgd1na2vs0mg"},{"bike_id":"7c245f6b-63fb-4c36-8493-afb8fd5288f8","system_id":"levelo_inurba_marseille","lat":43.31191,"lon":5.39067,"is_reserved":false,"is_disabled":false,"rental_uris":{"android":"levelo://app?vid=7c245f6b-63fb-4c36-8493-afb8fd5288f8","ios":"levelo://app?vid=7c245f6b-63fb-4c36-8493-afb8fd5288f8"},"vehicle_type_id":"4","last_reported":1773923933,"current_range_meters":2800,"station_id":"","pricing_plan_id":"cebpf4jnsgd1na2vs0mg"},{"bike_id":"7c915125-c2b8-41bf-9a73-8176d1c03f87","system_id":"levelo_inurba_marseille","lat":43.28712,"lon":5.46664,"is_reserved":false,"is_disabled":false,"rental_uris":{"android":"levelo://app?vid=7c915125-c2b8-41bf-9a73-8176d1c03f87","ios":"levelo://app?vid=7c915125-c2b8-41bf-9a73-8176d1c03f87"},"vehicle_type_id":"4","last_reported":1773923933,"current_range_meters":2800,"station_id":"st_d6tc3vkotcvc738tfjhg","pricing_plan_id":"cebpf4jnsgd1na2vs0mg"},{"bike_id":"50e0584e-4dc0-49b6-950a-79953725031f","system_id":"levelo_inurba_marseille","lat":43.23091,"lon":5.35476,"is_reserved":false,"is_disabled":false,"rental_uris":{"android":"levelo://app?vid=50e0584e-4dc0-49b6-950a-79953725031f","ios":"levelo://app?vid=50e0584e-4dc0-49b6-950a-79953725031f"},"vehicle_type_id":"4","last_reported":1773923933,"current_range_meters":2800,"station_id":"cpo3342slgdg3j2ifvpg","pricing_plan_id":"cebpf4jnsgd1na2vs0mg"},{"bike_id":"8d490c20-dc47-485f-a8dd-143795b6db26","system_id":"levelo_inurba_marseille","lat":43.27807,"lon":5.40707,"is_reserved":false,"is_disabled":false,"rental_uris":{"android":"levelo://app?vid=8d490c20-dc47-485f-a8dd-143795b6db26","ios":"levelo://app?vid=8d490c20-dc47-485f-a8dd-143795b6db26"},"vehicle_type_id":"4","last_reported":1773923933,"current_range_meters":2800,"station_id":"ce4bhnh2rcd13ifvqgtg","pricing_plan_id":"cebpf4jnsgd1na2vs0mg"},{"bike_id":"5032ee4c-643b-4fa7-8a5c-8d5e764831f6","system_id":"levelo_inurba_marseille","lat":43.21751,"lon":5.34609,"is_reserved":false,"is_disabled":false,"rental_uris":{"android":"levelo://app?vid=5032ee4c-643b-4fa7-8a5c-8d5e764831f6","ios":"levelo://app?vid=5032ee4c-643b-4fa7-8a5c-8d5e764831f6"},"vehicle_type_id":"4","last_reported":1773923933,"current_range_meters":3200,"station_id":"st_cvj6r9ubvosntc0bgbag","pricing_plan_id":"cebpf4jnsgd1na2vs0mg"},{"bike_id":"8a854e0a-3b9f-471d-80f2-bfadb0595e6b","system_id":"levelo_inurba_marseille","lat":43.31367,"lon":5.38205,"is_reserved":false,"is_disabled":false,"rental_uris":{"android":"levelo://app?vid=8a854e0a-3b9f-471d-80f2-bfadb0595e6b","ios":"levelo://app?vid=8a854e0a-3b9f-471d-80f2-bfadb0595e6b"},"vehicle_type_id":"4","last_reported":1773923933,"current_range_meters":3200,"station_id":"","pricing_plan_id":"cebpf4jnsgd1na2vs0mg"},{"bike_id":"cbc8599d-0f53-4276-b29f-85b323d36cb9","system_id":"levelo_inurba_marseille","lat":43.25501,"lon":5.37653,"is_reserved":false,"is_disabled":false,"rental_uris":{"android":"levelo://app?vid=cbc8599d-0f53-4276-b29f-85b323d36cb9","ios":"levelo://app?vid=cbc8599d-0f53-4276-b29f-85b323d36cb9"},"vehicle_type_id":"4","last_reported":1773923933,"current_range_meters":3200,"station_id":"ce4bhh12rcd13ifvqff0","pricing_plan_id":"cebpf4jnsgd1na2vs0mg"},{"bike_id":"05375032-7220-474f-8065-6be5553c2007","system_id":"levelo_inurba_marseille","lat":43.28459,"lon":5.35884,"is_reserved":false,"is_disabled":true,"rental_uris":{"android":"levelo://app?vid=05375032-7220-474f-8065-6be5553c2007","ios":"levelo://app?vid=05375032-7220-474f-8065-6be5553c2007"},"vehicle_type_id":"4","last_reported":1773923933,"current_range_meters":3200,"station_id":"ce4bhah2rcd13ifvqei0","pricing_plan_id":"cebpf4jnsgd1na2vs0mg"},{"bike_id":"8ffa06ae-b4c3-4139-b95e-aafe549f6920","system_id":"levelo_inurba_marseille","lat":43.24087,"lon":5.37745,"is_reserved":false,"is_disabled":false,"rental_uris":{"android":"levelo://app?vid=8ffa06ae-b4c3-4139-b95e-aafe549f6920","ios":"levelo://app?vid=8ffa06ae-b4c3-4139-b95e-aafe549f6920"},"vehicle_type_id":"4","last_reported":1773923933,"current_range_meters":3200,"station_id":"ce4bhnp2rcd13ifvqgvg","pricing_plan_id":"cebpf4jnsgd1na2vs0mg"},{"bike_id":"eaa9d3c5-f89d-4396-8235-4030217e81cb","system_id":"levelo_inurba_marseille","lat":43.25487,"lon":5.37656,"is_reserved":false,"is_disabled":false,"rental_uris":{"android":"levelo://app?vid=eaa9d3c5-f89d-4396-8235-4030217e81cb","ios":"levelo://app?vid=eaa9d3c5-f89d-4396-8235-4030217e81cb"},"vehicle_type_id":"4","last_reported":1773923933,"current_range_meters":3200,"station_id":"ce4bhh12rcd13ifvqff0","pricing_plan_id":"cebpf4jnsgd1na2vs0mg"},{"bike_id":"3064287c-8ed3-41e8-93b5-31fa274eed05","system_id":"levelo_inurba_marseille","lat":43.29499,"lon":5.40133,"is_reserved":false,"is_disabled":true,"rental_uris":{"android":"levelo://app?vid=3064287c-8ed3-41e8-93b5-31fa274eed05","ios":"levelo://app?vid=3064287c-8ed3-41e8-93b5-31fa274eed05"},"vehicle_type_id":"4","last_reported":1773923933,"current_range_meters":3200,"station_id":"","pricing_plan_id":"cebpf4jnsgd1na2vs0mg"},{"bike_id":"41293da5-265f-4a27-970a-22f367a32d70","system_id":"levelo_inurba_marseille","lat":43.29517,"lon":5.38989,"is_reserved":false,"is_disabled":false,"rental_uris":{"android":"levelo://app?vid=41293da5-265f-4a27-970a-22f367a32d70","ios":"levelo://app?vid=41293da5-265f-4a27-970a-22f367a32d70"},"vehicle_type_id":"4","last_reported":1773923933,"current_range_meters":3200,"station_id":"ce4bh3p2rcd13ifvqdp0","pricing_plan_id":"cebpf4jnsgd1na2vs0mg"},{"bike_id":"c9cfc67c-4e42-4833-b4ab-11ad690d27f6","system_id":"levelo_inurba_marseille","lat":43.33011,"lon":5.39021,"is_reserved":false,"is_disabled":false,"rental_uris":{"android":"levelo://app?vid=c9cfc67c-4e42-4833-b4ab-11ad690d27f6","ios":"levelo://app?vid=c9cfc67c-4e42-4833-b4ab-11ad690d27f6"},"vehicle_type_id":"4","last_reported":1773923933,"current_range_meters":3200,"station_id":"ce4bhr92rcd13ifvqhrg","pricing_plan_id":"cebpf4jnsgd1na2vs0mg"},{"bike_id":"660ea4b9-7cc9-491b-962c-bf31aaf8e594","system_id":"levelo_inurba_marseille","lat":43.26677,"lon":5.38262,"is_reserved":false,"is_disabled":false,"rental_uris":{"android":"levelo://app?vid=660ea4b9-7cc9-491b-962c-bf31aaf8e594","ios":"levelo://app?vid=660ea4b9-7cc9-491b-962c-bf31aaf8e594"},"vehicle_type_id":"4","last_reported":1773923933,"current_range_meters":3200,"station_id":"ce4bhg92rcd13ifvqf90","pricing_plan_id":"cebpf4jnsgd1na2vs0mg"},{"bike_id":"a39c2269-c1be-4679-b7ec-7b13e4b25bad","system_id":"levelo_inurba_marseille","lat":43.32506,"lon":5.38758,"is_reserved":false,"is_disabled":true,"rental_uris":{"android":"levelo://app?vid=a39c2269-c1be-4679-b7ec-7b13e4b25bad","ios":"levelo://app?vid=a39c2269-c1be-4679-b7ec-7b13e4b25bad"},"vehicle_type_id":"4","last_reported":1773923933,"current_range_meters":3200,"station_id":"","pricing_plan_id":"cebpf4jnsgd1na2vs0mg"},{"bike_id":"7e705a49-8577-4efb-800e-9454e2b092b4","system_id":"levelo_inurba_marseille","lat":43.28919,"lon":5.38401,"is_reserved":false,"is_disabled":false,"rental_uris":{"android":"levelo://app?vid=7e705a49-8577-4efb-800e-9454e2b092b4","ios":"levelo://app?vid=7e705a49-8577-4efb-800e-9454e2b092b4"},"vehicle_type_id":"4","last_reported":1773923933,"current_range_meters":3200,"station_id":"ce4bh612rcd13ifvqe6g","pricing_plan_id":"cebpf4jnsgd1na2vs0mg"},{"bike_id":"e656d3ad-209a-4011-847e-b1fe1da8bbd5","system_id":"levelo_inurba_marseille","lat":43.29256,"lon":5.38438,"is_reserved":false,"is_disabled":false,"rental_uris":{"android":"levelo://app?vid=e656d3ad-209a-4011-847e-b1fe1da8bbd5","ios":"levelo://app?vid=e656d3ad-209a-4011-847e-b1fe1da8bbd5"},"vehicle_type_id":"4","last_reported":1773923933,"current_range_meters":3600,"station_id":"ce4bh692rcd13ifvqea0","pricing_plan_id":"cebpf4jnsgd1na2vs0mg"},{"bike_id":"9ef9fd3b-08e1-41bf-bbd1-087477917b48","system_id":"levelo_inurba_marseille","lat":43.31219,"lon":5.36857,"is_reserved":false,"is_disabled":false,"rental_uris":{"android":"levelo://app?vid=9ef9fd3b-08e1-41bf-bbd1-087477917b48","ios":"levelo://app?vid=9ef9fd3b-08e1-41bf-bbd1-087477917b48"},"vehicle_type_id":"4","last_reported":1773923933,"current_range_meters":3600,"station_id":"ce4bgl92rcd13ifvqbq0","pricing_plan_id":"cebpf4jnsgd1na2vs0mg"},{"bike_id":"ccf4cbaf-a48e-4a3a-bd43-50421be7ff22","system_id":"levelo_inurba_marseille","lat":43.273315,"lon":5.390669,"is_reserved":false,"is_disabled":true,"rental_uris":{"android":"levelo://app?vid=ccf4cbaf-a48e-4a3a-bd43-50421be7ff22","ios":"levelo://app?vid=ccf4cbaf-a48e-4a3a-bd43-50421be7ff22"},"vehicle_type_id":"4","last_reported":1773923933,"current_range_meters":3600,"station_id":"ce4bhgp2rcd13ifvqfe0","pricing_plan_id":"cebpf4jnsgd1na2vs0mg"},{"bike_id":"1b1c91ee-b819-425b-84ab-0a4ba95f3d7d","system_id":"levelo_inurba_marseille","lat":43.30553,"lon":5.36692,"is_reserved":false,"is_disabled":false,"rental_uris":{"android":"levelo://app?vid=1b1c91ee-b819-425b-84ab-0a4ba95f3d7d","ios":"levelo://app?vid=1b1c91ee-b819-425b-84ab-0a4ba95f3d7d"},"vehicle_type_id":"4","last_reported":1773923933,"current_range_meters":3600,"station_id":"ce4bgrp2rcd13ifvqc9g","pricing_plan_id":"cebpf4jnsgd1na2vs0mg"},{"bike_id":"5f48b784-ccd6-4c4d-ba2a-b915cab8937a","system_id":"levelo_inurba_marseille","lat":43.24088,"lon":5.37757,"is_reserved":false,"is_disabled":false,"rental_uris":{"android":"levelo://app?vid=5f48b784-ccd6-4c4d-ba2a-b915cab8937a","ios":"levelo://app?vid=5f48b784-ccd6-4c4d-ba2a-b915cab8937a"},"vehicle_type_id":"4","last_reported":1773923933,"current_range_meters":3600,"station_id":"ce4bhnp2rcd13ifvqgvg","pricing_plan_id":"cebpf4jnsgd1na2vs0mg"},{"bike_id":"f6ee1884-654a-4cf1-9550-43571ed76b0f","system_id":"levelo_inurba_marseille","lat":43.31207,"lon":5.36906,"is_reserved":false,"is_disabled":false,"rental_uris":{"android":"levelo://app?vid=f6ee1884-654a-4cf1-9550-43571ed76b0f","ios":"levelo://app?vid=f6ee1884-654a-4cf1-9550-43571ed76b0f"},"vehicle_type_id":"4","last_reported":1773923933,"current_range_meters":3600,"station_id":"ce4bgl92rcd13ifvqbq0","pricing_plan_id":"cebpf4jnsgd1na2vs0mg"},{"bike_id":"388e29b7-7bd5-4812-8581-e7dff7df064b","system_id":"levelo_inurba_marseille","lat":43.30153,"lon":5.38066,"is_reserved":false,"is_disabled":false,"rental_uris":{"android":"levelo://app?vid=388e29b7-7bd5-4812-8581-e7dff7df064b","ios":"levelo://app?vid=388e29b7-7bd5-4812-8581-e7dff7df064b"},"vehicle_type_id":"4","last_reported":1773923933,"current_range_meters":3600,"station_id":"ce4bgjp2rcd13ifvqbh0","pricing_plan_id":"cebpf4jnsgd1na2vs0mg"},{"bike_id":"0e267261-1216-4822-b26d-f33039eb1f26","system_id":"levelo_inurba_marseille","lat":43.30305,"lon":5.37689,"is_reserved":false,"is_disabled":false,"rental_uris":{"android":"levelo://app?vid=0e267261-1216-4822-b26d-f33039eb1f26","ios":"levelo://app?vid=0e267261-1216-4822-b26d-f33039eb1f26"},"vehicle_type_id":"4","last_reported":1773923933,"current_range_meters":3600,"station_id":"ce4bguh2rcd13ifvqcj0","pricing_plan_id":"cebpf4jnsgd1na2vs0mg"},{"bike_id":"e107cb22-a13d-4c03-93ce-8114e06b9a0f","system_id":"levelo_inurba_marseille","lat":43.28485,"lon":5.484,"is_reserved":false,"is_disabled":false,"rental_uris":{"android":"levelo://app?vid=e107cb22-a13d-4c03-93ce-8114e06b9a0f","ios":"levelo://app?vid=e107cb22-a13d-4c03-93ce-8114e06b9a0f"},"vehicle_type_id":"4","last_reported":1773923933,"current_range_meters":3600,"station_id":"","pricing_plan_id":"cebpf4jnsgd1na2vs0mg"},{"bike_id":"b7c35fb5-76f0-4815-83b9-fe890c726000","system_id":"levelo_inurba_marseille","lat":43.31172,"lon":5.38717,"is_reserved":false,"is_disabled":false,"rental_uris":{"android":"levelo://app?vid=b7c35fb5-76f0-4815-83b9-fe890c726000","ios":"levelo://app?vid=b7c35fb5-76f0-4815-83b9-fe890c726000"},"vehicle_type_id":"4","last_reported":1773923933,"current_range_meters":3600,"station_id":"ce4bgv12rcd13ifvqcp0","pricing_plan_id":"cebpf4jnsgd1na2vs0mg"},{"bike_id":"cfdce506-53c0-43a3-87b3-4bedc753dd06","system_id":"levelo_inurba_marseille","lat":43.29975,"lon":5.3849,"is_reserved":false,"is_disabled":false,"rental_uris":{"android":"levelo://app?vid=cfdce506-53c0-43a3-87b3-4bedc753dd06","ios":"levelo://app?vid=cfdce506-53c0-43a3-87b3-4bedc753dd06"},"vehicle_type_id":"4","last_reported":1773923933,"current_range_meters":3600,"station_id":"ce4bgj92rcd13ifvqbd0","pricing_plan_id":"cebpf4jnsgd1na2vs0mg"},{"bike_id":"2ef805d9-30ed-458c-b20f-4a2e59ed9e83","system_id":"levelo_inurba_marseille","lat":43.24056,"lon":5.37751,"is_reserved":false,"is_disabled":false,"rental_uris":{"android":"levelo://app?vid=2ef805d9-30ed-458c-b20f-4a2e59ed9e83","ios":"levelo://app?vid=2ef805d9-30ed-458c-b20f-4a2e59ed9e83"},"vehicle_type_id":"4","last_reported":1773923933,"current_range_meters":3600,"station_id":"ce4bhnp2rcd13ifvqgvg","pricing_plan_id":"cebpf4jnsgd1na2vs0mg"},{"bike_id":"779b8a3c-1846-46b5-9cab-bf0ec2b1118f","system_id":"levelo_inurba_marseille","lat":43.28495,"lon":5.48372,"is_reserved":false,"is_disabled":false,"rental_uris":{"android":"levelo://app?vid=779b8a3c-1846-46b5-9cab-bf0ec2b1118f","ios":"levelo://app?vid=779b8a3c-1846-46b5-9cab-bf0ec2b1118f"},"vehicle_type_id":"4","last_reported":1773923933,"current_range_meters":3600,"station_id":"st_d3svhcjqgbts73a3dn0g","pricing_plan_id":"cebpf4jnsgd1na2vs0mg"},{"bike_id":"ce5017e4-4731-42d3-96f5-9562177b8a4b","system_id":"levelo_inurba_marseille","lat":43.26137,"lon":5.38721,"is_reserved":false,"is_disabled":false,"rental_uris":{"android":"levelo://app?vid=ce5017e4-4731-42d3-96f5-9562177b8a4b","ios":"levelo://app?vid=ce5017e4-4731-42d3-96f5-9562177b8a4b"},"vehicle_type_id":"4","last_reported":1773923933,"current_range_meters":4000,"station_id":"","pricing_plan_id":"cebpf4jnsgd1na2vs0mg"},{"bike_id":"c0ce446a-9085-4968-895d-00725cc652ae","system_id":"levelo_inurba_marseille","lat":43.29552,"lon":5.42282,"is_reserved":false,"is_disabled":false,"rental_uris":{"android":"levelo://app?vid=c0ce446a-9085-4968-895d-00725cc652ae","ios":"levelo://app?vid=c0ce446a-9085-4968-895d-00725cc652ae"},"vehicle_type_id":"4","last_reported":1773923933,"current_range_meters":4000,"station_id":"ce4bhph2rcd13ifvqhdg","pricing_plan_id":"cebpf4jnsgd1na2vs0mg"},{"bike_id":"ad1e9f99-6bd1-4b5c-a1ba-31037e1b6563","system_id":"levelo_inurba_marseille","lat":43.3024,"lon":5.40073,"is_reserved":false,"is_disabled":true,"rental_uris":{"android":"levelo://app?vid=ad1e9f99-6bd1-4b5c-a1ba-31037e1b6563","ios":"levelo://app?vid=ad1e9f99-6bd1-4b5c-a1ba-31037e1b6563"},"vehicle_type_id":"4","last_reported":1773923933,"current_range_meters":4000,"station_id":"ce4bgvh2rcd13ifvqcs0","pricing_plan_id":"cebpf4jnsgd1na2vs0mg"},{"bike_id":"f992aeeb-d813-4a07-b667-bac32cecf243","system_id":"levelo_inurba_marseille","lat":43.28154,"lon":5.42643,"is_reserved":false,"is_disabled":false,"rental_uris":{"android":"levelo://app?vid=f992aeeb-d813-4a07-b667-bac32cecf243","ios":"levelo://app?vid=f992aeeb-d813-4a07-b667-bac32cecf243"},"vehicle_type_id":"4","last_reported":1773923933,"current_range_meters":4000,"station_id":"ce4bhnh2rcd13ifvqgug","pricing_plan_id":"cebpf4jnsgd1na2vs0mg"},{"bike_id":"a9d31829-7e0d-482f-af05-97ddd320ae16","system_id":"levelo_inurba_marseille","lat":43.298,"lon":5.42703,"is_reserved":false,"is_disabled":true,"rental_uris":{"android":"levelo://app?vid=a9d31829-7e0d-482f-af05-97ddd320ae16","ios":"levelo://app?vid=a9d31829-7e0d-482f-af05-97ddd320ae16"},"vehicle_type_id":"4","last_reported":1773923933,"current_range_meters":4000,"station_id":"","pricing_plan_id":"cebpf4jnsgd1na2vs0mg"},{"bike_id":"5bd8abc7-3678-4a26-92ef-cd8e416f7a05","system_id":"levelo_inurba_marseille","lat":43.30552,"lon":5.36696,"is_reserved":false,"is_disabled":false,"rental_uris":{"android":"levelo://app?vid=5bd8abc7-3678-4a26-92ef-cd8e416f7a05","ios":"levelo://app?vid=5bd8abc7-3678-4a26-92ef-cd8e416f7a05"},"vehicle_type_id":"4","last_reported":1773923933,"current_range_meters":4000,"station_id":"ce4bgrp2rcd13ifvqc9g","pricing_plan_id":"cebpf4jnsgd1na2vs0mg"},{"bike_id":"510e1ab9-691f-4a41-b959-ea8d8467b9fb","system_id":"levelo_inurba_marseille","lat":43.29303,"lon":5.37424,"is_reserved":false,"is_disabled":false,"rental_uris":{"android":"levelo://app?vid=510e1ab9-691f-4a41-b959-ea8d8467b9fb","ios":"levelo://app?vid=510e1ab9-691f-4a41-b959-ea8d8467b9fb"},"vehicle_type_id":"4","last_reported":1773923933,"current_range_meters":4000,"station_id":"ce4bgi12rcd13ifvqb70","pricing_plan_id":"cebpf4jnsgd1na2vs0mg"},{"bike_id":"040f0886-4e83-4b00-9834-a5677c794e8f","system_id":"levelo_inurba_marseille","lat":43.26949,"lon":5.38622,"is_reserved":false,"is_disabled":false,"rental_uris":{"android":"levelo://app?vid=040f0886-4e83-4b00-9834-a5677c794e8f","ios":"levelo://app?vid=040f0886-4e83-4b00-9834-a5677c794e8f"},"vehicle_type_id":"4","last_reported":1773923933,"current_range_meters":4000,"station_id":"ce4bhh92rcd13ifvqfh0","pricing_plan_id":"cebpf4jnsgd1na2vs0mg"},{"bike_id":"084697b5-723d-43e0-be94-a0a2b5ad077d","system_id":"levelo_inurba_marseille","lat":43.30123,"lon":5.37442,"is_reserved":false,"is_disabled":false,"rental_uris":{"android":"levelo://app?vid=084697b5-723d-43e0-be94-a0a2b5ad077d","ios":"levelo://app?vid=084697b5-723d-43e0-be94-a0a2b5ad077d"},"vehicle_type_id":"4","last_reported":1773923933,"current_range_meters":4000,"station_id":"ce4bgs92rcd13ifvqcc0","pricing_plan_id":"cebpf4jnsgd1na2vs0mg"},{"bike_id":"768a8c01-41df-42a9-9687-055ac84fde99","system_id":"levelo_inurba_marseille","lat":43.24664,"lon":5.3889,"is_reserved":false,"is_disabled":false,"rental_uris":{"android":"levelo://app?vid=768a8c01-41df-42a9-9687-055ac84fde99","ios":"levelo://app?vid=768a8c01-41df-42a9-9687-055ac84fde99"},"vehicle_type_id":"4","last_reported":1773923933,"current_range_meters":4000,"station_id":"ce4bhg12rcd13ifvqf60","pricing_plan_id":"cebpf4jnsgd1na2vs0mg"},{"bike_id":"ec353870-38d4-45b2-8733-694b6044316c","system_id":"levelo_inurba_marseille","lat":43.31404,"lon":5.36658,"is_reserved":false,"is_disabled":false,"rental_uris":{"android":"levelo://app?vid=ec353870-38d4-45b2-8733-694b6044316c","ios":"levelo://app?vid=ec353870-38d4-45b2-8733-694b6044316c"},"vehicle_type_id":"4","last_reported":1773923933,"current_range_meters":4000,"station_id":"","pricing_plan_id":"cebpf4jnsgd1na2vs0mg"},{"bike_id":"de4bd302-e8bc-4d2e-813f-dae2764843a8","system_id":"levelo_inurba_marseille","lat":43.30147,"lon":5.38776,"is_reserved":false,"is_disabled":false,"rental_uris":{"android":"levelo://app?vid=de4bd302-e8bc-4d2e-813f-dae2764843a8","ios":"levelo://app?vid=de4bd302-e8bc-4d2e-813f-dae2764843a8"},"vehicle_type_id":"4","last_reported":1773923933,"current_range_meters":4000,"station_id":"ce4bghh2rcd13ifvqb60","pricing_plan_id":"cebpf4jnsgd1na2vs0mg"},{"bike_id":"0627c685-b16e-4ceb-ae93-398e07f18378","system_id":"levelo_inurba_marseille","lat":43.29275,"lon":5.36839,"is_reserved":false,"is_disabled":false,"rental_uris":{"android":"levelo://app?vid=0627c685-b16e-4ceb-ae93-398e07f18378","ios":"levelo://app?vid=0627c685-b16e-4ceb-ae93-398e07f18378"},"vehicle_type_id":"4","last_reported":1773923933,"current_range_meters":4400,"station_id":"ce4bhbp2rcd13ifvqesg","pricing_plan_id":"cebpf4jnsgd1na2vs0mg"},{"bike_id":"85cf966e-8410-4382-ad1a-bf9f9335b2f6","system_id":"levelo_inurba_marseille","lat":43.30623,"lon":5.43224,"is_reserved":false,"is_disabled":false,"rental_uris":{"android":"levelo://app?vid=85cf966e-8410-4382-ad1a-bf9f9335b2f6","ios":"levelo://app?vid=85cf966e-8410-4382-ad1a-bf9f9335b2f6"},"vehicle_type_id":"4","last_reported":1773923933,"current_range_meters":4400,"station_id":"","pricing_plan_id":"cebpf4jnsgd1na2vs0mg"},{"bike_id":"b5e19bf2-dbc7-4806-bbc0-08a12463d957","system_id":"levelo_inurba_marseille","lat":43.26684,"lon":5.38263,"is_reserved":false,"is_disabled":false,"rental_uris":{"android":"levelo://app?vid=b5e19bf2-dbc7-4806-bbc0-08a12463d957","ios":"levelo://app?vid=b5e19bf2-dbc7-4806-bbc0-08a12463d957"},"vehicle_type_id":"4","last_reported":1773923933,"current_range_meters":4400,"station_id":"ce4bhg92rcd13ifvqf90","pricing_plan_id":"cebpf4jnsgd1na2vs0mg"},{"bike_id":"2cd6d2c4-9839-4b08-8d75-805c4c2214dc","system_id":"levelo_inurba_marseille","lat":43.23047,"lon":5.35497,"is_reserved":false,"is_disabled":false,"rental_uris":{"android":"levelo://app?vid=2cd6d2c4-9839-4b08-8d75-805c4c2214dc","ios":"levelo://app?vid=2cd6d2c4-9839-4b08-8d75-805c4c2214dc"},"vehicle_type_id":"4","last_reported":1773923933,"current_range_meters":4400,"station_id":"cpo3342slgdg3j2ifvpg","pricing_plan_id":"cebpf4jnsgd1na2vs0mg"},{"bike_id":"ad4881c9-943d-45b9-888f-a994c592c8c5","system_id":"levelo_inurba_marseille","lat":43.24069,"lon":5.37762,"is_reserved":false,"is_disabled":false,"rental_uris":{"android":"levelo://app?vid=ad4881c9-943d-45b9-888f-a994c592c8c5","ios":"levelo://app?vid=ad4881c9-943d-45b9-888f-a994c592c8c5"},"vehicle_type_id":"4","last_reported":1773923933,"current_range_meters":4400,"station_id":"ce4bhnp2rcd13ifvqgvg","pricing_plan_id":"cebpf4jnsgd1na2vs0mg"},{"bike_id":"d0b1f448-6af4-4ef1-a755-e03baf4488aa","system_id":"levelo_inurba_marseille","lat":43.29256,"lon":5.35732,"is_reserved":false,"is_disabled":false,"rental_uris":{"android":"levelo://app?vid=d0b1f448-6af4-4ef1-a755-e03baf4488aa","ios":"levelo://app?vid=d0b1f448-6af4-4ef1-a755-e03baf4488aa"},"vehicle_type_id":"4","last_reported":1773923933,"current_range_meters":4400,"station_id":"","pricing_plan_id":"cebpf4jnsgd1na2vs0mg"},{"bike_id":"d91ef9bb-b1d9-417a-ba44-a91b578a2bea","system_id":"levelo_inurba_marseille","lat":43.29295,"lon":5.37439,"is_reserved":false,"is_disabled":false,"rental_uris":{"android":"levelo://app?vid=d91ef9bb-b1d9-417a-ba44-a91b578a2bea","ios":"levelo://app?vid=d91ef9bb-b1d9-417a-ba44-a91b578a2bea"},"vehicle_type_id":"4","last_reported":1773923933,"current_range_meters":4400,"station_id":"ce4bgi12rcd13ifvqb70","pricing_plan_id":"cebpf4jnsgd1na2vs0mg"},{"bike_id":"74807e9c-7061-43ed-a53a-8f5de62805e4","system_id":"levelo_inurba_marseille","lat":43.2638,"lon":5.41062,"is_reserved":false,"is_disabled":false,"rental_uris":{"android":"levelo://app?vid=74807e9c-7061-43ed-a53a-8f5de62805e4","ios":"levelo://app?vid=74807e9c-7061-43ed-a53a-8f5de62805e4"},"vehicle_type_id":"4","last_reported":1773923933,"current_range_meters":4800,"station_id":"st_d4e5ca6na9uc73bfl5fg","pricing_plan_id":"cebpf4jnsgd1na2vs0mg"},{"bike_id":"023876ac-2218-4ff6-98a1-8a684c19ae77","system_id":"levelo_inurba_marseille","lat":43.24068,"lon":5.37733,"is_reserved":false,"is_disabled":false,"rental_uris":{"android":"levelo://app?vid=023876ac-2218-4ff6-98a1-8a684c19ae77","ios":"levelo://app?vid=023876ac-2218-4ff6-98a1-8a684c19ae77"},"vehicle_type_id":"4","last_reported":1773923933,"current_range_meters":4800,"station_id":"ce4bhnp2rcd13ifvqgvg","pricing_plan_id":"cebpf4jnsgd1na2vs0mg"},{"bike_id":"24d974e5-bba3-4c89-b8a7-c466f3f80f92","system_id":"levelo_inurba_marseille","lat":43.30556,"lon":5.36703,"is_reserved":false,"is_disabled":false,"rental_uris":{"android":"levelo://app?vid=24d974e5-bba3-4c89-b8a7-c466f3f80f92","ios":"levelo://app?vid=24d974e5-bba3-4c89-b8a7-c466f3f80f92"},"vehicle_type_id":"4","last_reported":1773923933,"current_range_meters":4800,"station_id":"ce4bgrp2rcd13ifvqc9g","pricing_plan_id":"cebpf4jnsgd1na2vs0mg"},{"bike_id":"f84b01ca-a305-48c8-abb1-5fe4887deffc","system_id":"levelo_inurba_marseille","lat":43.2316,"lon":5.43685,"is_reserved":false,"is_disabled":false,"rental_uris":{"android":"levelo://app?vid=f84b01ca-a305-48c8-abb1-5fe4887deffc","ios":"levelo://app?vid=f84b01ca-a305-48c8-abb1-5fe4887deffc"},"vehicle_type_id":"4","last_reported":1773923933,"current_range_meters":4800,"station_id":"ce4bhmp2rcd13ifvqgog","pricing_plan_id":"cebpf4jnsgd1na2vs0mg"},{"bike_id":"48816ab6-5a72-4c3e-9cb1-1145e902b309","system_id":"levelo_inurba_marseille","lat":43.29007,"lon":5.35606,"is_reserved":false,"is_disabled":false,"rental_uris":{"android":"levelo://app?vid=48816ab6-5a72-4c3e-9cb1-1145e902b309","ios":"levelo://app?vid=48816ab6-5a72-4c3e-9cb1-1145e902b309"},"vehicle_type_id":"4","last_reported":1773923933,"current_range_meters":4800,"station_id":"ce4bhb92rcd13ifvqen0","pricing_plan_id":"cebpf4jnsgd1na2vs0mg"},{"bike_id":"88db41f5-96f3-4155-a4d0-ecc56f594edb","system_id":"levelo_inurba_marseille","lat":43.22933,"lon":5.35364,"is_reserved":false,"is_disabled":false,"rental_uris":{"android":"levelo://app?vid=88db41f5-96f3-4155-a4d0-ecc56f594edb","ios":"levelo://app?vid=88db41f5-96f3-4155-a4d0-ecc56f594edb"},"vehicle_type_id":"4","last_reported":1773923933,"current_range_meters":4800,"station_id":"cpo3532slgdg3j2ikp40","pricing_plan_id":"cebpf4jnsgd1na2vs0mg"},{"bike_id":"fad8e96d-acb2-4874-9608-7180f6b034b8","system_id":"levelo_inurba_marseille","lat":43.29148,"lon":5.408,"is_reserved":false,"is_disabled":false,"rental_uris":{"android":"levelo://app?vid=fad8e96d-acb2-4874-9608-7180f6b034b8","ios":"levelo://app?vid=fad8e96d-acb2-4874-9608-7180f6b034b8"},"vehicle_type_id":"4","last_reported":1773923933,"current_range_meters":4800,"station_id":"","pricing_plan_id":"cebpf4jnsgd1na2vs0mg"},{"bike_id":"447b11a1-21b5-4523-80dc-ebe593853403","system_id":"levelo_inurba_marseille","lat":43.29132,"lon":5.42614,"is_reserved":false,"is_disabled":false,"rental_uris":{"android":"levelo://app?vid=447b11a1-21b5-4523-80dc-ebe593853403","ios":"levelo://app?vid=447b11a1-21b5-4523-80dc-ebe593853403"},"vehicle_type_id":"4","last_reported":1773923933,"current_range_meters":4800,"station_id":"","pricing_plan_id":"cebpf4jnsgd1na2vs0mg"},{"bike_id":"0abe31bb-0dab-4e84-be9a-8c4a6d744106","system_id":"levelo_inurba_marseille","lat":43.30966,"lon":5.39061,"is_reserved":false,"is_disabled":false,"rental_uris":{"android":"levelo://app?vid=0abe31bb-0dab-4e84-be9a-8c4a6d744106","ios":"levelo://app?vid=0abe31bb-0dab-4e84-be9a-8c4a6d744106"},"vehicle_type_id":"4","last_reported":1773923933,"current_range_meters":4800,"station_id":"ce4bgup2rcd13ifvqco0","pricing_plan_id":"cebpf4jnsgd1na2vs0mg"},{"bike_id":"a7d185cf-e8e4-42b9-a686-630869c71f9c","system_id":"levelo_inurba_marseille","lat":43.30138,"lon":5.3877,"is_reserved":false,"is_disabled":false,"rental_uris":{"android":"levelo://app?vid=a7d185cf-e8e4-42b9-a686-630869c71f9c","ios":"levelo://app?vid=a7d185cf-e8e4-42b9-a686-630869c71f9c"},"vehicle_type_id":"4","last_reported":1773923933,"current_range_meters":5600,"station_id":"ce4bghh2rcd13ifvqb60","pricing_plan_id":"cebpf4jnsgd1na2vs0mg"},{"bike_id":"3903529a-97cf-43f8-9c3a-f35f9c9bbdf2","system_id":"levelo_inurba_marseille","lat":43.31359,"lon":5.3671,"is_reserved":false,"is_disabled":true,"rental_uris":{"android":"levelo://app?vid=3903529a-97cf-43f8-9c3a-f35f9c9bbdf2","ios":"levelo://app?vid=3903529a-97cf-43f8-9c3a-f35f9c9bbdf2"},"vehicle_type_id":"4","last_reported":1773923933,"current_range_meters":5600,"station_id":"ce4bgr92rcd13ifvqc6g","pricing_plan_id":"cebpf4jnsgd1na2vs0mg"},{"bike_id":"eabf8e41-a27c-4d5b-84c1-d95bcff48f69","system_id":"levelo_inurba_marseille","lat":43.260314,"lon":5.375445,"is_reserved":false,"is_disabled":false,"rental_uris":{"android":"levelo://app?vid=eabf8e41-a27c-4d5b-84c1-d95bcff48f69","ios":"levelo://app?vid=eabf8e41-a27c-4d5b-84c1-d95bcff48f69"},"vehicle_type_id":"4","last_reported":1773923933,"current_range_meters":5600,"station_id":"ce4bhgh2rcd13ifvqfa0","pricing_plan_id":"cebpf4jnsgd1na2vs0mg"},{"bike_id":"1c51670a-46e5-4a0c-9d9c-3c2806d077a8","system_id":"levelo_inurba_marseille","lat":43.29031,"lon":5.3813,"is_reserved":false,"is_disabled":true,"rental_uris":{"android":"levelo://app?vid=1c51670a-46e5-4a0c-9d9c-3c2806d077a8","ios":"levelo://app?vid=1c51670a-46e5-4a0c-9d9c-3c2806d077a8"},"vehicle_type_id":"4","last_reported":1773923933,"current_range_meters":5600,"station_id":"ce4bh4p2rcd13ifvqe1g","pricing_plan_id":"cebpf4jnsgd1na2vs0mg"},{"bike_id":"13ad50bf-7f2f-4ad1-a82f-209db682ff58","system_id":"levelo_inurba_marseille","lat":43.26569,"lon":5.39013,"is_reserved":false,"is_disabled":true,"rental_uris":{"android":"levelo://app?vid=13ad50bf-7f2f-4ad1-a82f-209db682ff58","ios":"levelo://app?vid=13ad50bf-7f2f-4ad1-a82f-209db682ff58"},"vehicle_type_id":"4","last_reported":1773923933,"current_range_meters":5600,"station_id":"ce4bhe12rcd13ifvqf30","pricing_plan_id":"cebpf4jnsgd1na2vs0mg"},{"bike_id":"f951d561-3df9-4bef-8f72-0394f3c5da50","system_id":"levelo_inurba_marseille","lat":43.31877,"lon":5.40731,"is_reserved":false,"is_disabled":false,"rental_uris":{"android":"levelo://app?vid=f951d561-3df9-4bef-8f72-0394f3c5da50","ios":"levelo://app?vid=f951d561-3df9-4bef-8f72-0394f3c5da50"},"vehicle_type_id":"4","last_reported":1773923933,"current_range_meters":5600,"station_id":"ce4bhq12rcd13ifvqhig","pricing_plan_id":"cebpf4jnsgd1na2vs0mg"},{"bike_id":"95d31319-d36d-403e-adf6-0b51cdaa5b1b","system_id":"levelo_inurba_marseille","lat":43.31439,"lon":5.39231,"is_reserved":false,"is_disabled":true,"rental_uris":{"android":"levelo://app?vid=95d31319-d36d-403e-adf6-0b51cdaa5b1b","ios":"levelo://app?vid=95d31319-d36d-403e-adf6-0b51cdaa5b1b"},"vehicle_type_id":"4","last_reported":1773923933,"current_range_meters":5600,"station_id":"","pricing_plan_id":"cebpf4jnsgd1na2vs0mg"},{"bike_id":"8fc815a0-27f7-46c6-94ce-1771649a634a","system_id":"levelo_inurba_marseille","lat":43.29299,"lon":5.36824,"is_reserved":false,"is_disabled":false,"rental_uris":{"android":"levelo://app?vid=8fc815a0-27f7-46c6-94ce-1771649a634a","ios":"levelo://app?vid=8fc815a0-27f7-46c6-94ce-1771649a634a"},"vehicle_type_id":"4","last_reported":1773923933,"current_range_meters":5600,"station_id":"ce4bhbp2rcd13ifvqesg","pricing_plan_id":"cebpf4jnsgd1na2vs0mg"},{"bike_id":"20efb3b1-4cf9-43ed-8def-69982177d42a","system_id":"levelo_inurba_marseille","lat":43.30144,"lon":5.38087,"is_reserved":false,"is_disabled":false,"rental_uris":{"android":"levelo://app?vid=20efb3b1-4cf9-43ed-8def-69982177d42a","ios":"levelo://app?vid=20efb3b1-4cf9-43ed-8def-69982177d42a"},"vehicle_type_id":"4","last_reported":1773923933,"current_range_meters":5600,"station_id":"ce4bgjp2rcd13ifvqbh0","pricing_plan_id":"cebpf4jnsgd1na2vs0mg"},{"bike_id":"89390251-13d6-48a3-9f5a-85c6e8954d53","system_id":"levelo_inurba_marseille","lat":43.26226,"lon":5.3743,"is_reserved":false,"is_disabled":false,"rental_uris":{"android":"levelo://app?vid=89390251-13d6-48a3-9f5a-85c6e8954d53","ios":"levelo://app?vid=89390251-13d6-48a3-9f5a-85c6e8954d53"},"vehicle_type_id":"4","last_reported":1773923933,"current_range_meters":6000,"station_id":"","pricing_plan_id":"cebpf4jnsgd1na2vs0mg"},{"bike_id":"1fdbd032-af28-4158-a02e-01bb107fd2a7","system_id":"levelo_inurba_marseille","lat":43.337444,"lon":5.374475,"is_reserved":false,"is_disabled":false,"rental_uris":{"android":"levelo://app?vid=1fdbd032-af28-4158-a02e-01bb107fd2a7","ios":"levelo://app?vid=1fdbd032-af28-4158-a02e-01bb107fd2a7"},"vehicle_type_id":"4","last_reported":1773923933,"current_range_meters":6000,"station_id":"","pricing_plan_id":"cebpf4jnsgd1na2vs0mg"},{"bike_id":"bc6abf47-3667-49d3-b66c-7e7bfd576f7f","system_id":"levelo_inurba_marseille","lat":43.30883,"lon":5.39642,"is_reserved":false,"is_disabled":false,"rental_uris":{"android":"levelo://app?vid=bc6abf47-3667-49d3-b66c-7e7bfd576f7f","ios":"levelo://app?vid=bc6abf47-3667-49d3-b66c-7e7bfd576f7f"},"vehicle_type_id":"4","last_reported":1773923933,"current_range_meters":6000,"station_id":"ce4bh012rcd13ifvqcv0","pricing_plan_id":"cebpf4jnsgd1na2vs0mg"},{"bike_id":"506661fa-d7d4-473c-8038-c16d45410fe8","system_id":"levelo_inurba_marseille","lat":43.28862,"lon":5.42518,"is_reserved":false,"is_disabled":false,"rental_uris":{"android":"levelo://app?vid=506661fa-d7d4-473c-8038-c16d45410fe8","ios":"levelo://app?vid=506661fa-d7d4-473c-8038-c16d45410fe8"},"vehicle_type_id":"4","last_reported":1773923933,"current_range_meters":6000,"station_id":"","pricing_plan_id":"cebpf4jnsgd1na2vs0mg"},{"bike_id":"59c35847-171a-4f55-a56e-6545992f0e75","system_id":"levelo_inurba_marseille","lat":43.29006,"lon":5.35619,"is_reserved":false,"is_disabled":false,"rental_uris":{"android":"levelo://app?vid=59c35847-171a-4f55-a56e-6545992f0e75","ios":"levelo://app?vid=59c35847-171a-4f55-a56e-6545992f0e75"},"vehicle_type_id":"4","last_reported":1773923933,"current_range_meters":6000,"station_id":"ce4bhb92rcd13ifvqen0","pricing_plan_id":"cebpf4jnsgd1na2vs0mg"},{"bike_id":"1aff8517-7e68-4410-bc2a-243fc03b5f61","system_id":"levelo_inurba_marseille","lat":43.30945,"lon":5.39042,"is_reserved":false,"is_disabled":false,"rental_uris":{"android":"levelo://app?vid=1aff8517-7e68-4410-bc2a-243fc03b5f61","ios":"levelo://app?vid=1aff8517-7e68-4410-bc2a-243fc03b5f61"},"vehicle_type_id":"4","last_reported":1773923933,"current_range_meters":6000,"station_id":"ce4bgup2rcd13ifvqco0","pricing_plan_id":"cebpf4jnsgd1na2vs0mg"},{"bike_id":"caf5e45c-f3f2-43eb-99a6-b11ec33451e8","system_id":"levelo_inurba_marseille","lat":43.23984,"lon":5.36597,"is_reserved":false,"is_disabled":false,"rental_uris":{"android":"levelo://app?vid=caf5e45c-f3f2-43eb-99a6-b11ec33451e8","ios":"levelo://app?vid=caf5e45c-f3f2-43eb-99a6-b11ec33451e8"},"vehicle_type_id":"4","last_reported":1773923933,"current_range_meters":6000,"station_id":"ce4bhi12rcd13ifvqfp0","pricing_plan_id":"cebpf4jnsgd1na2vs0mg"},{"bike_id":"dd8390c9-eed9-4b5d-95df-1b40250bc11f","system_id":"levelo_inurba_marseille","lat":43.21614,"lon":5.34555,"is_reserved":false,"is_disabled":false,"rental_uris":{"android":"levelo://app?vid=dd8390c9-eed9-4b5d-95df-1b40250bc11f","ios":"levelo://app?vid=dd8390c9-eed9-4b5d-95df-1b40250bc11f"},"vehicle_type_id":"4","last_reported":1773923933,"current_range_meters":6000,"station_id":"","pricing_plan_id":"cebpf4jnsgd1na2vs0mg"},{"bike_id":"9d704b2a-24c7-413b-8b42-4ce99d2a7a79","system_id":"levelo_inurba_marseille","lat":43.286621,"lon":5.386718,"is_reserved":false,"is_disabled":false,"rental_uris":{"android":"levelo://app?vid=9d704b2a-24c7-413b-8b42-4ce99d2a7a79","ios":"levelo://app?vid=9d704b2a-24c7-413b-8b42-4ce99d2a7a79"},"vehicle_type_id":"4","last_reported":1773923933,"current_range_meters":6000,"station_id":"ce4bh492rcd13ifvqdug","pricing_plan_id":"cebpf4jnsgd1na2vs0mg"},{"bike_id":"81150eba-c3ac-4a60-8630-bd89ee3a6525","system_id":"levelo_inurba_marseille","lat":43.31358,"lon":5.36982,"is_reserved":false,"is_disabled":false,"rental_uris":{"android":"levelo://app?vid=81150eba-c3ac-4a60-8630-bd89ee3a6525","ios":"levelo://app?vid=81150eba-c3ac-4a60-8630-bd89ee3a6525"},"vehicle_type_id":"4","last_reported":1773923933,"current_range_meters":6000,"station_id":"","pricing_plan_id":"cebpf4jnsgd1na2vs0mg"},{"bike_id":"e8f68560-d2fe-4e28-9005-18cd7d63a016","system_id":"levelo_inurba_marseille","lat":43.26506,"lon":5.39518,"is_reserved":false,"is_disabled":false,"rental_uris":{"android":"levelo://app?vid=e8f68560-d2fe-4e28-9005-18cd7d63a016","ios":"levelo://app?vid=e8f68560-d2fe-4e28-9005-18cd7d63a016"},"vehicle_type_id":"4","last_reported":1773923933,"current_range_meters":6000,"station_id":"ce4bhi12rcd13ifvqfq0","pricing_plan_id":"cebpf4jnsgd1na2vs0mg"},{"bike_id":"69eb8448-c0e0-496f-831c-8ada77fd31e2","system_id":"levelo_inurba_marseille","lat":43.2306,"lon":5.35487,"is_reserved":false,"is_disabled":false,"rental_uris":{"android":"levelo://app?vid=69eb8448-c0e0-496f-831c-8ada77fd31e2","ios":"levelo://app?vid=69eb8448-c0e0-496f-831c-8ada77fd31e2"},"vehicle_type_id":"4","last_reported":1773923933,"current_range_meters":6400,"station_id":"cpo3342slgdg3j2ifvpg","pricing_plan_id":"cebpf4jnsgd1na2vs0mg"},{"bike_id":"62d98d5f-1b24-43c0-ace6-838e955fc118","system_id":"levelo_inurba_marseille","lat":43.24473,"lon":5.42529,"is_reserved":false,"is_disabled":false,"rental_uris":{"android":"levelo://app?vid=62d98d5f-1b24-43c0-ace6-838e955fc118","ios":"levelo://app?vid=62d98d5f-1b24-43c0-ace6-838e955fc118"},"vehicle_type_id":"4","last_reported":1773923933,"current_range_meters":6400,"station_id":"st_d4a3vfp97mjs738cd8kg","pricing_plan_id":"cebpf4jnsgd1na2vs0mg"},{"bike_id":"0ee4ce16-829f-49ee-9a2a-4b4670dfbc6f","system_id":"levelo_inurba_marseille","lat":43.28469,"lon":5.48414,"is_reserved":false,"is_disabled":false,"rental_uris":{"android":"levelo://app?vid=0ee4ce16-829f-49ee-9a2a-4b4670dfbc6f","ios":"levelo://app?vid=0ee4ce16-829f-49ee-9a2a-4b4670dfbc6f"},"vehicle_type_id":"4","last_reported":1773923933,"current_range_meters":6400,"station_id":"st_d3svhcjqgbts73a3dn0g","pricing_plan_id":"cebpf4jnsgd1na2vs0mg"},{"bike_id":"6f0da953-2adc-429d-bb7c-360d8a3447c9","system_id":"levelo_inurba_marseille","lat":43.27497,"lon":5.41592,"is_reserved":false,"is_disabled":false,"rental_uris":{"android":"levelo://app?vid=6f0da953-2adc-429d-bb7c-360d8a3447c9","ios":"levelo://app?vid=6f0da953-2adc-429d-bb7c-360d8a3447c9"},"vehicle_type_id":"4","last_reported":1773923933,"current_range_meters":6400,"station_id":"st_d6im8g6chgec73a5pndg","pricing_plan_id":"cebpf4jnsgd1na2vs0mg"},{"bike_id":"6cda15e7-fe2d-4eca-9a9a-008e31fbee7c","system_id":"levelo_inurba_marseille","lat":43.24674,"lon":5.38136,"is_reserved":false,"is_disabled":true,"rental_uris":{"android":"levelo://app?vid=6cda15e7-fe2d-4eca-9a9a-008e31fbee7c","ios":"levelo://app?vid=6cda15e7-fe2d-4eca-9a9a-008e31fbee7c"},"vehicle_type_id":"4","last_reported":1773923933,"current_range_meters":6400,"station_id":"ce4bhih2rcd13ifvqfr0","pricing_plan_id":"cebpf4jnsgd1na2vs0mg"},{"bike_id":"73e44213-1cd8-4593-a09e-a9c4a914a5d2","system_id":"levelo_inurba_marseille","lat":43.28475,"lon":5.48383,"is_reserved":false,"is_disabled":false,"rental_uris":{"android":"levelo://app?vid=73e44213-1cd8-4593-a09e-a9c4a914a5d2","ios":"levelo://app?vid=73e44213-1cd8-4593-a09e-a9c4a914a5d2"},"vehicle_type_id":"4","last_reported":1773923933,"current_range_meters":6400,"station_id":"","pricing_plan_id":"cebpf4jnsgd1na2vs0mg"},{"bike_id":"78c86868-a79f-4f2a-bb9a-961b0f22d36b","system_id":"levelo_inurba_marseille","lat":43.29974,"lon":5.38622,"is_reserved":false,"is_disabled":false,"rental_uris":{"android":"levelo://app?vid=78c86868-a79f-4f2a-bb9a-961b0f22d36b","ios":"levelo://app?vid=78c86868-a79f-4f2a-bb9a-961b0f22d36b"},"vehicle_type_id":"4","last_reported":1773923933,"current_range_meters":6400,"station_id":"","pricing_plan_id":"cebpf4jnsgd1na2vs0mg"},{"bike_id":"3082e324-ebec-48f7-8c3a-6df4361d432d","system_id":"levelo_inurba_marseille","lat":43.30322,"lon":5.40431,"is_reserved":false,"is_disabled":false,"rental_uris":{"android":"levelo://app?vid=3082e324-ebec-48f7-8c3a-6df4361d432d","ios":"levelo://app?vid=3082e324-ebec-48f7-8c3a-6df4361d432d"},"vehicle_type_id":"4","last_reported":1773923933,"current_range_meters":6400,"station_id":"ce4bh012rcd13ifvqd10","pricing_plan_id":"cebpf4jnsgd1na2vs0mg"},{"bike_id":"0c506fac-9822-4d55-93b9-ec283cf22639","system_id":"levelo_inurba_marseille","lat":43.26882,"lon":5.40442,"is_reserved":false,"is_disabled":false,"rental_uris":{"android":"levelo://app?vid=0c506fac-9822-4d55-93b9-ec283cf22639","ios":"levelo://app?vid=0c506fac-9822-4d55-93b9-ec283cf22639"},"vehicle_type_id":"4","last_reported":1773923933,"current_range_meters":6400,"station_id":"","pricing_plan_id":"cebpf4jnsgd1na2vs0mg"},{"bike_id":"e48e6d48-d180-4130-952c-74c2f53a8488","system_id":"levelo_inurba_marseille","lat":43.28796,"lon":5.36381,"is_reserved":false,"is_disabled":false,"rental_uris":{"android":"levelo://app?vid=e48e6d48-d180-4130-952c-74c2f53a8488","ios":"levelo://app?vid=e48e6d48-d180-4130-952c-74c2f53a8488"},"vehicle_type_id":"4","last_reported":1773923933,"current_range_meters":6800,"station_id":"","pricing_plan_id":"cebpf4jnsgd1na2vs0mg"},{"bike_id":"fa8725db-9407-4cb4-9c72-5633d2917751","system_id":"levelo_inurba_marseille","lat":43.2407,"lon":5.37744,"is_reserved":false,"is_disabled":false,"rental_uris":{"android":"levelo://app?vid=fa8725db-9407-4cb4-9c72-5633d2917751","ios":"levelo://app?vid=fa8725db-9407-4cb4-9c72-5633d2917751"},"vehicle_type_id":"4","last_reported":1773923933,"current_range_meters":6800,"station_id":"ce4bhnp2rcd13ifvqgvg","pricing_plan_id":"cebpf4jnsgd1na2vs0mg"},{"bike_id":"2f0354fc-31aa-4398-9c3e-f0f50b7b2184","system_id":"levelo_inurba_marseille","lat":43.2415,"lon":5.39716,"is_reserved":false,"is_disabled":false,"rental_uris":{"android":"levelo://app?vid=2f0354fc-31aa-4398-9c3e-f0f50b7b2184","ios":"levelo://app?vid=2f0354fc-31aa-4398-9c3e-f0f50b7b2184"},"vehicle_type_id":"4","last_reported":1773923933,"current_range_meters":6800,"station_id":"ce4bhn12rcd13ifvqgpg","pricing_plan_id":"cebpf4jnsgd1na2vs0mg"},{"bike_id":"719e9861-af82-4022-a2ea-bd7d6f00ff5f","system_id":"levelo_inurba_marseille","lat":43.2876,"lon":5.42519,"is_reserved":false,"is_disabled":true,"rental_uris":{"android":"levelo://app?vid=719e9861-af82-4022-a2ea-bd7d6f00ff5f","ios":"levelo://app?vid=719e9861-af82-4022-a2ea-bd7d6f00ff5f"},"vehicle_type_id":"4","last_reported":1773923933,"current_range_meters":6800,"station_id":"","pricing_plan_id":"cebpf4jnsgd1na2vs0mg"},{"bike_id":"8c29270d-5d11-446e-a3f0-f5c56ae9c816","system_id":"levelo_inurba_marseille","lat":43.27566,"lon":5.4328,"is_reserved":false,"is_disabled":false,"rental_uris":{"android":"levelo://app?vid=8c29270d-5d11-446e-a3f0-f5c56ae9c816","ios":"levelo://app?vid=8c29270d-5d11-446e-a3f0-f5c56ae9c816"},"vehicle_type_id":"4","last_reported":1773923933,"current_range_meters":6800,"station_id":"","pricing_plan_id":"cebpf4jnsgd1na2vs0mg"},{"bike_id":"ef4d97a8-b27e-4ee9-b1dd-4c9b85711d4a","system_id":"levelo_inurba_marseille","lat":43.24398,"lon":5.37065,"is_reserved":false,"is_disabled":false,"rental_uris":{"android":"levelo://app?vid=ef4d97a8-b27e-4ee9-b1dd-4c9b85711d4a","ios":"levelo://app?vid=ef4d97a8-b27e-4ee9-b1dd-4c9b85711d4a"},"vehicle_type_id":"4","last_reported":1773923933,"current_range_meters":6800,"station_id":"ce4bhhh2rcd13ifvqfk0","pricing_plan_id":"cebpf4jnsgd1na2vs0mg"},{"bike_id":"4b473dc3-acae-4031-935b-8e902179ae5a","system_id":"levelo_inurba_marseille","lat":43.31219,"lon":5.36837,"is_reserved":false,"is_disabled":false,"rental_uris":{"android":"levelo://app?vid=4b473dc3-acae-4031-935b-8e902179ae5a","ios":"levelo://app?vid=4b473dc3-acae-4031-935b-8e902179ae5a"},"vehicle_type_id":"4","last_reported":1773923933,"current_range_meters":6800,"station_id":"ce4bgl92rcd13ifvqbq0","pricing_plan_id":"cebpf4jnsgd1na2vs0mg"},{"bike_id":"d03a2022-6922-4b85-aada-659333694e5e","system_id":"levelo_inurba_marseille","lat":43.31195,"lon":5.38713,"is_reserved":false,"is_disabled":true,"rental_uris":{"android":"levelo://app?vid=d03a2022-6922-4b85-aada-659333694e5e","ios":"levelo://app?vid=d03a2022-6922-4b85-aada-659333694e5e"},"vehicle_type_id":"4","last_reported":1773923933,"current_range_meters":6800,"station_id":"ce4bgv12rcd13ifvqcp0","pricing_plan_id":"cebpf4jnsgd1na2vs0mg"},{"bike_id":"28025302-46d2-4169-9ce9-8e064c7a81fd","system_id":"levelo_inurba_marseille","lat":43.26372,"lon":5.41059,"is_reserved":false,"is_disabled":true,"rental_uris":{"android":"levelo://app?vid=28025302-46d2-4169-9ce9-8e064c7a81fd","ios":"levelo://app?vid=28025302-46d2-4169-9ce9-8e064c7a81fd"},"vehicle_type_id":"4","last_reported":1773923933,"current_range_meters":6800,"station_id":"","pricing_plan_id":"cebpf4jnsgd1na2vs0mg"},{"bike_id":"beedd7bf-c1f4-4c4b-a31e-314bb5895cfd","system_id":"levelo_inurba_marseille","lat":43.29296,"lon":5.37447,"is_reserved":false,"is_disabled":false,"rental_uris":{"android":"levelo://app?vid=beedd7bf-c1f4-4c4b-a31e-314bb5895cfd","ios":"levelo://app?vid=beedd7bf-c1f4-4c4b-a31e-314bb5895cfd"},"vehicle_type_id":"4","last_reported":1773923933,"current_range_meters":6800,"station_id":"ce4bgi12rcd13ifvqb70","pricing_plan_id":"cebpf4jnsgd1na2vs0mg"},{"bike_id":"bb6e085c-850c-41bd-94ff-d8239f9c9e15","system_id":"levelo_inurba_marseille","lat":43.23147,"lon":5.43723,"is_reserved":false,"is_disabled":false,"rental_uris":{"android":"levelo://app?vid=bb6e085c-850c-41bd-94ff-d8239f9c9e15","ios":"levelo://app?vid=bb6e085c-850c-41bd-94ff-d8239f9c9e15"},"vehicle_type_id":"4","last_reported":1773923933,"current_range_meters":6800,"station_id":"ce4bhmp2rcd13ifvqgog","pricing_plan_id":"cebpf4jnsgd1na2vs0mg"},{"bike_id":"f0e4c768-8162-4541-8edb-23b236bc632f","system_id":"levelo_inurba_marseille","lat":43.271709,"lon":5.423028,"is_reserved":false,"is_disabled":false,"rental_uris":{"android":"levelo://app?vid=f0e4c768-8162-4541-8edb-23b236bc632f","ios":"levelo://app?vid=f0e4c768-8162-4541-8edb-23b236bc632f"},"vehicle_type_id":"4","last_reported":1773923933,"current_range_meters":6800,"station_id":"ce4bhk92rcd13ifvqgb0","pricing_plan_id":"cebpf4jnsgd1na2vs0mg"},{"bike_id":"e0805bea-0bf9-4836-99e3-9dd0fe5c6206","system_id":"levelo_inurba_marseille","lat":43.25723,"lon":5.41096,"is_reserved":false,"is_disabled":false,"rental_uris":{"android":"levelo://app?vid=e0805bea-0bf9-4836-99e3-9dd0fe5c6206","ios":"levelo://app?vid=e0805bea-0bf9-4836-99e3-9dd0fe5c6206"},"vehicle_type_id":"4","last_reported":1773923933,"current_range_meters":6800,"station_id":"ce4bhkp2rcd13ifvqgd0","pricing_plan_id":"cebpf4jnsgd1na2vs0mg"},{"bike_id":"97c1fec4-ae2a-4a3f-8b46-ef3a472f0448","system_id":"levelo_inurba_marseille","lat":43.24463,"lon":5.42538,"is_reserved":false,"is_disabled":false,"rental_uris":{"android":"levelo://app?vid=97c1fec4-ae2a-4a3f-8b46-ef3a472f0448","ios":"levelo://app?vid=97c1fec4-ae2a-4a3f-8b46-ef3a472f0448"},"vehicle_type_id":"4","last_reported":1773923933,"current_range_meters":6800,"station_id":"st_d4a3vfp97mjs738cd8kg","pricing_plan_id":"cebpf4jnsgd1na2vs0mg"},{"bike_id":"f8002e32-7d40-48f8-99b3-a631b985eba5","system_id":"levelo_inurba_marseille","lat":43.337566,"lon":5.374557,"is_reserved":false,"is_disabled":false,"rental_uris":{"android":"levelo://app?vid=f8002e32-7d40-48f8-99b3-a631b985eba5","ios":"levelo://app?vid=f8002e32-7d40-48f8-99b3-a631b985eba5"},"vehicle_type_id":"4","last_reported":1773923933,"current_range_meters":7200,"station_id":"","pricing_plan_id":"cebpf4jnsgd1na2vs0mg"},{"bike_id":"24dc1ce5-2db6-421b-869a-69d6f082b300","system_id":"levelo_inurba_marseille","lat":43.29802,"lon":5.36233,"is_reserved":false,"is_disabled":false,"rental_uris":{"android":"levelo://app?vid=24dc1ce5-2db6-421b-869a-69d6f082b300","ios":"levelo://app?vid=24dc1ce5-2db6-421b-869a-69d6f082b300"},"vehicle_type_id":"4","last_reported":1773923933,"current_range_meters":7200,"station_id":"","pricing_plan_id":"cebpf4jnsgd1na2vs0mg"},{"bike_id":"f7e79517-161a-451a-8a95-bb710b1b4d21","system_id":"levelo_inurba_marseille","lat":43.29854,"lon":5.37898,"is_reserved":false,"is_disabled":false,"rental_uris":{"android":"levelo://app?vid=f7e79517-161a-451a-8a95-bb710b1b4d21","ios":"levelo://app?vid=f7e79517-161a-451a-8a95-bb710b1b4d21"},"vehicle_type_id":"4","last_reported":1773923933,"current_range_meters":7200,"station_id":"","pricing_plan_id":"cebpf4jnsgd1na2vs0mg"},{"bike_id":"081a0881-89b6-4aec-8d87-38fd39de8439","system_id":"levelo_inurba_marseille","lat":43.28535,"lon":5.440936,"is_reserved":false,"is_disabled":false,"rental_uris":{"android":"levelo://app?vid=081a0881-89b6-4aec-8d87-38fd39de8439","ios":"levelo://app?vid=081a0881-89b6-4aec-8d87-38fd39de8439"},"vehicle_type_id":"4","last_reported":1773923933,"current_range_meters":7200,"station_id":"st_d3j3df2ikq2c7380ej80","pricing_plan_id":"cebpf4jnsgd1na2vs0mg"},{"bike_id":"94369cd8-6f92-4514-80fc-3febf7da8d57","system_id":"levelo_inurba_marseille","lat":43.27685,"lon":5.38916,"is_reserved":false,"is_disabled":false,"rental_uris":{"android":"levelo://app?vid=94369cd8-6f92-4514-80fc-3febf7da8d57","ios":"levelo://app?vid=94369cd8-6f92-4514-80fc-3febf7da8d57"},"vehicle_type_id":"4","last_reported":1773923933,"current_range_meters":7200,"station_id":"ce4bhi12rcd13ifvqfo0","pricing_plan_id":"cebpf4jnsgd1na2vs0mg"},{"bike_id":"1808a3ee-e04e-42c1-a361-4b169c646f09","system_id":"levelo_inurba_marseille","lat":43.27833,"lon":5.39202,"is_reserved":false,"is_disabled":false,"rental_uris":{"android":"levelo://app?vid=1808a3ee-e04e-42c1-a361-4b169c646f09","ios":"levelo://app?vid=1808a3ee-e04e-42c1-a361-4b169c646f09"},"vehicle_type_id":"4","last_reported":1773923933,"current_range_meters":7200,"station_id":"ce4bhjp2rcd13ifvqga0","pricing_plan_id":"cebpf4jnsgd1na2vs0mg"},{"bike_id":"1421811c-7f63-4cfd-9ffe-f2234ec68eb6","system_id":"levelo_inurba_marseille","lat":43.23139,"lon":5.4372,"is_reserved":false,"is_disabled":false,"rental_uris":{"android":"levelo://app?vid=1421811c-7f63-4cfd-9ffe-f2234ec68eb6","ios":"levelo://app?vid=1421811c-7f63-4cfd-9ffe-f2234ec68eb6"},"vehicle_type_id":"4","last_reported":1773923933,"current_range_meters":7200,"station_id":"ce4bhmp2rcd13ifvqgog","pricing_plan_id":"cebpf4jnsgd1na2vs0mg"},{"bike_id":"86cd08ae-108c-49cf-8efa-9fcf9ce47844","system_id":"levelo_inurba_marseille","lat":43.24548,"lon":5.39517,"is_reserved":false,"is_disabled":false,"rental_uris":{"android":"levelo://app?vid=86cd08ae-108c-49cf-8efa-9fcf9ce47844","ios":"levelo://app?vid=86cd08ae-108c-49cf-8efa-9fcf9ce47844"},"vehicle_type_id":"4","last_reported":1773923933,"current_range_meters":7200,"station_id":"ce4bhlp2rcd13ifvqgjg","pricing_plan_id":"cebpf4jnsgd1na2vs0mg"},{"bike_id":"a7bb5d96-ee51-47cb-86cd-3509fdd747ea","system_id":"levelo_inurba_marseille","lat":43.23784,"lon":5.36624,"is_reserved":false,"is_disabled":false,"rental_uris":{"android":"levelo://app?vid=a7bb5d96-ee51-47cb-86cd-3509fdd747ea","ios":"levelo://app?vid=a7bb5d96-ee51-47cb-86cd-3509fdd747ea"},"vehicle_type_id":"4","last_reported":1773923933,"current_range_meters":7200,"station_id":"st_d3nk18o9ro0c73en2l3g","pricing_plan_id":"cebpf4jnsgd1na2vs0mg"},{"bike_id":"c3c27b7d-0410-4e72-86bf-b50687e8eb3b","system_id":"levelo_inurba_marseille","lat":43.29709,"lon":5.37691,"is_reserved":false,"is_disabled":false,"rental_uris":{"android":"levelo://app?vid=c3c27b7d-0410-4e72-86bf-b50687e8eb3b","ios":"levelo://app?vid=c3c27b7d-0410-4e72-86bf-b50687e8eb3b"},"vehicle_type_id":"4","last_reported":1773923933,"current_range_meters":7200,"station_id":"ce4bgkh2rcd13ifvqbl0","pricing_plan_id":"cebpf4jnsgd1na2vs0mg"},{"bike_id":"3419abe9-0c75-4aa4-8b4c-5f9f9309146f","system_id":"levelo_inurba_marseille","lat":43.31245,"lon":5.36883,"is_reserved":false,"is_disabled":false,"rental_uris":{"android":"levelo://app?vid=3419abe9-0c75-4aa4-8b4c-5f9f9309146f","ios":"levelo://app?vid=3419abe9-0c75-4aa4-8b4c-5f9f9309146f"},"vehicle_type_id":"4","last_reported":1773923933,"current_range_meters":7200,"station_id":"ce4bgl92rcd13ifvqbq0","pricing_plan_id":"cebpf4jnsgd1na2vs0mg"},{"bike_id":"a11c8cfa-453a-4892-a974-6a22bafa8290","system_id":"levelo_inurba_marseille","lat":43.23204,"lon":5.35555,"is_reserved":false,"is_disabled":false,"rental_uris":{"android":"levelo://app?vid=a11c8cfa-453a-4892-a974-6a22bafa8290","ios":"levelo://app?vid=a11c8cfa-453a-4892-a974-6a22bafa8290"},"vehicle_type_id":"4","last_reported":1773923933,"current_range_meters":8000,"station_id":"ce4bhu92rcd13ifvqi70","pricing_plan_id":"cebpf4jnsgd1na2vs0mg"},{"bike_id":"17131464-ab3e-49ae-9f00-4bdbaf2d696f","system_id":"levelo_inurba_marseille","lat":43.29236,"lon":5.36083,"is_reserved":false,"is_disabled":false,"rental_uris":{"android":"levelo://app?vid=17131464-ab3e-49ae-9f00-4bdbaf2d696f","ios":"levelo://app?vid=17131464-ab3e-49ae-9f00-4bdbaf2d696f"},"vehicle_type_id":"4","last_reported":1773923933,"current_range_meters":8000,"station_id":"ce4bhbh2rcd13ifvqeqg","pricing_plan_id":"cebpf4jnsgd1na2vs0mg"},{"bike_id":"04b3c352-6662-4d85-9cdb-e58baf38ee9f","system_id":"levelo_inurba_marseille","lat":43.33502,"lon":5.37414,"is_reserved":false,"is_disabled":false,"rental_uris":{"android":"levelo://app?vid=04b3c352-6662-4d85-9cdb-e58baf38ee9f","ios":"levelo://app?vid=04b3c352-6662-4d85-9cdb-e58baf38ee9f"},"vehicle_type_id":"4","last_reported":1773923933,"current_range_meters":8000,"station_id":"","pricing_plan_id":"cebpf4jnsgd1na2vs0mg"},{"bike_id":"864f588c-6c9a-47f2-bf8a-559a5ddb02ea","system_id":"levelo_inurba_marseille","lat":43.32115,"lon":5.36775,"is_reserved":false,"is_disabled":false,"rental_uris":{"android":"levelo://app?vid=864f588c-6c9a-47f2-bf8a-559a5ddb02ea","ios":"levelo://app?vid=864f588c-6c9a-47f2-bf8a-559a5ddb02ea"},"vehicle_type_id":"4","last_reported":1773923933,"current_range_meters":8000,"station_id":"ce4bhrh2rcd13ifvqhug","pricing_plan_id":"cebpf4jnsgd1na2vs0mg"},{"bike_id":"7603f9a5-a91f-4dd4-884d-ad1569e71bd2","system_id":"levelo_inurba_marseille","lat":43.31126,"lon":5.37134,"is_reserved":false,"is_disabled":false,"rental_uris":{"android":"levelo://app?vid=7603f9a5-a91f-4dd4-884d-ad1569e71bd2","ios":"levelo://app?vid=7603f9a5-a91f-4dd4-884d-ad1569e71bd2"},"vehicle_type_id":"4","last_reported":1773923933,"current_range_meters":8000,"station_id":"st_d4kl2rp97mjs73e7tdfg","pricing_plan_id":"cebpf4jnsgd1na2vs0mg"},{"bike_id":"bd60a6ec-18d4-4476-ab1b-f354043c4b72","system_id":"levelo_inurba_marseille","lat":43.29778,"lon":5.42558,"is_reserved":false,"is_disabled":false,"rental_uris":{"android":"levelo://app?vid=bd60a6ec-18d4-4476-ab1b-f354043c4b72","ios":"levelo://app?vid=bd60a6ec-18d4-4476-ab1b-f354043c4b72"},"vehicle_type_id":"4","last_reported":1773923933,"current_range_meters":8000,"station_id":"","pricing_plan_id":"cebpf4jnsgd1na2vs0mg"},{"bike_id":"6b218720-7d53-4c1e-b1c9-5dbfa513b086","system_id":"levelo_inurba_marseille","lat":43.23967,"lon":5.36619,"is_reserved":false,"is_disabled":false,"rental_uris":{"android":"levelo://app?vid=6b218720-7d53-4c1e-b1c9-5dbfa513b086","ios":"levelo://app?vid=6b218720-7d53-4c1e-b1c9-5dbfa513b086"},"vehicle_type_id":"4","last_reported":1773923933,"current_range_meters":8000,"station_id":"ce4bhi12rcd13ifvqfp0","pricing_plan_id":"cebpf4jnsgd1na2vs0mg"},{"bike_id":"512629f3-f59c-412e-b2d4-b0bfbdacdb44","system_id":"levelo_inurba_marseille","lat":43.28267,"lon":5.35065,"is_reserved":false,"is_disabled":false,"rental_uris":{"android":"levelo://app?vid=512629f3-f59c-412e-b2d4-b0bfbdacdb44","ios":"levelo://app?vid=512629f3-f59c-412e-b2d4-b0bfbdacdb44"},"vehicle_type_id":"4","last_reported":1773923933,"current_range_meters":8000,"station_id":"ce4bhbp2rcd13ifvqerg","pricing_plan_id":"cebpf4jnsgd1na2vs0mg"},{"bike_id":"dd10efc5-28b9-436a-be78-8011941e89fc","system_id":"levelo_inurba_marseille","lat":43.28483,"lon":5.48407,"is_reserved":false,"is_disabled":false,"rental_uris":{"android":"levelo://app?vid=dd10efc5-28b9-436a-be78-8011941e89fc","ios":"levelo://app?vid=dd10efc5-28b9-436a-be78-8011941e89fc"},"vehicle_type_id":"4","last_reported":1773923933,"current_range_meters":8000,"station_id":"st_d3svhcjqgbts73a3dn0g","pricing_plan_id":"cebpf4jnsgd1na2vs0mg"},{"bike_id":"0effcb86-530f-422c-9f0e-4d242751570e","system_id":"levelo_inurba_marseille","lat":43.30563,"lon":5.3668,"is_reserved":false,"is_disabled":false,"rental_uris":{"android":"levelo://app?vid=0effcb86-530f-422c-9f0e-4d242751570e","ios":"levelo://app?vid=0effcb86-530f-422c-9f0e-4d242751570e"},"vehicle_type_id":"4","last_reported":1773923933,"current_range_meters":8000,"station_id":"","pricing_plan_id":"cebpf4jnsgd1na2vs0mg"},{"bike_id":"a7589a93-7e92-46e3-9adb-33c382fc7b2d","system_id":"levelo_inurba_marseille","lat":43.23961,"lon":5.36629,"is_reserved":false,"is_disabled":false,"rental_uris":{"android":"levelo://app?vid=a7589a93-7e92-46e3-9adb-33c382fc7b2d","ios":"levelo://app?vid=a7589a93-7e92-46e3-9adb-33c382fc7b2d"},"vehicle_type_id":"4","last_reported":1773923933,"current_range_meters":8000,"station_id":"ce4bhi12rcd13ifvqfp0","pricing_plan_id":"cebpf4jnsgd1na2vs0mg"},{"bike_id":"e84409cd-ab11-47ab-92ac-0bad50daf5c3","system_id":"levelo_inurba_marseille","lat":43.31856,"lon":5.36762,"is_reserved":false,"is_disabled":false,"rental_uris":{"android":"levelo://app?vid=e84409cd-ab11-47ab-92ac-0bad50daf5c3","ios":"levelo://app?vid=e84409cd-ab11-47ab-92ac-0bad50daf5c3"},"vehicle_type_id":"4","last_reported":1773923933,"current_range_meters":8000,"station_id":"","pricing_plan_id":"cebpf4jnsgd1na2vs0mg"},{"bike_id":"b7e87515-c3ea-478e-bf01-a70f86b2f092","system_id":"levelo_inurba_marseille","lat":43.24168,"lon":5.36377,"is_reserved":false,"is_disabled":false,"rental_uris":{"android":"levelo://app?vid=b7e87515-c3ea-478e-bf01-a70f86b2f092","ios":"levelo://app?vid=b7e87515-c3ea-478e-bf01-a70f86b2f092"},"vehicle_type_id":"4","last_reported":1773923933,"current_range_meters":8000,"station_id":"cpo36qri1sfpv3e86is0","pricing_plan_id":"cebpf4jnsgd1na2vs0mg"},{"bike_id":"1a35434d-c9e2-448e-ab11-b763a506a6ff","system_id":"levelo_inurba_marseille","lat":43.29928,"lon":5.38091,"is_reserved":false,"is_disabled":true,"rental_uris":{"android":"levelo://app?vid=1a35434d-c9e2-448e-ab11-b763a506a6ff","ios":"levelo://app?vid=1a35434d-c9e2-448e-ab11-b763a506a6ff"},"vehicle_type_id":"4","last_reported":1773923933,"current_range_meters":8000,"station_id":"","pricing_plan_id":"cebpf4jnsgd1na2vs0mg"},{"bike_id":"517a6fdc-712f-4378-9da3-82c1c5cfc058","system_id":"levelo_inurba_marseille","lat":43.30007,"lon":5.38503,"is_reserved":false,"is_disabled":false,"rental_uris":{"android":"levelo://app?vid=517a6fdc-712f-4378-9da3-82c1c5cfc058","ios":"levelo://app?vid=517a6fdc-712f-4378-9da3-82c1c5cfc058"},"vehicle_type_id":"4","last_reported":1773923933,"current_range_meters":8000,"station_id":"ce4bgj92rcd13ifvqbd0","pricing_plan_id":"cebpf4jnsgd1na2vs0mg"},{"bike_id":"f4d7f0a6-b9b0-423f-a545-843196d2ca63","system_id":"levelo_inurba_marseille","lat":43.25085,"lon":5.39513,"is_reserved":false,"is_disabled":false,"rental_uris":{"android":"levelo://app?vid=f4d7f0a6-b9b0-423f-a545-843196d2ca63","ios":"levelo://app?vid=f4d7f0a6-b9b0-423f-a545-843196d2ca63"},"vehicle_type_id":"4","last_reported":1773923933,"current_range_meters":8000,"station_id":"ce4bhm12rcd13ifvqgkg","pricing_plan_id":"cebpf4jnsgd1na2vs0mg"},{"bike_id":"850e36ee-1e12-4ced-9f07-3ad6148fbad0","system_id":"levelo_inurba_marseille","lat":43.26379,"lon":5.41067,"is_reserved":false,"is_disabled":false,"rental_uris":{"android":"levelo://app?vid=850e36ee-1e12-4ced-9f07-3ad6148fbad0","ios":"levelo://app?vid=850e36ee-1e12-4ced-9f07-3ad6148fbad0"},"vehicle_type_id":"4","last_reported":1773923933,"current_range_meters":8400,"station_id":"st_d4e5ca6na9uc73bfl5fg","pricing_plan_id":"cebpf4jnsgd1na2vs0mg"},{"bike_id":"3e4c3d7d-1664-4a12-ac32-f952b2933096","system_id":"levelo_inurba_marseille","lat":43.29529,"lon":5.38547,"is_reserved":false,"is_disabled":false,"rental_uris":{"android":"levelo://app?vid=3e4c3d7d-1664-4a12-ac32-f952b2933096","ios":"levelo://app?vid=3e4c3d7d-1664-4a12-ac32-f952b2933096"},"vehicle_type_id":"4","last_reported":1773923933,"current_range_meters":8400,"station_id":"ce4bgih2rcd13ifvqba0","pricing_plan_id":"cebpf4jnsgd1na2vs0mg"},{"bike_id":"13ece891-29b9-4ae9-a4c4-ae3da55ec954","system_id":"levelo_inurba_marseille","lat":43.23211,"lon":5.3552,"is_reserved":false,"is_disabled":false,"rental_uris":{"android":"levelo://app?vid=13ece891-29b9-4ae9-a4c4-ae3da55ec954","ios":"levelo://app?vid=13ece891-29b9-4ae9-a4c4-ae3da55ec954"},"vehicle_type_id":"4","last_reported":1773923933,"current_range_meters":8400,"station_id":"ce4bhu92rcd13ifvqi70","pricing_plan_id":"cebpf4jnsgd1na2vs0mg"},{"bike_id":"addd9e53-bfde-4c2f-8c89-4a891b6a7add","system_id":"levelo_inurba_marseille","lat":43.31351,"lon":5.3793,"is_reserved":false,"is_disabled":false,"rental_uris":{"android":"levelo://app?vid=addd9e53-bfde-4c2f-8c89-4a891b6a7add","ios":"levelo://app?vid=addd9e53-bfde-4c2f-8c89-4a891b6a7add"},"vehicle_type_id":"4","last_reported":1773923933,"current_range_meters":8400,"station_id":"","pricing_plan_id":"cebpf4jnsgd1na2vs0mg"},{"bike_id":"b56b26bd-81d0-48d5-b304-9896ba402c97","system_id":"levelo_inurba_marseille","lat":43.2511,"lon":5.40318,"is_reserved":false,"is_disabled":false,"rental_uris":{"android":"levelo://app?vid=b56b26bd-81d0-48d5-b304-9896ba402c97","ios":"levelo://app?vid=b56b26bd-81d0-48d5-b304-9896ba402c97"},"vehicle_type_id":"4","last_reported":1773923933,"current_range_meters":8400,"station_id":"ce4bhlh2rcd13ifvqgig","pricing_plan_id":"cebpf4jnsgd1na2vs0mg"},{"bike_id":"52f6a6b9-7af9-4956-b458-baf5061e66bf","system_id":"levelo_inurba_marseille","lat":43.23349,"lon":5.44461,"is_reserved":false,"is_disabled":false,"rental_uris":{"android":"levelo://app?vid=52f6a6b9-7af9-4956-b458-baf5061e66bf","ios":"levelo://app?vid=52f6a6b9-7af9-4956-b458-baf5061e66bf"},"vehicle_type_id":"4","last_reported":1773923933,"current_range_meters":8400,"station_id":"","pricing_plan_id":"cebpf4jnsgd1na2vs0mg"},{"bike_id":"347a0133-45d3-4213-ae48-606f4453bbf3","system_id":"levelo_inurba_marseille","lat":43.23046,"lon":5.35508,"is_reserved":false,"is_disabled":false,"rental_uris":{"android":"levelo://app?vid=347a0133-45d3-4213-ae48-606f4453bbf3","ios":"levelo://app?vid=347a0133-45d3-4213-ae48-606f4453bbf3"},"vehicle_type_id":"4","last_reported":1773923933,"current_range_meters":8400,"station_id":"cpo3342slgdg3j2ifvpg","pricing_plan_id":"cebpf4jnsgd1na2vs0mg"},{"bike_id":"08fc3c5d-1001-4b26-87a3-2f0e44438f4d","system_id":"levelo_inurba_marseille","lat":43.2472,"lon":5.38145,"is_reserved":false,"is_disabled":false,"rental_uris":{"android":"levelo://app?vid=08fc3c5d-1001-4b26-87a3-2f0e44438f4d","ios":"levelo://app?vid=08fc3c5d-1001-4b26-87a3-2f0e44438f4d"},"vehicle_type_id":"4","last_reported":1773923933,"current_range_meters":8400,"station_id":"","pricing_plan_id":"cebpf4jnsgd1na2vs0mg"},{"bike_id":"a843145d-ba6e-4181-8b49-22c964822983","system_id":"levelo_inurba_marseille","lat":43.24073,"lon":5.3776,"is_reserved":false,"is_disabled":false,"rental_uris":{"android":"levelo://app?vid=a843145d-ba6e-4181-8b49-22c964822983","ios":"levelo://app?vid=a843145d-ba6e-4181-8b49-22c964822983"},"vehicle_type_id":"4","last_reported":1773923933,"current_range_meters":8400,"station_id":"ce4bhnp2rcd13ifvqgvg","pricing_plan_id":"cebpf4jnsgd1na2vs0mg"},{"bike_id":"7b6ccb2a-71b0-4047-91d1-949f095c040c","system_id":"levelo_inurba_marseille","lat":43.33769,"lon":5.3742,"is_reserved":false,"is_disabled":false,"rental_uris":{"android":"levelo://app?vid=7b6ccb2a-71b0-4047-91d1-949f095c040c","ios":"levelo://app?vid=7b6ccb2a-71b0-4047-91d1-949f095c040c"},"vehicle_type_id":"4","last_reported":1773923933,"current_range_meters":8400,"station_id":"","pricing_plan_id":"cebpf4jnsgd1na2vs0mg"},{"bike_id":"1646dab8-2731-47a5-b9a0-644735dd4068","system_id":"levelo_inurba_marseille","lat":43.24176,"lon":5.39729,"is_reserved":false,"is_disabled":false,"rental_uris":{"android":"levelo://app?vid=1646dab8-2731-47a5-b9a0-644735dd4068","ios":"levelo://app?vid=1646dab8-2731-47a5-b9a0-644735dd4068"},"vehicle_type_id":"4","last_reported":1773923933,"current_range_meters":8400,"station_id":"ce4bhn12rcd13ifvqgpg","pricing_plan_id":"cebpf4jnsgd1na2vs0mg"},{"bike_id":"4cd9174a-3292-40c7-bab1-e0a685583f82","system_id":"levelo_inurba_marseille","lat":43.3046,"lon":5.37913,"is_reserved":false,"is_disabled":false,"rental_uris":{"android":"levelo://app?vid=4cd9174a-3292-40c7-bab1-e0a685583f82","ios":"levelo://app?vid=4cd9174a-3292-40c7-bab1-e0a685583f82"},"vehicle_type_id":"4","last_reported":1773923933,"current_range_meters":8400,"station_id":"ce4bgup2rcd13ifvqcn0","pricing_plan_id":"cebpf4jnsgd1na2vs0mg"},{"bike_id":"8c1bb7e1-fc52-410e-bc8b-57e5a8629823","system_id":"levelo_inurba_marseille","lat":43.29227,"lon":5.37717,"is_reserved":false,"is_disabled":false,"rental_uris":{"android":"levelo://app?vid=8c1bb7e1-fc52-410e-bc8b-57e5a8629823","ios":"levelo://app?vid=8c1bb7e1-fc52-410e-bc8b-57e5a8629823"},"vehicle_type_id":"4","last_reported":1773923933,"current_range_meters":8400,"station_id":"","pricing_plan_id":"cebpf4jnsgd1na2vs0mg"},{"bike_id":"7af461a7-770c-4057-98ac-fee77fad4478","system_id":"levelo_inurba_marseille","lat":43.24072,"lon":5.37761,"is_reserved":false,"is_disabled":false,"rental_uris":{"android":"levelo://app?vid=7af461a7-770c-4057-98ac-fee77fad4478","ios":"levelo://app?vid=7af461a7-770c-4057-98ac-fee77fad4478"},"vehicle_type_id":"4","last_reported":1773923933,"current_range_meters":8400,"station_id":"ce4bhnp2rcd13ifvqgvg","pricing_plan_id":"cebpf4jnsgd1na2vs0mg"},{"bike_id":"2e067ca5-9142-4750-970d-67c3b269d782","system_id":"levelo_inurba_marseille","lat":43.26214,"lon":5.3744,"is_reserved":false,"is_disabled":false,"rental_uris":{"android":"levelo://app?vid=2e067ca5-9142-4750-970d-67c3b269d782","ios":"levelo://app?vid=2e067ca5-9142-4750-970d-67c3b269d782"},"vehicle_type_id":"4","last_reported":1773923933,"current_range_meters":8400,"station_id":"ce4bhgp2rcd13ifvqfc0","pricing_plan_id":"cebpf4jnsgd1na2vs0mg"},{"bike_id":"db6cdf02-ec5c-4af1-ba37-e5eaf4c42edd","system_id":"levelo_inurba_marseille","lat":43.23964,"lon":5.36641,"is_reserved":false,"is_disabled":false,"rental_uris":{"android":"levelo://app?vid=db6cdf02-ec5c-4af1-ba37-e5eaf4c42edd","ios":"levelo://app?vid=db6cdf02-ec5c-4af1-ba37-e5eaf4c42edd"},"vehicle_type_id":"4","last_reported":1773923933,"current_range_meters":8400,"station_id":"ce4bhi12rcd13ifvqfp0","pricing_plan_id":"cebpf4jnsgd1na2vs0mg"},{"bike_id":"47b958a5-a9e9-4494-8472-abb0f760256b","system_id":"levelo_inurba_marseille","lat":43.23772,"lon":5.36627,"is_reserved":false,"is_disabled":false,"rental_uris":{"android":"levelo://app?vid=47b958a5-a9e9-4494-8472-abb0f760256b","ios":"levelo://app?vid=47b958a5-a9e9-4494-8472-abb0f760256b"},"vehicle_type_id":"4","last_reported":1773923933,"current_range_meters":8400,"station_id":"st_d3nk18o9ro0c73en2l3g","pricing_plan_id":"cebpf4jnsgd1na2vs0mg"},{"bike_id":"d51fe815-5335-4e1f-8e42-efe91c7e85aa","system_id":"levelo_inurba_marseille","lat":43.22936,"lon":5.35376,"is_reserved":false,"is_disabled":false,"rental_uris":{"android":"levelo://app?vid=d51fe815-5335-4e1f-8e42-efe91c7e85aa","ios":"levelo://app?vid=d51fe815-5335-4e1f-8e42-efe91c7e85aa"},"vehicle_type_id":"4","last_reported":1773923933,"current_range_meters":8400,"station_id":"cpo3532slgdg3j2ikp40","pricing_plan_id":"cebpf4jnsgd1na2vs0mg"},{"bike_id":"232458f8-104d-4889-8a68-f904c62ce5ca","system_id":"levelo_inurba_marseille","lat":43.305466,"lon":5.384052,"is_reserved":false,"is_disabled":false,"rental_uris":{"android":"levelo://app?vid=232458f8-104d-4889-8a68-f904c62ce5ca","ios":"levelo://app?vid=232458f8-104d-4889-8a68-f904c62ce5ca"},"vehicle_type_id":"4","last_reported":1773923933,"current_range_meters":8400,"station_id":"ce4bgg92rcd13ifvqb30","pricing_plan_id":"cebpf4jnsgd1na2vs0mg"},{"bike_id":"591637eb-a256-445f-b11a-47e07652d095","system_id":"levelo_inurba_marseille","lat":43.28181,"lon":5.42645,"is_reserved":false,"is_disabled":false,"rental_uris":{"android":"levelo://app?vid=591637eb-a256-445f-b11a-47e07652d095","ios":"levelo://app?vid=591637eb-a256-445f-b11a-47e07652d095"},"vehicle_type_id":"4","last_reported":1773923933,"current_range_meters":8400,"station_id":"ce4bhnh2rcd13ifvqgug","pricing_plan_id":"cebpf4jnsgd1na2vs0mg"},{"bike_id":"bea21c33-d04a-4338-9da1-264162e1bcd6","system_id":"levelo_inurba_marseille","lat":43.26377,"lon":5.41076,"is_reserved":false,"is_disabled":false,"rental_uris":{"android":"levelo://app?vid=bea21c33-d04a-4338-9da1-264162e1bcd6","ios":"levelo://app?vid=bea21c33-d04a-4338-9da1-264162e1bcd6"},"vehicle_type_id":"4","last_reported":1773923933,"current_range_meters":8400,"station_id":"st_d4e5ca6na9uc73bfl5fg","pricing_plan_id":"cebpf4jnsgd1na2vs0mg"},{"bike_id":"be523ae7-f0fc-4e2a-970b-30a3029fa717","system_id":"levelo_inurba_marseille","lat":43.28478,"lon":5.48392,"is_reserved":false,"is_disabled":false,"rental_uris":{"android":"levelo://app?vid=be523ae7-f0fc-4e2a-970b-30a3029fa717","ios":"levelo://app?vid=be523ae7-f0fc-4e2a-970b-30a3029fa717"},"vehicle_type_id":"4","last_reported":1773923933,"current_range_meters":8400,"station_id":"","pricing_plan_id":"cebpf4jnsgd1na2vs0mg"},{"bike_id":"8012e635-7189-4a8d-9828-ed4698f25849","system_id":"levelo_inurba_marseille","lat":43.2466,"lon":5.38159,"is_reserved":false,"is_disabled":false,"rental_uris":{"android":"levelo://app?vid=8012e635-7189-4a8d-9828-ed4698f25849","ios":"levelo://app?vid=8012e635-7189-4a8d-9828-ed4698f25849"},"vehicle_type_id":"4","last_reported":1773923933,"current_range_meters":8800,"station_id":"ce4bhih2rcd13ifvqfr0","pricing_plan_id":"cebpf4jnsgd1na2vs0mg"},{"bike_id":"b0aae7c9-1bd6-4f1c-a33d-9d6ff662c2a9","system_id":"levelo_inurba_marseille","lat":43.24822,"lon":5.37441,"is_reserved":false,"is_disabled":false,"rental_uris":{"android":"levelo://app?vid=b0aae7c9-1bd6-4f1c-a33d-9d6ff662c2a9","ios":"levelo://app?vid=b0aae7c9-1bd6-4f1c-a33d-9d6ff662c2a9"},"vehicle_type_id":"4","last_reported":1773923933,"current_range_meters":8800,"station_id":"ce4bhgh2rcd13ifvqfb0","pricing_plan_id":"cebpf4jnsgd1na2vs0mg"},{"bike_id":"85806c71-13a1-4782-8516-d16b321405f2","system_id":"levelo_inurba_marseille","lat":43.29533,"lon":5.3939,"is_reserved":false,"is_disabled":false,"rental_uris":{"android":"levelo://app?vid=85806c71-13a1-4782-8516-d16b321405f2","ios":"levelo://app?vid=85806c71-13a1-4782-8516-d16b321405f2"},"vehicle_type_id":"4","last_reported":1773923933,"current_range_meters":8800,"station_id":"ce4bh292rcd13ifvqdf0","pricing_plan_id":"cebpf4jnsgd1na2vs0mg"},{"bike_id":"48d56448-be59-46a7-88f4-1b7e52e63b27","system_id":"levelo_inurba_marseille","lat":43.31065,"lon":5.37155,"is_reserved":false,"is_disabled":false,"rental_uris":{"android":"levelo://app?vid=48d56448-be59-46a7-88f4-1b7e52e63b27","ios":"levelo://app?vid=48d56448-be59-46a7-88f4-1b7e52e63b27"},"vehicle_type_id":"4","last_reported":1773923933,"current_range_meters":8800,"station_id":"st_d4kl2rp97mjs73e7tdfg","pricing_plan_id":"cebpf4jnsgd1na2vs0mg"},{"bike_id":"dd2f7881-755c-4593-bb3a-7ba359f1b823","system_id":"levelo_inurba_marseille","lat":43.29103,"lon":5.38154,"is_reserved":false,"is_disabled":true,"rental_uris":{"android":"levelo://app?vid=dd2f7881-755c-4593-bb3a-7ba359f1b823","ios":"levelo://app?vid=dd2f7881-755c-4593-bb3a-7ba359f1b823"},"vehicle_type_id":"4","last_reported":1773923933,"current_range_meters":8800,"station_id":"ce4bh512rcd13ifvqe2g","pricing_plan_id":"cebpf4jnsgd1na2vs0mg"},{"bike_id":"5b633a99-6e6c-40eb-b51a-c5e14db697a0","system_id":"levelo_inurba_marseille","lat":43.27072,"lon":5.42278,"is_reserved":false,"is_disabled":false,"rental_uris":{"android":"levelo://app?vid=5b633a99-6e6c-40eb-b51a-c5e14db697a0","ios":"levelo://app?vid=5b633a99-6e6c-40eb-b51a-c5e14db697a0"},"vehicle_type_id":"4","last_reported":1773923933,"current_range_meters":8800,"station_id":"ce4bhk92rcd13ifvqgb0","pricing_plan_id":"cebpf4jnsgd1na2vs0mg"},{"bike_id":"2c929730-8b8d-4228-907b-8f183d065f9c","system_id":"levelo_inurba_marseille","lat":43.24079,"lon":5.37748,"is_reserved":false,"is_disabled":false,"rental_uris":{"android":"levelo://app?vid=2c929730-8b8d-4228-907b-8f183d065f9c","ios":"levelo://app?vid=2c929730-8b8d-4228-907b-8f183d065f9c"},"vehicle_type_id":"4","last_reported":1773923933,"current_range_meters":8800,"station_id":"ce4bhnp2rcd13ifvqgvg","pricing_plan_id":"cebpf4jnsgd1na2vs0mg"},{"bike_id":"57d1ada9-1a9f-44a6-9752-b843732a3f40","system_id":"levelo_inurba_marseille","lat":43.29933,"lon":5.37105,"is_reserved":false,"is_disabled":false,"rental_uris":{"android":"levelo://app?vid=57d1ada9-1a9f-44a6-9752-b843732a3f40","ios":"levelo://app?vid=57d1ada9-1a9f-44a6-9752-b843732a3f40"},"vehicle_type_id":"4","last_reported":1773923933,"current_range_meters":8800,"station_id":"","pricing_plan_id":"cebpf4jnsgd1na2vs0mg"},{"bike_id":"11b4d425-1164-4b1d-b94b-c542b5f0778d","system_id":"levelo_inurba_marseille","lat":43.24547,"lon":5.39515,"is_reserved":false,"is_disabled":false,"rental_uris":{"android":"levelo://app?vid=11b4d425-1164-4b1d-b94b-c542b5f0778d","ios":"levelo://app?vid=11b4d425-1164-4b1d-b94b-c542b5f0778d"},"vehicle_type_id":"4","last_reported":1773923933,"current_range_meters":8800,"station_id":"ce4bhlp2rcd13ifvqgjg","pricing_plan_id":"cebpf4jnsgd1na2vs0mg"},{"bike_id":"85e34bd4-543e-4066-99b9-8180bc7744ae","system_id":"levelo_inurba_marseille","lat":43.29938,"lon":5.36495,"is_reserved":false,"is_disabled":false,"rental_uris":{"android":"levelo://app?vid=85e34bd4-543e-4066-99b9-8180bc7744ae","ios":"levelo://app?vid=85e34bd4-543e-4066-99b9-8180bc7744ae"},"vehicle_type_id":"4","last_reported":1773923933,"current_range_meters":8800,"station_id":"ce4bgm92rcd13ifvqbr0","pricing_plan_id":"cebpf4jnsgd1na2vs0mg"},{"bike_id":"78bb54cf-5275-4554-9f53-8437367c33f2","system_id":"levelo_inurba_marseille","lat":43.23202,"lon":5.35554,"is_reserved":false,"is_disabled":false,"rental_uris":{"android":"levelo://app?vid=78bb54cf-5275-4554-9f53-8437367c33f2","ios":"levelo://app?vid=78bb54cf-5275-4554-9f53-8437367c33f2"},"vehicle_type_id":"4","last_reported":1773923933,"current_range_meters":8800,"station_id":"ce4bhu92rcd13ifvqi70","pricing_plan_id":"cebpf4jnsgd1na2vs0mg"},{"bike_id":"15750178-4f9b-426f-bafa-493e04eb7e36","system_id":"levelo_inurba_marseille","lat":43.30806,"lon":5.40669,"is_reserved":false,"is_disabled":false,"rental_uris":{"android":"levelo://app?vid=15750178-4f9b-426f-bafa-493e04eb7e36","ios":"levelo://app?vid=15750178-4f9b-426f-bafa-493e04eb7e36"},"vehicle_type_id":"4","last_reported":1773923933,"current_range_meters":8800,"station_id":"","pricing_plan_id":"cebpf4jnsgd1na2vs0mg"},{"bike_id":"7155279d-5434-41be-97f8-74d7709c700b","system_id":"levelo_inurba_marseille","lat":43.24645,"lon":5.38178,"is_reserved":false,"is_disabled":false,"rental_uris":{"android":"levelo://app?vid=7155279d-5434-41be-97f8-74d7709c700b","ios":"levelo://app?vid=7155279d-5434-41be-97f8-74d7709c700b"},"vehicle_type_id":"4","last_reported":1773923933,"current_range_meters":8800,"station_id":"ce4bhih2rcd13ifvqfr0","pricing_plan_id":"cebpf4jnsgd1na2vs0mg"},{"bike_id":"6e312198-c530-414e-8f88-168b10974032","system_id":"levelo_inurba_marseille","lat":43.226,"lon":5.41602,"is_reserved":false,"is_disabled":false,"rental_uris":{"android":"levelo://app?vid=6e312198-c530-414e-8f88-168b10974032","ios":"levelo://app?vid=6e312198-c530-414e-8f88-168b10974032"},"vehicle_type_id":"4","last_reported":1773923933,"current_range_meters":8800,"station_id":"st_d2o4gvlbi1j2169b742g","pricing_plan_id":"cebpf4jnsgd1na2vs0mg"},{"bike_id":"3bcd3f37-7909-4e8a-be03-a9562a2c0e45","system_id":"levelo_inurba_marseille","lat":43.28484,"lon":5.484,"is_reserved":false,"is_disabled":false,"rental_uris":{"android":"levelo://app?vid=3bcd3f37-7909-4e8a-be03-a9562a2c0e45","ios":"levelo://app?vid=3bcd3f37-7909-4e8a-be03-a9562a2c0e45"},"vehicle_type_id":"4","last_reported":1773923933,"current_range_meters":9200,"station_id":"","pricing_plan_id":"cebpf4jnsgd1na2vs0mg"},{"bike_id":"bc199616-bc2f-448b-a8f1-aa0277275d69","system_id":"levelo_inurba_marseille","lat":43.24077,"lon":5.37741,"is_reserved":false,"is_disabled":false,"rental_uris":{"android":"levelo://app?vid=bc199616-bc2f-448b-a8f1-aa0277275d69","ios":"levelo://app?vid=bc199616-bc2f-448b-a8f1-aa0277275d69"},"vehicle_type_id":"4","last_reported":1773923933,"current_range_meters":9200,"station_id":"ce4bhnp2rcd13ifvqgvg","pricing_plan_id":"cebpf4jnsgd1na2vs0mg"},{"bike_id":"c009d41f-3d6d-4f08-ba86-dd1257edc6ae","system_id":"levelo_inurba_marseille","lat":43.286106,"lon":5.39877,"is_reserved":false,"is_disabled":false,"rental_uris":{"android":"levelo://app?vid=c009d41f-3d6d-4f08-ba86-dd1257edc6ae","ios":"levelo://app?vid=c009d41f-3d6d-4f08-ba86-dd1257edc6ae"},"vehicle_type_id":"4","last_reported":1773923933,"current_range_meters":9200,"station_id":"","pricing_plan_id":"cebpf4jnsgd1na2vs0mg"},{"bike_id":"95fc6496-89e3-4c68-b643-1fdff906ed21","system_id":"levelo_inurba_marseille","lat":43.23169,"lon":5.43686,"is_reserved":false,"is_disabled":false,"rental_uris":{"android":"levelo://app?vid=95fc6496-89e3-4c68-b643-1fdff906ed21","ios":"levelo://app?vid=95fc6496-89e3-4c68-b643-1fdff906ed21"},"vehicle_type_id":"4","last_reported":1773923933,"current_range_meters":9200,"station_id":"ce4bhmp2rcd13ifvqgog","pricing_plan_id":"cebpf4jnsgd1na2vs0mg"},{"bike_id":"b790cc6c-beda-4dcd-96dd-e541806c10fa","system_id":"levelo_inurba_marseille","lat":43.27494,"lon":5.41611,"is_reserved":false,"is_disabled":false,"rental_uris":{"android":"levelo://app?vid=b790cc6c-beda-4dcd-96dd-e541806c10fa","ios":"levelo://app?vid=b790cc6c-beda-4dcd-96dd-e541806c10fa"},"vehicle_type_id":"4","last_reported":1773923933,"current_range_meters":9200,"station_id":"st_d6im8g6chgec73a5pndg","pricing_plan_id":"cebpf4jnsgd1na2vs0mg"},{"bike_id":"6018d565-5c8a-4bab-ba5d-0061fbbaec08","system_id":"levelo_inurba_marseille","lat":43.22939,"lon":5.35377,"is_reserved":false,"is_disabled":false,"rental_uris":{"android":"levelo://app?vid=6018d565-5c8a-4bab-ba5d-0061fbbaec08","ios":"levelo://app?vid=6018d565-5c8a-4bab-ba5d-0061fbbaec08"},"vehicle_type_id":"4","last_reported":1773923933,"current_range_meters":9200,"station_id":"cpo3532slgdg3j2ikp40","pricing_plan_id":"cebpf4jnsgd1na2vs0mg"},{"bike_id":"69067704-4b9d-4067-8ddd-5b71f4ef1a8a","system_id":"levelo_inurba_marseille","lat":43.25933,"lon":5.40907,"is_reserved":false,"is_disabled":true,"rental_uris":{"android":"levelo://app?vid=69067704-4b9d-4067-8ddd-5b71f4ef1a8a","ios":"levelo://app?vid=69067704-4b9d-4067-8ddd-5b71f4ef1a8a"},"vehicle_type_id":"4","last_reported":1773923933,"current_range_meters":9200,"station_id":"ce4bhm92rcd13ifvqglg","pricing_plan_id":"cebpf4jnsgd1na2vs0mg"},{"bike_id":"91754ca3-cd5e-47a5-b17b-b94faa181426","system_id":"levelo_inurba_marseille","lat":43.32102,"lon":5.36802,"is_reserved":false,"is_disabled":false,"rental_uris":{"android":"levelo://app?vid=91754ca3-cd5e-47a5-b17b-b94faa181426","ios":"levelo://app?vid=91754ca3-cd5e-47a5-b17b-b94faa181426"},"vehicle_type_id":"4","last_reported":1773923933,"current_range_meters":9200,"station_id":"ce4bhrh2rcd13ifvqhug","pricing_plan_id":"cebpf4jnsgd1na2vs0mg"},{"bike_id":"70bc3c79-c3e5-47f5-9f17-0b27723a6d70","system_id":"levelo_inurba_marseille","lat":43.24099,"lon":5.37756,"is_reserved":false,"is_disabled":false,"rental_uris":{"android":"levelo://app?vid=70bc3c79-c3e5-47f5-9f17-0b27723a6d70","ios":"levelo://app?vid=70bc3c79-c3e5-47f5-9f17-0b27723a6d70"},"vehicle_type_id":"4","last_reported":1773923933,"current_range_meters":9200,"station_id":"ce4bhnp2rcd13ifvqgvg","pricing_plan_id":"cebpf4jnsgd1na2vs0mg"},{"bike_id":"b50e93c9-47b0-4fff-b4c5-42460e683cce","system_id":"levelo_inurba_marseille","lat":43.31286,"lon":5.3669,"is_reserved":false,"is_disabled":false,"rental_uris":{"android":"levelo://app?vid=b50e93c9-47b0-4fff-b4c5-42460e683cce","ios":"levelo://app?vid=b50e93c9-47b0-4fff-b4c5-42460e683cce"},"vehicle_type_id":"4","last_reported":1773923933,"current_range_meters":9200,"station_id":"","pricing_plan_id":"cebpf4jnsgd1na2vs0mg"},{"bike_id":"bf6a2167-7677-4dc4-a81c-f593ae047d82","system_id":"levelo_inurba_marseille","lat":43.26549,"lon":5.37307,"is_reserved":false,"is_disabled":false,"rental_uris":{"android":"levelo://app?vid=bf6a2167-7677-4dc4-a81c-f593ae047d82","ios":"levelo://app?vid=bf6a2167-7677-4dc4-a81c-f593ae047d82"},"vehicle_type_id":"4","last_reported":1773923933,"current_range_meters":9200,"station_id":"ce4bhg12rcd13ifvqf70","pricing_plan_id":"cebpf4jnsgd1na2vs0mg"},{"bike_id":"5371710a-bf87-4c2a-9673-e7b297830585","system_id":"levelo_inurba_marseille","lat":43.32476,"lon":5.3657,"is_reserved":false,"is_disabled":false,"rental_uris":{"android":"levelo://app?vid=5371710a-bf87-4c2a-9673-e7b297830585","ios":"levelo://app?vid=5371710a-bf87-4c2a-9673-e7b297830585"},"vehicle_type_id":"4","last_reported":1773923933,"current_range_meters":9200,"station_id":"ce4bhs12rcd13ifvqhvg","pricing_plan_id":"cebpf4jnsgd1na2vs0mg"},{"bike_id":"94c2774e-0e80-49a5-a48d-27354f95f394","system_id":"levelo_inurba_marseille","lat":43.2297,"lon":5.3537,"is_reserved":false,"is_disabled":false,"rental_uris":{"android":"levelo://app?vid=94c2774e-0e80-49a5-a48d-27354f95f394","ios":"levelo://app?vid=94c2774e-0e80-49a5-a48d-27354f95f394"},"vehicle_type_id":"4","last_reported":1773923933,"current_range_meters":9200,"station_id":"cpo3532slgdg3j2ikp40","pricing_plan_id":"cebpf4jnsgd1na2vs0mg"},{"bike_id":"690f7d2b-0b6a-4cb2-bfa0-ad237cca0df3","system_id":"levelo_inurba_marseille","lat":43.29309,"lon":5.37151,"is_reserved":false,"is_disabled":false,"rental_uris":{"android":"levelo://app?vid=690f7d2b-0b6a-4cb2-bfa0-ad237cca0df3","ios":"levelo://app?vid=690f7d2b-0b6a-4cb2-bfa0-ad237cca0df3"},"vehicle_type_id":"4","last_reported":1773923933,"current_range_meters":9200,"station_id":"ce4bgh92rcd13ifvqb40","pricing_plan_id":"cebpf4jnsgd1na2vs0mg"},{"bike_id":"de1198f2-86f7-4e4b-8f15-1d4752933303","system_id":"levelo_inurba_marseille","lat":43.23789,"lon":5.36635,"is_reserved":false,"is_disabled":false,"rental_uris":{"android":"levelo://app?vid=de1198f2-86f7-4e4b-8f15-1d4752933303","ios":"levelo://app?vid=de1198f2-86f7-4e4b-8f15-1d4752933303"},"vehicle_type_id":"4","last_reported":1773923933,"current_range_meters":9200,"station_id":"st_d3nk18o9ro0c73en2l3g","pricing_plan_id":"cebpf4jnsgd1na2vs0mg"},{"bike_id":"2429eeb3-6aff-485f-be62-016fca8ba451","system_id":"levelo_inurba_marseille","lat":43.33619,"lon":5.40955,"is_reserved":false,"is_disabled":false,"rental_uris":{"android":"levelo://app?vid=2429eeb3-6aff-485f-be62-016fca8ba451","ios":"levelo://app?vid=2429eeb3-6aff-485f-be62-016fca8ba451"},"vehicle_type_id":"4","last_reported":1773923933,"current_range_meters":9200,"station_id":"","pricing_plan_id":"cebpf4jnsgd1na2vs0mg"},{"bike_id":"e67a10ca-08b5-4e59-9add-884fa44dd5cb","system_id":"levelo_inurba_marseille","lat":43.31278,"lon":5.40181,"is_reserved":false,"is_disabled":false,"rental_uris":{"android":"levelo://app?vid=e67a10ca-08b5-4e59-9add-884fa44dd5cb","ios":"levelo://app?vid=e67a10ca-08b5-4e59-9add-884fa44dd5cb"},"vehicle_type_id":"4","last_reported":1773923933,"current_range_meters":9200,"station_id":"ce4bh092rcd13ifvqd30","pricing_plan_id":"cebpf4jnsgd1na2vs0mg"},{"bike_id":"9d7d6495-9f08-4a8f-9cb2-f434fe09cc90","system_id":"levelo_inurba_marseille","lat":43.29801,"lon":5.42731,"is_reserved":false,"is_disabled":false,"rental_uris":{"android":"levelo://app?vid=9d7d6495-9f08-4a8f-9cb2-f434fe09cc90","ios":"levelo://app?vid=9d7d6495-9f08-4a8f-9cb2-f434fe09cc90"},"vehicle_type_id":"4","last_reported":1773923933,"current_range_meters":9200,"station_id":"","pricing_plan_id":"cebpf4jnsgd1na2vs0mg"},{"bike_id":"2858b502-13ad-4133-aab5-28b9a7f9d95d","system_id":"levelo_inurba_marseille","lat":43.30918,"lon":5.36846,"is_reserved":false,"is_disabled":false,"rental_uris":{"android":"levelo://app?vid=2858b502-13ad-4133-aab5-28b9a7f9d95d","ios":"levelo://app?vid=2858b502-13ad-4133-aab5-28b9a7f9d95d"},"vehicle_type_id":"4","last_reported":1773923933,"current_range_meters":9200,"station_id":"ce4bgn92rcd13ifvqbvg","pricing_plan_id":"cebpf4jnsgd1na2vs0mg"},{"bike_id":"e08d225b-8f4a-4ce0-895d-d9f7f842408c","system_id":"levelo_inurba_marseille","lat":43.24176,"lon":5.36409,"is_reserved":false,"is_disabled":false,"rental_uris":{"android":"levelo://app?vid=e08d225b-8f4a-4ce0-895d-d9f7f842408c","ios":"levelo://app?vid=e08d225b-8f4a-4ce0-895d-d9f7f842408c"},"vehicle_type_id":"4","last_reported":1773923933,"current_range_meters":9200,"station_id":"cpo36qri1sfpv3e86is0","pricing_plan_id":"cebpf4jnsgd1na2vs0mg"},{"bike_id":"9b1e0ad0-f882-4b9f-9cf4-44db8225b85d","system_id":"levelo_inurba_marseille","lat":43.29055,"lon":5.37124,"is_reserved":false,"is_disabled":false,"rental_uris":{"android":"levelo://app?vid=9b1e0ad0-f882-4b9f-9cf4-44db8225b85d","ios":"levelo://app?vid=9b1e0ad0-f882-4b9f-9cf4-44db8225b85d"},"vehicle_type_id":"4","last_reported":1773923933,"current_range_meters":9200,"station_id":"ce4bh5p2rcd13ifvqe4g","pricing_plan_id":"cebpf4jnsgd1na2vs0mg"},{"bike_id":"10ccdf53-38f0-4554-b2b9-b7a8c70067b5","system_id":"levelo_inurba_marseille","lat":43.28442,"lon":5.39187,"is_reserved":false,"is_disabled":false,"rental_uris":{"android":"levelo://app?vid=10ccdf53-38f0-4554-b2b9-b7a8c70067b5","ios":"levelo://app?vid=10ccdf53-38f0-4554-b2b9-b7a8c70067b5"},"vehicle_type_id":"4","last_reported":1773923933,"current_range_meters":9200,"station_id":"ce4bhoh2rcd13ifvqh5g","pricing_plan_id":"cebpf4jnsgd1na2vs0mg"},{"bike_id":"ce9e68e1-8c85-496d-9596-71dcee2830b9","system_id":"levelo_inurba_marseille","lat":43.30961,"lon":5.39014,"is_reserved":false,"is_disabled":false,"rental_uris":{"android":"levelo://app?vid=ce9e68e1-8c85-496d-9596-71dcee2830b9","ios":"levelo://app?vid=ce9e68e1-8c85-496d-9596-71dcee2830b9"},"vehicle_type_id":"4","last_reported":1773923933,"current_range_meters":9200,"station_id":"ce4bgup2rcd13ifvqco0","pricing_plan_id":"cebpf4jnsgd1na2vs0mg"},{"bike_id":"eabf4d2f-073c-41a2-a840-9f5f81a65f64","system_id":"levelo_inurba_marseille","lat":43.29079,"lon":5.4267,"is_reserved":false,"is_disabled":false,"rental_uris":{"android":"levelo://app?vid=eabf4d2f-073c-41a2-a840-9f5f81a65f64","ios":"levelo://app?vid=eabf4d2f-073c-41a2-a840-9f5f81a65f64"},"vehicle_type_id":"4","last_reported":1773923933,"current_range_meters":9200,"station_id":"","pricing_plan_id":"cebpf4jnsgd1na2vs0mg"},{"bike_id":"90517d23-0245-4ae6-8630-7e15be11c5e9","system_id":"levelo_inurba_marseille","lat":43.24009,"lon":5.37891,"is_reserved":false,"is_disabled":false,"rental_uris":{"android":"levelo://app?vid=90517d23-0245-4ae6-8630-7e15be11c5e9","ios":"levelo://app?vid=90517d23-0245-4ae6-8630-7e15be11c5e9"},"vehicle_type_id":"4","last_reported":1773923933,"current_range_meters":9200,"station_id":"","pricing_plan_id":"cebpf4jnsgd1na2vs0mg"},{"bike_id":"b8bb4cdc-867b-40d2-a148-211dcb220274","system_id":"levelo_inurba_marseille","lat":43.31341,"lon":5.36678,"is_reserved":false,"is_disabled":false,"rental_uris":{"android":"levelo://app?vid=b8bb4cdc-867b-40d2-a148-211dcb220274","ios":"levelo://app?vid=b8bb4cdc-867b-40d2-a148-211dcb220274"},"vehicle_type_id":"4","last_reported":1773923933,"current_range_meters":9600,"station_id":"ce4bgr92rcd13ifvqc6g","pricing_plan_id":"cebpf4jnsgd1na2vs0mg"},{"bike_id":"1e441bb9-b545-42fa-9471-66e8ff3097bc","system_id":"levelo_inurba_marseille","lat":43.30374,"lon":5.42487,"is_reserved":false,"is_disabled":false,"rental_uris":{"android":"levelo://app?vid=1e441bb9-b545-42fa-9471-66e8ff3097bc","ios":"levelo://app?vid=1e441bb9-b545-42fa-9471-66e8ff3097bc"},"vehicle_type_id":"4","last_reported":1773923933,"current_range_meters":9600,"station_id":"ce4bhoh2rcd13ifvqh6g","pricing_plan_id":"cebpf4jnsgd1na2vs0mg"},{"bike_id":"3072c2b7-499e-4858-9501-6070c7badbaf","system_id":"levelo_inurba_marseille","lat":43.2396,"lon":5.3662,"is_reserved":false,"is_disabled":false,"rental_uris":{"android":"levelo://app?vid=3072c2b7-499e-4858-9501-6070c7badbaf","ios":"levelo://app?vid=3072c2b7-499e-4858-9501-6070c7badbaf"},"vehicle_type_id":"4","last_reported":1773923933,"current_range_meters":9600,"station_id":"ce4bhi12rcd13ifvqfp0","pricing_plan_id":"cebpf4jnsgd1na2vs0mg"},{"bike_id":"0264288d-82fa-4432-8751-6c08c0e54bb7","system_id":"levelo_inurba_marseille","lat":43.30319,"lon":5.42477,"is_reserved":false,"is_disabled":false,"rental_uris":{"android":"levelo://app?vid=0264288d-82fa-4432-8751-6c08c0e54bb7","ios":"levelo://app?vid=0264288d-82fa-4432-8751-6c08c0e54bb7"},"vehicle_type_id":"4","last_reported":1773923933,"current_range_meters":9600,"station_id":"","pricing_plan_id":"cebpf4jnsgd1na2vs0mg"},{"bike_id":"f15a43b5-dd47-45ae-ae7d-e4490cd6b23e","system_id":"levelo_inurba_marseille","lat":43.30926,"lon":5.36851,"is_reserved":false,"is_disabled":false,"rental_uris":{"android":"levelo://app?vid=f15a43b5-dd47-45ae-ae7d-e4490cd6b23e","ios":"levelo://app?vid=f15a43b5-dd47-45ae-ae7d-e4490cd6b23e"},"vehicle_type_id":"4","last_reported":1773923933,"current_range_meters":9600,"station_id":"ce4bgn92rcd13ifvqbvg","pricing_plan_id":"cebpf4jnsgd1na2vs0mg"},{"bike_id":"c24e8bc3-6fb1-4cfd-99ab-acd7ee2c0ae7","system_id":"levelo_inurba_marseille","lat":43.28613,"lon":5.35094,"is_reserved":false,"is_disabled":false,"rental_uris":{"android":"levelo://app?vid=c24e8bc3-6fb1-4cfd-99ab-acd7ee2c0ae7","ios":"levelo://app?vid=c24e8bc3-6fb1-4cfd-99ab-acd7ee2c0ae7"},"vehicle_type_id":"4","last_reported":1773923933,"current_range_meters":9600,"station_id":"ce4bhch2rcd13ifvqeug","pricing_plan_id":"cebpf4jnsgd1na2vs0mg"},{"bike_id":"dd74091b-705a-4531-bc39-afff2195d9a1","system_id":"levelo_inurba_marseille","lat":43.24835,"lon":5.37458,"is_reserved":false,"is_disabled":false,"rental_uris":{"android":"levelo://app?vid=dd74091b-705a-4531-bc39-afff2195d9a1","ios":"levelo://app?vid=dd74091b-705a-4531-bc39-afff2195d9a1"},"vehicle_type_id":"4","last_reported":1773923933,"current_range_meters":9600,"station_id":"","pricing_plan_id":"cebpf4jnsgd1na2vs0mg"},{"bike_id":"b724ca19-f21b-496f-a49f-562250c66d47","system_id":"levelo_inurba_marseille","lat":43.29556,"lon":5.42289,"is_reserved":false,"is_disabled":false,"rental_uris":{"android":"levelo://app?vid=b724ca19-f21b-496f-a49f-562250c66d47","ios":"levelo://app?vid=b724ca19-f21b-496f-a49f-562250c66d47"},"vehicle_type_id":"4","last_reported":1773923933,"current_range_meters":9600,"station_id":"ce4bhph2rcd13ifvqhdg","pricing_plan_id":"cebpf4jnsgd1na2vs0mg"},{"bike_id":"e8c2f714-8499-47fe-bd54-c8953cf6dca3","system_id":"levelo_inurba_marseille","lat":43.21198,"lon":5.35062,"is_reserved":false,"is_disabled":false,"rental_uris":{"android":"levelo://app?vid=e8c2f714-8499-47fe-bd54-c8953cf6dca3","ios":"levelo://app?vid=e8c2f714-8499-47fe-bd54-c8953cf6dca3"},"vehicle_type_id":"4","last_reported":1773923933,"current_range_meters":9600,"station_id":"st_cvj6sg6p6f1abm77japg","pricing_plan_id":"cebpf4jnsgd1na2vs0mg"},{"bike_id":"33e015f6-34a2-44b9-a37e-fd5fd3630f6d","system_id":"levelo_inurba_marseille","lat":43.24198,"lon":5.36383,"is_reserved":false,"is_disabled":false,"rental_uris":{"android":"levelo://app?vid=33e015f6-34a2-44b9-a37e-fd5fd3630f6d","ios":"levelo://app?vid=33e015f6-34a2-44b9-a37e-fd5fd3630f6d"},"vehicle_type_id":"4","last_reported":1773923933,"current_range_meters":9600,"station_id":"cpo36qri1sfpv3e86is0","pricing_plan_id":"cebpf4jnsgd1na2vs0mg"},{"bike_id":"29ceb06a-4df8-4e2a-9dd9-b070e185b37f","system_id":"levelo_inurba_marseille","lat":43.28476,"lon":5.48401,"is_reserved":false,"is_disabled":false,"rental_uris":{"android":"levelo://app?vid=29ceb06a-4df8-4e2a-9dd9-b070e185b37f","ios":"levelo://app?vid=29ceb06a-4df8-4e2a-9dd9-b070e185b37f"},"vehicle_type_id":"4","last_reported":1773923933,"current_range_meters":9600,"station_id":"st_d3svhcjqgbts73a3dn0g","pricing_plan_id":"cebpf4jnsgd1na2vs0mg"},{"bike_id":"4276c873-a1a7-4e01-9353-4e4aa8b2eafd","system_id":"levelo_inurba_marseille","lat":43.2315,"lon":5.43721,"is_reserved":false,"is_disabled":false,"rental_uris":{"android":"levelo://app?vid=4276c873-a1a7-4e01-9353-4e4aa8b2eafd","ios":"levelo://app?vid=4276c873-a1a7-4e01-9353-4e4aa8b2eafd"},"vehicle_type_id":"4","last_reported":1773923933,"current_range_meters":9600,"station_id":"ce4bhmp2rcd13ifvqgog","pricing_plan_id":"cebpf4jnsgd1na2vs0mg"},{"bike_id":"78ef72c9-6f66-4bf1-a8f0-404183378bc7","system_id":"levelo_inurba_marseille","lat":43.27996,"lon":5.40015,"is_reserved":false,"is_disabled":true,"rental_uris":{"android":"levelo://app?vid=78ef72c9-6f66-4bf1-a8f0-404183378bc7","ios":"levelo://app?vid=78ef72c9-6f66-4bf1-a8f0-404183378bc7"},"vehicle_type_id":"4","last_reported":1773923933,"current_range_meters":9600,"station_id":"ce4bho92rcd13ifvqh4g","pricing_plan_id":"cebpf4jnsgd1na2vs0mg"},{"bike_id":"f76be1bf-b839-4363-b725-31a2cfaf3f32","system_id":"levelo_inurba_marseille","lat":43.23811,"lon":5.36628,"is_reserved":false,"is_disabled":false,"rental_uris":{"android":"levelo://app?vid=f76be1bf-b839-4363-b725-31a2cfaf3f32","ios":"levelo://app?vid=f76be1bf-b839-4363-b725-31a2cfaf3f32"},"vehicle_type_id":"4","last_reported":1773923933,"current_range_meters":9600,"station_id":"st_d3nk18o9ro0c73en2l3g","pricing_plan_id":"cebpf4jnsgd1na2vs0mg"},{"bike_id":"f2d4c0c2-780f-4ff3-ab99-2dad40289397","system_id":"levelo_inurba_marseille","lat":43.25248,"lon":5.42178,"is_reserved":false,"is_disabled":false,"rental_uris":{"android":"levelo://app?vid=f2d4c0c2-780f-4ff3-ab99-2dad40289397","ios":"levelo://app?vid=f2d4c0c2-780f-4ff3-ab99-2dad40289397"},"vehicle_type_id":"4","last_reported":1773923933,"current_range_meters":9600,"station_id":"","pricing_plan_id":"cebpf4jnsgd1na2vs0mg"},{"bike_id":"8f07b2e6-fca7-4a4f-ace1-ae240532dc8e","system_id":"levelo_inurba_marseille","lat":43.26214,"lon":5.37436,"is_reserved":false,"is_disabled":false,"rental_uris":{"android":"levelo://app?vid=8f07b2e6-fca7-4a4f-ace1-ae240532dc8e","ios":"levelo://app?vid=8f07b2e6-fca7-4a4f-ace1-ae240532dc8e"},"vehicle_type_id":"4","last_reported":1773923933,"current_range_meters":9600,"station_id":"ce4bhgp2rcd13ifvqfc0","pricing_plan_id":"cebpf4jnsgd1na2vs0mg"},{"bike_id":"e059ca02-0344-41c4-a79a-694280781303","system_id":"levelo_inurba_marseille","lat":43.31221,"lon":5.36899,"is_reserved":false,"is_disabled":false,"rental_uris":{"android":"levelo://app?vid=e059ca02-0344-41c4-a79a-694280781303","ios":"levelo://app?vid=e059ca02-0344-41c4-a79a-694280781303"},"vehicle_type_id":"4","last_reported":1773923933,"current_range_meters":9600,"station_id":"ce4bgl92rcd13ifvqbq0","pricing_plan_id":"cebpf4jnsgd1na2vs0mg"},{"bike_id":"6facd902-1f01-42fc-a162-c8374692b594","system_id":"levelo_inurba_marseille","lat":43.31882,"lon":5.40738,"is_reserved":false,"is_disabled":false,"rental_uris":{"android":"levelo://app?vid=6facd902-1f01-42fc-a162-c8374692b594","ios":"levelo://app?vid=6facd902-1f01-42fc-a162-c8374692b594"},"vehicle_type_id":"4","last_reported":1773923933,"current_range_meters":10000,"station_id":"ce4bhq12rcd13ifvqhig","pricing_plan_id":"cebpf4jnsgd1na2vs0mg"},{"bike_id":"3d74e386-5126-450a-86d0-c61906dbca33","system_id":"levelo_inurba_marseille","lat":43.29262,"lon":5.36846,"is_reserved":false,"is_disabled":false,"rental_uris":{"android":"levelo://app?vid=3d74e386-5126-450a-86d0-c61906dbca33","ios":"levelo://app?vid=3d74e386-5126-450a-86d0-c61906dbca33"},"vehicle_type_id":"4","last_reported":1773923933,"current_range_meters":10000,"station_id":"ce4bhbp2rcd13ifvqesg","pricing_plan_id":"cebpf4jnsgd1na2vs0mg"},{"bike_id":"df37cab4-b6a7-4020-839a-a43e52d33187","system_id":"levelo_inurba_marseille","lat":43.24085,"lon":5.37751,"is_reserved":false,"is_disabled":false,"rental_uris":{"android":"levelo://app?vid=df37cab4-b6a7-4020-839a-a43e52d33187","ios":"levelo://app?vid=df37cab4-b6a7-4020-839a-a43e52d33187"},"vehicle_type_id":"4","last_reported":1773923933,"current_range_meters":10000,"station_id":"ce4bhnp2rcd13ifvqgvg","pricing_plan_id":"cebpf4jnsgd1na2vs0mg"},{"bike_id":"a775511c-9985-4a58-8c4c-775aad7f3e36","system_id":"levelo_inurba_marseille","lat":43.29912,"lon":5.43646,"is_reserved":false,"is_disabled":false,"rental_uris":{"android":"levelo://app?vid=a775511c-9985-4a58-8c4c-775aad7f3e36","ios":"levelo://app?vid=a775511c-9985-4a58-8c4c-775aad7f3e36"},"vehicle_type_id":"4","last_reported":1773923933,"current_range_meters":10000,"station_id":"ce4bhpp2rcd13ifvqhfg","pricing_plan_id":"cebpf4jnsgd1na2vs0mg"},{"bike_id":"12118d88-8157-4d76-ad00-12ce3bc20921","system_id":"levelo_inurba_marseille","lat":43.30842,"lon":5.37129,"is_reserved":false,"is_disabled":false,"rental_uris":{"android":"levelo://app?vid=12118d88-8157-4d76-ad00-12ce3bc20921","ios":"levelo://app?vid=12118d88-8157-4d76-ad00-12ce3bc20921"},"vehicle_type_id":"4","last_reported":1773923933,"current_range_meters":10000,"station_id":"","pricing_plan_id":"cebpf4jnsgd1na2vs0mg"},{"bike_id":"0836c59c-4e19-4ca7-8410-a79df9dfcc6b","system_id":"levelo_inurba_marseille","lat":43.28534,"lon":5.44097,"is_reserved":false,"is_disabled":false,"rental_uris":{"android":"levelo://app?vid=0836c59c-4e19-4ca7-8410-a79df9dfcc6b","ios":"levelo://app?vid=0836c59c-4e19-4ca7-8410-a79df9dfcc6b"},"vehicle_type_id":"4","last_reported":1773923933,"current_range_meters":10000,"station_id":"st_d3j3df2ikq2c7380ej80","pricing_plan_id":"cebpf4jnsgd1na2vs0mg"},{"bike_id":"a7dd1c2f-1863-4db6-9064-755a90a3283b","system_id":"levelo_inurba_marseille","lat":43.29719,"lon":5.42588,"is_reserved":false,"is_disabled":false,"rental_uris":{"android":"levelo://app?vid=a7dd1c2f-1863-4db6-9064-755a90a3283b","ios":"levelo://app?vid=a7dd1c2f-1863-4db6-9064-755a90a3283b"},"vehicle_type_id":"4","last_reported":1773923933,"current_range_meters":10000,"station_id":"","pricing_plan_id":"cebpf4jnsgd1na2vs0mg"},