{"last_updated":1734109715,"ttl":60,"version":"2.2","data":{"bikes":[{"bike_id":"45c22bfb-3859-46ca-bbdd-b43970628095","system_id":"levelo_inurba_marseille","lat":43.23199,"lon":5.39992,"is_reserved":false,"is_disabled":false,"rental_uris":{"android":"levelo://app?vid=45c22bfb-3859-46ca-bbdd-b43970628095","ios":"levelo://app?vid=45c22bfb-3859-46ca-bbdd-b43970628095"},"vehicle_type_id":"4","last_reported":1734109715,"current_range_meters":27200,"station_id":"ce4bhn12rcd13ifvqgqg","pricing_plan_id":"cebpf4jnsgd1na2vs0mg"},{"bike_id":"3e5d99b9-1aaf-48b9-b5fb-fb7a0b5b1ba5","system_id":"levelo_inurba_marseille","lat":43.29018,"lon":5.39215,"is_reserved":false,"is_disabled":true,"rental_uris":{"android":"levelo://app?vid=3e5d99b9-1aaf-48b9-b5fb-fb7a0b5b1ba5","ios":"levelo://app?vid=3e5d99b9-1aaf-48b9-b5fb-fb7a0b5b1ba5"},"vehicle_type_id":"4","last_reported":1734109715,"current_range_meters":0,"station_id":"","pricing_plan_id":"cebpf4jnsgd1na2vs0mg"},{"bike_id":"ed18df8c-5a65-436b-b0b8-5f5d8d39d343","system_id":"levelo_inurba_marseille","lat":43.26032,"lon":5.37557,"is_reserved":false,"is_disabled":false,"rental_uris":{"android":"levelo://app?vid=ed18df8c-5a65-436b-b0b8-5f5d8d39d343","ios":"levelo://app?vid=ed18df8c-5a65-436b-b0b8-5f5d8d39d343"},"vehicle_type_id":"4","last_reported":1734109715,"current_range_meters":38800,"station_id":"ce4bhgh2rcd13ifvqfa0","pricing_plan_id":"cebpf4jnsgd1na2vs0mg"},{"bike_id":"0c5fab13-b147-4c30-b30b-0839a6015356","system_id":"levelo_inurba_marseille","lat":43.29552,"lon":5.42289,"is_reserved":false,"is_disabled":false,"rental_uris":{"android":"levelo://app?vid=0c5fab13-b147-4c30-b30b-0839a6015356","ios":"levelo://app?vid=0c5fab13-b147-4c30-b30b-0839a6015356"},"vehicle_type_id":"4","last_reported":1734109715,"current_range_meters":23200,"station_id":"ce4bhph2rcd13ifvqhdg","pricing_plan_id":"cebpf4jnsgd1na2vs0mg"},{"bike_id":"c1ba8960-5c9e-478d-9f51-c4bd04bfae50","system_id":"levelo_inurba_marseille","lat":43.30769,"lon":5.37588,"is_reserved":false,"is_disabled":false,"rental_uris":{"android":"levelo://app?vid=c1ba8960-5c9e-478d-9f51-c4bd04bfae50","ios":"levelo://app?vid=c1ba8960-5c9e-478d-9f51-c4bd04bfae50"},"vehicle_type_id":"4","last_reported":1734109715,"current_range_meters":24400,"station_id":"","pricing_plan_id":"cebpf4jnsgd1na2vs0mg"},{"bike_id":"b2af1cb6-be0f-4d65-9a84-c18318e1c336","system_id":"levelo_inurba_marseille","lat":43.30599,"lon":5.37219,"is_reserved":false,"is_disabled":false,"rental_uris":{"android":"levelo://app?vid=b2af1cb6-be0f-4d65-9a84-c18318e1c336","ios":"levelo://app?vid=b2af1cb6-be0f-4d65-9a84-c18318e1c336"},"vehicle_type_id":"4","last_reported":1734109715,"current_range_meters":19200,"station_id":"ce4bgqh2rcd13ifvqc4g","pricing_plan_id":"cebpf4jnsgd1na2vs0mg"},{"bike_id":"408839ca-89cd-45d6-a1e9-bb41b146f5a9","system_id":"levelo_inurba_marseille","lat":43.28473,"lon":5.3589,"is_reserved":false,"is_disabled":false,"rental_uris":{"android":"levelo://app?vid=408839ca-89cd-45d6-a1e9-bb41b146f5a9","ios":"levelo://app?vid=408839ca-89cd-45d6-a1e9-bb41b146f5a9"},"vehicle_type_id":"4","last_reported":1734109715,"current_range_meters":14400,"station_id":"ce4bhah2rcd13ifvqei0","pricing_plan_id":"cebpf4jnsgd1na2vs0mg"},{"bike_id":"b17607f3-83bf-474a-a9e5-2dc71652d8a2","system_id":"levelo_inurba_marseille","lat":43.25277,"lon":5.40228,"is_reserved":false,"is_disabled":true,"rental_uris":{"android":"levelo://app?vid=b17607f3-83bf-474a-a9e5-2dc71652d8a2","ios":"levelo://app?vid=b17607f3-83bf-474a-a9e5-2dc71652d8a2"},"vehicle_type_id":"4","last_reported":1734109715,"current_range_meters":0,"station_id":"ce4bhlh2rcd13ifvqgig","pricing_plan_id":"cebpf4jnsgd1na2vs0mg"},{"bike_id":"1210c1f2-8ca3-42fe-a7b5-07bf08771e6d","system_id":"levelo_inurba_marseille","lat":43.28612,"lon":5.35103,"is_reserved":false,"is_disabled":false,"rental_uris":{"android":"levelo://app?vid=1210c1f2-8ca3-42fe-a7b5-07bf08771e6d","ios":"levelo://app?vid=1210c1f2-8ca3-42fe-a7b5-07bf08771e6d"},"vehicle_type_id":"4","last_reported":1734109715,"current_range_meters":13600,"station_id":"ce4bhch2rcd13ifvqeug","pricing_plan_id":"cebpf4jnsgd1na2vs0mg"},{"bike_id":"50050334-1e2a-479c-9949-068ede2f4fcb","system_id":"levelo_inurba_marseille","lat":43.265499,"lon":5.372936,"is_reserved":false,"is_disabled":false,"rental_uris":{"android":"levelo://app?vid=50050334-1e2a-479c-9949-068ede2f4fcb","ios":"levelo://app?vid=50050334-1e2a-479c-9949-068ede2f4fcb"},"vehicle_type_id":"4","last_reported":1734109715,"current_range_meters":32400,"station_id":"ce4bhg12rcd13ifvqf70","pricing_plan_id":"cebpf4jnsgd1na2vs0mg"},{"bike_id":"f53a51f1-6db0-4716-9c45-7ac4c7fcd208","system_id":"levelo_inurba_marseille","lat":43.32295,"lon":5.38271,"is_reserved":false,"is_disabled":false,"rental_uris":{"android":"levelo://app?vid=f53a51f1-6db0-4716-9c45-7ac4c7fcd208","ios":"levelo://app?vid=f53a51f1-6db0-4716-9c45-7ac4c7fcd208"},"vehicle_type_id":"4","last_reported":1734109715,"current_range_meters":35200,"station_id":"ce4bhr12rcd13ifvqhqg","pricing_plan_id":"cebpf4jnsgd1na2vs0mg"},{"bike_id":"980f96eb-32c9-4906-98f6-c44dbf4c84a1","system_id":"levelo_inurba_marseille","lat":43.27455,"lon":5.40073,"is_reserved":false,"is_disabled":true,"rental_uris":{"android":"levelo://app?vid=980f96eb-32c9-4906-98f6-c44dbf4c84a1","ios":"levelo://app?vid=980f96eb-32c9-4906-98f6-c44dbf4c84a1"},"vehicle_type_id":"4","last_reported":1734109715,"current_range_meters":0,"station_id":"","pricing_plan_id":"cebpf4jnsgd1na2vs0mg"},{"bike_id":"0e210861-ee58-4784-b1a9-266a1a1a4e13","system_id":"levelo_inurba_marseille","lat":43.2679,"lon":5.39421,"is_reserved":false,"is_disabled":false,"rental_uris":{"android":"levelo://app?vid=0e210861-ee58-4784-b1a9-266a1a1a4e13","ios":"levelo://app?vid=0e210861-ee58-4784-b1a9-266a1a1a4e13"},"vehicle_type_id":"4","last_reported":1734109715,"current_range_meters":10800,"station_id":"ce4bhh12rcd13ifvqfg0","pricing_plan_id":"cebpf4jnsgd1na2vs0mg"},{"bike_id":"5a955820-a73f-4271-a964-2695e02237a1","system_id":"levelo_inurba_marseille","lat":43.3031,"lon":5.36897,"is_reserved":false,"is_disabled":false,"rental_uris":{"android":"levelo://app?vid=5a955820-a73f-4271-a964-2695e02237a1","ios":"levelo://app?vid=5a955820-a73f-4271-a964-2695e02237a1"},"vehicle_type_id":"4","last_reported":1734109715,"current_range_meters":9600,"station_id":"ce4bgqh2rcd13ifvqc5g","pricing_plan_id":"cebpf4jnsgd1na2vs0mg"},{"bike_id":"61ba1f4d-7627-46c2-98fb-465e44db8379","system_id":"levelo_inurba_marseille","lat":43.30139,"lon":5.38771,"is_reserved":false,"is_disabled":false,"rental_uris":{"android":"levelo://app?vid=61ba1f4d-7627-46c2-98fb-465e44db8379","ios":"levelo://app?vid=61ba1f4d-7627-46c2-98fb-465e44db8379"},"vehicle_type_id":"4","last_reported":1734109715,"current_range_meters":14800,"station_id":"ce4bhoh2rcd13ifvqh6g","pricing_plan_id":"cebpf4jnsgd1na2vs0mg"},{"bike_id":"d64735b9-3201-48f9-b7d1-d8bd9269830f","system_id":"levelo_inurba_marseille","lat":43.31332,"lon":5.39727,"is_reserved":false,"is_disabled":false,"rental_uris":{"android":"levelo://app?vid=d64735b9-3201-48f9-b7d1-d8bd9269830f","ios":"levelo://app?vid=d64735b9-3201-48f9-b7d1-d8bd9269830f"},"vehicle_type_id":"4","last_reported":1734109715,"current_range_meters":35600,"station_id":"ce4bgvp2rcd13ifvqcu0","pricing_plan_id":"cebpf4jnsgd1na2vs0mg"},{"bike_id":"80e5c1e3-8d27-43e3-9451-b00f65b301df","system_id":"levelo_inurba_marseille","lat":43.23193,"lon":5.35552,"is_reserved":false,"is_disabled":false,"rental_uris":{"android":"levelo://app?vid=80e5c1e3-8d27-43e3-9451-b00f65b301df","ios":"levelo://app?vid=80e5c1e3-8d27-43e3-9451-b00f65b301df"},"vehicle_type_id":"4","last_reported":1734109715,"current_range_meters":4800,"station_id":"ce4bhu92rcd13ifvqi70","pricing_plan_id":"cebpf4jnsgd1na2vs0mg"},{"bike_id":"1630082a-d97c-4c40-814b-72c7ada49389","system_id":"levelo_inurba_marseille","lat":43.28322,"lon":5.43275,"is_reserved":false,"is_disabled":false,"rental_uris":{"android":"levelo://app?vid=1630082a-d97c-4c40-814b-72c7ada49389","ios":"levelo://app?vid=1630082a-d97c-4c40-814b-72c7ada49389"},"vehicle_type_id":"4","last_reported":1734109715,"current_range_meters":24800,"station_id":"","pricing_plan_id":"cebpf4jnsgd1na2vs0mg"},{"bike_id":"311d771b-76e5-4cf6-9ab4-c90137bb3713","system_id":"levelo_inurba_marseille","lat":43.27994,"lon":5.41662,"is_reserved":false,"is_disabled":false,"rental_uris":{"android":"levelo://app?vid=311d771b-76e5-4cf6-9ab4-c90137bb3713","ios":"levelo://app?vid=311d771b-76e5-4cf6-9ab4-c90137bb3713"},"vehicle_type_id":"4","last_reported":1734109715,"current_range_meters":38800,"station_id":"ce4bho12rcd13ifvqh1g","pricing_plan_id":"cebpf4jnsgd1na2vs0mg"},{"bike_id":"68341feb-c70b-4c28-91d5-1c7269ec3b3a","system_id":"levelo_inurba_marseille","lat":43.3026,"lon":5.39243,"is_reserved":false,"is_disabled":false,"rental_uris":{"android":"levelo://app?vid=68341feb-c70b-4c28-91d5-1c7269ec3b3a","ios":"levelo://app?vid=68341feb-c70b-4c28-91d5-1c7269ec3b3a"},"vehicle_type_id":"4","last_reported":1734109715,"current_range_meters":9200,"station_id":"","pricing_plan_id":"cebpf4jnsgd1na2vs0mg"},{"bike_id":"ce2ffe22-db46-4464-b065-cd8df23833eb","system_id":"levelo_inurba_marseille","lat":43.27941,"lon":5.41037,"is_reserved":false,"is_disabled":true,"rental_uris":{"android":"levelo://app?vid=ce2ffe22-db46-4464-b065-cd8df23833eb","ios":"levelo://app?vid=ce2ffe22-db46-4464-b065-cd8df23833eb"},"vehicle_type_id":"4","last_reported":1734109715,"current_range_meters":1600,"station_id":"ce4bhnp2rcd13ifvqh0g","pricing_plan_id":"cebpf4jnsgd1na2vs0mg"},{"bike_id":"e61e7d51-4410-4439-84fd-809b39c5c911","system_id":"levelo_inurba_marseille","lat":43.28715,"lon":5.37924,"is_reserved":false,"is_disabled":false,"rental_uris":{"android":"levelo://app?vid=e61e7d51-4410-4439-84fd-809b39c5c911","ios":"levelo://app?vid=e61e7d51-4410-4439-84fd-809b39c5c911"},"vehicle_type_id":"4","last_reported":1734109715,"current_range_meters":25600,"station_id":"ce4bh9p2rcd13ifvqec0","pricing_plan_id":"cebpf4jnsgd1na2vs0mg"},{"bike_id":"d5c89c1f-3bad-4af2-9449-e04c277a4696","system_id":"levelo_inurba_marseille","lat":43.29968,"lon":5.41308,"is_reserved":false,"is_disabled":true,"rental_uris":{"android":"levelo://app?vid=d5c89c1f-3bad-4af2-9449-e04c277a4696","ios":"levelo://app?vid=d5c89c1f-3bad-4af2-9449-e04c277a4696"},"vehicle_type_id":"4","last_reported":1734109715,"current_range_meters":33600,"station_id":"ce4bhp12rcd13ifvqh9g","pricing_plan_id":"cebpf4jnsgd1na2vs0mg"},{"bike_id":"9638bd5a-6709-4ae5-844c-ab1839e55063","system_id":"levelo_inurba_marseille","lat":43.22918,"lon":5.35291,"is_reserved":false,"is_disabled":false,"rental_uris":{"android":"levelo://app?vid=9638bd5a-6709-4ae5-844c-ab1839e55063","ios":"levelo://app?vid=9638bd5a-6709-4ae5-844c-ab1839e55063"},"vehicle_type_id":"4","last_reported":1734109715,"current_range_meters":24800,"station_id":"cpo3532slgdg3j2ikp40","pricing_plan_id":"cebpf4jnsgd1na2vs0mg"},{"bike_id":"5dcb142e-3766-4e2c-b1fe-c9ebbc5d3c50","system_id":"levelo_inurba_marseille","lat":43.3199,"lon":5.38099,"is_reserved":false,"is_disabled":false,"rental_uris":{"android":"levelo://app?vid=5dcb142e-3766-4e2c-b1fe-c9ebbc5d3c50","ios":"levelo://app?vid=5dcb142e-3766-4e2c-b1fe-c9ebbc5d3c50"},"vehicle_type_id":"4","last_reported":1734109715,"current_range_meters":8000,"station_id":"ce4bhr12rcd13ifvqhpg","pricing_plan_id":"cebpf4jnsgd1na2vs0mg"},{"bike_id":"b5f66ab7-481f-483f-8e9a-bb03e56c15ef","system_id":"levelo_inurba_marseille","lat":43.27065,"lon":5.42267,"is_reserved":false,"is_disabled":false,"rental_uris":{"android":"levelo://app?vid=b5f66ab7-481f-483f-8e9a-bb03e56c15ef","ios":"levelo://app?vid=b5f66ab7-481f-483f-8e9a-bb03e56c15ef"},"vehicle_type_id":"4","last_reported":1734109715,"current_range_meters":8000,"station_id":"ce4bhk92rcd13ifvqgb0","pricing_plan_id":"cebpf4jnsgd1na2vs0mg"},{"bike_id":"3a312272-900a-4c4b-bb5b-4ed6000e4b63","system_id":"levelo_inurba_marseille","lat":43.30136,"lon":5.38062,"is_reserved":false,"is_disabled":false,"rental_uris":{"android":"levelo://app?vid=3a312272-900a-4c4b-bb5b-4ed6000e4b63","ios":"levelo://app?vid=3a312272-900a-4c4b-bb5b-4ed6000e4b63"},"vehicle_type_id":"4","last_reported":1734109715,"current_range_meters":35600,"station_id":"ce4bgjp2rcd13ifvqbh0","pricing_plan_id":"cebpf4jnsgd1na2vs0mg"},{"bike_id":"516bcbce-8b75-4610-9ee5-df08b7034853","system_id":"levelo_inurba_marseille","lat":43.26772,"lon":5.39418,"is_reserved":false,"is_disabled":false,"rental_uris":{"android":"levelo://app?vid=516bcbce-8b75-4610-9ee5-df08b7034853","ios":"levelo://app?vid=516bcbce-8b75-4610-9ee5-df08b7034853"},"vehicle_type_id":"4","last_reported":1734109715,"current_range_meters":4000,"station_id":"ce4bhh12rcd13ifvqfg0","pricing_plan_id":"cebpf4jnsgd1na2vs0mg"},{"bike_id":"cf2a1658-7b5a-421e-83d2-040c721d431b","system_id":"levelo_inurba_marseille","lat":43.2845,"lon":5.35878,"is_reserved":false,"is_disabled":false,"rental_uris":{"android":"levelo://app?vid=cf2a1658-7b5a-421e-83d2-040c721d431b","ios":"levelo://app?vid=cf2a1658-7b5a-421e-83d2-040c721d431b"},"vehicle_type_id":"4","last_reported":1734109715,"current_range_meters":38000,"station_id":"ce4bhah2rcd13ifvqei0","pricing_plan_id":"cebpf4jnsgd1na2vs0mg"},{"bike_id":"1246e6b9-1bba-43b9-9075-2687b084a677","system_id":"levelo_inurba_marseille","lat":43.25867,"lon":5.39902,"is_reserved":false,"is_disabled":false,"rental_uris":{"android":"levelo://app?vid=1246e6b9-1bba-43b9-9075-2687b084a677","ios":"levelo://app?vid=1246e6b9-1bba-43b9-9075-2687b084a677"},"vehicle_type_id":"4","last_reported":1734109715,"current_range_meters":8800,"station_id":"ce4bhl92rcd13ifvqghg","pricing_plan_id":"cebpf4jnsgd1na2vs0mg"},{"bike_id":"bde72ce6-0ccc-4f2c-9e6c-15e0ed6d537e","system_id":"levelo_inurba_marseille","lat":43.290019,"lon":5.399641,"is_reserved":false,"is_disabled":false,"rental_uris":{"android":"levelo://app?vid=bde72ce6-0ccc-4f2c-9e6c-15e0ed6d537e","ios":"levelo://app?vid=bde72ce6-0ccc-4f2c-9e6c-15e0ed6d537e"},"vehicle_type_id":"4","last_reported":1734109715,"current_range_meters":21600,"station_id":"ce4bh0h2rcd13ifvqd60","pricing_plan_id":"cebpf4jnsgd1na2vs0mg"},{"bike_id":"9658b4e0-946e-4511-8e18-b51586108f8c","system_id":"levelo_inurba_marseille","lat":43.33761,"lon":5.37438,"is_reserved":false,"is_disabled":false,"rental_uris":{"android":"levelo://app?vid=9658b4e0-946e-4511-8e18-b51586108f8c","ios":"levelo://app?vid=9658b4e0-946e-4511-8e18-b51586108f8c"},"vehicle_type_id":"4","last_reported":1734109715,"current_range_meters":38000,"station_id":"","pricing_plan_id":"cebpf4jnsgd1na2vs0mg"},{"bike_id":"495986c7-e02a-4c20-a1dc-c3edae2c8c07","system_id":"levelo_inurba_marseille","lat":43.30176,"lon":5.37357,"is_reserved":false,"is_disabled":false,"rental_uris":{"android":"levelo://app?vid=495986c7-e02a-4c20-a1dc-c3edae2c8c07","ios":"levelo://app?vid=495986c7-e02a-4c20-a1dc-c3edae2c8c07"},"vehicle_type_id":"4","last_reported":1734109715,"current_range_meters":28400,"station_id":"","pricing_plan_id":"cebpf4jnsgd1na2vs0mg"},{"bike_id":"62deda22-1fb7-432c-b85a-e74584847620","system_id":"levelo_inurba_marseille","lat":43.31164,"lon":5.37249,"is_reserved":false,"is_disabled":true,"rental_uris":{"android":"levelo://app?vid=62deda22-1fb7-432c-b85a-e74584847620","ios":"levelo://app?vid=62deda22-1fb7-432c-b85a-e74584847620"},"vehicle_type_id":"4","last_reported":1734109715,"current_range_meters":1200,"station_id":"","pricing_plan_id":"cebpf4jnsgd1na2vs0mg"},{"bike_id":"9bfcebe4-fee2-409c-a8ab-5608ab6f061f","system_id":"levelo_inurba_marseille","lat":43.2816,"lon":5.4275,"is_reserved":false,"is_disabled":true,"rental_uris":{"android":"levelo://app?vid=9bfcebe4-fee2-409c-a8ab-5608ab6f061f","ios":"levelo://app?vid=9bfcebe4-fee2-409c-a8ab-5608ab6f061f"},"vehicle_type_id":"4","last_reported":1734109715,"current_range_meters":38000,"station_id":"","pricing_plan_id":"cebpf4jnsgd1na2vs0mg"},{"bike_id":"0e8a89dc-4e73-48a3-8682-6696627877b1","system_id":"levelo_inurba_marseille","lat":43.31771,"lon":5.39019,"is_reserved":false,"is_disabled":false,"rental_uris":{"android":"levelo://app?vid=0e8a89dc-4e73-48a3-8682-6696627877b1","ios":"levelo://app?vid=0e8a89dc-4e73-48a3-8682-6696627877b1"},"vehicle_type_id":"4","last_reported":1734109715,"current_range_meters":38800,"station_id":"ce4bhqp2rcd13ifvqhng","pricing_plan_id":"cebpf4jnsgd1na2vs0mg"},{"bike_id":"edaea664-24e0-4d6c-aa7a-497f5c5f88f6","system_id":"levelo_inurba_marseille","lat":43.27021,"lon":5.39152,"is_reserved":false,"is_disabled":true,"rental_uris":{"android":"levelo://app?vid=edaea664-24e0-4d6c-aa7a-497f5c5f88f6","ios":"levelo://app?vid=edaea664-24e0-4d6c-aa7a-497f5c5f88f6"},"vehicle_type_id":"4","last_reported":1734109715,"current_range_meters":0,"station_id":"","pricing_plan_id":"cebpf4jnsgd1na2vs0mg"},{"bike_id":"20cd681c-e1b2-4e02-a36a-4c0f539a1945","system_id":"levelo_inurba_marseille","lat":43.29997,"lon":5.37161,"is_reserved":false,"is_disabled":false,"rental_uris":{"android":"levelo://app?vid=20cd681c-e1b2-4e02-a36a-4c0f539a1945","ios":"levelo://app?vid=20cd681c-e1b2-4e02-a36a-4c0f539a1945"},"vehicle_type_id":"4","last_reported":1734109715,"current_range_meters":38800,"station_id":"ce4bgr92rcd13ifvqc7g","pricing_plan_id":"cebpf4jnsgd1na2vs0mg"},{"bike_id":"69e8b734-359a-4913-807c-6c6e0641b1a5","system_id":"levelo_inurba_marseille","lat":43.29184,"lon":5.35804,"is_reserved":false,"is_disabled":false,"rental_uris":{"android":"levelo://app?vid=69e8b734-359a-4913-807c-6c6e0641b1a5","ios":"levelo://app?vid=69e8b734-359a-4913-807c-6c6e0641b1a5"},"vehicle_type_id":"4","last_reported":1734109715,"current_range_meters":24000,"station_id":"ce4bhb12rcd13ifvqel0","pricing_plan_id":"cebpf4jnsgd1na2vs0mg"},{"bike_id":"031809f5-fdc4-4687-967d-86d6a0becf47","system_id":"levelo_inurba_marseille","lat":43.25869,"lon":5.39922,"is_reserved":false,"is_disabled":false,"rental_uris":{"android":"levelo://app?vid=031809f5-fdc4-4687-967d-86d6a0becf47","ios":"levelo://app?vid=031809f5-fdc4-4687-967d-86d6a0becf47"},"vehicle_type_id":"4","last_reported":1734109715,"current_range_meters":38400,"station_id":"ce4bhl92rcd13ifvqghg","pricing_plan_id":"cebpf4jnsgd1na2vs0mg"},{"bike_id":"e5319128-beda-479d-9af0-fad6238eaf7d","system_id":"levelo_inurba_marseille","lat":43.29555,"lon":5.42291,"is_reserved":false,"is_disabled":false,"rental_uris":{"android":"levelo://app?vid=e5319128-beda-479d-9af0-fad6238eaf7d","ios":"levelo://app?vid=e5319128-beda-479d-9af0-fad6238eaf7d"},"vehicle_type_id":"4","last_reported":1734109715,"current_range_meters":24000,"station_id":"ce4bhph2rcd13ifvqhdg","pricing_plan_id":"cebpf4jnsgd1na2vs0mg"},{"bike_id":"75d005f1-a104-4287-b501-1002db049ee7","system_id":"levelo_inurba_marseille","lat":43.337285,"lon":5.392097,"is_reserved":false,"is_disabled":false,"rental_uris":{"android":"levelo://app?vid=75d005f1-a104-4287-b501-1002db049ee7","ios":"levelo://app?vid=75d005f1-a104-4287-b501-1002db049ee7"},"vehicle_type_id":"4","last_reported":1734109715,"current_range_meters":38800,"station_id":"ce4bhr92rcd13ifvqhsg","pricing_plan_id":"cebpf4jnsgd1na2vs0mg"},{"bike_id":"9c1ce7b6-f5d4-48dd-b699-4ec030edf6d0","system_id":"levelo_inurba_marseille","lat":43.33043,"lon":5.39047,"is_reserved":false,"is_disabled":false,"rental_uris":{"android":"levelo://app?vid=9c1ce7b6-f5d4-48dd-b699-4ec030edf6d0","ios":"levelo://app?vid=9c1ce7b6-f5d4-48dd-b699-4ec030edf6d0"},"vehicle_type_id":"4","last_reported":1734109715,"current_range_meters":16000,"station_id":"ce4bhr92rcd13ifvqhrg","pricing_plan_id":"cebpf4jnsgd1na2vs0mg"},{"bike_id":"34d7631f-66a6-499a-9ffe-f1d4f47f7470","system_id":"levelo_inurba_marseille","lat":43.30143,"lon":5.37415,"is_reserved":false,"is_disabled":false,"rental_uris":{"android":"levelo://app?vid=34d7631f-66a6-499a-9ffe-f1d4f47f7470","ios":"levelo://app?vid=34d7631f-66a6-499a-9ffe-f1d4f47f7470"},"vehicle_type_id":"4","last_reported":1734109715,"current_range_meters":36800,"station_id":"ce4bgs92rcd13ifvqcc0","pricing_plan_id":"cebpf4jnsgd1na2vs0mg"},{"bike_id":"30b7f7b0-cffb-44e8-9e23-86428fe1183d","system_id":"levelo_inurba_marseille","lat":43.23057,"lon":5.35435,"is_reserved":false,"is_disabled":false,"rental_uris":{"android":"levelo://app?vid=30b7f7b0-cffb-44e8-9e23-86428fe1183d","ios":"levelo://app?vid=30b7f7b0-cffb-44e8-9e23-86428fe1183d"},"vehicle_type_id":"4","last_reported":1734109715,"current_range_meters":37600,"station_id":"cpo3342slgdg3j2ifvpg","pricing_plan_id":"cebpf4jnsgd1na2vs0mg"},{"bike_id":"233152e3-139d-427b-9290-e3900e701592","system_id":"levelo_inurba_marseille","lat":43.31087,"lon":5.42394,"is_reserved":false,"is_disabled":false,"rental_uris":{"android":"levelo://app?vid=233152e3-139d-427b-9290-e3900e701592","ios":"levelo://app?vid=233152e3-139d-427b-9290-e3900e701592"},"vehicle_type_id":"4","last_reported":1734109715,"current_range_meters":12800,"station_id":"ce4bhp92rcd13ifvqhag","pricing_plan_id":"cebpf4jnsgd1na2vs0mg"},{"bike_id":"c962957d-ec10-4997-96e1-a869343f922e","system_id":"levelo_inurba_marseille","lat":43.32713,"lon":5.361,"is_reserved":false,"is_disabled":false,"rental_uris":{"android":"levelo://app?vid=c962957d-ec10-4997-96e1-a869343f922e","ios":"levelo://app?vid=c962957d-ec10-4997-96e1-a869343f922e"},"vehicle_type_id":"4","last_reported":1734109715,"current_range_meters":5600,"station_id":"","pricing_plan_id":"cebpf4jnsgd1na2vs0mg"},{"bike_id":"7906f1d8-f676-4e86-bb36-c3a9dd69bddb","system_id":"levelo_inurba_marseille","lat":43.30136,"lon":5.37403,"is_reserved":false,"is_disabled":false,"rental_uris":{"android":"levelo://app?vid=7906f1d8-f676-4e86-bb36-c3a9dd69bddb","ios":"levelo://app?vid=7906f1d8-f676-4e86-bb36-c3a9dd69bddb"},"vehicle_type_id":"4","last_reported":1734109715,"current_range_meters":33600,"station_id":"ce4bgs92rcd13ifvqcc0","pricing_plan_id":"cebpf4jnsgd1na2vs0mg"},{"bike_id":"235efa29-0090-40ab-84ba-088f56e38184","system_id":"levelo_inurba_marseille","lat":43.25868,"lon":5.39892,"is_reserved":false,"is_disabled":false,"rental_uris":{"android":"levelo://app?vid=235efa29-0090-40ab-84ba-088f56e38184","ios":"levelo://app?vid=235efa29-0090-40ab-84ba-088f56e38184"},"vehicle_type_id":"4","last_reported":1734109715,"current_range_meters":2800,"station_id":"ce4bhl92rcd13ifvqghg","pricing_plan_id":"cebpf4jnsgd1na2vs0mg"},{"bike_id":"55781f66-d3d0-4002-bde7-8c29df69b8fa","system_id":"levelo_inurba_marseille","lat":43.30536,"lon":5.36537,"is_reserved":false,"is_disabled":false,"rental_uris":{"android":"levelo://app?vid=55781f66-d3d0-4002-bde7-8c29df69b8fa","ios":"levelo://app?vid=55781f66-d3d0-4002-bde7-8c29df69b8fa"},"vehicle_type_id":"4","last_reported":1734109715,"current_range_meters":17600,"station_id":"ce4bgs12rcd13ifvqcag","pricing_plan_id":"cebpf4jnsgd1na2vs0mg"},{"bike_id":"9277ca3a-6641-4ec5-b4f3-6376fd1e9901","system_id":"levelo_inurba_marseille","lat":43.31064,"lon":5.3834,"is_reserved":false,"is_disabled":false,"rental_uris":{"android":"levelo://app?vid=9277ca3a-6641-4ec5-b4f3-6376fd1e9901","ios":"levelo://app?vid=9277ca3a-6641-4ec5-b4f3-6376fd1e9901"},"vehicle_type_id":"4","last_reported":1734109715,"current_range_meters":33600,"station_id":"ce4bgv92rcd13ifvqcr0","pricing_plan_id":"cebpf4jnsgd1na2vs0mg"},{"bike_id":"773210ee-d19a-4226-90f8-e420da4ce6bd","system_id":"levelo_inurba_marseille","lat":43.30242,"lon":5.40053,"is_reserved":false,"is_disabled":true,"rental_uris":{"android":"levelo://app?vid=773210ee-d19a-4226-90f8-e420da4ce6bd","ios":"levelo://app?vid=773210ee-d19a-4226-90f8-e420da4ce6bd"},"vehicle_type_id":"4","last_reported":1734109715,"current_range_meters":6800,"station_id":"ce4bgvh2rcd13ifvqcs0","pricing_plan_id":"cebpf4jnsgd1na2vs0mg"},{"bike_id":"da345435-a4ab-4142-96e2-d4c3515056c7","system_id":"levelo_inurba_marseille","lat":43.30151,"lon":5.38779,"is_reserved":false,"is_disabled":true,"rental_uris":{"android":"levelo://app?vid=da345435-a4ab-4142-96e2-d4c3515056c7","ios":"levelo://app?vid=da345435-a4ab-4142-96e2-d4c3515056c7"},"vehicle_type_id":"4","last_reported":1734109715,"current_range_meters":0,"station_id":"ce4bghh2rcd13ifvqb60","pricing_plan_id":"cebpf4jnsgd1na2vs0mg"},{"bike_id":"db447041-11ac-4071-bfd3-851b70762ace","system_id":"levelo_inurba_marseille","lat":43.29931,"lon":5.36533,"is_reserved":false,"is_disabled":false,"rental_uris":{"android":"levelo://app?vid=db447041-11ac-4071-bfd3-851b70762ace","ios":"levelo://app?vid=db447041-11ac-4071-bfd3-851b70762ace"},"vehicle_type_id":"4","last_reported":1734109715,"current_range_meters":8400,"station_id":"ce4bgm92rcd13ifvqbr0","pricing_plan_id":"cebpf4jnsgd1na2vs0mg"},{"bike_id":"2d7a1d93-135c-496a-a928-c47315373230","system_id":"levelo_inurba_marseille","lat":43.2781,"lon":5.40711,"is_reserved":false,"is_disabled":false,"rental_uris":{"android":"levelo://app?vid=2d7a1d93-135c-496a-a928-c47315373230","ios":"levelo://app?vid=2d7a1d93-135c-496a-a928-c47315373230"},"vehicle_type_id":"4","last_reported":1734109715,"current_range_meters":36800,"station_id":"ce4bhnh2rcd13ifvqgtg","pricing_plan_id":"cebpf4jnsgd1na2vs0mg"},{"bike_id":"9ad311dd-c450-4f09-933a-ef53d4559dc3","system_id":"levelo_inurba_marseille","lat":43.26987,"lon":5.39857,"is_reserved":false,"is_disabled":false,"rental_uris":{"android":"levelo://app?vid=9ad311dd-c450-4f09-933a-ef53d4559dc3","ios":"levelo://app?vid=9ad311dd-c450-4f09-933a-ef53d4559dc3"},"vehicle_type_id":"4","last_reported":1734109715,"current_range_meters":28000,"station_id":"","pricing_plan_id":"cebpf4jnsgd1na2vs0mg"},{"bike_id":"143ccd8e-9541-44bb-a0f3-805b2d1001bb","system_id":"levelo_inurba_marseille","lat":43.291966,"lon":5.393304,"is_reserved":false,"is_disabled":false,"rental_uris":{"android":"levelo://app?vid=143ccd8e-9541-44bb-a0f3-805b2d1001bb","ios":"levelo://app?vid=143ccd8e-9541-44bb-a0f3-805b2d1001bb"},"vehicle_type_id":"4","last_reported":1734109715,"current_range_meters":18000,"station_id":"ce4bh192rcd13ifvqdd0","pricing_plan_id":"cebpf4jnsgd1na2vs0mg"},{"bike_id":"276a2932-a3fd-40ff-b60f-ebe14f110885","system_id":"levelo_inurba_marseille","lat":43.29265,"lon":5.40906,"is_reserved":false,"is_disabled":false,"rental_uris":{"android":"levelo://app?vid=276a2932-a3fd-40ff-b60f-ebe14f110885","ios":"levelo://app?vid=276a2932-a3fd-40ff-b60f-ebe14f110885"},"vehicle_type_id":"4","last_reported":1734109715,"current_range_meters":37600,"station_id":"ce4bh192rcd13ifvqdc0","pricing_plan_id":"cebpf4jnsgd1na2vs0mg"},{"bike_id":"153e2d50-f990-4298-a342-fa4edb251cac","system_id":"levelo_inurba_marseille","lat":43.24809,"lon":5.37458,"is_reserved":false,"is_disabled":false,"rental_uris":{"android":"levelo://app?vid=153e2d50-f990-4298-a342-fa4edb251cac","ios":"levelo://app?vid=153e2d50-f990-4298-a342-fa4edb251cac"},"vehicle_type_id":"4","last_reported":1734109715,"current_range_meters":18000,"station_id":"ce4bhgh2rcd13ifvqfb0","pricing_plan_id":"cebpf4jnsgd1na2vs0mg"},{"bike_id":"af67ac53-ba21-4ff0-8334-95679e9ff2cc","system_id":"levelo_inurba_marseille","lat":43.278805,"lon":5.388003,"is_reserved":false,"is_disabled":true,"rental_uris":{"android":"levelo://app?vid=af67ac53-ba21-4ff0-8334-95679e9ff2cc","ios":"levelo://app?vid=af67ac53-ba21-4ff0-8334-95679e9ff2cc"},"vehicle_type_id":"4","last_reported":1734109715,"current_range_meters":6000,"station_id":"","pricing_plan_id":"cebpf4jnsgd1na2vs0mg"},{"bike_id":"10a29264-73f4-43a8-b281-853657b39dd5","system_id":"levelo_inurba_marseille","lat":43.26202,"lon":5.37926,"is_reserved":false,"is_disabled":false,"rental_uris":{"android":"levelo://app?vid=10a29264-73f4-43a8-b281-853657b39dd5","ios":"levelo://app?vid=10a29264-73f4-43a8-b281-853657b39dd5"},"vehicle_type_id":"4","last_reported":1734109715,"current_range_meters":18000,"station_id":"ce4bhjp2rcd13ifvqg90","pricing_plan_id":"cebpf4jnsgd1na2vs0mg"},{"bike_id":"277b70ef-5973-43d4-97d6-a9f7fdbbcca9","system_id":"levelo_inurba_marseille","lat":43.25498,"lon":5.37645,"is_reserved":false,"is_disabled":false,"rental_uris":{"android":"levelo://app?vid=277b70ef-5973-43d4-97d6-a9f7fdbbcca9","ios":"levelo://app?vid=277b70ef-5973-43d4-97d6-a9f7fdbbcca9"},"vehicle_type_id":"4","last_reported":1734109715,"current_range_meters":18800,"station_id":"ce4bhh12rcd13ifvqff0","pricing_plan_id":"cebpf4jnsgd1na2vs0mg"},{"bike_id":"6bdeafa2-9cf8-4a03-9b4b-71fe1c5f1eeb","system_id":"levelo_inurba_marseille","lat":43.26922,"lon":5.40263,"is_reserved":false,"is_disabled":true,"rental_uris":{"android":"levelo://app?vid=6bdeafa2-9cf8-4a03-9b4b-71fe1c5f1eeb","ios":"levelo://app?vid=6bdeafa2-9cf8-4a03-9b4b-71fe1c5f1eeb"},"vehicle_type_id":"4","last_reported":1734109715,"current_range_meters":1200,"station_id":"cjm6bp8fraef2m0cb0m0","pricing_plan_id":"cebpf4jnsgd1na2vs0mg"},{"bike_id":"d8d7ffef-ae54-446a-a28c-8265164b47ce","system_id":"levelo_inurba_marseille","lat":43.29163,"lon":5.43905,"is_reserved":false,"is_disabled":true,"rental_uris":{"android":"levelo://app?vid=d8d7ffef-ae54-446a-a28c-8265164b47ce","ios":"levelo://app?vid=d8d7ffef-ae54-446a-a28c-8265164b47ce"},"vehicle_type_id":"4","last_reported":1734109715,"current_range_meters":28800,"station_id":"","pricing_plan_id":"cebpf4jnsgd1na2vs0mg"},{"bike_id":"c5768e7e-b244-4dfc-973f-384fac771fcc","system_id":"levelo_inurba_marseille","lat":43.27995,"lon":5.41672,"is_reserved":false,"is_disabled":true,"rental_uris":{"android":"levelo://app?vid=c5768e7e-b244-4dfc-973f-384fac771fcc","ios":"levelo://app?vid=c5768e7e-b244-4dfc-973f-384fac771fcc"},"vehicle_type_id":"4","last_reported":1734109715,"current_range_meters":0,"station_id":"ce4bho12rcd13ifvqh1g","pricing_plan_id":"cebpf4jnsgd1na2vs0mg"},{"bike_id":"d65fcea9-51ba-41f0-86fd-e798dfdd6f09","system_id":"levelo_inurba_marseille","lat":43.28675,"lon":5.38345,"is_reserved":false,"is_disabled":true,"rental_uris":{"android":"levelo://app?vid=d65fcea9-51ba-41f0-86fd-e798dfdd6f09","ios":"levelo://app?vid=d65fcea9-51ba-41f0-86fd-e798dfdd6f09"},"vehicle_type_id":"4","last_reported":1734109715,"current_range_meters":0,"station_id":"","pricing_plan_id":"cebpf4jnsgd1na2vs0mg"},{"bike_id":"a8e59550-4bfb-42a6-8051-ee44ebd2a6ca","system_id":"levelo_inurba_marseille","lat":43.29633,"lon":5.37735,"is_reserved":false,"is_disabled":false,"rental_uris":{"android":"levelo://app?vid=a8e59550-4bfb-42a6-8051-ee44ebd2a6ca","ios":"levelo://app?vid=a8e59550-4bfb-42a6-8051-ee44ebd2a6ca"},"vehicle_type_id":"4","last_reported":1734109715,"current_range_meters":34000,"station_id":"ce4bgi92rcd13ifvqb90","pricing_plan_id":"cebpf4jnsgd1na2vs0mg"},{"bike_id":"3cffa040-7e8b-4d9e-a1bd-b8a78d782447","system_id":"levelo_inurba_marseille","lat":43.314905,"lon":5.373088,"is_reserved":false,"is_disabled":true,"rental_uris":{"android":"levelo://app?vid=3cffa040-7e8b-4d9e-a1bd-b8a78d782447","ios":"levelo://app?vid=3cffa040-7e8b-4d9e-a1bd-b8a78d782447"},"vehicle_type_id":"4","last_reported":1734109715,"current_range_meters":3200,"station_id":"","pricing_plan_id":"cebpf4jnsgd1na2vs0mg"},{"bike_id":"3c235aca-2328-4b73-a8ff-429ef7798d94","system_id":"levelo_inurba_marseille","lat":43.30876,"lon":5.3963,"is_reserved":false,"is_disabled":false,"rental_uris":{"android":"levelo://app?vid=3c235aca-2328-4b73-a8ff-429ef7798d94","ios":"levelo://app?vid=3c235aca-2328-4b73-a8ff-429ef7798d94"},"vehicle_type_id":"4","last_reported":1734109715,"current_range_meters":38800,"station_id":"ce4bh012rcd13ifvqcv0","pricing_plan_id":"cebpf4jnsgd1na2vs0mg"},{"bike_id":"ad5cbd3d-7c9b-45b6-9e26-bf9ba9cfbc39","system_id":"levelo_inurba_marseille","lat":43.27999,"lon":5.40014,"is_reserved":false,"is_disabled":false,"rental_uris":{"android":"levelo://app?vid=ad5cbd3d-7c9b-45b6-9e26-bf9ba9cfbc39","ios":"levelo://app?vid=ad5cbd3d-7c9b-45b6-9e26-bf9ba9cfbc39"},"vehicle_type_id":"4","last_reported":1734109715,"current_range_meters":37600,"station_id":"ce4bho92rcd13ifvqh4g","pricing_plan_id":"cebpf4jnsgd1na2vs0mg"},{"bike_id":"e44d44c6-dcab-40ec-966f-064cdbc258c8","system_id":"levelo_inurba_marseille","lat":43.26977,"lon":5.40241,"is_reserved":false,"is_disabled":false,"rental_uris":{"android":"levelo://app?vid=e44d44c6-dcab-40ec-966f-064cdbc258c8","ios":"levelo://app?vid=e44d44c6-dcab-40ec-966f-064cdbc258c8"},"vehicle_type_id":"4","last_reported":1734109715,"current_range_meters":39200,"station_id":"cjm6bp8fraef2m0cb0m0","pricing_plan_id":"cebpf4jnsgd1na2vs0mg"},{"bike_id":"2dab2d15-c5ec-4f2c-960b-297686fecd4a","system_id":"levelo_inurba_marseille","lat":43.2904,"lon":5.35899,"is_reserved":false,"is_disabled":false,"rental_uris":{"android":"levelo://app?vid=2dab2d15-c5ec-4f2c-960b-297686fecd4a","ios":"levelo://app?vid=2dab2d15-c5ec-4f2c-960b-297686fecd4a"},"vehicle_type_id":"4","last_reported":1734109715,"current_range_meters":39200,"station_id":"ce4bha92rcd13ifvqeg0","pricing_plan_id":"cebpf4jnsgd1na2vs0mg"},{"bike_id":"64203de9-e72b-4d66-9a84-7a315c7ed37f","system_id":"levelo_inurba_marseille","lat":43.29441,"lon":5.37455,"is_reserved":false,"is_disabled":true,"rental_uris":{"android":"levelo://app?vid=64203de9-e72b-4d66-9a84-7a315c7ed37f","ios":"levelo://app?vid=64203de9-e72b-4d66-9a84-7a315c7ed37f"},"vehicle_type_id":"4","last_reported":1734109715,"current_range_meters":0,"station_id":"","pricing_plan_id":"cebpf4jnsgd1na2vs0mg"},{"bike_id":"cf7ca0fd-0985-4abe-a65e-c2183c7f1361","system_id":"levelo_inurba_marseille","lat":43.29311,"lon":5.40422,"is_reserved":false,"is_disabled":false,"rental_uris":{"android":"levelo://app?vid=cf7ca0fd-0985-4abe-a65e-c2183c7f1361","ios":"levelo://app?vid=cf7ca0fd-0985-4abe-a65e-c2183c7f1361"},"vehicle_type_id":"4","last_reported":1734109715,"current_range_meters":38800,"station_id":"","pricing_plan_id":"cebpf4jnsgd1na2vs0mg"},{"bike_id":"76af30ab-27aa-4350-8972-f8a294ad6b70","system_id":"levelo_inurba_marseille","lat":43.33027,"lon":5.39042,"is_reserved":false,"is_disabled":false,"rental_uris":{"android":"levelo://app?vid=76af30ab-27aa-4350-8972-f8a294ad6b70","ios":"levelo://app?vid=76af30ab-27aa-4350-8972-f8a294ad6b70"},"vehicle_type_id":"4","last_reported":1734109715,"current_range_meters":38800,"station_id":"ce4bhr92rcd13ifvqhrg","pricing_plan_id":"cebpf4jnsgd1na2vs0mg"},{"bike_id":"c9179a56-6ac3-49b3-8785-0da77ec0b66c","system_id":"levelo_inurba_marseille","lat":43.29864,"lon":5.36248,"is_reserved":false,"is_disabled":false,"rental_uris":{"android":"levelo://app?vid=c9179a56-6ac3-49b3-8785-0da77ec0b66c","ios":"levelo://app?vid=c9179a56-6ac3-49b3-8785-0da77ec0b66c"},"vehicle_type_id":"4","last_reported":1734109715,"current_range_meters":38800,"station_id":"ce4bgpp2rcd13ifvqc3g","pricing_plan_id":"cebpf4jnsgd1na2vs0mg"},{"bike_id":"38bf081e-5615-478e-a2a1-1bb6fe2b9efd","system_id":"levelo_inurba_marseille","lat":43.30892,"lon":5.37186,"is_reserved":false,"is_disabled":false,"rental_uris":{"android":"levelo://app?vid=38bf081e-5615-478e-a2a1-1bb6fe2b9efd","ios":"levelo://app?vid=38bf081e-5615-478e-a2a1-1bb6fe2b9efd"},"vehicle_type_id":"4","last_reported":1734109715,"current_range_meters":38800,"station_id":"ce4bguh2rcd13ifvqckg","pricing_plan_id":"cebpf4jnsgd1na2vs0mg"},{"bike_id":"2a855208-4595-48ff-beb7-d65d72c490ea","system_id":"levelo_inurba_marseille","lat":43.32343,"lon":5.40616,"is_reserved":false,"is_disabled":false,"rental_uris":{"android":"levelo://app?vid=2a855208-4595-48ff-beb7-d65d72c490ea","ios":"levelo://app?vid=2a855208-4595-48ff-beb7-d65d72c490ea"},"vehicle_type_id":"4","last_reported":1734109715,"current_range_meters":10800,"station_id":"ce4bhq92rcd13ifvqhjg","pricing_plan_id":"cebpf4jnsgd1na2vs0mg"},{"bike_id":"5c23befe-e7d4-4dee-ac43-14eb04f945cb","system_id":"levelo_inurba_marseille","lat":43.24894,"lon":5.4071,"is_reserved":false,"is_disabled":false,"rental_uris":{"android":"levelo://app?vid=5c23befe-e7d4-4dee-ac43-14eb04f945cb","ios":"levelo://app?vid=5c23befe-e7d4-4dee-ac43-14eb04f945cb"},"vehicle_type_id":"4","last_reported":1734109715,"current_range_meters":8800,"station_id":"","pricing_plan_id":"cebpf4jnsgd1na2vs0mg"},{"bike_id":"83697503-ebb6-4133-8865-690e94a16a9b","system_id":"levelo_inurba_marseille","lat":43.24181,"lon":5.39726,"is_reserved":false,"is_disabled":true,"rental_uris":{"android":"levelo://app?vid=83697503-ebb6-4133-8865-690e94a16a9b","ios":"levelo://app?vid=83697503-ebb6-4133-8865-690e94a16a9b"},"vehicle_type_id":"4","last_reported":1734109715,"current_range_meters":0,"station_id":"ce4bhn12rcd13ifvqgpg","pricing_plan_id":"cebpf4jnsgd1na2vs0mg"},{"bike_id":"ad476b05-85ed-4357-b992-60c0ef879510","system_id":"levelo_inurba_marseille","lat":43.30545,"lon":5.36476,"is_reserved":false,"is_disabled":false,"rental_uris":{"android":"levelo://app?vid=ad476b05-85ed-4357-b992-60c0ef879510","ios":"levelo://app?vid=ad476b05-85ed-4357-b992-60c0ef879510"},"vehicle_type_id":"4","last_reported":1734109715,"current_range_meters":33200,"station_id":"","pricing_plan_id":"cebpf4jnsgd1na2vs0mg"},{"bike_id":"53d17cb4-e4f0-4ac2-ae3f-8a9946f42f5c","system_id":"levelo_inurba_marseille","lat":43.28383,"lon":5.38655,"is_reserved":false,"is_disabled":false,"rental_uris":{"android":"levelo://app?vid=53d17cb4-e4f0-4ac2-ae3f-8a9946f42f5c","ios":"levelo://app?vid=53d17cb4-e4f0-4ac2-ae3f-8a9946f42f5c"},"vehicle_type_id":"4","last_reported":1734109715,"current_range_meters":4000,"station_id":"ce4bh492rcd13ifvqdvg","pricing_plan_id":"cebpf4jnsgd1na2vs0mg"},{"bike_id":"ac2225ee-3030-4cd3-98a3-c5c17c4f3656","system_id":"levelo_inurba_marseille","lat":43.29686,"lon":5.37299,"is_reserved":false,"is_disabled":false,"rental_uris":{"android":"levelo://app?vid=ac2225ee-3030-4cd3-98a3-c5c17c4f3656","ios":"levelo://app?vid=ac2225ee-3030-4cd3-98a3-c5c17c4f3656"},"vehicle_type_id":"4","last_reported":1734109715,"current_range_meters":38000,"station_id":"ce4bgk12rcd13ifvqbj0","pricing_plan_id":"cebpf4jnsgd1na2vs0mg"},{"bike_id":"18449eca-7cd4-4637-aad8-d740a9109818","system_id":"levelo_inurba_marseille","lat":43.26813,"lon":5.40271,"is_reserved":false,"is_disabled":false,"rental_uris":{"android":"levelo://app?vid=18449eca-7cd4-4637-aad8-d740a9109818","ios":"levelo://app?vid=18449eca-7cd4-4637-aad8-d740a9109818"},"vehicle_type_id":"4","last_reported":1734109715,"current_range_meters":38400,"station_id":"ce501612rcd8frsf0b60","pricing_plan_id":"cebpf4jnsgd1na2vs0mg"},{"bike_id":"34e4619a-c0b1-431b-9d78-b8dd63c0c3a3","system_id":"levelo_inurba_marseille","lat":43.30808,"lon":5.38148,"is_reserved":false,"is_disabled":true,"rental_uris":{"android":"levelo://app?vid=34e4619a-c0b1-431b-9d78-b8dd63c0c3a3","ios":"levelo://app?vid=34e4619a-c0b1-431b-9d78-b8dd63c0c3a3"},"vehicle_type_id":"4","last_reported":1734109715,"current_range_meters":26800,"station_id":"ce4bgt12rcd13ifvqce0","pricing_plan_id":"cebpf4jnsgd1na2vs0mg"},{"bike_id":"f118420b-acb3-404b-a762-24d15f1ffc92","system_id":"levelo_inurba_marseille","lat":43.30325,"lon":5.40431,"is_reserved":false,"is_disabled":false,"rental_uris":{"android":"levelo://app?vid=f118420b-acb3-404b-a762-24d15f1ffc92","ios":"levelo://app?vid=f118420b-acb3-404b-a762-24d15f1ffc92"},"vehicle_type_id":"4","last_reported":1734109715,"current_range_meters":17600,"station_id":"ce4bh012rcd13ifvqd10","pricing_plan_id":"cebpf4jnsgd1na2vs0mg"},{"bike_id":"e0a31c9a-be2e-435b-b95c-7118ac48c310","system_id":"levelo_inurba_marseille","lat":43.32292,"lon":5.38278,"is_reserved":false,"is_disabled":false,"rental_uris":{"android":"levelo://app?vid=e0a31c9a-be2e-435b-b95c-7118ac48c310","ios":"levelo://app?vid=e0a31c9a-be2e-435b-b95c-7118ac48c310"},"vehicle_type_id":"4","last_reported":1734109715,"current_range_meters":8400,"station_id":"ce4bhr12rcd13ifvqhqg","pricing_plan_id":"cebpf4jnsgd1na2vs0mg"},{"bike_id":"35bbeac6-d867-4bf5-9bc6-afcce8282123","system_id":"levelo_inurba_marseille","lat":43.29243,"lon":5.40916,"is_reserved":false,"is_disabled":false,"rental_uris":{"android":"levelo://app?vid=35bbeac6-d867-4bf5-9bc6-afcce8282123","ios":"levelo://app?vid=35bbeac6-d867-4bf5-9bc6-afcce8282123"},"vehicle_type_id":"4","last_reported":1734109715,"current_range_meters":38800,"station_id":"ce4bh192rcd13ifvqdc0","pricing_plan_id":"cebpf4jnsgd1na2vs0mg"},{"bike_id":"818ef841-d8c0-4c92-9c0c-4a12654cda95","system_id":"levelo_inurba_marseille","lat":43.30561,"lon":5.37187,"is_reserved":false,"is_disabled":false,"rental_uris":{"android":"levelo://app?vid=818ef841-d8c0-4c92-9c0c-4a12654cda95","ios":"levelo://app?vid=818ef841-d8c0-4c92-9c0c-4a12654cda95"},"vehicle_type_id":"4","last_reported":1734109715,"current_range_meters":28400,"station_id":"","pricing_plan_id":"cebpf4jnsgd1na2vs0mg"},{"bike_id":"de78bc13-10a3-4ec7-bfa0-2b3d5fb981eb","system_id":"levelo_inurba_marseille","lat":43.31808,"lon":5.38063,"is_reserved":false,"is_disabled":false,"rental_uris":{"android":"levelo://app?vid=de78bc13-10a3-4ec7-bfa0-2b3d5fb981eb","ios":"levelo://app?vid=de78bc13-10a3-4ec7-bfa0-2b3d5fb981eb"},"vehicle_type_id":"4","last_reported":1734109715,"current_range_meters":38000,"station_id":"","pricing_plan_id":"cebpf4jnsgd1na2vs0mg"},{"bike_id":"0f120de2-a1ab-4aca-91bc-11469927c1a1","system_id":"levelo_inurba_marseille","lat":43.24814,"lon":5.37455,"is_reserved":false,"is_disabled":false,"rental_uris":{"android":"levelo://app?vid=0f120de2-a1ab-4aca-91bc-11469927c1a1","ios":"levelo://app?vid=0f120de2-a1ab-4aca-91bc-11469927c1a1"},"vehicle_type_id":"4","last_reported":1734109715,"current_range_meters":38400,"station_id":"ce4bhgh2rcd13ifvqfb0","pricing_plan_id":"cebpf4jnsgd1na2vs0mg"},{"bike_id":"c24f816f-c9fc-4840-b062-64fdf0db40bd","system_id":"levelo_inurba_marseille","lat":43.30922,"lon":5.37874,"is_reserved":false,"is_disabled":false,"rental_uris":{"android":"levelo://app?vid=c24f816f-c9fc-4840-b062-64fdf0db40bd","ios":"levelo://app?vid=c24f816f-c9fc-4840-b062-64fdf0db40bd"},"vehicle_type_id":"4","last_reported":1734109715,"current_range_meters":38000,"station_id":"ce4bgv92rcd13ifvqcq0","pricing_plan_id":"cebpf4jnsgd1na2vs0mg"},{"bike_id":"2cd73f3e-3cd6-4e5f-b38f-00b1df64264c","system_id":"levelo_inurba_marseille","lat":43.31323,"lon":5.39691,"is_reserved":false,"is_disabled":false,"rental_uris":{"android":"levelo://app?vid=2cd73f3e-3cd6-4e5f-b38f-00b1df64264c","ios":"levelo://app?vid=2cd73f3e-3cd6-4e5f-b38f-00b1df64264c"},"vehicle_type_id":"4","last_reported":1734109715,"current_range_meters":17600,"station_id":"ce4bgvp2rcd13ifvqcu0","pricing_plan_id":"cebpf4jnsgd1na2vs0mg"},{"bike_id":"ccc9e736-395b-4466-94dc-6a787309142a","system_id":"levelo_inurba_marseille","lat":43.31438,"lon":5.3757,"is_reserved":false,"is_disabled":false,"rental_uris":{"android":"levelo://app?vid=ccc9e736-395b-4466-94dc-6a787309142a","ios":"levelo://app?vid=ccc9e736-395b-4466-94dc-6a787309142a"},"vehicle_type_id":"4","last_reported":1734109715,"current_range_meters":38800,"station_id":"","pricing_plan_id":"cebpf4jnsgd1na2vs0mg"},{"bike_id":"1e267932-f6c6-4991-9c6b-8abf107c1a22","system_id":"levelo_inurba_marseille","lat":43.323,"lon":5.38261,"is_reserved":false,"is_disabled":false,"rental_uris":{"android":"levelo://app?vid=1e267932-f6c6-4991-9c6b-8abf107c1a22","ios":"levelo://app?vid=1e267932-f6c6-4991-9c6b-8abf107c1a22"},"vehicle_type_id":"4","last_reported":1734109715,"current_range_meters":37600,"station_id":"ce4bhr12rcd13ifvqhqg","pricing_plan_id":"cebpf4jnsgd1na2vs0mg"},{"bike_id":"49452758-022e-41e4-9e0a-3bd1606ec42b","system_id":"levelo_inurba_marseille","lat":43.28727,"lon":5.37933,"is_reserved":false,"is_disabled":false,"rental_uris":{"android":"levelo://app?vid=49452758-022e-41e4-9e0a-3bd1606ec42b","ios":"levelo://app?vid=49452758-022e-41e4-9e0a-3bd1606ec42b"},"vehicle_type_id":"4","last_reported":1734109715,"current_range_meters":8000,"station_id":"ce4bh9p2rcd13ifvqec0","pricing_plan_id":"cebpf4jnsgd1na2vs0mg"},{"bike_id":"2e6efb07-e4e4-4e9b-9af7-17b57b90ab5b","system_id":"levelo_inurba_marseille","lat":43.27944,"lon":5.4105,"is_reserved":false,"is_disabled":true,"rental_uris":{"android":"levelo://app?vid=2e6efb07-e4e4-4e9b-9af7-17b57b90ab5b","ios":"levelo://app?vid=2e6efb07-e4e4-4e9b-9af7-17b57b90ab5b"},"vehicle_type_id":"4","last_reported":1734109715,"current_range_meters":2000,"station_id":"ce4bhnp2rcd13ifvqh0g","pricing_plan_id":"cebpf4jnsgd1na2vs0mg"},{"bike_id":"265a59a5-1f8b-40cd-bb56-038ad2f60a5d","system_id":"levelo_inurba_marseille","lat":43.29062,"lon":5.39974,"is_reserved":false,"is_disabled":true,"rental_uris":{"android":"levelo://app?vid=265a59a5-1f8b-40cd-bb56-038ad2f60a5d","ios":"levelo://app?vid=265a59a5-1f8b-40cd-bb56-038ad2f60a5d"},"vehicle_type_id":"4","last_reported":1734109715,"current_range_meters":37600,"station_id":"ce4bh392rcd13ifvqdm0","pricing_plan_id":"cebpf4jnsgd1na2vs0mg"},{"bike_id":"1f8df251-c5a6-4258-b15b-89cf161eb63a","system_id":"levelo_inurba_marseille","lat":43.26033,"lon":5.37543,"is_reserved":false,"is_disabled":false,"rental_uris":{"android":"levelo://app?vid=1f8df251-c5a6-4258-b15b-89cf161eb63a","ios":"levelo://app?vid=1f8df251-c5a6-4258-b15b-89cf161eb63a"},"vehicle_type_id":"4","last_reported":1734109715,"current_range_meters":25200,"station_id":"","pricing_plan_id":"cebpf4jnsgd1na2vs0mg"},{"bike_id":"6bc7401a-ad66-4e4d-bfd6-a954bc5b40c0","system_id":"levelo_inurba_marseille","lat":43.337527,"lon":5.37441,"is_reserved":false,"is_disabled":false,"rental_uris":{"android":"levelo://app?vid=6bc7401a-ad66-4e4d-bfd6-a954bc5b40c0","ios":"levelo://app?vid=6bc7401a-ad66-4e4d-bfd6-a954bc5b40c0"},"vehicle_type_id":"4","last_reported":1734109715,"current_range_meters":29600,"station_id":"","pricing_plan_id":"cebpf4jnsgd1na2vs0mg"},{"bike_id":"991b029a-5940-49a6-8946-5558e963add0","system_id":"levelo_inurba_marseille","lat":43.28945,"lon":5.36399,"is_reserved":false,"is_disabled":false,"rental_uris":{"android":"levelo://app?vid=991b029a-5940-49a6-8946-5558e963add0","ios":"levelo://app?vid=991b029a-5940-49a6-8946-5558e963add0"},"vehicle_type_id":"4","last_reported":1734109715,"current_range_meters":28400,"station_id":"ce4bhc92rcd13ifvqetg","pricing_plan_id":"cebpf4jnsgd1na2vs0mg"},{"bike_id":"f0a4f587-2333-4a7a-8819-09121e495e1b","system_id":"levelo_inurba_marseille","lat":43.2292,"lon":5.35377,"is_reserved":false,"is_disabled":false,"rental_uris":{"android":"levelo://app?vid=f0a4f587-2333-4a7a-8819-09121e495e1b","ios":"levelo://app?vid=f0a4f587-2333-4a7a-8819-09121e495e1b"},"vehicle_type_id":"4","last_reported":1734109715,"current_range_meters":38800,"station_id":"cpo3532slgdg3j2ikp40","pricing_plan_id":"cebpf4jnsgd1na2vs0mg"},{"bike_id":"7ef92d55-7ad7-49c7-b174-ec42f301e973","system_id":"levelo_inurba_marseille","lat":43.31731,"lon":5.42402,"is_reserved":false,"is_disabled":false,"rental_uris":{"android":"levelo://app?vid=7ef92d55-7ad7-49c7-b174-ec42f301e973","ios":"levelo://app?vid=7ef92d55-7ad7-49c7-b174-ec42f301e973"},"vehicle_type_id":"4","last_reported":1734109715,"current_range_meters":38000,"station_id":"ce4bhp92rcd13ifvqhbg","pricing_plan_id":"cebpf4jnsgd1na2vs0mg"},{"bike_id":"6e8d1040-e8d4-462a-bfe0-a3f5f3b18b33","system_id":"levelo_inurba_marseille","lat":43.29029,"lon":5.38635,"is_reserved":false,"is_disabled":false,"rental_uris":{"android":"levelo://app?vid=6e8d1040-e8d4-462a-bfe0-a3f5f3b18b33","ios":"levelo://app?vid=6e8d1040-e8d4-462a-bfe0-a3f5f3b18b33"},"vehicle_type_id":"4","last_reported":1734109715,"current_range_meters":38800,"station_id":"ce4bh4p2rcd13ifvqe0g","pricing_plan_id":"cebpf4jnsgd1na2vs0mg"},{"bike_id":"eb1496f4-67ed-47fd-8660-60023378367f","system_id":"levelo_inurba_marseille","lat":43.294212,"lon":5.374322,"is_reserved":false,"is_disabled":true,"rental_uris":{"android":"levelo://app?vid=eb1496f4-67ed-47fd-8660-60023378367f","ios":"levelo://app?vid=eb1496f4-67ed-47fd-8660-60023378367f"},"vehicle_type_id":"4","last_reported":1734109715,"current_range_meters":0,"station_id":"","pricing_plan_id":"cebpf4jnsgd1na2vs0mg"},{"bike_id":"edd07c02-9936-4457-bd98-063c892656f8","system_id":"levelo_inurba_marseille","lat":43.31027,"lon":5.374655,"is_reserved":false,"is_disabled":false,"rental_uris":{"android":"levelo://app?vid=edd07c02-9936-4457-bd98-063c892656f8","ios":"levelo://app?vid=edd07c02-9936-4457-bd98-063c892656f8"},"vehicle_type_id":"4","last_reported":1734109715,"current_range_meters":8800,"station_id":"","pricing_plan_id":"cebpf4jnsgd1na2vs0mg"},{"bike_id":"28b6eab6-583a-4cd2-a65f-5d72097e247e","system_id":"levelo_inurba_marseille","lat":43.31189,"lon":5.38706,"is_reserved":false,"is_disabled":false,"rental_uris":{"android":"levelo://app?vid=28b6eab6-583a-4cd2-a65f-5d72097e247e","ios":"levelo://app?vid=28b6eab6-583a-4cd2-a65f-5d72097e247e"},"vehicle_type_id":"4","last_reported":1734109715,"current_range_meters":28800,"station_id":"ce4bgv12rcd13ifvqcp0","pricing_plan_id":"cebpf4jnsgd1na2vs0mg"},{"bike_id":"97f8871b-67c3-4bdd-a1f2-0a8d9dc435ab","system_id":"levelo_inurba_marseille","lat":43.27494,"lon":5.42443,"is_reserved":false,"is_disabled":false,"rental_uris":{"android":"levelo://app?vid=97f8871b-67c3-4bdd-a1f2-0a8d9dc435ab","ios":"levelo://app?vid=97f8871b-67c3-4bdd-a1f2-0a8d9dc435ab"},"vehicle_type_id":"4","last_reported":1734109715,"current_range_meters":20400,"station_id":"ce4bhn92rcd13ifvqgrg","pricing_plan_id":"cebpf4jnsgd1na2vs0mg"},{"bike_id":"a2e3bf37-f1e5-4b35-adeb-0da3e0fe69d3","system_id":"levelo_inurba_marseille","lat":43.28638,"lon":5.38608,"is_reserved":false,"is_disabled":true,"rental_uris":{"android":"levelo://app?vid=a2e3bf37-f1e5-4b35-adeb-0da3e0fe69d3","ios":"levelo://app?vid=a2e3bf37-f1e5-4b35-adeb-0da3e0fe69d3"},"vehicle_type_id":"4","last_reported":1734109715,"current_range_meters":0,"station_id":"","pricing_plan_id":"cebpf4jnsgd1na2vs0mg"},{"bike_id":"8ec5fdd0-428d-4ad5-a792-fb065e6471a6","system_id":"levelo_inurba_marseille","lat":43.29446,"lon":5.38618,"is_reserved":false,"is_disabled":false,"rental_uris":{"android":"levelo://app?vid=8ec5fdd0-428d-4ad5-a792-fb065e6471a6","ios":"levelo://app?vid=8ec5fdd0-428d-4ad5-a792-fb065e6471a6"},"vehicle_type_id":"4","last_reported":1734109715,"current_range_meters":31200,"station_id":"ce4bh2h2rcd13ifvqdh0","pricing_plan_id":"cebpf4jnsgd1na2vs0mg"},{"bike_id":"f3f63581-8a52-4182-88e4-0d7647df7748","system_id":"levelo_inurba_marseille","lat":43.29064,"lon":5.35909,"is_reserved":false,"is_disabled":false,"rental_uris":{"android":"levelo://app?vid=f3f63581-8a52-4182-88e4-0d7647df7748","ios":"levelo://app?vid=f3f63581-8a52-4182-88e4-0d7647df7748"},"vehicle_type_id":"4","last_reported":1734109715,"current_range_meters":32000,"station_id":"ce4bha92rcd13ifvqeg0","pricing_plan_id":"cebpf4jnsgd1na2vs0mg"},{"bike_id":"17bdcade-715a-4a0b-a472-67879aade9df","system_id":"levelo_inurba_marseille","lat":43.28,"lon":5.40014,"is_reserved":false,"is_disabled":false,"rental_uris":{"android":"levelo://app?vid=17bdcade-715a-4a0b-a472-67879aade9df","ios":"levelo://app?vid=17bdcade-715a-4a0b-a472-67879aade9df"},"vehicle_type_id":"4","last_reported":1734109715,"current_range_meters":32400,"station_id":"ce4bho92rcd13ifvqh4g","pricing_plan_id":"cebpf4jnsgd1na2vs0mg"},{"bike_id":"ec927667-9164-479a-b446-395f55c955bb","system_id":"levelo_inurba_marseille","lat":43.22924,"lon":5.35383,"is_reserved":false,"is_disabled":false,"rental_uris":{"android":"levelo://app?vid=ec927667-9164-479a-b446-395f55c955bb","ios":"levelo://app?vid=ec927667-9164-479a-b446-395f55c955bb"},"vehicle_type_id":"4","last_reported":1734109715,"current_range_meters":38400,"station_id":"cpo3532slgdg3j2ikp40","pricing_plan_id":"cebpf4jnsgd1na2vs0mg"},{"bike_id":"04dfa3c2-3046-4962-b4fb-e63497e1871e","system_id":"levelo_inurba_marseille","lat":43.33024,"lon":5.39036,"is_reserved":false,"is_disabled":false,"rental_uris":{"android":"levelo://app?vid=04dfa3c2-3046-4962-b4fb-e63497e1871e","ios":"levelo://app?vid=04dfa3c2-3046-4962-b4fb-e63497e1871e"},"vehicle_type_id":"4","last_reported":1734109715,"current_range_meters":32000,"station_id":"ce4bhr92rcd13ifvqhrg","pricing_plan_id":"cebpf4jnsgd1na2vs0mg"},{"bike_id":"4cb3af92-f404-4365-a625-9757fecfe49d","system_id":"levelo_inurba_marseille","lat":43.30792,"lon":5.38153,"is_reserved":false,"is_disabled":false,"rental_uris":{"android":"levelo://app?vid=4cb3af92-f404-4365-a625-9757fecfe49d","ios":"levelo://app?vid=4cb3af92-f404-4365-a625-9757fecfe49d"},"vehicle_type_id":"4","last_reported":1734109715,"current_range_meters":13600,"station_id":"ce4bgt12rcd13ifvqce0","pricing_plan_id":"cebpf4jnsgd1na2vs0mg"},{"bike_id":"e82e2801-95fb-4f32-869a-194467e17065","system_id":"levelo_inurba_marseille","lat":43.26939,"lon":5.40253,"is_reserved":false,"is_disabled":false,"rental_uris":{"android":"levelo://app?vid=e82e2801-95fb-4f32-869a-194467e17065","ios":"levelo://app?vid=e82e2801-95fb-4f32-869a-194467e17065"},"vehicle_type_id":"4","last_reported":1734109715,"current_range_meters":10800,"station_id":"cjm6bp8fraef2m0cb0m0","pricing_plan_id":"cebpf4jnsgd1na2vs0mg"},{"bike_id":"e74372ac-2a6c-47ae-afc7-e1b4e1c3d13f","system_id":"levelo_inurba_marseille","lat":43.23068,"lon":5.35492,"is_reserved":false,"is_disabled":false,"rental_uris":{"android":"levelo://app?vid=e74372ac-2a6c-47ae-afc7-e1b4e1c3d13f","ios":"levelo://app?vid=e74372ac-2a6c-47ae-afc7-e1b4e1c3d13f"},"vehicle_type_id":"4","last_reported":1734109715,"current_range_meters":38800,"station_id":"cpo3342slgdg3j2ifvpg","pricing_plan_id":"cebpf4jnsgd1na2vs0mg"},{"bike_id":"e193ef0e-e328-415a-a8ad-7b8f709bf396","system_id":"levelo_inurba_marseille","lat":43.28491,"lon":5.37904,"is_reserved":false,"is_disabled":true,"rental_uris":{"android":"levelo://app?vid=e193ef0e-e328-415a-a8ad-7b8f709bf396","ios":"levelo://app?vid=e193ef0e-e328-415a-a8ad-7b8f709bf396"},"vehicle_type_id":"4","last_reported":1734109715,"current_range_meters":24000,"station_id":"","pricing_plan_id":"cebpf4jnsgd1na2vs0mg"},{"bike_id":"9a6269d5-83ea-4140-ab37-1fa12f16bd71","system_id":"levelo_inurba_marseille","lat":43.31752,"lon":5.3901,"is_reserved":false,"is_disabled":false,"rental_uris":{"android":"levelo://app?vid=9a6269d5-83ea-4140-ab37-1fa12f16bd71","ios":"levelo://app?vid=9a6269d5-83ea-4140-ab37-1fa12f16bd71"},"vehicle_type_id":"4","last_reported":1734109715,"current_range_meters":36000,"station_id":"ce4bhqp2rcd13ifvqhng","pricing_plan_id":"cebpf4jnsgd1na2vs0mg"},{"bike_id":"fbc9f13f-022b-4af0-90a8-6756e4d52be1","system_id":"levelo_inurba_marseille","lat":43.31115,"lon":5.37762,"is_reserved":false,"is_disabled":false,"rental_uris":{"android":"levelo://app?vid=fbc9f13f-022b-4af0-90a8-6756e4d52be1","ios":"levelo://app?vid=fbc9f13f-022b-4af0-90a8-6756e4d52be1"},"vehicle_type_id":"4","last_reported":1734109715,"current_range_meters":38800,"station_id":"ce4bgt92rcd13ifvqcg0","pricing_plan_id":"cebpf4jnsgd1na2vs0mg"},{"bike_id":"7f5f2b51-6dba-4bb6-90d5-a5cf04cc5c90","system_id":"levelo_inurba_marseille","lat":43.24648,"lon":5.38887,"is_reserved":false,"is_disabled":false,"rental_uris":{"android":"levelo://app?vid=7f5f2b51-6dba-4bb6-90d5-a5cf04cc5c90","ios":"levelo://app?vid=7f5f2b51-6dba-4bb6-90d5-a5cf04cc5c90"},"vehicle_type_id":"4","last_reported":1734109715,"current_range_meters":11200,"station_id":"ce4bhg12rcd13ifvqf60","pricing_plan_id":"cebpf4jnsgd1na2vs0mg"},{"bike_id":"cd3caf24-f4e9-4c70-abdb-4a79bd979db2","system_id":"levelo_inurba_marseille","lat":43.28473,"lon":5.35886,"is_reserved":false,"is_disabled":false,"rental_uris":{"android":"levelo://app?vid=cd3caf24-f4e9-4c70-abdb-4a79bd979db2","ios":"levelo://app?vid=cd3caf24-f4e9-4c70-abdb-4a79bd979db2"},"vehicle_type_id":"4","last_reported":1734109715,"current_range_meters":37600,"station_id":"ce4bhah2rcd13ifvqei0","pricing_plan_id":"cebpf4jnsgd1na2vs0mg"},{"bike_id":"48a81d22-f775-439d-8b0a-332e82d4bb65","system_id":"levelo_inurba_marseille","lat":43.2558,"lon":5.38233,"is_reserved":false,"is_disabled":false,"rental_uris":{"android":"levelo://app?vid=48a81d22-f775-439d-8b0a-332e82d4bb65","ios":"levelo://app?vid=48a81d22-f775-439d-8b0a-332e82d4bb65"},"vehicle_type_id":"4","last_reported":1734109715,"current_range_meters":9600,"station_id":"ce4bhih2rcd13ifvqfs0","pricing_plan_id":"cebpf4jnsgd1na2vs0mg"},{"bike_id":"61fb7e0c-d5eb-4a61-bd1f-5f11630d2dec","system_id":"levelo_inurba_marseille","lat":43.24805,"lon":5.37457,"is_reserved":false,"is_disabled":false,"rental_uris":{"android":"levelo://app?vid=61fb7e0c-d5eb-4a61-bd1f-5f11630d2dec","ios":"levelo://app?vid=61fb7e0c-d5eb-4a61-bd1f-5f11630d2dec"},"vehicle_type_id":"4","last_reported":1734109715,"current_range_meters":20400,"station_id":"ce4bhgh2rcd13ifvqfb0","pricing_plan_id":"cebpf4jnsgd1na2vs0mg"},{"bike_id":"c35ac8f6-56ee-4406-a628-ca31135984cc","system_id":"levelo_inurba_marseille","lat":43.23186,"lon":5.39985,"is_reserved":false,"is_disabled":false,"rental_uris":{"android":"levelo://app?vid=c35ac8f6-56ee-4406-a628-ca31135984cc","ios":"levelo://app?vid=c35ac8f6-56ee-4406-a628-ca31135984cc"},"vehicle_type_id":"4","last_reported":1734109715,"current_range_meters":24000,"station_id":"ce4bhn12rcd13ifvqgqg","pricing_plan_id":"cebpf4jnsgd1na2vs0mg"},{"bike_id":"f43b60c0-f88c-4e14-af84-90e9e26b07b0","system_id":"levelo_inurba_marseille","lat":43.313463,"lon":5.372708,"is_reserved":false,"is_disabled":false,"rental_uris":{"android":"levelo://app?vid=f43b60c0-f88c-4e14-af84-90e9e26b07b0","ios":"levelo://app?vid=f43b60c0-f88c-4e14-af84-90e9e26b07b0"},"vehicle_type_id":"4","last_reported":1734109715,"current_range_meters":10000,"station_id":"","pricing_plan_id":"cebpf4jnsgd1na2vs0mg"},{"bike_id":"bde168cb-e40d-4d30-9ebd-9cecf4a5254f","system_id":"levelo_inurba_marseille","lat":43.28887,"lon":5.36002,"is_reserved":false,"is_disabled":false,"rental_uris":{"android":"levelo://app?vid=bde168cb-e40d-4d30-9ebd-9cecf4a5254f","ios":"levelo://app?vid=bde168cb-e40d-4d30-9ebd-9cecf4a5254f"},"vehicle_type_id":"4","last_reported":1734109715,"current_range_meters":38800,"station_id":"ce4bhb12rcd13ifvqem0","pricing_plan_id":"cebpf4jnsgd1na2vs0mg"},{"bike_id":"88fde150-0952-410f-a018-ff6f6e670bb8","system_id":"levelo_inurba_marseille","lat":43.30521,"lon":5.38068,"is_reserved":false,"is_disabled":false,"rental_uris":{"android":"levelo://app?vid=88fde150-0952-410f-a018-ff6f6e670bb8","ios":"levelo://app?vid=88fde150-0952-410f-a018-ff6f6e670bb8"},"vehicle_type_id":"4","last_reported":1734109715,"current_range_meters":20800,"station_id":"","pricing_plan_id":"cebpf4jnsgd1na2vs0mg"},{"bike_id":"5584f6c4-cd15-45bb-976a-51430232b179","system_id":"levelo_inurba_marseille","lat":43.31337,"lon":5.40222,"is_reserved":false,"is_disabled":true,"rental_uris":{"android":"levelo://app?vid=5584f6c4-cd15-45bb-976a-51430232b179","ios":"levelo://app?vid=5584f6c4-cd15-45bb-976a-51430232b179"},"vehicle_type_id":"4","last_reported":1734109715,"current_range_meters":0,"station_id":"ce4bh092rcd13ifvqd30","pricing_plan_id":"cebpf4jnsgd1na2vs0mg"},{"bike_id":"fbc7e8ef-a1a7-4bf7-b94c-b7c2f6725445","system_id":"levelo_inurba_marseille","lat":43.31332,"lon":5.39691,"is_reserved":false,"is_disabled":false,"rental_uris":{"android":"levelo://app?vid=fbc7e8ef-a1a7-4bf7-b94c-b7c2f6725445","ios":"levelo://app?vid=fbc7e8ef-a1a7-4bf7-b94c-b7c2f6725445"},"vehicle_type_id":"4","last_reported":1734109715,"current_range_meters":25200,"station_id":"ce4bgvp2rcd13ifvqcu0","pricing_plan_id":"cebpf4jnsgd1na2vs0mg"},{"bike_id":"e46b365b-bae5-443c-9db9-f040be639a51","system_id":"levelo_inurba_marseille","lat":43.29604,"lon":5.38091,"is_reserved":false,"is_disabled":false,"rental_uris":{"android":"levelo://app?vid=e46b365b-bae5-443c-9db9-f040be639a51","ios":"levelo://app?vid=e46b365b-bae5-443c-9db9-f040be639a51"},"vehicle_type_id":"4","last_reported":1734109715,"current_range_meters":20000,"station_id":"ce4bgl12rcd13ifvqbo0","pricing_plan_id":"cebpf4jnsgd1na2vs0mg"},{"bike_id":"aa0d331a-eefd-414b-b356-2a4b91289897","system_id":"levelo_inurba_marseille","lat":43.29287,"lon":5.37458,"is_reserved":false,"is_disabled":false,"rental_uris":{"android":"levelo://app?vid=aa0d331a-eefd-414b-b356-2a4b91289897","ios":"levelo://app?vid=aa0d331a-eefd-414b-b356-2a4b91289897"},"vehicle_type_id":"4","last_reported":1734109715,"current_range_meters":18000,"station_id":"ce4bgi12rcd13ifvqb70","pricing_plan_id":"cebpf4jnsgd1na2vs0mg"},{"bike_id":"002069da-d74c-4e41-ae54-1da711c0eed6","system_id":"levelo_inurba_marseille","lat":43.285941,"lon":5.413061,"is_reserved":false,"is_disabled":true,"rental_uris":{"android":"levelo://app?vid=002069da-d74c-4e41-ae54-1da711c0eed6","ios":"levelo://app?vid=002069da-d74c-4e41-ae54-1da711c0eed6"},"vehicle_type_id":"4","last_reported":1734109715,"current_range_meters":0,"station_id":"","pricing_plan_id":"cebpf4jnsgd1na2vs0mg"},{"bike_id":"75506391-a12b-4ce2-997a-eff08551addc","system_id":"levelo_inurba_marseille","lat":43.23055,"lon":5.35491,"is_reserved":false,"is_disabled":false,"rental_uris":{"android":"levelo://app?vid=75506391-a12b-4ce2-997a-eff08551addc","ios":"levelo://app?vid=75506391-a12b-4ce2-997a-eff08551addc"},"vehicle_type_id":"4","last_reported":1734109715,"current_range_meters":38800,"station_id":"cpo3342slgdg3j2ifvpg","pricing_plan_id":"cebpf4jnsgd1na2vs0mg"},{"bike_id":"003fcc20-75cd-4e78-9b9a-bd60ee138a76","system_id":"levelo_inurba_marseille","lat":43.25582,"lon":5.38231,"is_reserved":false,"is_disabled":false,"rental_uris":{"android":"levelo://app?vid=003fcc20-75cd-4e78-9b9a-bd60ee138a76","ios":"levelo://app?vid=003fcc20-75cd-4e78-9b9a-bd60ee138a76"},"vehicle_type_id":"4","last_reported":1734109715,"current_range_meters":37600,"station_id":"ce4bhih2rcd13ifvqfs0","pricing_plan_id":"cebpf4jnsgd1na2vs0mg"},{"bike_id":"0dc53ed0-703c-41c7-a7ba-e5fe121ea6cc","system_id":"levelo_inurba_marseille","lat":43.29105,"lon":5.3791,"is_reserved":false,"is_disabled":false,"rental_uris":{"android":"levelo://app?vid=0dc53ed0-703c-41c7-a7ba-e5fe121ea6cc","ios":"levelo://app?vid=0dc53ed0-703c-41c7-a7ba-e5fe121ea6cc"},"vehicle_type_id":"4","last_reported":1734109715,"current_range_meters":33200,"station_id":"","pricing_plan_id":"cebpf4jnsgd1na2vs0mg"},{"bike_id":"dad2b1f1-e75a-49e8-a0f7-62c0edb64276","system_id":"levelo_inurba_marseille","lat":43.29865,"lon":5.39732,"is_reserved":false,"is_disabled":false,"rental_uris":{"android":"levelo://app?vid=dad2b1f1-e75a-49e8-a0f7-62c0edb64276","ios":"levelo://app?vid=dad2b1f1-e75a-49e8-a0f7-62c0edb64276"},"vehicle_type_id":"4","last_reported":1734109715,"current_range_meters":38800,"station_id":"ce4bh0h2rcd13ifvqd50","pricing_plan_id":"cebpf4jnsgd1na2vs0mg"},{"bike_id":"1e09aea1-6592-4606-838e-01c5295332d1","system_id":"levelo_inurba_marseille","lat":43.32667,"lon":5.40981,"is_reserved":false,"is_disabled":true,"rental_uris":{"android":"levelo://app?vid=1e09aea1-6592-4606-838e-01c5295332d1","ios":"levelo://app?vid=1e09aea1-6592-4606-838e-01c5295332d1"},"vehicle_type_id":"4","last_reported":1734109715,"current_range_meters":32400,"station_id":"ce4bhpp2rcd13ifvqhgg","pricing_plan_id":"cebpf4jnsgd1na2vs0mg"},{"bike_id":"f0688521-339d-4b11-98b4-8b413dfcdc75","system_id":"levelo_inurba_marseille","lat":43.30251,"lon":5.40072,"is_reserved":false,"is_disabled":true,"rental_uris":{"android":"levelo://app?vid=f0688521-339d-4b11-98b4-8b413dfcdc75","ios":"levelo://app?vid=f0688521-339d-4b11-98b4-8b413dfcdc75"},"vehicle_type_id":"4","last_reported":1734109715,"current_range_meters":27200,"station_id":"ce4bgvh2rcd13ifvqcs0","pricing_plan_id":"cebpf4jnsgd1na2vs0mg"},{"bike_id":"a590330b-ba5e-4b05-9a5b-39bdae114fa0","system_id":"levelo_inurba_marseille","lat":43.33021,"lon":5.39041,"is_reserved":false,"is_disabled":false,"rental_uris":{"android":"levelo://app?vid=a590330b-ba5e-4b05-9a5b-39bdae114fa0","ios":"levelo://app?vid=a590330b-ba5e-4b05-9a5b-39bdae114fa0"},"vehicle_type_id":"4","last_reported":1734109715,"current_range_meters":11200,"station_id":"ce4bhr92rcd13ifvqhrg","pricing_plan_id":"cebpf4jnsgd1na2vs0mg"},{"bike_id":"be3d60a6-6fb6-4cc8-81d6-6fe96ff5ee23","system_id":"levelo_inurba_marseille","lat":43.23085,"lon":5.35476,"is_reserved":false,"is_disabled":false,"rental_uris":{"android":"levelo://app?vid=be3d60a6-6fb6-4cc8-81d6-6fe96ff5ee23","ios":"levelo://app?vid=be3d60a6-6fb6-4cc8-81d6-6fe96ff5ee23"},"vehicle_type_id":"4","last_reported":1734109715,"current_range_meters":38000,"station_id":"cpo3342slgdg3j2ifvpg","pricing_plan_id":"cebpf4jnsgd1na2vs0mg"},{"bike_id":"a19bdc32-7d6d-4046-a238-b24edcb23725","system_id":"levelo_inurba_marseille","lat":43.29564,"lon":5.40016,"is_reserved":false,"is_disabled":false,"rental_uris":{"android":"levelo://app?vid=a19bdc32-7d6d-4046-a238-b24edcb23725","ios":"levelo://app?vid=a19bdc32-7d6d-4046-a238-b24edcb23725"},"vehicle_type_id":"4","last_reported":1734109715,"current_range_meters":37600,"station_id":"ce4bh312rcd13ifvqdj0","pricing_plan_id":"cebpf4jnsgd1na2vs0mg"},{"bike_id":"da15a7af-b98b-4274-ab13-f3fc077f857c","system_id":"levelo_inurba_marseille","lat":43.29417,"lon":5.38626,"is_reserved":false,"is_disabled":true,"rental_uris":{"android":"levelo://app?vid=da15a7af-b98b-4274-ab13-f3fc077f857c","ios":"levelo://app?vid=da15a7af-b98b-4274-ab13-f3fc077f857c"},"vehicle_type_id":"4","last_reported":1734109715,"current_range_meters":0,"station_id":"ce4bh2h2rcd13ifvqdh0","pricing_plan_id":"cebpf4jnsgd1na2vs0mg"},{"bike_id":"69b3a839-c728-46fe-af5a-fe49e0ca053b","system_id":"levelo_inurba_marseille","lat":43.308756,"lon":5.380665,"is_reserved":false,"is_disabled":false,"rental_uris":{"android":"levelo://app?vid=69b3a839-c728-46fe-af5a-fe49e0ca053b","ios":"levelo://app?vid=69b3a839-c728-46fe-af5a-fe49e0ca053b"},"vehicle_type_id":"4","last_reported":1734109715,"current_range_meters":38400,"station_id":"","pricing_plan_id":"cebpf4jnsgd1na2vs0mg"},{"bike_id":"c5b6625c-9c5a-4c6d-be45-b075d3d167d9","system_id":"levelo_inurba_marseille","lat":43.28268,"lon":5.35066,"is_reserved":false,"is_disabled":false,"rental_uris":{"android":"levelo://app?vid=c5b6625c-9c5a-4c6d-be45-b075d3d167d9","ios":"levelo://app?vid=c5b6625c-9c5a-4c6d-be45-b075d3d167d9"},"vehicle_type_id":"4","last_reported":1734109715,"current_range_meters":28400,"station_id":"ce4bhbp2rcd13ifvqerg","pricing_plan_id":"cebpf4jnsgd1na2vs0mg"},{"bike_id":"9332f19c-96e3-47ac-8807-c5c2384614c0","system_id":"levelo_inurba_marseille","lat":43.23069,"lon":5.35512,"is_reserved":false,"is_disabled":false,"rental_uris":{"android":"levelo://app?vid=9332f19c-96e3-47ac-8807-c5c2384614c0","ios":"levelo://app?vid=9332f19c-96e3-47ac-8807-c5c2384614c0"},"vehicle_type_id":"4","last_reported":1734109715,"current_range_meters":38800,"station_id":"cpo3342slgdg3j2ifvpg","pricing_plan_id":"cebpf4jnsgd1na2vs0mg"},{"bike_id":"c8d81389-752a-4db6-8d09-9b8a6259732c","system_id":"levelo_inurba_marseille","lat":43.31328,"lon":5.3969,"is_reserved":false,"is_disabled":false,"rental_uris":{"android":"levelo://app?vid=c8d81389-752a-4db6-8d09-9b8a6259732c","ios":"levelo://app?vid=c8d81389-752a-4db6-8d09-9b8a6259732c"},"vehicle_type_id":"4","last_reported":1734109715,"current_range_meters":32400,"station_id":"ce4bgvp2rcd13ifvqcu0","pricing_plan_id":"cebpf4jnsgd1na2vs0mg"},{"bike_id":"d903c7a0-8941-429b-9f97-31c04aeae91c","system_id":"levelo_inurba_marseille","lat":43.288463,"lon":5.358311,"is_reserved":false,"is_disabled":false,"rental_uris":{"android":"levelo://app?vid=d903c7a0-8941-429b-9f97-31c04aeae91c","ios":"levelo://app?vid=d903c7a0-8941-429b-9f97-31c04aeae91c"},"vehicle_type_id":"4","last_reported":1734109715,"current_range_meters":38400,"station_id":"ce4bhb12rcd13ifvqem0","pricing_plan_id":"cebpf4jnsgd1na2vs0mg"},{"bike_id":"c51875c3-4462-475c-9906-e5e3e8f579dd","system_id":"levelo_inurba_marseille","lat":43.30806,"lon":5.43521,"is_reserved":false,"is_disabled":false,"rental_uris":{"android":"levelo://app?vid=c51875c3-4462-475c-9906-e5e3e8f579dd","ios":"levelo://app?vid=c51875c3-4462-475c-9906-e5e3e8f579dd"},"vehicle_type_id":"4","last_reported":1734109715,"current_range_meters":35600,"station_id":"ce4bhph2rcd13ifvqheg","pricing_plan_id":"cebpf4jnsgd1na2vs0mg"},{"bike_id":"475b5049-a813-437a-864d-0348bb270eb5","system_id":"levelo_inurba_marseille","lat":43.28073,"lon":5.39661,"is_reserved":false,"is_disabled":true,"rental_uris":{"android":"levelo://app?vid=475b5049-a813-437a-864d-0348bb270eb5","ios":"levelo://app?vid=475b5049-a813-437a-864d-0348bb270eb5"},"vehicle_type_id":"4","last_reported":1734109715,"current_range_meters":1200,"station_id":"ce4bho12rcd13ifvqh2g","pricing_plan_id":"cebpf4jnsgd1na2vs0mg"},{"bike_id":"a8942e43-f3d6-46fd-8576-2cc6b2787f3e","system_id":"levelo_inurba_marseille","lat":43.33037,"lon":5.39036,"is_reserved":false,"is_disabled":false,"rental_uris":{"android":"levelo://app?vid=a8942e43-f3d6-46fd-8576-2cc6b2787f3e","ios":"levelo://app?vid=a8942e43-f3d6-46fd-8576-2cc6b2787f3e"},"vehicle_type_id":"4","last_reported":1734109715,"current_range_meters":20000,"station_id":"ce4bhr92rcd13ifvqhrg","pricing_plan_id":"cebpf4jnsgd1na2vs0mg"},{"bike_id":"ff053c70-8c96-447a-bad0-ff4bd156c100","system_id":"levelo_inurba_marseille","lat":43.27995,"lon":5.40002,"is_reserved":false,"is_disabled":false,"rental_uris":{"android":"levelo://app?vid=ff053c70-8c96-447a-bad0-ff4bd156c100","ios":"levelo://app?vid=ff053c70-8c96-447a-bad0-ff4bd156c100"},"vehicle_type_id":"4","last_reported":1734109715,"current_range_meters":18000,"station_id":"ce4bho92rcd13ifvqh4g","pricing_plan_id":"cebpf4jnsgd1na2vs0mg"},{"bike_id":"4757122f-dbf2-4bab-a259-196b3afe40ba","system_id":"levelo_inurba_marseille","lat":43.31156,"lon":5.38705,"is_reserved":false,"is_disabled":false,"rental_uris":{"android":"levelo://app?vid=4757122f-dbf2-4bab-a259-196b3afe40ba","ios":"levelo://app?vid=4757122f-dbf2-4bab-a259-196b3afe40ba"},"vehicle_type_id":"4","last_reported":1734109715,"current_range_meters":37600,"station_id":"ce4bgv12rcd13ifvqcp0","pricing_plan_id":"cebpf4jnsgd1na2vs0mg"},{"bike_id":"bd9ca622-608b-40f1-937b-4a1e1400a4ce","system_id":"levelo_inurba_marseille","lat":43.28613,"lon":5.35099,"is_reserved":false,"is_disabled":false,"rental_uris":{"android":"levelo://app?vid=bd9ca622-608b-40f1-937b-4a1e1400a4ce","ios":"levelo://app?vid=bd9ca622-608b-40f1-937b-4a1e1400a4ce"},"vehicle_type_id":"4","last_reported":1734109715,"current_range_meters":37600,"station_id":"ce4bhch2rcd13ifvqeug","pricing_plan_id":"cebpf4jnsgd1na2vs0mg"},{"bike_id":"d33e9370-c8fb-4ad5-aed6-165bb7efda65","system_id":"levelo_inurba_marseille","lat":43.30151,"lon":5.38765,"is_reserved":false,"is_disabled":false,"rental_uris":{"android":"levelo://app?vid=d33e9370-c8fb-4ad5-aed6-165bb7efda65","ios":"levelo://app?vid=d33e9370-c8fb-4ad5-aed6-165bb7efda65"},"vehicle_type_id":"4","last_reported":1734109715,"current_range_meters":12800,"station_id":"ce4bhoh2rcd13ifvqh6g","pricing_plan_id":"cebpf4jnsgd1na2vs0mg"},{"bike_id":"2dc7fe9b-b1d4-443b-8bcb-dbe7f31138f0","system_id":"levelo_inurba_marseille","lat":43.30488,"lon":5.37899,"is_reserved":false,"is_disabled":false,"rental_uris":{"android":"levelo://app?vid=2dc7fe9b-b1d4-443b-8bcb-dbe7f31138f0","ios":"levelo://app?vid=2dc7fe9b-b1d4-443b-8bcb-dbe7f31138f0"},"vehicle_type_id":"4","last_reported":1734109715,"current_range_meters":38400,"station_id":"ce4bgup2rcd13ifvqcn0","pricing_plan_id":"cebpf4jnsgd1na2vs0mg"},{"bike_id":"afdc425d-17eb-4908-add7-386e01da1f84","system_id":"levelo_inurba_marseille","lat":43.3013,"lon":5.38774,"is_reserved":false,"is_disabled":false,"rental_uris":{"android":"levelo://app?vid=afdc425d-17eb-4908-add7-386e01da1f84","ios":"levelo://app?vid=afdc425d-17eb-4908-add7-386e01da1f84"},"vehicle_type_id":"4","last_reported":1734109715,"current_range_meters":25200,"station_id":"ce4bghh2rcd13ifvqb60","pricing_plan_id":"cebpf4jnsgd1na2vs0mg"},{"bike_id":"6c7e593f-0e95-49fd-8ddb-79f43743eda2","system_id":"levelo_inurba_marseille","lat":43.31764,"lon":5.39009,"is_reserved":false,"is_disabled":false,"rental_uris":{"android":"levelo://app?vid=6c7e593f-0e95-49fd-8ddb-79f43743eda2","ios":"levelo://app?vid=6c7e593f-0e95-49fd-8ddb-79f43743eda2"},"vehicle_type_id":"4","last_reported":1734109715,"current_range_meters":14800,"station_id":"ce4bhqp2rcd13ifvqhng","pricing_plan_id":"cebpf4jnsgd1na2vs0mg"},{"bike_id":"2bd75a67-55bd-4ce3-8c21-31e9eae51af9","system_id":"levelo_inurba_marseille","lat":43.29678,"lon":5.37284,"is_reserved":false,"is_disabled":false,"rental_uris":{"android":"levelo://app?vid=2bd75a67-55bd-4ce3-8c21-31e9eae51af9","ios":"levelo://app?vid=2bd75a67-55bd-4ce3-8c21-31e9eae51af9"},"vehicle_type_id":"4","last_reported":1734109715,"current_range_meters":38400,"station_id":"ce4bgk12rcd13ifvqbj0","pricing_plan_id":"cebpf4jnsgd1na2vs0mg"},{"bike_id":"948b6eae-d82d-4892-b7c7-dbfecc8e647d","system_id":"levelo_inurba_marseille","lat":43.2872,"lon":5.37926,"is_reserved":false,"is_disabled":false,"rental_uris":{"android":"levelo://app?vid=948b6eae-d82d-4892-b7c7-dbfecc8e647d","ios":"levelo://app?vid=948b6eae-d82d-4892-b7c7-dbfecc8e647d"},"vehicle_type_id":"4","last_reported":1734109715,"current_range_meters":33200,"station_id":"ce4bh9p2rcd13ifvqec0","pricing_plan_id":"cebpf4jnsgd1na2vs0mg"},{"bike_id":"cbd2cc47-c4d3-4fe4-99a2-ab99dc9d7b93","system_id":"levelo_inurba_marseille","lat":43.29919,"lon":5.3649,"is_reserved":false,"is_disabled":false,"rental_uris":{"android":"levelo://app?vid=cbd2cc47-c4d3-4fe4-99a2-ab99dc9d7b93","ios":"levelo://app?vid=cbd2cc47-c4d3-4fe4-99a2-ab99dc9d7b93"},"vehicle_type_id":"4","last_reported":1734109715,"current_range_meters":38400,"station_id":"ce4bgm92rcd13ifvqbr0","pricing_plan_id":"cebpf4jnsgd1na2vs0mg"},{"bike_id":"7f9e24d0-3a9a-4327-9147-8926a5fb7d86","system_id":"levelo_inurba_marseille","lat":43.24804,"lon":5.37454,"is_reserved":false,"is_disabled":false,"rental_uris":{"android":"levelo://app?vid=7f9e24d0-3a9a-4327-9147-8926a5fb7d86","ios":"levelo://app?vid=7f9e24d0-3a9a-4327-9147-8926a5fb7d86"},"vehicle_type_id":"4","last_reported":1734109715,"current_range_meters":21600,"station_id":"ce4bhgh2rcd13ifvqfb0","pricing_plan_id":"cebpf4jnsgd1na2vs0mg"},{"bike_id":"6e6a004b-462d-4b03-aeaa-2611256f0d89","system_id":"levelo_inurba_marseille","lat":43.28124,"lon":5.3894,"is_reserved":false,"is_disabled":true,"rental_uris":{"android":"levelo://app?vid=6e6a004b-462d-4b03-aeaa-2611256f0d89","ios":"levelo://app?vid=6e6a004b-462d-4b03-aeaa-2611256f0d89"},"vehicle_type_id":"4","last_reported":1734109715,"current_range_meters":0,"station_id":"","pricing_plan_id":"cebpf4jnsgd1na2vs0mg"},{"bike_id":"1caa693a-3df7-4b1d-8c6d-212b0824ee7d","system_id":"levelo_inurba_marseille","lat":43.30656,"lon":5.4008,"is_reserved":false,"is_disabled":false,"rental_uris":{"android":"levelo://app?vid=1caa693a-3df7-4b1d-8c6d-212b0824ee7d","ios":"levelo://app?vid=1caa693a-3df7-4b1d-8c6d-212b0824ee7d"},"vehicle_type_id":"4","last_reported":1734109715,"current_range_meters":34000,"station_id":"ce4bh112rcd13ifvqda0","pricing_plan_id":"cebpf4jnsgd1na2vs0mg"},{"bike_id":"d6fffe95-279f-4f4a-acf8-3816725ad43e","system_id":"levelo_inurba_marseille","lat":43.30778,"lon":5.37644,"is_reserved":false,"is_disabled":false,"rental_uris":{"android":"levelo://app?vid=d6fffe95-279f-4f4a-acf8-3816725ad43e","ios":"levelo://app?vid=d6fffe95-279f-4f4a-acf8-3816725ad43e"},"vehicle_type_id":"4","last_reported":1734109715,"current_range_meters":38400,"station_id":"ce4bgv92rcd13ifvqcq0","pricing_plan_id":"cebpf4jnsgd1na2vs0mg"},{"bike_id":"e738fcc8-c725-46f1-b7fe-8f522bd56ad4","system_id":"levelo_inurba_marseille","lat":43.22938,"lon":5.35372,"is_reserved":false,"is_disabled":false,"rental_uris":{"android":"levelo://app?vid=e738fcc8-c725-46f1-b7fe-8f522bd56ad4","ios":"levelo://app?vid=e738fcc8-c725-46f1-b7fe-8f522bd56ad4"},"vehicle_type_id":"4","last_reported":1734109715,"current_range_meters":38800,"station_id":"cpo3532slgdg3j2ikp40","pricing_plan_id":"cebpf4jnsgd1na2vs0mg"},{"bike_id":"978bce4a-4ce2-4d4c-9dc7-c42a0edfcb96","system_id":"levelo_inurba_marseille","lat":43.23154,"lon":5.43716,"is_reserved":false,"is_disabled":true,"rental_uris":{"android":"levelo://app?vid=978bce4a-4ce2-4d4c-9dc7-c42a0edfcb96","ios":"levelo://app?vid=978bce4a-4ce2-4d4c-9dc7-c42a0edfcb96"},"vehicle_type_id":"4","last_reported":1734109715,"current_range_meters":0,"station_id":"ce4bhmp2rcd13ifvqgog","pricing_plan_id":"cebpf4jnsgd1na2vs0mg"},{"bike_id":"7965bd8b-65b9-4460-9e65-36f253ebc53b","system_id":"levelo_inurba_marseille","lat":43.32052,"lon":5.41507,"is_reserved":false,"is_disabled":false,"rental_uris":{"android":"levelo://app?vid=7965bd8b-65b9-4460-9e65-36f253ebc53b","ios":"levelo://app?vid=7965bd8b-65b9-4460-9e65-36f253ebc53b"},"vehicle_type_id":"4","last_reported":1734109715,"current_range_meters":22800,"station_id":"ce4bhq92rcd13ifvqhkg","pricing_plan_id":"cebpf4jnsgd1na2vs0mg"},{"bike_id":"0ffc6b8d-2ddb-4335-86e7-92f0e64a897e","system_id":"levelo_inurba_marseille","lat":43.29856,"lon":5.36292,"is_reserved":false,"is_disabled":false,"rental_uris":{"android":"levelo://app?vid=0ffc6b8d-2ddb-4335-86e7-92f0e64a897e","ios":"levelo://app?vid=0ffc6b8d-2ddb-4335-86e7-92f0e64a897e"},"vehicle_type_id":"4","last_reported":1734109715,"current_range_meters":3600,"station_id":"ce4bgpp2rcd13ifvqc3g","pricing_plan_id":"cebpf4jnsgd1na2vs0mg"},{"bike_id":"e5192aff-1008-4e7e-b82a-23b5df79d920","system_id":"levelo_inurba_marseille","lat":43.29556,"lon":5.42277,"is_reserved":false,"is_disabled":true,"rental_uris":{"android":"levelo://app?vid=e5192aff-1008-4e7e-b82a-23b5df79d920","ios":"levelo://app?vid=e5192aff-1008-4e7e-b82a-23b5df79d920"},"vehicle_type_id":"4","last_reported":1734109715,"current_range_meters":0,"station_id":"ce4bhph2rcd13ifvqhdg","pricing_plan_id":"cebpf4jnsgd1na2vs0mg"},{"bike_id":"debb0f78-e94d-4c96-ae72-8d26b700c63f","system_id":"levelo_inurba_marseille","lat":43.2707,"lon":5.42278,"is_reserved":false,"is_disabled":false,"rental_uris":{"android":"levelo://app?vid=debb0f78-e94d-4c96-ae72-8d26b700c63f","ios":"levelo://app?vid=debb0f78-e94d-4c96-ae72-8d26b700c63f"},"vehicle_type_id":"4","last_reported":1734109715,"current_range_meters":14800,"station_id":"ce4bhk92rcd13ifvqgb0","pricing_plan_id":"cebpf4jnsgd1na2vs0mg"},{"bike_id":"1d50a033-4b3f-4b04-a007-0cc758b2bffb","system_id":"levelo_inurba_marseille","lat":43.30936,"lon":5.40143,"is_reserved":false,"is_disabled":false,"rental_uris":{"android":"levelo://app?vid=1d50a033-4b3f-4b04-a007-0cc758b2bffb","ios":"levelo://app?vid=1d50a033-4b3f-4b04-a007-0cc758b2bffb"},"vehicle_type_id":"4","last_reported":1734109715,"current_range_meters":4800,"station_id":"","pricing_plan_id":"cebpf4jnsgd1na2vs0mg"},{"bike_id":"a5589391-a7e4-412b-9a87-f917b2322580","system_id":"levelo_inurba_marseille","lat":43.23061,"lon":5.35505,"is_reserved":false,"is_disabled":false,"rental_uris":{"android":"levelo://app?vid=a5589391-a7e4-412b-9a87-f917b2322580","ios":"levelo://app?vid=a5589391-a7e4-412b-9a87-f917b2322580"},"vehicle_type_id":"4","last_reported":1734109715,"current_range_meters":38400,"station_id":"cpo3342slgdg3j2ifvpg","pricing_plan_id":"cebpf4jnsgd1na2vs0mg"},{"bike_id":"103e9cb3-a529-4d55-b047-75adf6d60c18","system_id":"levelo_inurba_marseille","lat":43.27961,"lon":5.39941,"is_reserved":false,"is_disabled":true,"rental_uris":{"android":"levelo://app?vid=103e9cb3-a529-4d55-b047-75adf6d60c18","ios":"levelo://app?vid=103e9cb3-a529-4d55-b047-75adf6d60c18"},"vehicle_type_id":"4","last_reported":1734109715,"current_range_meters":0,"station_id":"","pricing_plan_id":"cebpf4jnsgd1na2vs0mg"},{"bike_id":"9f6edf01-748c-401f-9fc5-e91fa31a072c","system_id":"levelo_inurba_marseille","lat":43.33019,"lon":5.39039,"is_reserved":false,"is_disabled":false,"rental_uris":{"android":"levelo://app?vid=9f6edf01-748c-401f-9fc5-e91fa31a072c","ios":"levelo://app?vid=9f6edf01-748c-401f-9fc5-e91fa31a072c"},"vehicle_type_id":"4","last_reported":1734109715,"current_range_meters":39200,"station_id":"ce4bhr92rcd13ifvqhrg","pricing_plan_id":"cebpf4jnsgd1na2vs0mg"},{"bike_id":"b16fb6a2-c0c4-44d4-9703-5dfc505371c0","system_id":"levelo_inurba_marseille","lat":43.27665,"lon":5.38877,"is_reserved":false,"is_disabled":false,"rental_uris":{"android":"levelo://app?vid=b16fb6a2-c0c4-44d4-9703-5dfc505371c0","ios":"levelo://app?vid=b16fb6a2-c0c4-44d4-9703-5dfc505371c0"},"vehicle_type_id":"4","last_reported":1734109715,"current_range_meters":7200,"station_id":"ce4bhi12rcd13ifvqfo0","pricing_plan_id":"cebpf4jnsgd1na2vs0mg"},{"bike_id":"14afac6a-63b2-47cb-9bc3-0bc87d22bcde","system_id":"levelo_inurba_marseille","lat":43.32326,"lon":5.3888,"is_reserved":false,"is_disabled":false,"rental_uris":{"android":"levelo://app?vid=14afac6a-63b2-47cb-9bc3-0bc87d22bcde","ios":"levelo://app?vid=14afac6a-63b2-47cb-9bc3-0bc87d22bcde"},"vehicle_type_id":"4","last_reported":1734109715,"current_range_meters":6800,"station_id":"ce4bhqp2rcd13ifvqhog","pricing_plan_id":"cebpf4jnsgd1na2vs0mg"},{"bike_id":"cf114bb8-ce3e-43ba-8e23-69bcac3003fd","system_id":"levelo_inurba_marseille","lat":43.33756,"lon":5.3742,"is_reserved":false,"is_disabled":false,"rental_uris":{"android":"levelo://app?vid=cf114bb8-ce3e-43ba-8e23-69bcac3003fd","ios":"levelo://app?vid=cf114bb8-ce3e-43ba-8e23-69bcac3003fd"},"vehicle_type_id":"4","last_reported":1734109715,"current_range_meters":24800,"station_id":"","pricing_plan_id":"cebpf4jnsgd1na2vs0mg"},{"bike_id":"1edcb435-be97-41f8-aa8c-4a20808cef7c","system_id":"levelo_inurba_marseille","lat":43.26811,"lon":5.40272,"is_reserved":false,"is_disabled":false,"rental_uris":{"android":"levelo://app?vid=1edcb435-be97-41f8-aa8c-4a20808cef7c","ios":"levelo://app?vid=1edcb435-be97-41f8-aa8c-4a20808cef7c"},"vehicle_type_id":"4","last_reported":1734109715,"current_range_meters":4800,"station_id":"ce501612rcd8frsf0b60","pricing_plan_id":"cebpf4jnsgd1na2vs0mg"},{"bike_id":"1a268aef-271d-4053-8579-ae3dadad96bc","system_id":"levelo_inurba_marseille","lat":43.31161,"lon":5.3872,"is_reserved":false,"is_disabled":false,"rental_uris":{"android":"levelo://app?vid=1a268aef-271d-4053-8579-ae3dadad96bc","ios":"levelo://app?vid=1a268aef-271d-4053-8579-ae3dadad96bc"},"vehicle_type_id":"4","last_reported":1734109715,"current_range_meters":36000,"station_id":"ce4bgv12rcd13ifvqcp0","pricing_plan_id":"cebpf4jnsgd1na2vs0mg"},{"bike_id":"a46e3ccb-8bc2-4640-85fb-260de600c1f9","system_id":"levelo_inurba_marseille","lat":43.33767,"lon":5.37434,"is_reserved":false,"is_disabled":false,"rental_uris":{"android":"levelo://app?vid=a46e3ccb-8bc2-4640-85fb-260de600c1f9","ios":"levelo://app?vid=a46e3ccb-8bc2-4640-85fb-260de600c1f9"},"vehicle_type_id":"4","last_reported":1734109715,"current_range_meters":38800,"station_id":"","pricing_plan_id":"cebpf4jnsgd1na2vs0mg"},{"bike_id":"ca3bf6a0-806c-4046-b219-bbea4c2ba646","system_id":"levelo_inurba_marseille","lat":43.23201,"lon":5.35549,"is_reserved":false,"is_disabled":false,"rental_uris":{"android":"levelo://app?vid=ca3bf6a0-806c-4046-b219-bbea4c2ba646","ios":"levelo://app?vid=ca3bf6a0-806c-4046-b219-bbea4c2ba646"},"vehicle_type_id":"4","last_reported":1734109715,"current_range_meters":38800,"station_id":"ce4bhu92rcd13ifvqi70","pricing_plan_id":"cebpf4jnsgd1na2vs0mg"},{"bike_id":"c55818ae-f8a8-462a-89db-411fed4cfa5b","system_id":"levelo_inurba_marseille","lat":43.31091,"lon":5.38333,"is_reserved":false,"is_disabled":false,"rental_uris":{"android":"levelo://app?vid=c55818ae-f8a8-462a-89db-411fed4cfa5b","ios":"levelo://app?vid=c55818ae-f8a8-462a-89db-411fed4cfa5b"},"vehicle_type_id":"4","last_reported":1734109715,"current_range_meters":12400,"station_id":"ce4bgv92rcd13ifvqcr0","pricing_plan_id":"cebpf4jnsgd1na2vs0mg"},{"bike_id":"46b2fdec-0870-4ae2-84dc-b1f57512351e","system_id":"levelo_inurba_marseille","lat":43.337444,"lon":5.374475,"is_reserved":false,"is_disabled":true,"rental_uris":{"android":"levelo://app?vid=46b2fdec-0870-4ae2-84dc-b1f57512351e","ios":"levelo://app?vid=46b2fdec-0870-4ae2-84dc-b1f57512351e"},"vehicle_type_id":"4","last_reported":1734109715,"current_range_meters":0,"station_id":"","pricing_plan_id":"cebpf4jnsgd1na2vs0mg"},{"bike_id":"223de642-b68d-47a4-88b0-d436d3419d23","system_id":"levelo_inurba_marseille","lat":43.27948,"lon":5.41054,"is_reserved":false,"is_disabled":false,"rental_uris":{"android":"levelo://app?vid=223de642-b68d-47a4-88b0-d436d3419d23","ios":"levelo://app?vid=223de642-b68d-47a4-88b0-d436d3419d23"},"vehicle_type_id":"4","last_reported":1734109715,"current_range_meters":27600,"station_id":"ce4bhnp2rcd13ifvqh0g","pricing_plan_id":"cebpf4jnsgd1na2vs0mg"},{"bike_id":"cbe01e99-0ff7-479e-ac8d-a89f5a65b0d8","system_id":"levelo_inurba_marseille","lat":43.25579,"lon":5.38236,"is_reserved":false,"is_disabled":false,"rental_uris":{"android":"levelo://app?vid=cbe01e99-0ff7-479e-ac8d-a89f5a65b0d8","ios":"levelo://app?vid=cbe01e99-0ff7-479e-ac8d-a89f5a65b0d8"},"vehicle_type_id":"4","last_reported":1734109715,"current_range_meters":36400,"station_id":"ce4bhih2rcd13ifvqfs0","pricing_plan_id":"cebpf4jnsgd1na2vs0mg"},{"bike_id":"93604f0a-3e59-41cf-a671-547d6657c99f","system_id":"levelo_inurba_marseille","lat":43.28426,"lon":5.34993,"is_reserved":false,"is_disabled":false,"rental_uris":{"android":"levelo://app?vid=93604f0a-3e59-41cf-a671-547d6657c99f","ios":"levelo://app?vid=93604f0a-3e59-41cf-a671-547d6657c99f"},"vehicle_type_id":"4","last_reported":1734109715,"current_range_meters":32000,"station_id":"ce4bhbh2rcd13ifvqepg","pricing_plan_id":"cebpf4jnsgd1na2vs0mg"},{"bike_id":"ed158489-ece3-4c96-ab28-71e5a429d3f4","system_id":"levelo_inurba_marseille","lat":43.24073,"lon":5.37756,"is_reserved":false,"is_disabled":false,"rental_uris":{"android":"levelo://app?vid=ed158489-ece3-4c96-ab28-71e5a429d3f4","ios":"levelo://app?vid=ed158489-ece3-4c96-ab28-71e5a429d3f4"},"vehicle_type_id":"4","last_reported":1734109715,"current_range_meters":22400,"station_id":"ce4bhnp2rcd13ifvqgvg","pricing_plan_id":"cebpf4jnsgd1na2vs0mg"},{"bike_id":"2439b886-b053-4742-9e64-0c9d960d2098","system_id":"levelo_inurba_marseille","lat":43.33765,"lon":5.3744,"is_reserved":false,"is_disabled":false,"rental_uris":{"android":"levelo://app?vid=2439b886-b053-4742-9e64-0c9d960d2098","ios":"levelo://app?vid=2439b886-b053-4742-9e64-0c9d960d2098"},"vehicle_type_id":"4","last_reported":1734109715,"current_range_meters":38400,"station_id":"","pricing_plan_id":"cebpf4jnsgd1na2vs0mg"},{"bike_id":"2448f112-093b-44a4-8c49-c482af2ba024","system_id":"levelo_inurba_marseille","lat":43.230623,"lon":5.355004,"is_reserved":false,"is_disabled":false,"rental_uris":{"android":"levelo://app?vid=2448f112-093b-44a4-8c49-c482af2ba024","ios":"levelo://app?vid=2448f112-093b-44a4-8c49-c482af2ba024"},"vehicle_type_id":"4","last_reported":1734109715,"current_range_meters":25600,"station_id":"cpo3342slgdg3j2ifvpg","pricing_plan_id":"cebpf4jnsgd1na2vs0mg"},{"bike_id":"0499de42-16c9-46b7-821a-21cdde4fe79f","system_id":"levelo_inurba_marseille","lat":43.30417,"lon":5.40989,"is_reserved":false,"is_disabled":false,"rental_uris":{"android":"levelo://app?vid=0499de42-16c9-46b7-821a-21cdde4fe79f","ios":"levelo://app?vid=0499de42-16c9-46b7-821a-21cdde4fe79f"},"vehicle_type_id":"4","last_reported":1734109715,"current_range_meters":23200,"station_id":"","pricing_plan_id":"cebpf4jnsgd1na2vs0mg"},{"bike_id":"928b8184-138e-4b49-b074-6713fe7a53b4","system_id":"levelo_inurba_marseille","lat":43.313593,"lon":5.384957,"is_reserved":false,"is_disabled":false,"rental_uris":{"android":"levelo://app?vid=928b8184-138e-4b49-b074-6713fe7a53b4","ios":"levelo://app?vid=928b8184-138e-4b49-b074-6713fe7a53b4"},"vehicle_type_id":"4","last_reported":1734109715,"current_range_meters":26000,"station_id":"ce4bgt92rcd13ifvqcf0","pricing_plan_id":"cebpf4jnsgd1na2vs0mg"},{"bike_id":"47b83216-658f-475c-8a11-b87ded17aa98","system_id":"levelo_inurba_marseille","lat":43.28006,"lon":5.40007,"is_reserved":false,"is_disabled":false,"rental_uris":{"android":"levelo://app?vid=47b83216-658f-475c-8a11-b87ded17aa98","ios":"levelo://app?vid=47b83216-658f-475c-8a11-b87ded17aa98"},"vehicle_type_id":"4","last_reported":1734109715,"current_range_meters":36800,"station_id":"ce4bho92rcd13ifvqh4g","pricing_plan_id":"cebpf4jnsgd1na2vs0mg"},{"bike_id":"d214c25f-242c-440b-993d-cd644c655be6","system_id":"levelo_inurba_marseille","lat":43.23057,"lon":5.35499,"is_reserved":false,"is_disabled":false,"rental_uris":{"android":"levelo://app?vid=d214c25f-242c-440b-993d-cd644c655be6","ios":"levelo://app?vid=d214c25f-242c-440b-993d-cd644c655be6"},"vehicle_type_id":"4","last_reported":1734109715,"current_range_meters":34000,"station_id":"cpo3342slgdg3j2ifvpg","pricing_plan_id":"cebpf4jnsgd1na2vs0mg"},{"bike_id":"36fe7f2d-6b60-46ad-a5d3-ec5715357c26","system_id":"levelo_inurba_marseille","lat":43.337695,"lon":5.374371,"is_reserved":false,"is_disabled":false,"rental_uris":{"android":"levelo://app?vid=36fe7f2d-6b60-46ad-a5d3-ec5715357c26","ios":"levelo://app?vid=36fe7f2d-6b60-46ad-a5d3-ec5715357c26"},"vehicle_type_id":"4","last_reported":1734109715,"current_range_meters":38000,"station_id":"","pricing_plan_id":"cebpf4jnsgd1na2vs0mg"},{"bike_id":"6d05f7ba-808a-4403-b1f3-f8483fec843c","system_id":"levelo_inurba_marseille","lat":43.23187,"lon":5.35552,"is_reserved":false,"is_disabled":false,"rental_uris":{"android":"levelo://app?vid=6d05f7ba-808a-4403-b1f3-f8483fec843c","ios":"levelo://app?vid=6d05f7ba-808a-4403-b1f3-f8483fec843c"},"vehicle_type_id":"4","last_reported":1734109715,"current_range_meters":26000,"station_id":"ce4bhu92rcd13ifvqi70","pricing_plan_id":"cebpf4jnsgd1na2vs0mg"},{"bike_id":"6d81099e-b2e2-4dfc-8523-60931df8bbb9","system_id":"levelo_inurba_marseille","lat":43.29195,"lon":5.35797,"is_reserved":false,"is_disabled":false,"rental_uris":{"android":"levelo://app?vid=6d81099e-b2e2-4dfc-8523-60931df8bbb9","ios":"levelo://app?vid=6d81099e-b2e2-4dfc-8523-60931df8bbb9"},"vehicle_type_id":"4","last_reported":1734109715,"current_range_meters":6800,"station_id":"ce4bhb12rcd13ifvqel0","pricing_plan_id":"cebpf4jnsgd1na2vs0mg"},{"bike_id":"d1f8f88b-5fbd-4dc9-802c-b233ef4f52ad","system_id":"levelo_inurba_marseille","lat":43.31109,"lon":5.38349,"is_reserved":false,"is_disabled":false,"rental_uris":{"android":"levelo://app?vid=d1f8f88b-5fbd-4dc9-802c-b233ef4f52ad","ios":"levelo://app?vid=d1f8f88b-5fbd-4dc9-802c-b233ef4f52ad"},"vehicle_type_id":"4","last_reported":1734109715,"current_range_meters":14800,"station_id":"ce4bgv92rcd13ifvqcr0","pricing_plan_id":"cebpf4jnsgd1na2vs0mg"},{"bike_id":"edd5e41e-4d0d-429a-9883-f33f6a7770dc","system_id":"levelo_inurba_marseille","lat":43.28269,"lon":5.35058,"is_reserved":false,"is_disabled":false,"rental_uris":{"android":"levelo://app?vid=edd5e41e-4d0d-429a-9883-f33f6a7770dc","ios":"levelo://app?vid=edd5e41e-4d0d-429a-9883-f33f6a7770dc"},"vehicle_type_id":"4","last_reported":1734109715,"current_range_meters":6800,"station_id":"ce4bhbp2rcd13ifvqerg","pricing_plan_id":"cebpf4jnsgd1na2vs0mg"},{"bike_id":"4607208a-c2f9-4912-8840-7fabf355046e","system_id":"levelo_inurba_marseille","lat":43.3127,"lon":5.40173,"is_reserved":false,"is_disabled":false,"rental_uris":{"android":"levelo://app?vid=4607208a-c2f9-4912-8840-7fabf355046e","ios":"levelo://app?vid=4607208a-c2f9-4912-8840-7fabf355046e"},"vehicle_type_id":"4","last_reported":1734109715,"current_range_meters":14000,"station_id":"ce4bh092rcd13ifvqd30","pricing_plan_id":"cebpf4jnsgd1na2vs0mg"},{"bike_id":"9c8c1480-9ffa-4086-913c-c2125a6eb848","system_id":"levelo_inurba_marseille","lat":43.22931,"lon":5.35378,"is_reserved":false,"is_disabled":false,"rental_uris":{"android":"levelo://app?vid=9c8c1480-9ffa-4086-913c-c2125a6eb848","ios":"levelo://app?vid=9c8c1480-9ffa-4086-913c-c2125a6eb848"},"vehicle_type_id":"4","last_reported":1734109715,"current_range_meters":31200,"station_id":"cpo3532slgdg3j2ikp40","pricing_plan_id":"cebpf4jnsgd1na2vs0mg"},{"bike_id":"783a59a0-9cfa-4c5a-b70c-00a7dd7961da","system_id":"levelo_inurba_marseille","lat":43.292,"lon":5.39325,"is_reserved":false,"is_disabled":true,"rental_uris":{"android":"levelo://app?vid=783a59a0-9cfa-4c5a-b70c-00a7dd7961da","ios":"levelo://app?vid=783a59a0-9cfa-4c5a-b70c-00a7dd7961da"},"vehicle_type_id":"4","last_reported":1734109715,"current_range_meters":27200,"station_id":"ce4bh192rcd13ifvqdd0","pricing_plan_id":"cebpf4jnsgd1na2vs0mg"},{"bike_id":"74b30b9c-33cd-4b01-bc11-46c3d1b01fc9","system_id":"levelo_inurba_marseille","lat":43.32332,"lon":5.38589,"is_reserved":false,"is_disabled":false,"rental_uris":{"android":"levelo://app?vid=74b30b9c-33cd-4b01-bc11-46c3d1b01fc9","ios":"levelo://app?vid=74b30b9c-33cd-4b01-bc11-46c3d1b01fc9"},"vehicle_type_id":"4","last_reported":1734109715,"current_range_meters":34000,"station_id":"","pricing_plan_id":"cebpf4jnsgd1na2vs0mg"},{"bike_id":"dd76e1a4-0943-4507-a76b-20b15c09ddac","system_id":"levelo_inurba_marseille","lat":43.29576,"lon":5.39968,"is_reserved":false,"is_disabled":true,"rental_uris":{"android":"levelo://app?vid=dd76e1a4-0943-4507-a76b-20b15c09ddac","ios":"levelo://app?vid=dd76e1a4-0943-4507-a76b-20b15c09ddac"},"vehicle_type_id":"4","last_reported":1734109715,"current_range_meters":35600,"station_id":"ce4bh312rcd13ifvqdj0","pricing_plan_id":"cebpf4jnsgd1na2vs0mg"},{"bike_id":"0d0d8258-483e-48d6-a7a8-5ca8db1f041e","system_id":"levelo_inurba_marseille","lat":43.31166,"lon":5.38719,"is_reserved":false,"is_disabled":false,"rental_uris":{"android":"levelo://app?vid=0d0d8258-483e-48d6-a7a8-5ca8db1f041e","ios":"levelo://app?vid=0d0d8258-483e-48d6-a7a8-5ca8db1f041e"},"vehicle_type_id":"4","last_reported":1734109715,"current_range_meters":9200,"station_id":"ce4bgv12rcd13ifvqcp0","pricing_plan_id":"cebpf4jnsgd1na2vs0mg"},{"bike_id":"76ff6577-012f-45c0-9808-97bac7529c3f","system_id":"levelo_inurba_marseille","lat":43.30151,"lon":5.37502,"is_reserved":false,"is_disabled":false,"rental_uris":{"android":"levelo://app?vid=76ff6577-012f-45c0-9808-97bac7529c3f","ios":"levelo://app?vid=76ff6577-012f-45c0-9808-97bac7529c3f"},"vehicle_type_id":"4","last_reported":1734109715,"current_range_meters":34800,"station_id":"","pricing_plan_id":"cebpf4jnsgd1na2vs0mg"},{"bike_id":"1fb8a6d9-7fea-488e-84d6-b038aceeb0ab","system_id":"levelo_inurba_marseille","lat":43.295746,"lon":5.37511,"is_reserved":false,"is_disabled":false,"rental_uris":{"android":"levelo://app?vid=1fb8a6d9-7fea-488e-84d6-b038aceeb0ab","ios":"levelo://app?vid=1fb8a6d9-7fea-488e-84d6-b038aceeb0ab"},"vehicle_type_id":"4","last_reported":1734109715,"current_range_meters":36800,"station_id":"ce4bgh92rcd13ifvqb50","pricing_plan_id":"cebpf4jnsgd1na2vs0mg"},{"bike_id":"ad81a919-72b3-4b78-9ff0-ce083116ec32","system_id":"levelo_inurba_marseille","lat":43.29273,"lon":5.38451,"is_reserved":false,"is_disabled":false,"rental_uris":{"android":"levelo://app?vid=ad81a919-72b3-4b78-9ff0-ce083116ec32","ios":"levelo://app?vid=ad81a919-72b3-4b78-9ff0-ce083116ec32"},"vehicle_type_id":"4","last_reported":1734109715,"current_range_meters":38800,"station_id":"ce4bh692rcd13ifvqea0","pricing_plan_id":"cebpf4jnsgd1na2vs0mg"},{"bike_id":"4bf7413e-4810-4d67-ba07-fdeda4ea7c65","system_id":"levelo_inurba_marseille","lat":43.29793,"lon":5.38095,"is_reserved":false,"is_disabled":false,"rental_uris":{"android":"levelo://app?vid=4bf7413e-4810-4d67-ba07-fdeda4ea7c65","ios":"levelo://app?vid=4bf7413e-4810-4d67-ba07-fdeda4ea7c65"},"vehicle_type_id":"4","last_reported":1734109715,"current_range_meters":29600,"station_id":"ce4bgip2rcd13ifvqbb0","pricing_plan_id":"cebpf4jnsgd1na2vs0mg"},{"bike_id":"3eed804d-8906-49da-8871-28825ee66885","system_id":"levelo_inurba_marseille","lat":43.29626,"lon":5.40591,"is_reserved":false,"is_disabled":false,"rental_uris":{"android":"levelo://app?vid=3eed804d-8906-49da-8871-28825ee66885","ios":"levelo://app?vid=3eed804d-8906-49da-8871-28825ee66885"},"vehicle_type_id":"4","last_reported":1734109715,"current_range_meters":25600,"station_id":"ce4bh0h2rcd13ifvqd60","pricing_plan_id":"cebpf4jnsgd1na2vs0mg"},{"bike_id":"68076940-ea73-40dd-ab46-b0218fe9d22e","system_id":"levelo_inurba_marseille","lat":43.23153,"lon":5.43722,"is_reserved":false,"is_disabled":false,"rental_uris":{"android":"levelo://app?vid=68076940-ea73-40dd-ab46-b0218fe9d22e","ios":"levelo://app?vid=68076940-ea73-40dd-ab46-b0218fe9d22e"},"vehicle_type_id":"4","last_reported":1734109715,"current_range_meters":20400,"station_id":"ce4bhmp2rcd13ifvqgog","pricing_plan_id":"cebpf4jnsgd1na2vs0mg"},{"bike_id":"a785ec8b-dd9a-4959-a018-d379d42875f5","system_id":"levelo_inurba_marseille","lat":43.23189,"lon":5.39973,"is_reserved":false,"is_disabled":false,"rental_uris":{"android":"levelo://app?vid=a785ec8b-dd9a-4959-a018-d379d42875f5","ios":"levelo://app?vid=a785ec8b-dd9a-4959-a018-d379d42875f5"},"vehicle_type_id":"4","last_reported":1734109715,"current_range_meters":22800,"station_id":"ce4bhn12rcd13ifvqgqg","pricing_plan_id":"cebpf4jnsgd1na2vs0mg"},{"bike_id":"1ab34c15-2f35-461f-a0a3-4f1efe4e8ee9","system_id":"levelo_inurba_marseille","lat":43.30384,"lon":5.37333,"is_reserved":false,"is_disabled":true,"rental_uris":{"android":"levelo://app?vid=1ab34c15-2f35-461f-a0a3-4f1efe4e8ee9","ios":"levelo://app?vid=1ab34c15-2f35-461f-a0a3-4f1efe4e8ee9"},"vehicle_type_id":"4","last_reported":1734109715,"current_range_meters":0,"station_id":"","pricing_plan_id":"cebpf4jnsgd1na2vs0mg"},{"bike_id":"185f1b81-a85c-45a4-9459-c8392c393626","system_id":"levelo_inurba_marseille","lat":43.29707,"lon":5.36606,"is_reserved":false,"is_disabled":false,"rental_uris":{"android":"levelo://app?vid=185f1b81-a85c-45a4-9459-c8392c393626","ios":"levelo://app?vid=185f1b81-a85c-45a4-9459-c8392c393626"},"vehicle_type_id":"4","last_reported":1734109715,"current_range_meters":30400,"station_id":"ce4bgn12rcd13ifvqbt0","pricing_plan_id":"cebpf4jnsgd1na2vs0mg"},{"bike_id":"b97f80cb-3d9a-48cb-9f91-f2f537b4fe68","system_id":"levelo_inurba_marseille","lat":43.25503,"lon":5.37649,"is_reserved":false,"is_disabled":false,"rental_uris":{"android":"levelo://app?vid=b97f80cb-3d9a-48cb-9f91-f2f537b4fe68","ios":"levelo://app?vid=b97f80cb-3d9a-48cb-9f91-f2f537b4fe68"},"vehicle_type_id":"4","last_reported":1734109715,"current_range_meters":14800,"station_id":"ce4bhh12rcd13ifvqff0","pricing_plan_id":"cebpf4jnsgd1na2vs0mg"},{"bike_id":"0c048de4-9c12-4588-8a62-d143a1964913","system_id":"levelo_inurba_marseille","lat":43.24438,"lon":5.37061,"is_reserved":false,"is_disabled":false,"rental_uris":{"android":"levelo://app?vid=0c048de4-9c12-4588-8a62-d143a1964913","ios":"levelo://app?vid=0c048de4-9c12-4588-8a62-d143a1964913"},"vehicle_type_id":"4","last_reported":1734109715,"current_range_meters":38800,"station_id":"","pricing_plan_id":"cebpf4jnsgd1na2vs0mg"},{"bike_id":"d2da5ca1-56c6-452e-be3c-af1c45c897d8","system_id":"levelo_inurba_marseille","lat":43.28464,"lon":5.35891,"is_reserved":false,"is_disabled":false,"rental_uris":{"android":"levelo://app?vid=d2da5ca1-56c6-452e-be3c-af1c45c897d8","ios":"levelo://app?vid=d2da5ca1-56c6-452e-be3c-af1c45c897d8"},"vehicle_type_id":"4","last_reported":1734109715,"current_range_meters":28400,"station_id":"ce4bhah2rcd13ifvqei0","pricing_plan_id":"cebpf4jnsgd1na2vs0mg"},{"bike_id":"312a56fa-a572-4b26-9af8-993942b727fa","system_id":"levelo_inurba_marseille","lat":43.33099,"lon":5.38219,"is_reserved":false,"is_disabled":false,"rental_uris":{"android":"levelo://app?vid=312a56fa-a572-4b26-9af8-993942b727fa","ios":"levelo://app?vid=312a56fa-a572-4b26-9af8-993942b727fa"},"vehicle_type_id":"4","last_reported":1734109715,"current_range_meters":29600,"station_id":"","pricing_plan_id":"cebpf4jnsgd1na2vs0mg"},{"bike_id":"0064fdce-8b10-4edc-a1f7-e7ce5ff74f7b","system_id":"levelo_inurba_marseille","lat":43.267792,"lon":5.394178,"is_reserved":false,"is_disabled":false,"rental_uris":{"android":"levelo://app?vid=0064fdce-8b10-4edc-a1f7-e7ce5ff74f7b","ios":"levelo://app?vid=0064fdce-8b10-4edc-a1f7-e7ce5ff74f7b"},"vehicle_type_id":"4","last_reported":1734109715,"current_range_meters":28800,"station_id":"ce4bhh12rcd13ifvqfg0","pricing_plan_id":"cebpf4jnsgd1na2vs0mg"},{"bike_id":"36c49139-cb43-468a-9290-819b60b75f64","system_id":"levelo_inurba_marseille","lat":43.25095,"lon":5.4032,"is_reserved":false,"is_disabled":false,"rental_uris":{"android":"levelo://app?vid=36c49139-cb43-468a-9290-819b60b75f64","ios":"levelo://app?vid=36c49139-cb43-468a-9290-819b60b75f64"},"vehicle_type_id":"4","last_reported":1734109715,"current_range_meters":27600,"station_id":"ce4bhlh2rcd13ifvqgig","pricing_plan_id":"cebpf4jnsgd1na2vs0mg"},{"bike_id":"b1112be8-c385-4c97-8650-773ca062f3a1","system_id":"levelo_inurba_marseille","lat":43.2717,"lon":5.40996,"is_reserved":false,"is_disabled":false,"rental_uris":{"android":"levelo://app?vid=b1112be8-c385-4c97-8650-773ca062f3a1","ios":"levelo://app?vid=b1112be8-c385-4c97-8650-773ca062f3a1"},"vehicle_type_id":"4","last_reported":1734109715,"current_range_meters":35600,"station_id":"ce4bhl12rcd13ifvqgf0","pricing_plan_id":"cebpf4jnsgd1na2vs0mg"},