{"last_updated":1738934139,"ttl":60,"version":"2.2","data":{"bikes":[{"bike_id":"b8740638-8b15-4e39-9dd8-3d88c6eff33f","system_id":"levelo_inurba_marseille","lat":43.31238,"lon":5.36867,"is_reserved":false,"is_disabled":true,"rental_uris":{"android":"levelo://app?vid=b8740638-8b15-4e39-9dd8-3d88c6eff33f","ios":"levelo://app?vid=b8740638-8b15-4e39-9dd8-3d88c6eff33f"},"vehicle_type_id":"4","last_reported":1738934139,"current_range_meters":38800,"station_id":"ce4bgl92rcd13ifvqbq0","pricing_plan_id":"cebpf4jnsgd1na2vs0mg"},{"bike_id":"1a0e67de-9597-4d47-8182-41732e9786f3","system_id":"levelo_inurba_marseille","lat":43.32488,"lon":5.36584,"is_reserved":false,"is_disabled":false,"rental_uris":{"android":"levelo://app?vid=1a0e67de-9597-4d47-8182-41732e9786f3","ios":"levelo://app?vid=1a0e67de-9597-4d47-8182-41732e9786f3"},"vehicle_type_id":"4","last_reported":1738934139,"current_range_meters":38800,"station_id":"ce4bhs12rcd13ifvqhvg","pricing_plan_id":"cebpf4jnsgd1na2vs0mg"},{"bike_id":"ccdc6efe-ebdd-4ab0-9036-6ff3200f0168","system_id":"levelo_inurba_marseille","lat":43.27186,"lon":5.40971,"is_reserved":false,"is_disabled":true,"rental_uris":{"android":"levelo://app?vid=ccdc6efe-ebdd-4ab0-9036-6ff3200f0168","ios":"levelo://app?vid=ccdc6efe-ebdd-4ab0-9036-6ff3200f0168"},"vehicle_type_id":"4","last_reported":1738934139,"current_range_meters":30400,"station_id":"ce4bhl12rcd13ifvqgf0","pricing_plan_id":"cebpf4jnsgd1na2vs0mg"},{"bike_id":"b9a2b08a-b362-4932-a9a9-540b08835e68","system_id":"levelo_inurba_marseille","lat":43.29587,"lon":5.36743,"is_reserved":false,"is_disabled":false,"rental_uris":{"android":"levelo://app?vid=b9a2b08a-b362-4932-a9a9-540b08835e68","ios":"levelo://app?vid=b9a2b08a-b362-4932-a9a9-540b08835e68"},"vehicle_type_id":"4","last_reported":1738934139,"current_range_meters":39200,"station_id":"ce4bgph2rcd13ifvqc2g","pricing_plan_id":"cebpf4jnsgd1na2vs0mg"},{"bike_id":"dd77d3df-3808-480f-836e-78b7bc6dd6d4","system_id":"levelo_inurba_marseille","lat":43.31079,"lon":5.38359,"is_reserved":false,"is_disabled":false,"rental_uris":{"android":"levelo://app?vid=dd77d3df-3808-480f-836e-78b7bc6dd6d4","ios":"levelo://app?vid=dd77d3df-3808-480f-836e-78b7bc6dd6d4"},"vehicle_type_id":"4","last_reported":1738934139,"current_range_meters":20000,"station_id":"ce4bgv92rcd13ifvqcr0","pricing_plan_id":"cebpf4jnsgd1na2vs0mg"},{"bike_id":"cfa7f1cc-5150-48ed-843c-f6960ddad1e1","system_id":"levelo_inurba_marseille","lat":43.26501,"lon":5.39571,"is_reserved":false,"is_disabled":true,"rental_uris":{"android":"levelo://app?vid=cfa7f1cc-5150-48ed-843c-f6960ddad1e1","ios":"levelo://app?vid=cfa7f1cc-5150-48ed-843c-f6960ddad1e1"},"vehicle_type_id":"4","last_reported":1738934139,"current_range_meters":19600,"station_id":"ce4bhi12rcd13ifvqfq0","pricing_plan_id":"cebpf4jnsgd1na2vs0mg"},{"bike_id":"00c50f5c-84ab-482e-aa0b-ac82177e5309","system_id":"levelo_inurba_marseille","lat":43.28345,"lon":5.38095,"is_reserved":false,"is_disabled":false,"rental_uris":{"android":"levelo://app?vid=00c50f5c-84ab-482e-aa0b-ac82177e5309","ios":"levelo://app?vid=00c50f5c-84ab-482e-aa0b-ac82177e5309"},"vehicle_type_id":"4","last_reported":1738934139,"current_range_meters":32000,"station_id":"ce4bh412rcd13ifvqdr0","pricing_plan_id":"cebpf4jnsgd1na2vs0mg"},{"bike_id":"84148ed6-8810-4a28-88d1-d4ef7b27dbc4","system_id":"levelo_inurba_marseille","lat":43.31711,"lon":5.43701,"is_reserved":false,"is_disabled":false,"rental_uris":{"android":"levelo://app?vid=84148ed6-8810-4a28-88d1-d4ef7b27dbc4","ios":"levelo://app?vid=84148ed6-8810-4a28-88d1-d4ef7b27dbc4"},"vehicle_type_id":"4","last_reported":1738934139,"current_range_meters":39200,"station_id":"ce4bhp92rcd13ifvqhcg","pricing_plan_id":"cebpf4jnsgd1na2vs0mg"},{"bike_id":"0b370460-2bdc-4346-a1f4-7aeb9dd2a707","system_id":"levelo_inurba_marseille","lat":43.28632,"lon":5.39138,"is_reserved":false,"is_disabled":true,"rental_uris":{"android":"levelo://app?vid=0b370460-2bdc-4346-a1f4-7aeb9dd2a707","ios":"levelo://app?vid=0b370460-2bdc-4346-a1f4-7aeb9dd2a707"},"vehicle_type_id":"4","last_reported":1738934139,"current_range_meters":14800,"station_id":"","pricing_plan_id":"cebpf4jnsgd1na2vs0mg"},{"bike_id":"ecd26a9a-34a7-4b62-9d4a-72295751c94a","system_id":"levelo_inurba_marseille","lat":43.30474,"lon":5.37913,"is_reserved":false,"is_disabled":false,"rental_uris":{"android":"levelo://app?vid=ecd26a9a-34a7-4b62-9d4a-72295751c94a","ios":"levelo://app?vid=ecd26a9a-34a7-4b62-9d4a-72295751c94a"},"vehicle_type_id":"4","last_reported":1738934139,"current_range_meters":35200,"station_id":"ce4bgup2rcd13ifvqcn0","pricing_plan_id":"cebpf4jnsgd1na2vs0mg"},{"bike_id":"fe116f4b-d363-48be-b316-1ede8f7d0b06","system_id":"levelo_inurba_marseille","lat":43.27131,"lon":5.42301,"is_reserved":false,"is_disabled":false,"rental_uris":{"android":"levelo://app?vid=fe116f4b-d363-48be-b316-1ede8f7d0b06","ios":"levelo://app?vid=fe116f4b-d363-48be-b316-1ede8f7d0b06"},"vehicle_type_id":"4","last_reported":1738934139,"current_range_meters":39200,"station_id":"ce4bhk92rcd13ifvqgb0","pricing_plan_id":"cebpf4jnsgd1na2vs0mg"},{"bike_id":"c65b750f-6db7-4099-b3da-389752899be3","system_id":"levelo_inurba_marseille","lat":43.29417,"lon":5.38621,"is_reserved":false,"is_disabled":false,"rental_uris":{"android":"levelo://app?vid=c65b750f-6db7-4099-b3da-389752899be3","ios":"levelo://app?vid=c65b750f-6db7-4099-b3da-389752899be3"},"vehicle_type_id":"4","last_reported":1738934139,"current_range_meters":31200,"station_id":"ce4bh2h2rcd13ifvqdh0","pricing_plan_id":"cebpf4jnsgd1na2vs0mg"},{"bike_id":"671ba2f0-d057-497f-91bf-fbb8621a6d8c","system_id":"levelo_inurba_marseille","lat":43.28496,"lon":5.38577,"is_reserved":false,"is_disabled":false,"rental_uris":{"android":"levelo://app?vid=671ba2f0-d057-497f-91bf-fbb8621a6d8c","ios":"levelo://app?vid=671ba2f0-d057-497f-91bf-fbb8621a6d8c"},"vehicle_type_id":"4","last_reported":1738934139,"current_range_meters":36400,"station_id":"ce4bh8p2rcd13ifvqeb0","pricing_plan_id":"cebpf4jnsgd1na2vs0mg"},{"bike_id":"ffdb6efc-7928-43a7-a4b4-0c9c4eb25b66","system_id":"levelo_inurba_marseille","lat":43.269357,"lon":5.402593,"is_reserved":false,"is_disabled":false,"rental_uris":{"android":"levelo://app?vid=ffdb6efc-7928-43a7-a4b4-0c9c4eb25b66","ios":"levelo://app?vid=ffdb6efc-7928-43a7-a4b4-0c9c4eb25b66"},"vehicle_type_id":"4","last_reported":1738934139,"current_range_meters":38800,"station_id":"cjm6bp8fraef2m0cb0m0","pricing_plan_id":"cebpf4jnsgd1na2vs0mg"},{"bike_id":"62730702-3f6f-4a8c-bd01-913768b7f0ba","system_id":"levelo_inurba_marseille","lat":43.30606,"lon":5.39342,"is_reserved":false,"is_disabled":true,"rental_uris":{"android":"levelo://app?vid=62730702-3f6f-4a8c-bd01-913768b7f0ba","ios":"levelo://app?vid=62730702-3f6f-4a8c-bd01-913768b7f0ba"},"vehicle_type_id":"4","last_reported":1738934139,"current_range_meters":31200,"station_id":"ce4bh0p2rcd13ifvqd80","pricing_plan_id":"cebpf4jnsgd1na2vs0mg"},{"bike_id":"85358b23-f14d-40fd-a40b-2b4ad7158590","system_id":"levelo_inurba_marseille","lat":43.29854,"lon":5.36278,"is_reserved":false,"is_disabled":true,"rental_uris":{"android":"levelo://app?vid=85358b23-f14d-40fd-a40b-2b4ad7158590","ios":"levelo://app?vid=85358b23-f14d-40fd-a40b-2b4ad7158590"},"vehicle_type_id":"4","last_reported":1738934139,"current_range_meters":35200,"station_id":"ce4bgpp2rcd13ifvqc3g","pricing_plan_id":"cebpf4jnsgd1na2vs0mg"},{"bike_id":"9ef077fb-cb5d-4c2d-9562-db07084e4024","system_id":"levelo_inurba_marseille","lat":43.25938,"lon":5.40916,"is_reserved":false,"is_disabled":false,"rental_uris":{"android":"levelo://app?vid=9ef077fb-cb5d-4c2d-9562-db07084e4024","ios":"levelo://app?vid=9ef077fb-cb5d-4c2d-9562-db07084e4024"},"vehicle_type_id":"4","last_reported":1738934139,"current_range_meters":28400,"station_id":"ce4bhm92rcd13ifvqglg","pricing_plan_id":"cebpf4jnsgd1na2vs0mg"},{"bike_id":"0e3e205c-def0-409b-93d1-6bd9975a7ce8","system_id":"levelo_inurba_marseille","lat":43.33783,"lon":5.37449,"is_reserved":false,"is_disabled":false,"rental_uris":{"android":"levelo://app?vid=0e3e205c-def0-409b-93d1-6bd9975a7ce8","ios":"levelo://app?vid=0e3e205c-def0-409b-93d1-6bd9975a7ce8"},"vehicle_type_id":"4","last_reported":1738934139,"current_range_meters":6400,"station_id":"","pricing_plan_id":"cebpf4jnsgd1na2vs0mg"},{"bike_id":"47a7c126-740a-4586-aa00-80e4cc3acff7","system_id":"levelo_inurba_marseille","lat":43.26564,"lon":5.39009,"is_reserved":false,"is_disabled":false,"rental_uris":{"android":"levelo://app?vid=47a7c126-740a-4586-aa00-80e4cc3acff7","ios":"levelo://app?vid=47a7c126-740a-4586-aa00-80e4cc3acff7"},"vehicle_type_id":"4","last_reported":1738934139,"current_range_meters":16000,"station_id":"ce4bhe12rcd13ifvqf30","pricing_plan_id":"cebpf4jnsgd1na2vs0mg"},{"bike_id":"6a3bf5dc-6406-4053-977a-019d33b4193c","system_id":"levelo_inurba_marseille","lat":43.28402,"lon":5.3751,"is_reserved":false,"is_disabled":true,"rental_uris":{"android":"levelo://app?vid=6a3bf5dc-6406-4053-977a-019d33b4193c","ios":"levelo://app?vid=6a3bf5dc-6406-4053-977a-019d33b4193c"},"vehicle_type_id":"4","last_reported":1738934139,"current_range_meters":32000,"station_id":"ce4bh412rcd13ifvqds0","pricing_plan_id":"cebpf4jnsgd1na2vs0mg"},{"bike_id":"cee42e07-d55b-4786-894f-7fef2c1d9805","system_id":"levelo_inurba_marseille","lat":43.30324,"lon":5.36917,"is_reserved":false,"is_disabled":false,"rental_uris":{"android":"levelo://app?vid=cee42e07-d55b-4786-894f-7fef2c1d9805","ios":"levelo://app?vid=cee42e07-d55b-4786-894f-7fef2c1d9805"},"vehicle_type_id":"4","last_reported":1738934139,"current_range_meters":29600,"station_id":"ce4bgqh2rcd13ifvqc5g","pricing_plan_id":"cebpf4jnsgd1na2vs0mg"},{"bike_id":"6bd15c5e-d6b2-43ab-8fc9-854cbe9e9385","system_id":"levelo_inurba_marseille","lat":43.26077,"lon":5.39407,"is_reserved":false,"is_disabled":false,"rental_uris":{"android":"levelo://app?vid=6bd15c5e-d6b2-43ab-8fc9-854cbe9e9385","ios":"levelo://app?vid=6bd15c5e-d6b2-43ab-8fc9-854cbe9e9385"},"vehicle_type_id":"4","last_reported":1738934139,"current_range_meters":38800,"station_id":"ce4bhh92rcd13ifvqfj0","pricing_plan_id":"cebpf4jnsgd1na2vs0mg"},{"bike_id":"5f2172a2-f883-4786-872c-dc0a5649ef78","system_id":"levelo_inurba_marseille","lat":43.25872,"lon":5.39908,"is_reserved":false,"is_disabled":false,"rental_uris":{"android":"levelo://app?vid=5f2172a2-f883-4786-872c-dc0a5649ef78","ios":"levelo://app?vid=5f2172a2-f883-4786-872c-dc0a5649ef78"},"vehicle_type_id":"4","last_reported":1738934139,"current_range_meters":22400,"station_id":"ce4bhl92rcd13ifvqghg","pricing_plan_id":"cebpf4jnsgd1na2vs0mg"},{"bike_id":"3528aa62-06b4-44de-92de-1aa1318d56b7","system_id":"levelo_inurba_marseille","lat":43.26193,"lon":5.37415,"is_reserved":false,"is_disabled":false,"rental_uris":{"android":"levelo://app?vid=3528aa62-06b4-44de-92de-1aa1318d56b7","ios":"levelo://app?vid=3528aa62-06b4-44de-92de-1aa1318d56b7"},"vehicle_type_id":"4","last_reported":1738934139,"current_range_meters":36000,"station_id":"ce4bhgp2rcd13ifvqfc0","pricing_plan_id":"cebpf4jnsgd1na2vs0mg"},{"bike_id":"aa874f21-4899-4c94-ac56-d6c355723cbb","system_id":"levelo_inurba_marseille","lat":43.23193,"lon":5.39993,"is_reserved":false,"is_disabled":false,"rental_uris":{"android":"levelo://app?vid=aa874f21-4899-4c94-ac56-d6c355723cbb","ios":"levelo://app?vid=aa874f21-4899-4c94-ac56-d6c355723cbb"},"vehicle_type_id":"4","last_reported":1738934139,"current_range_meters":33200,"station_id":"ce4bhn12rcd13ifvqgqg","pricing_plan_id":"cebpf4jnsgd1na2vs0mg"},{"bike_id":"ff76c6e9-316d-475d-9f19-7e3b447f3b23","system_id":"levelo_inurba_marseille","lat":43.30318,"lon":5.3691,"is_reserved":false,"is_disabled":false,"rental_uris":{"android":"levelo://app?vid=ff76c6e9-316d-475d-9f19-7e3b447f3b23","ios":"levelo://app?vid=ff76c6e9-316d-475d-9f19-7e3b447f3b23"},"vehicle_type_id":"4","last_reported":1738934139,"current_range_meters":24400,"station_id":"ce4bgqh2rcd13ifvqc5g","pricing_plan_id":"cebpf4jnsgd1na2vs0mg"},{"bike_id":"79a50c87-77f6-4170-bc3e-48fd603b4b62","system_id":"levelo_inurba_marseille","lat":43.2668,"lon":5.38282,"is_reserved":false,"is_disabled":false,"rental_uris":{"android":"levelo://app?vid=79a50c87-77f6-4170-bc3e-48fd603b4b62","ios":"levelo://app?vid=79a50c87-77f6-4170-bc3e-48fd603b4b62"},"vehicle_type_id":"4","last_reported":1738934139,"current_range_meters":39200,"station_id":"ce4bhg92rcd13ifvqf90","pricing_plan_id":"cebpf4jnsgd1na2vs0mg"},{"bike_id":"2e8b8b8f-8d2e-4352-b217-11fc949cd0f7","system_id":"levelo_inurba_marseille","lat":43.29787,"lon":5.37097,"is_reserved":false,"is_disabled":false,"rental_uris":{"android":"levelo://app?vid=2e8b8b8f-8d2e-4352-b217-11fc949cd0f7","ios":"levelo://app?vid=2e8b8b8f-8d2e-4352-b217-11fc949cd0f7"},"vehicle_type_id":"4","last_reported":1738934139,"current_range_meters":38000,"station_id":"ce4bgop2rcd13ifvqc1g","pricing_plan_id":"cebpf4jnsgd1na2vs0mg"},{"bike_id":"422d1ae9-3f23-4c23-952d-112dc4aaa449","system_id":"levelo_inurba_marseille","lat":43.30693,"lon":5.37033,"is_reserved":false,"is_disabled":false,"rental_uris":{"android":"levelo://app?vid=422d1ae9-3f23-4c23-952d-112dc4aaa449","ios":"levelo://app?vid=422d1ae9-3f23-4c23-952d-112dc4aaa449"},"vehicle_type_id":"4","last_reported":1738934139,"current_range_meters":8800,"station_id":"","pricing_plan_id":"cebpf4jnsgd1na2vs0mg"},{"bike_id":"73040312-c166-43ba-a41a-fb3b6a2beca6","system_id":"levelo_inurba_marseille","lat":43.26194,"lon":5.37456,"is_reserved":false,"is_disabled":false,"rental_uris":{"android":"levelo://app?vid=73040312-c166-43ba-a41a-fb3b6a2beca6","ios":"levelo://app?vid=73040312-c166-43ba-a41a-fb3b6a2beca6"},"vehicle_type_id":"4","last_reported":1738934139,"current_range_meters":28400,"station_id":"ce4bhgp2rcd13ifvqfc0","pricing_plan_id":"cebpf4jnsgd1na2vs0mg"},{"bike_id":"6eb290d5-bd65-4a1e-99b3-c4142f729da4","system_id":"levelo_inurba_marseille","lat":43.29849,"lon":5.36292,"is_reserved":false,"is_disabled":false,"rental_uris":{"android":"levelo://app?vid=6eb290d5-bd65-4a1e-99b3-c4142f729da4","ios":"levelo://app?vid=6eb290d5-bd65-4a1e-99b3-c4142f729da4"},"vehicle_type_id":"4","last_reported":1738934139,"current_range_meters":28000,"station_id":"ce4bgpp2rcd13ifvqc3g","pricing_plan_id":"cebpf4jnsgd1na2vs0mg"},{"bike_id":"984e66a9-958a-4ad4-8afe-42d9883f12f4","system_id":"levelo_inurba_marseille","lat":43.31705,"lon":5.37752,"is_reserved":false,"is_disabled":false,"rental_uris":{"android":"levelo://app?vid=984e66a9-958a-4ad4-8afe-42d9883f12f4","ios":"levelo://app?vid=984e66a9-958a-4ad4-8afe-42d9883f12f4"},"vehicle_type_id":"4","last_reported":1738934139,"current_range_meters":27600,"station_id":"ce4bgth2rcd13ifvqch0","pricing_plan_id":"cebpf4jnsgd1na2vs0mg"},{"bike_id":"098d220b-e449-43ea-8d6d-9fc78e0abad9","system_id":"levelo_inurba_marseille","lat":43.229284,"lon":5.353739,"is_reserved":false,"is_disabled":false,"rental_uris":{"android":"levelo://app?vid=098d220b-e449-43ea-8d6d-9fc78e0abad9","ios":"levelo://app?vid=098d220b-e449-43ea-8d6d-9fc78e0abad9"},"vehicle_type_id":"4","last_reported":1738934139,"current_range_meters":38800,"station_id":"cpo3532slgdg3j2ikp40","pricing_plan_id":"cebpf4jnsgd1na2vs0mg"},{"bike_id":"3de2a62f-ee8b-4633-8581-80f610f7d857","system_id":"levelo_inurba_marseille","lat":43.24543,"lon":5.39515,"is_reserved":false,"is_disabled":false,"rental_uris":{"android":"levelo://app?vid=3de2a62f-ee8b-4633-8581-80f610f7d857","ios":"levelo://app?vid=3de2a62f-ee8b-4633-8581-80f610f7d857"},"vehicle_type_id":"4","last_reported":1738934139,"current_range_meters":39200,"station_id":"ce4bhlp2rcd13ifvqgjg","pricing_plan_id":"cebpf4jnsgd1na2vs0mg"},{"bike_id":"25265f47-6177-48e9-b4ee-d5d5e25bf867","system_id":"levelo_inurba_marseille","lat":43.25702,"lon":5.41111,"is_reserved":false,"is_disabled":false,"rental_uris":{"android":"levelo://app?vid=25265f47-6177-48e9-b4ee-d5d5e25bf867","ios":"levelo://app?vid=25265f47-6177-48e9-b4ee-d5d5e25bf867"},"vehicle_type_id":"4","last_reported":1738934139,"current_range_meters":18000,"station_id":"ce4bhkp2rcd13ifvqgd0","pricing_plan_id":"cebpf4jnsgd1na2vs0mg"},{"bike_id":"22b0b693-27cf-48e1-b669-3eb9b0c63e20","system_id":"levelo_inurba_marseille","lat":43.28919,"lon":5.38391,"is_reserved":false,"is_disabled":false,"rental_uris":{"android":"levelo://app?vid=22b0b693-27cf-48e1-b669-3eb9b0c63e20","ios":"levelo://app?vid=22b0b693-27cf-48e1-b669-3eb9b0c63e20"},"vehicle_type_id":"4","last_reported":1738934139,"current_range_meters":32400,"station_id":"ce4bh612rcd13ifvqe6g","pricing_plan_id":"cebpf4jnsgd1na2vs0mg"},{"bike_id":"8134c42b-15c7-43df-91b1-9cea8c89299b","system_id":"levelo_inurba_marseille","lat":43.25896,"lon":5.39909,"is_reserved":false,"is_disabled":false,"rental_uris":{"android":"levelo://app?vid=8134c42b-15c7-43df-91b1-9cea8c89299b","ios":"levelo://app?vid=8134c42b-15c7-43df-91b1-9cea8c89299b"},"vehicle_type_id":"4","last_reported":1738934139,"current_range_meters":28800,"station_id":"ce4bhl92rcd13ifvqghg","pricing_plan_id":"cebpf4jnsgd1na2vs0mg"},{"bike_id":"109d8d07-d605-45c4-912d-3e7b38f9a9ae","system_id":"levelo_inurba_marseille","lat":43.24157,"lon":5.36406,"is_reserved":false,"is_disabled":false,"rental_uris":{"android":"levelo://app?vid=109d8d07-d605-45c4-912d-3e7b38f9a9ae","ios":"levelo://app?vid=109d8d07-d605-45c4-912d-3e7b38f9a9ae"},"vehicle_type_id":"4","last_reported":1738934139,"current_range_meters":18800,"station_id":"cpo36qri1sfpv3e86is0","pricing_plan_id":"cebpf4jnsgd1na2vs0mg"},{"bike_id":"5c457565-60fc-4e27-812e-df45dddff2cc","system_id":"levelo_inurba_marseille","lat":43.30251,"lon":5.40067,"is_reserved":false,"is_disabled":false,"rental_uris":{"android":"levelo://app?vid=5c457565-60fc-4e27-812e-df45dddff2cc","ios":"levelo://app?vid=5c457565-60fc-4e27-812e-df45dddff2cc"},"vehicle_type_id":"4","last_reported":1738934139,"current_range_meters":9600,"station_id":"ce4bgvh2rcd13ifvqcs0","pricing_plan_id":"cebpf4jnsgd1na2vs0mg"},{"bike_id":"2ebd233c-fd15-4f13-9700-c155c053523f","system_id":"levelo_inurba_marseille","lat":43.25917,"lon":5.40865,"is_reserved":false,"is_disabled":true,"rental_uris":{"android":"levelo://app?vid=2ebd233c-fd15-4f13-9700-c155c053523f","ios":"levelo://app?vid=2ebd233c-fd15-4f13-9700-c155c053523f"},"vehicle_type_id":"4","last_reported":1738934139,"current_range_meters":28000,"station_id":"ce4bhm92rcd13ifvqglg","pricing_plan_id":"cebpf4jnsgd1na2vs0mg"},{"bike_id":"af40deb1-f640-4b70-95d2-0b44fe79a0b8","system_id":"levelo_inurba_marseille","lat":43.26961,"lon":5.40246,"is_reserved":false,"is_disabled":false,"rental_uris":{"android":"levelo://app?vid=af40deb1-f640-4b70-95d2-0b44fe79a0b8","ios":"levelo://app?vid=af40deb1-f640-4b70-95d2-0b44fe79a0b8"},"vehicle_type_id":"4","last_reported":1738934139,"current_range_meters":21600,"station_id":"cjm6bp8fraef2m0cb0m0","pricing_plan_id":"cebpf4jnsgd1na2vs0mg"},{"bike_id":"21b12264-f29d-4fca-845a-96ca913cc1a6","system_id":"levelo_inurba_marseille","lat":43.296,"lon":5.3674,"is_reserved":false,"is_disabled":false,"rental_uris":{"android":"levelo://app?vid=21b12264-f29d-4fca-845a-96ca913cc1a6","ios":"levelo://app?vid=21b12264-f29d-4fca-845a-96ca913cc1a6"},"vehicle_type_id":"4","last_reported":1738934139,"current_range_meters":39200,"station_id":"ce4bgph2rcd13ifvqc2g","pricing_plan_id":"cebpf4jnsgd1na2vs0mg"},{"bike_id":"6850b23e-5e80-4fd6-856a-27e743c90765","system_id":"levelo_inurba_marseille","lat":43.29848,"lon":5.36265,"is_reserved":false,"is_disabled":false,"rental_uris":{"android":"levelo://app?vid=6850b23e-5e80-4fd6-856a-27e743c90765","ios":"levelo://app?vid=6850b23e-5e80-4fd6-856a-27e743c90765"},"vehicle_type_id":"4","last_reported":1738934139,"current_range_meters":37600,"station_id":"ce4bgpp2rcd13ifvqc3g","pricing_plan_id":"cebpf4jnsgd1na2vs0mg"},{"bike_id":"05c75208-2197-4fd8-a457-da688530044e","system_id":"levelo_inurba_marseille","lat":43.30589,"lon":5.39338,"is_reserved":false,"is_disabled":false,"rental_uris":{"android":"levelo://app?vid=05c75208-2197-4fd8-a457-da688530044e","ios":"levelo://app?vid=05c75208-2197-4fd8-a457-da688530044e"},"vehicle_type_id":"4","last_reported":1738934139,"current_range_meters":15200,"station_id":"ce4bh0p2rcd13ifvqd80","pricing_plan_id":"cebpf4jnsgd1na2vs0mg"},{"bike_id":"3078e8ce-5d59-4082-8b1a-8d753b4f6935","system_id":"levelo_inurba_marseille","lat":43.232,"lon":5.39975,"is_reserved":false,"is_disabled":false,"rental_uris":{"android":"levelo://app?vid=3078e8ce-5d59-4082-8b1a-8d753b4f6935","ios":"levelo://app?vid=3078e8ce-5d59-4082-8b1a-8d753b4f6935"},"vehicle_type_id":"4","last_reported":1738934139,"current_range_meters":38800,"station_id":"ce4bhn12rcd13ifvqgqg","pricing_plan_id":"cebpf4jnsgd1na2vs0mg"},{"bike_id":"d22588f6-fad1-499a-b286-a97cf6b7bb36","system_id":"levelo_inurba_marseille","lat":43.24687,"lon":5.38161,"is_reserved":false,"is_disabled":false,"rental_uris":{"android":"levelo://app?vid=d22588f6-fad1-499a-b286-a97cf6b7bb36","ios":"levelo://app?vid=d22588f6-fad1-499a-b286-a97cf6b7bb36"},"vehicle_type_id":"4","last_reported":1738934139,"current_range_meters":25200,"station_id":"ce4bhih2rcd13ifvqfr0","pricing_plan_id":"cebpf4jnsgd1na2vs0mg"},{"bike_id":"d63dd219-1986-4b43-9904-d72ec9015c63","system_id":"levelo_inurba_marseille","lat":43.29843,"lon":5.36261,"is_reserved":false,"is_disabled":false,"rental_uris":{"android":"levelo://app?vid=d63dd219-1986-4b43-9904-d72ec9015c63","ios":"levelo://app?vid=d63dd219-1986-4b43-9904-d72ec9015c63"},"vehicle_type_id":"4","last_reported":1738934139,"current_range_meters":11200,"station_id":"ce4bgpp2rcd13ifvqc3g","pricing_plan_id":"cebpf4jnsgd1na2vs0mg"},{"bike_id":"5e9bcc01-b6dd-42e4-a066-d7d915379c07","system_id":"levelo_inurba_marseille","lat":43.30305,"lon":5.36894,"is_reserved":false,"is_disabled":false,"rental_uris":{"android":"levelo://app?vid=5e9bcc01-b6dd-42e4-a066-d7d915379c07","ios":"levelo://app?vid=5e9bcc01-b6dd-42e4-a066-d7d915379c07"},"vehicle_type_id":"4","last_reported":1738934139,"current_range_meters":38800,"station_id":"ce4bgqh2rcd13ifvqc5g","pricing_plan_id":"cebpf4jnsgd1na2vs0mg"},{"bike_id":"c09a920b-6432-4a3c-b5f9-2f684c3d103d","system_id":"levelo_inurba_marseille","lat":43.296,"lon":5.38094,"is_reserved":false,"is_disabled":false,"rental_uris":{"android":"levelo://app?vid=c09a920b-6432-4a3c-b5f9-2f684c3d103d","ios":"levelo://app?vid=c09a920b-6432-4a3c-b5f9-2f684c3d103d"},"vehicle_type_id":"4","last_reported":1738934139,"current_range_meters":34800,"station_id":"ce4bgl12rcd13ifvqbo0","pricing_plan_id":"cebpf4jnsgd1na2vs0mg"},{"bike_id":"58f87245-3a0c-48cb-a650-9924849f182d","system_id":"levelo_inurba_marseille","lat":43.29278,"lon":5.36843,"is_reserved":false,"is_disabled":false,"rental_uris":{"android":"levelo://app?vid=58f87245-3a0c-48cb-a650-9924849f182d","ios":"levelo://app?vid=58f87245-3a0c-48cb-a650-9924849f182d"},"vehicle_type_id":"4","last_reported":1738934139,"current_range_meters":38400,"station_id":"ce4bhbp2rcd13ifvqesg","pricing_plan_id":"cebpf4jnsgd1na2vs0mg"},{"bike_id":"846128a2-c79d-4f22-8b7e-bd8125590138","system_id":"levelo_inurba_marseille","lat":43.30151,"lon":5.37426,"is_reserved":false,"is_disabled":false,"rental_uris":{"android":"levelo://app?vid=846128a2-c79d-4f22-8b7e-bd8125590138","ios":"levelo://app?vid=846128a2-c79d-4f22-8b7e-bd8125590138"},"vehicle_type_id":"4","last_reported":1738934139,"current_range_meters":27200,"station_id":"ce4bgs92rcd13ifvqcc0","pricing_plan_id":"cebpf4jnsgd1na2vs0mg"},{"bike_id":"89912e32-c5f0-448f-82d2-e236e4d6d653","system_id":"levelo_inurba_marseille","lat":43.27794,"lon":5.39876,"is_reserved":false,"is_disabled":true,"rental_uris":{"android":"levelo://app?vid=89912e32-c5f0-448f-82d2-e236e4d6d653","ios":"levelo://app?vid=89912e32-c5f0-448f-82d2-e236e4d6d653"},"vehicle_type_id":"4","last_reported":1738934139,"current_range_meters":4800,"station_id":"","pricing_plan_id":"cebpf4jnsgd1na2vs0mg"},{"bike_id":"a80cc501-6091-457a-842f-9c5759e0bddd","system_id":"levelo_inurba_marseille","lat":43.27969,"lon":5.41039,"is_reserved":false,"is_disabled":false,"rental_uris":{"android":"levelo://app?vid=a80cc501-6091-457a-842f-9c5759e0bddd","ios":"levelo://app?vid=a80cc501-6091-457a-842f-9c5759e0bddd"},"vehicle_type_id":"4","last_reported":1738934139,"current_range_meters":35600,"station_id":"ce4bhnp2rcd13ifvqh0g","pricing_plan_id":"cebpf4jnsgd1na2vs0mg"},{"bike_id":"002db939-6173-4d3f-867b-5d61ac7450c1","system_id":"levelo_inurba_marseille","lat":43.26914,"lon":5.40239,"is_reserved":false,"is_disabled":false,"rental_uris":{"android":"levelo://app?vid=002db939-6173-4d3f-867b-5d61ac7450c1","ios":"levelo://app?vid=002db939-6173-4d3f-867b-5d61ac7450c1"},"vehicle_type_id":"4","last_reported":1738934139,"current_range_meters":13600,"station_id":"cjm6bp8fraef2m0cb0m0","pricing_plan_id":"cebpf4jnsgd1na2vs0mg"},{"bike_id":"68585662-bc38-4b59-8a24-50635d3c8f22","system_id":"levelo_inurba_marseille","lat":43.3361,"lon":5.41006,"is_reserved":false,"is_disabled":false,"rental_uris":{"android":"levelo://app?vid=68585662-bc38-4b59-8a24-50635d3c8f22","ios":"levelo://app?vid=68585662-bc38-4b59-8a24-50635d3c8f22"},"vehicle_type_id":"4","last_reported":1738934139,"current_range_meters":35600,"station_id":"ce4bhqh2rcd13ifvqhmg","pricing_plan_id":"cebpf4jnsgd1na2vs0mg"},{"bike_id":"23143502-ceee-44da-89f0-72f6c6ad3c2a","system_id":"levelo_inurba_marseille","lat":43.26698,"lon":5.38254,"is_reserved":false,"is_disabled":false,"rental_uris":{"android":"levelo://app?vid=23143502-ceee-44da-89f0-72f6c6ad3c2a","ios":"levelo://app?vid=23143502-ceee-44da-89f0-72f6c6ad3c2a"},"vehicle_type_id":"4","last_reported":1738934139,"current_range_meters":21600,"station_id":"ce4bhg92rcd13ifvqf90","pricing_plan_id":"cebpf4jnsgd1na2vs0mg"},{"bike_id":"fb5a704f-a51b-458c-a6e9-f5586a789b94","system_id":"levelo_inurba_marseille","lat":43.24173,"lon":5.36403,"is_reserved":false,"is_disabled":false,"rental_uris":{"android":"levelo://app?vid=fb5a704f-a51b-458c-a6e9-f5586a789b94","ios":"levelo://app?vid=fb5a704f-a51b-458c-a6e9-f5586a789b94"},"vehicle_type_id":"4","last_reported":1738934139,"current_range_meters":6000,"station_id":"cpo36qri1sfpv3e86is0","pricing_plan_id":"cebpf4jnsgd1na2vs0mg"},{"bike_id":"3982593f-4426-4d01-aa48-c9a5c2a038f7","system_id":"levelo_inurba_marseille","lat":43.2514,"lon":5.40339,"is_reserved":false,"is_disabled":false,"rental_uris":{"android":"levelo://app?vid=3982593f-4426-4d01-aa48-c9a5c2a038f7","ios":"levelo://app?vid=3982593f-4426-4d01-aa48-c9a5c2a038f7"},"vehicle_type_id":"4","last_reported":1738934139,"current_range_meters":36800,"station_id":"ce4bhlh2rcd13ifvqgig","pricing_plan_id":"cebpf4jnsgd1na2vs0mg"},{"bike_id":"ec7a488e-88fb-4c3b-962e-9a3ae9b28554","system_id":"levelo_inurba_marseille","lat":43.2848,"lon":5.38567,"is_reserved":false,"is_disabled":false,"rental_uris":{"android":"levelo://app?vid=ec7a488e-88fb-4c3b-962e-9a3ae9b28554","ios":"levelo://app?vid=ec7a488e-88fb-4c3b-962e-9a3ae9b28554"},"vehicle_type_id":"4","last_reported":1738934139,"current_range_meters":19200,"station_id":"ce4bh8p2rcd13ifvqeb0","pricing_plan_id":"cebpf4jnsgd1na2vs0mg"},{"bike_id":"b73937ba-05e4-41c7-8959-6f24613e2797","system_id":"levelo_inurba_marseille","lat":43.229296,"lon":5.35381,"is_reserved":false,"is_disabled":false,"rental_uris":{"android":"levelo://app?vid=b73937ba-05e4-41c7-8959-6f24613e2797","ios":"levelo://app?vid=b73937ba-05e4-41c7-8959-6f24613e2797"},"vehicle_type_id":"4","last_reported":1738934139,"current_range_meters":33600,"station_id":"cpo3532slgdg3j2ikp40","pricing_plan_id":"cebpf4jnsgd1na2vs0mg"},{"bike_id":"57d2f359-aa56-45f0-bd2e-b5ed21f9da83","system_id":"levelo_inurba_marseille","lat":43.30316,"lon":5.369,"is_reserved":false,"is_disabled":false,"rental_uris":{"android":"levelo://app?vid=57d2f359-aa56-45f0-bd2e-b5ed21f9da83","ios":"levelo://app?vid=57d2f359-aa56-45f0-bd2e-b5ed21f9da83"},"vehicle_type_id":"4","last_reported":1738934139,"current_range_meters":17200,"station_id":"ce4bgqh2rcd13ifvqc5g","pricing_plan_id":"cebpf4jnsgd1na2vs0mg"},{"bike_id":"9dbc66af-ff64-41a8-a57c-5ef86f5cb77a","system_id":"levelo_inurba_marseille","lat":43.26813,"lon":5.4027,"is_reserved":false,"is_disabled":false,"rental_uris":{"android":"levelo://app?vid=9dbc66af-ff64-41a8-a57c-5ef86f5cb77a","ios":"levelo://app?vid=9dbc66af-ff64-41a8-a57c-5ef86f5cb77a"},"vehicle_type_id":"4","last_reported":1738934139,"current_range_meters":38000,"station_id":"ce501612rcd8frsf0b60","pricing_plan_id":"cebpf4jnsgd1na2vs0mg"},{"bike_id":"ab54e2d0-4c2c-486a-84c7-811ed9008ddc","system_id":"levelo_inurba_marseille","lat":43.278572,"lon":5.425466,"is_reserved":false,"is_disabled":true,"rental_uris":{"android":"levelo://app?vid=ab54e2d0-4c2c-486a-84c7-811ed9008ddc","ios":"levelo://app?vid=ab54e2d0-4c2c-486a-84c7-811ed9008ddc"},"vehicle_type_id":"4","last_reported":1738934139,"current_range_meters":0,"station_id":"","pricing_plan_id":"cebpf4jnsgd1na2vs0mg"},{"bike_id":"f1e9399a-c62d-4210-bc5f-f431eced8b39","system_id":"levelo_inurba_marseille","lat":43.32361,"lon":5.36755,"is_reserved":false,"is_disabled":false,"rental_uris":{"android":"levelo://app?vid=f1e9399a-c62d-4210-bc5f-f431eced8b39","ios":"levelo://app?vid=f1e9399a-c62d-4210-bc5f-f431eced8b39"},"vehicle_type_id":"4","last_reported":1738934139,"current_range_meters":38800,"station_id":"ce4bhsh2rcd13ifvqi2g","pricing_plan_id":"cebpf4jnsgd1na2vs0mg"},{"bike_id":"8d9b32d0-6fc2-407f-a7b0-c0db6379a2e3","system_id":"levelo_inurba_marseille","lat":43.30923,"lon":5.36855,"is_reserved":false,"is_disabled":false,"rental_uris":{"android":"levelo://app?vid=8d9b32d0-6fc2-407f-a7b0-c0db6379a2e3","ios":"levelo://app?vid=8d9b32d0-6fc2-407f-a7b0-c0db6379a2e3"},"vehicle_type_id":"4","last_reported":1738934139,"current_range_meters":28400,"station_id":"ce4bgn92rcd13ifvqbvg","pricing_plan_id":"cebpf4jnsgd1na2vs0mg"},{"bike_id":"85423e3e-4144-454b-a03d-159c22f85bad","system_id":"levelo_inurba_marseille","lat":43.30148,"lon":5.37427,"is_reserved":false,"is_disabled":false,"rental_uris":{"android":"levelo://app?vid=85423e3e-4144-454b-a03d-159c22f85bad","ios":"levelo://app?vid=85423e3e-4144-454b-a03d-159c22f85bad"},"vehicle_type_id":"4","last_reported":1738934139,"current_range_meters":18800,"station_id":"ce4bgs92rcd13ifvqcc0","pricing_plan_id":"cebpf4jnsgd1na2vs0mg"},{"bike_id":"394d6746-72e1-44bf-adc8-ae0b03234f85","system_id":"levelo_inurba_marseille","lat":43.29528,"lon":5.38535,"is_reserved":false,"is_disabled":false,"rental_uris":{"android":"levelo://app?vid=394d6746-72e1-44bf-adc8-ae0b03234f85","ios":"levelo://app?vid=394d6746-72e1-44bf-adc8-ae0b03234f85"},"vehicle_type_id":"4","last_reported":1738934139,"current_range_meters":27200,"station_id":"ce4bgih2rcd13ifvqba0","pricing_plan_id":"cebpf4jnsgd1na2vs0mg"},{"bike_id":"56e7f5f1-2770-4107-8a2c-87a8a5a3d58d","system_id":"levelo_inurba_marseille","lat":43.28981,"lon":5.37848,"is_reserved":false,"is_disabled":false,"rental_uris":{"android":"levelo://app?vid=56e7f5f1-2770-4107-8a2c-87a8a5a3d58d","ios":"levelo://app?vid=56e7f5f1-2770-4107-8a2c-87a8a5a3d58d"},"vehicle_type_id":"4","last_reported":1738934139,"current_range_meters":36400,"station_id":"ce4bh9p2rcd13ifvqed0","pricing_plan_id":"cebpf4jnsgd1na2vs0mg"},{"bike_id":"bb1bab95-412e-41ba-879a-c483b6ec0924","system_id":"levelo_inurba_marseille","lat":43.27819,"lon":5.40712,"is_reserved":false,"is_disabled":false,"rental_uris":{"android":"levelo://app?vid=bb1bab95-412e-41ba-879a-c483b6ec0924","ios":"levelo://app?vid=bb1bab95-412e-41ba-879a-c483b6ec0924"},"vehicle_type_id":"4","last_reported":1738934139,"current_range_meters":18000,"station_id":"ce4bhnh2rcd13ifvqgtg","pricing_plan_id":"cebpf4jnsgd1na2vs0mg"},{"bike_id":"572fb6a9-f5e9-4074-83ed-960de5625329","system_id":"levelo_inurba_marseille","lat":43.29306,"lon":5.40208,"is_reserved":false,"is_disabled":false,"rental_uris":{"android":"levelo://app?vid=572fb6a9-f5e9-4074-83ed-960de5625329","ios":"levelo://app?vid=572fb6a9-f5e9-4074-83ed-960de5625329"},"vehicle_type_id":"4","last_reported":1738934139,"current_range_meters":35600,"station_id":"ce4bh312rcd13ifvqdk0","pricing_plan_id":"cebpf4jnsgd1na2vs0mg"},{"bike_id":"363f89dc-7a31-4716-bf7c-5e8b960f961f","system_id":"levelo_inurba_marseille","lat":43.31075,"lon":5.42413,"is_reserved":false,"is_disabled":false,"rental_uris":{"android":"levelo://app?vid=363f89dc-7a31-4716-bf7c-5e8b960f961f","ios":"levelo://app?vid=363f89dc-7a31-4716-bf7c-5e8b960f961f"},"vehicle_type_id":"4","last_reported":1738934139,"current_range_meters":38800,"station_id":"ce4bhp92rcd13ifvqhag","pricing_plan_id":"cebpf4jnsgd1na2vs0mg"},{"bike_id":"cf1ec810-f7ec-419a-8ceb-08d76d0efda3","system_id":"levelo_inurba_marseille","lat":43.26555,"lon":5.37281,"is_reserved":false,"is_disabled":false,"rental_uris":{"android":"levelo://app?vid=cf1ec810-f7ec-419a-8ceb-08d76d0efda3","ios":"levelo://app?vid=cf1ec810-f7ec-419a-8ceb-08d76d0efda3"},"vehicle_type_id":"4","last_reported":1738934139,"current_range_meters":24000,"station_id":"ce4bhg12rcd13ifvqf70","pricing_plan_id":"cebpf4jnsgd1na2vs0mg"},{"bike_id":"3b5a67f4-14ab-4c02-8383-a4628630738c","system_id":"levelo_inurba_marseille","lat":43.27067,"lon":5.40248,"is_reserved":false,"is_disabled":false,"rental_uris":{"android":"levelo://app?vid=3b5a67f4-14ab-4c02-8383-a4628630738c","ios":"levelo://app?vid=3b5a67f4-14ab-4c02-8383-a4628630738c"},"vehicle_type_id":"4","last_reported":1738934139,"current_range_meters":38800,"station_id":"ce4bhk92rcd13ifvqgc0","pricing_plan_id":"cebpf4jnsgd1na2vs0mg"},{"bike_id":"0432209c-c852-45fa-b0a4-ab9de0f14c66","system_id":"levelo_inurba_marseille","lat":43.29703,"lon":5.37702,"is_reserved":false,"is_disabled":false,"rental_uris":{"android":"levelo://app?vid=0432209c-c852-45fa-b0a4-ab9de0f14c66","ios":"levelo://app?vid=0432209c-c852-45fa-b0a4-ab9de0f14c66"},"vehicle_type_id":"4","last_reported":1738934139,"current_range_meters":28800,"station_id":"ce4bgkh2rcd13ifvqbl0","pricing_plan_id":"cebpf4jnsgd1na2vs0mg"},{"bike_id":"b8829ab2-1487-4b8c-ae59-08c14afad745","system_id":"levelo_inurba_marseille","lat":43.32364,"lon":5.388807,"is_reserved":false,"is_disabled":false,"rental_uris":{"android":"levelo://app?vid=b8829ab2-1487-4b8c-ae59-08c14afad745","ios":"levelo://app?vid=b8829ab2-1487-4b8c-ae59-08c14afad745"},"vehicle_type_id":"4","last_reported":1738934139,"current_range_meters":19600,"station_id":"ce4bhqp2rcd13ifvqhog","pricing_plan_id":"cebpf4jnsgd1na2vs0mg"},{"bike_id":"43ada2b3-aab7-4567-9136-02a5606866ad","system_id":"levelo_inurba_marseille","lat":43.23181,"lon":5.3999,"is_reserved":false,"is_disabled":false,"rental_uris":{"android":"levelo://app?vid=43ada2b3-aab7-4567-9136-02a5606866ad","ios":"levelo://app?vid=43ada2b3-aab7-4567-9136-02a5606866ad"},"vehicle_type_id":"4","last_reported":1738934139,"current_range_meters":8400,"station_id":"ce4bhn12rcd13ifvqgqg","pricing_plan_id":"cebpf4jnsgd1na2vs0mg"},{"bike_id":"99edfd39-ea2c-4152-9a67-579e3aa4a733","system_id":"levelo_inurba_marseille","lat":43.23967,"lon":5.36634,"is_reserved":false,"is_disabled":false,"rental_uris":{"android":"levelo://app?vid=99edfd39-ea2c-4152-9a67-579e3aa4a733","ios":"levelo://app?vid=99edfd39-ea2c-4152-9a67-579e3aa4a733"},"vehicle_type_id":"4","last_reported":1738934139,"current_range_meters":38000,"station_id":"ce4bhi12rcd13ifvqfp0","pricing_plan_id":"cebpf4jnsgd1na2vs0mg"},{"bike_id":"0ea221ea-31ac-4446-85b6-71a4c94a4dd9","system_id":"levelo_inurba_marseille","lat":43.29845,"lon":5.36261,"is_reserved":false,"is_disabled":false,"rental_uris":{"android":"levelo://app?vid=0ea221ea-31ac-4446-85b6-71a4c94a4dd9","ios":"levelo://app?vid=0ea221ea-31ac-4446-85b6-71a4c94a4dd9"},"vehicle_type_id":"4","last_reported":1738934139,"current_range_meters":38800,"station_id":"ce4bgpp2rcd13ifvqc3g","pricing_plan_id":"cebpf4jnsgd1na2vs0mg"},{"bike_id":"89bad4de-9283-43de-abb5-342633ba3f91","system_id":"levelo_inurba_marseille","lat":43.32486,"lon":5.3657,"is_reserved":false,"is_disabled":false,"rental_uris":{"android":"levelo://app?vid=89bad4de-9283-43de-abb5-342633ba3f91","ios":"levelo://app?vid=89bad4de-9283-43de-abb5-342633ba3f91"},"vehicle_type_id":"4","last_reported":1738934139,"current_range_meters":26800,"station_id":"ce4bhs12rcd13ifvqhvg","pricing_plan_id":"cebpf4jnsgd1na2vs0mg"},{"bike_id":"4632dd20-fd44-4672-8864-e9adeb156ac4","system_id":"levelo_inurba_marseille","lat":43.30551,"lon":5.38425,"is_reserved":false,"is_disabled":false,"rental_uris":{"android":"levelo://app?vid=4632dd20-fd44-4672-8864-e9adeb156ac4","ios":"levelo://app?vid=4632dd20-fd44-4672-8864-e9adeb156ac4"},"vehicle_type_id":"4","last_reported":1738934139,"current_range_meters":38400,"station_id":"ce4bgg92rcd13ifvqb30","pricing_plan_id":"cebpf4jnsgd1na2vs0mg"},{"bike_id":"076a1d2d-0a53-4470-b46e-644cdd13615c","system_id":"levelo_inurba_marseille","lat":43.30538,"lon":5.3653,"is_reserved":false,"is_disabled":false,"rental_uris":{"android":"levelo://app?vid=076a1d2d-0a53-4470-b46e-644cdd13615c","ios":"levelo://app?vid=076a1d2d-0a53-4470-b46e-644cdd13615c"},"vehicle_type_id":"4","last_reported":1738934139,"current_range_meters":38400,"station_id":"ce4bgs12rcd13ifvqcag","pricing_plan_id":"cebpf4jnsgd1na2vs0mg"},{"bike_id":"c486c875-741f-4194-b377-e3bb636456e0","system_id":"levelo_inurba_marseille","lat":43.29608,"lon":5.38105,"is_reserved":false,"is_disabled":false,"rental_uris":{"android":"levelo://app?vid=c486c875-741f-4194-b377-e3bb636456e0","ios":"levelo://app?vid=c486c875-741f-4194-b377-e3bb636456e0"},"vehicle_type_id":"4","last_reported":1738934139,"current_range_meters":24800,"station_id":"ce4bgl12rcd13ifvqbo0","pricing_plan_id":"cebpf4jnsgd1na2vs0mg"},{"bike_id":"4ccd7a71-f983-472a-bdc7-c6e21e34264c","system_id":"levelo_inurba_marseille","lat":43.29369,"lon":5.37849,"is_reserved":false,"is_disabled":false,"rental_uris":{"android":"levelo://app?vid=4ccd7a71-f983-472a-bdc7-c6e21e34264c","ios":"levelo://app?vid=4ccd7a71-f983-472a-bdc7-c6e21e34264c"},"vehicle_type_id":"4","last_reported":1738934139,"current_range_meters":38800,"station_id":"ce4bgjh2rcd13ifvqbf0","pricing_plan_id":"cebpf4jnsgd1na2vs0mg"},{"bike_id":"605f0b3e-bad4-4f54-99e0-21b7b0fcbd83","system_id":"levelo_inurba_marseille","lat":43.29197,"lon":5.35812,"is_reserved":false,"is_disabled":false,"rental_uris":{"android":"levelo://app?vid=605f0b3e-bad4-4f54-99e0-21b7b0fcbd83","ios":"levelo://app?vid=605f0b3e-bad4-4f54-99e0-21b7b0fcbd83"},"vehicle_type_id":"4","last_reported":1738934139,"current_range_meters":20000,"station_id":"ce4bhb12rcd13ifvqel0","pricing_plan_id":"cebpf4jnsgd1na2vs0mg"},{"bike_id":"aabe1f0b-89a1-4652-9d45-ac5bc92d0c24","system_id":"levelo_inurba_marseille","lat":43.3018,"lon":5.37429,"is_reserved":false,"is_disabled":false,"rental_uris":{"android":"levelo://app?vid=aabe1f0b-89a1-4652-9d45-ac5bc92d0c24","ios":"levelo://app?vid=aabe1f0b-89a1-4652-9d45-ac5bc92d0c24"},"vehicle_type_id":"4","last_reported":1738934139,"current_range_meters":9200,"station_id":"ce4bgs92rcd13ifvqcc0","pricing_plan_id":"cebpf4jnsgd1na2vs0mg"},{"bike_id":"e433e074-e11b-43d4-9613-a601b65f8b04","system_id":"levelo_inurba_marseille","lat":43.30939,"lon":5.36822,"is_reserved":false,"is_disabled":false,"rental_uris":{"android":"levelo://app?vid=e433e074-e11b-43d4-9613-a601b65f8b04","ios":"levelo://app?vid=e433e074-e11b-43d4-9613-a601b65f8b04"},"vehicle_type_id":"4","last_reported":1738934139,"current_range_meters":38400,"station_id":"ce4bgn92rcd13ifvqbvg","pricing_plan_id":"cebpf4jnsgd1na2vs0mg"},{"bike_id":"6b3f44e1-edb0-4c69-8d13-421c1abb9caa","system_id":"levelo_inurba_marseille","lat":43.28345,"lon":5.38101,"is_reserved":false,"is_disabled":false,"rental_uris":{"android":"levelo://app?vid=6b3f44e1-edb0-4c69-8d13-421c1abb9caa","ios":"levelo://app?vid=6b3f44e1-edb0-4c69-8d13-421c1abb9caa"},"vehicle_type_id":"4","last_reported":1738934139,"current_range_meters":19600,"station_id":"ce4bh412rcd13ifvqdr0","pricing_plan_id":"cebpf4jnsgd1na2vs0mg"},{"bike_id":"7e33b631-2c72-4ce9-95d9-ad17f00376cb","system_id":"levelo_inurba_marseille","lat":43.30545,"lon":5.36707,"is_reserved":false,"is_disabled":false,"rental_uris":{"android":"levelo://app?vid=7e33b631-2c72-4ce9-95d9-ad17f00376cb","ios":"levelo://app?vid=7e33b631-2c72-4ce9-95d9-ad17f00376cb"},"vehicle_type_id":"4","last_reported":1738934139,"current_range_meters":38800,"station_id":"ce4bgrp2rcd13ifvqc9g","pricing_plan_id":"cebpf4jnsgd1na2vs0mg"},{"bike_id":"db322422-c517-446e-a70d-da6e38f4bd2f","system_id":"levelo_inurba_marseille","lat":43.24184,"lon":5.39723,"is_reserved":false,"is_disabled":false,"rental_uris":{"android":"levelo://app?vid=db322422-c517-446e-a70d-da6e38f4bd2f","ios":"levelo://app?vid=db322422-c517-446e-a70d-da6e38f4bd2f"},"vehicle_type_id":"4","last_reported":1738934139,"current_range_meters":31200,"station_id":"ce4bhn12rcd13ifvqgpg","pricing_plan_id":"cebpf4jnsgd1na2vs0mg"},{"bike_id":"9412a773-785e-4660-b6b6-dbced4a36474","system_id":"levelo_inurba_marseille","lat":43.27842,"lon":5.39211,"is_reserved":false,"is_disabled":true,"rental_uris":{"android":"levelo://app?vid=9412a773-785e-4660-b6b6-dbced4a36474","ios":"levelo://app?vid=9412a773-785e-4660-b6b6-dbced4a36474"},"vehicle_type_id":"4","last_reported":1738934139,"current_range_meters":2000,"station_id":"ce4bhjp2rcd13ifvqga0","pricing_plan_id":"cebpf4jnsgd1na2vs0mg"},{"bike_id":"f67b7531-6c63-4f46-a9d4-4fdf588facb0","system_id":"levelo_inurba_marseille","lat":43.27884,"lon":5.40598,"is_reserved":false,"is_disabled":true,"rental_uris":{"android":"levelo://app?vid=f67b7531-6c63-4f46-a9d4-4fdf588facb0","ios":"levelo://app?vid=f67b7531-6c63-4f46-a9d4-4fdf588facb0"},"vehicle_type_id":"4","last_reported":1738934139,"current_range_meters":0,"station_id":"","pricing_plan_id":"cebpf4jnsgd1na2vs0mg"},{"bike_id":"d9eff926-2d4a-417c-9178-221575c14456","system_id":"levelo_inurba_marseille","lat":43.23179,"lon":5.43706,"is_reserved":false,"is_disabled":false,"rental_uris":{"android":"levelo://app?vid=d9eff926-2d4a-417c-9178-221575c14456","ios":"levelo://app?vid=d9eff926-2d4a-417c-9178-221575c14456"},"vehicle_type_id":"4","last_reported":1738934139,"current_range_meters":38800,"station_id":"ce4bhmp2rcd13ifvqgog","pricing_plan_id":"cebpf4jnsgd1na2vs0mg"},{"bike_id":"ccc0d99a-4f06-4847-88ea-bfbf26a9a708","system_id":"levelo_inurba_marseille","lat":43.27371,"lon":5.36251,"is_reserved":false,"is_disabled":false,"rental_uris":{"android":"levelo://app?vid=ccc0d99a-4f06-4847-88ea-bfbf26a9a708","ios":"levelo://app?vid=ccc0d99a-4f06-4847-88ea-bfbf26a9a708"},"vehicle_type_id":"4","last_reported":1738934139,"current_range_meters":38800,"station_id":"ce4bhbh2rcd13ifvqeo0","pricing_plan_id":"cebpf4jnsgd1na2vs0mg"},{"bike_id":"7f35d6ee-4401-4dc1-b6fe-09fba0d72f0f","system_id":"levelo_inurba_marseille","lat":43.2705,"lon":5.40264,"is_reserved":false,"is_disabled":false,"rental_uris":{"android":"levelo://app?vid=7f35d6ee-4401-4dc1-b6fe-09fba0d72f0f","ios":"levelo://app?vid=7f35d6ee-4401-4dc1-b6fe-09fba0d72f0f"},"vehicle_type_id":"4","last_reported":1738934139,"current_range_meters":20000,"station_id":"ce4bhk92rcd13ifvqgc0","pricing_plan_id":"cebpf4jnsgd1na2vs0mg"},{"bike_id":"a1ff6a73-36b2-4a61-a88f-8f0cc16371c7","system_id":"levelo_inurba_marseille","lat":43.2623,"lon":5.40454,"is_reserved":false,"is_disabled":false,"rental_uris":{"android":"levelo://app?vid=a1ff6a73-36b2-4a61-a88f-8f0cc16371c7","ios":"levelo://app?vid=a1ff6a73-36b2-4a61-a88f-8f0cc16371c7"},"vehicle_type_id":"4","last_reported":1738934139,"current_range_meters":36800,"station_id":"ce4bhmh2rcd13ifvqgmg","pricing_plan_id":"cebpf4jnsgd1na2vs0mg"},{"bike_id":"8fceff41-4c91-47bb-bb12-25e588723705","system_id":"levelo_inurba_marseille","lat":43.28721,"lon":5.37919,"is_reserved":false,"is_disabled":false,"rental_uris":{"android":"levelo://app?vid=8fceff41-4c91-47bb-bb12-25e588723705","ios":"levelo://app?vid=8fceff41-4c91-47bb-bb12-25e588723705"},"vehicle_type_id":"4","last_reported":1738934139,"current_range_meters":4800,"station_id":"ce4bh9p2rcd13ifvqec0","pricing_plan_id":"cebpf4jnsgd1na2vs0mg"},{"bike_id":"530d3cae-aa9a-4844-8494-c6334be27ce7","system_id":"levelo_inurba_marseille","lat":43.24176,"lon":5.39733,"is_reserved":false,"is_disabled":false,"rental_uris":{"android":"levelo://app?vid=530d3cae-aa9a-4844-8494-c6334be27ce7","ios":"levelo://app?vid=530d3cae-aa9a-4844-8494-c6334be27ce7"},"vehicle_type_id":"4","last_reported":1738934139,"current_range_meters":38800,"station_id":"ce4bhn12rcd13ifvqgpg","pricing_plan_id":"cebpf4jnsgd1na2vs0mg"},{"bike_id":"55c531ba-cb99-413a-81f9-84f3b3d5979e","system_id":"levelo_inurba_marseille","lat":43.22926,"lon":5.35358,"is_reserved":false,"is_disabled":false,"rental_uris":{"android":"levelo://app?vid=55c531ba-cb99-413a-81f9-84f3b3d5979e","ios":"levelo://app?vid=55c531ba-cb99-413a-81f9-84f3b3d5979e"},"vehicle_type_id":"4","last_reported":1738934139,"current_range_meters":25200,"station_id":"cpo3532slgdg3j2ikp40","pricing_plan_id":"cebpf4jnsgd1na2vs0mg"},{"bike_id":"6a3ebbcf-ee39-47ea-b689-f3b066371aa9","system_id":"levelo_inurba_marseille","lat":43.29854,"lon":5.3628,"is_reserved":false,"is_disabled":false,"rental_uris":{"android":"levelo://app?vid=6a3ebbcf-ee39-47ea-b689-f3b066371aa9","ios":"levelo://app?vid=6a3ebbcf-ee39-47ea-b689-f3b066371aa9"},"vehicle_type_id":"4","last_reported":1738934139,"current_range_meters":37600,"station_id":"ce4bgpp2rcd13ifvqc3g","pricing_plan_id":"cebpf4jnsgd1na2vs0mg"},{"bike_id":"cb99860f-520c-4ef5-84d0-b1710f9a8e72","system_id":"levelo_inurba_marseille","lat":43.29006,"lon":5.35604,"is_reserved":false,"is_disabled":false,"rental_uris":{"android":"levelo://app?vid=cb99860f-520c-4ef5-84d0-b1710f9a8e72","ios":"levelo://app?vid=cb99860f-520c-4ef5-84d0-b1710f9a8e72"},"vehicle_type_id":"4","last_reported":1738934139,"current_range_meters":36000,"station_id":"ce4bhb92rcd13ifvqen0","pricing_plan_id":"cebpf4jnsgd1na2vs0mg"},{"bike_id":"3b6fc1a1-1e64-4698-a113-588a2563418f","system_id":"levelo_inurba_marseille","lat":43.28031,"lon":5.36963,"is_reserved":false,"is_disabled":false,"rental_uris":{"android":"levelo://app?vid=3b6fc1a1-1e64-4698-a113-588a2563418f","ios":"levelo://app?vid=3b6fc1a1-1e64-4698-a113-588a2563418f"},"vehicle_type_id":"4","last_reported":1738934139,"current_range_meters":38400,"station_id":"ce4bha12rcd13ifvqef0","pricing_plan_id":"cebpf4jnsgd1na2vs0mg"},{"bike_id":"42b00d6b-70d0-4750-bdd2-377deb18497e","system_id":"levelo_inurba_marseille","lat":43.22954,"lon":5.35394,"is_reserved":false,"is_disabled":false,"rental_uris":{"android":"levelo://app?vid=42b00d6b-70d0-4750-bdd2-377deb18497e","ios":"levelo://app?vid=42b00d6b-70d0-4750-bdd2-377deb18497e"},"vehicle_type_id":"4","last_reported":1738934139,"current_range_meters":28000,"station_id":"cpo3532slgdg3j2ikp40","pricing_plan_id":"cebpf4jnsgd1na2vs0mg"},{"bike_id":"e0dd7050-657b-435d-8e69-83dc339c6c06","system_id":"levelo_inurba_marseille","lat":43.28196,"lon":5.42655,"is_reserved":false,"is_disabled":false,"rental_uris":{"android":"levelo://app?vid=e0dd7050-657b-435d-8e69-83dc339c6c06","ios":"levelo://app?vid=e0dd7050-657b-435d-8e69-83dc339c6c06"},"vehicle_type_id":"4","last_reported":1738934139,"current_range_meters":24800,"station_id":"ce4bhnh2rcd13ifvqgug","pricing_plan_id":"cebpf4jnsgd1na2vs0mg"},{"bike_id":"a465558c-9667-40c8-ac29-5d172e3399c6","system_id":"levelo_inurba_marseille","lat":43.2582,"lon":5.3943,"is_reserved":false,"is_disabled":false,"rental_uris":{"android":"levelo://app?vid=a465558c-9667-40c8-ac29-5d172e3399c6","ios":"levelo://app?vid=a465558c-9667-40c8-ac29-5d172e3399c6"},"vehicle_type_id":"4","last_reported":1738934139,"current_range_meters":36000,"station_id":"ce4bhip2rcd13ifvqft0","pricing_plan_id":"cebpf4jnsgd1na2vs0mg"},{"bike_id":"f1bbac45-5b32-4b97-b4ef-d7ee065546b1","system_id":"levelo_inurba_marseille","lat":43.25997,"lon":5.37536,"is_reserved":false,"is_disabled":false,"rental_uris":{"android":"levelo://app?vid=f1bbac45-5b32-4b97-b4ef-d7ee065546b1","ios":"levelo://app?vid=f1bbac45-5b32-4b97-b4ef-d7ee065546b1"},"vehicle_type_id":"4","last_reported":1738934139,"current_range_meters":37600,"station_id":"ce4bhgh2rcd13ifvqfa0","pricing_plan_id":"cebpf4jnsgd1na2vs0mg"},{"bike_id":"5e11738a-b376-445e-9185-9c234fbfd4dd","system_id":"levelo_inurba_marseille","lat":43.26774,"lon":5.39419,"is_reserved":false,"is_disabled":false,"rental_uris":{"android":"levelo://app?vid=5e11738a-b376-445e-9185-9c234fbfd4dd","ios":"levelo://app?vid=5e11738a-b376-445e-9185-9c234fbfd4dd"},"vehicle_type_id":"4","last_reported":1738934139,"current_range_meters":32400,"station_id":"ce4bhh12rcd13ifvqfg0","pricing_plan_id":"cebpf4jnsgd1na2vs0mg"},{"bike_id":"5eb997aa-ba06-470a-b7fd-cd40e9642b35","system_id":"levelo_inurba_marseille","lat":43.26926,"lon":5.40249,"is_reserved":false,"is_disabled":false,"rental_uris":{"android":"levelo://app?vid=5eb997aa-ba06-470a-b7fd-cd40e9642b35","ios":"levelo://app?vid=5eb997aa-ba06-470a-b7fd-cd40e9642b35"},"vehicle_type_id":"4","last_reported":1738934139,"current_range_meters":38000,"station_id":"cjm6bp8fraef2m0cb0m0","pricing_plan_id":"cebpf4jnsgd1na2vs0mg"},{"bike_id":"9478679b-6f4a-448b-9fae-93335551ebaf","system_id":"levelo_inurba_marseille","lat":43.26686,"lon":5.38274,"is_reserved":false,"is_disabled":false,"rental_uris":{"android":"levelo://app?vid=9478679b-6f4a-448b-9fae-93335551ebaf","ios":"levelo://app?vid=9478679b-6f4a-448b-9fae-93335551ebaf"},"vehicle_type_id":"4","last_reported":1738934139,"current_range_meters":39200,"station_id":"ce4bhg92rcd13ifvqf90","pricing_plan_id":"cebpf4jnsgd1na2vs0mg"},{"bike_id":"ccc9bfce-9ce6-40df-9639-e8fedad107ba","system_id":"levelo_inurba_marseille","lat":43.27565,"lon":5.38416,"is_reserved":false,"is_disabled":false,"rental_uris":{"android":"levelo://app?vid=ccc9bfce-9ce6-40df-9639-e8fedad107ba","ios":"levelo://app?vid=ccc9bfce-9ce6-40df-9639-e8fedad107ba"},"vehicle_type_id":"4","last_reported":1738934139,"current_range_meters":19600,"station_id":"ce4bhh92rcd13ifvqfi0","pricing_plan_id":"cebpf4jnsgd1na2vs0mg"},{"bike_id":"c6fc4b4a-5347-4905-8d96-67ea4d004656","system_id":"levelo_inurba_marseille","lat":43.23199,"lon":5.35548,"is_reserved":false,"is_disabled":false,"rental_uris":{"android":"levelo://app?vid=c6fc4b4a-5347-4905-8d96-67ea4d004656","ios":"levelo://app?vid=c6fc4b4a-5347-4905-8d96-67ea4d004656"},"vehicle_type_id":"4","last_reported":1738934139,"current_range_meters":10800,"station_id":"ce4bhu92rcd13ifvqi70","pricing_plan_id":"cebpf4jnsgd1na2vs0mg"},{"bike_id":"1da8b17b-ad28-4780-a711-431647c244ed","system_id":"levelo_inurba_marseille","lat":43.23963,"lon":5.36638,"is_reserved":false,"is_disabled":false,"rental_uris":{"android":"levelo://app?vid=1da8b17b-ad28-4780-a711-431647c244ed","ios":"levelo://app?vid=1da8b17b-ad28-4780-a711-431647c244ed"},"vehicle_type_id":"4","last_reported":1738934139,"current_range_meters":28400,"station_id":"ce4bhi12rcd13ifvqfp0","pricing_plan_id":"cebpf4jnsgd1na2vs0mg"},{"bike_id":"526010b4-32d5-48f5-898a-d570c01e4de3","system_id":"levelo_inurba_marseille","lat":43.30605,"lon":5.39356,"is_reserved":false,"is_disabled":false,"rental_uris":{"android":"levelo://app?vid=526010b4-32d5-48f5-898a-d570c01e4de3","ios":"levelo://app?vid=526010b4-32d5-48f5-898a-d570c01e4de3"},"vehicle_type_id":"4","last_reported":1738934139,"current_range_meters":9200,"station_id":"ce4bh0p2rcd13ifvqd80","pricing_plan_id":"cebpf4jnsgd1na2vs0mg"},{"bike_id":"b2557e44-f517-4fd5-ad27-e5f8af6b2e67","system_id":"levelo_inurba_marseille","lat":43.24383,"lon":5.37064,"is_reserved":false,"is_disabled":false,"rental_uris":{"android":"levelo://app?vid=b2557e44-f517-4fd5-ad27-e5f8af6b2e67","ios":"levelo://app?vid=b2557e44-f517-4fd5-ad27-e5f8af6b2e67"},"vehicle_type_id":"4","last_reported":1738934139,"current_range_meters":38400,"station_id":"ce4bhhh2rcd13ifvqfk0","pricing_plan_id":"cebpf4jnsgd1na2vs0mg"},{"bike_id":"8d163ca7-a618-465f-837f-9518650af13c","system_id":"levelo_inurba_marseille","lat":43.2836,"lon":5.38098,"is_reserved":false,"is_disabled":false,"rental_uris":{"android":"levelo://app?vid=8d163ca7-a618-465f-837f-9518650af13c","ios":"levelo://app?vid=8d163ca7-a618-465f-837f-9518650af13c"},"vehicle_type_id":"4","last_reported":1738934139,"current_range_meters":38000,"station_id":"ce4bh412rcd13ifvqdr0","pricing_plan_id":"cebpf4jnsgd1na2vs0mg"},{"bike_id":"d32646a2-a245-4773-a94b-5f319b6425fa","system_id":"levelo_inurba_marseille","lat":43.2994,"lon":5.38157,"is_reserved":false,"is_disabled":false,"rental_uris":{"android":"levelo://app?vid=d32646a2-a245-4773-a94b-5f319b6425fa","ios":"levelo://app?vid=d32646a2-a245-4773-a94b-5f319b6425fa"},"vehicle_type_id":"4","last_reported":1738934139,"current_range_meters":27200,"station_id":"ce4bgj12rcd13ifvqbc0","pricing_plan_id":"cebpf4jnsgd1na2vs0mg"},{"bike_id":"b49e677c-3e48-4e1d-86b1-fa17f0e39ea8","system_id":"levelo_inurba_marseille","lat":43.2624,"lon":5.37493,"is_reserved":false,"is_disabled":false,"rental_uris":{"android":"levelo://app?vid=b49e677c-3e48-4e1d-86b1-fa17f0e39ea8","ios":"levelo://app?vid=b49e677c-3e48-4e1d-86b1-fa17f0e39ea8"},"vehicle_type_id":"4","last_reported":1738934139,"current_range_meters":35200,"station_id":"ce4bhgp2rcd13ifvqfc0","pricing_plan_id":"cebpf4jnsgd1na2vs0mg"},{"bike_id":"e408d721-1719-4f3b-bfb2-ee76b97560c7","system_id":"levelo_inurba_marseille","lat":43.24635,"lon":5.38918,"is_reserved":false,"is_disabled":false,"rental_uris":{"android":"levelo://app?vid=e408d721-1719-4f3b-bfb2-ee76b97560c7","ios":"levelo://app?vid=e408d721-1719-4f3b-bfb2-ee76b97560c7"},"vehicle_type_id":"4","last_reported":1738934139,"current_range_meters":38400,"station_id":"ce4bhg12rcd13ifvqf60","pricing_plan_id":"cebpf4jnsgd1na2vs0mg"},{"bike_id":"943eb673-c399-4501-9459-4e2f171a7665","system_id":"levelo_inurba_marseille","lat":43.30177,"lon":5.38101,"is_reserved":false,"is_disabled":false,"rental_uris":{"android":"levelo://app?vid=943eb673-c399-4501-9459-4e2f171a7665","ios":"levelo://app?vid=943eb673-c399-4501-9459-4e2f171a7665"},"vehicle_type_id":"4","last_reported":1738934139,"current_range_meters":38800,"station_id":"ce4bgjp2rcd13ifvqbh0","pricing_plan_id":"cebpf4jnsgd1na2vs0mg"},{"bike_id":"038aa74b-35f3-4bb6-8e7a-dc5e5479dbc4","system_id":"levelo_inurba_marseille","lat":43.30949,"lon":5.39041,"is_reserved":false,"is_disabled":false,"rental_uris":{"android":"levelo://app?vid=038aa74b-35f3-4bb6-8e7a-dc5e5479dbc4","ios":"levelo://app?vid=038aa74b-35f3-4bb6-8e7a-dc5e5479dbc4"},"vehicle_type_id":"4","last_reported":1738934139,"current_range_meters":34800,"station_id":"ce4bgup2rcd13ifvqco0","pricing_plan_id":"cebpf4jnsgd1na2vs0mg"},{"bike_id":"b535402c-25ad-4274-bf8f-573a8931886f","system_id":"levelo_inurba_marseille","lat":43.33022,"lon":5.39042,"is_reserved":false,"is_disabled":false,"rental_uris":{"android":"levelo://app?vid=b535402c-25ad-4274-bf8f-573a8931886f","ios":"levelo://app?vid=b535402c-25ad-4274-bf8f-573a8931886f"},"vehicle_type_id":"4","last_reported":1738934139,"current_range_meters":38800,"station_id":"ce4bhr92rcd13ifvqhrg","pricing_plan_id":"cebpf4jnsgd1na2vs0mg"},{"bike_id":"6f6acae6-6970-4a73-aa3b-94db2b52c59c","system_id":"levelo_inurba_marseille","lat":43.278382,"lon":5.392058,"is_reserved":false,"is_disabled":false,"rental_uris":{"android":"levelo://app?vid=6f6acae6-6970-4a73-aa3b-94db2b52c59c","ios":"levelo://app?vid=6f6acae6-6970-4a73-aa3b-94db2b52c59c"},"vehicle_type_id":"4","last_reported":1738934139,"current_range_meters":38800,"station_id":"ce4bhjp2rcd13ifvqga0","pricing_plan_id":"cebpf4jnsgd1na2vs0mg"},{"bike_id":"907f8e56-a7b1-49ae-a2cb-0ad8c86c54ae","system_id":"levelo_inurba_marseille","lat":43.28932,"lon":5.38383,"is_reserved":false,"is_disabled":false,"rental_uris":{"android":"levelo://app?vid=907f8e56-a7b1-49ae-a2cb-0ad8c86c54ae","ios":"levelo://app?vid=907f8e56-a7b1-49ae-a2cb-0ad8c86c54ae"},"vehicle_type_id":"4","last_reported":1738934139,"current_range_meters":39200,"station_id":"ce4bh612rcd13ifvqe6g","pricing_plan_id":"cebpf4jnsgd1na2vs0mg"},{"bike_id":"4aee1b40-53e5-45f2-aff9-b7be5ed39b8a","system_id":"levelo_inurba_marseille","lat":43.2996,"lon":5.38496,"is_reserved":false,"is_disabled":false,"rental_uris":{"android":"levelo://app?vid=4aee1b40-53e5-45f2-aff9-b7be5ed39b8a","ios":"levelo://app?vid=4aee1b40-53e5-45f2-aff9-b7be5ed39b8a"},"vehicle_type_id":"4","last_reported":1738934139,"current_range_meters":38800,"station_id":"ce4bgj92rcd13ifvqbd0","pricing_plan_id":"cebpf4jnsgd1na2vs0mg"},{"bike_id":"9aa643bf-6168-4808-9afe-dc40ac6c7a7c","system_id":"levelo_inurba_marseille","lat":43.29919,"lon":5.37481,"is_reserved":false,"is_disabled":false,"rental_uris":{"android":"levelo://app?vid=9aa643bf-6168-4808-9afe-dc40ac6c7a7c","ios":"levelo://app?vid=9aa643bf-6168-4808-9afe-dc40ac6c7a7c"},"vehicle_type_id":"4","last_reported":1738934139,"current_range_meters":38800,"station_id":"ce4bgjh2rcd13ifvqbg0","pricing_plan_id":"cebpf4jnsgd1na2vs0mg"},{"bike_id":"5ef1d44b-6ded-433d-a388-7f5e02e9eb07","system_id":"levelo_inurba_marseille","lat":43.29363,"lon":5.37832,"is_reserved":false,"is_disabled":false,"rental_uris":{"android":"levelo://app?vid=5ef1d44b-6ded-433d-a388-7f5e02e9eb07","ios":"levelo://app?vid=5ef1d44b-6ded-433d-a388-7f5e02e9eb07"},"vehicle_type_id":"4","last_reported":1738934139,"current_range_meters":38400,"station_id":"ce4bgjh2rcd13ifvqbf0","pricing_plan_id":"cebpf4jnsgd1na2vs0mg"},{"bike_id":"0197f52a-7fe4-448e-93cf-8bdd2aecb08b","system_id":"levelo_inurba_marseille","lat":43.2762,"lon":5.36124,"is_reserved":false,"is_disabled":false,"rental_uris":{"android":"levelo://app?vid=0197f52a-7fe4-448e-93cf-8bdd2aecb08b","ios":"levelo://app?vid=0197f52a-7fe4-448e-93cf-8bdd2aecb08b"},"vehicle_type_id":"4","last_reported":1738934139,"current_range_meters":20400,"station_id":"ce4bgj92rcd13ifvqbe0","pricing_plan_id":"cebpf4jnsgd1na2vs0mg"},{"bike_id":"a91c5270-c4b1-443a-b905-f09967a56981","system_id":"levelo_inurba_marseille","lat":43.26549,"lon":5.3733,"is_reserved":false,"is_disabled":false,"rental_uris":{"android":"levelo://app?vid=a91c5270-c4b1-443a-b905-f09967a56981","ios":"levelo://app?vid=a91c5270-c4b1-443a-b905-f09967a56981"},"vehicle_type_id":"4","last_reported":1738934139,"current_range_meters":14800,"station_id":"ce4bhg12rcd13ifvqf70","pricing_plan_id":"cebpf4jnsgd1na2vs0mg"},{"bike_id":"979bb291-fda0-4db1-9683-9f4e68befec3","system_id":"levelo_inurba_marseille","lat":43.31755,"lon":5.39016,"is_reserved":false,"is_disabled":false,"rental_uris":{"android":"levelo://app?vid=979bb291-fda0-4db1-9683-9f4e68befec3","ios":"levelo://app?vid=979bb291-fda0-4db1-9683-9f4e68befec3"},"vehicle_type_id":"4","last_reported":1738934139,"current_range_meters":38800,"station_id":"ce4bhqp2rcd13ifvqhng","pricing_plan_id":"cebpf4jnsgd1na2vs0mg"},{"bike_id":"6964e144-0c20-439f-8e52-e9a10a7db7cf","system_id":"levelo_inurba_marseille","lat":43.30293,"lon":5.37719,"is_reserved":false,"is_disabled":false,"rental_uris":{"android":"levelo://app?vid=6964e144-0c20-439f-8e52-e9a10a7db7cf","ios":"levelo://app?vid=6964e144-0c20-439f-8e52-e9a10a7db7cf"},"vehicle_type_id":"4","last_reported":1738934139,"current_range_meters":32000,"station_id":"ce4bguh2rcd13ifvqcj0","pricing_plan_id":"cebpf4jnsgd1na2vs0mg"},{"bike_id":"0bc38e38-92c3-4ed1-b28d-79cb5f04f246","system_id":"levelo_inurba_marseille","lat":43.266814,"lon":5.382752,"is_reserved":false,"is_disabled":false,"rental_uris":{"android":"levelo://app?vid=0bc38e38-92c3-4ed1-b28d-79cb5f04f246","ios":"levelo://app?vid=0bc38e38-92c3-4ed1-b28d-79cb5f04f246"},"vehicle_type_id":"4","last_reported":1738934139,"current_range_meters":39200,"station_id":"ce4bhg92rcd13ifvqf90","pricing_plan_id":"cebpf4jnsgd1na2vs0mg"},{"bike_id":"de51093c-54b2-4ddb-a806-419065533f3a","system_id":"levelo_inurba_marseille","lat":43.28474,"lon":5.35911,"is_reserved":false,"is_disabled":false,"rental_uris":{"android":"levelo://app?vid=de51093c-54b2-4ddb-a806-419065533f3a","ios":"levelo://app?vid=de51093c-54b2-4ddb-a806-419065533f3a"},"vehicle_type_id":"4","last_reported":1738934139,"current_range_meters":31200,"station_id":"ce4bhah2rcd13ifvqei0","pricing_plan_id":"cebpf4jnsgd1na2vs0mg"},{"bike_id":"48e4415f-4bfa-4dd7-b8c6-72b96454ae71","system_id":"levelo_inurba_marseille","lat":43.26805,"lon":5.40251,"is_reserved":false,"is_disabled":false,"rental_uris":{"android":"levelo://app?vid=48e4415f-4bfa-4dd7-b8c6-72b96454ae71","ios":"levelo://app?vid=48e4415f-4bfa-4dd7-b8c6-72b96454ae71"},"vehicle_type_id":"4","last_reported":1738934139,"current_range_meters":39200,"station_id":"ce501612rcd8frsf0b60","pricing_plan_id":"cebpf4jnsgd1na2vs0mg"},{"bike_id":"921e3fac-428b-40ff-9224-c3f13b9034c3","system_id":"levelo_inurba_marseille","lat":43.29571,"lon":5.36741,"is_reserved":false,"is_disabled":false,"rental_uris":{"android":"levelo://app?vid=921e3fac-428b-40ff-9224-c3f13b9034c3","ios":"levelo://app?vid=921e3fac-428b-40ff-9224-c3f13b9034c3"},"vehicle_type_id":"4","last_reported":1738934139,"current_range_meters":39200,"station_id":"ce4bgph2rcd13ifvqc2g","pricing_plan_id":"cebpf4jnsgd1na2vs0mg"},{"bike_id":"ff367720-d345-4894-b2da-040da08574ca","system_id":"levelo_inurba_marseille","lat":43.30543,"lon":5.36681,"is_reserved":false,"is_disabled":false,"rental_uris":{"android":"levelo://app?vid=ff367720-d345-4894-b2da-040da08574ca","ios":"levelo://app?vid=ff367720-d345-4894-b2da-040da08574ca"},"vehicle_type_id":"4","last_reported":1738934139,"current_range_meters":36800,"station_id":"ce4bgrp2rcd13ifvqc9g","pricing_plan_id":"cebpf4jnsgd1na2vs0mg"},{"bike_id":"0e6ab3e7-15b7-4eed-aa04-3a1458acb532","system_id":"levelo_inurba_marseille","lat":43.23969,"lon":5.36646,"is_reserved":false,"is_disabled":false,"rental_uris":{"android":"levelo://app?vid=0e6ab3e7-15b7-4eed-aa04-3a1458acb532","ios":"levelo://app?vid=0e6ab3e7-15b7-4eed-aa04-3a1458acb532"},"vehicle_type_id":"4","last_reported":1738934139,"current_range_meters":22000,"station_id":"ce4bhi12rcd13ifvqfp0","pricing_plan_id":"cebpf4jnsgd1na2vs0mg"},{"bike_id":"e9ec5cb2-3942-417c-9188-58ce32c3a0aa","system_id":"levelo_inurba_marseille","lat":43.2731,"lon":5.39079,"is_reserved":false,"is_disabled":false,"rental_uris":{"android":"levelo://app?vid=e9ec5cb2-3942-417c-9188-58ce32c3a0aa","ios":"levelo://app?vid=e9ec5cb2-3942-417c-9188-58ce32c3a0aa"},"vehicle_type_id":"4","last_reported":1738934139,"current_range_meters":30000,"station_id":"ce4bhgp2rcd13ifvqfe0","pricing_plan_id":"cebpf4jnsgd1na2vs0mg"},{"bike_id":"4050de43-6f63-4f1a-a274-76bdd979d867","system_id":"levelo_inurba_marseille","lat":43.33627,"lon":5.41034,"is_reserved":false,"is_disabled":false,"rental_uris":{"android":"levelo://app?vid=4050de43-6f63-4f1a-a274-76bdd979d867","ios":"levelo://app?vid=4050de43-6f63-4f1a-a274-76bdd979d867"},"vehicle_type_id":"4","last_reported":1738934139,"current_range_meters":22400,"station_id":"ce4bhqh2rcd13ifvqhmg","pricing_plan_id":"cebpf4jnsgd1na2vs0mg"},{"bike_id":"d24de62b-f43d-4ee9-8636-eae3f9e1d596","system_id":"levelo_inurba_marseille","lat":43.2718,"lon":5.40985,"is_reserved":false,"is_disabled":false,"rental_uris":{"android":"levelo://app?vid=d24de62b-f43d-4ee9-8636-eae3f9e1d596","ios":"levelo://app?vid=d24de62b-f43d-4ee9-8636-eae3f9e1d596"},"vehicle_type_id":"4","last_reported":1738934139,"current_range_meters":32800,"station_id":"ce4bhl12rcd13ifvqgf0","pricing_plan_id":"cebpf4jnsgd1na2vs0mg"},{"bike_id":"dbfa5328-7c4f-4253-aa25-06396c0276f0","system_id":"levelo_inurba_marseille","lat":43.29801,"lon":5.38096,"is_reserved":false,"is_disabled":false,"rental_uris":{"android":"levelo://app?vid=dbfa5328-7c4f-4253-aa25-06396c0276f0","ios":"levelo://app?vid=dbfa5328-7c4f-4253-aa25-06396c0276f0"},"vehicle_type_id":"4","last_reported":1738934139,"current_range_meters":38800,"station_id":"ce4bgip2rcd13ifvqbb0","pricing_plan_id":"cebpf4jnsgd1na2vs0mg"},{"bike_id":"ed2947c7-416b-4f25-b15f-def172dbc755","system_id":"levelo_inurba_marseille","lat":43.30586,"lon":5.3656,"is_reserved":false,"is_disabled":false,"rental_uris":{"android":"levelo://app?vid=ed2947c7-416b-4f25-b15f-def172dbc755","ios":"levelo://app?vid=ed2947c7-416b-4f25-b15f-def172dbc755"},"vehicle_type_id":"4","last_reported":1738934139,"current_range_meters":36000,"station_id":"ce4bgs12rcd13ifvqcag","pricing_plan_id":"cebpf4jnsgd1na2vs0mg"},{"bike_id":"ea708e5a-ba8c-418c-9f32-07ae5d7e72f8","system_id":"levelo_inurba_marseille","lat":43.26504,"lon":5.39548,"is_reserved":false,"is_disabled":false,"rental_uris":{"android":"levelo://app?vid=ea708e5a-ba8c-418c-9f32-07ae5d7e72f8","ios":"levelo://app?vid=ea708e5a-ba8c-418c-9f32-07ae5d7e72f8"},"vehicle_type_id":"4","last_reported":1738934139,"current_range_meters":22800,"station_id":"ce4bhi12rcd13ifvqfq0","pricing_plan_id":"cebpf4jnsgd1na2vs0mg"},{"bike_id":"e8acf28e-65d9-4441-88f9-26f05cad6411","system_id":"levelo_inurba_marseille","lat":43.2707,"lon":5.42274,"is_reserved":false,"is_disabled":false,"rental_uris":{"android":"levelo://app?vid=e8acf28e-65d9-4441-88f9-26f05cad6411","ios":"levelo://app?vid=e8acf28e-65d9-4441-88f9-26f05cad6411"},"vehicle_type_id":"4","last_reported":1738934139,"current_range_meters":18800,"station_id":"ce4bhk92rcd13ifvqgb0","pricing_plan_id":"cebpf4jnsgd1na2vs0mg"},{"bike_id":"288af291-71a0-48a3-84cd-1ea8591b0e0e","system_id":"levelo_inurba_marseille","lat":43.34154,"lon":5.40897,"is_reserved":false,"is_disabled":false,"rental_uris":{"android":"levelo://app?vid=288af291-71a0-48a3-84cd-1ea8591b0e0e","ios":"levelo://app?vid=288af291-71a0-48a3-84cd-1ea8591b0e0e"},"vehicle_type_id":"4","last_reported":1738934139,"current_range_meters":38800,"station_id":"ce4bhqh2rcd13ifvqhlg","pricing_plan_id":"cebpf4jnsgd1na2vs0mg"},{"bike_id":"a715a29e-c2b2-4dfe-a828-925f2ed1dd42","system_id":"levelo_inurba_marseille","lat":43.28481,"lon":5.38413,"is_reserved":false,"is_disabled":false,"rental_uris":{"android":"levelo://app?vid=a715a29e-c2b2-4dfe-a828-925f2ed1dd42","ios":"levelo://app?vid=a715a29e-c2b2-4dfe-a828-925f2ed1dd42"},"vehicle_type_id":"4","last_reported":1738934139,"current_range_meters":32800,"station_id":"ce4bh512rcd13ifvqe3g","pricing_plan_id":"cebpf4jnsgd1na2vs0mg"},{"bike_id":"775e7c57-7e2a-41a4-bb53-8e81069898dc","system_id":"levelo_inurba_marseille","lat":43.25552,"lon":5.38242,"is_reserved":false,"is_disabled":false,"rental_uris":{"android":"levelo://app?vid=775e7c57-7e2a-41a4-bb53-8e81069898dc","ios":"levelo://app?vid=775e7c57-7e2a-41a4-bb53-8e81069898dc"},"vehicle_type_id":"4","last_reported":1738934139,"current_range_meters":38800,"station_id":"ce4bhih2rcd13ifvqfs0","pricing_plan_id":"cebpf4jnsgd1na2vs0mg"},{"bike_id":"b3963e70-96e6-456d-b001-ed5cf011d887","system_id":"levelo_inurba_marseille","lat":43.30465,"lon":5.37893,"is_reserved":false,"is_disabled":true,"rental_uris":{"android":"levelo://app?vid=b3963e70-96e6-456d-b001-ed5cf011d887","ios":"levelo://app?vid=b3963e70-96e6-456d-b001-ed5cf011d887"},"vehicle_type_id":"4","last_reported":1738934139,"current_range_meters":400,"station_id":"ce4bgup2rcd13ifvqcn0","pricing_plan_id":"cebpf4jnsgd1na2vs0mg"},{"bike_id":"7f48e6fd-2aa3-4557-ac8a-c4fe1a57af9d","system_id":"levelo_inurba_marseille","lat":43.27942,"lon":5.38417,"is_reserved":false,"is_disabled":false,"rental_uris":{"android":"levelo://app?vid=7f48e6fd-2aa3-4557-ac8a-c4fe1a57af9d","ios":"levelo://app?vid=7f48e6fd-2aa3-4557-ac8a-c4fe1a57af9d"},"vehicle_type_id":"4","last_reported":1738934139,"current_range_meters":28400,"station_id":"ce4bgi92rcd13ifvqb90","pricing_plan_id":"cebpf4jnsgd1na2vs0mg"},{"bike_id":"3c62a022-30e0-4321-8fc5-f48549c49a6d","system_id":"levelo_inurba_marseille","lat":43.30617,"lon":5.37227,"is_reserved":false,"is_disabled":false,"rental_uris":{"android":"levelo://app?vid=3c62a022-30e0-4321-8fc5-f48549c49a6d","ios":"levelo://app?vid=3c62a022-30e0-4321-8fc5-f48549c49a6d"},"vehicle_type_id":"4","last_reported":1738934139,"current_range_meters":35600,"station_id":"ce4bgqh2rcd13ifvqc4g","pricing_plan_id":"cebpf4jnsgd1na2vs0mg"},{"bike_id":"7aaafbcb-53e4-463d-a2a8-cce31505ee6d","system_id":"levelo_inurba_marseille","lat":43.296212,"lon":5.377129,"is_reserved":false,"is_disabled":false,"rental_uris":{"android":"levelo://app?vid=7aaafbcb-53e4-463d-a2a8-cce31505ee6d","ios":"levelo://app?vid=7aaafbcb-53e4-463d-a2a8-cce31505ee6d"},"vehicle_type_id":"4","last_reported":1738934139,"current_range_meters":38800,"station_id":"ce4bgi92rcd13ifvqb90","pricing_plan_id":"cebpf4jnsgd1na2vs0mg"},{"bike_id":"c5789181-d252-4c46-b75d-908f3a6a38fe","system_id":"levelo_inurba_marseille","lat":43.33741,"lon":5.39151,"is_reserved":false,"is_disabled":false,"rental_uris":{"android":"levelo://app?vid=c5789181-d252-4c46-b75d-908f3a6a38fe","ios":"levelo://app?vid=c5789181-d252-4c46-b75d-908f3a6a38fe"},"vehicle_type_id":"4","last_reported":1738934139,"current_range_meters":38000,"station_id":"ce4bhr92rcd13ifvqhsg","pricing_plan_id":"cebpf4jnsgd1na2vs0mg"},{"bike_id":"70680240-c0ce-4c00-ba26-bfa78895a67c","system_id":"levelo_inurba_marseille","lat":43.28616,"lon":5.37064,"is_reserved":false,"is_disabled":false,"rental_uris":{"android":"levelo://app?vid=70680240-c0ce-4c00-ba26-bfa78895a67c","ios":"levelo://app?vid=70680240-c0ce-4c00-ba26-bfa78895a67c"},"vehicle_type_id":"4","last_reported":1738934139,"current_range_meters":38400,"station_id":"ce4bht12rcd13ifvqi60","pricing_plan_id":"cebpf4jnsgd1na2vs0mg"},{"bike_id":"421f1552-7400-4e35-a33d-818155e3b5e5","system_id":"levelo_inurba_marseille","lat":43.2827,"lon":5.35057,"is_reserved":false,"is_disabled":false,"rental_uris":{"android":"levelo://app?vid=421f1552-7400-4e35-a33d-818155e3b5e5","ios":"levelo://app?vid=421f1552-7400-4e35-a33d-818155e3b5e5"},"vehicle_type_id":"4","last_reported":1738934139,"current_range_meters":29600,"station_id":"ce4bhbp2rcd13ifvqerg","pricing_plan_id":"cebpf4jnsgd1na2vs0mg"},{"bike_id":"ef9b62b4-8d02-4e23-970e-3e7fcb88040b","system_id":"levelo_inurba_marseille","lat":43.2621,"lon":5.38855,"is_reserved":false,"is_disabled":false,"rental_uris":{"android":"levelo://app?vid=ef9b62b4-8d02-4e23-970e-3e7fcb88040b","ios":"levelo://app?vid=ef9b62b4-8d02-4e23-970e-3e7fcb88040b"},"vehicle_type_id":"4","last_reported":1738934139,"current_range_meters":10800,"station_id":"","pricing_plan_id":"cebpf4jnsgd1na2vs0mg"},{"bike_id":"6e6130e2-65a2-42c6-a97a-78b2ff354ccb","system_id":"levelo_inurba_marseille","lat":43.29439,"lon":5.39751,"is_reserved":false,"is_disabled":false,"rental_uris":{"android":"levelo://app?vid=6e6130e2-65a2-42c6-a97a-78b2ff354ccb","ios":"levelo://app?vid=6e6130e2-65a2-42c6-a97a-78b2ff354ccb"},"vehicle_type_id":"4","last_reported":1738934139,"current_range_meters":38400,"station_id":"ce4bh3h2rcd13ifvqdo0","pricing_plan_id":"cebpf4jnsgd1na2vs0mg"},{"bike_id":"59bbc581-6def-41e5-a432-768ddc1babeb","system_id":"levelo_inurba_marseille","lat":43.27811,"lon":5.40709,"is_reserved":false,"is_disabled":false,"rental_uris":{"android":"levelo://app?vid=59bbc581-6def-41e5-a432-768ddc1babeb","ios":"levelo://app?vid=59bbc581-6def-41e5-a432-768ddc1babeb"},"vehicle_type_id":"4","last_reported":1738934139,"current_range_meters":38800,"station_id":"ce4bhnh2rcd13ifvqgtg","pricing_plan_id":"cebpf4jnsgd1na2vs0mg"},{"bike_id":"eb3fd904-badc-499a-a549-c5ec6801c1d1","system_id":"levelo_inurba_marseille","lat":43.30163,"lon":5.38085,"is_reserved":false,"is_disabled":false,"rental_uris":{"android":"levelo://app?vid=eb3fd904-badc-499a-a549-c5ec6801c1d1","ios":"levelo://app?vid=eb3fd904-badc-499a-a549-c5ec6801c1d1"},"vehicle_type_id":"4","last_reported":1738934139,"current_range_meters":38800,"station_id":"ce4bgjp2rcd13ifvqbh0","pricing_plan_id":"cebpf4jnsgd1na2vs0mg"},{"bike_id":"59faf46b-cc81-4e65-8f07-8bfcc08ac7fb","system_id":"levelo_inurba_marseille","lat":43.27497,"lon":5.42452,"is_reserved":false,"is_disabled":false,"rental_uris":{"android":"levelo://app?vid=59faf46b-cc81-4e65-8f07-8bfcc08ac7fb","ios":"levelo://app?vid=59faf46b-cc81-4e65-8f07-8bfcc08ac7fb"},"vehicle_type_id":"4","last_reported":1738934139,"current_range_meters":11200,"station_id":"ce4bhn92rcd13ifvqgrg","pricing_plan_id":"cebpf4jnsgd1na2vs0mg"},{"bike_id":"ddf943e2-c8a9-4072-9dee-8695ff64b7d4","system_id":"levelo_inurba_marseille","lat":43.30466,"lon":5.37901,"is_reserved":false,"is_disabled":true,"rental_uris":{"android":"levelo://app?vid=ddf943e2-c8a9-4072-9dee-8695ff64b7d4","ios":"levelo://app?vid=ddf943e2-c8a9-4072-9dee-8695ff64b7d4"},"vehicle_type_id":"4","last_reported":1738934139,"current_range_meters":800,"station_id":"ce4bgup2rcd13ifvqcn0","pricing_plan_id":"cebpf4jnsgd1na2vs0mg"},{"bike_id":"c204f03f-a67e-4bd0-a04c-f14ecf273ff1","system_id":"levelo_inurba_marseille","lat":43.26948,"lon":5.3864,"is_reserved":false,"is_disabled":false,"rental_uris":{"android":"levelo://app?vid=c204f03f-a67e-4bd0-a04c-f14ecf273ff1","ios":"levelo://app?vid=c204f03f-a67e-4bd0-a04c-f14ecf273ff1"},"vehicle_type_id":"4","last_reported":1738934139,"current_range_meters":39200,"station_id":"ce4bhh92rcd13ifvqfh0","pricing_plan_id":"cebpf4jnsgd1na2vs0mg"},{"bike_id":"0021b6c4-abe3-4348-a67b-1ee3f59d2920","system_id":"levelo_inurba_marseille","lat":43.29576,"lon":5.36743,"is_reserved":false,"is_disabled":false,"rental_uris":{"android":"levelo://app?vid=0021b6c4-abe3-4348-a67b-1ee3f59d2920","ios":"levelo://app?vid=0021b6c4-abe3-4348-a67b-1ee3f59d2920"},"vehicle_type_id":"4","last_reported":1738934139,"current_range_meters":29600,"station_id":"ce4bgph2rcd13ifvqc2g","pricing_plan_id":"cebpf4jnsgd1na2vs0mg"},{"bike_id":"33f37d6b-08fe-4642-b4da-79d2133e4243","system_id":"levelo_inurba_marseille","lat":43.27329,"lon":5.42319,"is_reserved":false,"is_disabled":true,"rental_uris":{"android":"levelo://app?vid=33f37d6b-08fe-4642-b4da-79d2133e4243","ios":"levelo://app?vid=33f37d6b-08fe-4642-b4da-79d2133e4243"},"vehicle_type_id":"4","last_reported":1738934139,"current_range_meters":400,"station_id":"","pricing_plan_id":"cebpf4jnsgd1na2vs0mg"},{"bike_id":"2d071445-0aea-4bde-ab02-5e4b238973e4","system_id":"levelo_inurba_marseille","lat":43.29801,"lon":5.38094,"is_reserved":false,"is_disabled":false,"rental_uris":{"android":"levelo://app?vid=2d071445-0aea-4bde-ab02-5e4b238973e4","ios":"levelo://app?vid=2d071445-0aea-4bde-ab02-5e4b238973e4"},"vehicle_type_id":"4","last_reported":1738934139,"current_range_meters":19200,"station_id":"ce4bgip2rcd13ifvqbb0","pricing_plan_id":"cebpf4jnsgd1na2vs0mg"},{"bike_id":"7bc2d4b6-7844-46be-a947-040b3c3e100d","system_id":"levelo_inurba_marseille","lat":43.27913,"lon":5.39591,"is_reserved":false,"is_disabled":false,"rental_uris":{"android":"levelo://app?vid=7bc2d4b6-7844-46be-a947-040b3c3e100d","ios":"levelo://app?vid=7bc2d4b6-7844-46be-a947-040b3c3e100d"},"vehicle_type_id":"4","last_reported":1738934139,"current_range_meters":37600,"station_id":"ce4bhf92rcd13ifvqf40","pricing_plan_id":"cebpf4jnsgd1na2vs0mg"},{"bike_id":"b177d2a7-ede8-4e67-ae03-6df901cce49b","system_id":"levelo_inurba_marseille","lat":43.27182,"lon":5.40993,"is_reserved":false,"is_disabled":false,"rental_uris":{"android":"levelo://app?vid=b177d2a7-ede8-4e67-ae03-6df901cce49b","ios":"levelo://app?vid=b177d2a7-ede8-4e67-ae03-6df901cce49b"},"vehicle_type_id":"4","last_reported":1738934139,"current_range_meters":31200,"station_id":"ce4bhl12rcd13ifvqgf0","pricing_plan_id":"cebpf4jnsgd1na2vs0mg"},{"bike_id":"103b0137-7f49-4a64-b0e0-0a718f066e12","system_id":"levelo_inurba_marseille","lat":43.29555,"lon":5.42269,"is_reserved":false,"is_disabled":false,"rental_uris":{"android":"levelo://app?vid=103b0137-7f49-4a64-b0e0-0a718f066e12","ios":"levelo://app?vid=103b0137-7f49-4a64-b0e0-0a718f066e12"},"vehicle_type_id":"4","last_reported":1738934139,"current_range_meters":37600,"station_id":"ce4bhph2rcd13ifvqhdg","pricing_plan_id":"cebpf4jnsgd1na2vs0mg"},{"bike_id":"d94da8e2-a1f1-46e4-bb51-ac3d4a761980","system_id":"levelo_inurba_marseille","lat":43.25832,"lon":5.39423,"is_reserved":false,"is_disabled":true,"rental_uris":{"android":"levelo://app?vid=d94da8e2-a1f1-46e4-bb51-ac3d4a761980","ios":"levelo://app?vid=d94da8e2-a1f1-46e4-bb51-ac3d4a761980"},"vehicle_type_id":"4","last_reported":1738934139,"current_range_meters":0,"station_id":"ce4bhip2rcd13ifvqft0","pricing_plan_id":"cebpf4jnsgd1na2vs0mg"},{"bike_id":"75533fe3-ce29-4ea7-870d-683d2f73452d","system_id":"levelo_inurba_marseille","lat":43.30217,"lon":5.39472,"is_reserved":false,"is_disabled":false,"rental_uris":{"android":"levelo://app?vid=75533fe3-ce29-4ea7-870d-683d2f73452d","ios":"levelo://app?vid=75533fe3-ce29-4ea7-870d-683d2f73452d"},"vehicle_type_id":"4","last_reported":1738934139,"current_range_meters":27200,"station_id":"ce4bh0p2rcd13ifvqd70","pricing_plan_id":"cebpf4jnsgd1na2vs0mg"},{"bike_id":"7f8c63f0-ae26-41a9-951c-614dbedf8833","system_id":"levelo_inurba_marseille","lat":43.29692,"lon":5.37309,"is_reserved":false,"is_disabled":false,"rental_uris":{"android":"levelo://app?vid=7f8c63f0-ae26-41a9-951c-614dbedf8833","ios":"levelo://app?vid=7f8c63f0-ae26-41a9-951c-614dbedf8833"},"vehicle_type_id":"4","last_reported":1738934139,"current_range_meters":9200,"station_id":"ce4bho92rcd13ifvqh3g","pricing_plan_id":"cebpf4jnsgd1na2vs0mg"},{"bike_id":"dde63eca-f66c-4fd1-bb8a-f128470978c1","system_id":"levelo_inurba_marseille","lat":43.32549,"lon":5.41438,"is_reserved":false,"is_disabled":false,"rental_uris":{"android":"levelo://app?vid=dde63eca-f66c-4fd1-bb8a-f128470978c1","ios":"levelo://app?vid=dde63eca-f66c-4fd1-bb8a-f128470978c1"},"vehicle_type_id":"4","last_reported":1738934139,"current_range_meters":28800,"station_id":"ce4bhq12rcd13ifvqhhg","pricing_plan_id":"cebpf4jnsgd1na2vs0mg"},{"bike_id":"adea3fe0-0d5f-493f-bc7a-8db19cd779cc","system_id":"levelo_inurba_marseille","lat":43.26201,"lon":5.37912,"is_reserved":false,"is_disabled":false,"rental_uris":{"android":"levelo://app?vid=adea3fe0-0d5f-493f-bc7a-8db19cd779cc","ios":"levelo://app?vid=adea3fe0-0d5f-493f-bc7a-8db19cd779cc"},"vehicle_type_id":"4","last_reported":1738934139,"current_range_meters":36400,"station_id":"ce4bhjp2rcd13ifvqg90","pricing_plan_id":"cebpf4jnsgd1na2vs0mg"},{"bike_id":"532a41ce-25b7-455a-9776-0d764a4faaf4","system_id":"levelo_inurba_marseille","lat":43.29932,"lon":5.37475,"is_reserved":false,"is_disabled":false,"rental_uris":{"android":"levelo://app?vid=532a41ce-25b7-455a-9776-0d764a4faaf4","ios":"levelo://app?vid=532a41ce-25b7-455a-9776-0d764a4faaf4"},"vehicle_type_id":"4","last_reported":1738934139,"current_range_meters":36400,"station_id":"ce4bgjh2rcd13ifvqbg0","pricing_plan_id":"cebpf4jnsgd1na2vs0mg"},{"bike_id":"db769a68-b2ad-4a40-a316-96211218e210","system_id":"levelo_inurba_marseille","lat":43.25001,"lon":5.38931,"is_reserved":false,"is_disabled":true,"rental_uris":{"android":"levelo://app?vid=db769a68-b2ad-4a40-a316-96211218e210","ios":"levelo://app?vid=db769a68-b2ad-4a40-a316-96211218e210"},"vehicle_type_id":"4","last_reported":1738934139,"current_range_meters":400,"station_id":"ce4bhgp2rcd13ifvqfd0","pricing_plan_id":"cebpf4jnsgd1na2vs0mg"},{"bike_id":"99908a30-03cb-42e5-83e2-ce0f4d96fd1f","system_id":"levelo_inurba_marseille","lat":43.23196,"lon":5.39991,"is_reserved":false,"is_disabled":false,"rental_uris":{"android":"levelo://app?vid=99908a30-03cb-42e5-83e2-ce0f4d96fd1f","ios":"levelo://app?vid=99908a30-03cb-42e5-83e2-ce0f4d96fd1f"},"vehicle_type_id":"4","last_reported":1738934139,"current_range_meters":24400,"station_id":"ce4bhn12rcd13ifvqgqg","pricing_plan_id":"cebpf4jnsgd1na2vs0mg"},{"bike_id":"8b11bba1-d0cf-40c9-9463-3c4eba99b678","system_id":"levelo_inurba_marseille","lat":43.30161,"lon":5.38068,"is_reserved":false,"is_disabled":false,"rental_uris":{"android":"levelo://app?vid=8b11bba1-d0cf-40c9-9463-3c4eba99b678","ios":"levelo://app?vid=8b11bba1-d0cf-40c9-9463-3c4eba99b678"},"vehicle_type_id":"4","last_reported":1738934139,"current_range_meters":24400,"station_id":"ce4bgjp2rcd13ifvqbh0","pricing_plan_id":"cebpf4jnsgd1na2vs0mg"},{"bike_id":"0c7b73f6-06cf-4f30-a5b5-cc680ecfa71d","system_id":"levelo_inurba_marseille","lat":43.3359,"lon":5.40993,"is_reserved":false,"is_disabled":false,"rental_uris":{"android":"levelo://app?vid=0c7b73f6-06cf-4f30-a5b5-cc680ecfa71d","ios":"levelo://app?vid=0c7b73f6-06cf-4f30-a5b5-cc680ecfa71d"},"vehicle_type_id":"4","last_reported":1738934139,"current_range_meters":38800,"station_id":"ce4bhqh2rcd13ifvqhmg","pricing_plan_id":"cebpf4jnsgd1na2vs0mg"},{"bike_id":"a920f4bd-5757-4097-9712-3ce8740732b7","system_id":"levelo_inurba_marseille","lat":43.2762,"lon":5.36103,"is_reserved":false,"is_disabled":false,"rental_uris":{"android":"levelo://app?vid=a920f4bd-5757-4097-9712-3ce8740732b7","ios":"levelo://app?vid=a920f4bd-5757-4097-9712-3ce8740732b7"},"vehicle_type_id":"4","last_reported":1738934139,"current_range_meters":27600,"station_id":"ce4bgj92rcd13ifvqbe0","pricing_plan_id":"cebpf4jnsgd1na2vs0mg"},{"bike_id":"7595a283-61a2-4551-8859-9225deda119d","system_id":"levelo_inurba_marseille","lat":43.23169,"lon":5.4375,"is_reserved":false,"is_disabled":true,"rental_uris":{"android":"levelo://app?vid=7595a283-61a2-4551-8859-9225deda119d","ios":"levelo://app?vid=7595a283-61a2-4551-8859-9225deda119d"},"vehicle_type_id":"4","last_reported":1738934139,"current_range_meters":1600,"station_id":"ce4bhmp2rcd13ifvqgog","pricing_plan_id":"cebpf4jnsgd1na2vs0mg"},{"bike_id":"f2df57fd-48fb-42b4-9b53-5e639c9b06ad","system_id":"levelo_inurba_marseille","lat":43.32382,"lon":5.38975,"is_reserved":false,"is_disabled":false,"rental_uris":{"android":"levelo://app?vid=f2df57fd-48fb-42b4-9b53-5e639c9b06ad","ios":"levelo://app?vid=f2df57fd-48fb-42b4-9b53-5e639c9b06ad"},"vehicle_type_id":"4","last_reported":1738934139,"current_range_meters":38000,"station_id":"ce4bhqp2rcd13ifvqhog","pricing_plan_id":"cebpf4jnsgd1na2vs0mg"},{"bike_id":"c921ffa5-51b6-4e7a-b2c9-49ee4eb9c3e2","system_id":"levelo_inurba_marseille","lat":43.29431,"lon":5.38635,"is_reserved":false,"is_disabled":false,"rental_uris":{"android":"levelo://app?vid=c921ffa5-51b6-4e7a-b2c9-49ee4eb9c3e2","ios":"levelo://app?vid=c921ffa5-51b6-4e7a-b2c9-49ee4eb9c3e2"},"vehicle_type_id":"4","last_reported":1738934139,"current_range_meters":37600,"station_id":"ce4bh2h2rcd13ifvqdh0","pricing_plan_id":"cebpf4jnsgd1na2vs0mg"},{"bike_id":"224d3e2e-2b1f-400a-8666-d360c580ba7b","system_id":"levelo_inurba_marseille","lat":43.25912,"lon":5.40859,"is_reserved":false,"is_disabled":false,"rental_uris":{"android":"levelo://app?vid=224d3e2e-2b1f-400a-8666-d360c580ba7b","ios":"levelo://app?vid=224d3e2e-2b1f-400a-8666-d360c580ba7b"},"vehicle_type_id":"4","last_reported":1738934139,"current_range_meters":25600,"station_id":"ce4bhm92rcd13ifvqglg","pricing_plan_id":"cebpf4jnsgd1na2vs0mg"},{"bike_id":"59db9156-837c-4bef-bdf0-6cb05d00fb23","system_id":"levelo_inurba_marseille","lat":43.24165,"lon":5.36404,"is_reserved":false,"is_disabled":false,"rental_uris":{"android":"levelo://app?vid=59db9156-837c-4bef-bdf0-6cb05d00fb23","ios":"levelo://app?vid=59db9156-837c-4bef-bdf0-6cb05d00fb23"},"vehicle_type_id":"4","last_reported":1738934139,"current_range_meters":31200,"station_id":"cpo36qri1sfpv3e86is0","pricing_plan_id":"cebpf4jnsgd1na2vs0mg"},{"bike_id":"8a67da58-cf32-4163-a9c0-454a297e60c9","system_id":"levelo_inurba_marseille","lat":43.29552,"lon":5.42275,"is_reserved":false,"is_disabled":false,"rental_uris":{"android":"levelo://app?vid=8a67da58-cf32-4163-a9c0-454a297e60c9","ios":"levelo://app?vid=8a67da58-cf32-4163-a9c0-454a297e60c9"},"vehicle_type_id":"4","last_reported":1738934139,"current_range_meters":15200,"station_id":"ce4bhph2rcd13ifvqhdg","pricing_plan_id":"cebpf4jnsgd1na2vs0mg"},{"bike_id":"19c91191-64ee-4803-94d7-14a4a66340df","system_id":"levelo_inurba_marseille","lat":43.317108,"lon":5.42413,"is_reserved":false,"is_disabled":true,"rental_uris":{"android":"levelo://app?vid=19c91191-64ee-4803-94d7-14a4a66340df","ios":"levelo://app?vid=19c91191-64ee-4803-94d7-14a4a66340df"},"vehicle_type_id":"4","last_reported":1738934139,"current_range_meters":0,"station_id":"ce4bhp92rcd13ifvqhbg","pricing_plan_id":"cebpf4jnsgd1na2vs0mg"},{"bike_id":"b75dcdbd-2e40-4830-bed0-e4f0c6a4ba6b","system_id":"levelo_inurba_marseille","lat":43.297083,"lon":5.3771,"is_reserved":false,"is_disabled":false,"rental_uris":{"android":"levelo://app?vid=b75dcdbd-2e40-4830-bed0-e4f0c6a4ba6b","ios":"levelo://app?vid=b75dcdbd-2e40-4830-bed0-e4f0c6a4ba6b"},"vehicle_type_id":"4","last_reported":1738934139,"current_range_meters":25600,"station_id":"ce4bgkh2rcd13ifvqbl0","pricing_plan_id":"cebpf4jnsgd1na2vs0mg"},{"bike_id":"c2254ed0-0838-424f-99f8-8eb5410c1ec3","system_id":"levelo_inurba_marseille","lat":43.24167,"lon":5.36392,"is_reserved":false,"is_disabled":false,"rental_uris":{"android":"levelo://app?vid=c2254ed0-0838-424f-99f8-8eb5410c1ec3","ios":"levelo://app?vid=c2254ed0-0838-424f-99f8-8eb5410c1ec3"},"vehicle_type_id":"4","last_reported":1738934139,"current_range_meters":30000,"station_id":"cpo36qri1sfpv3e86is0","pricing_plan_id":"cebpf4jnsgd1na2vs0mg"},{"bike_id":"63502e7d-71b3-44d6-b82d-6352b6e3809f","system_id":"levelo_inurba_marseille","lat":43.25824,"lon":5.394419,"is_reserved":false,"is_disabled":false,"rental_uris":{"android":"levelo://app?vid=63502e7d-71b3-44d6-b82d-6352b6e3809f","ios":"levelo://app?vid=63502e7d-71b3-44d6-b82d-6352b6e3809f"},"vehicle_type_id":"4","last_reported":1738934139,"current_range_meters":36800,"station_id":"ce4bhip2rcd13ifvqft0","pricing_plan_id":"cebpf4jnsgd1na2vs0mg"},{"bike_id":"b4ffe497-2c7c-493a-8c0b-c3ea2f7627fe","system_id":"levelo_inurba_marseille","lat":43.29977,"lon":5.38495,"is_reserved":false,"is_disabled":false,"rental_uris":{"android":"levelo://app?vid=b4ffe497-2c7c-493a-8c0b-c3ea2f7627fe","ios":"levelo://app?vid=b4ffe497-2c7c-493a-8c0b-c3ea2f7627fe"},"vehicle_type_id":"4","last_reported":1738934139,"current_range_meters":28400,"station_id":"ce4bgj92rcd13ifvqbd0","pricing_plan_id":"cebpf4jnsgd1na2vs0mg"},{"bike_id":"1ee45343-9eb3-4093-af39-176108dbf5fc","system_id":"levelo_inurba_marseille","lat":43.32482,"lon":5.36566,"is_reserved":false,"is_disabled":false,"rental_uris":{"android":"levelo://app?vid=1ee45343-9eb3-4093-af39-176108dbf5fc","ios":"levelo://app?vid=1ee45343-9eb3-4093-af39-176108dbf5fc"},"vehicle_type_id":"4","last_reported":1738934139,"current_range_meters":39200,"station_id":"ce4bhs12rcd13ifvqhvg","pricing_plan_id":"cebpf4jnsgd1na2vs0mg"},{"bike_id":"5d1dacf3-3fa1-40ba-8373-ce163dd2d283","system_id":"levelo_inurba_marseille","lat":43.26196,"lon":5.3792,"is_reserved":false,"is_disabled":false,"rental_uris":{"android":"levelo://app?vid=5d1dacf3-3fa1-40ba-8373-ce163dd2d283","ios":"levelo://app?vid=5d1dacf3-3fa1-40ba-8373-ce163dd2d283"},"vehicle_type_id":"4","last_reported":1738934139,"current_range_meters":38800,"station_id":"ce4bhjp2rcd13ifvqg90","pricing_plan_id":"cebpf4jnsgd1na2vs0mg"},{"bike_id":"060a4ff1-665e-4d86-8eef-d19188356a04","system_id":"levelo_inurba_marseille","lat":43.30578,"lon":5.36727,"is_reserved":false,"is_disabled":false,"rental_uris":{"android":"levelo://app?vid=060a4ff1-665e-4d86-8eef-d19188356a04","ios":"levelo://app?vid=060a4ff1-665e-4d86-8eef-d19188356a04"},"vehicle_type_id":"4","last_reported":1738934139,"current_range_meters":22400,"station_id":"ce4bgrp2rcd13ifvqc9g","pricing_plan_id":"cebpf4jnsgd1na2vs0mg"},{"bike_id":"6ff781d1-2621-44d1-b299-83b571f09432","system_id":"levelo_inurba_marseille","lat":43.32381,"lon":5.38883,"is_reserved":false,"is_disabled":false,"rental_uris":{"android":"levelo://app?vid=6ff781d1-2621-44d1-b299-83b571f09432","ios":"levelo://app?vid=6ff781d1-2621-44d1-b299-83b571f09432"},"vehicle_type_id":"4","last_reported":1738934139,"current_range_meters":22000,"station_id":"ce4bhqp2rcd13ifvqhog","pricing_plan_id":"cebpf4jnsgd1na2vs0mg"},{"bike_id":"a2e733be-b3e3-470d-b20e-7d85b62390d1","system_id":"levelo_inurba_marseille","lat":43.30107,"lon":5.39062,"is_reserved":false,"is_disabled":false,"rental_uris":{"android":"levelo://app?vid=a2e733be-b3e3-470d-b20e-7d85b62390d1","ios":"levelo://app?vid=a2e733be-b3e3-470d-b20e-7d85b62390d1"},"vehicle_type_id":"4","last_reported":1738934139,"current_range_meters":25600,"station_id":"ce4bh192rcd13ifvqdb0","pricing_plan_id":"cebpf4jnsgd1na2vs0mg"},{"bike_id":"394fb33f-d9d4-4f64-9580-174995fc4b80","system_id":"levelo_inurba_marseille","lat":43.30568,"lon":5.36543,"is_reserved":false,"is_disabled":false,"rental_uris":{"android":"levelo://app?vid=394fb33f-d9d4-4f64-9580-174995fc4b80","ios":"levelo://app?vid=394fb33f-d9d4-4f64-9580-174995fc4b80"},"vehicle_type_id":"4","last_reported":1738934139,"current_range_meters":38800,"station_id":"ce4bgs12rcd13ifvqcag","pricing_plan_id":"cebpf4jnsgd1na2vs0mg"},{"bike_id":"06c3c6db-4dcb-400d-91cc-0928e5a93f9b","system_id":"levelo_inurba_marseille","lat":43.30158,"lon":5.39625,"is_reserved":false,"is_disabled":false,"rental_uris":{"android":"levelo://app?vid=06c3c6db-4dcb-400d-91cc-0928e5a93f9b","ios":"levelo://app?vid=06c3c6db-4dcb-400d-91cc-0928e5a93f9b"},"vehicle_type_id":"4","last_reported":1738934139,"current_range_meters":16400,"station_id":"ce4bh0p2rcd13ifvqd70","pricing_plan_id":"cebpf4jnsgd1na2vs0mg"},{"bike_id":"1bd0ed6d-66a1-4d24-8429-2532d0103fd2","system_id":"levelo_inurba_marseille","lat":43.26216,"lon":5.37444,"is_reserved":false,"is_disabled":false,"rental_uris":{"android":"levelo://app?vid=1bd0ed6d-66a1-4d24-8429-2532d0103fd2","ios":"levelo://app?vid=1bd0ed6d-66a1-4d24-8429-2532d0103fd2"},"vehicle_type_id":"4","last_reported":1738934139,"current_range_meters":27600,"station_id":"ce4bhgp2rcd13ifvqfc0","pricing_plan_id":"cebpf4jnsgd1na2vs0mg"},{"bike_id":"c9d6fe7e-cd9e-4f60-9c6b-c792f0302051","system_id":"levelo_inurba_marseille","lat":43.25094,"lon":5.40289,"is_reserved":false,"is_disabled":false,"rental_uris":{"android":"levelo://app?vid=c9d6fe7e-cd9e-4f60-9c6b-c792f0302051","ios":"levelo://app?vid=c9d6fe7e-cd9e-4f60-9c6b-c792f0302051"},"vehicle_type_id":"4","last_reported":1738934139,"current_range_meters":38000,"station_id":"ce4bhlh2rcd13ifvqgig","pricing_plan_id":"cebpf4jnsgd1na2vs0mg"},{"bike_id":"013966e3-238f-4f27-83d7-59548e859f1f","system_id":"levelo_inurba_marseille","lat":43.295866,"lon":5.367399,"is_reserved":false,"is_disabled":false,"rental_uris":{"android":"levelo://app?vid=013966e3-238f-4f27-83d7-59548e859f1f","ios":"levelo://app?vid=013966e3-238f-4f27-83d7-59548e859f1f"},"vehicle_type_id":"4","last_reported":1738934139,"current_range_meters":39200,"station_id":"ce4bgph2rcd13ifvqc2g","pricing_plan_id":"cebpf4jnsgd1na2vs0mg"},{"bike_id":"c2168682-b78b-46bd-9e28-b282535bf6fd","system_id":"levelo_inurba_marseille","lat":43.30454,"lon":5.37902,"is_reserved":false,"is_disabled":false,"rental_uris":{"android":"levelo://app?vid=c2168682-b78b-46bd-9e28-b282535bf6fd","ios":"levelo://app?vid=c2168682-b78b-46bd-9e28-b282535bf6fd"},"vehicle_type_id":"4","last_reported":1738934139,"current_range_meters":31200,"station_id":"ce4bgup2rcd13ifvqcn0","pricing_plan_id":"cebpf4jnsgd1na2vs0mg"},{"bike_id":"22c39663-ee12-495c-9379-fc96f2d1ef5a","system_id":"levelo_inurba_marseille","lat":43.30148,"lon":5.37404,"is_reserved":false,"is_disabled":false,"rental_uris":{"android":"levelo://app?vid=22c39663-ee12-495c-9379-fc96f2d1ef5a","ios":"levelo://app?vid=22c39663-ee12-495c-9379-fc96f2d1ef5a"},"vehicle_type_id":"4","last_reported":1738934139,"current_range_meters":28800,"station_id":"ce4bgs92rcd13ifvqcc0","pricing_plan_id":"cebpf4jnsgd1na2vs0mg"},{"bike_id":"957f8b7e-d828-49bc-a82c-23988c526e55","system_id":"levelo_inurba_marseille","lat":43.2895,"lon":5.36637,"is_reserved":false,"is_disabled":true,"rental_uris":{"android":"levelo://app?vid=957f8b7e-d828-49bc-a82c-23988c526e55","ios":"levelo://app?vid=957f8b7e-d828-49bc-a82c-23988c526e55"},"vehicle_type_id":"4","last_reported":1738934139,"current_range_meters":38400,"station_id":"ce4bhap2rcd13ifvqek0","pricing_plan_id":"cebpf4jnsgd1na2vs0mg"},{"bike_id":"ed7e7ad0-5cb0-46c0-b26f-7e6a29732a1c","system_id":"levelo_inurba_marseille","lat":43.29973,"lon":5.41305,"is_reserved":false,"is_disabled":false,"rental_uris":{"android":"levelo://app?vid=ed7e7ad0-5cb0-46c0-b26f-7e6a29732a1c","ios":"levelo://app?vid=ed7e7ad0-5cb0-46c0-b26f-7e6a29732a1c"},"vehicle_type_id":"4","last_reported":1738934139,"current_range_meters":38800,"station_id":"ce4bhp12rcd13ifvqh9g","pricing_plan_id":"cebpf4jnsgd1na2vs0mg"},{"bike_id":"705e22ae-d578-49df-9018-5019e6b49687","system_id":"levelo_inurba_marseille","lat":43.2707,"lon":5.42277,"is_reserved":false,"is_disabled":false,"rental_uris":{"android":"levelo://app?vid=705e22ae-d578-49df-9018-5019e6b49687","ios":"levelo://app?vid=705e22ae-d578-49df-9018-5019e6b49687"},"vehicle_type_id":"4","last_reported":1738934139,"current_range_meters":19600,"station_id":"ce4bhk92rcd13ifvqgb0","pricing_plan_id":"cebpf4jnsgd1na2vs0mg"},{"bike_id":"1db0181a-d6b7-492f-b7af-e27d69c3d0c3","system_id":"levelo_inurba_marseille","lat":43.2892,"lon":5.38384,"is_reserved":false,"is_disabled":false,"rental_uris":{"android":"levelo://app?vid=1db0181a-d6b7-492f-b7af-e27d69c3d0c3","ios":"levelo://app?vid=1db0181a-d6b7-492f-b7af-e27d69c3d0c3"},"vehicle_type_id":"4","last_reported":1738934139,"current_range_meters":17200,"station_id":"ce4bh612rcd13ifvqe6g","pricing_plan_id":"cebpf4jnsgd1na2vs0mg"},{"bike_id":"fe146960-7d51-43a8-8d5f-97dd150b0e2d","system_id":"levelo_inurba_marseille","lat":43.26067,"lon":5.39415,"is_reserved":false,"is_disabled":false,"rental_uris":{"android":"levelo://app?vid=fe146960-7d51-43a8-8d5f-97dd150b0e2d","ios":"levelo://app?vid=fe146960-7d51-43a8-8d5f-97dd150b0e2d"},"vehicle_type_id":"4","last_reported":1738934139,"current_range_meters":39200,"station_id":"ce4bhh92rcd13ifvqfj0","pricing_plan_id":"cebpf4jnsgd1na2vs0mg"},{"bike_id":"ac5a05fe-27c3-4ce3-959c-e9a3cc7980ee","system_id":"levelo_inurba_marseille","lat":43.30213,"lon":5.39478,"is_reserved":false,"is_disabled":false,"rental_uris":{"android":"levelo://app?vid=ac5a05fe-27c3-4ce3-959c-e9a3cc7980ee","ios":"levelo://app?vid=ac5a05fe-27c3-4ce3-959c-e9a3cc7980ee"},"vehicle_type_id":"4","last_reported":1738934139,"current_range_meters":30400,"station_id":"ce4bh0p2rcd13ifvqd70","pricing_plan_id":"cebpf4jnsgd1na2vs0mg"},{"bike_id":"d3623035-034f-4b7e-b4f9-f342c0cc0a94","system_id":"levelo_inurba_marseille","lat":43.24078,"lon":5.37769,"is_reserved":false,"is_disabled":false,"rental_uris":{"android":"levelo://app?vid=d3623035-034f-4b7e-b4f9-f342c0cc0a94","ios":"levelo://app?vid=d3623035-034f-4b7e-b4f9-f342c0cc0a94"},"vehicle_type_id":"4","last_reported":1738934139,"current_range_meters":38800,"station_id":"ce4bhnp2rcd13ifvqgvg","pricing_plan_id":"cebpf4jnsgd1na2vs0mg"},{"bike_id":"bec99846-c6d9-4983-8a05-58ed5efc4a7e","system_id":"levelo_inurba_marseille","lat":43.30449,"lon":5.36731,"is_reserved":false,"is_disabled":false,"rental_uris":{"android":"levelo://app?vid=bec99846-c6d9-4983-8a05-58ed5efc4a7e","ios":"levelo://app?vid=bec99846-c6d9-4983-8a05-58ed5efc4a7e"},"vehicle_type_id":"4","last_reported":1738934139,"current_range_meters":39200,"station_id":"ce4bgrp2rcd13ifvqc9g","pricing_plan_id":"cebpf4jnsgd1na2vs0mg"},{"bike_id":"1752bcd0-cf90-4cca-bfc0-1708530717e9","system_id":"levelo_inurba_marseille","lat":43.28712,"lon":5.37916,"is_reserved":false,"is_disabled":false,"rental_uris":{"android":"levelo://app?vid=1752bcd0-cf90-4cca-bfc0-1708530717e9","ios":"levelo://app?vid=1752bcd0-cf90-4cca-bfc0-1708530717e9"},"vehicle_type_id":"4","last_reported":1738934139,"current_range_meters":18000,"station_id":"ce4bh9p2rcd13ifvqec0","pricing_plan_id":"cebpf4jnsgd1na2vs0mg"},{"bike_id":"341067f4-d7ed-4f99-954f-691c64a92e97","system_id":"levelo_inurba_marseille","lat":43.23185,"lon":5.39985,"is_reserved":false,"is_disabled":false,"rental_uris":{"android":"levelo://app?vid=341067f4-d7ed-4f99-954f-691c64a92e97","ios":"levelo://app?vid=341067f4-d7ed-4f99-954f-691c64a92e97"},"vehicle_type_id":"4","last_reported":1738934139,"current_range_meters":14000,"station_id":"ce4bhn12rcd13ifvqgqg","pricing_plan_id":"cebpf4jnsgd1na2vs0mg"},{"bike_id":"a6e1b439-04e4-421f-a5a6-259ce9531499","system_id":"levelo_inurba_marseille","lat":43.27055,"lon":5.40287,"is_reserved":false,"is_disabled":false,"rental_uris":{"android":"levelo://app?vid=a6e1b439-04e4-421f-a5a6-259ce9531499","ios":"levelo://app?vid=a6e1b439-04e4-421f-a5a6-259ce9531499"},"vehicle_type_id":"4","last_reported":1738934139,"current_range_meters":35200,"station_id":"ce4bhk92rcd13ifvqgc0","pricing_plan_id":"cebpf4jnsgd1na2vs0mg"},{"bike_id":"3d9e8870-3e96-498e-8528-7cac12a72a04","system_id":"levelo_inurba_marseille","lat":43.26563,"lon":5.37291,"is_reserved":false,"is_disabled":false,"rental_uris":{"android":"levelo://app?vid=3d9e8870-3e96-498e-8528-7cac12a72a04","ios":"levelo://app?vid=3d9e8870-3e96-498e-8528-7cac12a72a04"},"vehicle_type_id":"4","last_reported":1738934139,"current_range_meters":12400,"station_id":"ce4bhg12rcd13ifvqf70","pricing_plan_id":"cebpf4jnsgd1na2vs0mg"},{"bike_id":"97510a98-0f87-44c3-a753-18c4b5c915f9","system_id":"levelo_inurba_marseille","lat":43.28665,"lon":5.38647,"is_reserved":false,"is_disabled":false,"rental_uris":{"android":"levelo://app?vid=97510a98-0f87-44c3-a753-18c4b5c915f9","ios":"levelo://app?vid=97510a98-0f87-44c3-a753-18c4b5c915f9"},"vehicle_type_id":"4","last_reported":1738934139,"current_range_meters":34000,"station_id":"ce4bh492rcd13ifvqdug","pricing_plan_id":"cebpf4jnsgd1na2vs0mg"},{"bike_id":"606ae2c7-6b3a-4bc7-a8c8-6e5690e31a6a","system_id":"levelo_inurba_marseille","lat":43.28335,"lon":5.38093,"is_reserved":false,"is_disabled":false,"rental_uris":{"android":"levelo://app?vid=606ae2c7-6b3a-4bc7-a8c8-6e5690e31a6a","ios":"levelo://app?vid=606ae2c7-6b3a-4bc7-a8c8-6e5690e31a6a"},"vehicle_type_id":"4","last_reported":1738934139,"current_range_meters":30000,"station_id":"ce4bh412rcd13ifvqdr0","pricing_plan_id":"cebpf4jnsgd1na2vs0mg"},{"bike_id":"2cea2232-7423-4980-a9e6-ae7b0b9d68dd","system_id":"levelo_inurba_marseille","lat":43.29626,"lon":5.37167,"is_reserved":false,"is_disabled":false,"rental_uris":{"android":"levelo://app?vid=2cea2232-7423-4980-a9e6-ae7b0b9d68dd","ios":"levelo://app?vid=2cea2232-7423-4980-a9e6-ae7b0b9d68dd"},"vehicle_type_id":"4","last_reported":1738934139,"current_range_meters":22400,"station_id":"ce4bgnh2rcd13ifvqc0g","pricing_plan_id":"cebpf4jnsgd1na2vs0mg"},{"bike_id":"a7959608-358b-40e5-8e3e-464ab4ae9ad0","system_id":"levelo_inurba_marseille","lat":43.30255,"lon":5.4006,"is_reserved":false,"is_disabled":false,"rental_uris":{"android":"levelo://app?vid=a7959608-358b-40e5-8e3e-464ab4ae9ad0","ios":"levelo://app?vid=a7959608-358b-40e5-8e3e-464ab4ae9ad0"},"vehicle_type_id":"4","last_reported":1738934139,"current_range_meters":38000,"station_id":"ce4bgvh2rcd13ifvqcs0","pricing_plan_id":"cebpf4jnsgd1na2vs0mg"},{"bike_id":"c49b5d0b-2b87-4a70-b2a3-f379f2d62390","system_id":"levelo_inurba_marseille","lat":43.29443,"lon":5.39756,"is_reserved":false,"is_disabled":false,"rental_uris":{"android":"levelo://app?vid=c49b5d0b-2b87-4a70-b2a3-f379f2d62390","ios":"levelo://app?vid=c49b5d0b-2b87-4a70-b2a3-f379f2d62390"},"vehicle_type_id":"4","last_reported":1738934139,"current_range_meters":38800,"station_id":"ce4bh3h2rcd13ifvqdo0","pricing_plan_id":"cebpf4jnsgd1na2vs0mg"},{"bike_id":"d39a2685-ff1f-4a95-b7fe-802902b67914","system_id":"levelo_inurba_marseille","lat":43.32103,"lon":5.36782,"is_reserved":false,"is_disabled":false,"rental_uris":{"android":"levelo://app?vid=d39a2685-ff1f-4a95-b7fe-802902b67914","ios":"levelo://app?vid=d39a2685-ff1f-4a95-b7fe-802902b67914"},"vehicle_type_id":"4","last_reported":1738934139,"current_range_meters":24800,"station_id":"ce4bhrh2rcd13ifvqhug","pricing_plan_id":"cebpf4jnsgd1na2vs0mg"},{"bike_id":"bbf0701a-4b1a-4f1a-88cd-be3e8c2febd0","system_id":"levelo_inurba_marseille","lat":43.25907,"lon":5.40869,"is_reserved":false,"is_disabled":false,"rental_uris":{"android":"levelo://app?vid=bbf0701a-4b1a-4f1a-88cd-be3e8c2febd0","ios":"levelo://app?vid=bbf0701a-4b1a-4f1a-88cd-be3e8c2febd0"},"vehicle_type_id":"4","last_reported":1738934139,"current_range_meters":12800,"station_id":"ce4bhm92rcd13ifvqglg","pricing_plan_id":"cebpf4jnsgd1na2vs0mg"},{"bike_id":"ab29a302-2289-4588-8eeb-9d229359ed2e","system_id":"levelo_inurba_marseille","lat":43.2668,"lon":5.38261,"is_reserved":false,"is_disabled":false,"rental_uris":{"android":"levelo://app?vid=ab29a302-2289-4588-8eeb-9d229359ed2e","ios":"levelo://app?vid=ab29a302-2289-4588-8eeb-9d229359ed2e"},"vehicle_type_id":"4","last_reported":1738934139,"current_range_meters":10800,"station_id":"ce4bhg92rcd13ifvqf90","pricing_plan_id":"cebpf4jnsgd1na2vs0mg"},