{"last_updated":1728407299,"ttl":60,"version":"2.2","data":{"bikes":[{"bike_id":"5fa9edd5-edc8-458d-b61f-3d1ad1c8652a","system_id":"levelo_inurba_marseille","lat":43.27955,"lon":5.38726,"is_reserved":false,"is_disabled":false,"rental_uris":{"android":"levelo://app?vid=5fa9edd5-edc8-458d-b61f-3d1ad1c8652a","ios":"levelo://app?vid=5fa9edd5-edc8-458d-b61f-3d1ad1c8652a"},"vehicle_type_id":"4","last_reported":1728407299,"current_range_meters":38000,"station_id":"ce4bhg12rcd13ifvqf80","pricing_plan_id":"cebpf4jnsgd1na2vs0mg"},{"bike_id":"f1d33906-c470-40a6-8688-4a54f1d1dcea","system_id":"levelo_inurba_marseille","lat":43.27939,"lon":5.41051,"is_reserved":false,"is_disabled":false,"rental_uris":{"android":"levelo://app?vid=f1d33906-c470-40a6-8688-4a54f1d1dcea","ios":"levelo://app?vid=f1d33906-c470-40a6-8688-4a54f1d1dcea"},"vehicle_type_id":"4","last_reported":1728407299,"current_range_meters":38000,"station_id":"ce4bhnp2rcd13ifvqh0g","pricing_plan_id":"cebpf4jnsgd1na2vs0mg"},{"bike_id":"2eebc418-81a4-48d2-8a61-21c87e83362a","system_id":"levelo_inurba_marseille","lat":43.27371,"lon":5.36264,"is_reserved":false,"is_disabled":false,"rental_uris":{"android":"levelo://app?vid=2eebc418-81a4-48d2-8a61-21c87e83362a","ios":"levelo://app?vid=2eebc418-81a4-48d2-8a61-21c87e83362a"},"vehicle_type_id":"4","last_reported":1728407299,"current_range_meters":6800,"station_id":"ce4bhbh2rcd13ifvqeo0","pricing_plan_id":"cebpf4jnsgd1na2vs0mg"},{"bike_id":"a35661b2-b710-4aed-96d4-0351ce96658b","system_id":"levelo_inurba_marseille","lat":43.27616,"lon":5.36115,"is_reserved":false,"is_disabled":false,"rental_uris":{"android":"levelo://app?vid=a35661b2-b710-4aed-96d4-0351ce96658b","ios":"levelo://app?vid=a35661b2-b710-4aed-96d4-0351ce96658b"},"vehicle_type_id":"4","last_reported":1728407299,"current_range_meters":32400,"station_id":"ce4bgj92rcd13ifvqbe0","pricing_plan_id":"cebpf4jnsgd1na2vs0mg"},{"bike_id":"75f11660-7622-4c47-b2e5-57a2baeae5dd","system_id":"levelo_inurba_marseille","lat":43.27366,"lon":5.36258,"is_reserved":false,"is_disabled":false,"rental_uris":{"android":"levelo://app?vid=75f11660-7622-4c47-b2e5-57a2baeae5dd","ios":"levelo://app?vid=75f11660-7622-4c47-b2e5-57a2baeae5dd"},"vehicle_type_id":"4","last_reported":1728407299,"current_range_meters":37600,"station_id":"ce4bhbh2rcd13ifvqeo0","pricing_plan_id":"cebpf4jnsgd1na2vs0mg"},{"bike_id":"3edccbad-c604-40df-acb2-6e9d91b67298","system_id":"levelo_inurba_marseille","lat":43.23051,"lon":5.35492,"is_reserved":false,"is_disabled":false,"rental_uris":{"android":"levelo://app?vid=3edccbad-c604-40df-acb2-6e9d91b67298","ios":"levelo://app?vid=3edccbad-c604-40df-acb2-6e9d91b67298"},"vehicle_type_id":"4","last_reported":1728407299,"current_range_meters":12400,"station_id":"cpo3342slgdg3j2ifvpg","pricing_plan_id":"cebpf4jnsgd1na2vs0mg"},{"bike_id":"fb43979a-738e-4f14-9233-094664e53351","system_id":"levelo_inurba_marseille","lat":43.28151,"lon":5.42643,"is_reserved":false,"is_disabled":false,"rental_uris":{"android":"levelo://app?vid=fb43979a-738e-4f14-9233-094664e53351","ios":"levelo://app?vid=fb43979a-738e-4f14-9233-094664e53351"},"vehicle_type_id":"4","last_reported":1728407299,"current_range_meters":24800,"station_id":"ce4bhnh2rcd13ifvqgug","pricing_plan_id":"cebpf4jnsgd1na2vs0mg"},{"bike_id":"2a462c9f-7c84-4d5b-afea-a4fbe34373fe","system_id":"levelo_inurba_marseille","lat":43.29485,"lon":5.41792,"is_reserved":false,"is_disabled":false,"rental_uris":{"android":"levelo://app?vid=2a462c9f-7c84-4d5b-afea-a4fbe34373fe","ios":"levelo://app?vid=2a462c9f-7c84-4d5b-afea-a4fbe34373fe"},"vehicle_type_id":"4","last_reported":1728407299,"current_range_meters":4400,"station_id":"ce4bhph2rcd13ifvqhdg","pricing_plan_id":"cebpf4jnsgd1na2vs0mg"},{"bike_id":"e8780ec7-d38d-48e2-893f-c62d23ecbfa7","system_id":"levelo_inurba_marseille","lat":43.2826,"lon":5.35077,"is_reserved":false,"is_disabled":false,"rental_uris":{"android":"levelo://app?vid=e8780ec7-d38d-48e2-893f-c62d23ecbfa7","ios":"levelo://app?vid=e8780ec7-d38d-48e2-893f-c62d23ecbfa7"},"vehicle_type_id":"4","last_reported":1728407299,"current_range_meters":28800,"station_id":"ce4bhbp2rcd13ifvqerg","pricing_plan_id":"cebpf4jnsgd1na2vs0mg"},{"bike_id":"b70f5634-140b-4c08-a196-0333ce86708b","system_id":"levelo_inurba_marseille","lat":43.29301,"lon":5.37154,"is_reserved":false,"is_disabled":false,"rental_uris":{"android":"levelo://app?vid=b70f5634-140b-4c08-a196-0333ce86708b","ios":"levelo://app?vid=b70f5634-140b-4c08-a196-0333ce86708b"},"vehicle_type_id":"4","last_reported":1728407299,"current_range_meters":36000,"station_id":"ce4bgh92rcd13ifvqb40","pricing_plan_id":"cebpf4jnsgd1na2vs0mg"},{"bike_id":"81b07a05-4c57-4e76-99d6-5f6e3acbb201","system_id":"levelo_inurba_marseille","lat":43.23059,"lon":5.35495,"is_reserved":false,"is_disabled":false,"rental_uris":{"android":"levelo://app?vid=81b07a05-4c57-4e76-99d6-5f6e3acbb201","ios":"levelo://app?vid=81b07a05-4c57-4e76-99d6-5f6e3acbb201"},"vehicle_type_id":"4","last_reported":1728407299,"current_range_meters":6800,"station_id":"cpo3342slgdg3j2ifvpg","pricing_plan_id":"cebpf4jnsgd1na2vs0mg"},{"bike_id":"f818dff3-cdac-4fbe-8913-010f31e2bfd6","system_id":"levelo_inurba_marseille","lat":43.3032,"lon":5.40434,"is_reserved":false,"is_disabled":false,"rental_uris":{"android":"levelo://app?vid=f818dff3-cdac-4fbe-8913-010f31e2bfd6","ios":"levelo://app?vid=f818dff3-cdac-4fbe-8913-010f31e2bfd6"},"vehicle_type_id":"4","last_reported":1728407299,"current_range_meters":14800,"station_id":"ce4bh012rcd13ifvqd10","pricing_plan_id":"cebpf4jnsgd1na2vs0mg"},{"bike_id":"7c0f2c96-ef81-43b6-a152-7e830d15ecc0","system_id":"levelo_inurba_marseille","lat":43.279022,"lon":5.380121,"is_reserved":false,"is_disabled":false,"rental_uris":{"android":"levelo://app?vid=7c0f2c96-ef81-43b6-a152-7e830d15ecc0","ios":"levelo://app?vid=7c0f2c96-ef81-43b6-a152-7e830d15ecc0"},"vehicle_type_id":"4","last_reported":1728407299,"current_range_meters":30000,"station_id":"ce4bhf92rcd13ifvqf50","pricing_plan_id":"cebpf4jnsgd1na2vs0mg"},{"bike_id":"1c5e9102-64cc-4162-ac44-ab9c67ef7cf6","system_id":"levelo_inurba_marseille","lat":43.31522,"lon":5.38036,"is_reserved":false,"is_disabled":false,"rental_uris":{"android":"levelo://app?vid=1c5e9102-64cc-4162-ac44-ab9c67ef7cf6","ios":"levelo://app?vid=1c5e9102-64cc-4162-ac44-ab9c67ef7cf6"},"vehicle_type_id":"4","last_reported":1728407299,"current_range_meters":30800,"station_id":"ce4bhsp2rcd13ifvqi50","pricing_plan_id":"cebpf4jnsgd1na2vs0mg"},{"bike_id":"d6e1f3bb-2ce5-45e1-b214-286d2659aa43","system_id":"levelo_inurba_marseille","lat":43.29446,"lon":5.39756,"is_reserved":false,"is_disabled":false,"rental_uris":{"android":"levelo://app?vid=d6e1f3bb-2ce5-45e1-b214-286d2659aa43","ios":"levelo://app?vid=d6e1f3bb-2ce5-45e1-b214-286d2659aa43"},"vehicle_type_id":"4","last_reported":1728407299,"current_range_meters":7200,"station_id":"ce4bh3h2rcd13ifvqdo0","pricing_plan_id":"cebpf4jnsgd1na2vs0mg"},{"bike_id":"90b7b815-be07-4d3f-a351-671d7e515226","system_id":"levelo_inurba_marseille","lat":43.24644,"lon":5.38901,"is_reserved":false,"is_disabled":false,"rental_uris":{"android":"levelo://app?vid=90b7b815-be07-4d3f-a351-671d7e515226","ios":"levelo://app?vid=90b7b815-be07-4d3f-a351-671d7e515226"},"vehicle_type_id":"4","last_reported":1728407299,"current_range_meters":17200,"station_id":"ce4bhg12rcd13ifvqf60","pricing_plan_id":"cebpf4jnsgd1na2vs0mg"},{"bike_id":"dfc2dd38-50a3-437b-84b5-a3cc79a74dce","system_id":"levelo_inurba_marseille","lat":43.31996,"lon":5.38172,"is_reserved":false,"is_disabled":false,"rental_uris":{"android":"levelo://app?vid=dfc2dd38-50a3-437b-84b5-a3cc79a74dce","ios":"levelo://app?vid=dfc2dd38-50a3-437b-84b5-a3cc79a74dce"},"vehicle_type_id":"4","last_reported":1728407299,"current_range_meters":24400,"station_id":"ce4bhr12rcd13ifvqhpg","pricing_plan_id":"cebpf4jnsgd1na2vs0mg"},{"bike_id":"066ccb90-6b9a-4302-bde4-9c97dfce747d","system_id":"levelo_inurba_marseille","lat":43.33732,"lon":5.3919,"is_reserved":false,"is_disabled":false,"rental_uris":{"android":"levelo://app?vid=066ccb90-6b9a-4302-bde4-9c97dfce747d","ios":"levelo://app?vid=066ccb90-6b9a-4302-bde4-9c97dfce747d"},"vehicle_type_id":"4","last_reported":1728407299,"current_range_meters":36800,"station_id":"ce4bhr92rcd13ifvqhsg","pricing_plan_id":"cebpf4jnsgd1na2vs0mg"},{"bike_id":"a89d05e2-4401-4257-8894-2bb51b22c9af","system_id":"levelo_inurba_marseille","lat":43.284882,"lon":5.350034,"is_reserved":false,"is_disabled":false,"rental_uris":{"android":"levelo://app?vid=a89d05e2-4401-4257-8894-2bb51b22c9af","ios":"levelo://app?vid=a89d05e2-4401-4257-8894-2bb51b22c9af"},"vehicle_type_id":"4","last_reported":1728407299,"current_range_meters":31200,"station_id":"ce4bhbh2rcd13ifvqepg","pricing_plan_id":"cebpf4jnsgd1na2vs0mg"},{"bike_id":"35db5aab-a536-4286-87d7-90ec43783f24","system_id":"levelo_inurba_marseille","lat":43.23193,"lon":5.35554,"is_reserved":false,"is_disabled":false,"rental_uris":{"android":"levelo://app?vid=35db5aab-a536-4286-87d7-90ec43783f24","ios":"levelo://app?vid=35db5aab-a536-4286-87d7-90ec43783f24"},"vehicle_type_id":"4","last_reported":1728407299,"current_range_meters":28800,"station_id":"ce4bhu92rcd13ifvqi70","pricing_plan_id":"cebpf4jnsgd1na2vs0mg"},{"bike_id":"38ddae5c-ea52-44f4-bf89-1782607dbc3e","system_id":"levelo_inurba_marseille","lat":43.2953,"lon":5.38542,"is_reserved":false,"is_disabled":false,"rental_uris":{"android":"levelo://app?vid=38ddae5c-ea52-44f4-bf89-1782607dbc3e","ios":"levelo://app?vid=38ddae5c-ea52-44f4-bf89-1782607dbc3e"},"vehicle_type_id":"4","last_reported":1728407299,"current_range_meters":6400,"station_id":"ce4bgih2rcd13ifvqba0","pricing_plan_id":"cebpf4jnsgd1na2vs0mg"},{"bike_id":"f9be3472-8874-4637-81c3-c4d057676443","system_id":"levelo_inurba_marseille","lat":43.23182,"lon":5.39987,"is_reserved":false,"is_disabled":false,"rental_uris":{"android":"levelo://app?vid=f9be3472-8874-4637-81c3-c4d057676443","ios":"levelo://app?vid=f9be3472-8874-4637-81c3-c4d057676443"},"vehicle_type_id":"4","last_reported":1728407299,"current_range_meters":8000,"station_id":"ce4bhn12rcd13ifvqgqg","pricing_plan_id":"cebpf4jnsgd1na2vs0mg"},{"bike_id":"d74661f0-830d-4988-b75c-49337b55f926","system_id":"levelo_inurba_marseille","lat":43.32319,"lon":5.38281,"is_reserved":false,"is_disabled":false,"rental_uris":{"android":"levelo://app?vid=d74661f0-830d-4988-b75c-49337b55f926","ios":"levelo://app?vid=d74661f0-830d-4988-b75c-49337b55f926"},"vehicle_type_id":"4","last_reported":1728407299,"current_range_meters":30800,"station_id":"ce4bhr12rcd13ifvqhqg","pricing_plan_id":"cebpf4jnsgd1na2vs0mg"},{"bike_id":"2bf875b1-217c-4d53-8c22-089c04aac54e","system_id":"levelo_inurba_marseille","lat":43.28045,"lon":5.36948,"is_reserved":false,"is_disabled":false,"rental_uris":{"android":"levelo://app?vid=2bf875b1-217c-4d53-8c22-089c04aac54e","ios":"levelo://app?vid=2bf875b1-217c-4d53-8c22-089c04aac54e"},"vehicle_type_id":"4","last_reported":1728407299,"current_range_meters":4000,"station_id":"ce4bha12rcd13ifvqef0","pricing_plan_id":"cebpf4jnsgd1na2vs0mg"},{"bike_id":"534ac58e-6f94-4ffd-a21b-9b985878ee84","system_id":"levelo_inurba_marseille","lat":43.25722,"lon":5.41111,"is_reserved":false,"is_disabled":false,"rental_uris":{"android":"levelo://app?vid=534ac58e-6f94-4ffd-a21b-9b985878ee84","ios":"levelo://app?vid=534ac58e-6f94-4ffd-a21b-9b985878ee84"},"vehicle_type_id":"4","last_reported":1728407299,"current_range_meters":8400,"station_id":"ce4bhkp2rcd13ifvqgd0","pricing_plan_id":"cebpf4jnsgd1na2vs0mg"},{"bike_id":"489eca4c-d1e1-4792-9142-2236b59b9125","system_id":"levelo_inurba_marseille","lat":43.2927,"lon":5.37096,"is_reserved":false,"is_disabled":false,"rental_uris":{"android":"levelo://app?vid=489eca4c-d1e1-4792-9142-2236b59b9125","ios":"levelo://app?vid=489eca4c-d1e1-4792-9142-2236b59b9125"},"vehicle_type_id":"4","last_reported":1728407299,"current_range_meters":26800,"station_id":"ce4bgh92rcd13ifvqb40","pricing_plan_id":"cebpf4jnsgd1na2vs0mg"},{"bike_id":"c3709187-b7c3-4c76-b7ac-40bc175c0681","system_id":"levelo_inurba_marseille","lat":43.26791,"lon":5.39414,"is_reserved":false,"is_disabled":false,"rental_uris":{"android":"levelo://app?vid=c3709187-b7c3-4c76-b7ac-40bc175c0681","ios":"levelo://app?vid=c3709187-b7c3-4c76-b7ac-40bc175c0681"},"vehicle_type_id":"4","last_reported":1728407299,"current_range_meters":8800,"station_id":"ce4bhh12rcd13ifvqfg0","pricing_plan_id":"cebpf4jnsgd1na2vs0mg"},{"bike_id":"84e21878-8b65-4319-a70a-9fe9696e3b0b","system_id":"levelo_inurba_marseille","lat":43.2606,"lon":5.39401,"is_reserved":false,"is_disabled":false,"rental_uris":{"android":"levelo://app?vid=84e21878-8b65-4319-a70a-9fe9696e3b0b","ios":"levelo://app?vid=84e21878-8b65-4319-a70a-9fe9696e3b0b"},"vehicle_type_id":"4","last_reported":1728407299,"current_range_meters":8400,"station_id":"ce4bhh92rcd13ifvqfj0","pricing_plan_id":"cebpf4jnsgd1na2vs0mg"},{"bike_id":"0f5c3324-0c07-4c43-9c8d-92bc0feff325","system_id":"levelo_inurba_marseille","lat":43.28933,"lon":5.36643,"is_reserved":false,"is_disabled":false,"rental_uris":{"android":"levelo://app?vid=0f5c3324-0c07-4c43-9c8d-92bc0feff325","ios":"levelo://app?vid=0f5c3324-0c07-4c43-9c8d-92bc0feff325"},"vehicle_type_id":"4","last_reported":1728407299,"current_range_meters":22400,"station_id":"ce4bhap2rcd13ifvqek0","pricing_plan_id":"cebpf4jnsgd1na2vs0mg"},{"bike_id":"fee671b3-8f54-432c-bcb8-586d6db11210","system_id":"levelo_inurba_marseille","lat":43.2836,"lon":5.38098,"is_reserved":false,"is_disabled":false,"rental_uris":{"android":"levelo://app?vid=fee671b3-8f54-432c-bcb8-586d6db11210","ios":"levelo://app?vid=fee671b3-8f54-432c-bcb8-586d6db11210"},"vehicle_type_id":"4","last_reported":1728407299,"current_range_meters":12800,"station_id":"ce4bh412rcd13ifvqdr0","pricing_plan_id":"cebpf4jnsgd1na2vs0mg"},{"bike_id":"72f390d6-8036-4225-a9fd-bbdc6e34eeea","system_id":"levelo_inurba_marseille","lat":43.23193,"lon":5.39989,"is_reserved":false,"is_disabled":false,"rental_uris":{"android":"levelo://app?vid=72f390d6-8036-4225-a9fd-bbdc6e34eeea","ios":"levelo://app?vid=72f390d6-8036-4225-a9fd-bbdc6e34eeea"},"vehicle_type_id":"4","last_reported":1728407299,"current_range_meters":37600,"station_id":"ce4bhn12rcd13ifvqgqg","pricing_plan_id":"cebpf4jnsgd1na2vs0mg"},{"bike_id":"fa222c76-ccf9-4887-8d65-276edcfdc784","system_id":"levelo_inurba_marseille","lat":43.25575,"lon":5.3823,"is_reserved":false,"is_disabled":false,"rental_uris":{"android":"levelo://app?vid=fa222c76-ccf9-4887-8d65-276edcfdc784","ios":"levelo://app?vid=fa222c76-ccf9-4887-8d65-276edcfdc784"},"vehicle_type_id":"4","last_reported":1728407299,"current_range_meters":27200,"station_id":"ce4bhih2rcd13ifvqfs0","pricing_plan_id":"cebpf4jnsgd1na2vs0mg"},{"bike_id":"d5414e04-d41a-433f-b321-60dbd78a2576","system_id":"levelo_inurba_marseille","lat":43.24805,"lon":5.37455,"is_reserved":false,"is_disabled":false,"rental_uris":{"android":"levelo://app?vid=d5414e04-d41a-433f-b321-60dbd78a2576","ios":"levelo://app?vid=d5414e04-d41a-433f-b321-60dbd78a2576"},"vehicle_type_id":"4","last_reported":1728407299,"current_range_meters":38800,"station_id":"ce4bhgh2rcd13ifvqfb0","pricing_plan_id":"cebpf4jnsgd1na2vs0mg"},{"bike_id":"1108f945-2562-4a37-b07f-6ae5d87c264e","system_id":"levelo_inurba_marseille","lat":43.337444,"lon":5.374475,"is_reserved":false,"is_disabled":false,"rental_uris":{"android":"levelo://app?vid=1108f945-2562-4a37-b07f-6ae5d87c264e","ios":"levelo://app?vid=1108f945-2562-4a37-b07f-6ae5d87c264e"},"vehicle_type_id":"4","last_reported":1728407299,"current_range_meters":36800,"station_id":"","pricing_plan_id":"cebpf4jnsgd1na2vs0mg"},{"bike_id":"c22fdad2-64a0-4224-b01d-89e6400775be","system_id":"levelo_inurba_marseille","lat":43.23952,"lon":5.36639,"is_reserved":false,"is_disabled":false,"rental_uris":{"android":"levelo://app?vid=c22fdad2-64a0-4224-b01d-89e6400775be","ios":"levelo://app?vid=c22fdad2-64a0-4224-b01d-89e6400775be"},"vehicle_type_id":"4","last_reported":1728407299,"current_range_meters":20400,"station_id":"ce4bhi12rcd13ifvqfp0","pricing_plan_id":"cebpf4jnsgd1na2vs0mg"},{"bike_id":"3f5f0a84-f17b-43a2-b94a-37c17215be9f","system_id":"levelo_inurba_marseille","lat":43.25082,"lon":5.39524,"is_reserved":false,"is_disabled":false,"rental_uris":{"android":"levelo://app?vid=3f5f0a84-f17b-43a2-b94a-37c17215be9f","ios":"levelo://app?vid=3f5f0a84-f17b-43a2-b94a-37c17215be9f"},"vehicle_type_id":"4","last_reported":1728407299,"current_range_meters":9600,"station_id":"","pricing_plan_id":"cebpf4jnsgd1na2vs0mg"},{"bike_id":"d97ef086-b101-46be-b171-9933c814020e","system_id":"levelo_inurba_marseille","lat":43.32543,"lon":5.4143,"is_reserved":false,"is_disabled":false,"rental_uris":{"android":"levelo://app?vid=d97ef086-b101-46be-b171-9933c814020e","ios":"levelo://app?vid=d97ef086-b101-46be-b171-9933c814020e"},"vehicle_type_id":"4","last_reported":1728407299,"current_range_meters":25200,"station_id":"ce4bhq12rcd13ifvqhhg","pricing_plan_id":"cebpf4jnsgd1na2vs0mg"},{"bike_id":"4424df3f-9656-454e-85aa-73242bc77181","system_id":"levelo_inurba_marseille","lat":43.28859,"lon":5.39309,"is_reserved":false,"is_disabled":false,"rental_uris":{"android":"levelo://app?vid=4424df3f-9656-454e-85aa-73242bc77181","ios":"levelo://app?vid=4424df3f-9656-454e-85aa-73242bc77181"},"vehicle_type_id":"4","last_reported":1728407299,"current_range_meters":4800,"station_id":"ce4bh2p2rcd13ifvqdi0","pricing_plan_id":"cebpf4jnsgd1na2vs0mg"},{"bike_id":"87f98d4c-792a-460b-9f60-26f99fa0a906","system_id":"levelo_inurba_marseille","lat":43.27429,"lon":5.39414,"is_reserved":false,"is_disabled":false,"rental_uris":{"android":"levelo://app?vid=87f98d4c-792a-460b-9f60-26f99fa0a906","ios":"levelo://app?vid=87f98d4c-792a-460b-9f60-26f99fa0a906"},"vehicle_type_id":"4","last_reported":1728407299,"current_range_meters":2000,"station_id":"ce4bhdp2rcd13ifvqf20","pricing_plan_id":"cebpf4jnsgd1na2vs0mg"},{"bike_id":"75335d2f-d722-42cf-a073-0955fe1dc611","system_id":"levelo_inurba_marseille","lat":43.33017,"lon":5.3904,"is_reserved":false,"is_disabled":false,"rental_uris":{"android":"levelo://app?vid=75335d2f-d722-42cf-a073-0955fe1dc611","ios":"levelo://app?vid=75335d2f-d722-42cf-a073-0955fe1dc611"},"vehicle_type_id":"4","last_reported":1728407299,"current_range_meters":38800,"station_id":"ce4bhr92rcd13ifvqhrg","pricing_plan_id":"cebpf4jnsgd1na2vs0mg"},{"bike_id":"25448a7f-3228-4095-8856-fec1f5335c74","system_id":"levelo_inurba_marseille","lat":43.29037,"lon":5.37557,"is_reserved":false,"is_disabled":false,"rental_uris":{"android":"levelo://app?vid=25448a7f-3228-4095-8856-fec1f5335c74","ios":"levelo://app?vid=25448a7f-3228-4095-8856-fec1f5335c74"},"vehicle_type_id":"4","last_reported":1728407299,"current_range_meters":21600,"station_id":"ce4bhh12rcd13ifvqfg0","pricing_plan_id":"cebpf4jnsgd1na2vs0mg"},{"bike_id":"8f5f0414-4a7d-494c-b06e-b66dd4ecf48c","system_id":"levelo_inurba_marseille","lat":43.28074,"lon":5.39661,"is_reserved":false,"is_disabled":false,"rental_uris":{"android":"levelo://app?vid=8f5f0414-4a7d-494c-b06e-b66dd4ecf48c","ios":"levelo://app?vid=8f5f0414-4a7d-494c-b06e-b66dd4ecf48c"},"vehicle_type_id":"4","last_reported":1728407299,"current_range_meters":24800,"station_id":"ce4bho12rcd13ifvqh2g","pricing_plan_id":"cebpf4jnsgd1na2vs0mg"},{"bike_id":"c12c46a4-bd86-493d-803e-5d507cd7924b","system_id":"levelo_inurba_marseille","lat":43.23196,"lon":5.35547,"is_reserved":false,"is_disabled":false,"rental_uris":{"android":"levelo://app?vid=c12c46a4-bd86-493d-803e-5d507cd7924b","ios":"levelo://app?vid=c12c46a4-bd86-493d-803e-5d507cd7924b"},"vehicle_type_id":"4","last_reported":1728407299,"current_range_meters":17200,"station_id":"ce4bhu92rcd13ifvqi70","pricing_plan_id":"cebpf4jnsgd1na2vs0mg"},{"bike_id":"1e22ea5d-d406-4b63-92d6-06a783dc0af8","system_id":"levelo_inurba_marseille","lat":43.2319,"lon":5.39977,"is_reserved":false,"is_disabled":false,"rental_uris":{"android":"levelo://app?vid=1e22ea5d-d406-4b63-92d6-06a783dc0af8","ios":"levelo://app?vid=1e22ea5d-d406-4b63-92d6-06a783dc0af8"},"vehicle_type_id":"4","last_reported":1728407299,"current_range_meters":17200,"station_id":"ce4bhn12rcd13ifvqgqg","pricing_plan_id":"cebpf4jnsgd1na2vs0mg"},{"bike_id":"45f0031b-c285-4f97-b3ed-122e32c9da18","system_id":"levelo_inurba_marseille","lat":43.2509,"lon":5.39522,"is_reserved":false,"is_disabled":false,"rental_uris":{"android":"levelo://app?vid=45f0031b-c285-4f97-b3ed-122e32c9da18","ios":"levelo://app?vid=45f0031b-c285-4f97-b3ed-122e32c9da18"},"vehicle_type_id":"4","last_reported":1728407299,"current_range_meters":18000,"station_id":"ce4bhm12rcd13ifvqgkg","pricing_plan_id":"cebpf4jnsgd1na2vs0mg"},{"bike_id":"d185fa09-3df0-43cc-a82a-8fc41b649c31","system_id":"levelo_inurba_marseille","lat":43.27946,"lon":5.41048,"is_reserved":false,"is_disabled":false,"rental_uris":{"android":"levelo://app?vid=d185fa09-3df0-43cc-a82a-8fc41b649c31","ios":"levelo://app?vid=d185fa09-3df0-43cc-a82a-8fc41b649c31"},"vehicle_type_id":"4","last_reported":1728407299,"current_range_meters":33600,"station_id":"ce4bhnp2rcd13ifvqh0g","pricing_plan_id":"cebpf4jnsgd1na2vs0mg"},{"bike_id":"662f4970-f45a-4eb7-8b5b-5f2d14dbdf57","system_id":"levelo_inurba_marseille","lat":43.26682,"lon":5.38272,"is_reserved":false,"is_disabled":false,"rental_uris":{"android":"levelo://app?vid=662f4970-f45a-4eb7-8b5b-5f2d14dbdf57","ios":"levelo://app?vid=662f4970-f45a-4eb7-8b5b-5f2d14dbdf57"},"vehicle_type_id":"4","last_reported":1728407299,"current_range_meters":36800,"station_id":"ce4bhg92rcd13ifvqf90","pricing_plan_id":"cebpf4jnsgd1na2vs0mg"},{"bike_id":"9df3dbc9-5f21-44b9-a06d-08e401419d18","system_id":"levelo_inurba_marseille","lat":43.3414,"lon":5.40902,"is_reserved":false,"is_disabled":false,"rental_uris":{"android":"levelo://app?vid=9df3dbc9-5f21-44b9-a06d-08e401419d18","ios":"levelo://app?vid=9df3dbc9-5f21-44b9-a06d-08e401419d18"},"vehicle_type_id":"4","last_reported":1728407299,"current_range_meters":9200,"station_id":"ce4bhqh2rcd13ifvqhlg","pricing_plan_id":"cebpf4jnsgd1na2vs0mg"},{"bike_id":"69a68b64-449c-4b1a-ba26-ac8a6d87c6a9","system_id":"levelo_inurba_marseille","lat":43.28401,"lon":5.37519,"is_reserved":false,"is_disabled":false,"rental_uris":{"android":"levelo://app?vid=69a68b64-449c-4b1a-ba26-ac8a6d87c6a9","ios":"levelo://app?vid=69a68b64-449c-4b1a-ba26-ac8a6d87c6a9"},"vehicle_type_id":"4","last_reported":1728407299,"current_range_meters":3200,"station_id":"ce4bh412rcd13ifvqds0","pricing_plan_id":"cebpf4jnsgd1na2vs0mg"},{"bike_id":"ec12cc89-69db-4cfc-ab79-2fb9bcfa8e8b","system_id":"levelo_inurba_marseille","lat":43.29726,"lon":5.37687,"is_reserved":false,"is_disabled":false,"rental_uris":{"android":"levelo://app?vid=ec12cc89-69db-4cfc-ab79-2fb9bcfa8e8b","ios":"levelo://app?vid=ec12cc89-69db-4cfc-ab79-2fb9bcfa8e8b"},"vehicle_type_id":"4","last_reported":1728407299,"current_range_meters":39200,"station_id":"ce4bgkh2rcd13ifvqbl0","pricing_plan_id":"cebpf4jnsgd1na2vs0mg"},{"bike_id":"ce0b03a7-4b03-4bd7-928b-a4a84159b584","system_id":"levelo_inurba_marseille","lat":43.23962,"lon":5.36634,"is_reserved":false,"is_disabled":false,"rental_uris":{"android":"levelo://app?vid=ce0b03a7-4b03-4bd7-928b-a4a84159b584","ios":"levelo://app?vid=ce0b03a7-4b03-4bd7-928b-a4a84159b584"},"vehicle_type_id":"4","last_reported":1728407299,"current_range_meters":28800,"station_id":"ce4bhi12rcd13ifvqfp0","pricing_plan_id":"cebpf4jnsgd1na2vs0mg"},{"bike_id":"02543514-ee12-4c74-b77f-01b4247c0182","system_id":"levelo_inurba_marseille","lat":43.31529,"lon":5.38037,"is_reserved":false,"is_disabled":false,"rental_uris":{"android":"levelo://app?vid=02543514-ee12-4c74-b77f-01b4247c0182","ios":"levelo://app?vid=02543514-ee12-4c74-b77f-01b4247c0182"},"vehicle_type_id":"4","last_reported":1728407299,"current_range_meters":36400,"station_id":"ce4bhsp2rcd13ifvqi50","pricing_plan_id":"cebpf4jnsgd1na2vs0mg"},{"bike_id":"6b5668a9-0029-4b95-8860-61cea6d5c551","system_id":"levelo_inurba_marseille","lat":43.31023,"lon":5.38439,"is_reserved":false,"is_disabled":false,"rental_uris":{"android":"levelo://app?vid=6b5668a9-0029-4b95-8860-61cea6d5c551","ios":"levelo://app?vid=6b5668a9-0029-4b95-8860-61cea6d5c551"},"vehicle_type_id":"4","last_reported":1728407299,"current_range_meters":37600,"station_id":"","pricing_plan_id":"cebpf4jnsgd1na2vs0mg"},{"bike_id":"d00a3477-782a-4de0-b711-15ed9dd434f4","system_id":"levelo_inurba_marseille","lat":43.23054,"lon":5.35488,"is_reserved":false,"is_disabled":false,"rental_uris":{"android":"levelo://app?vid=d00a3477-782a-4de0-b711-15ed9dd434f4","ios":"levelo://app?vid=d00a3477-782a-4de0-b711-15ed9dd434f4"},"vehicle_type_id":"4","last_reported":1728407299,"current_range_meters":3200,"station_id":"cpo3342slgdg3j2ifvpg","pricing_plan_id":"cebpf4jnsgd1na2vs0mg"},{"bike_id":"927d1a21-e3c7-4353-b172-daf80bceb075","system_id":"levelo_inurba_marseille","lat":43.31333,"lon":5.396961,"is_reserved":false,"is_disabled":false,"rental_uris":{"android":"levelo://app?vid=927d1a21-e3c7-4353-b172-daf80bceb075","ios":"levelo://app?vid=927d1a21-e3c7-4353-b172-daf80bceb075"},"vehicle_type_id":"4","last_reported":1728407299,"current_range_meters":16400,"station_id":"ce4bgvp2rcd13ifvqcu0","pricing_plan_id":"cebpf4jnsgd1na2vs0mg"},{"bike_id":"1a16b4b2-3882-45ac-8e9c-156fab61c883","system_id":"levelo_inurba_marseille","lat":43.2707,"lon":5.42281,"is_reserved":false,"is_disabled":false,"rental_uris":{"android":"levelo://app?vid=1a16b4b2-3882-45ac-8e9c-156fab61c883","ios":"levelo://app?vid=1a16b4b2-3882-45ac-8e9c-156fab61c883"},"vehicle_type_id":"4","last_reported":1728407299,"current_range_meters":6000,"station_id":"ce4bhk92rcd13ifvqgb0","pricing_plan_id":"cebpf4jnsgd1na2vs0mg"},{"bike_id":"ea8a93ce-b883-44f2-94ec-00cd80589134","system_id":"levelo_inurba_marseille","lat":43.30881,"lon":5.39655,"is_reserved":false,"is_disabled":false,"rental_uris":{"android":"levelo://app?vid=ea8a93ce-b883-44f2-94ec-00cd80589134","ios":"levelo://app?vid=ea8a93ce-b883-44f2-94ec-00cd80589134"},"vehicle_type_id":"4","last_reported":1728407299,"current_range_meters":5600,"station_id":"ce4bh012rcd13ifvqcv0","pricing_plan_id":"cebpf4jnsgd1na2vs0mg"},{"bike_id":"e8f38f77-6572-42be-9296-0cbe6e7cb972","system_id":"levelo_inurba_marseille","lat":43.23054,"lon":5.35492,"is_reserved":false,"is_disabled":false,"rental_uris":{"android":"levelo://app?vid=e8f38f77-6572-42be-9296-0cbe6e7cb972","ios":"levelo://app?vid=e8f38f77-6572-42be-9296-0cbe6e7cb972"},"vehicle_type_id":"4","last_reported":1728407299,"current_range_meters":30800,"station_id":"cpo3342slgdg3j2ifvpg","pricing_plan_id":"cebpf4jnsgd1na2vs0mg"},{"bike_id":"f8ef0ac6-9f31-44e7-ba16-e1c2c9caa414","system_id":"levelo_inurba_marseille","lat":43.28929,"lon":5.36395,"is_reserved":false,"is_disabled":false,"rental_uris":{"android":"levelo://app?vid=f8ef0ac6-9f31-44e7-ba16-e1c2c9caa414","ios":"levelo://app?vid=f8ef0ac6-9f31-44e7-ba16-e1c2c9caa414"},"vehicle_type_id":"4","last_reported":1728407299,"current_range_meters":5600,"station_id":"ce4bhc92rcd13ifvqetg","pricing_plan_id":"cebpf4jnsgd1na2vs0mg"},{"bike_id":"77d131a6-db5f-44eb-adb1-7fc7032d111b","system_id":"levelo_inurba_marseille","lat":43.24654,"lon":5.38895,"is_reserved":false,"is_disabled":false,"rental_uris":{"android":"levelo://app?vid=77d131a6-db5f-44eb-adb1-7fc7032d111b","ios":"levelo://app?vid=77d131a6-db5f-44eb-adb1-7fc7032d111b"},"vehicle_type_id":"4","last_reported":1728407299,"current_range_meters":11600,"station_id":"ce4bhg12rcd13ifvqf60","pricing_plan_id":"cebpf4jnsgd1na2vs0mg"},{"bike_id":"edaf4b36-393a-4ca6-8e5f-35fb0a688fdc","system_id":"levelo_inurba_marseille","lat":43.27997,"lon":5.40014,"is_reserved":false,"is_disabled":false,"rental_uris":{"android":"levelo://app?vid=edaf4b36-393a-4ca6-8e5f-35fb0a688fdc","ios":"levelo://app?vid=edaf4b36-393a-4ca6-8e5f-35fb0a688fdc"},"vehicle_type_id":"4","last_reported":1728407299,"current_range_meters":10000,"station_id":"ce4bho92rcd13ifvqh4g","pricing_plan_id":"cebpf4jnsgd1na2vs0mg"},{"bike_id":"29b24828-acbf-426a-b4d2-49246b817085","system_id":"levelo_inurba_marseille","lat":43.31328,"lon":5.39693,"is_reserved":false,"is_disabled":false,"rental_uris":{"android":"levelo://app?vid=29b24828-acbf-426a-b4d2-49246b817085","ios":"levelo://app?vid=29b24828-acbf-426a-b4d2-49246b817085"},"vehicle_type_id":"4","last_reported":1728407299,"current_range_meters":2000,"station_id":"ce4bgvp2rcd13ifvqcu0","pricing_plan_id":"cebpf4jnsgd1na2vs0mg"},{"bike_id":"b658c143-43b8-4433-a0d9-a48b3166f91e","system_id":"levelo_inurba_marseille","lat":43.31079,"lon":5.42433,"is_reserved":false,"is_disabled":false,"rental_uris":{"android":"levelo://app?vid=b658c143-43b8-4433-a0d9-a48b3166f91e","ios":"levelo://app?vid=b658c143-43b8-4433-a0d9-a48b3166f91e"},"vehicle_type_id":"4","last_reported":1728407299,"current_range_meters":12400,"station_id":"ce4bhp92rcd13ifvqhag","pricing_plan_id":"cebpf4jnsgd1na2vs0mg"},{"bike_id":"b5142c12-3f3f-452c-853c-bcb33ce12fbf","system_id":"levelo_inurba_marseille","lat":43.23194,"lon":5.35551,"is_reserved":false,"is_disabled":false,"rental_uris":{"android":"levelo://app?vid=b5142c12-3f3f-452c-853c-bcb33ce12fbf","ios":"levelo://app?vid=b5142c12-3f3f-452c-853c-bcb33ce12fbf"},"vehicle_type_id":"4","last_reported":1728407299,"current_range_meters":36800,"station_id":"ce4bhu92rcd13ifvqi70","pricing_plan_id":"cebpf4jnsgd1na2vs0mg"},{"bike_id":"21de6ba0-bc03-48e1-8d9f-f875bba9c5b9","system_id":"levelo_inurba_marseille","lat":43.308,"lon":5.43522,"is_reserved":false,"is_disabled":false,"rental_uris":{"android":"levelo://app?vid=21de6ba0-bc03-48e1-8d9f-f875bba9c5b9","ios":"levelo://app?vid=21de6ba0-bc03-48e1-8d9f-f875bba9c5b9"},"vehicle_type_id":"4","last_reported":1728407299,"current_range_meters":12000,"station_id":"ce4bhph2rcd13ifvqheg","pricing_plan_id":"cebpf4jnsgd1na2vs0mg"},{"bike_id":"87bebd4b-4901-423c-8c6c-709c9d49c842","system_id":"levelo_inurba_marseille","lat":43.28701,"lon":5.39988,"is_reserved":false,"is_disabled":false,"rental_uris":{"android":"levelo://app?vid=87bebd4b-4901-423c-8c6c-709c9d49c842","ios":"levelo://app?vid=87bebd4b-4901-423c-8c6c-709c9d49c842"},"vehicle_type_id":"4","last_reported":1728407299,"current_range_meters":9600,"station_id":"ce4bho92rcd13ifvqh3g","pricing_plan_id":"cebpf4jnsgd1na2vs0mg"},{"bike_id":"68fe04c0-5d75-45e6-beba-6d59590df5a2","system_id":"levelo_inurba_marseille","lat":43.30798,"lon":5.43522,"is_reserved":false,"is_disabled":false,"rental_uris":{"android":"levelo://app?vid=68fe04c0-5d75-45e6-beba-6d59590df5a2","ios":"levelo://app?vid=68fe04c0-5d75-45e6-beba-6d59590df5a2"},"vehicle_type_id":"4","last_reported":1728407299,"current_range_meters":9200,"station_id":"ce4bhph2rcd13ifvqheg","pricing_plan_id":"cebpf4jnsgd1na2vs0mg"},{"bike_id":"93d45870-2e1c-4ed1-9664-7b219a4ed443","system_id":"levelo_inurba_marseille","lat":43.22927,"lon":5.35381,"is_reserved":false,"is_disabled":false,"rental_uris":{"android":"levelo://app?vid=93d45870-2e1c-4ed1-9664-7b219a4ed443","ios":"levelo://app?vid=93d45870-2e1c-4ed1-9664-7b219a4ed443"},"vehicle_type_id":"4","last_reported":1728407299,"current_range_meters":30400,"station_id":"cpo3532slgdg3j2ikp40","pricing_plan_id":"cebpf4jnsgd1na2vs0mg"},{"bike_id":"5c2a1afd-c7b8-471d-933a-b62d7b52a4ec","system_id":"levelo_inurba_marseille","lat":43.3021,"lon":5.3946,"is_reserved":false,"is_disabled":false,"rental_uris":{"android":"levelo://app?vid=5c2a1afd-c7b8-471d-933a-b62d7b52a4ec","ios":"levelo://app?vid=5c2a1afd-c7b8-471d-933a-b62d7b52a4ec"},"vehicle_type_id":"4","last_reported":1728407299,"current_range_meters":37600,"station_id":"ce4bh0p2rcd13ifvqd70","pricing_plan_id":"cebpf4jnsgd1na2vs0mg"},{"bike_id":"66e170f6-a06c-495f-8c62-3a3b52c47a17","system_id":"levelo_inurba_marseille","lat":43.24662,"lon":5.38173,"is_reserved":false,"is_disabled":false,"rental_uris":{"android":"levelo://app?vid=66e170f6-a06c-495f-8c62-3a3b52c47a17","ios":"levelo://app?vid=66e170f6-a06c-495f-8c62-3a3b52c47a17"},"vehicle_type_id":"4","last_reported":1728407299,"current_range_meters":39200,"station_id":"ce4bhih2rcd13ifvqfr0","pricing_plan_id":"cebpf4jnsgd1na2vs0mg"},{"bike_id":"b8f98367-7240-4d4c-bb05-363735c26f70","system_id":"levelo_inurba_marseille","lat":43.28617,"lon":5.35107,"is_reserved":false,"is_disabled":false,"rental_uris":{"android":"levelo://app?vid=b8f98367-7240-4d4c-bb05-363735c26f70","ios":"levelo://app?vid=b8f98367-7240-4d4c-bb05-363735c26f70"},"vehicle_type_id":"4","last_reported":1728407299,"current_range_meters":6800,"station_id":"ce4bhch2rcd13ifvqeug","pricing_plan_id":"cebpf4jnsgd1na2vs0mg"},{"bike_id":"dc772bd6-921c-4b3a-8146-3f2a05762cf3","system_id":"levelo_inurba_marseille","lat":43.28511,"lon":5.38398,"is_reserved":false,"is_disabled":false,"rental_uris":{"android":"levelo://app?vid=dc772bd6-921c-4b3a-8146-3f2a05762cf3","ios":"levelo://app?vid=dc772bd6-921c-4b3a-8146-3f2a05762cf3"},"vehicle_type_id":"4","last_reported":1728407299,"current_range_meters":12000,"station_id":"ce4bhi12rcd13ifvqfo0","pricing_plan_id":"cebpf4jnsgd1na2vs0mg"},{"bike_id":"017308ad-f481-4218-b7f9-5a36c9fab05f","system_id":"levelo_inurba_marseille","lat":43.23195,"lon":5.35554,"is_reserved":false,"is_disabled":false,"rental_uris":{"android":"levelo://app?vid=017308ad-f481-4218-b7f9-5a36c9fab05f","ios":"levelo://app?vid=017308ad-f481-4218-b7f9-5a36c9fab05f"},"vehicle_type_id":"4","last_reported":1728407299,"current_range_meters":23200,"station_id":"ce4bhu92rcd13ifvqi70","pricing_plan_id":"cebpf4jnsgd1na2vs0mg"},{"bike_id":"7690afec-835b-45b0-afb2-fb2b96ad3eb5","system_id":"levelo_inurba_marseille","lat":43.27903,"lon":5.38011,"is_reserved":false,"is_disabled":false,"rental_uris":{"android":"levelo://app?vid=7690afec-835b-45b0-afb2-fb2b96ad3eb5","ios":"levelo://app?vid=7690afec-835b-45b0-afb2-fb2b96ad3eb5"},"vehicle_type_id":"4","last_reported":1728407299,"current_range_meters":8000,"station_id":"ce4bhf92rcd13ifvqf50","pricing_plan_id":"cebpf4jnsgd1na2vs0mg"},{"bike_id":"e7f43b8e-aae9-494a-b944-73f0d67045cb","system_id":"levelo_inurba_marseille","lat":43.30437,"lon":5.39759,"is_reserved":false,"is_disabled":false,"rental_uris":{"android":"levelo://app?vid=e7f43b8e-aae9-494a-b944-73f0d67045cb","ios":"levelo://app?vid=e7f43b8e-aae9-494a-b944-73f0d67045cb"},"vehicle_type_id":"4","last_reported":1728407299,"current_range_meters":4800,"station_id":"ce4bh092rcd13ifvqd20","pricing_plan_id":"cebpf4jnsgd1na2vs0mg"},{"bike_id":"38cc6d4a-4f2e-4c02-ad1e-aa9224bedc33","system_id":"levelo_inurba_marseille","lat":43.23191,"lon":5.35557,"is_reserved":false,"is_disabled":false,"rental_uris":{"android":"levelo://app?vid=38cc6d4a-4f2e-4c02-ad1e-aa9224bedc33","ios":"levelo://app?vid=38cc6d4a-4f2e-4c02-ad1e-aa9224bedc33"},"vehicle_type_id":"4","last_reported":1728407299,"current_range_meters":9200,"station_id":"ce4bhu92rcd13ifvqi70","pricing_plan_id":"cebpf4jnsgd1na2vs0mg"},{"bike_id":"e419306f-2210-49d7-bd50-3545b50c6346","system_id":"levelo_inurba_marseille","lat":43.30143,"lon":5.39839,"is_reserved":false,"is_disabled":false,"rental_uris":{"android":"levelo://app?vid=e419306f-2210-49d7-bd50-3545b50c6346","ios":"levelo://app?vid=e419306f-2210-49d7-bd50-3545b50c6346"},"vehicle_type_id":"4","last_reported":1728407299,"current_range_meters":30000,"station_id":"ce4bh0h2rcd13ifvqd40","pricing_plan_id":"cebpf4jnsgd1na2vs0mg"},{"bike_id":"64891453-a61d-4dfb-97c3-eb40520c40ee","system_id":"levelo_inurba_marseille","lat":43.297089,"lon":5.376827,"is_reserved":false,"is_disabled":false,"rental_uris":{"android":"levelo://app?vid=64891453-a61d-4dfb-97c3-eb40520c40ee","ios":"levelo://app?vid=64891453-a61d-4dfb-97c3-eb40520c40ee"},"vehicle_type_id":"4","last_reported":1728407299,"current_range_meters":37600,"station_id":"ce4bgkh2rcd13ifvqbl0","pricing_plan_id":"cebpf4jnsgd1na2vs0mg"},{"bike_id":"a92f6206-1720-4e29-9ed4-ca1db6a5dc4b","system_id":"levelo_inurba_marseille","lat":43.29824,"lon":5.37665,"is_reserved":false,"is_disabled":false,"rental_uris":{"android":"levelo://app?vid=a92f6206-1720-4e29-9ed4-ca1db6a5dc4b","ios":"levelo://app?vid=a92f6206-1720-4e29-9ed4-ca1db6a5dc4b"},"vehicle_type_id":"4","last_reported":1728407299,"current_range_meters":26000,"station_id":"","pricing_plan_id":"cebpf4jnsgd1na2vs0mg"},{"bike_id":"4ab9f254-ccb8-4e88-87f7-c1bcee3c3514","system_id":"levelo_inurba_marseille","lat":43.23964,"lon":5.36637,"is_reserved":false,"is_disabled":false,"rental_uris":{"android":"levelo://app?vid=4ab9f254-ccb8-4e88-87f7-c1bcee3c3514","ios":"levelo://app?vid=4ab9f254-ccb8-4e88-87f7-c1bcee3c3514"},"vehicle_type_id":"4","last_reported":1728407299,"current_range_meters":18000,"station_id":"ce4bhi12rcd13ifvqfp0","pricing_plan_id":"cebpf4jnsgd1na2vs0mg"},{"bike_id":"4d7de7c8-9da7-48d8-a2ce-e0e23b8da2c8","system_id":"levelo_inurba_marseille","lat":43.27615,"lon":5.36115,"is_reserved":false,"is_disabled":false,"rental_uris":{"android":"levelo://app?vid=4d7de7c8-9da7-48d8-a2ce-e0e23b8da2c8","ios":"levelo://app?vid=4d7de7c8-9da7-48d8-a2ce-e0e23b8da2c8"},"vehicle_type_id":"4","last_reported":1728407299,"current_range_meters":19200,"station_id":"ce4bgj92rcd13ifvqbe0","pricing_plan_id":"cebpf4jnsgd1na2vs0mg"},{"bike_id":"3c9b649e-e382-4cef-bf24-0986a474beaf","system_id":"levelo_inurba_marseille","lat":43.29629,"lon":5.40611,"is_reserved":false,"is_disabled":false,"rental_uris":{"android":"levelo://app?vid=3c9b649e-e382-4cef-bf24-0986a474beaf","ios":"levelo://app?vid=3c9b649e-e382-4cef-bf24-0986a474beaf"},"vehicle_type_id":"4","last_reported":1728407299,"current_range_meters":11600,"station_id":"ce4bh0h2rcd13ifvqd60","pricing_plan_id":"cebpf4jnsgd1na2vs0mg"},{"bike_id":"81804227-c392-4016-b67b-f2ce4b764b97","system_id":"levelo_inurba_marseille","lat":43.28465,"lon":5.35876,"is_reserved":false,"is_disabled":false,"rental_uris":{"android":"levelo://app?vid=81804227-c392-4016-b67b-f2ce4b764b97","ios":"levelo://app?vid=81804227-c392-4016-b67b-f2ce4b764b97"},"vehicle_type_id":"4","last_reported":1728407299,"current_range_meters":27600,"station_id":"ce4bhah2rcd13ifvqei0","pricing_plan_id":"cebpf4jnsgd1na2vs0mg"},{"bike_id":"71c8f50c-cbe4-4609-98f9-b2a774784a36","system_id":"levelo_inurba_marseille","lat":43.28034,"lon":5.36947,"is_reserved":false,"is_disabled":false,"rental_uris":{"android":"levelo://app?vid=71c8f50c-cbe4-4609-98f9-b2a774784a36","ios":"levelo://app?vid=71c8f50c-cbe4-4609-98f9-b2a774784a36"},"vehicle_type_id":"4","last_reported":1728407299,"current_range_meters":16800,"station_id":"ce4bha12rcd13ifvqef0","pricing_plan_id":"cebpf4jnsgd1na2vs0mg"},{"bike_id":"f79cc6e1-bb30-4d17-a5cf-cc55ca1f0cd8","system_id":"levelo_inurba_marseille","lat":43.28361,"lon":5.38104,"is_reserved":false,"is_disabled":false,"rental_uris":{"android":"levelo://app?vid=f79cc6e1-bb30-4d17-a5cf-cc55ca1f0cd8","ios":"levelo://app?vid=f79cc6e1-bb30-4d17-a5cf-cc55ca1f0cd8"},"vehicle_type_id":"4","last_reported":1728407299,"current_range_meters":14800,"station_id":"ce4bh412rcd13ifvqdr0","pricing_plan_id":"cebpf4jnsgd1na2vs0mg"},{"bike_id":"2d29216c-14dc-4968-9430-d667245b2f03","system_id":"levelo_inurba_marseille","lat":43.284363,"lon":5.391909,"is_reserved":false,"is_disabled":false,"rental_uris":{"android":"levelo://app?vid=2d29216c-14dc-4968-9430-d667245b2f03","ios":"levelo://app?vid=2d29216c-14dc-4968-9430-d667245b2f03"},"vehicle_type_id":"4","last_reported":1728407299,"current_range_meters":8800,"station_id":"ce4bhoh2rcd13ifvqh5g","pricing_plan_id":"cebpf4jnsgd1na2vs0mg"},{"bike_id":"cf927195-cafe-4fe6-8a9b-b503bf9be2b0","system_id":"levelo_inurba_marseille","lat":43.23179,"lon":5.39987,"is_reserved":false,"is_disabled":false,"rental_uris":{"android":"levelo://app?vid=cf927195-cafe-4fe6-8a9b-b503bf9be2b0","ios":"levelo://app?vid=cf927195-cafe-4fe6-8a9b-b503bf9be2b0"},"vehicle_type_id":"4","last_reported":1728407299,"current_range_meters":36000,"station_id":"ce4bhn12rcd13ifvqgqg","pricing_plan_id":"cebpf4jnsgd1na2vs0mg"},{"bike_id":"6c7ecb3d-3a98-41de-ad71-ed213ac17f2a","system_id":"levelo_inurba_marseille","lat":43.268005,"lon":5.402635,"is_reserved":false,"is_disabled":false,"rental_uris":{"android":"levelo://app?vid=6c7ecb3d-3a98-41de-ad71-ed213ac17f2a","ios":"levelo://app?vid=6c7ecb3d-3a98-41de-ad71-ed213ac17f2a"},"vehicle_type_id":"4","last_reported":1728407299,"current_range_meters":8000,"station_id":"ce501612rcd8frsf0b60","pricing_plan_id":"cebpf4jnsgd1na2vs0mg"},{"bike_id":"f1b96fda-e452-45f0-8558-86c86ea8071d","system_id":"levelo_inurba_marseille","lat":43.31708,"lon":5.43706,"is_reserved":false,"is_disabled":false,"rental_uris":{"android":"levelo://app?vid=f1b96fda-e452-45f0-8558-86c86ea8071d","ios":"levelo://app?vid=f1b96fda-e452-45f0-8558-86c86ea8071d"},"vehicle_type_id":"4","last_reported":1728407299,"current_range_meters":3200,"station_id":"ce4bhp92rcd13ifvqhcg","pricing_plan_id":"cebpf4jnsgd1na2vs0mg"},{"bike_id":"4671d3b4-db91-425d-9a0f-4f5e3512f516","system_id":"levelo_inurba_marseille","lat":43.28724,"lon":5.36087,"is_reserved":false,"is_disabled":false,"rental_uris":{"android":"levelo://app?vid=4671d3b4-db91-425d-9a0f-4f5e3512f516","ios":"levelo://app?vid=4671d3b4-db91-425d-9a0f-4f5e3512f516"},"vehicle_type_id":"4","last_reported":1728407299,"current_range_meters":28000,"station_id":"cki0cbj6b192h4jlfktg","pricing_plan_id":"cebpf4jnsgd1na2vs0mg"},{"bike_id":"d0d28e32-7449-4185-9edf-f0e5a2cd9f0d","system_id":"levelo_inurba_marseille","lat":43.25584,"lon":5.38232,"is_reserved":false,"is_disabled":false,"rental_uris":{"android":"levelo://app?vid=d0d28e32-7449-4185-9edf-f0e5a2cd9f0d","ios":"levelo://app?vid=d0d28e32-7449-4185-9edf-f0e5a2cd9f0d"},"vehicle_type_id":"4","last_reported":1728407299,"current_range_meters":18800,"station_id":"ce4bhih2rcd13ifvqfs0","pricing_plan_id":"cebpf4jnsgd1na2vs0mg"},{"bike_id":"9a9df624-1549-41fb-b7f5-bd4059f46f71","system_id":"levelo_inurba_marseille","lat":43.31756,"lon":5.39014,"is_reserved":false,"is_disabled":false,"rental_uris":{"android":"levelo://app?vid=9a9df624-1549-41fb-b7f5-bd4059f46f71","ios":"levelo://app?vid=9a9df624-1549-41fb-b7f5-bd4059f46f71"},"vehicle_type_id":"4","last_reported":1728407299,"current_range_meters":26800,"station_id":"ce4bhqp2rcd13ifvqhng","pricing_plan_id":"cebpf4jnsgd1na2vs0mg"},{"bike_id":"39585e24-9284-4558-bd63-27a4a9dd3a64","system_id":"levelo_inurba_marseille","lat":43.25578,"lon":5.38235,"is_reserved":false,"is_disabled":false,"rental_uris":{"android":"levelo://app?vid=39585e24-9284-4558-bd63-27a4a9dd3a64","ios":"levelo://app?vid=39585e24-9284-4558-bd63-27a4a9dd3a64"},"vehicle_type_id":"4","last_reported":1728407299,"current_range_meters":13600,"station_id":"ce4bhih2rcd13ifvqfs0","pricing_plan_id":"cebpf4jnsgd1na2vs0mg"},{"bike_id":"f276946a-c301-4fd8-9ee9-b3ea2a208df0","system_id":"levelo_inurba_marseille","lat":43.23065,"lon":5.35502,"is_reserved":false,"is_disabled":false,"rental_uris":{"android":"levelo://app?vid=f276946a-c301-4fd8-9ee9-b3ea2a208df0","ios":"levelo://app?vid=f276946a-c301-4fd8-9ee9-b3ea2a208df0"},"vehicle_type_id":"4","last_reported":1728407299,"current_range_meters":24000,"station_id":"cpo3342slgdg3j2ifvpg","pricing_plan_id":"cebpf4jnsgd1na2vs0mg"},{"bike_id":"6b5fc0c1-fdb2-4345-a75b-43b7d106abdf","system_id":"levelo_inurba_marseille","lat":43.33021,"lon":5.3904,"is_reserved":false,"is_disabled":false,"rental_uris":{"android":"levelo://app?vid=6b5fc0c1-fdb2-4345-a75b-43b7d106abdf","ios":"levelo://app?vid=6b5fc0c1-fdb2-4345-a75b-43b7d106abdf"},"vehicle_type_id":"4","last_reported":1728407299,"current_range_meters":9200,"station_id":"ce4bhr92rcd13ifvqhrg","pricing_plan_id":"cebpf4jnsgd1na2vs0mg"},{"bike_id":"fdbba320-a6cf-4fc7-b301-59b70f76cfca","system_id":"levelo_inurba_marseille","lat":43.25579,"lon":5.38236,"is_reserved":false,"is_disabled":false,"rental_uris":{"android":"levelo://app?vid=fdbba320-a6cf-4fc7-b301-59b70f76cfca","ios":"levelo://app?vid=fdbba320-a6cf-4fc7-b301-59b70f76cfca"},"vehicle_type_id":"4","last_reported":1728407299,"current_range_meters":36800,"station_id":"ce4bhih2rcd13ifvqfs0","pricing_plan_id":"cebpf4jnsgd1na2vs0mg"},{"bike_id":"a2033ae2-f5b1-4c58-8721-decd66d10543","system_id":"levelo_inurba_marseille","lat":43.33719,"lon":5.39181,"is_reserved":false,"is_disabled":false,"rental_uris":{"android":"levelo://app?vid=a2033ae2-f5b1-4c58-8721-decd66d10543","ios":"levelo://app?vid=a2033ae2-f5b1-4c58-8721-decd66d10543"},"vehicle_type_id":"4","last_reported":1728407299,"current_range_meters":18000,"station_id":"ce4bhr92rcd13ifvqhsg","pricing_plan_id":"cebpf4jnsgd1na2vs0mg"},{"bike_id":"b988b96f-6f82-489e-9410-2a65a924c2a9","system_id":"levelo_inurba_marseille","lat":43.31065,"lon":5.38346,"is_reserved":false,"is_disabled":false,"rental_uris":{"android":"levelo://app?vid=b988b96f-6f82-489e-9410-2a65a924c2a9","ios":"levelo://app?vid=b988b96f-6f82-489e-9410-2a65a924c2a9"},"vehicle_type_id":"4","last_reported":1728407299,"current_range_meters":8000,"station_id":"ce4bgv92rcd13ifvqcr0","pricing_plan_id":"cebpf4jnsgd1na2vs0mg"},{"bike_id":"4310c38c-6b2f-4e85-8840-9badbf452217","system_id":"levelo_inurba_marseille","lat":43.310619,"lon":5.424261,"is_reserved":false,"is_disabled":false,"rental_uris":{"android":"levelo://app?vid=4310c38c-6b2f-4e85-8840-9badbf452217","ios":"levelo://app?vid=4310c38c-6b2f-4e85-8840-9badbf452217"},"vehicle_type_id":"4","last_reported":1728407299,"current_range_meters":4400,"station_id":"ce4bhp92rcd13ifvqhag","pricing_plan_id":"cebpf4jnsgd1na2vs0mg"},{"bike_id":"41b22edd-268c-4222-88bf-f8ef11dd1399","system_id":"levelo_inurba_marseille","lat":43.27997,"lon":5.40025,"is_reserved":false,"is_disabled":false,"rental_uris":{"android":"levelo://app?vid=41b22edd-268c-4222-88bf-f8ef11dd1399","ios":"levelo://app?vid=41b22edd-268c-4222-88bf-f8ef11dd1399"},"vehicle_type_id":"4","last_reported":1728407299,"current_range_meters":27200,"station_id":"ce4bho92rcd13ifvqh4g","pricing_plan_id":"cebpf4jnsgd1na2vs0mg"},{"bike_id":"5102b9e4-fde6-452f-9071-58db3beb671c","system_id":"levelo_inurba_marseille","lat":43.28003,"lon":5.40019,"is_reserved":false,"is_disabled":false,"rental_uris":{"android":"levelo://app?vid=5102b9e4-fde6-452f-9071-58db3beb671c","ios":"levelo://app?vid=5102b9e4-fde6-452f-9071-58db3beb671c"},"vehicle_type_id":"4","last_reported":1728407299,"current_range_meters":3600,"station_id":"ce4bho92rcd13ifvqh4g","pricing_plan_id":"cebpf4jnsgd1na2vs0mg"},{"bike_id":"9f249347-75e4-47cc-bbf5-03b5e106bc17","system_id":"levelo_inurba_marseille","lat":43.28458,"lon":5.35887,"is_reserved":false,"is_disabled":false,"rental_uris":{"android":"levelo://app?vid=9f249347-75e4-47cc-bbf5-03b5e106bc17","ios":"levelo://app?vid=9f249347-75e4-47cc-bbf5-03b5e106bc17"},"vehicle_type_id":"4","last_reported":1728407299,"current_range_meters":34800,"station_id":"ce4bhah2rcd13ifvqei0","pricing_plan_id":"cebpf4jnsgd1na2vs0mg"},{"bike_id":"14aa3b67-793f-4fe5-8f3b-eb595e5d1c4d","system_id":"levelo_inurba_marseille","lat":43.32327,"lon":5.38292,"is_reserved":false,"is_disabled":false,"rental_uris":{"android":"levelo://app?vid=14aa3b67-793f-4fe5-8f3b-eb595e5d1c4d","ios":"levelo://app?vid=14aa3b67-793f-4fe5-8f3b-eb595e5d1c4d"},"vehicle_type_id":"4","last_reported":1728407299,"current_range_meters":19200,"station_id":"ce4bhr12rcd13ifvqhqg","pricing_plan_id":"cebpf4jnsgd1na2vs0mg"},{"bike_id":"e6d86d2f-929e-412d-b639-89761e6c74e0","system_id":"levelo_inurba_marseille","lat":43.337444,"lon":5.374475,"is_reserved":false,"is_disabled":false,"rental_uris":{"android":"levelo://app?vid=e6d86d2f-929e-412d-b639-89761e6c74e0","ios":"levelo://app?vid=e6d86d2f-929e-412d-b639-89761e6c74e0"},"vehicle_type_id":"4","last_reported":1728407299,"current_range_meters":29600,"station_id":"","pricing_plan_id":"cebpf4jnsgd1na2vs0mg"},{"bike_id":"d238b024-ab62-4ce1-871d-0c21a1a307a2","system_id":"levelo_inurba_marseille","lat":43.27998,"lon":5.40012,"is_reserved":false,"is_disabled":false,"rental_uris":{"android":"levelo://app?vid=d238b024-ab62-4ce1-871d-0c21a1a307a2","ios":"levelo://app?vid=d238b024-ab62-4ce1-871d-0c21a1a307a2"},"vehicle_type_id":"4","last_reported":1728407299,"current_range_meters":16000,"station_id":"ce4bho92rcd13ifvqh4g","pricing_plan_id":"cebpf4jnsgd1na2vs0mg"},{"bike_id":"49f0e0ea-c145-4a27-a696-4b9292527b15","system_id":"levelo_inurba_marseille","lat":43.28102,"lon":5.37835,"is_reserved":false,"is_disabled":false,"rental_uris":{"android":"levelo://app?vid=49f0e0ea-c145-4a27-a696-4b9292527b15","ios":"levelo://app?vid=49f0e0ea-c145-4a27-a696-4b9292527b15"},"vehicle_type_id":"4","last_reported":1728407299,"current_range_meters":4400,"station_id":"ce4bha12rcd13ifvqee0","pricing_plan_id":"cebpf4jnsgd1na2vs0mg"},{"bike_id":"ee3fb93f-6ce1-4017-a20b-a68b1249cf58","system_id":"levelo_inurba_marseille","lat":43.31753,"lon":5.39017,"is_reserved":false,"is_disabled":false,"rental_uris":{"android":"levelo://app?vid=ee3fb93f-6ce1-4017-a20b-a68b1249cf58","ios":"levelo://app?vid=ee3fb93f-6ce1-4017-a20b-a68b1249cf58"},"vehicle_type_id":"4","last_reported":1728407299,"current_range_meters":19600,"station_id":"ce4bhqp2rcd13ifvqhng","pricing_plan_id":"cebpf4jnsgd1na2vs0mg"},{"bike_id":"c190b4a1-ea1d-47e2-b2e8-eefa3099f9cc","system_id":"levelo_inurba_marseille","lat":43.23193,"lon":5.35551,"is_reserved":false,"is_disabled":false,"rental_uris":{"android":"levelo://app?vid=c190b4a1-ea1d-47e2-b2e8-eefa3099f9cc","ios":"levelo://app?vid=c190b4a1-ea1d-47e2-b2e8-eefa3099f9cc"},"vehicle_type_id":"4","last_reported":1728407299,"current_range_meters":35200,"station_id":"ce4bhu92rcd13ifvqi70","pricing_plan_id":"cebpf4jnsgd1na2vs0mg"},{"bike_id":"ff5ba5ff-b9bc-44eb-9be7-e35bd733d917","system_id":"levelo_inurba_marseille","lat":43.24164,"lon":5.36397,"is_reserved":false,"is_disabled":false,"rental_uris":{"android":"levelo://app?vid=ff5ba5ff-b9bc-44eb-9be7-e35bd733d917","ios":"levelo://app?vid=ff5ba5ff-b9bc-44eb-9be7-e35bd733d917"},"vehicle_type_id":"4","last_reported":1728407299,"current_range_meters":36800,"station_id":"cpo36qri1sfpv3e86is0","pricing_plan_id":"cebpf4jnsgd1na2vs0mg"},{"bike_id":"1eab9a9d-3a92-46dd-a37b-adfb3d6395ad","system_id":"levelo_inurba_marseille","lat":43.31229,"lon":5.36857,"is_reserved":false,"is_disabled":false,"rental_uris":{"android":"levelo://app?vid=1eab9a9d-3a92-46dd-a37b-adfb3d6395ad","ios":"levelo://app?vid=1eab9a9d-3a92-46dd-a37b-adfb3d6395ad"},"vehicle_type_id":"4","last_reported":1728407299,"current_range_meters":17600,"station_id":"ce4bgl92rcd13ifvqbq0","pricing_plan_id":"cebpf4jnsgd1na2vs0mg"},{"bike_id":"2a75358c-c53d-4d85-b84f-ba43cbf3d3c3","system_id":"levelo_inurba_marseille","lat":43.337444,"lon":5.374475,"is_reserved":false,"is_disabled":false,"rental_uris":{"android":"levelo://app?vid=2a75358c-c53d-4d85-b84f-ba43cbf3d3c3","ios":"levelo://app?vid=2a75358c-c53d-4d85-b84f-ba43cbf3d3c3"},"vehicle_type_id":"4","last_reported":1728407299,"current_range_meters":36400,"station_id":"","pricing_plan_id":"cebpf4jnsgd1na2vs0mg"},{"bike_id":"e7687fcd-3c0c-4cfd-89b8-5110b4136ff9","system_id":"levelo_inurba_marseille","lat":43.29359,"lon":5.3784,"is_reserved":false,"is_disabled":false,"rental_uris":{"android":"levelo://app?vid=e7687fcd-3c0c-4cfd-89b8-5110b4136ff9","ios":"levelo://app?vid=e7687fcd-3c0c-4cfd-89b8-5110b4136ff9"},"vehicle_type_id":"4","last_reported":1728407299,"current_range_meters":2800,"station_id":"ce4bgjh2rcd13ifvqbf0","pricing_plan_id":"cebpf4jnsgd1na2vs0mg"},{"bike_id":"9d8683da-2b89-4d0e-8bbb-168c69fd5890","system_id":"levelo_inurba_marseille","lat":43.31071,"lon":5.38356,"is_reserved":false,"is_disabled":false,"rental_uris":{"android":"levelo://app?vid=9d8683da-2b89-4d0e-8bbb-168c69fd5890","ios":"levelo://app?vid=9d8683da-2b89-4d0e-8bbb-168c69fd5890"},"vehicle_type_id":"4","last_reported":1728407299,"current_range_meters":25600,"station_id":"ce4bgv92rcd13ifvqcr0","pricing_plan_id":"cebpf4jnsgd1na2vs0mg"},{"bike_id":"c4063bb4-e98b-48fe-8a9a-6decedc0ec30","system_id":"levelo_inurba_marseille","lat":43.33019,"lon":5.39046,"is_reserved":false,"is_disabled":false,"rental_uris":{"android":"levelo://app?vid=c4063bb4-e98b-48fe-8a9a-6decedc0ec30","ios":"levelo://app?vid=c4063bb4-e98b-48fe-8a9a-6decedc0ec30"},"vehicle_type_id":"4","last_reported":1728407299,"current_range_meters":38800,"station_id":"ce4bhr92rcd13ifvqhrg","pricing_plan_id":"cebpf4jnsgd1na2vs0mg"},{"bike_id":"f6a8c21d-b1f0-4240-bb8d-db34231d6f88","system_id":"levelo_inurba_marseille","lat":43.27994,"lon":5.40016,"is_reserved":false,"is_disabled":false,"rental_uris":{"android":"levelo://app?vid=f6a8c21d-b1f0-4240-bb8d-db34231d6f88","ios":"levelo://app?vid=f6a8c21d-b1f0-4240-bb8d-db34231d6f88"},"vehicle_type_id":"4","last_reported":1728407299,"current_range_meters":8800,"station_id":"ce4bho92rcd13ifvqh4g","pricing_plan_id":"cebpf4jnsgd1na2vs0mg"},{"bike_id":"10182a4c-e557-46f5-88ac-0a41211f2587","system_id":"levelo_inurba_marseille","lat":43.29939,"lon":5.36556,"is_reserved":false,"is_disabled":false,"rental_uris":{"android":"levelo://app?vid=10182a4c-e557-46f5-88ac-0a41211f2587","ios":"levelo://app?vid=10182a4c-e557-46f5-88ac-0a41211f2587"},"vehicle_type_id":"4","last_reported":1728407299,"current_range_meters":38800,"station_id":"ce4bgm92rcd13ifvqbr0","pricing_plan_id":"cebpf4jnsgd1na2vs0mg"},{"bike_id":"79b25a76-aeff-41de-baee-d7e47a5ff2cf","system_id":"levelo_inurba_marseille","lat":43.28935,"lon":5.36633,"is_reserved":false,"is_disabled":false,"rental_uris":{"android":"levelo://app?vid=79b25a76-aeff-41de-baee-d7e47a5ff2cf","ios":"levelo://app?vid=79b25a76-aeff-41de-baee-d7e47a5ff2cf"},"vehicle_type_id":"4","last_reported":1728407299,"current_range_meters":8800,"station_id":"ce4bhap2rcd13ifvqek0","pricing_plan_id":"cebpf4jnsgd1na2vs0mg"},{"bike_id":"77f7f45c-192c-44d5-85d2-ffe3b7dab930","system_id":"levelo_inurba_marseille","lat":43.23064,"lon":5.35495,"is_reserved":false,"is_disabled":false,"rental_uris":{"android":"levelo://app?vid=77f7f45c-192c-44d5-85d2-ffe3b7dab930","ios":"levelo://app?vid=77f7f45c-192c-44d5-85d2-ffe3b7dab930"},"vehicle_type_id":"4","last_reported":1728407299,"current_range_meters":25200,"station_id":"cpo3342slgdg3j2ifvpg","pricing_plan_id":"cebpf4jnsgd1na2vs0mg"},{"bike_id":"000e46b4-74c7-4956-8887-4004c2527d6b","system_id":"levelo_inurba_marseille","lat":43.27993,"lon":5.40016,"is_reserved":false,"is_disabled":false,"rental_uris":{"android":"levelo://app?vid=000e46b4-74c7-4956-8887-4004c2527d6b","ios":"levelo://app?vid=000e46b4-74c7-4956-8887-4004c2527d6b"},"vehicle_type_id":"4","last_reported":1728407299,"current_range_meters":38800,"station_id":"ce4bho92rcd13ifvqh4g","pricing_plan_id":"cebpf4jnsgd1na2vs0mg"},{"bike_id":"fbf692b6-c68e-4e8e-ae7b-a49161853da6","system_id":"levelo_inurba_marseille","lat":43.30789,"lon":5.38157,"is_reserved":false,"is_disabled":false,"rental_uris":{"android":"levelo://app?vid=fbf692b6-c68e-4e8e-ae7b-a49161853da6","ios":"levelo://app?vid=fbf692b6-c68e-4e8e-ae7b-a49161853da6"},"vehicle_type_id":"4","last_reported":1728407299,"current_range_meters":24000,"station_id":"ce4bgt12rcd13ifvqce0","pricing_plan_id":"cebpf4jnsgd1na2vs0mg"},{"bike_id":"b625834a-54ef-4eab-8c9d-e8c85e149a97","system_id":"levelo_inurba_marseille","lat":43.31081,"lon":5.4243,"is_reserved":false,"is_disabled":false,"rental_uris":{"android":"levelo://app?vid=b625834a-54ef-4eab-8c9d-e8c85e149a97","ios":"levelo://app?vid=b625834a-54ef-4eab-8c9d-e8c85e149a97"},"vehicle_type_id":"4","last_reported":1728407299,"current_range_meters":36400,"station_id":"ce4bhp92rcd13ifvqhag","pricing_plan_id":"cebpf4jnsgd1na2vs0mg"},{"bike_id":"9f593953-cc49-4b24-85c6-45ea4fc67b96","system_id":"levelo_inurba_marseille","lat":43.2964,"lon":5.37275,"is_reserved":false,"is_disabled":false,"rental_uris":{"android":"levelo://app?vid=9f593953-cc49-4b24-85c6-45ea4fc67b96","ios":"levelo://app?vid=9f593953-cc49-4b24-85c6-45ea4fc67b96"},"vehicle_type_id":"4","last_reported":1728407299,"current_range_meters":37600,"station_id":"ce4bgph2rcd13ifvqc2g","pricing_plan_id":"cebpf4jnsgd1na2vs0mg"},{"bike_id":"7b02ace1-e6fd-4550-964e-732a181f3e8c","system_id":"levelo_inurba_marseille","lat":43.26211,"lon":5.37443,"is_reserved":false,"is_disabled":false,"rental_uris":{"android":"levelo://app?vid=7b02ace1-e6fd-4550-964e-732a181f3e8c","ios":"levelo://app?vid=7b02ace1-e6fd-4550-964e-732a181f3e8c"},"vehicle_type_id":"4","last_reported":1728407299,"current_range_meters":4800,"station_id":"ce4bhgp2rcd13ifvqfc0","pricing_plan_id":"cebpf4jnsgd1na2vs0mg"},{"bike_id":"693873db-68cf-4427-8a70-241af778f5ed","system_id":"levelo_inurba_marseille","lat":43.24653,"lon":5.38901,"is_reserved":false,"is_disabled":false,"rental_uris":{"android":"levelo://app?vid=693873db-68cf-4427-8a70-241af778f5ed","ios":"levelo://app?vid=693873db-68cf-4427-8a70-241af778f5ed"},"vehicle_type_id":"4","last_reported":1728407299,"current_range_meters":35200,"station_id":"ce4bhg12rcd13ifvqf60","pricing_plan_id":"cebpf4jnsgd1na2vs0mg"},{"bike_id":"1a6d0c95-eb23-4c8b-a1db-37b90f648052","system_id":"levelo_inurba_marseille","lat":43.30537,"lon":5.36552,"is_reserved":false,"is_disabled":false,"rental_uris":{"android":"levelo://app?vid=1a6d0c95-eb23-4c8b-a1db-37b90f648052","ios":"levelo://app?vid=1a6d0c95-eb23-4c8b-a1db-37b90f648052"},"vehicle_type_id":"4","last_reported":1728407299,"current_range_meters":36000,"station_id":"ce4bgs12rcd13ifvqcag","pricing_plan_id":"cebpf4jnsgd1na2vs0mg"},{"bike_id":"3ff3292a-8cd5-4816-89ed-abf75cb5acd7","system_id":"levelo_inurba_marseille","lat":43.24651,"lon":5.38901,"is_reserved":false,"is_disabled":false,"rental_uris":{"android":"levelo://app?vid=3ff3292a-8cd5-4816-89ed-abf75cb5acd7","ios":"levelo://app?vid=3ff3292a-8cd5-4816-89ed-abf75cb5acd7"},"vehicle_type_id":"4","last_reported":1728407299,"current_range_meters":4000,"station_id":"ce4bhg12rcd13ifvqf60","pricing_plan_id":"cebpf4jnsgd1na2vs0mg"},{"bike_id":"06729fd0-ac9d-463b-b494-db3e44bcb08b","system_id":"levelo_inurba_marseille","lat":43.26211,"lon":5.37445,"is_reserved":false,"is_disabled":false,"rental_uris":{"android":"levelo://app?vid=06729fd0-ac9d-463b-b494-db3e44bcb08b","ios":"levelo://app?vid=06729fd0-ac9d-463b-b494-db3e44bcb08b"},"vehicle_type_id":"4","last_reported":1728407299,"current_range_meters":3600,"station_id":"ce4bhgp2rcd13ifvqfc0","pricing_plan_id":"cebpf4jnsgd1na2vs0mg"},{"bike_id":"39c5b695-1b44-4e77-8a50-ed76d8b5e640","system_id":"levelo_inurba_marseille","lat":43.26782,"lon":5.39418,"is_reserved":false,"is_disabled":false,"rental_uris":{"android":"levelo://app?vid=39c5b695-1b44-4e77-8a50-ed76d8b5e640","ios":"levelo://app?vid=39c5b695-1b44-4e77-8a50-ed76d8b5e640"},"vehicle_type_id":"4","last_reported":1728407299,"current_range_meters":5600,"station_id":"ce4bhh12rcd13ifvqfg0","pricing_plan_id":"cebpf4jnsgd1na2vs0mg"},{"bike_id":"dd7ef34d-0ea0-4fb1-b746-0e3a32bb934e","system_id":"levelo_inurba_marseille","lat":43.27564,"lon":5.38435,"is_reserved":false,"is_disabled":false,"rental_uris":{"android":"levelo://app?vid=dd7ef34d-0ea0-4fb1-b746-0e3a32bb934e","ios":"levelo://app?vid=dd7ef34d-0ea0-4fb1-b746-0e3a32bb934e"},"vehicle_type_id":"4","last_reported":1728407299,"current_range_meters":8400,"station_id":"ce4bhh92rcd13ifvqfi0","pricing_plan_id":"cebpf4jnsgd1na2vs0mg"},{"bike_id":"bc865ca1-2a5b-44fe-b3dd-04aadccb155c","system_id":"levelo_inurba_marseille","lat":43.26799,"lon":5.4027,"is_reserved":false,"is_disabled":false,"rental_uris":{"android":"levelo://app?vid=bc865ca1-2a5b-44fe-b3dd-04aadccb155c","ios":"levelo://app?vid=bc865ca1-2a5b-44fe-b3dd-04aadccb155c"},"vehicle_type_id":"4","last_reported":1728407299,"current_range_meters":15200,"station_id":"ce501612rcd8frsf0b60","pricing_plan_id":"cebpf4jnsgd1na2vs0mg"},{"bike_id":"04f097d5-617c-4370-a769-a0c7030093cb","system_id":"levelo_inurba_marseille","lat":43.26551,"lon":5.37295,"is_reserved":false,"is_disabled":false,"rental_uris":{"android":"levelo://app?vid=04f097d5-617c-4370-a769-a0c7030093cb","ios":"levelo://app?vid=04f097d5-617c-4370-a769-a0c7030093cb"},"vehicle_type_id":"4","last_reported":1728407299,"current_range_meters":24800,"station_id":"ce4bhg12rcd13ifvqf70","pricing_plan_id":"cebpf4jnsgd1na2vs0mg"},{"bike_id":"af02dff9-a045-488f-a94d-09654f4aaac1","system_id":"levelo_inurba_marseille","lat":43.285887,"lon":5.361973,"is_reserved":false,"is_disabled":false,"rental_uris":{"android":"levelo://app?vid=af02dff9-a045-488f-a94d-09654f4aaac1","ios":"levelo://app?vid=af02dff9-a045-488f-a94d-09654f4aaac1"},"vehicle_type_id":"4","last_reported":1728407299,"current_range_meters":26800,"station_id":"ce4bhah2rcd13ifvqei0","pricing_plan_id":"cebpf4jnsgd1na2vs0mg"},{"bike_id":"f2b75fa6-514c-427b-a3e0-4b73644e7188","system_id":"levelo_inurba_marseille","lat":43.28456,"lon":5.35877,"is_reserved":false,"is_disabled":false,"rental_uris":{"android":"levelo://app?vid=f2b75fa6-514c-427b-a3e0-4b73644e7188","ios":"levelo://app?vid=f2b75fa6-514c-427b-a3e0-4b73644e7188"},"vehicle_type_id":"4","last_reported":1728407299,"current_range_meters":25600,"station_id":"ce4bhah2rcd13ifvqei0","pricing_plan_id":"cebpf4jnsgd1na2vs0mg"},{"bike_id":"6c8bd09f-54b7-493e-87f4-40e6c3f19816","system_id":"levelo_inurba_marseille","lat":43.28404,"lon":5.34986,"is_reserved":false,"is_disabled":false,"rental_uris":{"android":"levelo://app?vid=6c8bd09f-54b7-493e-87f4-40e6c3f19816","ios":"levelo://app?vid=6c8bd09f-54b7-493e-87f4-40e6c3f19816"},"vehicle_type_id":"4","last_reported":1728407299,"current_range_meters":5600,"station_id":"ce4bhbh2rcd13ifvqepg","pricing_plan_id":"cebpf4jnsgd1na2vs0mg"},{"bike_id":"cf926a29-bf8e-474f-8bf6-edae9d7e1d16","system_id":"levelo_inurba_marseille","lat":43.28152,"lon":5.42646,"is_reserved":false,"is_disabled":false,"rental_uris":{"android":"levelo://app?vid=cf926a29-bf8e-474f-8bf6-edae9d7e1d16","ios":"levelo://app?vid=cf926a29-bf8e-474f-8bf6-edae9d7e1d16"},"vehicle_type_id":"4","last_reported":1728407299,"current_range_meters":24000,"station_id":"ce4bhnh2rcd13ifvqgug","pricing_plan_id":"cebpf4jnsgd1na2vs0mg"},{"bike_id":"8e2c132f-2617-4e94-ae83-e615ba23d976","system_id":"levelo_inurba_marseille","lat":43.3054,"lon":5.36534,"is_reserved":false,"is_disabled":false,"rental_uris":{"android":"levelo://app?vid=8e2c132f-2617-4e94-ae83-e615ba23d976","ios":"levelo://app?vid=8e2c132f-2617-4e94-ae83-e615ba23d976"},"vehicle_type_id":"4","last_reported":1728407299,"current_range_meters":9200,"station_id":"ce4bgs12rcd13ifvqcag","pricing_plan_id":"cebpf4jnsgd1na2vs0mg"},{"bike_id":"9efa47ab-db82-45ff-bce1-cda87faad54d","system_id":"levelo_inurba_marseille","lat":43.28406,"lon":5.3752,"is_reserved":false,"is_disabled":false,"rental_uris":{"android":"levelo://app?vid=9efa47ab-db82-45ff-bce1-cda87faad54d","ios":"levelo://app?vid=9efa47ab-db82-45ff-bce1-cda87faad54d"},"vehicle_type_id":"4","last_reported":1728407299,"current_range_meters":23200,"station_id":"ce4bh412rcd13ifvqds0","pricing_plan_id":"cebpf4jnsgd1na2vs0mg"},{"bike_id":"650ab51e-7370-4612-a6a3-3dcbba4ae599","system_id":"levelo_inurba_marseille","lat":43.28616,"lon":5.35098,"is_reserved":false,"is_disabled":false,"rental_uris":{"android":"levelo://app?vid=650ab51e-7370-4612-a6a3-3dcbba4ae599","ios":"levelo://app?vid=650ab51e-7370-4612-a6a3-3dcbba4ae599"},"vehicle_type_id":"4","last_reported":1728407299,"current_range_meters":3200,"station_id":"ce4bhch2rcd13ifvqeug","pricing_plan_id":"cebpf4jnsgd1na2vs0mg"},{"bike_id":"fbab334e-6568-46ac-88f7-b856d9d2d598","system_id":"levelo_inurba_marseille","lat":43.2319,"lon":5.3555,"is_reserved":false,"is_disabled":false,"rental_uris":{"android":"levelo://app?vid=fbab334e-6568-46ac-88f7-b856d9d2d598","ios":"levelo://app?vid=fbab334e-6568-46ac-88f7-b856d9d2d598"},"vehicle_type_id":"4","last_reported":1728407299,"current_range_meters":38800,"station_id":"ce4bhu92rcd13ifvqi70","pricing_plan_id":"cebpf4jnsgd1na2vs0mg"},{"bike_id":"0b3c8cec-2f4c-4b69-ab93-1e5be4e5a36b","system_id":"levelo_inurba_marseille","lat":43.28455,"lon":5.3589,"is_reserved":false,"is_disabled":false,"rental_uris":{"android":"levelo://app?vid=0b3c8cec-2f4c-4b69-ab93-1e5be4e5a36b","ios":"levelo://app?vid=0b3c8cec-2f4c-4b69-ab93-1e5be4e5a36b"},"vehicle_type_id":"4","last_reported":1728407299,"current_range_meters":34000,"station_id":"ce4bhah2rcd13ifvqei0","pricing_plan_id":"cebpf4jnsgd1na2vs0mg"},{"bike_id":"09076ac9-d094-425d-9e1d-119c885be179","system_id":"levelo_inurba_marseille","lat":43.31074,"lon":5.38353,"is_reserved":false,"is_disabled":false,"rental_uris":{"android":"levelo://app?vid=09076ac9-d094-425d-9e1d-119c885be179","ios":"levelo://app?vid=09076ac9-d094-425d-9e1d-119c885be179"},"vehicle_type_id":"4","last_reported":1728407299,"current_range_meters":22800,"station_id":"ce4bgv92rcd13ifvqcr0","pricing_plan_id":"cebpf4jnsgd1na2vs0mg"},{"bike_id":"7ab2a344-a86e-4547-a4c3-1724b972a1dc","system_id":"levelo_inurba_marseille","lat":43.28851,"lon":5.35853,"is_reserved":false,"is_disabled":false,"rental_uris":{"android":"levelo://app?vid=7ab2a344-a86e-4547-a4c3-1724b972a1dc","ios":"levelo://app?vid=7ab2a344-a86e-4547-a4c3-1724b972a1dc"},"vehicle_type_id":"4","last_reported":1728407299,"current_range_meters":4000,"station_id":"ce4bhb12rcd13ifvqem0","pricing_plan_id":"cebpf4jnsgd1na2vs0mg"},{"bike_id":"8d08459a-54aa-42c1-a349-970306b3a7df","system_id":"levelo_inurba_marseille","lat":43.29838,"lon":5.37613,"is_reserved":false,"is_disabled":false,"rental_uris":{"android":"levelo://app?vid=8d08459a-54aa-42c1-a349-970306b3a7df","ios":"levelo://app?vid=8d08459a-54aa-42c1-a349-970306b3a7df"},"vehicle_type_id":"4","last_reported":1728407299,"current_range_meters":28400,"station_id":"ce4bh4p2rcd13ifvqe0g","pricing_plan_id":"cebpf4jnsgd1na2vs0mg"},{"bike_id":"ac63b881-53ef-4e4b-b5e6-9f4914bcf168","system_id":"levelo_inurba_marseille","lat":43.23057,"lon":5.35491,"is_reserved":false,"is_disabled":false,"rental_uris":{"android":"levelo://app?vid=ac63b881-53ef-4e4b-b5e6-9f4914bcf168","ios":"levelo://app?vid=ac63b881-53ef-4e4b-b5e6-9f4914bcf168"},"vehicle_type_id":"4","last_reported":1728407299,"current_range_meters":30000,"station_id":"cpo3342slgdg3j2ifvpg","pricing_plan_id":"cebpf4jnsgd1na2vs0mg"},{"bike_id":"89ae8108-dd73-40e8-b0e6-b457727b43f7","system_id":"levelo_inurba_marseille","lat":43.2993,"lon":5.36552,"is_reserved":false,"is_disabled":false,"rental_uris":{"android":"levelo://app?vid=89ae8108-dd73-40e8-b0e6-b457727b43f7","ios":"levelo://app?vid=89ae8108-dd73-40e8-b0e6-b457727b43f7"},"vehicle_type_id":"4","last_reported":1728407299,"current_range_meters":3600,"station_id":"ce4bgm92rcd13ifvqbr0","pricing_plan_id":"cebpf4jnsgd1na2vs0mg"},{"bike_id":"a185443f-1207-408b-8c72-393a999c91bf","system_id":"levelo_inurba_marseille","lat":43.23962,"lon":5.36638,"is_reserved":false,"is_disabled":false,"rental_uris":{"android":"levelo://app?vid=a185443f-1207-408b-8c72-393a999c91bf","ios":"levelo://app?vid=a185443f-1207-408b-8c72-393a999c91bf"},"vehicle_type_id":"4","last_reported":1728407299,"current_range_meters":22400,"station_id":"ce4bhi12rcd13ifvqfp0","pricing_plan_id":"cebpf4jnsgd1na2vs0mg"},{"bike_id":"93e59666-6455-473c-9cfb-d5e754280ddb","system_id":"levelo_inurba_marseille","lat":43.29253,"lon":5.40902,"is_reserved":false,"is_disabled":false,"rental_uris":{"android":"levelo://app?vid=93e59666-6455-473c-9cfb-d5e754280ddb","ios":"levelo://app?vid=93e59666-6455-473c-9cfb-d5e754280ddb"},"vehicle_type_id":"4","last_reported":1728407299,"current_range_meters":14400,"station_id":"ce4bh192rcd13ifvqdc0","pricing_plan_id":"cebpf4jnsgd1na2vs0mg"},{"bike_id":"9d2079ab-ae6f-4c98-8067-959ef6b63657","system_id":"levelo_inurba_marseille","lat":43.33716,"lon":5.39191,"is_reserved":false,"is_disabled":false,"rental_uris":{"android":"levelo://app?vid=9d2079ab-ae6f-4c98-8067-959ef6b63657","ios":"levelo://app?vid=9d2079ab-ae6f-4c98-8067-959ef6b63657"},"vehicle_type_id":"4","last_reported":1728407299,"current_range_meters":4800,"station_id":"ce4bhr92rcd13ifvqhsg","pricing_plan_id":"cebpf4jnsgd1na2vs0mg"},{"bike_id":"ecc88699-8f0d-4601-a919-3da9e8aba57e","system_id":"levelo_inurba_marseille","lat":43.27811,"lon":5.40711,"is_reserved":false,"is_disabled":false,"rental_uris":{"android":"levelo://app?vid=ecc88699-8f0d-4601-a919-3da9e8aba57e","ios":"levelo://app?vid=ecc88699-8f0d-4601-a919-3da9e8aba57e"},"vehicle_type_id":"4","last_reported":1728407299,"current_range_meters":30800,"station_id":"ce4bhnh2rcd13ifvqgtg","pricing_plan_id":"cebpf4jnsgd1na2vs0mg"},{"bike_id":"98f1fa3d-9921-49df-8b8f-2d8e1abb87ef","system_id":"levelo_inurba_marseille","lat":43.32736,"lon":5.38772,"is_reserved":false,"is_disabled":false,"rental_uris":{"android":"levelo://app?vid=98f1fa3d-9921-49df-8b8f-2d8e1abb87ef","ios":"levelo://app?vid=98f1fa3d-9921-49df-8b8f-2d8e1abb87ef"},"vehicle_type_id":"4","last_reported":1728407299,"current_range_meters":38800,"station_id":"","pricing_plan_id":"cebpf4jnsgd1na2vs0mg"},{"bike_id":"ee3f614b-373b-449c-a58d-35e47f5eafd2","system_id":"levelo_inurba_marseille","lat":43.23194,"lon":5.35549,"is_reserved":false,"is_disabled":false,"rental_uris":{"android":"levelo://app?vid=ee3f614b-373b-449c-a58d-35e47f5eafd2","ios":"levelo://app?vid=ee3f614b-373b-449c-a58d-35e47f5eafd2"},"vehicle_type_id":"4","last_reported":1728407299,"current_range_meters":6800,"station_id":"ce4bhu92rcd13ifvqi70","pricing_plan_id":"cebpf4jnsgd1na2vs0mg"},{"bike_id":"9e3fe2e1-eca8-4201-b615-2eaf2b4dc3f2","system_id":"levelo_inurba_marseille","lat":43.23196,"lon":5.35552,"is_reserved":false,"is_disabled":false,"rental_uris":{"android":"levelo://app?vid=9e3fe2e1-eca8-4201-b615-2eaf2b4dc3f2","ios":"levelo://app?vid=9e3fe2e1-eca8-4201-b615-2eaf2b4dc3f2"},"vehicle_type_id":"4","last_reported":1728407299,"current_range_meters":37600,"station_id":"ce4bhu92rcd13ifvqi70","pricing_plan_id":"cebpf4jnsgd1na2vs0mg"},{"bike_id":"db3802f1-cb87-4f68-90a8-3e27ffb3cca8","system_id":"levelo_inurba_marseille","lat":43.30303,"lon":5.36892,"is_reserved":false,"is_disabled":false,"rental_uris":{"android":"levelo://app?vid=db3802f1-cb87-4f68-90a8-3e27ffb3cca8","ios":"levelo://app?vid=db3802f1-cb87-4f68-90a8-3e27ffb3cca8"},"vehicle_type_id":"4","last_reported":1728407299,"current_range_meters":11600,"station_id":"ce4bgqh2rcd13ifvqc5g","pricing_plan_id":"cebpf4jnsgd1na2vs0mg"},{"bike_id":"87ac8109-313a-4d11-a119-bae5d2913e8c","system_id":"levelo_inurba_marseille","lat":43.26026,"lon":5.37554,"is_reserved":false,"is_disabled":false,"rental_uris":{"android":"levelo://app?vid=87ac8109-313a-4d11-a119-bae5d2913e8c","ios":"levelo://app?vid=87ac8109-313a-4d11-a119-bae5d2913e8c"},"vehicle_type_id":"4","last_reported":1728407299,"current_range_meters":32800,"station_id":"ce4bhgh2rcd13ifvqfa0","pricing_plan_id":"cebpf4jnsgd1na2vs0mg"},{"bike_id":"5df364af-2b36-4fcd-94f0-ac2b0adc63ae","system_id":"levelo_inurba_marseille","lat":43.33717,"lon":5.39185,"is_reserved":false,"is_disabled":false,"rental_uris":{"android":"levelo://app?vid=5df364af-2b36-4fcd-94f0-ac2b0adc63ae","ios":"levelo://app?vid=5df364af-2b36-4fcd-94f0-ac2b0adc63ae"},"vehicle_type_id":"4","last_reported":1728407299,"current_range_meters":8800,"station_id":"ce4bhr92rcd13ifvqhsg","pricing_plan_id":"cebpf4jnsgd1na2vs0mg"},{"bike_id":"c2969faa-e796-4fd2-b7ee-0b607a8ce63c","system_id":"levelo_inurba_marseille","lat":43.24805,"lon":5.37459,"is_reserved":false,"is_disabled":false,"rental_uris":{"android":"levelo://app?vid=c2969faa-e796-4fd2-b7ee-0b607a8ce63c","ios":"levelo://app?vid=c2969faa-e796-4fd2-b7ee-0b607a8ce63c"},"vehicle_type_id":"4","last_reported":1728407299,"current_range_meters":8800,"station_id":"ce4bhgh2rcd13ifvqfb0","pricing_plan_id":"cebpf4jnsgd1na2vs0mg"},{"bike_id":"a62e60d5-76e9-4d97-8bc0-b9f335121f55","system_id":"levelo_inurba_marseille","lat":43.3172,"lon":5.42401,"is_reserved":false,"is_disabled":false,"rental_uris":{"android":"levelo://app?vid=a62e60d5-76e9-4d97-8bc0-b9f335121f55","ios":"levelo://app?vid=a62e60d5-76e9-4d97-8bc0-b9f335121f55"},"vehicle_type_id":"4","last_reported":1728407299,"current_range_meters":10800,"station_id":"ce4bhp92rcd13ifvqhbg","pricing_plan_id":"cebpf4jnsgd1na2vs0mg"},{"bike_id":"5ecef1ba-a867-4600-bb88-277d6f54693a","system_id":"levelo_inurba_marseille","lat":43.2867,"lon":5.38673,"is_reserved":false,"is_disabled":false,"rental_uris":{"android":"levelo://app?vid=5ecef1ba-a867-4600-bb88-277d6f54693a","ios":"levelo://app?vid=5ecef1ba-a867-4600-bb88-277d6f54693a"},"vehicle_type_id":"4","last_reported":1728407299,"current_range_meters":40000,"station_id":"ce4bh492rcd13ifvqdug","pricing_plan_id":"cebpf4jnsgd1na2vs0mg"},{"bike_id":"7da3e4b2-7f14-4de1-84fe-a8d5a4f793da","system_id":"levelo_inurba_marseille","lat":43.30801,"lon":5.43521,"is_reserved":false,"is_disabled":false,"rental_uris":{"android":"levelo://app?vid=7da3e4b2-7f14-4de1-84fe-a8d5a4f793da","ios":"levelo://app?vid=7da3e4b2-7f14-4de1-84fe-a8d5a4f793da"},"vehicle_type_id":"4","last_reported":1728407299,"current_range_meters":8000,"station_id":"ce4bhph2rcd13ifvqheg","pricing_plan_id":"cebpf4jnsgd1na2vs0mg"},{"bike_id":"1b0e0f07-4ad3-459e-a7f1-e92d84ae71d6","system_id":"levelo_inurba_marseille","lat":43.29601,"lon":5.38116,"is_reserved":false,"is_disabled":false,"rental_uris":{"android":"levelo://app?vid=1b0e0f07-4ad3-459e-a7f1-e92d84ae71d6","ios":"levelo://app?vid=1b0e0f07-4ad3-459e-a7f1-e92d84ae71d6"},"vehicle_type_id":"4","last_reported":1728407299,"current_range_meters":12000,"station_id":"ce4bgl12rcd13ifvqbo0","pricing_plan_id":"cebpf4jnsgd1na2vs0mg"},{"bike_id":"d70f55dd-0033-47b0-ab3d-52ffea1e9564","system_id":"levelo_inurba_marseille","lat":43.29003,"lon":5.35612,"is_reserved":false,"is_disabled":false,"rental_uris":{"android":"levelo://app?vid=d70f55dd-0033-47b0-ab3d-52ffea1e9564","ios":"levelo://app?vid=d70f55dd-0033-47b0-ab3d-52ffea1e9564"},"vehicle_type_id":"4","last_reported":1728407299,"current_range_meters":28000,"station_id":"ce4bhb92rcd13ifvqen0","pricing_plan_id":"cebpf4jnsgd1na2vs0mg"},{"bike_id":"8066708a-d21c-4bfb-8263-52e8a7fae5f7","system_id":"levelo_inurba_marseille","lat":43.290075,"lon":5.386594,"is_reserved":false,"is_disabled":false,"rental_uris":{"android":"levelo://app?vid=8066708a-d21c-4bfb-8263-52e8a7fae5f7","ios":"levelo://app?vid=8066708a-d21c-4bfb-8263-52e8a7fae5f7"},"vehicle_type_id":"4","last_reported":1728407299,"current_range_meters":5600,"station_id":"ce4bh4p2rcd13ifvqe0g","pricing_plan_id":"cebpf4jnsgd1na2vs0mg"},{"bike_id":"dfc21774-e7c6-4759-ad88-2058278088ac","system_id":"levelo_inurba_marseille","lat":43.31524,"lon":5.3804,"is_reserved":false,"is_disabled":false,"rental_uris":{"android":"levelo://app?vid=dfc21774-e7c6-4759-ad88-2058278088ac","ios":"levelo://app?vid=dfc21774-e7c6-4759-ad88-2058278088ac"},"vehicle_type_id":"4","last_reported":1728407299,"current_range_meters":29600,"station_id":"ce4bhsp2rcd13ifvqi50","pricing_plan_id":"cebpf4jnsgd1na2vs0mg"},{"bike_id":"4552a146-c9b7-4cae-ae0f-d674570d6500","system_id":"levelo_inurba_marseille","lat":43.33024,"lon":5.39036,"is_reserved":false,"is_disabled":false,"rental_uris":{"android":"levelo://app?vid=4552a146-c9b7-4cae-ae0f-d674570d6500","ios":"levelo://app?vid=4552a146-c9b7-4cae-ae0f-d674570d6500"},"vehicle_type_id":"4","last_reported":1728407299,"current_range_meters":22800,"station_id":"ce4bhr92rcd13ifvqhrg","pricing_plan_id":"cebpf4jnsgd1na2vs0mg"},{"bike_id":"b7a9cbbe-0386-413b-907c-d18042b9b2e5","system_id":"levelo_inurba_marseille","lat":43.27422,"lon":5.39416,"is_reserved":false,"is_disabled":false,"rental_uris":{"android":"levelo://app?vid=b7a9cbbe-0386-413b-907c-d18042b9b2e5","ios":"levelo://app?vid=b7a9cbbe-0386-413b-907c-d18042b9b2e5"},"vehicle_type_id":"4","last_reported":1728407299,"current_range_meters":22800,"station_id":"ce4bhdp2rcd13ifvqf20","pricing_plan_id":"cebpf4jnsgd1na2vs0mg"},{"bike_id":"aa633575-e98c-4b00-80a5-6db29a8438f8","system_id":"levelo_inurba_marseille","lat":43.29549,"lon":5.42284,"is_reserved":false,"is_disabled":false,"rental_uris":{"android":"levelo://app?vid=aa633575-e98c-4b00-80a5-6db29a8438f8","ios":"levelo://app?vid=aa633575-e98c-4b00-80a5-6db29a8438f8"},"vehicle_type_id":"4","last_reported":1728407299,"current_range_meters":34800,"station_id":"ce4bhph2rcd13ifvqhdg","pricing_plan_id":"cebpf4jnsgd1na2vs0mg"},{"bike_id":"8b10cb9f-15d9-4eb9-a18e-896430cdcbda","system_id":"levelo_inurba_marseille","lat":43.32033,"lon":5.40822,"is_reserved":false,"is_disabled":false,"rental_uris":{"android":"levelo://app?vid=8b10cb9f-15d9-4eb9-a18e-896430cdcbda","ios":"levelo://app?vid=8b10cb9f-15d9-4eb9-a18e-896430cdcbda"},"vehicle_type_id":"4","last_reported":1728407299,"current_range_meters":28000,"station_id":"ce4bhq92rcd13ifvqhjg","pricing_plan_id":"cebpf4jnsgd1na2vs0mg"},{"bike_id":"1ed5e428-910d-45ef-8800-bd57d7ef8ae5","system_id":"levelo_inurba_marseille","lat":43.31322,"lon":5.39699,"is_reserved":false,"is_disabled":false,"rental_uris":{"android":"levelo://app?vid=1ed5e428-910d-45ef-8800-bd57d7ef8ae5","ios":"levelo://app?vid=1ed5e428-910d-45ef-8800-bd57d7ef8ae5"},"vehicle_type_id":"4","last_reported":1728407299,"current_range_meters":32400,"station_id":"ce4bgvp2rcd13ifvqcu0","pricing_plan_id":"cebpf4jnsgd1na2vs0mg"},{"bike_id":"ce9af739-9b44-4be9-9e33-86fc74073eeb","system_id":"levelo_inurba_marseille","lat":43.28035,"lon":5.36951,"is_reserved":false,"is_disabled":false,"rental_uris":{"android":"levelo://app?vid=ce9af739-9b44-4be9-9e33-86fc74073eeb","ios":"levelo://app?vid=ce9af739-9b44-4be9-9e33-86fc74073eeb"},"vehicle_type_id":"4","last_reported":1728407299,"current_range_meters":7200,"station_id":"ce4bha12rcd13ifvqef0","pricing_plan_id":"cebpf4jnsgd1na2vs0mg"},{"bike_id":"d497689f-9055-4c78-841d-43bd6f571c48","system_id":"levelo_inurba_marseille","lat":43.27615,"lon":5.36113,"is_reserved":false,"is_disabled":false,"rental_uris":{"android":"levelo://app?vid=d497689f-9055-4c78-841d-43bd6f571c48","ios":"levelo://app?vid=d497689f-9055-4c78-841d-43bd6f571c48"},"vehicle_type_id":"4","last_reported":1728407299,"current_range_meters":38000,"station_id":"ce4bgj92rcd13ifvqbe0","pricing_plan_id":"cebpf4jnsgd1na2vs0mg"},{"bike_id":"b4e6b6a8-297e-475d-bcb4-79d8b3f4a38c","system_id":"levelo_inurba_marseille","lat":43.33022,"lon":5.39036,"is_reserved":false,"is_disabled":false,"rental_uris":{"android":"levelo://app?vid=b4e6b6a8-297e-475d-bcb4-79d8b3f4a38c","ios":"levelo://app?vid=b4e6b6a8-297e-475d-bcb4-79d8b3f4a38c"},"vehicle_type_id":"4","last_reported":1728407299,"current_range_meters":38800,"station_id":"ce4bhr92rcd13ifvqhrg","pricing_plan_id":"cebpf4jnsgd1na2vs0mg"},{"bike_id":"6a49e431-a992-448e-a7dc-9d38c5a96c64","system_id":"levelo_inurba_marseille","lat":43.27002,"lon":5.402576,"is_reserved":false,"is_disabled":false,"rental_uris":{"android":"levelo://app?vid=6a49e431-a992-448e-a7dc-9d38c5a96c64","ios":"levelo://app?vid=6a49e431-a992-448e-a7dc-9d38c5a96c64"},"vehicle_type_id":"4","last_reported":1728407299,"current_range_meters":18000,"station_id":"cjm6bp8fraef2m0cb0m0","pricing_plan_id":"cebpf4jnsgd1na2vs0mg"},{"bike_id":"ff9250df-f516-49d1-8071-1b76513ac848","system_id":"levelo_inurba_marseille","lat":43.315582,"lon":5.368997,"is_reserved":false,"is_disabled":false,"rental_uris":{"android":"levelo://app?vid=ff9250df-f516-49d1-8071-1b76513ac848","ios":"levelo://app?vid=ff9250df-f516-49d1-8071-1b76513ac848"},"vehicle_type_id":"4","last_reported":1728407299,"current_range_meters":14000,"station_id":"ce4bhs12rcd13ifvqhvg","pricing_plan_id":"cebpf4jnsgd1na2vs0mg"},{"bike_id":"015d8d41-38c4-4cab-ade5-776ff14d3658","system_id":"levelo_inurba_marseille","lat":43.29171,"lon":5.37156,"is_reserved":false,"is_disabled":false,"rental_uris":{"android":"levelo://app?vid=015d8d41-38c4-4cab-ade5-776ff14d3658","ios":"levelo://app?vid=015d8d41-38c4-4cab-ade5-776ff14d3658"},"vehicle_type_id":"4","last_reported":1728407299,"current_range_meters":38400,"station_id":"ce4bha92rcd13ifvqeh0","pricing_plan_id":"cebpf4jnsgd1na2vs0mg"},{"bike_id":"1027f6bf-9b3c-41af-9f81-0c58d1959e85","system_id":"levelo_inurba_marseille","lat":43.28612,"lon":5.35098,"is_reserved":false,"is_disabled":false,"rental_uris":{"android":"levelo://app?vid=1027f6bf-9b3c-41af-9f81-0c58d1959e85","ios":"levelo://app?vid=1027f6bf-9b3c-41af-9f81-0c58d1959e85"},"vehicle_type_id":"4","last_reported":1728407299,"current_range_meters":25200,"station_id":"ce4bhch2rcd13ifvqeug","pricing_plan_id":"cebpf4jnsgd1na2vs0mg"},{"bike_id":"4c20f913-24e3-40ed-8b74-47b31a7256ee","system_id":"levelo_inurba_marseille","lat":43.24067,"lon":5.37767,"is_reserved":false,"is_disabled":false,"rental_uris":{"android":"levelo://app?vid=4c20f913-24e3-40ed-8b74-47b31a7256ee","ios":"levelo://app?vid=4c20f913-24e3-40ed-8b74-47b31a7256ee"},"vehicle_type_id":"4","last_reported":1728407299,"current_range_meters":28800,"station_id":"ce4bhnp2rcd13ifvqgvg","pricing_plan_id":"cebpf4jnsgd1na2vs0mg"},{"bike_id":"6364b0e7-4994-4b67-a542-6a4de6841582","system_id":"levelo_inurba_marseille","lat":43.23174,"lon":5.39988,"is_reserved":false,"is_disabled":false,"rental_uris":{"android":"levelo://app?vid=6364b0e7-4994-4b67-a542-6a4de6841582","ios":"levelo://app?vid=6364b0e7-4994-4b67-a542-6a4de6841582"},"vehicle_type_id":"4","last_reported":1728407299,"current_range_meters":22800,"station_id":"ce4bhn12rcd13ifvqgqg","pricing_plan_id":"cebpf4jnsgd1na2vs0mg"},{"bike_id":"927fcdd8-e1f0-4d74-996e-de099f007665","system_id":"levelo_inurba_marseille","lat":43.282658,"lon":5.405087,"is_reserved":false,"is_disabled":false,"rental_uris":{"android":"levelo://app?vid=927fcdd8-e1f0-4d74-996e-de099f007665","ios":"levelo://app?vid=927fcdd8-e1f0-4d74-996e-de099f007665"},"vehicle_type_id":"4","last_reported":1728407299,"current_range_meters":26000,"station_id":"ce4bgkh2rcd13ifvqbl0","pricing_plan_id":"cebpf4jnsgd1na2vs0mg"},{"bike_id":"481d655e-2058-4a01-a554-005cdccac622","system_id":"levelo_inurba_marseille","lat":43.283478,"lon":5.381049,"is_reserved":false,"is_disabled":false,"rental_uris":{"android":"levelo://app?vid=481d655e-2058-4a01-a554-005cdccac622","ios":"levelo://app?vid=481d655e-2058-4a01-a554-005cdccac622"},"vehicle_type_id":"4","last_reported":1728407299,"current_range_meters":28800,"station_id":"ce4bgs12rcd13ifvqcag","pricing_plan_id":"cebpf4jnsgd1na2vs0mg"},{"bike_id":"90886a14-1cfd-4faa-9cb4-da24f74c6d8a","system_id":"levelo_inurba_marseille","lat":43.260681,"lon":5.393939,"is_reserved":false,"is_disabled":false,"rental_uris":{"android":"levelo://app?vid=90886a14-1cfd-4faa-9cb4-da24f74c6d8a","ios":"levelo://app?vid=90886a14-1cfd-4faa-9cb4-da24f74c6d8a"},"vehicle_type_id":"4","last_reported":1728407299,"current_range_meters":22000,"station_id":"ce4bhh92rcd13ifvqfj0","pricing_plan_id":"cebpf4jnsgd1na2vs0mg"},{"bike_id":"4a7f32a5-45f9-4e4f-8b14-ad0c04f2fc35","system_id":"levelo_inurba_marseille","lat":43.25489,"lon":5.37649,"is_reserved":false,"is_disabled":false,"rental_uris":{"android":"levelo://app?vid=4a7f32a5-45f9-4e4f-8b14-ad0c04f2fc35","ios":"levelo://app?vid=4a7f32a5-45f9-4e4f-8b14-ad0c04f2fc35"},"vehicle_type_id":"4","last_reported":1728407299,"current_range_meters":10000,"station_id":"ce4bhh12rcd13ifvqff0","pricing_plan_id":"cebpf4jnsgd1na2vs0mg"},{"bike_id":"29bf0f91-4d5f-4cf6-be23-851913a0efe2","system_id":"levelo_inurba_marseille","lat":43.28696,"lon":5.3998,"is_reserved":false,"is_disabled":false,"rental_uris":{"android":"levelo://app?vid=29bf0f91-4d5f-4cf6-be23-851913a0efe2","ios":"levelo://app?vid=29bf0f91-4d5f-4cf6-be23-851913a0efe2"},"vehicle_type_id":"4","last_reported":1728407299,"current_range_meters":16400,"station_id":"ce4bho92rcd13ifvqh3g","pricing_plan_id":"cebpf4jnsgd1na2vs0mg"},{"bike_id":"9ed49e92-8fe1-49f5-ac7c-c12e2d4da7a9","system_id":"levelo_inurba_marseille","lat":43.27943,"lon":5.41049,"is_reserved":false,"is_disabled":false,"rental_uris":{"android":"levelo://app?vid=9ed49e92-8fe1-49f5-ac7c-c12e2d4da7a9","ios":"levelo://app?vid=9ed49e92-8fe1-49f5-ac7c-c12e2d4da7a9"},"vehicle_type_id":"4","last_reported":1728407299,"current_range_meters":3600,"station_id":"ce4bhnp2rcd13ifvqh0g","pricing_plan_id":"cebpf4jnsgd1na2vs0mg"},{"bike_id":"5d98e0b3-1c48-4bce-8ffe-0e2c2ea088a0","system_id":"levelo_inurba_marseille","lat":43.23054,"lon":5.35491,"is_reserved":false,"is_disabled":false,"rental_uris":{"android":"levelo://app?vid=5d98e0b3-1c48-4bce-8ffe-0e2c2ea088a0","ios":"levelo://app?vid=5d98e0b3-1c48-4bce-8ffe-0e2c2ea088a0"},"vehicle_type_id":"4","last_reported":1728407299,"current_range_meters":30400,"station_id":"cpo3342slgdg3j2ifvpg","pricing_plan_id":"cebpf4jnsgd1na2vs0mg"},{"bike_id":"322c44c0-a167-401e-9e90-ca29bbf4cc50","system_id":"levelo_inurba_marseille","lat":43.28615,"lon":5.35104,"is_reserved":false,"is_disabled":false,"rental_uris":{"android":"levelo://app?vid=322c44c0-a167-401e-9e90-ca29bbf4cc50","ios":"levelo://app?vid=322c44c0-a167-401e-9e90-ca29bbf4cc50"},"vehicle_type_id":"4","last_reported":1728407299,"current_range_meters":34000,"station_id":"ce4bhch2rcd13ifvqeug","pricing_plan_id":"cebpf4jnsgd1na2vs0mg"},{"bike_id":"1fe94854-bca7-4628-a77d-34cdb2a062d3","system_id":"levelo_inurba_marseille","lat":43.33022,"lon":5.39042,"is_reserved":false,"is_disabled":false,"rental_uris":{"android":"levelo://app?vid=1fe94854-bca7-4628-a77d-34cdb2a062d3","ios":"levelo://app?vid=1fe94854-bca7-4628-a77d-34cdb2a062d3"},"vehicle_type_id":"4","last_reported":1728407299,"current_range_meters":25600,"station_id":"ce4bhr92rcd13ifvqhrg","pricing_plan_id":"cebpf4jnsgd1na2vs0mg"},{"bike_id":"809e23e9-cdaf-4833-91fe-6ef30021a82c","system_id":"levelo_inurba_marseille","lat":43.28851,"lon":5.35855,"is_reserved":false,"is_disabled":false,"rental_uris":{"android":"levelo://app?vid=809e23e9-cdaf-4833-91fe-6ef30021a82c","ios":"levelo://app?vid=809e23e9-cdaf-4833-91fe-6ef30021a82c"},"vehicle_type_id":"4","last_reported":1728407299,"current_range_meters":33600,"station_id":"ce4bhb12rcd13ifvqem0","pricing_plan_id":"cebpf4jnsgd1na2vs0mg"},{"bike_id":"8d9f0f8a-df6e-4b3d-a65e-167f7d04e821","system_id":"levelo_inurba_marseille","lat":43.29867,"lon":5.39723,"is_reserved":false,"is_disabled":false,"rental_uris":{"android":"levelo://app?vid=8d9f0f8a-df6e-4b3d-a65e-167f7d04e821","ios":"levelo://app?vid=8d9f0f8a-df6e-4b3d-a65e-167f7d04e821"},"vehicle_type_id":"4","last_reported":1728407299,"current_range_meters":27600,"station_id":"ce4bh0h2rcd13ifvqd50","pricing_plan_id":"cebpf4jnsgd1na2vs0mg"},{"bike_id":"3165ff75-253a-4a7e-8951-3aaab806599e","system_id":"levelo_inurba_marseille","lat":43.28099,"lon":5.37841,"is_reserved":false,"is_disabled":false,"rental_uris":{"android":"levelo://app?vid=3165ff75-253a-4a7e-8951-3aaab806599e","ios":"levelo://app?vid=3165ff75-253a-4a7e-8951-3aaab806599e"},"vehicle_type_id":"4","last_reported":1728407299,"current_range_meters":4800,"station_id":"ce4bha12rcd13ifvqee0","pricing_plan_id":"cebpf4jnsgd1na2vs0mg"},{"bike_id":"b79f0bd5-ebfb-42fe-a7fc-b03e20d478d6","system_id":"levelo_inurba_marseille","lat":43.2417,"lon":5.36401,"is_reserved":false,"is_disabled":false,"rental_uris":{"android":"levelo://app?vid=b79f0bd5-ebfb-42fe-a7fc-b03e20d478d6","ios":"levelo://app?vid=b79f0bd5-ebfb-42fe-a7fc-b03e20d478d6"},"vehicle_type_id":"4","last_reported":1728407299,"current_range_meters":25600,"station_id":"cpo36qri1sfpv3e86is0","pricing_plan_id":"cebpf4jnsgd1na2vs0mg"},{"bike_id":"36e2ed2f-407d-4913-99b1-e655395b9a91","system_id":"levelo_inurba_marseille","lat":43.32036,"lon":5.41558,"is_reserved":false,"is_disabled":false,"rental_uris":{"android":"levelo://app?vid=36e2ed2f-407d-4913-99b1-e655395b9a91","ios":"levelo://app?vid=36e2ed2f-407d-4913-99b1-e655395b9a91"},"vehicle_type_id":"4","last_reported":1728407299,"current_range_meters":20800,"station_id":"ce4bhq92rcd13ifvqhkg","pricing_plan_id":"cebpf4jnsgd1na2vs0mg"},{"bike_id":"624363dc-7e65-41d3-9173-4f83aa577f32","system_id":"levelo_inurba_marseille","lat":43.262025,"lon":5.379271,"is_reserved":false,"is_disabled":false,"rental_uris":{"android":"levelo://app?vid=624363dc-7e65-41d3-9173-4f83aa577f32","ios":"levelo://app?vid=624363dc-7e65-41d3-9173-4f83aa577f32"},"vehicle_type_id":"4","last_reported":1728407299,"current_range_meters":8800,"station_id":"ce4bhjp2rcd13ifvqg90","pricing_plan_id":"cebpf4jnsgd1na2vs0mg"},{"bike_id":"ea19a5fb-90e8-4a64-bf59-6c99942f59b0","system_id":"levelo_inurba_marseille","lat":43.23963,"lon":5.36633,"is_reserved":false,"is_disabled":false,"rental_uris":{"android":"levelo://app?vid=ea19a5fb-90e8-4a64-bf59-6c99942f59b0","ios":"levelo://app?vid=ea19a5fb-90e8-4a64-bf59-6c99942f59b0"},"vehicle_type_id":"4","last_reported":1728407299,"current_range_meters":24000,"station_id":"ce4bhi12rcd13ifvqfp0","pricing_plan_id":"cebpf4jnsgd1na2vs0mg"},{"bike_id":"8bd9db10-f5f3-40e1-8966-ffe1c35b9841","system_id":"levelo_inurba_marseille","lat":43.27496,"lon":5.42455,"is_reserved":false,"is_disabled":false,"rental_uris":{"android":"levelo://app?vid=8bd9db10-f5f3-40e1-8966-ffe1c35b9841","ios":"levelo://app?vid=8bd9db10-f5f3-40e1-8966-ffe1c35b9841"},"vehicle_type_id":"4","last_reported":1728407299,"current_range_meters":27600,"station_id":"ce4bhn92rcd13ifvqgrg","pricing_plan_id":"cebpf4jnsgd1na2vs0mg"},{"bike_id":"afd72d07-0340-4a62-9188-751a11343b5d","system_id":"levelo_inurba_marseille","lat":43.2558,"lon":5.38252,"is_reserved":false,"is_disabled":false,"rental_uris":{"android":"levelo://app?vid=afd72d07-0340-4a62-9188-751a11343b5d","ios":"levelo://app?vid=afd72d07-0340-4a62-9188-751a11343b5d"},"vehicle_type_id":"4","last_reported":1728407299,"current_range_meters":38800,"station_id":"ce4bhih2rcd13ifvqfs0","pricing_plan_id":"cebpf4jnsgd1na2vs0mg"},{"bike_id":"c553d12a-ec68-4bec-bd5c-784d537bd309","system_id":"levelo_inurba_marseille","lat":43.29971,"lon":5.38494,"is_reserved":false,"is_disabled":false,"rental_uris":{"android":"levelo://app?vid=c553d12a-ec68-4bec-bd5c-784d537bd309","ios":"levelo://app?vid=c553d12a-ec68-4bec-bd5c-784d537bd309"},"vehicle_type_id":"4","last_reported":1728407299,"current_range_meters":2800,"station_id":"ce4bgj92rcd13ifvqbd0","pricing_plan_id":"cebpf4jnsgd1na2vs0mg"},{"bike_id":"a12e9d77-8cf4-466a-935a-0832e9ff2fd6","system_id":"levelo_inurba_marseille","lat":43.24178,"lon":5.39735,"is_reserved":false,"is_disabled":false,"rental_uris":{"android":"levelo://app?vid=a12e9d77-8cf4-466a-935a-0832e9ff2fd6","ios":"levelo://app?vid=a12e9d77-8cf4-466a-935a-0832e9ff2fd6"},"vehicle_type_id":"4","last_reported":1728407299,"current_range_meters":26000,"station_id":"ce4bhn12rcd13ifvqgpg","pricing_plan_id":"cebpf4jnsgd1na2vs0mg"},{"bike_id":"5f9c91e9-4b64-4570-8a45-b954798f6ffd","system_id":"levelo_inurba_marseille","lat":43.31075,"lon":5.38355,"is_reserved":false,"is_disabled":false,"rental_uris":{"android":"levelo://app?vid=5f9c91e9-4b64-4570-8a45-b954798f6ffd","ios":"levelo://app?vid=5f9c91e9-4b64-4570-8a45-b954798f6ffd"},"vehicle_type_id":"4","last_reported":1728407299,"current_range_meters":36800,"station_id":"ce4bgv92rcd13ifvqcr0","pricing_plan_id":"cebpf4jnsgd1na2vs0mg"},{"bike_id":"0c520928-188c-495a-9b0f-73e26cec0470","system_id":"levelo_inurba_marseille","lat":43.31704,"lon":5.37732,"is_reserved":false,"is_disabled":false,"rental_uris":{"android":"levelo://app?vid=0c520928-188c-495a-9b0f-73e26cec0470","ios":"levelo://app?vid=0c520928-188c-495a-9b0f-73e26cec0470"},"vehicle_type_id":"4","last_reported":1728407299,"current_range_meters":22400,"station_id":"ce4bgth2rcd13ifvqch0","pricing_plan_id":"cebpf4jnsgd1na2vs0mg"},{"bike_id":"8b7810c0-0c45-4804-9628-4bce2fc54ff4","system_id":"levelo_inurba_marseille","lat":43.286102,"lon":5.351005,"is_reserved":false,"is_disabled":false,"rental_uris":{"android":"levelo://app?vid=8b7810c0-0c45-4804-9628-4bce2fc54ff4","ios":"levelo://app?vid=8b7810c0-0c45-4804-9628-4bce2fc54ff4"},"vehicle_type_id":"4","last_reported":1728407299,"current_range_meters":9200,"station_id":"ce4bhch2rcd13ifvqeug","pricing_plan_id":"cebpf4jnsgd1na2vs0mg"},{"bike_id":"9b8112bf-4344-48f6-8ffb-1f73cd86330c","system_id":"levelo_inurba_marseille","lat":43.27914,"lon":5.39576,"is_reserved":false,"is_disabled":false,"rental_uris":{"android":"levelo://app?vid=9b8112bf-4344-48f6-8ffb-1f73cd86330c","ios":"levelo://app?vid=9b8112bf-4344-48f6-8ffb-1f73cd86330c"},"vehicle_type_id":"4","last_reported":1728407299,"current_range_meters":22000,"station_id":"ce4bhf92rcd13ifvqf40","pricing_plan_id":"cebpf4jnsgd1na2vs0mg"},{"bike_id":"29f93f1a-b510-4b26-abef-579b5e487fa0","system_id":"levelo_inurba_marseille","lat":43.29299,"lon":5.3746,"is_reserved":false,"is_disabled":false,"rental_uris":{"android":"levelo://app?vid=29f93f1a-b510-4b26-abef-579b5e487fa0","ios":"levelo://app?vid=29f93f1a-b510-4b26-abef-579b5e487fa0"},"vehicle_type_id":"4","last_reported":1728407299,"current_range_meters":4800,"station_id":"ce4bgi12rcd13ifvqb70","pricing_plan_id":"cebpf4jnsgd1na2vs0mg"},{"bike_id":"64da3415-4b8c-41fa-92e0-0d604e35900f","system_id":"levelo_inurba_marseille","lat":43.27998,"lon":5.40017,"is_reserved":false,"is_disabled":false,"rental_uris":{"android":"levelo://app?vid=64da3415-4b8c-41fa-92e0-0d604e35900f","ios":"levelo://app?vid=64da3415-4b8c-41fa-92e0-0d604e35900f"},"vehicle_type_id":"4","last_reported":1728407299,"current_range_meters":28800,"station_id":"ce4bho92rcd13ifvqh4g","pricing_plan_id":"cebpf4jnsgd1na2vs0mg"},{"bike_id":"8ff5b02c-7fa3-4d64-8fa0-706d1aedea02","system_id":"levelo_inurba_marseille","lat":43.30432,"lon":5.38889,"is_reserved":false,"is_disabled":false,"rental_uris":{"android":"levelo://app?vid=8ff5b02c-7fa3-4d64-8fa0-706d1aedea02","ios":"levelo://app?vid=8ff5b02c-7fa3-4d64-8fa0-706d1aedea02"},"vehicle_type_id":"4","last_reported":1728407299,"current_range_meters":38000,"station_id":"ce4bgk12rcd13ifvqbi0","pricing_plan_id":"cebpf4jnsgd1na2vs0mg"},{"bike_id":"0590fc50-b101-4962-b997-40a0462ce03c","system_id":"levelo_inurba_marseille","lat":43.28934,"lon":5.36638,"is_reserved":false,"is_disabled":false,"rental_uris":{"android":"levelo://app?vid=0590fc50-b101-4962-b997-40a0462ce03c","ios":"levelo://app?vid=0590fc50-b101-4962-b997-40a0462ce03c"},"vehicle_type_id":"4","last_reported":1728407299,"current_range_meters":20800,"station_id":"ce4bhap2rcd13ifvqek0","pricing_plan_id":"cebpf4jnsgd1na2vs0mg"},{"bike_id":"937afa9a-a938-4a8e-a160-0b7f2dc8a5c3","system_id":"levelo_inurba_marseille","lat":43.23051,"lon":5.35497,"is_reserved":false,"is_disabled":false,"rental_uris":{"android":"levelo://app?vid=937afa9a-a938-4a8e-a160-0b7f2dc8a5c3","ios":"levelo://app?vid=937afa9a-a938-4a8e-a160-0b7f2dc8a5c3"},"vehicle_type_id":"4","last_reported":1728407299,"current_range_meters":8800,"station_id":"cpo3342slgdg3j2ifvpg","pricing_plan_id":"cebpf4jnsgd1na2vs0mg"},{"bike_id":"b5476d6d-4475-4445-8957-a68cc4a7e788","system_id":"levelo_inurba_marseille","lat":43.25584,"lon":5.38232,"is_reserved":false,"is_disabled":false,"rental_uris":{"android":"levelo://app?vid=b5476d6d-4475-4445-8957-a68cc4a7e788","ios":"levelo://app?vid=b5476d6d-4475-4445-8957-a68cc4a7e788"},"vehicle_type_id":"4","last_reported":1728407299,"current_range_meters":33200,"station_id":"ce4bhih2rcd13ifvqfs0","pricing_plan_id":"cebpf4jnsgd1na2vs0mg"},{"bike_id":"a7f883c2-f803-43b9-b136-aa06c8b36a3d","system_id":"levelo_inurba_marseille","lat":43.25111,"lon":5.40317,"is_reserved":false,"is_disabled":false,"rental_uris":{"android":"levelo://app?vid=a7f883c2-f803-43b9-b136-aa06c8b36a3d","ios":"levelo://app?vid=a7f883c2-f803-43b9-b136-aa06c8b36a3d"},"vehicle_type_id":"4","last_reported":1728407299,"current_range_meters":3200,"station_id":"ce4bhlh2rcd13ifvqgig","pricing_plan_id":"cebpf4jnsgd1na2vs0mg"},{"bike_id":"f596aaba-88c0-468b-876d-d3a38027258f","system_id":"levelo_inurba_marseille","lat":43.2319,"lon":5.399815,"is_reserved":false,"is_disabled":false,"rental_uris":{"android":"levelo://app?vid=f596aaba-88c0-468b-876d-d3a38027258f","ios":"levelo://app?vid=f596aaba-88c0-468b-876d-d3a38027258f"},"vehicle_type_id":"4","last_reported":1728407299,"current_range_meters":28800,"station_id":"ce4bhn12rcd13ifvqgqg","pricing_plan_id":"cebpf4jnsgd1na2vs0mg"},{"bike_id":"f34d5c8c-fecd-4c53-8dc0-11f14eb746b8","system_id":"levelo_inurba_marseille","lat":43.27942,"lon":5.41051,"is_reserved":false,"is_disabled":false,"rental_uris":{"android":"levelo://app?vid=f34d5c8c-fecd-4c53-8dc0-11f14eb746b8","ios":"levelo://app?vid=f34d5c8c-fecd-4c53-8dc0-11f14eb746b8"},"vehicle_type_id":"4","last_reported":1728407299,"current_range_meters":20000,"station_id":"ce4bhnp2rcd13ifvqh0g","pricing_plan_id":"cebpf4jnsgd1na2vs0mg"},{"bike_id":"d39e9adc-2bbc-4869-b1ca-cd74c7dda9a6","system_id":"levelo_inurba_marseille","lat":43.23058,"lon":5.35487,"is_reserved":false,"is_disabled":false,"rental_uris":{"android":"levelo://app?vid=d39e9adc-2bbc-4869-b1ca-cd74c7dda9a6","ios":"levelo://app?vid=d39e9adc-2bbc-4869-b1ca-cd74c7dda9a6"},"vehicle_type_id":"4","last_reported":1728407299,"current_range_meters":32400,"station_id":"cpo3342slgdg3j2ifvpg","pricing_plan_id":"cebpf4jnsgd1na2vs0mg"},{"bike_id":"7ad8ddd9-6ef0-4866-b09e-e4ac5bd2634f","system_id":"levelo_inurba_marseille","lat":43.27373,"lon":5.36259,"is_reserved":false,"is_disabled":false,"rental_uris":{"android":"levelo://app?vid=7ad8ddd9-6ef0-4866-b09e-e4ac5bd2634f","ios":"levelo://app?vid=7ad8ddd9-6ef0-4866-b09e-e4ac5bd2634f"},"vehicle_type_id":"4","last_reported":1728407299,"current_range_meters":40000,"station_id":"ce4bhbh2rcd13ifvqeo0","pricing_plan_id":"cebpf4jnsgd1na2vs0mg"},{"bike_id":"a301a305-4b9e-4b2f-b84a-507db4a2a4d8","system_id":"levelo_inurba_marseille","lat":43.28612,"lon":5.35094,"is_reserved":false,"is_disabled":false,"rental_uris":{"android":"levelo://app?vid=a301a305-4b9e-4b2f-b84a-507db4a2a4d8","ios":"levelo://app?vid=a301a305-4b9e-4b2f-b84a-507db4a2a4d8"},"vehicle_type_id":"4","last_reported":1728407299,"current_range_meters":3200,"station_id":"ce4bhch2rcd13ifvqeug","pricing_plan_id":"cebpf4jnsgd1na2vs0mg"},{"bike_id":"6adf6664-b0ba-4ca8-9c43-3c16581959fb","system_id":"levelo_inurba_marseille","lat":43.31083,"lon":5.42433,"is_reserved":false,"is_disabled":false,"rental_uris":{"android":"levelo://app?vid=6adf6664-b0ba-4ca8-9c43-3c16581959fb","ios":"levelo://app?vid=6adf6664-b0ba-4ca8-9c43-3c16581959fb"},"vehicle_type_id":"4","last_reported":1728407299,"current_range_meters":5600,"station_id":"ce4bhp92rcd13ifvqhag","pricing_plan_id":"cebpf4jnsgd1na2vs0mg"},{"bike_id":"9eef18b8-9784-40ba-a91b-dd3021d2f448","system_id":"levelo_inurba_marseille","lat":43.27992,"lon":5.40005,"is_reserved":false,"is_disabled":false,"rental_uris":{"android":"levelo://app?vid=9eef18b8-9784-40ba-a91b-dd3021d2f448","ios":"levelo://app?vid=9eef18b8-9784-40ba-a91b-dd3021d2f448"},"vehicle_type_id":"4","last_reported":1728407299,"current_range_meters":36400,"station_id":"ce4bho92rcd13ifvqh4g","pricing_plan_id":"cebpf4jnsgd1na2vs0mg"},{"bike_id":"07f3518a-e9d6-4cb1-aa25-3576b98d2baa","system_id":"levelo_inurba_marseille","lat":43.27816,"lon":5.40717,"is_reserved":false,"is_disabled":false,"rental_uris":{"android":"levelo://app?vid=07f3518a-e9d6-4cb1-aa25-3576b98d2baa","ios":"levelo://app?vid=07f3518a-e9d6-4cb1-aa25-3576b98d2baa"},"vehicle_type_id":"4","last_reported":1728407299,"current_range_meters":12000,"station_id":"ce4bhnh2rcd13ifvqgtg","pricing_plan_id":"cebpf4jnsgd1na2vs0mg"},{"bike_id":"d50382df-1cad-4e81-97d5-46cc1df285c1","system_id":"levelo_inurba_marseille","lat":43.23185,"lon":5.39984,"is_reserved":false,"is_disabled":false,"rental_uris":{"android":"levelo://app?vid=d50382df-1cad-4e81-97d5-46cc1df285c1","ios":"levelo://app?vid=d50382df-1cad-4e81-97d5-46cc1df285c1"},"vehicle_type_id":"4","last_reported":1728407299,"current_range_meters":38800,"station_id":"ce4bhn12rcd13ifvqgqg","pricing_plan_id":"cebpf4jnsgd1na2vs0mg"},{"bike_id":"1b642650-5c86-4b1f-8d51-44b1a451b43d","system_id":"levelo_inurba_marseille","lat":43.2318,"lon":5.39983,"is_reserved":false,"is_disabled":false,"rental_uris":{"android":"levelo://app?vid=1b642650-5c86-4b1f-8d51-44b1a451b43d","ios":"levelo://app?vid=1b642650-5c86-4b1f-8d51-44b1a451b43d"},"vehicle_type_id":"4","last_reported":1728407299,"current_range_meters":12400,"station_id":"ce4bhn12rcd13ifvqgqg","pricing_plan_id":"cebpf4jnsgd1na2vs0mg"},{"bike_id":"3a234165-d710-4c9e-aae5-1b74c3e3d930","system_id":"levelo_inurba_marseille","lat":43.28604,"lon":5.37067,"is_reserved":false,"is_disabled":false,"rental_uris":{"android":"levelo://app?vid=3a234165-d710-4c9e-aae5-1b74c3e3d930","ios":"levelo://app?vid=3a234165-d710-4c9e-aae5-1b74c3e3d930"},"vehicle_type_id":"4","last_reported":1728407299,"current_range_meters":34800,"station_id":"ce4bht12rcd13ifvqi60","pricing_plan_id":"cebpf4jnsgd1na2vs0mg"},