{"last_updated":1751278335,"ttl":60,"version":"2.2","data":{"bikes":[{"bike_id":"3da29fb8-fc97-44c6-b9ac-31dd456b2fd4","system_id":"levelo_inurba_marseille","lat":43.33771,"lon":5.37424,"is_reserved":false,"is_disabled":true,"rental_uris":{"android":"levelo://app?vid=3da29fb8-fc97-44c6-b9ac-31dd456b2fd4","ios":"levelo://app?vid=3da29fb8-fc97-44c6-b9ac-31dd456b2fd4"},"vehicle_type_id":"4","last_reported":1751278335,"current_range_meters":0,"station_id":"","pricing_plan_id":"cebpf4jnsgd1na2vs0mg"},{"bike_id":"01861ad8-a8d7-4be6-816e-651927c87584","system_id":"levelo_inurba_marseille","lat":43.33751,"lon":5.37456,"is_reserved":false,"is_disabled":true,"rental_uris":{"android":"levelo://app?vid=01861ad8-a8d7-4be6-816e-651927c87584","ios":"levelo://app?vid=01861ad8-a8d7-4be6-816e-651927c87584"},"vehicle_type_id":"4","last_reported":1751278335,"current_range_meters":0,"station_id":"","pricing_plan_id":"cebpf4jnsgd1na2vs0mg"},{"bike_id":"f1483ff6-ae8a-4286-a635-7d40887e3e92","system_id":"levelo_inurba_marseille","lat":43.26957,"lon":5.36645,"is_reserved":false,"is_disabled":true,"rental_uris":{"android":"levelo://app?vid=f1483ff6-ae8a-4286-a635-7d40887e3e92","ios":"levelo://app?vid=f1483ff6-ae8a-4286-a635-7d40887e3e92"},"vehicle_type_id":"4","last_reported":1751278335,"current_range_meters":0,"station_id":"","pricing_plan_id":"cebpf4jnsgd1na2vs0mg"},{"bike_id":"23a29269-2136-41c7-8cfc-ceefe4e74a66","system_id":"levelo_inurba_marseille","lat":43.29896,"lon":5.38214,"is_reserved":false,"is_disabled":true,"rental_uris":{"android":"levelo://app?vid=23a29269-2136-41c7-8cfc-ceefe4e74a66","ios":"levelo://app?vid=23a29269-2136-41c7-8cfc-ceefe4e74a66"},"vehicle_type_id":"4","last_reported":1751278335,"current_range_meters":0,"station_id":"","pricing_plan_id":"cebpf4jnsgd1na2vs0mg"},{"bike_id":"b8b0b7a6-dda4-4e81-a24a-52590fdffc47","system_id":"levelo_inurba_marseille","lat":43.29869,"lon":5.39728,"is_reserved":false,"is_disabled":true,"rental_uris":{"android":"levelo://app?vid=b8b0b7a6-dda4-4e81-a24a-52590fdffc47","ios":"levelo://app?vid=b8b0b7a6-dda4-4e81-a24a-52590fdffc47"},"vehicle_type_id":"4","last_reported":1751278335,"current_range_meters":0,"station_id":"ce4bh0h2rcd13ifvqd50","pricing_plan_id":"cebpf4jnsgd1na2vs0mg"},{"bike_id":"527917eb-dbb1-458c-bc37-0719e0ade664","system_id":"levelo_inurba_marseille","lat":43.28489,"lon":5.38448,"is_reserved":false,"is_disabled":true,"rental_uris":{"android":"levelo://app?vid=527917eb-dbb1-458c-bc37-0719e0ade664","ios":"levelo://app?vid=527917eb-dbb1-458c-bc37-0719e0ade664"},"vehicle_type_id":"4","last_reported":1751278335,"current_range_meters":0,"station_id":"ce4bh512rcd13ifvqe3g","pricing_plan_id":"cebpf4jnsgd1na2vs0mg"},{"bike_id":"4f0d7382-2b80-4d92-b186-0eea06db81d2","system_id":"levelo_inurba_marseille","lat":43.28666,"lon":5.36351,"is_reserved":false,"is_disabled":true,"rental_uris":{"android":"levelo://app?vid=4f0d7382-2b80-4d92-b186-0eea06db81d2","ios":"levelo://app?vid=4f0d7382-2b80-4d92-b186-0eea06db81d2"},"vehicle_type_id":"4","last_reported":1751278335,"current_range_meters":0,"station_id":"ce4bhah2rcd13ifvqej0","pricing_plan_id":"cebpf4jnsgd1na2vs0mg"},{"bike_id":"98694593-87cc-4685-ab37-6d28ff9010b6","system_id":"levelo_inurba_marseille","lat":43.26567,"lon":5.39008,"is_reserved":false,"is_disabled":true,"rental_uris":{"android":"levelo://app?vid=98694593-87cc-4685-ab37-6d28ff9010b6","ios":"levelo://app?vid=98694593-87cc-4685-ab37-6d28ff9010b6"},"vehicle_type_id":"4","last_reported":1751278335,"current_range_meters":0,"station_id":"ce4bhe12rcd13ifvqf30","pricing_plan_id":"cebpf4jnsgd1na2vs0mg"},{"bike_id":"65fc1e2f-e29f-45f4-a100-72d7eb31bbb1","system_id":"levelo_inurba_marseille","lat":43.30951,"lon":5.39047,"is_reserved":false,"is_disabled":true,"rental_uris":{"android":"levelo://app?vid=65fc1e2f-e29f-45f4-a100-72d7eb31bbb1","ios":"levelo://app?vid=65fc1e2f-e29f-45f4-a100-72d7eb31bbb1"},"vehicle_type_id":"4","last_reported":1751278335,"current_range_meters":400,"station_id":"ce4bgup2rcd13ifvqco0","pricing_plan_id":"cebpf4jnsgd1na2vs0mg"},{"bike_id":"11ab9ca3-a926-478a-aa66-0de820482978","system_id":"levelo_inurba_marseille","lat":43.28969,"lon":5.37827,"is_reserved":false,"is_disabled":true,"rental_uris":{"android":"levelo://app?vid=11ab9ca3-a926-478a-aa66-0de820482978","ios":"levelo://app?vid=11ab9ca3-a926-478a-aa66-0de820482978"},"vehicle_type_id":"4","last_reported":1751278335,"current_range_meters":800,"station_id":"ce4bh9p2rcd13ifvqed0","pricing_plan_id":"cebpf4jnsgd1na2vs0mg"},{"bike_id":"29e697ca-26a6-4412-8107-f2c74b259edc","system_id":"levelo_inurba_marseille","lat":43.241924,"lon":5.383744,"is_reserved":false,"is_disabled":true,"rental_uris":{"android":"levelo://app?vid=29e697ca-26a6-4412-8107-f2c74b259edc","ios":"levelo://app?vid=29e697ca-26a6-4412-8107-f2c74b259edc"},"vehicle_type_id":"4","last_reported":1751278335,"current_range_meters":1200,"station_id":"","pricing_plan_id":"cebpf4jnsgd1na2vs0mg"},{"bike_id":"85eb80f1-fdf8-4910-9983-416402de22ff","system_id":"levelo_inurba_marseille","lat":43.276988,"lon":5.41541,"is_reserved":false,"is_disabled":true,"rental_uris":{"android":"levelo://app?vid=85eb80f1-fdf8-4910-9983-416402de22ff","ios":"levelo://app?vid=85eb80f1-fdf8-4910-9983-416402de22ff"},"vehicle_type_id":"4","last_reported":1751278335,"current_range_meters":1200,"station_id":"","pricing_plan_id":"cebpf4jnsgd1na2vs0mg"},{"bike_id":"8cf38d7a-8dd9-435b-89b5-a02f8c909305","system_id":"levelo_inurba_marseille","lat":43.2842,"lon":5.34982,"is_reserved":false,"is_disabled":true,"rental_uris":{"android":"levelo://app?vid=8cf38d7a-8dd9-435b-89b5-a02f8c909305","ios":"levelo://app?vid=8cf38d7a-8dd9-435b-89b5-a02f8c909305"},"vehicle_type_id":"4","last_reported":1751278335,"current_range_meters":1200,"station_id":"ce4bhbh2rcd13ifvqepg","pricing_plan_id":"cebpf4jnsgd1na2vs0mg"},{"bike_id":"4bb4a733-a9bd-4772-9320-a8c7885ff73b","system_id":"levelo_inurba_marseille","lat":43.277776,"lon":5.355653,"is_reserved":false,"is_disabled":true,"rental_uris":{"android":"levelo://app?vid=4bb4a733-a9bd-4772-9320-a8c7885ff73b","ios":"levelo://app?vid=4bb4a733-a9bd-4772-9320-a8c7885ff73b"},"vehicle_type_id":"4","last_reported":1751278335,"current_range_meters":1600,"station_id":"","pricing_plan_id":"cebpf4jnsgd1na2vs0mg"},{"bike_id":"17b905fe-a900-4025-ab2a-9ab7be6d565c","system_id":"levelo_inurba_marseille","lat":43.25498,"lon":5.37654,"is_reserved":false,"is_disabled":true,"rental_uris":{"android":"levelo://app?vid=17b905fe-a900-4025-ab2a-9ab7be6d565c","ios":"levelo://app?vid=17b905fe-a900-4025-ab2a-9ab7be6d565c"},"vehicle_type_id":"4","last_reported":1751278335,"current_range_meters":1600,"station_id":"ce4bhh12rcd13ifvqff0","pricing_plan_id":"cebpf4jnsgd1na2vs0mg"},{"bike_id":"f1c4fcee-b5e5-4cd3-9d7f-38f660d75ab4","system_id":"levelo_inurba_marseille","lat":43.21743,"lon":5.34602,"is_reserved":false,"is_disabled":true,"rental_uris":{"android":"levelo://app?vid=f1c4fcee-b5e5-4cd3-9d7f-38f660d75ab4","ios":"levelo://app?vid=f1c4fcee-b5e5-4cd3-9d7f-38f660d75ab4"},"vehicle_type_id":"4","last_reported":1751278335,"current_range_meters":2000,"station_id":"","pricing_plan_id":"cebpf4jnsgd1na2vs0mg"},{"bike_id":"e660b1b0-8ece-479d-a4ca-0100ec937934","system_id":"levelo_inurba_marseille","lat":43.24997,"lon":5.38927,"is_reserved":false,"is_disabled":true,"rental_uris":{"android":"levelo://app?vid=e660b1b0-8ece-479d-a4ca-0100ec937934","ios":"levelo://app?vid=e660b1b0-8ece-479d-a4ca-0100ec937934"},"vehicle_type_id":"4","last_reported":1751278335,"current_range_meters":2000,"station_id":"ce4bhgp2rcd13ifvqfd0","pricing_plan_id":"cebpf4jnsgd1na2vs0mg"},{"bike_id":"0a49216a-621f-4bdb-a95f-e57dad5e775b","system_id":"levelo_inurba_marseille","lat":43.24072,"lon":5.37781,"is_reserved":false,"is_disabled":true,"rental_uris":{"android":"levelo://app?vid=0a49216a-621f-4bdb-a95f-e57dad5e775b","ios":"levelo://app?vid=0a49216a-621f-4bdb-a95f-e57dad5e775b"},"vehicle_type_id":"4","last_reported":1751278335,"current_range_meters":2000,"station_id":"ce4bhnp2rcd13ifvqgvg","pricing_plan_id":"cebpf4jnsgd1na2vs0mg"},{"bike_id":"3bbaef4b-0514-412a-a8ae-309886c8e8ce","system_id":"levelo_inurba_marseille","lat":43.21748,"lon":5.34603,"is_reserved":false,"is_disabled":true,"rental_uris":{"android":"levelo://app?vid=3bbaef4b-0514-412a-a8ae-309886c8e8ce","ios":"levelo://app?vid=3bbaef4b-0514-412a-a8ae-309886c8e8ce"},"vehicle_type_id":"4","last_reported":1751278335,"current_range_meters":2000,"station_id":"st_cvj6r9ubvosntc0bgbag","pricing_plan_id":"cebpf4jnsgd1na2vs0mg"},{"bike_id":"a37e8def-144c-4d8d-aabf-950aca51f939","system_id":"levelo_inurba_marseille","lat":43.297702,"lon":5.38121,"is_reserved":false,"is_disabled":false,"rental_uris":{"android":"levelo://app?vid=a37e8def-144c-4d8d-aabf-950aca51f939","ios":"levelo://app?vid=a37e8def-144c-4d8d-aabf-950aca51f939"},"vehicle_type_id":"4","last_reported":1751278335,"current_range_meters":2800,"station_id":"","pricing_plan_id":"cebpf4jnsgd1na2vs0mg"},{"bike_id":"4e4198d2-c267-483a-9abc-41559f999c82","system_id":"levelo_inurba_marseille","lat":43.29262,"lon":5.40899,"is_reserved":false,"is_disabled":false,"rental_uris":{"android":"levelo://app?vid=4e4198d2-c267-483a-9abc-41559f999c82","ios":"levelo://app?vid=4e4198d2-c267-483a-9abc-41559f999c82"},"vehicle_type_id":"4","last_reported":1751278335,"current_range_meters":2800,"station_id":"ce4bh192rcd13ifvqdc0","pricing_plan_id":"cebpf4jnsgd1na2vs0mg"},{"bike_id":"ddb07b6a-230f-4bb2-a07b-8d06bcbb8c16","system_id":"levelo_inurba_marseille","lat":43.24539,"lon":5.3952,"is_reserved":false,"is_disabled":false,"rental_uris":{"android":"levelo://app?vid=ddb07b6a-230f-4bb2-a07b-8d06bcbb8c16","ios":"levelo://app?vid=ddb07b6a-230f-4bb2-a07b-8d06bcbb8c16"},"vehicle_type_id":"4","last_reported":1751278335,"current_range_meters":2800,"station_id":"ce4bhlp2rcd13ifvqgjg","pricing_plan_id":"cebpf4jnsgd1na2vs0mg"},{"bike_id":"9e163c86-36ef-4269-bcd8-6c9e6f4075a0","system_id":"levelo_inurba_marseille","lat":43.302913,"lon":5.371389,"is_reserved":false,"is_disabled":false,"rental_uris":{"android":"levelo://app?vid=9e163c86-36ef-4269-bcd8-6c9e6f4075a0","ios":"levelo://app?vid=9e163c86-36ef-4269-bcd8-6c9e6f4075a0"},"vehicle_type_id":"4","last_reported":1751278335,"current_range_meters":3200,"station_id":"","pricing_plan_id":"cebpf4jnsgd1na2vs0mg"},{"bike_id":"cc1dc377-bf52-4a80-8c98-a7859c6bedf1","system_id":"levelo_inurba_marseille","lat":43.28662,"lon":5.38684,"is_reserved":false,"is_disabled":false,"rental_uris":{"android":"levelo://app?vid=cc1dc377-bf52-4a80-8c98-a7859c6bedf1","ios":"levelo://app?vid=cc1dc377-bf52-4a80-8c98-a7859c6bedf1"},"vehicle_type_id":"4","last_reported":1751278335,"current_range_meters":3600,"station_id":"ce4bh492rcd13ifvqdug","pricing_plan_id":"cebpf4jnsgd1na2vs0mg"},{"bike_id":"190feff3-f69a-4a7b-aa9d-341c2aa93040","system_id":"levelo_inurba_marseille","lat":43.28038,"lon":5.36946,"is_reserved":false,"is_disabled":false,"rental_uris":{"android":"levelo://app?vid=190feff3-f69a-4a7b-aa9d-341c2aa93040","ios":"levelo://app?vid=190feff3-f69a-4a7b-aa9d-341c2aa93040"},"vehicle_type_id":"4","last_reported":1751278335,"current_range_meters":3600,"station_id":"ce4bha12rcd13ifvqef0","pricing_plan_id":"cebpf4jnsgd1na2vs0mg"},{"bike_id":"d5b5bc74-aaeb-40c0-b979-fb1a262527de","system_id":"levelo_inurba_marseille","lat":43.33253,"lon":5.3586,"is_reserved":false,"is_disabled":false,"rental_uris":{"android":"levelo://app?vid=d5b5bc74-aaeb-40c0-b979-fb1a262527de","ios":"levelo://app?vid=d5b5bc74-aaeb-40c0-b979-fb1a262527de"},"vehicle_type_id":"4","last_reported":1751278335,"current_range_meters":4000,"station_id":"","pricing_plan_id":"cebpf4jnsgd1na2vs0mg"},{"bike_id":"6445cc03-f0ad-4833-bf37-aec5b859b6be","system_id":"levelo_inurba_marseille","lat":43.263355,"lon":5.401128,"is_reserved":false,"is_disabled":false,"rental_uris":{"android":"levelo://app?vid=6445cc03-f0ad-4833-bf37-aec5b859b6be","ios":"levelo://app?vid=6445cc03-f0ad-4833-bf37-aec5b859b6be"},"vehicle_type_id":"4","last_reported":1751278335,"current_range_meters":5600,"station_id":"","pricing_plan_id":"cebpf4jnsgd1na2vs0mg"},{"bike_id":"721165c1-ef6f-40cc-8d33-af3a7999864b","system_id":"levelo_inurba_marseille","lat":43.326073,"lon":5.378927,"is_reserved":false,"is_disabled":false,"rental_uris":{"android":"levelo://app?vid=721165c1-ef6f-40cc-8d33-af3a7999864b","ios":"levelo://app?vid=721165c1-ef6f-40cc-8d33-af3a7999864b"},"vehicle_type_id":"4","last_reported":1751278335,"current_range_meters":5600,"station_id":"","pricing_plan_id":"cebpf4jnsgd1na2vs0mg"},{"bike_id":"4e2cc4fd-da60-49d1-aa55-fc6bf1ea23bc","system_id":"levelo_inurba_marseille","lat":43.3054,"lon":5.36543,"is_reserved":false,"is_disabled":false,"rental_uris":{"android":"levelo://app?vid=4e2cc4fd-da60-49d1-aa55-fc6bf1ea23bc","ios":"levelo://app?vid=4e2cc4fd-da60-49d1-aa55-fc6bf1ea23bc"},"vehicle_type_id":"4","last_reported":1751278335,"current_range_meters":5600,"station_id":"ce4bgs12rcd13ifvqcag","pricing_plan_id":"cebpf4jnsgd1na2vs0mg"},{"bike_id":"cc66bca8-e8e3-453f-ad1c-7db8b6cb0727","system_id":"levelo_inurba_marseille","lat":43.291563,"lon":5.384851,"is_reserved":false,"is_disabled":false,"rental_uris":{"android":"levelo://app?vid=cc66bca8-e8e3-453f-ad1c-7db8b6cb0727","ios":"levelo://app?vid=cc66bca8-e8e3-453f-ad1c-7db8b6cb0727"},"vehicle_type_id":"4","last_reported":1751278335,"current_range_meters":5600,"station_id":"ce4bh4p2rcd13ifvqe0g","pricing_plan_id":"cebpf4jnsgd1na2vs0mg"},{"bike_id":"6ee865bb-3efe-4226-8377-fe558a79fbcb","system_id":"levelo_inurba_marseille","lat":43.25491,"lon":5.37652,"is_reserved":false,"is_disabled":false,"rental_uris":{"android":"levelo://app?vid=6ee865bb-3efe-4226-8377-fe558a79fbcb","ios":"levelo://app?vid=6ee865bb-3efe-4226-8377-fe558a79fbcb"},"vehicle_type_id":"4","last_reported":1751278335,"current_range_meters":5600,"station_id":"ce4bhh12rcd13ifvqff0","pricing_plan_id":"cebpf4jnsgd1na2vs0mg"},{"bike_id":"2f8a56b1-df2f-4a68-a556-476cc023cc98","system_id":"levelo_inurba_marseille","lat":43.33739,"lon":5.374693,"is_reserved":false,"is_disabled":false,"rental_uris":{"android":"levelo://app?vid=2f8a56b1-df2f-4a68-a556-476cc023cc98","ios":"levelo://app?vid=2f8a56b1-df2f-4a68-a556-476cc023cc98"},"vehicle_type_id":"4","last_reported":1751278335,"current_range_meters":6000,"station_id":"","pricing_plan_id":"cebpf4jnsgd1na2vs0mg"},{"bike_id":"f7bbfd3d-c787-4531-aab4-60f8db47d837","system_id":"levelo_inurba_marseille","lat":43.28657,"lon":5.36352,"is_reserved":false,"is_disabled":false,"rental_uris":{"android":"levelo://app?vid=f7bbfd3d-c787-4531-aab4-60f8db47d837","ios":"levelo://app?vid=f7bbfd3d-c787-4531-aab4-60f8db47d837"},"vehicle_type_id":"4","last_reported":1751278335,"current_range_meters":6000,"station_id":"ce4bhah2rcd13ifvqej0","pricing_plan_id":"cebpf4jnsgd1na2vs0mg"},{"bike_id":"071d9ad8-79e9-447b-b25c-0a0463116df8","system_id":"levelo_inurba_marseille","lat":43.238466,"lon":5.365249,"is_reserved":false,"is_disabled":false,"rental_uris":{"android":"levelo://app?vid=071d9ad8-79e9-447b-b25c-0a0463116df8","ios":"levelo://app?vid=071d9ad8-79e9-447b-b25c-0a0463116df8"},"vehicle_type_id":"4","last_reported":1751278335,"current_range_meters":6400,"station_id":"","pricing_plan_id":"cebpf4jnsgd1na2vs0mg"},{"bike_id":"2a610cf7-324a-4e03-9456-c97a9116fe12","system_id":"levelo_inurba_marseille","lat":43.29848,"lon":5.36276,"is_reserved":false,"is_disabled":false,"rental_uris":{"android":"levelo://app?vid=2a610cf7-324a-4e03-9456-c97a9116fe12","ios":"levelo://app?vid=2a610cf7-324a-4e03-9456-c97a9116fe12"},"vehicle_type_id":"4","last_reported":1751278335,"current_range_meters":6400,"station_id":"ce4bgpp2rcd13ifvqc3g","pricing_plan_id":"cebpf4jnsgd1na2vs0mg"},{"bike_id":"033a09f5-ae17-4a3e-8db3-110d81477f8c","system_id":"levelo_inurba_marseille","lat":43.25583,"lon":5.38231,"is_reserved":false,"is_disabled":false,"rental_uris":{"android":"levelo://app?vid=033a09f5-ae17-4a3e-8db3-110d81477f8c","ios":"levelo://app?vid=033a09f5-ae17-4a3e-8db3-110d81477f8c"},"vehicle_type_id":"4","last_reported":1751278335,"current_range_meters":6400,"station_id":"ce4bhih2rcd13ifvqfs0","pricing_plan_id":"cebpf4jnsgd1na2vs0mg"},{"bike_id":"98b8d127-f303-4f7e-8444-3a27b3ae7a78","system_id":"levelo_inurba_marseille","lat":43.23158,"lon":5.43721,"is_reserved":false,"is_disabled":false,"rental_uris":{"android":"levelo://app?vid=98b8d127-f303-4f7e-8444-3a27b3ae7a78","ios":"levelo://app?vid=98b8d127-f303-4f7e-8444-3a27b3ae7a78"},"vehicle_type_id":"4","last_reported":1751278335,"current_range_meters":6400,"station_id":"ce4bhmp2rcd13ifvqgog","pricing_plan_id":"cebpf4jnsgd1na2vs0mg"},{"bike_id":"983a43e6-41cb-4ffe-9fc3-9cd6d96bdd2a","system_id":"levelo_inurba_marseille","lat":43.31243,"lon":5.36881,"is_reserved":false,"is_disabled":false,"rental_uris":{"android":"levelo://app?vid=983a43e6-41cb-4ffe-9fc3-9cd6d96bdd2a","ios":"levelo://app?vid=983a43e6-41cb-4ffe-9fc3-9cd6d96bdd2a"},"vehicle_type_id":"4","last_reported":1751278335,"current_range_meters":6800,"station_id":"ce4bgl92rcd13ifvqbq0","pricing_plan_id":"cebpf4jnsgd1na2vs0mg"},{"bike_id":"404c5dea-cf22-48f3-ad44-8b252fa4f599","system_id":"levelo_inurba_marseille","lat":43.25489,"lon":5.37655,"is_reserved":false,"is_disabled":false,"rental_uris":{"android":"levelo://app?vid=404c5dea-cf22-48f3-ad44-8b252fa4f599","ios":"levelo://app?vid=404c5dea-cf22-48f3-ad44-8b252fa4f599"},"vehicle_type_id":"4","last_reported":1751278335,"current_range_meters":6800,"station_id":"ce4bhh12rcd13ifvqff0","pricing_plan_id":"cebpf4jnsgd1na2vs0mg"},{"bike_id":"99f281eb-44dd-4a50-b8f7-afecd19c12a4","system_id":"levelo_inurba_marseille","lat":43.31252,"lon":5.36862,"is_reserved":false,"is_disabled":false,"rental_uris":{"android":"levelo://app?vid=99f281eb-44dd-4a50-b8f7-afecd19c12a4","ios":"levelo://app?vid=99f281eb-44dd-4a50-b8f7-afecd19c12a4"},"vehicle_type_id":"4","last_reported":1751278335,"current_range_meters":7200,"station_id":"ce4bgl92rcd13ifvqbq0","pricing_plan_id":"cebpf4jnsgd1na2vs0mg"},{"bike_id":"73f4bbcc-4723-4d69-a710-d3fc45c80749","system_id":"levelo_inurba_marseille","lat":43.31358,"lon":5.36728,"is_reserved":false,"is_disabled":false,"rental_uris":{"android":"levelo://app?vid=73f4bbcc-4723-4d69-a710-d3fc45c80749","ios":"levelo://app?vid=73f4bbcc-4723-4d69-a710-d3fc45c80749"},"vehicle_type_id":"4","last_reported":1751278335,"current_range_meters":8000,"station_id":"ce4bgr92rcd13ifvqc6g","pricing_plan_id":"cebpf4jnsgd1na2vs0mg"},{"bike_id":"6765dee0-770a-4bfd-a80a-3fa36da7ede5","system_id":"levelo_inurba_marseille","lat":43.30943,"lon":5.39008,"is_reserved":false,"is_disabled":false,"rental_uris":{"android":"levelo://app?vid=6765dee0-770a-4bfd-a80a-3fa36da7ede5","ios":"levelo://app?vid=6765dee0-770a-4bfd-a80a-3fa36da7ede5"},"vehicle_type_id":"4","last_reported":1751278335,"current_range_meters":8000,"station_id":"ce4bgup2rcd13ifvqco0","pricing_plan_id":"cebpf4jnsgd1na2vs0mg"},{"bike_id":"48d6cb5b-508d-492d-9614-52b4e7e7b6c5","system_id":"levelo_inurba_marseille","lat":43.27891,"lon":5.38002,"is_reserved":false,"is_disabled":false,"rental_uris":{"android":"levelo://app?vid=48d6cb5b-508d-492d-9614-52b4e7e7b6c5","ios":"levelo://app?vid=48d6cb5b-508d-492d-9614-52b4e7e7b6c5"},"vehicle_type_id":"4","last_reported":1751278335,"current_range_meters":8000,"station_id":"ce4bhf92rcd13ifvqf50","pricing_plan_id":"cebpf4jnsgd1na2vs0mg"},{"bike_id":"7b28ebac-3c6a-43aa-aca9-7bd954b07205","system_id":"levelo_inurba_marseille","lat":43.29656,"lon":5.37942,"is_reserved":false,"is_disabled":false,"rental_uris":{"android":"levelo://app?vid=7b28ebac-3c6a-43aa-aca9-7bd954b07205","ios":"levelo://app?vid=7b28ebac-3c6a-43aa-aca9-7bd954b07205"},"vehicle_type_id":"4","last_reported":1751278335,"current_range_meters":8400,"station_id":"","pricing_plan_id":"cebpf4jnsgd1na2vs0mg"},{"bike_id":"cbe8cf16-ee4d-44dc-af26-2dea0d93d494","system_id":"levelo_inurba_marseille","lat":43.337444,"lon":5.374475,"is_reserved":false,"is_disabled":false,"rental_uris":{"android":"levelo://app?vid=cbe8cf16-ee4d-44dc-af26-2dea0d93d494","ios":"levelo://app?vid=cbe8cf16-ee4d-44dc-af26-2dea0d93d494"},"vehicle_type_id":"4","last_reported":1751278335,"current_range_meters":8400,"station_id":"","pricing_plan_id":"cebpf4jnsgd1na2vs0mg"},{"bike_id":"3dacfa1b-d69a-47da-85c8-a889eba89ea5","system_id":"levelo_inurba_marseille","lat":43.2762,"lon":5.36112,"is_reserved":false,"is_disabled":false,"rental_uris":{"android":"levelo://app?vid=3dacfa1b-d69a-47da-85c8-a889eba89ea5","ios":"levelo://app?vid=3dacfa1b-d69a-47da-85c8-a889eba89ea5"},"vehicle_type_id":"4","last_reported":1751278335,"current_range_meters":8400,"station_id":"ce4bgj92rcd13ifvqbe0","pricing_plan_id":"cebpf4jnsgd1na2vs0mg"},{"bike_id":"9fc6b39a-5532-40ac-8f58-975bced56a19","system_id":"levelo_inurba_marseille","lat":43.32602,"lon":5.40469,"is_reserved":false,"is_disabled":false,"rental_uris":{"android":"levelo://app?vid=9fc6b39a-5532-40ac-8f58-975bced56a19","ios":"levelo://app?vid=9fc6b39a-5532-40ac-8f58-975bced56a19"},"vehicle_type_id":"4","last_reported":1751278335,"current_range_meters":8800,"station_id":"","pricing_plan_id":"cebpf4jnsgd1na2vs0mg"},{"bike_id":"d308c658-b19c-49c0-8014-5506ff26f69a","system_id":"levelo_inurba_marseille","lat":43.23073,"lon":5.40484,"is_reserved":false,"is_disabled":false,"rental_uris":{"android":"levelo://app?vid=d308c658-b19c-49c0-8014-5506ff26f69a","ios":"levelo://app?vid=d308c658-b19c-49c0-8014-5506ff26f69a"},"vehicle_type_id":"4","last_reported":1751278335,"current_range_meters":8800,"station_id":"","pricing_plan_id":"cebpf4jnsgd1na2vs0mg"},{"bike_id":"d7d64aa7-3f1c-401a-afb1-2a560f7861c0","system_id":"levelo_inurba_marseille","lat":43.27379,"lon":5.36249,"is_reserved":false,"is_disabled":false,"rental_uris":{"android":"levelo://app?vid=d7d64aa7-3f1c-401a-afb1-2a560f7861c0","ios":"levelo://app?vid=d7d64aa7-3f1c-401a-afb1-2a560f7861c0"},"vehicle_type_id":"4","last_reported":1751278335,"current_range_meters":8800,"station_id":"ce4bhbh2rcd13ifvqeo0","pricing_plan_id":"cebpf4jnsgd1na2vs0mg"},{"bike_id":"a52aa670-797e-4c85-9620-a3915c4418bd","system_id":"levelo_inurba_marseille","lat":43.266815,"lon":5.382732,"is_reserved":false,"is_disabled":false,"rental_uris":{"android":"levelo://app?vid=a52aa670-797e-4c85-9620-a3915c4418bd","ios":"levelo://app?vid=a52aa670-797e-4c85-9620-a3915c4418bd"},"vehicle_type_id":"4","last_reported":1751278335,"current_range_meters":8800,"station_id":"ce4bhg92rcd13ifvqf90","pricing_plan_id":"cebpf4jnsgd1na2vs0mg"},{"bike_id":"e219543a-880e-4c38-aff0-63dd83878c8b","system_id":"levelo_inurba_marseille","lat":43.32106,"lon":5.36796,"is_reserved":false,"is_disabled":false,"rental_uris":{"android":"levelo://app?vid=e219543a-880e-4c38-aff0-63dd83878c8b","ios":"levelo://app?vid=e219543a-880e-4c38-aff0-63dd83878c8b"},"vehicle_type_id":"4","last_reported":1751278335,"current_range_meters":8800,"station_id":"ce4bhrh2rcd13ifvqhug","pricing_plan_id":"cebpf4jnsgd1na2vs0mg"},{"bike_id":"72c0b7ff-c40d-41c7-ac76-73c14bc3feaf","system_id":"levelo_inurba_marseille","lat":43.29602,"lon":5.38109,"is_reserved":false,"is_disabled":false,"rental_uris":{"android":"levelo://app?vid=72c0b7ff-c40d-41c7-ac76-73c14bc3feaf","ios":"levelo://app?vid=72c0b7ff-c40d-41c7-ac76-73c14bc3feaf"},"vehicle_type_id":"4","last_reported":1751278335,"current_range_meters":9200,"station_id":"ce4bgl12rcd13ifvqbo0","pricing_plan_id":"cebpf4jnsgd1na2vs0mg"},{"bike_id":"1698043f-f060-4e43-ad3d-73a8b20ff25d","system_id":"levelo_inurba_marseille","lat":43.30909,"lon":5.36843,"is_reserved":false,"is_disabled":false,"rental_uris":{"android":"levelo://app?vid=1698043f-f060-4e43-ad3d-73a8b20ff25d","ios":"levelo://app?vid=1698043f-f060-4e43-ad3d-73a8b20ff25d"},"vehicle_type_id":"4","last_reported":1751278335,"current_range_meters":9200,"station_id":"ce4bgn92rcd13ifvqbvg","pricing_plan_id":"cebpf4jnsgd1na2vs0mg"},{"bike_id":"c2f885fc-054d-4e7b-a6bc-85b1d32670df","system_id":"levelo_inurba_marseille","lat":43.29852,"lon":5.36285,"is_reserved":false,"is_disabled":false,"rental_uris":{"android":"levelo://app?vid=c2f885fc-054d-4e7b-a6bc-85b1d32670df","ios":"levelo://app?vid=c2f885fc-054d-4e7b-a6bc-85b1d32670df"},"vehicle_type_id":"4","last_reported":1751278335,"current_range_meters":9200,"station_id":"ce4bgpp2rcd13ifvqc3g","pricing_plan_id":"cebpf4jnsgd1na2vs0mg"},{"bike_id":"2630b0d7-8518-44a1-b41d-4305f5c2b588","system_id":"levelo_inurba_marseille","lat":43.288553,"lon":5.393204,"is_reserved":false,"is_disabled":false,"rental_uris":{"android":"levelo://app?vid=2630b0d7-8518-44a1-b41d-4305f5c2b588","ios":"levelo://app?vid=2630b0d7-8518-44a1-b41d-4305f5c2b588"},"vehicle_type_id":"4","last_reported":1751278335,"current_range_meters":9200,"station_id":"ce4bh492rcd13ifvqdug","pricing_plan_id":"cebpf4jnsgd1na2vs0mg"},{"bike_id":"f7ca005b-5947-4a37-af97-f5871fa04fe4","system_id":"levelo_inurba_marseille","lat":43.26679,"lon":5.38267,"is_reserved":false,"is_disabled":false,"rental_uris":{"android":"levelo://app?vid=f7ca005b-5947-4a37-af97-f5871fa04fe4","ios":"levelo://app?vid=f7ca005b-5947-4a37-af97-f5871fa04fe4"},"vehicle_type_id":"4","last_reported":1751278335,"current_range_meters":9200,"station_id":"ce4bhg92rcd13ifvqf90","pricing_plan_id":"cebpf4jnsgd1na2vs0mg"},{"bike_id":"c595d0e1-c778-4abe-9c79-a9dd74f54e27","system_id":"levelo_inurba_marseille","lat":43.244696,"lon":5.372123,"is_reserved":false,"is_disabled":false,"rental_uris":{"android":"levelo://app?vid=c595d0e1-c778-4abe-9c79-a9dd74f54e27","ios":"levelo://app?vid=c595d0e1-c778-4abe-9c79-a9dd74f54e27"},"vehicle_type_id":"4","last_reported":1751278335,"current_range_meters":9600,"station_id":"","pricing_plan_id":"cebpf4jnsgd1na2vs0mg"},{"bike_id":"7cf52577-b1c7-4f0a-92f7-db612e194ae4","system_id":"levelo_inurba_marseille","lat":43.31363,"lon":5.38491,"is_reserved":false,"is_disabled":false,"rental_uris":{"android":"levelo://app?vid=7cf52577-b1c7-4f0a-92f7-db612e194ae4","ios":"levelo://app?vid=7cf52577-b1c7-4f0a-92f7-db612e194ae4"},"vehicle_type_id":"4","last_reported":1751278335,"current_range_meters":9600,"station_id":"ce4bgt92rcd13ifvqcf0","pricing_plan_id":"cebpf4jnsgd1na2vs0mg"},{"bike_id":"b879504e-c85b-45ea-ab13-dce989cb130f","system_id":"levelo_inurba_marseille","lat":43.32364,"lon":5.367541,"is_reserved":false,"is_disabled":false,"rental_uris":{"android":"levelo://app?vid=b879504e-c85b-45ea-ab13-dce989cb130f","ios":"levelo://app?vid=b879504e-c85b-45ea-ab13-dce989cb130f"},"vehicle_type_id":"4","last_reported":1751278335,"current_range_meters":9600,"station_id":"ce4bhsh2rcd13ifvqi2g","pricing_plan_id":"cebpf4jnsgd1na2vs0mg"},{"bike_id":"05d3d448-235e-4ac7-88df-050f15d5a616","system_id":"levelo_inurba_marseille","lat":43.27914,"lon":5.42235,"is_reserved":false,"is_disabled":false,"rental_uris":{"android":"levelo://app?vid=05d3d448-235e-4ac7-88df-050f15d5a616","ios":"levelo://app?vid=05d3d448-235e-4ac7-88df-050f15d5a616"},"vehicle_type_id":"4","last_reported":1751278335,"current_range_meters":10000,"station_id":"","pricing_plan_id":"cebpf4jnsgd1na2vs0mg"},{"bike_id":"120036e1-945c-4ddf-ba61-047361af53a6","system_id":"levelo_inurba_marseille","lat":43.21196,"lon":5.35076,"is_reserved":false,"is_disabled":false,"rental_uris":{"android":"levelo://app?vid=120036e1-945c-4ddf-ba61-047361af53a6","ios":"levelo://app?vid=120036e1-945c-4ddf-ba61-047361af53a6"},"vehicle_type_id":"4","last_reported":1751278335,"current_range_meters":10000,"station_id":"st_cvj6sg6p6f1abm77japg","pricing_plan_id":"cebpf4jnsgd1na2vs0mg"},{"bike_id":"7b47b272-fbf3-4098-ac79-c3a56cb95ee9","system_id":"levelo_inurba_marseille","lat":43.24482,"lon":5.37256,"is_reserved":false,"is_disabled":false,"rental_uris":{"android":"levelo://app?vid=7b47b272-fbf3-4098-ac79-c3a56cb95ee9","ios":"levelo://app?vid=7b47b272-fbf3-4098-ac79-c3a56cb95ee9"},"vehicle_type_id":"4","last_reported":1751278335,"current_range_meters":10800,"station_id":"","pricing_plan_id":"cebpf4jnsgd1na2vs0mg"},{"bike_id":"99bfe58d-afb2-4aca-bf08-fb4a4b977428","system_id":"levelo_inurba_marseille","lat":43.22503,"lon":5.347893,"is_reserved":false,"is_disabled":false,"rental_uris":{"android":"levelo://app?vid=99bfe58d-afb2-4aca-bf08-fb4a4b977428","ios":"levelo://app?vid=99bfe58d-afb2-4aca-bf08-fb4a4b977428"},"vehicle_type_id":"4","last_reported":1751278335,"current_range_meters":10800,"station_id":"","pricing_plan_id":"cebpf4jnsgd1na2vs0mg"},{"bike_id":"3035be0e-7c3d-4f7d-a1cb-7a1af59e497b","system_id":"levelo_inurba_marseille","lat":43.29672,"lon":5.35986,"is_reserved":false,"is_disabled":false,"rental_uris":{"android":"levelo://app?vid=3035be0e-7c3d-4f7d-a1cb-7a1af59e497b","ios":"levelo://app?vid=3035be0e-7c3d-4f7d-a1cb-7a1af59e497b"},"vehicle_type_id":"4","last_reported":1751278335,"current_range_meters":10800,"station_id":"","pricing_plan_id":"cebpf4jnsgd1na2vs0mg"},{"bike_id":"c03206e3-dfd8-41e6-80e0-08d20360b87d","system_id":"levelo_inurba_marseille","lat":43.30252,"lon":5.40073,"is_reserved":false,"is_disabled":false,"rental_uris":{"android":"levelo://app?vid=c03206e3-dfd8-41e6-80e0-08d20360b87d","ios":"levelo://app?vid=c03206e3-dfd8-41e6-80e0-08d20360b87d"},"vehicle_type_id":"4","last_reported":1751278335,"current_range_meters":10800,"station_id":"ce4bgvh2rcd13ifvqcs0","pricing_plan_id":"cebpf4jnsgd1na2vs0mg"},{"bike_id":"5dd9d9d1-8d25-4774-9dfd-633d55a9306a","system_id":"levelo_inurba_marseille","lat":43.30355,"lon":5.41878,"is_reserved":false,"is_disabled":false,"rental_uris":{"android":"levelo://app?vid=5dd9d9d1-8d25-4774-9dfd-633d55a9306a","ios":"levelo://app?vid=5dd9d9d1-8d25-4774-9dfd-633d55a9306a"},"vehicle_type_id":"4","last_reported":1751278335,"current_range_meters":10800,"station_id":"ce4bhop2rcd13ifvqh7g","pricing_plan_id":"cebpf4jnsgd1na2vs0mg"},{"bike_id":"761f7a97-5f6f-4f61-92c5-de6e9123cf16","system_id":"levelo_inurba_marseille","lat":43.299081,"lon":5.43677,"is_reserved":false,"is_disabled":false,"rental_uris":{"android":"levelo://app?vid=761f7a97-5f6f-4f61-92c5-de6e9123cf16","ios":"levelo://app?vid=761f7a97-5f6f-4f61-92c5-de6e9123cf16"},"vehicle_type_id":"4","last_reported":1751278335,"current_range_meters":10800,"station_id":"ce4bhpp2rcd13ifvqhfg","pricing_plan_id":"cebpf4jnsgd1na2vs0mg"},{"bike_id":"f14ea732-2ab2-4f5d-9515-779400c440ec","system_id":"levelo_inurba_marseille","lat":43.28588,"lon":5.37064,"is_reserved":false,"is_disabled":false,"rental_uris":{"android":"levelo://app?vid=f14ea732-2ab2-4f5d-9515-779400c440ec","ios":"levelo://app?vid=f14ea732-2ab2-4f5d-9515-779400c440ec"},"vehicle_type_id":"4","last_reported":1751278335,"current_range_meters":10800,"station_id":"ce4bht12rcd13ifvqi60","pricing_plan_id":"cebpf4jnsgd1na2vs0mg"},{"bike_id":"360cb72f-7cec-423b-b304-7f8da672b6d7","system_id":"levelo_inurba_marseille","lat":43.29858,"lon":5.37656,"is_reserved":false,"is_disabled":false,"rental_uris":{"android":"levelo://app?vid=360cb72f-7cec-423b-b304-7f8da672b6d7","ios":"levelo://app?vid=360cb72f-7cec-423b-b304-7f8da672b6d7"},"vehicle_type_id":"4","last_reported":1751278335,"current_range_meters":11200,"station_id":"","pricing_plan_id":"cebpf4jnsgd1na2vs0mg"},{"bike_id":"78284af2-bf69-4fd5-b7d0-bf87d4b01869","system_id":"levelo_inurba_marseille","lat":43.31239,"lon":5.36866,"is_reserved":false,"is_disabled":false,"rental_uris":{"android":"levelo://app?vid=78284af2-bf69-4fd5-b7d0-bf87d4b01869","ios":"levelo://app?vid=78284af2-bf69-4fd5-b7d0-bf87d4b01869"},"vehicle_type_id":"4","last_reported":1751278335,"current_range_meters":11200,"station_id":"ce4bgl92rcd13ifvqbq0","pricing_plan_id":"cebpf4jnsgd1na2vs0mg"},{"bike_id":"9ba2576a-891c-4d89-ae8d-6e49977eea3f","system_id":"levelo_inurba_marseille","lat":43.305345,"lon":5.367015,"is_reserved":false,"is_disabled":false,"rental_uris":{"android":"levelo://app?vid=9ba2576a-891c-4d89-ae8d-6e49977eea3f","ios":"levelo://app?vid=9ba2576a-891c-4d89-ae8d-6e49977eea3f"},"vehicle_type_id":"4","last_reported":1751278335,"current_range_meters":11200,"station_id":"ce4bgrp2rcd13ifvqc9g","pricing_plan_id":"cebpf4jnsgd1na2vs0mg"},{"bike_id":"27c68f65-43d8-47b1-b6c1-464d3141e628","system_id":"levelo_inurba_marseille","lat":43.28666,"lon":5.38664,"is_reserved":false,"is_disabled":false,"rental_uris":{"android":"levelo://app?vid=27c68f65-43d8-47b1-b6c1-464d3141e628","ios":"levelo://app?vid=27c68f65-43d8-47b1-b6c1-464d3141e628"},"vehicle_type_id":"4","last_reported":1751278335,"current_range_meters":11200,"station_id":"ce4bh492rcd13ifvqdug","pricing_plan_id":"cebpf4jnsgd1na2vs0mg"},{"bike_id":"3d6af999-a444-4ce4-9b83-f930e037d772","system_id":"levelo_inurba_marseille","lat":43.29018,"lon":5.38133,"is_reserved":false,"is_disabled":false,"rental_uris":{"android":"levelo://app?vid=3d6af999-a444-4ce4-9b83-f930e037d772","ios":"levelo://app?vid=3d6af999-a444-4ce4-9b83-f930e037d772"},"vehicle_type_id":"4","last_reported":1751278335,"current_range_meters":11200,"station_id":"ce4bh4p2rcd13ifvqe1g","pricing_plan_id":"cebpf4jnsgd1na2vs0mg"},{"bike_id":"d15739ec-0681-407f-bfdc-46a414df37de","system_id":"levelo_inurba_marseille","lat":43.29194,"lon":5.35802,"is_reserved":false,"is_disabled":false,"rental_uris":{"android":"levelo://app?vid=d15739ec-0681-407f-bfdc-46a414df37de","ios":"levelo://app?vid=d15739ec-0681-407f-bfdc-46a414df37de"},"vehicle_type_id":"4","last_reported":1751278335,"current_range_meters":11200,"station_id":"ce4bhb12rcd13ifvqel0","pricing_plan_id":"cebpf4jnsgd1na2vs0mg"},{"bike_id":"7e34a90b-ac12-458c-be62-5eac640bd5c6","system_id":"levelo_inurba_marseille","lat":43.290015,"lon":5.356144,"is_reserved":false,"is_disabled":false,"rental_uris":{"android":"levelo://app?vid=7e34a90b-ac12-458c-be62-5eac640bd5c6","ios":"levelo://app?vid=7e34a90b-ac12-458c-be62-5eac640bd5c6"},"vehicle_type_id":"4","last_reported":1751278335,"current_range_meters":11200,"station_id":"ce4bhb92rcd13ifvqen0","pricing_plan_id":"cebpf4jnsgd1na2vs0mg"},{"bike_id":"8080a1f0-0493-40dc-8c34-3024f208b3b9","system_id":"levelo_inurba_marseille","lat":43.27903,"lon":5.38024,"is_reserved":false,"is_disabled":false,"rental_uris":{"android":"levelo://app?vid=8080a1f0-0493-40dc-8c34-3024f208b3b9","ios":"levelo://app?vid=8080a1f0-0493-40dc-8c34-3024f208b3b9"},"vehicle_type_id":"4","last_reported":1751278335,"current_range_meters":11200,"station_id":"ce4bhf92rcd13ifvqf50","pricing_plan_id":"cebpf4jnsgd1na2vs0mg"},{"bike_id":"c96abb5e-946c-4313-978f-0f2f82da4857","system_id":"levelo_inurba_marseille","lat":43.28915,"lon":5.38387,"is_reserved":false,"is_disabled":false,"rental_uris":{"android":"levelo://app?vid=c96abb5e-946c-4313-978f-0f2f82da4857","ios":"levelo://app?vid=c96abb5e-946c-4313-978f-0f2f82da4857"},"vehicle_type_id":"4","last_reported":1751278335,"current_range_meters":11600,"station_id":"ce4bh612rcd13ifvqe6g","pricing_plan_id":"cebpf4jnsgd1na2vs0mg"},{"bike_id":"e7641e58-176f-485d-9342-129003cdc52b","system_id":"levelo_inurba_marseille","lat":43.321051,"lon":5.367753,"is_reserved":false,"is_disabled":false,"rental_uris":{"android":"levelo://app?vid=e7641e58-176f-485d-9342-129003cdc52b","ios":"levelo://app?vid=e7641e58-176f-485d-9342-129003cdc52b"},"vehicle_type_id":"4","last_reported":1751278335,"current_range_meters":11600,"station_id":"ce4bhrh2rcd13ifvqhug","pricing_plan_id":"cebpf4jnsgd1na2vs0mg"},{"bike_id":"786f230b-598f-4e58-bbc2-1e0a419e9de2","system_id":"levelo_inurba_marseille","lat":43.264579,"lon":5.392089,"is_reserved":false,"is_disabled":false,"rental_uris":{"android":"levelo://app?vid=786f230b-598f-4e58-bbc2-1e0a419e9de2","ios":"levelo://app?vid=786f230b-598f-4e58-bbc2-1e0a419e9de2"},"vehicle_type_id":"4","last_reported":1751278335,"current_range_meters":12000,"station_id":"","pricing_plan_id":"cebpf4jnsgd1na2vs0mg"},{"bike_id":"7cd73daf-6410-4b72-a872-e5224e9d29ff","system_id":"levelo_inurba_marseille","lat":43.274013,"lon":5.411646,"is_reserved":false,"is_disabled":false,"rental_uris":{"android":"levelo://app?vid=7cd73daf-6410-4b72-a872-e5224e9d29ff","ios":"levelo://app?vid=7cd73daf-6410-4b72-a872-e5224e9d29ff"},"vehicle_type_id":"4","last_reported":1751278335,"current_range_meters":12000,"station_id":"","pricing_plan_id":"cebpf4jnsgd1na2vs0mg"},{"bike_id":"b05ac08d-847b-4f20-ac36-038a0d69d167","system_id":"levelo_inurba_marseille","lat":43.281289,"lon":5.358567,"is_reserved":false,"is_disabled":false,"rental_uris":{"android":"levelo://app?vid=b05ac08d-847b-4f20-ac36-038a0d69d167","ios":"levelo://app?vid=b05ac08d-847b-4f20-ac36-038a0d69d167"},"vehicle_type_id":"4","last_reported":1751278335,"current_range_meters":12000,"station_id":"","pricing_plan_id":"cebpf4jnsgd1na2vs0mg"},{"bike_id":"2555aae8-e828-4a04-aa16-0f6b5cbb8a27","system_id":"levelo_inurba_marseille","lat":43.30534,"lon":5.36714,"is_reserved":false,"is_disabled":false,"rental_uris":{"android":"levelo://app?vid=2555aae8-e828-4a04-aa16-0f6b5cbb8a27","ios":"levelo://app?vid=2555aae8-e828-4a04-aa16-0f6b5cbb8a27"},"vehicle_type_id":"4","last_reported":1751278335,"current_range_meters":12000,"station_id":"ce4bgrp2rcd13ifvqc9g","pricing_plan_id":"cebpf4jnsgd1na2vs0mg"},{"bike_id":"acca692d-8d39-459c-a574-7087df4141fc","system_id":"levelo_inurba_marseille","lat":43.314902,"lon":5.37299,"is_reserved":false,"is_disabled":false,"rental_uris":{"android":"levelo://app?vid=acca692d-8d39-459c-a574-7087df4141fc","ios":"levelo://app?vid=acca692d-8d39-459c-a574-7087df4141fc"},"vehicle_type_id":"4","last_reported":1751278335,"current_range_meters":12000,"station_id":"ce4bgt12rcd13ifvqcd0","pricing_plan_id":"cebpf4jnsgd1na2vs0mg"},{"bike_id":"537c1067-a1b7-4303-94b5-c113f6ee9e63","system_id":"levelo_inurba_marseille","lat":43.27319,"lon":5.39074,"is_reserved":false,"is_disabled":false,"rental_uris":{"android":"levelo://app?vid=537c1067-a1b7-4303-94b5-c113f6ee9e63","ios":"levelo://app?vid=537c1067-a1b7-4303-94b5-c113f6ee9e63"},"vehicle_type_id":"4","last_reported":1751278335,"current_range_meters":12000,"station_id":"ce4bhgp2rcd13ifvqfe0","pricing_plan_id":"cebpf4jnsgd1na2vs0mg"},{"bike_id":"fc92e15b-dbbd-4c08-862e-67528212cf8c","system_id":"levelo_inurba_marseille","lat":43.24185,"lon":5.39726,"is_reserved":false,"is_disabled":false,"rental_uris":{"android":"levelo://app?vid=fc92e15b-dbbd-4c08-862e-67528212cf8c","ios":"levelo://app?vid=fc92e15b-dbbd-4c08-862e-67528212cf8c"},"vehicle_type_id":"4","last_reported":1751278335,"current_range_meters":12000,"station_id":"ce4bhn12rcd13ifvqgpg","pricing_plan_id":"cebpf4jnsgd1na2vs0mg"},{"bike_id":"9a78bd84-900f-4cb4-8561-d5874c98ecaa","system_id":"levelo_inurba_marseille","lat":43.32639,"lon":5.4099,"is_reserved":false,"is_disabled":false,"rental_uris":{"android":"levelo://app?vid=9a78bd84-900f-4cb4-8561-d5874c98ecaa","ios":"levelo://app?vid=9a78bd84-900f-4cb4-8561-d5874c98ecaa"},"vehicle_type_id":"4","last_reported":1751278335,"current_range_meters":12000,"station_id":"ce4bhpp2rcd13ifvqhgg","pricing_plan_id":"cebpf4jnsgd1na2vs0mg"},{"bike_id":"65280d13-d120-4e26-bd33-57186b6a7313","system_id":"levelo_inurba_marseille","lat":43.323433,"lon":5.40611,"is_reserved":false,"is_disabled":false,"rental_uris":{"android":"levelo://app?vid=65280d13-d120-4e26-bd33-57186b6a7313","ios":"levelo://app?vid=65280d13-d120-4e26-bd33-57186b6a7313"},"vehicle_type_id":"4","last_reported":1751278335,"current_range_meters":12000,"station_id":"ce4bhq92rcd13ifvqhjg","pricing_plan_id":"cebpf4jnsgd1na2vs0mg"},{"bike_id":"f5c16f07-bc6f-4121-91a7-5ad90eec4f34","system_id":"levelo_inurba_marseille","lat":43.31222,"lon":5.37264,"is_reserved":false,"is_disabled":false,"rental_uris":{"android":"levelo://app?vid=f5c16f07-bc6f-4121-91a7-5ad90eec4f34","ios":"levelo://app?vid=f5c16f07-bc6f-4121-91a7-5ad90eec4f34"},"vehicle_type_id":"4","last_reported":1751278335,"current_range_meters":12400,"station_id":"","pricing_plan_id":"cebpf4jnsgd1na2vs0mg"},{"bike_id":"8aa6b03c-929d-4c3c-a10b-9a2b417cdd22","system_id":"levelo_inurba_marseille","lat":43.29303,"lon":5.37457,"is_reserved":false,"is_disabled":false,"rental_uris":{"android":"levelo://app?vid=8aa6b03c-929d-4c3c-a10b-9a2b417cdd22","ios":"levelo://app?vid=8aa6b03c-929d-4c3c-a10b-9a2b417cdd22"},"vehicle_type_id":"4","last_reported":1751278335,"current_range_meters":12400,"station_id":"ce4bgi12rcd13ifvqb70","pricing_plan_id":"cebpf4jnsgd1na2vs0mg"},{"bike_id":"f2b97258-ec5c-423d-96cb-6e69976e0d40","system_id":"levelo_inurba_marseille","lat":43.271757,"lon":5.409967,"is_reserved":false,"is_disabled":false,"rental_uris":{"android":"levelo://app?vid=f2b97258-ec5c-423d-96cb-6e69976e0d40","ios":"levelo://app?vid=f2b97258-ec5c-423d-96cb-6e69976e0d40"},"vehicle_type_id":"4","last_reported":1751278335,"current_range_meters":12400,"station_id":"ce4bhl12rcd13ifvqgf0","pricing_plan_id":"cebpf4jnsgd1na2vs0mg"},{"bike_id":"f1212250-2624-4f3d-9def-2f322745b277","system_id":"levelo_inurba_marseille","lat":43.3035,"lon":5.41873,"is_reserved":false,"is_disabled":false,"rental_uris":{"android":"levelo://app?vid=f1212250-2624-4f3d-9def-2f322745b277","ios":"levelo://app?vid=f1212250-2624-4f3d-9def-2f322745b277"},"vehicle_type_id":"4","last_reported":1751278335,"current_range_meters":12400,"station_id":"ce4bhop2rcd13ifvqh7g","pricing_plan_id":"cebpf4jnsgd1na2vs0mg"},{"bike_id":"5031ccf9-7dcf-4258-a4a4-0c83bcd30a12","system_id":"levelo_inurba_marseille","lat":43.337444,"lon":5.374475,"is_reserved":false,"is_disabled":false,"rental_uris":{"android":"levelo://app?vid=5031ccf9-7dcf-4258-a4a4-0c83bcd30a12","ios":"levelo://app?vid=5031ccf9-7dcf-4258-a4a4-0c83bcd30a12"},"vehicle_type_id":"4","last_reported":1751278335,"current_range_meters":12800,"station_id":"","pricing_plan_id":"cebpf4jnsgd1na2vs0mg"},{"bike_id":"7dc148e5-fd7e-4677-bce3-55c94c6ee080","system_id":"levelo_inurba_marseille","lat":43.30687,"lon":5.40929,"is_reserved":false,"is_disabled":false,"rental_uris":{"android":"levelo://app?vid=7dc148e5-fd7e-4677-bce3-55c94c6ee080","ios":"levelo://app?vid=7dc148e5-fd7e-4677-bce3-55c94c6ee080"},"vehicle_type_id":"4","last_reported":1751278335,"current_range_meters":12800,"station_id":"","pricing_plan_id":"cebpf4jnsgd1na2vs0mg"},{"bike_id":"7f071c7d-3984-4e8e-a6e3-b4116a4673de","system_id":"levelo_inurba_marseille","lat":43.24393,"lon":5.37068,"is_reserved":false,"is_disabled":false,"rental_uris":{"android":"levelo://app?vid=7f071c7d-3984-4e8e-a6e3-b4116a4673de","ios":"levelo://app?vid=7f071c7d-3984-4e8e-a6e3-b4116a4673de"},"vehicle_type_id":"4","last_reported":1751278335,"current_range_meters":12800,"station_id":"ce4bhhh2rcd13ifvqfk0","pricing_plan_id":"cebpf4jnsgd1na2vs0mg"},{"bike_id":"6b6a646f-e1ae-4138-9055-a2e578c870cb","system_id":"levelo_inurba_marseille","lat":43.21751,"lon":5.34616,"is_reserved":false,"is_disabled":false,"rental_uris":{"android":"levelo://app?vid=6b6a646f-e1ae-4138-9055-a2e578c870cb","ios":"levelo://app?vid=6b6a646f-e1ae-4138-9055-a2e578c870cb"},"vehicle_type_id":"4","last_reported":1751278335,"current_range_meters":12800,"station_id":"st_cvj6r9ubvosntc0bgbag","pricing_plan_id":"cebpf4jnsgd1na2vs0mg"},{"bike_id":"2a7d4522-b0dd-48c1-8653-7a6d0e58cc43","system_id":"levelo_inurba_marseille","lat":43.320822,"lon":5.401128,"is_reserved":false,"is_disabled":false,"rental_uris":{"android":"levelo://app?vid=2a7d4522-b0dd-48c1-8653-7a6d0e58cc43","ios":"levelo://app?vid=2a7d4522-b0dd-48c1-8653-7a6d0e58cc43"},"vehicle_type_id":"4","last_reported":1751278335,"current_range_meters":13600,"station_id":"","pricing_plan_id":"cebpf4jnsgd1na2vs0mg"},{"bike_id":"c2e134cb-ee58-410e-8443-cdf3a592d767","system_id":"levelo_inurba_marseille","lat":43.29553,"lon":5.3865,"is_reserved":false,"is_disabled":false,"rental_uris":{"android":"levelo://app?vid=c2e134cb-ee58-410e-8443-cdf3a592d767","ios":"levelo://app?vid=c2e134cb-ee58-410e-8443-cdf3a592d767"},"vehicle_type_id":"4","last_reported":1751278335,"current_range_meters":13600,"station_id":"","pricing_plan_id":"cebpf4jnsgd1na2vs0mg"},{"bike_id":"5be1a4b5-3e1e-4bcd-9477-5aee0b89f062","system_id":"levelo_inurba_marseille","lat":43.278453,"lon":5.354578,"is_reserved":false,"is_disabled":false,"rental_uris":{"android":"levelo://app?vid=5be1a4b5-3e1e-4bcd-9477-5aee0b89f062","ios":"levelo://app?vid=5be1a4b5-3e1e-4bcd-9477-5aee0b89f062"},"vehicle_type_id":"4","last_reported":1751278335,"current_range_meters":14000,"station_id":"","pricing_plan_id":"cebpf4jnsgd1na2vs0mg"},{"bike_id":"0b5cda5b-6f81-4549-a623-4ee2c6a2f04a","system_id":"levelo_inurba_marseille","lat":43.31235,"lon":5.36869,"is_reserved":false,"is_disabled":false,"rental_uris":{"android":"levelo://app?vid=0b5cda5b-6f81-4549-a623-4ee2c6a2f04a","ios":"levelo://app?vid=0b5cda5b-6f81-4549-a623-4ee2c6a2f04a"},"vehicle_type_id":"4","last_reported":1751278335,"current_range_meters":14000,"station_id":"ce4bgl92rcd13ifvqbq0","pricing_plan_id":"cebpf4jnsgd1na2vs0mg"},{"bike_id":"958c2327-57da-4aeb-ac4e-8532d81abc49","system_id":"levelo_inurba_marseille","lat":43.29627,"lon":5.37165,"is_reserved":false,"is_disabled":false,"rental_uris":{"android":"levelo://app?vid=958c2327-57da-4aeb-ac4e-8532d81abc49","ios":"levelo://app?vid=958c2327-57da-4aeb-ac4e-8532d81abc49"},"vehicle_type_id":"4","last_reported":1751278335,"current_range_meters":14000,"station_id":"ce4bgnh2rcd13ifvqc0g","pricing_plan_id":"cebpf4jnsgd1na2vs0mg"},{"bike_id":"eddb7b61-8908-43a8-8ec5-ffd381a67532","system_id":"levelo_inurba_marseille","lat":43.31281,"lon":5.40164,"is_reserved":false,"is_disabled":false,"rental_uris":{"android":"levelo://app?vid=eddb7b61-8908-43a8-8ec5-ffd381a67532","ios":"levelo://app?vid=eddb7b61-8908-43a8-8ec5-ffd381a67532"},"vehicle_type_id":"4","last_reported":1751278335,"current_range_meters":14000,"station_id":"ce4bh092rcd13ifvqd30","pricing_plan_id":"cebpf4jnsgd1na2vs0mg"},{"bike_id":"ceb818d5-6a0e-45de-8d40-c9c1b19d5e60","system_id":"levelo_inurba_marseille","lat":43.323563,"lon":5.367544,"is_reserved":false,"is_disabled":false,"rental_uris":{"android":"levelo://app?vid=ceb818d5-6a0e-45de-8d40-c9c1b19d5e60","ios":"levelo://app?vid=ceb818d5-6a0e-45de-8d40-c9c1b19d5e60"},"vehicle_type_id":"4","last_reported":1751278335,"current_range_meters":14000,"station_id":"ce4bhsh2rcd13ifvqi2g","pricing_plan_id":"cebpf4jnsgd1na2vs0mg"},{"bike_id":"c54202df-6f2a-4d59-8634-b55ecbbac657","system_id":"levelo_inurba_marseille","lat":43.26954,"lon":5.40256,"is_reserved":false,"is_disabled":false,"rental_uris":{"android":"levelo://app?vid=c54202df-6f2a-4d59-8634-b55ecbbac657","ios":"levelo://app?vid=c54202df-6f2a-4d59-8634-b55ecbbac657"},"vehicle_type_id":"4","last_reported":1751278335,"current_range_meters":14000,"station_id":"cjm6bp8fraef2m0cb0m0","pricing_plan_id":"cebpf4jnsgd1na2vs0mg"},{"bike_id":"6b352fdb-4980-452d-9441-954a1a4f7cc1","system_id":"levelo_inurba_marseille","lat":43.29564,"lon":5.37499,"is_reserved":false,"is_disabled":false,"rental_uris":{"android":"levelo://app?vid=6b352fdb-4980-452d-9441-954a1a4f7cc1","ios":"levelo://app?vid=6b352fdb-4980-452d-9441-954a1a4f7cc1"},"vehicle_type_id":"4","last_reported":1751278335,"current_range_meters":14400,"station_id":"ce4bgh92rcd13ifvqb50","pricing_plan_id":"cebpf4jnsgd1na2vs0mg"},{"bike_id":"b8460a47-d064-4ca3-96bf-1f9974c57097","system_id":"levelo_inurba_marseille","lat":43.29577,"lon":5.36742,"is_reserved":false,"is_disabled":false,"rental_uris":{"android":"levelo://app?vid=b8460a47-d064-4ca3-96bf-1f9974c57097","ios":"levelo://app?vid=b8460a47-d064-4ca3-96bf-1f9974c57097"},"vehicle_type_id":"4","last_reported":1751278335,"current_range_meters":14400,"station_id":"ce4bgph2rcd13ifvqc2g","pricing_plan_id":"cebpf4jnsgd1na2vs0mg"},{"bike_id":"eaa01021-3fd8-4405-a287-c7502d10ea7e","system_id":"levelo_inurba_marseille","lat":43.21747,"lon":5.34597,"is_reserved":false,"is_disabled":false,"rental_uris":{"android":"levelo://app?vid=eaa01021-3fd8-4405-a287-c7502d10ea7e","ios":"levelo://app?vid=eaa01021-3fd8-4405-a287-c7502d10ea7e"},"vehicle_type_id":"4","last_reported":1751278335,"current_range_meters":14400,"station_id":"st_cvj6r9ubvosntc0bgbag","pricing_plan_id":"cebpf4jnsgd1na2vs0mg"},{"bike_id":"e951d2a2-2a1d-4030-bee6-afbfe2838ed7","system_id":"levelo_inurba_marseille","lat":43.23191,"lon":5.35549,"is_reserved":false,"is_disabled":false,"rental_uris":{"android":"levelo://app?vid=e951d2a2-2a1d-4030-bee6-afbfe2838ed7","ios":"levelo://app?vid=e951d2a2-2a1d-4030-bee6-afbfe2838ed7"},"vehicle_type_id":"4","last_reported":1751278335,"current_range_meters":14800,"station_id":"ce4bhu92rcd13ifvqi70","pricing_plan_id":"cebpf4jnsgd1na2vs0mg"},{"bike_id":"1ac664aa-f2a4-4b75-879f-dcb93272d133","system_id":"levelo_inurba_marseille","lat":43.32029,"lon":5.40951,"is_reserved":false,"is_disabled":false,"rental_uris":{"android":"levelo://app?vid=1ac664aa-f2a4-4b75-879f-dcb93272d133","ios":"levelo://app?vid=1ac664aa-f2a4-4b75-879f-dcb93272d133"},"vehicle_type_id":"4","last_reported":1751278335,"current_range_meters":15200,"station_id":"","pricing_plan_id":"cebpf4jnsgd1na2vs0mg"},{"bike_id":"af088c70-8d75-468b-92b9-74357286b05a","system_id":"levelo_inurba_marseille","lat":43.29534,"lon":5.38529,"is_reserved":false,"is_disabled":false,"rental_uris":{"android":"levelo://app?vid=af088c70-8d75-468b-92b9-74357286b05a","ios":"levelo://app?vid=af088c70-8d75-468b-92b9-74357286b05a"},"vehicle_type_id":"4","last_reported":1751278335,"current_range_meters":15200,"station_id":"ce4bgih2rcd13ifvqba0","pricing_plan_id":"cebpf4jnsgd1na2vs0mg"},{"bike_id":"45b05d9c-95a7-48be-abd0-aac591898103","system_id":"levelo_inurba_marseille","lat":43.29965,"lon":5.38501,"is_reserved":false,"is_disabled":false,"rental_uris":{"android":"levelo://app?vid=45b05d9c-95a7-48be-abd0-aac591898103","ios":"levelo://app?vid=45b05d9c-95a7-48be-abd0-aac591898103"},"vehicle_type_id":"4","last_reported":1751278335,"current_range_meters":15200,"station_id":"ce4bgj92rcd13ifvqbd0","pricing_plan_id":"cebpf4jnsgd1na2vs0mg"},{"bike_id":"b6941871-17ec-4dc8-9dbe-bf1e08f324ad","system_id":"levelo_inurba_marseille","lat":43.312233,"lon":5.368429,"is_reserved":false,"is_disabled":false,"rental_uris":{"android":"levelo://app?vid=b6941871-17ec-4dc8-9dbe-bf1e08f324ad","ios":"levelo://app?vid=b6941871-17ec-4dc8-9dbe-bf1e08f324ad"},"vehicle_type_id":"4","last_reported":1751278335,"current_range_meters":15200,"station_id":"ce4bgl92rcd13ifvqbq0","pricing_plan_id":"cebpf4jnsgd1na2vs0mg"},{"bike_id":"698a4856-69ab-49ee-b6c2-5a6a51ef5c86","system_id":"levelo_inurba_marseille","lat":43.29628,"lon":5.37169,"is_reserved":false,"is_disabled":false,"rental_uris":{"android":"levelo://app?vid=698a4856-69ab-49ee-b6c2-5a6a51ef5c86","ios":"levelo://app?vid=698a4856-69ab-49ee-b6c2-5a6a51ef5c86"},"vehicle_type_id":"4","last_reported":1751278335,"current_range_meters":15200,"station_id":"ce4bgnh2rcd13ifvqc0g","pricing_plan_id":"cebpf4jnsgd1na2vs0mg"},{"bike_id":"225c46c8-6534-43e1-a171-bac8cea4a10c","system_id":"levelo_inurba_marseille","lat":43.29422,"lon":5.38627,"is_reserved":false,"is_disabled":false,"rental_uris":{"android":"levelo://app?vid=225c46c8-6534-43e1-a171-bac8cea4a10c","ios":"levelo://app?vid=225c46c8-6534-43e1-a171-bac8cea4a10c"},"vehicle_type_id":"4","last_reported":1751278335,"current_range_meters":15200,"station_id":"ce4bh2h2rcd13ifvqdh0","pricing_plan_id":"cebpf4jnsgd1na2vs0mg"},{"bike_id":"53ca0b75-6da8-43b1-b442-426483fcae0b","system_id":"levelo_inurba_marseille","lat":43.28487,"lon":5.38565,"is_reserved":false,"is_disabled":false,"rental_uris":{"android":"levelo://app?vid=53ca0b75-6da8-43b1-b442-426483fcae0b","ios":"levelo://app?vid=53ca0b75-6da8-43b1-b442-426483fcae0b"},"vehicle_type_id":"4","last_reported":1751278335,"current_range_meters":15200,"station_id":"ce4bh8p2rcd13ifvqeb0","pricing_plan_id":"cebpf4jnsgd1na2vs0mg"},{"bike_id":"eea6ad0a-b8b6-414b-a92b-2f178d46f42f","system_id":"levelo_inurba_marseille","lat":43.23192,"lon":5.35553,"is_reserved":false,"is_disabled":false,"rental_uris":{"android":"levelo://app?vid=eea6ad0a-b8b6-414b-a92b-2f178d46f42f","ios":"levelo://app?vid=eea6ad0a-b8b6-414b-a92b-2f178d46f42f"},"vehicle_type_id":"4","last_reported":1751278335,"current_range_meters":15200,"station_id":"ce4bhu92rcd13ifvqi70","pricing_plan_id":"cebpf4jnsgd1na2vs0mg"},{"bike_id":"272ce775-9f68-42d0-9b05-f0dc721ca521","system_id":"levelo_inurba_marseille","lat":43.29278,"lon":5.3747,"is_reserved":false,"is_disabled":false,"rental_uris":{"android":"levelo://app?vid=272ce775-9f68-42d0-9b05-f0dc721ca521","ios":"levelo://app?vid=272ce775-9f68-42d0-9b05-f0dc721ca521"},"vehicle_type_id":"4","last_reported":1751278335,"current_range_meters":16000,"station_id":"ce4bgi12rcd13ifvqb70","pricing_plan_id":"cebpf4jnsgd1na2vs0mg"},{"bike_id":"c25589d7-9d72-4e62-9083-d65b3d88162c","system_id":"levelo_inurba_marseille","lat":43.28104,"lon":5.37831,"is_reserved":false,"is_disabled":false,"rental_uris":{"android":"levelo://app?vid=c25589d7-9d72-4e62-9083-d65b3d88162c","ios":"levelo://app?vid=c25589d7-9d72-4e62-9083-d65b3d88162c"},"vehicle_type_id":"4","last_reported":1751278335,"current_range_meters":16000,"station_id":"ce4bha12rcd13ifvqee0","pricing_plan_id":"cebpf4jnsgd1na2vs0mg"},{"bike_id":"daad9c7c-ef36-46f1-94e5-896ac219d4b1","system_id":"levelo_inurba_marseille","lat":43.291751,"lon":5.371549,"is_reserved":false,"is_disabled":false,"rental_uris":{"android":"levelo://app?vid=daad9c7c-ef36-46f1-94e5-896ac219d4b1","ios":"levelo://app?vid=daad9c7c-ef36-46f1-94e5-896ac219d4b1"},"vehicle_type_id":"4","last_reported":1751278335,"current_range_meters":16000,"station_id":"ce4bha92rcd13ifvqeh0","pricing_plan_id":"cebpf4jnsgd1na2vs0mg"},{"bike_id":"ed04a1b8-7ed9-4134-8457-ec8a436b5623","system_id":"levelo_inurba_marseille","lat":43.28413,"lon":5.34981,"is_reserved":false,"is_disabled":false,"rental_uris":{"android":"levelo://app?vid=ed04a1b8-7ed9-4134-8457-ec8a436b5623","ios":"levelo://app?vid=ed04a1b8-7ed9-4134-8457-ec8a436b5623"},"vehicle_type_id":"4","last_reported":1751278335,"current_range_meters":16000,"station_id":"ce4bhbh2rcd13ifvqepg","pricing_plan_id":"cebpf4jnsgd1na2vs0mg"},{"bike_id":"439b060c-1ed3-4dc0-aba8-51e0b7ea3d34","system_id":"levelo_inurba_marseille","lat":43.25926,"lon":5.4091,"is_reserved":false,"is_disabled":false,"rental_uris":{"android":"levelo://app?vid=439b060c-1ed3-4dc0-aba8-51e0b7ea3d34","ios":"levelo://app?vid=439b060c-1ed3-4dc0-aba8-51e0b7ea3d34"},"vehicle_type_id":"4","last_reported":1751278335,"current_range_meters":16000,"station_id":"ce4bhm92rcd13ifvqglg","pricing_plan_id":"cebpf4jnsgd1na2vs0mg"},{"bike_id":"6b04a8db-f012-4ea9-88f5-d59ff3f24fd9","system_id":"levelo_inurba_marseille","lat":43.29904,"lon":5.436661,"is_reserved":false,"is_disabled":false,"rental_uris":{"android":"levelo://app?vid=6b04a8db-f012-4ea9-88f5-d59ff3f24fd9","ios":"levelo://app?vid=6b04a8db-f012-4ea9-88f5-d59ff3f24fd9"},"vehicle_type_id":"4","last_reported":1751278335,"current_range_meters":16000,"station_id":"ce4bhpp2rcd13ifvqhfg","pricing_plan_id":"cebpf4jnsgd1na2vs0mg"},{"bike_id":"4e47abe4-6598-4756-807d-26ba558e3c39","system_id":"levelo_inurba_marseille","lat":43.29899,"lon":5.43663,"is_reserved":false,"is_disabled":false,"rental_uris":{"android":"levelo://app?vid=4e47abe4-6598-4756-807d-26ba558e3c39","ios":"levelo://app?vid=4e47abe4-6598-4756-807d-26ba558e3c39"},"vehicle_type_id":"4","last_reported":1751278335,"current_range_meters":16000,"station_id":"ce4bhpp2rcd13ifvqhfg","pricing_plan_id":"cebpf4jnsgd1na2vs0mg"},{"bike_id":"dbf08df2-c485-4c82-930d-7827c80c33d5","system_id":"levelo_inurba_marseille","lat":43.32339,"lon":5.40622,"is_reserved":false,"is_disabled":false,"rental_uris":{"android":"levelo://app?vid=dbf08df2-c485-4c82-930d-7827c80c33d5","ios":"levelo://app?vid=dbf08df2-c485-4c82-930d-7827c80c33d5"},"vehicle_type_id":"4","last_reported":1751278335,"current_range_meters":16000,"station_id":"ce4bhq92rcd13ifvqhjg","pricing_plan_id":"cebpf4jnsgd1na2vs0mg"},{"bike_id":"aad466d4-9058-4038-a189-895fae6f1c28","system_id":"levelo_inurba_marseille","lat":43.21187,"lon":5.35069,"is_reserved":false,"is_disabled":false,"rental_uris":{"android":"levelo://app?vid=aad466d4-9058-4038-a189-895fae6f1c28","ios":"levelo://app?vid=aad466d4-9058-4038-a189-895fae6f1c28"},"vehicle_type_id":"4","last_reported":1751278335,"current_range_meters":16000,"station_id":"st_cvj6sg6p6f1abm77japg","pricing_plan_id":"cebpf4jnsgd1na2vs0mg"},{"bike_id":"ad9a1bf3-7423-4a3f-b7d3-23958e3dbc15","system_id":"levelo_inurba_marseille","lat":43.30887,"lon":5.37821,"is_reserved":false,"is_disabled":false,"rental_uris":{"android":"levelo://app?vid=ad9a1bf3-7423-4a3f-b7d3-23958e3dbc15","ios":"levelo://app?vid=ad9a1bf3-7423-4a3f-b7d3-23958e3dbc15"},"vehicle_type_id":"4","last_reported":1751278335,"current_range_meters":16400,"station_id":"","pricing_plan_id":"cebpf4jnsgd1na2vs0mg"},{"bike_id":"f3291c68-c441-45bc-979c-3d6ac0230693","system_id":"levelo_inurba_marseille","lat":43.284088,"lon":5.349789,"is_reserved":false,"is_disabled":false,"rental_uris":{"android":"levelo://app?vid=f3291c68-c441-45bc-979c-3d6ac0230693","ios":"levelo://app?vid=f3291c68-c441-45bc-979c-3d6ac0230693"},"vehicle_type_id":"4","last_reported":1751278335,"current_range_meters":16400,"station_id":"ce4bhbh2rcd13ifvqepg","pricing_plan_id":"cebpf4jnsgd1na2vs0mg"},{"bike_id":"d8facb10-b967-4a32-9b5c-8cfed4bbd05b","system_id":"levelo_inurba_marseille","lat":43.32128,"lon":5.36781,"is_reserved":false,"is_disabled":false,"rental_uris":{"android":"levelo://app?vid=d8facb10-b967-4a32-9b5c-8cfed4bbd05b","ios":"levelo://app?vid=d8facb10-b967-4a32-9b5c-8cfed4bbd05b"},"vehicle_type_id":"4","last_reported":1751278335,"current_range_meters":16400,"station_id":"ce4bhrh2rcd13ifvqhug","pricing_plan_id":"cebpf4jnsgd1na2vs0mg"},{"bike_id":"4f97e136-2006-43b5-84b8-8ce28f4647e9","system_id":"levelo_inurba_marseille","lat":43.21189,"lon":5.35073,"is_reserved":false,"is_disabled":false,"rental_uris":{"android":"levelo://app?vid=4f97e136-2006-43b5-84b8-8ce28f4647e9","ios":"levelo://app?vid=4f97e136-2006-43b5-84b8-8ce28f4647e9"},"vehicle_type_id":"4","last_reported":1751278335,"current_range_meters":16400,"station_id":"st_cvj6sg6p6f1abm77japg","pricing_plan_id":"cebpf4jnsgd1na2vs0mg"},{"bike_id":"8ceb2860-ca09-420a-8aab-fcf0c529a0d3","system_id":"levelo_inurba_marseille","lat":43.21198,"lon":5.35077,"is_reserved":false,"is_disabled":false,"rental_uris":{"android":"levelo://app?vid=8ceb2860-ca09-420a-8aab-fcf0c529a0d3","ios":"levelo://app?vid=8ceb2860-ca09-420a-8aab-fcf0c529a0d3"},"vehicle_type_id":"4","last_reported":1751278335,"current_range_meters":16400,"station_id":"st_cvj6sg6p6f1abm77japg","pricing_plan_id":"cebpf4jnsgd1na2vs0mg"},{"bike_id":"de6647d3-7fdb-4d30-8c65-4a790bf662d7","system_id":"levelo_inurba_marseille","lat":43.29304,"lon":5.37458,"is_reserved":false,"is_disabled":false,"rental_uris":{"android":"levelo://app?vid=de6647d3-7fdb-4d30-8c65-4a790bf662d7","ios":"levelo://app?vid=de6647d3-7fdb-4d30-8c65-4a790bf662d7"},"vehicle_type_id":"4","last_reported":1751278335,"current_range_meters":16800,"station_id":"ce4bgi12rcd13ifvqb70","pricing_plan_id":"cebpf4jnsgd1na2vs0mg"},{"bike_id":"46e1b6b0-2f4d-4911-91fb-81dddd2d5578","system_id":"levelo_inurba_marseille","lat":43.30548,"lon":5.3653,"is_reserved":false,"is_disabled":false,"rental_uris":{"android":"levelo://app?vid=46e1b6b0-2f4d-4911-91fb-81dddd2d5578","ios":"levelo://app?vid=46e1b6b0-2f4d-4911-91fb-81dddd2d5578"},"vehicle_type_id":"4","last_reported":1751278335,"current_range_meters":16800,"station_id":"ce4bgs12rcd13ifvqcag","pricing_plan_id":"cebpf4jnsgd1na2vs0mg"},{"bike_id":"73f4fa4a-ad62-49b8-a0e1-457d7f00e67a","system_id":"levelo_inurba_marseille","lat":43.298845,"lon":5.387902,"is_reserved":false,"is_disabled":false,"rental_uris":{"android":"levelo://app?vid=73f4fa4a-ad62-49b8-a0e1-457d7f00e67a","ios":"levelo://app?vid=73f4fa4a-ad62-49b8-a0e1-457d7f00e67a"},"vehicle_type_id":"4","last_reported":1751278335,"current_range_meters":16800,"station_id":"ce4bh0h2rcd13ifvqd50","pricing_plan_id":"cebpf4jnsgd1na2vs0mg"},{"bike_id":"c482551c-e049-403e-a2ae-db067bf000c5","system_id":"levelo_inurba_marseille","lat":43.28264,"lon":5.35071,"is_reserved":false,"is_disabled":false,"rental_uris":{"android":"levelo://app?vid=c482551c-e049-403e-a2ae-db067bf000c5","ios":"levelo://app?vid=c482551c-e049-403e-a2ae-db067bf000c5"},"vehicle_type_id":"4","last_reported":1751278335,"current_range_meters":16800,"station_id":"ce4bhbp2rcd13ifvqerg","pricing_plan_id":"cebpf4jnsgd1na2vs0mg"},{"bike_id":"b01b885a-9633-41f8-ae32-8678b0d30874","system_id":"levelo_inurba_marseille","lat":43.23183,"lon":5.39984,"is_reserved":false,"is_disabled":false,"rental_uris":{"android":"levelo://app?vid=b01b885a-9633-41f8-ae32-8678b0d30874","ios":"levelo://app?vid=b01b885a-9633-41f8-ae32-8678b0d30874"},"vehicle_type_id":"4","last_reported":1751278335,"current_range_meters":16800,"station_id":"ce4bhn12rcd13ifvqgqg","pricing_plan_id":"cebpf4jnsgd1na2vs0mg"},{"bike_id":"4fa57d96-2248-4f46-a1de-c1d178fbcb90","system_id":"levelo_inurba_marseille","lat":43.33613,"lon":5.41035,"is_reserved":false,"is_disabled":false,"rental_uris":{"android":"levelo://app?vid=4fa57d96-2248-4f46-a1de-c1d178fbcb90","ios":"levelo://app?vid=4fa57d96-2248-4f46-a1de-c1d178fbcb90"},"vehicle_type_id":"4","last_reported":1751278335,"current_range_meters":16800,"station_id":"ce4bhqh2rcd13ifvqhmg","pricing_plan_id":"cebpf4jnsgd1na2vs0mg"},{"bike_id":"27de128b-79d6-4ae4-99ba-8537bd95d5a2","system_id":"levelo_inurba_marseille","lat":43.325026,"lon":5.365512,"is_reserved":false,"is_disabled":false,"rental_uris":{"android":"levelo://app?vid=27de128b-79d6-4ae4-99ba-8537bd95d5a2","ios":"levelo://app?vid=27de128b-79d6-4ae4-99ba-8537bd95d5a2"},"vehicle_type_id":"4","last_reported":1751278335,"current_range_meters":16800,"station_id":"ce4bhs12rcd13ifvqhvg","pricing_plan_id":"cebpf4jnsgd1na2vs0mg"},{"bike_id":"2b4fa9d6-d55c-459f-b66a-601a052cf300","system_id":"levelo_inurba_marseille","lat":43.314849,"lon":5.373114,"is_reserved":false,"is_disabled":false,"rental_uris":{"android":"levelo://app?vid=2b4fa9d6-d55c-459f-b66a-601a052cf300","ios":"levelo://app?vid=2b4fa9d6-d55c-459f-b66a-601a052cf300"},"vehicle_type_id":"4","last_reported":1751278335,"current_range_meters":17200,"station_id":"ce4bgt12rcd13ifvqcd0","pricing_plan_id":"cebpf4jnsgd1na2vs0mg"},{"bike_id":"a2c32f02-4b6e-48f6-a423-074ae47c5d0e","system_id":"levelo_inurba_marseille","lat":43.29418,"lon":5.38647,"is_reserved":false,"is_disabled":false,"rental_uris":{"android":"levelo://app?vid=a2c32f02-4b6e-48f6-a423-074ae47c5d0e","ios":"levelo://app?vid=a2c32f02-4b6e-48f6-a423-074ae47c5d0e"},"vehicle_type_id":"4","last_reported":1751278335,"current_range_meters":17200,"station_id":"ce4bh2h2rcd13ifvqdh0","pricing_plan_id":"cebpf4jnsgd1na2vs0mg"},{"bike_id":"de5b787a-ab4f-4c24-af26-40dc2f8d9443","system_id":"levelo_inurba_marseille","lat":43.28363,"lon":5.38634,"is_reserved":false,"is_disabled":false,"rental_uris":{"android":"levelo://app?vid=de5b787a-ab4f-4c24-af26-40dc2f8d9443","ios":"levelo://app?vid=de5b787a-ab4f-4c24-af26-40dc2f8d9443"},"vehicle_type_id":"4","last_reported":1751278335,"current_range_meters":17200,"station_id":"ce4bh492rcd13ifvqdvg","pricing_plan_id":"cebpf4jnsgd1na2vs0mg"},{"bike_id":"679767e0-962b-4585-b9c2-6f164fca398d","system_id":"levelo_inurba_marseille","lat":43.29155,"lon":5.37162,"is_reserved":false,"is_disabled":false,"rental_uris":{"android":"levelo://app?vid=679767e0-962b-4585-b9c2-6f164fca398d","ios":"levelo://app?vid=679767e0-962b-4585-b9c2-6f164fca398d"},"vehicle_type_id":"4","last_reported":1751278335,"current_range_meters":17200,"station_id":"ce4bha92rcd13ifvqeh0","pricing_plan_id":"cebpf4jnsgd1na2vs0mg"},{"bike_id":"e4958595-3d3c-4d03-a3a7-84027388026e","system_id":"levelo_inurba_marseille","lat":43.28423,"lon":5.34992,"is_reserved":false,"is_disabled":false,"rental_uris":{"android":"levelo://app?vid=e4958595-3d3c-4d03-a3a7-84027388026e","ios":"levelo://app?vid=e4958595-3d3c-4d03-a3a7-84027388026e"},"vehicle_type_id":"4","last_reported":1751278335,"current_range_meters":17200,"station_id":"ce4bhbh2rcd13ifvqepg","pricing_plan_id":"cebpf4jnsgd1na2vs0mg"},{"bike_id":"822ed985-59a2-49b8-b4dc-897e532b7287","system_id":"levelo_inurba_marseille","lat":43.25859,"lon":5.39915,"is_reserved":false,"is_disabled":false,"rental_uris":{"android":"levelo://app?vid=822ed985-59a2-49b8-b4dc-897e532b7287","ios":"levelo://app?vid=822ed985-59a2-49b8-b4dc-897e532b7287"},"vehicle_type_id":"4","last_reported":1751278335,"current_range_meters":17200,"station_id":"ce4bhl92rcd13ifvqghg","pricing_plan_id":"cebpf4jnsgd1na2vs0mg"},{"bike_id":"7e623c89-c673-44ab-9822-7ea8887ff69d","system_id":"levelo_inurba_marseille","lat":43.337444,"lon":5.374475,"is_reserved":false,"is_disabled":false,"rental_uris":{"android":"levelo://app?vid=7e623c89-c673-44ab-9822-7ea8887ff69d","ios":"levelo://app?vid=7e623c89-c673-44ab-9822-7ea8887ff69d"},"vehicle_type_id":"4","last_reported":1751278335,"current_range_meters":17200,"station_id":"ce4bhlh2rcd13ifvqgig","pricing_plan_id":"cebpf4jnsgd1na2vs0mg"},{"bike_id":"048ec6e9-5fd9-4256-ae6a-a72856ab2acf","system_id":"levelo_inurba_marseille","lat":43.21192,"lon":5.350734,"is_reserved":false,"is_disabled":false,"rental_uris":{"android":"levelo://app?vid=048ec6e9-5fd9-4256-ae6a-a72856ab2acf","ios":"levelo://app?vid=048ec6e9-5fd9-4256-ae6a-a72856ab2acf"},"vehicle_type_id":"4","last_reported":1751278335,"current_range_meters":17200,"station_id":"st_cvj6sg6p6f1abm77japg","pricing_plan_id":"cebpf4jnsgd1na2vs0mg"},{"bike_id":"d5da5bd9-7c2a-48e5-92aa-fa21076cad13","system_id":"levelo_inurba_marseille","lat":43.21191,"lon":5.35071,"is_reserved":false,"is_disabled":false,"rental_uris":{"android":"levelo://app?vid=d5da5bd9-7c2a-48e5-92aa-fa21076cad13","ios":"levelo://app?vid=d5da5bd9-7c2a-48e5-92aa-fa21076cad13"},"vehicle_type_id":"4","last_reported":1751278335,"current_range_meters":17200,"station_id":"st_cvj6sg6p6f1abm77japg","pricing_plan_id":"cebpf4jnsgd1na2vs0mg"},{"bike_id":"1bc8d273-d189-4bc7-be42-d44ecadca3c6","system_id":"levelo_inurba_marseille","lat":43.29009,"lon":5.37556,"is_reserved":false,"is_disabled":false,"rental_uris":{"android":"levelo://app?vid=1bc8d273-d189-4bc7-be42-d44ecadca3c6","ios":"levelo://app?vid=1bc8d273-d189-4bc7-be42-d44ecadca3c6"},"vehicle_type_id":"4","last_reported":1751278335,"current_range_meters":17600,"station_id":"ce4bh692rcd13ifvqe90","pricing_plan_id":"cebpf4jnsgd1na2vs0mg"},{"bike_id":"752a1d1b-8db6-44a5-b035-b7f042fb933b","system_id":"levelo_inurba_marseille","lat":43.26936,"lon":5.38921,"is_reserved":false,"is_disabled":false,"rental_uris":{"android":"levelo://app?vid=752a1d1b-8db6-44a5-b035-b7f042fb933b","ios":"levelo://app?vid=752a1d1b-8db6-44a5-b035-b7f042fb933b"},"vehicle_type_id":"4","last_reported":1751278335,"current_range_meters":17600,"station_id":"ce4bhhh2rcd13ifvqfl0","pricing_plan_id":"cebpf4jnsgd1na2vs0mg"},{"bike_id":"7def622c-1243-44da-af36-4c505b4f00ba","system_id":"levelo_inurba_marseille","lat":43.24177,"lon":5.397247,"is_reserved":false,"is_disabled":false,"rental_uris":{"android":"levelo://app?vid=7def622c-1243-44da-af36-4c505b4f00ba","ios":"levelo://app?vid=7def622c-1243-44da-af36-4c505b4f00ba"},"vehicle_type_id":"4","last_reported":1751278335,"current_range_meters":17600,"station_id":"ce4bhn12rcd13ifvqgpg","pricing_plan_id":"cebpf4jnsgd1na2vs0mg"},{"bike_id":"d90daeb2-baa5-4f84-8ba2-ffc1dcd4b96b","system_id":"levelo_inurba_marseille","lat":43.241718,"lon":5.36394,"is_reserved":false,"is_disabled":false,"rental_uris":{"android":"levelo://app?vid=d90daeb2-baa5-4f84-8ba2-ffc1dcd4b96b","ios":"levelo://app?vid=d90daeb2-baa5-4f84-8ba2-ffc1dcd4b96b"},"vehicle_type_id":"4","last_reported":1751278335,"current_range_meters":17600,"station_id":"cpo36qri1sfpv3e86is0","pricing_plan_id":"cebpf4jnsgd1na2vs0mg"},{"bike_id":"e891d413-f511-44d4-9ddd-90f57509289b","system_id":"levelo_inurba_marseille","lat":43.317025,"lon":5.367688,"is_reserved":false,"is_disabled":false,"rental_uris":{"android":"levelo://app?vid=e891d413-f511-44d4-9ddd-90f57509289b","ios":"levelo://app?vid=e891d413-f511-44d4-9ddd-90f57509289b"},"vehicle_type_id":"4","last_reported":1751278335,"current_range_meters":18000,"station_id":"","pricing_plan_id":"cebpf4jnsgd1na2vs0mg"},{"bike_id":"036d89bb-7350-4239-99d4-2504abc8fb7a","system_id":"levelo_inurba_marseille","lat":43.29852,"lon":5.36282,"is_reserved":false,"is_disabled":false,"rental_uris":{"android":"levelo://app?vid=036d89bb-7350-4239-99d4-2504abc8fb7a","ios":"levelo://app?vid=036d89bb-7350-4239-99d4-2504abc8fb7a"},"vehicle_type_id":"4","last_reported":1751278335,"current_range_meters":18000,"station_id":"ce4bgpp2rcd13ifvqc3g","pricing_plan_id":"cebpf4jnsgd1na2vs0mg"},{"bike_id":"f0cfb803-e12e-4045-940a-4529fbb00753","system_id":"levelo_inurba_marseille","lat":43.27376,"lon":5.36264,"is_reserved":false,"is_disabled":false,"rental_uris":{"android":"levelo://app?vid=f0cfb803-e12e-4045-940a-4529fbb00753","ios":"levelo://app?vid=f0cfb803-e12e-4045-940a-4529fbb00753"},"vehicle_type_id":"4","last_reported":1751278335,"current_range_meters":18000,"station_id":"ce4bhbh2rcd13ifvqeo0","pricing_plan_id":"cebpf4jnsgd1na2vs0mg"},{"bike_id":"0fe4fb34-323e-408e-888e-fc41d58bbecb","system_id":"levelo_inurba_marseille","lat":43.27051,"lon":5.40252,"is_reserved":false,"is_disabled":false,"rental_uris":{"android":"levelo://app?vid=0fe4fb34-323e-408e-888e-fc41d58bbecb","ios":"levelo://app?vid=0fe4fb34-323e-408e-888e-fc41d58bbecb"},"vehicle_type_id":"4","last_reported":1751278335,"current_range_meters":18000,"station_id":"ce4bhk92rcd13ifvqgc0","pricing_plan_id":"cebpf4jnsgd1na2vs0mg"},{"bike_id":"82d9ca30-f9a8-4640-b3c2-dd5ef6b98b95","system_id":"levelo_inurba_marseille","lat":43.25131,"lon":5.40353,"is_reserved":false,"is_disabled":false,"rental_uris":{"android":"levelo://app?vid=82d9ca30-f9a8-4640-b3c2-dd5ef6b98b95","ios":"levelo://app?vid=82d9ca30-f9a8-4640-b3c2-dd5ef6b98b95"},"vehicle_type_id":"4","last_reported":1751278335,"current_range_meters":18000,"station_id":"ce4bhlh2rcd13ifvqgig","pricing_plan_id":"cebpf4jnsgd1na2vs0mg"},{"bike_id":"b5746d12-2f81-469d-95b5-50bb88bdde8f","system_id":"levelo_inurba_marseille","lat":43.24543,"lon":5.39522,"is_reserved":false,"is_disabled":false,"rental_uris":{"android":"levelo://app?vid=b5746d12-2f81-469d-95b5-50bb88bdde8f","ios":"levelo://app?vid=b5746d12-2f81-469d-95b5-50bb88bdde8f"},"vehicle_type_id":"4","last_reported":1751278335,"current_range_meters":18000,"station_id":"ce4bhlp2rcd13ifvqgjg","pricing_plan_id":"cebpf4jnsgd1na2vs0mg"},{"bike_id":"50e02e17-6314-46e3-9057-54c0079e232f","system_id":"levelo_inurba_marseille","lat":43.24078,"lon":5.37763,"is_reserved":false,"is_disabled":false,"rental_uris":{"android":"levelo://app?vid=50e02e17-6314-46e3-9057-54c0079e232f","ios":"levelo://app?vid=50e02e17-6314-46e3-9057-54c0079e232f"},"vehicle_type_id":"4","last_reported":1751278335,"current_range_meters":18000,"station_id":"ce4bhnp2rcd13ifvqgvg","pricing_plan_id":"cebpf4jnsgd1na2vs0mg"},{"bike_id":"e552832c-7ca2-4106-b0f9-92bbabda27d1","system_id":"levelo_inurba_marseille","lat":43.211898,"lon":5.350693,"is_reserved":false,"is_disabled":false,"rental_uris":{"android":"levelo://app?vid=e552832c-7ca2-4106-b0f9-92bbabda27d1","ios":"levelo://app?vid=e552832c-7ca2-4106-b0f9-92bbabda27d1"},"vehicle_type_id":"4","last_reported":1751278335,"current_range_meters":18000,"station_id":"st_cvj6sg6p6f1abm77japg","pricing_plan_id":"cebpf4jnsgd1na2vs0mg"},{"bike_id":"b13877a6-4825-4d82-b46b-67fa8ad66c5d","system_id":"levelo_inurba_marseille","lat":43.21193,"lon":5.35069,"is_reserved":false,"is_disabled":false,"rental_uris":{"android":"levelo://app?vid=b13877a6-4825-4d82-b46b-67fa8ad66c5d","ios":"levelo://app?vid=b13877a6-4825-4d82-b46b-67fa8ad66c5d"},"vehicle_type_id":"4","last_reported":1751278335,"current_range_meters":18000,"station_id":"st_cvj6sg6p6f1abm77japg","pricing_plan_id":"cebpf4jnsgd1na2vs0mg"},{"bike_id":"0da97725-d656-430e-82c0-80aeb7c9f8a2","system_id":"levelo_inurba_marseille","lat":43.31228,"lon":5.3689,"is_reserved":false,"is_disabled":false,"rental_uris":{"android":"levelo://app?vid=0da97725-d656-430e-82c0-80aeb7c9f8a2","ios":"levelo://app?vid=0da97725-d656-430e-82c0-80aeb7c9f8a2"},"vehicle_type_id":"4","last_reported":1751278335,"current_range_meters":18800,"station_id":"ce4bgl92rcd13ifvqbq0","pricing_plan_id":"cebpf4jnsgd1na2vs0mg"},{"bike_id":"1c1e0436-c990-4c38-b11e-d6968f287975","system_id":"levelo_inurba_marseille","lat":43.29594,"lon":5.36747,"is_reserved":false,"is_disabled":false,"rental_uris":{"android":"levelo://app?vid=1c1e0436-c990-4c38-b11e-d6968f287975","ios":"levelo://app?vid=1c1e0436-c990-4c38-b11e-d6968f287975"},"vehicle_type_id":"4","last_reported":1751278335,"current_range_meters":18800,"station_id":"ce4bgph2rcd13ifvqc2g","pricing_plan_id":"cebpf4jnsgd1na2vs0mg"},{"bike_id":"c2b72fe0-bae6-4c7b-ad48-9e771b203dc8","system_id":"levelo_inurba_marseille","lat":43.31327,"lon":5.38491,"is_reserved":false,"is_disabled":false,"rental_uris":{"android":"levelo://app?vid=c2b72fe0-bae6-4c7b-ad48-9e771b203dc8","ios":"levelo://app?vid=c2b72fe0-bae6-4c7b-ad48-9e771b203dc8"},"vehicle_type_id":"4","last_reported":1751278335,"current_range_meters":18800,"station_id":"ce4bgt92rcd13ifvqcf0","pricing_plan_id":"cebpf4jnsgd1na2vs0mg"},{"bike_id":"9c736080-af5e-46df-8e17-035df1dd4aea","system_id":"levelo_inurba_marseille","lat":43.29863,"lon":5.39738,"is_reserved":false,"is_disabled":false,"rental_uris":{"android":"levelo://app?vid=9c736080-af5e-46df-8e17-035df1dd4aea","ios":"levelo://app?vid=9c736080-af5e-46df-8e17-035df1dd4aea"},"vehicle_type_id":"4","last_reported":1751278335,"current_range_meters":18800,"station_id":"ce4bh0h2rcd13ifvqd50","pricing_plan_id":"cebpf4jnsgd1na2vs0mg"},{"bike_id":"da7b5a0c-0b52-4291-8e2f-f94a20514d0e","system_id":"levelo_inurba_marseille","lat":43.29064,"lon":5.38148,"is_reserved":false,"is_disabled":false,"rental_uris":{"android":"levelo://app?vid=da7b5a0c-0b52-4291-8e2f-f94a20514d0e","ios":"levelo://app?vid=da7b5a0c-0b52-4291-8e2f-f94a20514d0e"},"vehicle_type_id":"4","last_reported":1751278335,"current_range_meters":18800,"station_id":"ce4bh512rcd13ifvqe2g","pricing_plan_id":"cebpf4jnsgd1na2vs0mg"},{"bike_id":"d7c708cf-17ed-43f5-95e4-5e07f9ea1894","system_id":"levelo_inurba_marseille","lat":43.29002,"lon":5.356,"is_reserved":false,"is_disabled":false,"rental_uris":{"android":"levelo://app?vid=d7c708cf-17ed-43f5-95e4-5e07f9ea1894","ios":"levelo://app?vid=d7c708cf-17ed-43f5-95e4-5e07f9ea1894"},"vehicle_type_id":"4","last_reported":1751278335,"current_range_meters":18800,"station_id":"ce4bhb92rcd13ifvqen0","pricing_plan_id":"cebpf4jnsgd1na2vs0mg"},{"bike_id":"714e81cc-0a88-4f76-a904-b1c3a28974fe","system_id":"levelo_inurba_marseille","lat":43.28619,"lon":5.3511,"is_reserved":false,"is_disabled":false,"rental_uris":{"android":"levelo://app?vid=714e81cc-0a88-4f76-a904-b1c3a28974fe","ios":"levelo://app?vid=714e81cc-0a88-4f76-a904-b1c3a28974fe"},"vehicle_type_id":"4","last_reported":1751278335,"current_range_meters":18800,"station_id":"ce4bhch2rcd13ifvqeug","pricing_plan_id":"cebpf4jnsgd1na2vs0mg"},{"bike_id":"e01419d7-8f44-4040-82d4-ead02b262976","system_id":"levelo_inurba_marseille","lat":43.26201,"lon":5.37462,"is_reserved":false,"is_disabled":false,"rental_uris":{"android":"levelo://app?vid=e01419d7-8f44-4040-82d4-ead02b262976","ios":"levelo://app?vid=e01419d7-8f44-4040-82d4-ead02b262976"},"vehicle_type_id":"4","last_reported":1751278335,"current_range_meters":18800,"station_id":"ce4bhgp2rcd13ifvqfc0","pricing_plan_id":"cebpf4jnsgd1na2vs0mg"},{"bike_id":"a77abce9-c93f-4943-8889-d76aaaa3f08d","system_id":"levelo_inurba_marseille","lat":43.23152,"lon":5.43711,"is_reserved":false,"is_disabled":false,"rental_uris":{"android":"levelo://app?vid=a77abce9-c93f-4943-8889-d76aaaa3f08d","ios":"levelo://app?vid=a77abce9-c93f-4943-8889-d76aaaa3f08d"},"vehicle_type_id":"4","last_reported":1751278335,"current_range_meters":18800,"station_id":"ce4bhmp2rcd13ifvqgog","pricing_plan_id":"cebpf4jnsgd1na2vs0mg"},{"bike_id":"ec59dc73-efec-49fb-a623-8c210bcd8f9c","system_id":"levelo_inurba_marseille","lat":43.21747,"lon":5.34599,"is_reserved":false,"is_disabled":false,"rental_uris":{"android":"levelo://app?vid=ec59dc73-efec-49fb-a623-8c210bcd8f9c","ios":"levelo://app?vid=ec59dc73-efec-49fb-a623-8c210bcd8f9c"},"vehicle_type_id":"4","last_reported":1751278335,"current_range_meters":18800,"station_id":"st_cvj6r9ubvosntc0bgbag","pricing_plan_id":"cebpf4jnsgd1na2vs0mg"},{"bike_id":"0d839b5e-baaf-4b32-8658-bb0d20744629","system_id":"levelo_inurba_marseille","lat":43.211889,"lon":5.350718,"is_reserved":false,"is_disabled":false,"rental_uris":{"android":"levelo://app?vid=0d839b5e-baaf-4b32-8658-bb0d20744629","ios":"levelo://app?vid=0d839b5e-baaf-4b32-8658-bb0d20744629"},"vehicle_type_id":"4","last_reported":1751278335,"current_range_meters":18800,"station_id":"st_cvj6sg6p6f1abm77japg","pricing_plan_id":"cebpf4jnsgd1na2vs0mg"},{"bike_id":"f603f3aa-5bf7-4a19-a8a1-b47909f854c7","system_id":"levelo_inurba_marseille","lat":43.21192,"lon":5.35052,"is_reserved":false,"is_disabled":false,"rental_uris":{"android":"levelo://app?vid=f603f3aa-5bf7-4a19-a8a1-b47909f854c7","ios":"levelo://app?vid=f603f3aa-5bf7-4a19-a8a1-b47909f854c7"},"vehicle_type_id":"4","last_reported":1751278335,"current_range_meters":18800,"station_id":"st_cvj6sg6p6f1abm77japg","pricing_plan_id":"cebpf4jnsgd1na2vs0mg"},{"bike_id":"81944a98-00ee-4423-9f9e-70ec640f44d0","system_id":"levelo_inurba_marseille","lat":43.290424,"lon":5.359039,"is_reserved":false,"is_disabled":false,"rental_uris":{"android":"levelo://app?vid=81944a98-00ee-4423-9f9e-70ec640f44d0","ios":"levelo://app?vid=81944a98-00ee-4423-9f9e-70ec640f44d0"},"vehicle_type_id":"4","last_reported":1751278335,"current_range_meters":19200,"station_id":"","pricing_plan_id":"cebpf4jnsgd1na2vs0mg"},{"bike_id":"f8cde1e3-405a-4703-ae9d-e63247dcd590","system_id":"levelo_inurba_marseille","lat":43.29702,"lon":5.37291,"is_reserved":false,"is_disabled":false,"rental_uris":{"android":"levelo://app?vid=f8cde1e3-405a-4703-ae9d-e63247dcd590","ios":"levelo://app?vid=f8cde1e3-405a-4703-ae9d-e63247dcd590"},"vehicle_type_id":"4","last_reported":1751278335,"current_range_meters":19200,"station_id":"ce4bgk12rcd13ifvqbj0","pricing_plan_id":"cebpf4jnsgd1na2vs0mg"},{"bike_id":"1d3a9c68-5e0c-4bc2-a885-95c972116cb6","system_id":"levelo_inurba_marseille","lat":43.2951,"lon":5.37512,"is_reserved":false,"is_disabled":false,"rental_uris":{"android":"levelo://app?vid=1d3a9c68-5e0c-4bc2-a885-95c972116cb6","ios":"levelo://app?vid=1d3a9c68-5e0c-4bc2-a885-95c972116cb6"},"vehicle_type_id":"4","last_reported":1751278335,"current_range_meters":19200,"station_id":"ce4bgkp2rcd13ifvqbmg","pricing_plan_id":"cebpf4jnsgd1na2vs0mg"},{"bike_id":"0bee8496-de04-444f-924d-eff6f1b842d3","system_id":"levelo_inurba_marseille","lat":43.30505,"lon":5.36716,"is_reserved":false,"is_disabled":false,"rental_uris":{"android":"levelo://app?vid=0bee8496-de04-444f-924d-eff6f1b842d3","ios":"levelo://app?vid=0bee8496-de04-444f-924d-eff6f1b842d3"},"vehicle_type_id":"4","last_reported":1751278335,"current_range_meters":19200,"station_id":"ce4bgrp2rcd13ifvqc9g","pricing_plan_id":"cebpf4jnsgd1na2vs0mg"},{"bike_id":"e25ba395-2bc9-44d2-8b95-073fe9e7fe66","system_id":"levelo_inurba_marseille","lat":43.28637,"lon":5.35115,"is_reserved":false,"is_disabled":false,"rental_uris":{"android":"levelo://app?vid=e25ba395-2bc9-44d2-8b95-073fe9e7fe66","ios":"levelo://app?vid=e25ba395-2bc9-44d2-8b95-073fe9e7fe66"},"vehicle_type_id":"4","last_reported":1751278335,"current_range_meters":19200,"station_id":"ce4bhch2rcd13ifvqeug","pricing_plan_id":"cebpf4jnsgd1na2vs0mg"},{"bike_id":"11444401-9a82-4fbb-8fdc-fd8667d5d89f","system_id":"levelo_inurba_marseille","lat":43.27208,"lon":5.39183,"is_reserved":false,"is_disabled":false,"rental_uris":{"android":"levelo://app?vid=11444401-9a82-4fbb-8fdc-fd8667d5d89f","ios":"levelo://app?vid=11444401-9a82-4fbb-8fdc-fd8667d5d89f"},"vehicle_type_id":"4","last_reported":1751278335,"current_range_meters":19200,"station_id":"ce4bhhp2rcd13ifvqfm0","pricing_plan_id":"cebpf4jnsgd1na2vs0mg"},{"bike_id":"352380ee-ad43-4641-b75a-8ca6767ae9f1","system_id":"levelo_inurba_marseille","lat":43.298991,"lon":5.436646,"is_reserved":false,"is_disabled":false,"rental_uris":{"android":"levelo://app?vid=352380ee-ad43-4641-b75a-8ca6767ae9f1","ios":"levelo://app?vid=352380ee-ad43-4641-b75a-8ca6767ae9f1"},"vehicle_type_id":"4","last_reported":1751278335,"current_range_meters":19200,"station_id":"ce4bhpp2rcd13ifvqhfg","pricing_plan_id":"cebpf4jnsgd1na2vs0mg"},{"bike_id":"fa16bbec-3211-49bd-a8b0-90a3ace4afe6","system_id":"levelo_inurba_marseille","lat":43.31605,"lon":5.38516,"is_reserved":false,"is_disabled":false,"rental_uris":{"android":"levelo://app?vid=fa16bbec-3211-49bd-a8b0-90a3ace4afe6","ios":"levelo://app?vid=fa16bbec-3211-49bd-a8b0-90a3ace4afe6"},"vehicle_type_id":"4","last_reported":1751278335,"current_range_meters":19600,"station_id":"","pricing_plan_id":"cebpf4jnsgd1na2vs0mg"},{"bike_id":"a510f940-1a2c-4e95-879a-eae62453950b","system_id":"levelo_inurba_marseille","lat":43.29785,"lon":5.38119,"is_reserved":false,"is_disabled":false,"rental_uris":{"android":"levelo://app?vid=a510f940-1a2c-4e95-879a-eae62453950b","ios":"levelo://app?vid=a510f940-1a2c-4e95-879a-eae62453950b"},"vehicle_type_id":"4","last_reported":1751278335,"current_range_meters":19600,"station_id":"ce4bgip2rcd13ifvqbb0","pricing_plan_id":"cebpf4jnsgd1na2vs0mg"},{"bike_id":"bcc7a965-6238-4ac1-857f-945f01d77ce6","system_id":"levelo_inurba_marseille","lat":43.28415,"lon":5.34998,"is_reserved":false,"is_disabled":false,"rental_uris":{"android":"levelo://app?vid=bcc7a965-6238-4ac1-857f-945f01d77ce6","ios":"levelo://app?vid=bcc7a965-6238-4ac1-857f-945f01d77ce6"},"vehicle_type_id":"4","last_reported":1751278335,"current_range_meters":19600,"station_id":"ce4bhbh2rcd13ifvqepg","pricing_plan_id":"cebpf4jnsgd1na2vs0mg"},{"bike_id":"0a24663d-7c62-458e-8d52-c21c6564ba2b","system_id":"levelo_inurba_marseille","lat":43.292193,"lon":5.360593,"is_reserved":false,"is_disabled":false,"rental_uris":{"android":"levelo://app?vid=0a24663d-7c62-458e-8d52-c21c6564ba2b","ios":"levelo://app?vid=0a24663d-7c62-458e-8d52-c21c6564ba2b"},"vehicle_type_id":"4","last_reported":1751278335,"current_range_meters":19600,"station_id":"ce4bhbh2rcd13ifvqeqg","pricing_plan_id":"cebpf4jnsgd1na2vs0mg"},{"bike_id":"ea40031a-1dd9-4c64-a6f8-b7eca4034072","system_id":"levelo_inurba_marseille","lat":43.25572,"lon":5.38233,"is_reserved":false,"is_disabled":false,"rental_uris":{"android":"levelo://app?vid=ea40031a-1dd9-4c64-a6f8-b7eca4034072","ios":"levelo://app?vid=ea40031a-1dd9-4c64-a6f8-b7eca4034072"},"vehicle_type_id":"4","last_reported":1751278335,"current_range_meters":19600,"station_id":"ce4bhih2rcd13ifvqfs0","pricing_plan_id":"cebpf4jnsgd1na2vs0mg"},{"bike_id":"fb51f881-f33f-4e2d-8477-3806506721b2","system_id":"levelo_inurba_marseille","lat":43.29852,"lon":5.36282,"is_reserved":false,"is_disabled":false,"rental_uris":{"android":"levelo://app?vid=fb51f881-f33f-4e2d-8477-3806506721b2","ios":"levelo://app?vid=fb51f881-f33f-4e2d-8477-3806506721b2"},"vehicle_type_id":"4","last_reported":1751278335,"current_range_meters":20000,"station_id":"ce4bgpp2rcd13ifvqc3g","pricing_plan_id":"cebpf4jnsgd1na2vs0mg"},{"bike_id":"cea7a743-2314-44cc-bbeb-56b65e3acc7a","system_id":"levelo_inurba_marseille","lat":43.30873,"lon":5.37192,"is_reserved":false,"is_disabled":false,"rental_uris":{"android":"levelo://app?vid=cea7a743-2314-44cc-bbeb-56b65e3acc7a","ios":"levelo://app?vid=cea7a743-2314-44cc-bbeb-56b65e3acc7a"},"vehicle_type_id":"4","last_reported":1751278335,"current_range_meters":20000,"station_id":"ce4bguh2rcd13ifvqckg","pricing_plan_id":"cebpf4jnsgd1na2vs0mg"},{"bike_id":"a44d0a10-d8b4-4551-b7c5-df5b77ccc24c","system_id":"levelo_inurba_marseille","lat":43.29027,"lon":5.38151,"is_reserved":false,"is_disabled":false,"rental_uris":{"android":"levelo://app?vid=a44d0a10-d8b4-4551-b7c5-df5b77ccc24c","ios":"levelo://app?vid=a44d0a10-d8b4-4551-b7c5-df5b77ccc24c"},"vehicle_type_id":"4","last_reported":1751278335,"current_range_meters":20000,"station_id":"ce4bh4p2rcd13ifvqe1g","pricing_plan_id":"cebpf4jnsgd1na2vs0mg"},{"bike_id":"7cb57169-1768-435f-99f3-d89595bf0a7a","system_id":"levelo_inurba_marseille","lat":43.289976,"lon":5.355836,"is_reserved":false,"is_disabled":false,"rental_uris":{"android":"levelo://app?vid=7cb57169-1768-435f-99f3-d89595bf0a7a","ios":"levelo://app?vid=7cb57169-1768-435f-99f3-d89595bf0a7a"},"vehicle_type_id":"4","last_reported":1751278335,"current_range_meters":20000,"station_id":"ce4bhb92rcd13ifvqen0","pricing_plan_id":"cebpf4jnsgd1na2vs0mg"},{"bike_id":"6e588efc-a5fa-43d5-ae0d-510d646e930d","system_id":"levelo_inurba_marseille","lat":43.25727,"lon":5.411087,"is_reserved":false,"is_disabled":false,"rental_uris":{"android":"levelo://app?vid=6e588efc-a5fa-43d5-ae0d-510d646e930d","ios":"levelo://app?vid=6e588efc-a5fa-43d5-ae0d-510d646e930d"},"vehicle_type_id":"4","last_reported":1751278335,"current_range_meters":20000,"station_id":"ce4bhkp2rcd13ifvqgd0","pricing_plan_id":"cebpf4jnsgd1na2vs0mg"},{"bike_id":"62356331-a304-4ae1-ae69-10136cbd3f1d","system_id":"levelo_inurba_marseille","lat":43.32109,"lon":5.367621,"is_reserved":false,"is_disabled":false,"rental_uris":{"android":"levelo://app?vid=62356331-a304-4ae1-ae69-10136cbd3f1d","ios":"levelo://app?vid=62356331-a304-4ae1-ae69-10136cbd3f1d"},"vehicle_type_id":"4","last_reported":1751278335,"current_range_meters":20000,"station_id":"ce4bhrh2rcd13ifvqhug","pricing_plan_id":"cebpf4jnsgd1na2vs0mg"},{"bike_id":"518354b5-8405-430c-bbfc-0e30bc76b92d","system_id":"levelo_inurba_marseille","lat":43.21765,"lon":5.34611,"is_reserved":false,"is_disabled":false,"rental_uris":{"android":"levelo://app?vid=518354b5-8405-430c-bbfc-0e30bc76b92d","ios":"levelo://app?vid=518354b5-8405-430c-bbfc-0e30bc76b92d"},"vehicle_type_id":"4","last_reported":1751278335,"current_range_meters":20400,"station_id":"","pricing_plan_id":"cebpf4jnsgd1na2vs0mg"},{"bike_id":"d5cf9c5b-33c1-4c1e-a41a-1e6033e8a01c","system_id":"levelo_inurba_marseille","lat":43.29609,"lon":5.37732,"is_reserved":false,"is_disabled":false,"rental_uris":{"android":"levelo://app?vid=d5cf9c5b-33c1-4c1e-a41a-1e6033e8a01c","ios":"levelo://app?vid=d5cf9c5b-33c1-4c1e-a41a-1e6033e8a01c"},"vehicle_type_id":"4","last_reported":1751278335,"current_range_meters":20400,"station_id":"ce4bgi92rcd13ifvqb90","pricing_plan_id":"cebpf4jnsgd1na2vs0mg"},{"bike_id":"47fad22f-3512-40bb-b82f-d850fd96900a","system_id":"levelo_inurba_marseille","lat":43.29621,"lon":5.37164,"is_reserved":false,"is_disabled":false,"rental_uris":{"android":"levelo://app?vid=47fad22f-3512-40bb-b82f-d850fd96900a","ios":"levelo://app?vid=47fad22f-3512-40bb-b82f-d850fd96900a"},"vehicle_type_id":"4","last_reported":1751278335,"current_range_meters":20400,"station_id":"ce4bgnh2rcd13ifvqc0g","pricing_plan_id":"cebpf4jnsgd1na2vs0mg"},{"bike_id":"940c8448-39b7-4d8b-b4cc-9918765a5bbc","system_id":"levelo_inurba_marseille","lat":43.21175,"lon":5.35084,"is_reserved":false,"is_disabled":false,"rental_uris":{"android":"levelo://app?vid=940c8448-39b7-4d8b-b4cc-9918765a5bbc","ios":"levelo://app?vid=940c8448-39b7-4d8b-b4cc-9918765a5bbc"},"vehicle_type_id":"4","last_reported":1751278335,"current_range_meters":20400,"station_id":"st_cvj6sg6p6f1abm77japg","pricing_plan_id":"cebpf4jnsgd1na2vs0mg"},{"bike_id":"86fa6ce7-8cbe-47ff-b5d3-c2b4938fd05c","system_id":"levelo_inurba_marseille","lat":43.212,"lon":5.35082,"is_reserved":false,"is_disabled":false,"rental_uris":{"android":"levelo://app?vid=86fa6ce7-8cbe-47ff-b5d3-c2b4938fd05c","ios":"levelo://app?vid=86fa6ce7-8cbe-47ff-b5d3-c2b4938fd05c"},"vehicle_type_id":"4","last_reported":1751278335,"current_range_meters":20400,"station_id":"st_cvj6sg6p6f1abm77japg","pricing_plan_id":"cebpf4jnsgd1na2vs0mg"},{"bike_id":"5767b9e4-81ec-40bf-bccc-db289ba35b4e","system_id":"levelo_inurba_marseille","lat":43.27381,"lon":5.41274,"is_reserved":false,"is_disabled":false,"rental_uris":{"android":"levelo://app?vid=5767b9e4-81ec-40bf-bccc-db289ba35b4e","ios":"levelo://app?vid=5767b9e4-81ec-40bf-bccc-db289ba35b4e"},"vehicle_type_id":"4","last_reported":1751278335,"current_range_meters":20800,"station_id":"","pricing_plan_id":"cebpf4jnsgd1na2vs0mg"},{"bike_id":"2ab6c2c8-16b7-45c1-83b8-180c92e8ca44","system_id":"levelo_inurba_marseille","lat":43.29566,"lon":5.37502,"is_reserved":false,"is_disabled":false,"rental_uris":{"android":"levelo://app?vid=2ab6c2c8-16b7-45c1-83b8-180c92e8ca44","ios":"levelo://app?vid=2ab6c2c8-16b7-45c1-83b8-180c92e8ca44"},"vehicle_type_id":"4","last_reported":1751278335,"current_range_meters":20800,"station_id":"ce4bgh92rcd13ifvqb50","pricing_plan_id":"cebpf4jnsgd1na2vs0mg"},{"bike_id":"8e45ad08-692b-4479-8c3f-177543cd6927","system_id":"levelo_inurba_marseille","lat":43.31251,"lon":5.36885,"is_reserved":false,"is_disabled":false,"rental_uris":{"android":"levelo://app?vid=8e45ad08-692b-4479-8c3f-177543cd6927","ios":"levelo://app?vid=8e45ad08-692b-4479-8c3f-177543cd6927"},"vehicle_type_id":"4","last_reported":1751278335,"current_range_meters":20800,"station_id":"ce4bgl92rcd13ifvqbq0","pricing_plan_id":"cebpf4jnsgd1na2vs0mg"},{"bike_id":"ec61a8f8-6a66-4981-a14e-2c19c7c5e43d","system_id":"levelo_inurba_marseille","lat":43.29614,"lon":5.37175,"is_reserved":false,"is_disabled":false,"rental_uris":{"android":"levelo://app?vid=ec61a8f8-6a66-4981-a14e-2c19c7c5e43d","ios":"levelo://app?vid=ec61a8f8-6a66-4981-a14e-2c19c7c5e43d"},"vehicle_type_id":"4","last_reported":1751278335,"current_range_meters":20800,"station_id":"ce4bgnh2rcd13ifvqc0g","pricing_plan_id":"cebpf4jnsgd1na2vs0mg"},{"bike_id":"8ee95c9b-b858-4ed2-ae47-8e4448d5bea2","system_id":"levelo_inurba_marseille","lat":43.30145,"lon":5.37403,"is_reserved":false,"is_disabled":false,"rental_uris":{"android":"levelo://app?vid=8ee95c9b-b858-4ed2-ae47-8e4448d5bea2","ios":"levelo://app?vid=8ee95c9b-b858-4ed2-ae47-8e4448d5bea2"},"vehicle_type_id":"4","last_reported":1751278335,"current_range_meters":20800,"station_id":"ce4bgs92rcd13ifvqcc0","pricing_plan_id":"cebpf4jnsgd1na2vs0mg"},{"bike_id":"569afbd4-da57-4911-aecb-840950c33922","system_id":"levelo_inurba_marseille","lat":43.212178,"lon":5.350663,"is_reserved":false,"is_disabled":false,"rental_uris":{"android":"levelo://app?vid=569afbd4-da57-4911-aecb-840950c33922","ios":"levelo://app?vid=569afbd4-da57-4911-aecb-840950c33922"},"vehicle_type_id":"4","last_reported":1751278335,"current_range_meters":20800,"station_id":"st_cvj6sg6p6f1abm77japg","pricing_plan_id":"cebpf4jnsgd1na2vs0mg"},{"bike_id":"3a33ebd2-49a2-4e39-92d7-f09d7dd08672","system_id":"levelo_inurba_marseille","lat":43.2121,"lon":5.3515,"is_reserved":false,"is_disabled":false,"rental_uris":{"android":"levelo://app?vid=3a33ebd2-49a2-4e39-92d7-f09d7dd08672","ios":"levelo://app?vid=3a33ebd2-49a2-4e39-92d7-f09d7dd08672"},"vehicle_type_id":"4","last_reported":1751278335,"current_range_meters":21600,"station_id":"","pricing_plan_id":"cebpf4jnsgd1na2vs0mg"},{"bike_id":"4c366f8f-92b7-4545-9a9b-5eeaf246c704","system_id":"levelo_inurba_marseille","lat":43.301838,"lon":5.366049,"is_reserved":false,"is_disabled":false,"rental_uris":{"android":"levelo://app?vid=4c366f8f-92b7-4545-9a9b-5eeaf246c704","ios":"levelo://app?vid=4c366f8f-92b7-4545-9a9b-5eeaf246c704"},"vehicle_type_id":"4","last_reported":1751278335,"current_range_meters":21600,"station_id":"","pricing_plan_id":"cebpf4jnsgd1na2vs0mg"},{"bike_id":"ab083bd5-431b-4d99-bc75-8f58eb824ad5","system_id":"levelo_inurba_marseille","lat":43.29293,"lon":5.37621,"is_reserved":false,"is_disabled":false,"rental_uris":{"android":"levelo://app?vid=ab083bd5-431b-4d99-bc75-8f58eb824ad5","ios":"levelo://app?vid=ab083bd5-431b-4d99-bc75-8f58eb824ad5"},"vehicle_type_id":"4","last_reported":1751278335,"current_range_meters":21600,"station_id":"ce4bgi12rcd13ifvqb80","pricing_plan_id":"cebpf4jnsgd1na2vs0mg"},{"bike_id":"73b1e654-e1f0-4167-b689-3b9c6dcaa624","system_id":"levelo_inurba_marseille","lat":43.304497,"lon":5.388969,"is_reserved":false,"is_disabled":false,"rental_uris":{"android":"levelo://app?vid=73b1e654-e1f0-4167-b689-3b9c6dcaa624","ios":"levelo://app?vid=73b1e654-e1f0-4167-b689-3b9c6dcaa624"},"vehicle_type_id":"4","last_reported":1751278335,"current_range_meters":21600,"station_id":"ce4bgk12rcd13ifvqbi0","pricing_plan_id":"cebpf4jnsgd1na2vs0mg"},{"bike_id":"c79aee59-a207-4ec4-bf9a-291a761e11b6","system_id":"levelo_inurba_marseille","lat":43.29204,"lon":5.36058,"is_reserved":false,"is_disabled":false,"rental_uris":{"android":"levelo://app?vid=c79aee59-a207-4ec4-bf9a-291a761e11b6","ios":"levelo://app?vid=c79aee59-a207-4ec4-bf9a-291a761e11b6"},"vehicle_type_id":"4","last_reported":1751278335,"current_range_meters":21600,"station_id":"ce4bhbh2rcd13ifvqeqg","pricing_plan_id":"cebpf4jnsgd1na2vs0mg"},{"bike_id":"51603226-2a56-4623-a67f-4c89e01eb464","system_id":"levelo_inurba_marseille","lat":43.26229,"lon":5.40449,"is_reserved":false,"is_disabled":false,"rental_uris":{"android":"levelo://app?vid=51603226-2a56-4623-a67f-4c89e01eb464","ios":"levelo://app?vid=51603226-2a56-4623-a67f-4c89e01eb464"},"vehicle_type_id":"4","last_reported":1751278335,"current_range_meters":21600,"station_id":"ce4bhmh2rcd13ifvqgmg","pricing_plan_id":"cebpf4jnsgd1na2vs0mg"},{"bike_id":"d7be687e-7019-487a-9f66-32f8d8d50a4a","system_id":"levelo_inurba_marseille","lat":43.23151,"lon":5.4371,"is_reserved":false,"is_disabled":false,"rental_uris":{"android":"levelo://app?vid=d7be687e-7019-487a-9f66-32f8d8d50a4a","ios":"levelo://app?vid=d7be687e-7019-487a-9f66-32f8d8d50a4a"},"vehicle_type_id":"4","last_reported":1751278335,"current_range_meters":21600,"station_id":"ce4bhmp2rcd13ifvqgog","pricing_plan_id":"cebpf4jnsgd1na2vs0mg"},{"bike_id":"d2f72e45-6b0c-4b36-9924-deef3cd98510","system_id":"levelo_inurba_marseille","lat":43.274959,"lon":5.424584,"is_reserved":false,"is_disabled":false,"rental_uris":{"android":"levelo://app?vid=d2f72e45-6b0c-4b36-9924-deef3cd98510","ios":"levelo://app?vid=d2f72e45-6b0c-4b36-9924-deef3cd98510"},"vehicle_type_id":"4","last_reported":1751278335,"current_range_meters":21600,"station_id":"ce4bhn92rcd13ifvqgrg","pricing_plan_id":"cebpf4jnsgd1na2vs0mg"},{"bike_id":"d2019eb4-f450-4e51-abec-b5191e2306d5","system_id":"levelo_inurba_marseille","lat":43.299051,"lon":5.436648,"is_reserved":false,"is_disabled":false,"rental_uris":{"android":"levelo://app?vid=d2019eb4-f450-4e51-abec-b5191e2306d5","ios":"levelo://app?vid=d2019eb4-f450-4e51-abec-b5191e2306d5"},"vehicle_type_id":"4","last_reported":1751278335,"current_range_meters":21600,"station_id":"ce4bhpp2rcd13ifvqhfg","pricing_plan_id":"cebpf4jnsgd1na2vs0mg"},{"bike_id":"d11fe4c9-c130-42ee-bb73-8c70d6efcfc0","system_id":"levelo_inurba_marseille","lat":43.28985,"lon":5.36658,"is_reserved":false,"is_disabled":false,"rental_uris":{"android":"levelo://app?vid=d11fe4c9-c130-42ee-bb73-8c70d6efcfc0","ios":"levelo://app?vid=d11fe4c9-c130-42ee-bb73-8c70d6efcfc0"},"vehicle_type_id":"4","last_reported":1751278335,"current_range_meters":22000,"station_id":"","pricing_plan_id":"cebpf4jnsgd1na2vs0mg"},{"bike_id":"babc3553-2d8e-4f58-bef7-e724dccf6e23","system_id":"levelo_inurba_marseille","lat":43.27608,"lon":5.36123,"is_reserved":false,"is_disabled":false,"rental_uris":{"android":"levelo://app?vid=babc3553-2d8e-4f58-bef7-e724dccf6e23","ios":"levelo://app?vid=babc3553-2d8e-4f58-bef7-e724dccf6e23"},"vehicle_type_id":"4","last_reported":1751278335,"current_range_meters":22000,"station_id":"ce4bgj92rcd13ifvqbe0","pricing_plan_id":"cebpf4jnsgd1na2vs0mg"},{"bike_id":"3cc78f9c-82e0-4494-a4f5-e0818813f5e1","system_id":"levelo_inurba_marseille","lat":43.29528,"lon":5.37496,"is_reserved":false,"is_disabled":false,"rental_uris":{"android":"levelo://app?vid=3cc78f9c-82e0-4494-a4f5-e0818813f5e1","ios":"levelo://app?vid=3cc78f9c-82e0-4494-a4f5-e0818813f5e1"},"vehicle_type_id":"4","last_reported":1751278335,"current_range_meters":22000,"station_id":"ce4bgkp2rcd13ifvqbmg","pricing_plan_id":"cebpf4jnsgd1na2vs0mg"},{"bike_id":"25c08c4a-66e9-415e-a99b-0f78f316af23","system_id":"levelo_inurba_marseille","lat":43.29854,"lon":5.36297,"is_reserved":false,"is_disabled":false,"rental_uris":{"android":"levelo://app?vid=25c08c4a-66e9-415e-a99b-0f78f316af23","ios":"levelo://app?vid=25c08c4a-66e9-415e-a99b-0f78f316af23"},"vehicle_type_id":"4","last_reported":1751278335,"current_range_meters":22000,"station_id":"ce4bgpp2rcd13ifvqc3g","pricing_plan_id":"cebpf4jnsgd1na2vs0mg"},{"bike_id":"13ba6e31-23f4-450f-acee-e8180caca6bd","system_id":"levelo_inurba_marseille","lat":43.26208,"lon":5.37935,"is_reserved":false,"is_disabled":false,"rental_uris":{"android":"levelo://app?vid=13ba6e31-23f4-450f-acee-e8180caca6bd","ios":"levelo://app?vid=13ba6e31-23f4-450f-acee-e8180caca6bd"},"vehicle_type_id":"4","last_reported":1751278335,"current_range_meters":22000,"station_id":"ce4bhjp2rcd13ifvqg90","pricing_plan_id":"cebpf4jnsgd1na2vs0mg"},{"bike_id":"bab056a0-4524-4405-9ae3-f7154f535829","system_id":"levelo_inurba_marseille","lat":43.32368,"lon":5.38889,"is_reserved":false,"is_disabled":false,"rental_uris":{"android":"levelo://app?vid=bab056a0-4524-4405-9ae3-f7154f535829","ios":"levelo://app?vid=bab056a0-4524-4405-9ae3-f7154f535829"},"vehicle_type_id":"4","last_reported":1751278335,"current_range_meters":22000,"station_id":"ce4bhqp2rcd13ifvqhog","pricing_plan_id":"cebpf4jnsgd1na2vs0mg"},{"bike_id":"e0c4211a-662e-4f11-90b6-981ca029649d","system_id":"levelo_inurba_marseille","lat":43.22488,"lon":5.34793,"is_reserved":false,"is_disabled":false,"rental_uris":{"android":"levelo://app?vid=e0c4211a-662e-4f11-90b6-981ca029649d","ios":"levelo://app?vid=e0c4211a-662e-4f11-90b6-981ca029649d"},"vehicle_type_id":"4","last_reported":1751278335,"current_range_meters":22000,"station_id":"st_cvj5dfep6f1abm77gieg","pricing_plan_id":"cebpf4jnsgd1na2vs0mg"},{"bike_id":"eabf4870-ef66-4dd9-8c29-4cbc2737e74f","system_id":"levelo_inurba_marseille","lat":43.30549,"lon":5.36696,"is_reserved":false,"is_disabled":false,"rental_uris":{"android":"levelo://app?vid=eabf4870-ef66-4dd9-8c29-4cbc2737e74f","ios":"levelo://app?vid=eabf4870-ef66-4dd9-8c29-4cbc2737e74f"},"vehicle_type_id":"4","last_reported":1751278335,"current_range_meters":22400,"station_id":"ce4bgrp2rcd13ifvqc9g","pricing_plan_id":"cebpf4jnsgd1na2vs0mg"},{"bike_id":"0f01fb63-914e-4728-bd9f-69c044a83bda","system_id":"levelo_inurba_marseille","lat":43.32489,"lon":5.3659,"is_reserved":false,"is_disabled":false,"rental_uris":{"android":"levelo://app?vid=0f01fb63-914e-4728-bd9f-69c044a83bda","ios":"levelo://app?vid=0f01fb63-914e-4728-bd9f-69c044a83bda"},"vehicle_type_id":"4","last_reported":1751278335,"current_range_meters":22400,"station_id":"ce4bhs12rcd13ifvqhvg","pricing_plan_id":"cebpf4jnsgd1na2vs0mg"},{"bike_id":"31bce7d9-7ec4-4814-9e02-55a076f138c2","system_id":"levelo_inurba_marseille","lat":43.31398,"lon":5.36697,"is_reserved":false,"is_disabled":false,"rental_uris":{"android":"levelo://app?vid=31bce7d9-7ec4-4814-9e02-55a076f138c2","ios":"levelo://app?vid=31bce7d9-7ec4-4814-9e02-55a076f138c2"},"vehicle_type_id":"4","last_reported":1751278335,"current_range_meters":22800,"station_id":"","pricing_plan_id":"cebpf4jnsgd1na2vs0mg"},{"bike_id":"934beea3-881e-4441-a5ff-95e7b68ba97b","system_id":"levelo_inurba_marseille","lat":43.34537,"lon":5.35941,"is_reserved":false,"is_disabled":false,"rental_uris":{"android":"levelo://app?vid=934beea3-881e-4441-a5ff-95e7b68ba97b","ios":"levelo://app?vid=934beea3-881e-4441-a5ff-95e7b68ba97b"},"vehicle_type_id":"4","last_reported":1751278335,"current_range_meters":22800,"station_id":"","pricing_plan_id":"cebpf4jnsgd1na2vs0mg"},{"bike_id":"690bd30c-cc0d-41f9-99a3-b22a3f9ca332","system_id":"levelo_inurba_marseille","lat":43.29301,"lon":5.37445,"is_reserved":false,"is_disabled":false,"rental_uris":{"android":"levelo://app?vid=690bd30c-cc0d-41f9-99a3-b22a3f9ca332","ios":"levelo://app?vid=690bd30c-cc0d-41f9-99a3-b22a3f9ca332"},"vehicle_type_id":"4","last_reported":1751278335,"current_range_meters":22800,"station_id":"ce4bgi12rcd13ifvqb70","pricing_plan_id":"cebpf4jnsgd1na2vs0mg"},