{"last_updated":1725959408,"ttl":30,"version":"2.2","data":{"bikes":[{"bike_id":"e84c34b8-c25d-4504-bec0-d1dd835bcb55","system_id":"levelo_inurba_marseille","lat":43.24077,"lon":5.37751,"is_reserved":false,"is_disabled":false,"rental_uris":{"android":"levelo://app?vid=e84c34b8-c25d-4504-bec0-d1dd835bcb55","ios":"levelo://app?vid=e84c34b8-c25d-4504-bec0-d1dd835bcb55"},"vehicle_type_id":"4","last_reported":1725959408,"current_range_meters":14400,"station_id":"ce4bhnp2rcd13ifvqgvg","pricing_plan_id":"cebpf4jnsgd1na2vs0mg"},{"bike_id":"604d8b6a-2ebc-45a2-a27c-f841a2044bb0","system_id":"levelo_inurba_marseille","lat":43.27969,"lon":5.41868,"is_reserved":false,"is_disabled":false,"rental_uris":{"android":"levelo://app?vid=604d8b6a-2ebc-45a2-a27c-f841a2044bb0","ios":"levelo://app?vid=604d8b6a-2ebc-45a2-a27c-f841a2044bb0"},"vehicle_type_id":"4","last_reported":1725959408,"current_range_meters":8000,"station_id":"","pricing_plan_id":"cebpf4jnsgd1na2vs0mg"},{"bike_id":"893900fa-905b-44d9-b4f5-8131c552abed","system_id":"levelo_inurba_marseille","lat":43.30539,"lon":5.36703,"is_reserved":false,"is_disabled":false,"rental_uris":{"android":"levelo://app?vid=893900fa-905b-44d9-b4f5-8131c552abed","ios":"levelo://app?vid=893900fa-905b-44d9-b4f5-8131c552abed"},"vehicle_type_id":"4","last_reported":1725959408,"current_range_meters":35600,"station_id":"ce4bgrp2rcd13ifvqc9g","pricing_plan_id":"cebpf4jnsgd1na2vs0mg"},{"bike_id":"c56e86f7-c37e-4533-bc33-ef95d22fc376","system_id":"levelo_inurba_marseille","lat":43.33628,"lon":5.41015,"is_reserved":false,"is_disabled":false,"rental_uris":{"android":"levelo://app?vid=c56e86f7-c37e-4533-bc33-ef95d22fc376","ios":"levelo://app?vid=c56e86f7-c37e-4533-bc33-ef95d22fc376"},"vehicle_type_id":"4","last_reported":1725959408,"current_range_meters":32800,"station_id":"ce4bhqh2rcd13ifvqhmg","pricing_plan_id":"cebpf4jnsgd1na2vs0mg"},{"bike_id":"317167fb-451a-48ab-aff6-0945e2c67bfb","system_id":"levelo_inurba_marseille","lat":43.23204,"lon":5.39968,"is_reserved":false,"is_disabled":false,"rental_uris":{"android":"levelo://app?vid=317167fb-451a-48ab-aff6-0945e2c67bfb","ios":"levelo://app?vid=317167fb-451a-48ab-aff6-0945e2c67bfb"},"vehicle_type_id":"4","last_reported":1725959408,"current_range_meters":20800,"station_id":"ce4bhn12rcd13ifvqgqg","pricing_plan_id":"cebpf4jnsgd1na2vs0mg"},{"bike_id":"bc30dbe3-2402-4b3a-b5da-8f5d9a126da2","system_id":"levelo_inurba_marseille","lat":43.25913,"lon":5.40883,"is_reserved":false,"is_disabled":false,"rental_uris":{"android":"levelo://app?vid=bc30dbe3-2402-4b3a-b5da-8f5d9a126da2","ios":"levelo://app?vid=bc30dbe3-2402-4b3a-b5da-8f5d9a126da2"},"vehicle_type_id":"4","last_reported":1725959408,"current_range_meters":25600,"station_id":"ce4bhm92rcd13ifvqglg","pricing_plan_id":"cebpf4jnsgd1na2vs0mg"},{"bike_id":"9938e91c-265b-40a5-a9ee-a8a818767b92","system_id":"levelo_inurba_marseille","lat":43.24673,"lon":5.38161,"is_reserved":false,"is_disabled":false,"rental_uris":{"android":"levelo://app?vid=9938e91c-265b-40a5-a9ee-a8a818767b92","ios":"levelo://app?vid=9938e91c-265b-40a5-a9ee-a8a818767b92"},"vehicle_type_id":"4","last_reported":1725959408,"current_range_meters":15200,"station_id":"ce4bhih2rcd13ifvqfr0","pricing_plan_id":"cebpf4jnsgd1na2vs0mg"},{"bike_id":"7c3c5b04-6409-4274-8526-a4c0c18af696","system_id":"levelo_inurba_marseille","lat":43.30347,"lon":5.41881,"is_reserved":false,"is_disabled":false,"rental_uris":{"android":"levelo://app?vid=7c3c5b04-6409-4274-8526-a4c0c18af696","ios":"levelo://app?vid=7c3c5b04-6409-4274-8526-a4c0c18af696"},"vehicle_type_id":"4","last_reported":1725959408,"current_range_meters":38000,"station_id":"ce4bhop2rcd13ifvqh7g","pricing_plan_id":"cebpf4jnsgd1na2vs0mg"},{"bike_id":"b02222ec-0387-4ff5-8918-29e62bcf5a98","system_id":"levelo_inurba_marseille","lat":43.32484,"lon":5.36572,"is_reserved":false,"is_disabled":false,"rental_uris":{"android":"levelo://app?vid=b02222ec-0387-4ff5-8918-29e62bcf5a98","ios":"levelo://app?vid=b02222ec-0387-4ff5-8918-29e62bcf5a98"},"vehicle_type_id":"4","last_reported":1725959408,"current_range_meters":21600,"station_id":"ce4bhs12rcd13ifvqhvg","pricing_plan_id":"cebpf4jnsgd1na2vs0mg"},{"bike_id":"25a734f0-5a58-49fa-9e2e-761a6040d468","system_id":"levelo_inurba_marseille","lat":43.23142,"lon":5.43721,"is_reserved":false,"is_disabled":false,"rental_uris":{"android":"levelo://app?vid=25a734f0-5a58-49fa-9e2e-761a6040d468","ios":"levelo://app?vid=25a734f0-5a58-49fa-9e2e-761a6040d468"},"vehicle_type_id":"4","last_reported":1725959408,"current_range_meters":19200,"station_id":"ce4bhmp2rcd13ifvqgog","pricing_plan_id":"cebpf4jnsgd1na2vs0mg"},{"bike_id":"273bfe13-bc71-40ca-9955-e31d49cb88e0","system_id":"levelo_inurba_marseille","lat":43.23956,"lon":5.36626,"is_reserved":false,"is_disabled":false,"rental_uris":{"android":"levelo://app?vid=273bfe13-bc71-40ca-9955-e31d49cb88e0","ios":"levelo://app?vid=273bfe13-bc71-40ca-9955-e31d49cb88e0"},"vehicle_type_id":"4","last_reported":1725959408,"current_range_meters":37600,"station_id":"ce4bhi12rcd13ifvqfp0","pricing_plan_id":"cebpf4jnsgd1na2vs0mg"},{"bike_id":"0d394dd1-1ab2-46d8-9603-47bab0483bce","system_id":"levelo_inurba_marseille","lat":43.30468,"lon":5.37907,"is_reserved":false,"is_disabled":false,"rental_uris":{"android":"levelo://app?vid=0d394dd1-1ab2-46d8-9603-47bab0483bce","ios":"levelo://app?vid=0d394dd1-1ab2-46d8-9603-47bab0483bce"},"vehicle_type_id":"4","last_reported":1725959408,"current_range_meters":24800,"station_id":"ce4bgup2rcd13ifvqcn0","pricing_plan_id":"cebpf4jnsgd1na2vs0mg"},{"bike_id":"f5c9d5a3-bded-4bdf-a211-9658b468f702","system_id":"levelo_inurba_marseille","lat":43.32293,"lon":5.38275,"is_reserved":false,"is_disabled":false,"rental_uris":{"android":"levelo://app?vid=f5c9d5a3-bded-4bdf-a211-9658b468f702","ios":"levelo://app?vid=f5c9d5a3-bded-4bdf-a211-9658b468f702"},"vehicle_type_id":"4","last_reported":1725959408,"current_range_meters":37600,"station_id":"ce4bhr12rcd13ifvqhqg","pricing_plan_id":"cebpf4jnsgd1na2vs0mg"},{"bike_id":"16cd0dcf-4345-473e-bf5c-7be705310706","system_id":"levelo_inurba_marseille","lat":43.27068,"lon":5.42277,"is_reserved":false,"is_disabled":false,"rental_uris":{"android":"levelo://app?vid=16cd0dcf-4345-473e-bf5c-7be705310706","ios":"levelo://app?vid=16cd0dcf-4345-473e-bf5c-7be705310706"},"vehicle_type_id":"4","last_reported":1725959408,"current_range_meters":35600,"station_id":"ce4bhk92rcd13ifvqgb0","pricing_plan_id":"cebpf4jnsgd1na2vs0mg"},{"bike_id":"73a1f507-b56c-43d3-a62b-4708c2b556d0","system_id":"levelo_inurba_marseille","lat":43.3375,"lon":5.3744,"is_reserved":false,"is_disabled":false,"rental_uris":{"android":"levelo://app?vid=73a1f507-b56c-43d3-a62b-4708c2b556d0","ios":"levelo://app?vid=73a1f507-b56c-43d3-a62b-4708c2b556d0"},"vehicle_type_id":"4","last_reported":1725959408,"current_range_meters":38400,"station_id":"","pricing_plan_id":"cebpf4jnsgd1na2vs0mg"},{"bike_id":"6801637f-4d89-4ddd-8617-2ac90e2e0f42","system_id":"levelo_inurba_marseille","lat":43.30946,"lon":5.39042,"is_reserved":false,"is_disabled":false,"rental_uris":{"android":"levelo://app?vid=6801637f-4d89-4ddd-8617-2ac90e2e0f42","ios":"levelo://app?vid=6801637f-4d89-4ddd-8617-2ac90e2e0f42"},"vehicle_type_id":"4","last_reported":1725959408,"current_range_meters":26000,"station_id":"ce4bgup2rcd13ifvqco0","pricing_plan_id":"cebpf4jnsgd1na2vs0mg"},{"bike_id":"2f3dd428-4c1e-4ccd-8d1e-4c978e1aa15d","system_id":"levelo_inurba_marseille","lat":43.30481,"lon":5.37897,"is_reserved":false,"is_disabled":false,"rental_uris":{"android":"levelo://app?vid=2f3dd428-4c1e-4ccd-8d1e-4c978e1aa15d","ios":"levelo://app?vid=2f3dd428-4c1e-4ccd-8d1e-4c978e1aa15d"},"vehicle_type_id":"4","last_reported":1725959408,"current_range_meters":38800,"station_id":"ce4bgup2rcd13ifvqcn0","pricing_plan_id":"cebpf4jnsgd1na2vs0mg"},{"bike_id":"7aafdf0d-15b7-45eb-b5e8-e15768e073f3","system_id":"levelo_inurba_marseille","lat":43.31323,"lon":5.39704,"is_reserved":false,"is_disabled":false,"rental_uris":{"android":"levelo://app?vid=7aafdf0d-15b7-45eb-b5e8-e15768e073f3","ios":"levelo://app?vid=7aafdf0d-15b7-45eb-b5e8-e15768e073f3"},"vehicle_type_id":"4","last_reported":1725959408,"current_range_meters":33600,"station_id":"ce4bgvp2rcd13ifvqcu0","pricing_plan_id":"cebpf4jnsgd1na2vs0mg"},{"bike_id":"ab19811c-a902-4d59-9093-d4cac6bd552d","system_id":"levelo_inurba_marseille","lat":43.308811,"lon":5.396541,"is_reserved":false,"is_disabled":false,"rental_uris":{"android":"levelo://app?vid=ab19811c-a902-4d59-9093-d4cac6bd552d","ios":"levelo://app?vid=ab19811c-a902-4d59-9093-d4cac6bd552d"},"vehicle_type_id":"4","last_reported":1725959408,"current_range_meters":26800,"station_id":"ce4bh012rcd13ifvqcv0","pricing_plan_id":"cebpf4jnsgd1na2vs0mg"},{"bike_id":"48bbfc99-2acd-4816-9e68-fd2cc2ec46a2","system_id":"levelo_inurba_marseille","lat":43.337444,"lon":5.374475,"is_reserved":false,"is_disabled":false,"rental_uris":{"android":"levelo://app?vid=48bbfc99-2acd-4816-9e68-fd2cc2ec46a2","ios":"levelo://app?vid=48bbfc99-2acd-4816-9e68-fd2cc2ec46a2"},"vehicle_type_id":"4","last_reported":1725959408,"current_range_meters":34800,"station_id":"","pricing_plan_id":"cebpf4jnsgd1na2vs0mg"},{"bike_id":"488cdd4b-b5b7-406b-afc8-e750963c9892","system_id":"levelo_inurba_marseille","lat":43.24802,"lon":5.37452,"is_reserved":false,"is_disabled":false,"rental_uris":{"android":"levelo://app?vid=488cdd4b-b5b7-406b-afc8-e750963c9892","ios":"levelo://app?vid=488cdd4b-b5b7-406b-afc8-e750963c9892"},"vehicle_type_id":"4","last_reported":1725959408,"current_range_meters":37600,"station_id":"ce4bhgh2rcd13ifvqfb0","pricing_plan_id":"cebpf4jnsgd1na2vs0mg"},{"bike_id":"173a22a6-c6b3-4156-ad2b-4962f41c7342","system_id":"levelo_inurba_marseille","lat":43.30537,"lon":5.36692,"is_reserved":false,"is_disabled":false,"rental_uris":{"android":"levelo://app?vid=173a22a6-c6b3-4156-ad2b-4962f41c7342","ios":"levelo://app?vid=173a22a6-c6b3-4156-ad2b-4962f41c7342"},"vehicle_type_id":"4","last_reported":1725959408,"current_range_meters":34000,"station_id":"ce4bgrp2rcd13ifvqc9g","pricing_plan_id":"cebpf4jnsgd1na2vs0mg"},{"bike_id":"1cd075a7-8b54-4a11-8fd4-1fd1b21bf55b","system_id":"levelo_inurba_marseille","lat":43.29033,"lon":5.39966,"is_reserved":false,"is_disabled":false,"rental_uris":{"android":"levelo://app?vid=1cd075a7-8b54-4a11-8fd4-1fd1b21bf55b","ios":"levelo://app?vid=1cd075a7-8b54-4a11-8fd4-1fd1b21bf55b"},"vehicle_type_id":"4","last_reported":1725959408,"current_range_meters":32000,"station_id":"ce4bh392rcd13ifvqdm0","pricing_plan_id":"cebpf4jnsgd1na2vs0mg"},{"bike_id":"ecd093b0-cb09-4215-84fd-f371c4afad1f","system_id":"levelo_inurba_marseille","lat":43.30911,"lon":5.36852,"is_reserved":false,"is_disabled":false,"rental_uris":{"android":"levelo://app?vid=ecd093b0-cb09-4215-84fd-f371c4afad1f","ios":"levelo://app?vid=ecd093b0-cb09-4215-84fd-f371c4afad1f"},"vehicle_type_id":"4","last_reported":1725959408,"current_range_meters":39200,"station_id":"ce4bgn92rcd13ifvqbvg","pricing_plan_id":"cebpf4jnsgd1na2vs0mg"},{"bike_id":"c0ae8078-ec95-44f4-b808-6b23ce2dd2c0","system_id":"levelo_inurba_marseille","lat":43.28707,"lon":5.37952,"is_reserved":false,"is_disabled":false,"rental_uris":{"android":"levelo://app?vid=c0ae8078-ec95-44f4-b808-6b23ce2dd2c0","ios":"levelo://app?vid=c0ae8078-ec95-44f4-b808-6b23ce2dd2c0"},"vehicle_type_id":"4","last_reported":1725959408,"current_range_meters":38800,"station_id":"ce4bh9p2rcd13ifvqec0","pricing_plan_id":"cebpf4jnsgd1na2vs0mg"},{"bike_id":"f69b6f85-21a7-416b-af9c-ae290f09174d","system_id":"levelo_inurba_marseille","lat":43.32477,"lon":5.36581,"is_reserved":false,"is_disabled":false,"rental_uris":{"android":"levelo://app?vid=f69b6f85-21a7-416b-af9c-ae290f09174d","ios":"levelo://app?vid=f69b6f85-21a7-416b-af9c-ae290f09174d"},"vehicle_type_id":"4","last_reported":1725959408,"current_range_meters":36000,"station_id":"ce4bhs12rcd13ifvqhvg","pricing_plan_id":"cebpf4jnsgd1na2vs0mg"},{"bike_id":"6587e7f2-971a-4dbe-a4c3-0fbcda6754d1","system_id":"levelo_inurba_marseille","lat":43.23152,"lon":5.4371,"is_reserved":false,"is_disabled":false,"rental_uris":{"android":"levelo://app?vid=6587e7f2-971a-4dbe-a4c3-0fbcda6754d1","ios":"levelo://app?vid=6587e7f2-971a-4dbe-a4c3-0fbcda6754d1"},"vehicle_type_id":"4","last_reported":1725959408,"current_range_meters":17600,"station_id":"ce4bhmp2rcd13ifvqgog","pricing_plan_id":"cebpf4jnsgd1na2vs0mg"},{"bike_id":"e2dbcbfc-fc2f-4194-855d-a61126008ef4","system_id":"levelo_inurba_marseille","lat":43.31367,"lon":5.3669,"is_reserved":false,"is_disabled":false,"rental_uris":{"android":"levelo://app?vid=e2dbcbfc-fc2f-4194-855d-a61126008ef4","ios":"levelo://app?vid=e2dbcbfc-fc2f-4194-855d-a61126008ef4"},"vehicle_type_id":"4","last_reported":1725959408,"current_range_meters":18800,"station_id":"ce4bgr92rcd13ifvqc6g","pricing_plan_id":"cebpf4jnsgd1na2vs0mg"},{"bike_id":"46b6ace0-dac8-4fc2-a1a1-53ffd370f033","system_id":"levelo_inurba_marseille","lat":43.337444,"lon":5.374475,"is_reserved":false,"is_disabled":false,"rental_uris":{"android":"levelo://app?vid=46b6ace0-dac8-4fc2-a1a1-53ffd370f033","ios":"levelo://app?vid=46b6ace0-dac8-4fc2-a1a1-53ffd370f033"},"vehicle_type_id":"4","last_reported":1725959408,"current_range_meters":32000,"station_id":"","pricing_plan_id":"cebpf4jnsgd1na2vs0mg"},{"bike_id":"db3d15af-0384-40b1-a28a-1444d2048de6","system_id":"levelo_inurba_marseille","lat":43.28719,"lon":5.37928,"is_reserved":false,"is_disabled":false,"rental_uris":{"android":"levelo://app?vid=db3d15af-0384-40b1-a28a-1444d2048de6","ios":"levelo://app?vid=db3d15af-0384-40b1-a28a-1444d2048de6"},"vehicle_type_id":"4","last_reported":1725959408,"current_range_meters":3600,"station_id":"ce4bh9p2rcd13ifvqec0","pricing_plan_id":"cebpf4jnsgd1na2vs0mg"},{"bike_id":"d950c646-5983-4791-9f62-2ca13d3636ab","system_id":"levelo_inurba_marseille","lat":43.31221,"lon":5.36846,"is_reserved":false,"is_disabled":false,"rental_uris":{"android":"levelo://app?vid=d950c646-5983-4791-9f62-2ca13d3636ab","ios":"levelo://app?vid=d950c646-5983-4791-9f62-2ca13d3636ab"},"vehicle_type_id":"4","last_reported":1725959408,"current_range_meters":38400,"station_id":"ce4bgl92rcd13ifvqbq0","pricing_plan_id":"cebpf4jnsgd1na2vs0mg"},{"bike_id":"875ea4f5-d8a6-4d32-9e99-ec60f0eb2a55","system_id":"levelo_inurba_marseille","lat":43.24076,"lon":5.37755,"is_reserved":false,"is_disabled":false,"rental_uris":{"android":"levelo://app?vid=875ea4f5-d8a6-4d32-9e99-ec60f0eb2a55","ios":"levelo://app?vid=875ea4f5-d8a6-4d32-9e99-ec60f0eb2a55"},"vehicle_type_id":"4","last_reported":1725959408,"current_range_meters":35200,"station_id":"ce4bhnp2rcd13ifvqgvg","pricing_plan_id":"cebpf4jnsgd1na2vs0mg"},{"bike_id":"12872647-4372-4cf2-9fc5-598f616cb55c","system_id":"levelo_inurba_marseille","lat":43.24075,"lon":5.37742,"is_reserved":false,"is_disabled":false,"rental_uris":{"android":"levelo://app?vid=12872647-4372-4cf2-9fc5-598f616cb55c","ios":"levelo://app?vid=12872647-4372-4cf2-9fc5-598f616cb55c"},"vehicle_type_id":"4","last_reported":1725959408,"current_range_meters":23200,"station_id":"ce4bhnp2rcd13ifvqgvg","pricing_plan_id":"cebpf4jnsgd1na2vs0mg"},{"bike_id":"554ffcf8-37af-46dc-8cd5-b86128edbe5e","system_id":"levelo_inurba_marseille","lat":43.26952,"lon":5.38637,"is_reserved":false,"is_disabled":false,"rental_uris":{"android":"levelo://app?vid=554ffcf8-37af-46dc-8cd5-b86128edbe5e","ios":"levelo://app?vid=554ffcf8-37af-46dc-8cd5-b86128edbe5e"},"vehicle_type_id":"4","last_reported":1725959408,"current_range_meters":10000,"station_id":"ce4bhh92rcd13ifvqfh0","pricing_plan_id":"cebpf4jnsgd1na2vs0mg"},{"bike_id":"d0a22151-5873-4516-ad59-35801290152e","system_id":"levelo_inurba_marseille","lat":43.23193,"lon":5.35548,"is_reserved":false,"is_disabled":false,"rental_uris":{"android":"levelo://app?vid=d0a22151-5873-4516-ad59-35801290152e","ios":"levelo://app?vid=d0a22151-5873-4516-ad59-35801290152e"},"vehicle_type_id":"4","last_reported":1725959408,"current_range_meters":10000,"station_id":"ce4bhu92rcd13ifvqi70","pricing_plan_id":"cebpf4jnsgd1na2vs0mg"},{"bike_id":"68f8b6e1-4d03-45ce-841c-3f3408c75648","system_id":"levelo_inurba_marseille","lat":43.3253,"lon":5.41445,"is_reserved":false,"is_disabled":false,"rental_uris":{"android":"levelo://app?vid=68f8b6e1-4d03-45ce-841c-3f3408c75648","ios":"levelo://app?vid=68f8b6e1-4d03-45ce-841c-3f3408c75648"},"vehicle_type_id":"4","last_reported":1725959408,"current_range_meters":15200,"station_id":"ce4bhq12rcd13ifvqhhg","pricing_plan_id":"cebpf4jnsgd1na2vs0mg"},{"bike_id":"d6d4d939-d8ed-40f8-a0bb-0fa56c3d8c4d","system_id":"levelo_inurba_marseille","lat":43.28474,"lon":5.35889,"is_reserved":false,"is_disabled":false,"rental_uris":{"android":"levelo://app?vid=d6d4d939-d8ed-40f8-a0bb-0fa56c3d8c4d","ios":"levelo://app?vid=d6d4d939-d8ed-40f8-a0bb-0fa56c3d8c4d"},"vehicle_type_id":"4","last_reported":1725959408,"current_range_meters":5600,"station_id":"ce4bhah2rcd13ifvqei0","pricing_plan_id":"cebpf4jnsgd1na2vs0mg"},{"bike_id":"00b29d2b-8603-4598-bb82-f78900b5570b","system_id":"levelo_inurba_marseille","lat":43.32538,"lon":5.4144,"is_reserved":false,"is_disabled":false,"rental_uris":{"android":"levelo://app?vid=00b29d2b-8603-4598-bb82-f78900b5570b","ios":"levelo://app?vid=00b29d2b-8603-4598-bb82-f78900b5570b"},"vehicle_type_id":"4","last_reported":1725959408,"current_range_meters":34800,"station_id":"ce4bhq12rcd13ifvqhhg","pricing_plan_id":"cebpf4jnsgd1na2vs0mg"},{"bike_id":"54766c83-3847-4512-9aa1-d2aa1b6bbb09","system_id":"levelo_inurba_marseille","lat":43.29029,"lon":5.37568,"is_reserved":false,"is_disabled":false,"rental_uris":{"android":"levelo://app?vid=54766c83-3847-4512-9aa1-d2aa1b6bbb09","ios":"levelo://app?vid=54766c83-3847-4512-9aa1-d2aa1b6bbb09"},"vehicle_type_id":"4","last_reported":1725959408,"current_range_meters":9600,"station_id":"ce4bh692rcd13ifvqe90","pricing_plan_id":"cebpf4jnsgd1na2vs0mg"},{"bike_id":"8225cb3c-7d1a-4716-af96-9335688d3d6d","system_id":"levelo_inurba_marseille","lat":43.29432,"lon":5.3976,"is_reserved":false,"is_disabled":false,"rental_uris":{"android":"levelo://app?vid=8225cb3c-7d1a-4716-af96-9335688d3d6d","ios":"levelo://app?vid=8225cb3c-7d1a-4716-af96-9335688d3d6d"},"vehicle_type_id":"4","last_reported":1725959408,"current_range_meters":9600,"station_id":"ce4bh3h2rcd13ifvqdo0","pricing_plan_id":"cebpf4jnsgd1na2vs0mg"},{"bike_id":"c0e7bdd9-5691-4993-b39b-42947171e063","system_id":"levelo_inurba_marseille","lat":43.23152,"lon":5.43703,"is_reserved":false,"is_disabled":false,"rental_uris":{"android":"levelo://app?vid=c0e7bdd9-5691-4993-b39b-42947171e063","ios":"levelo://app?vid=c0e7bdd9-5691-4993-b39b-42947171e063"},"vehicle_type_id":"4","last_reported":1725959408,"current_range_meters":23200,"station_id":"ce4bhmp2rcd13ifvqgog","pricing_plan_id":"cebpf4jnsgd1na2vs0mg"},{"bike_id":"7d7795fe-4341-42f0-9b6d-6e8baae444d9","system_id":"levelo_inurba_marseille","lat":43.24802,"lon":5.37449,"is_reserved":false,"is_disabled":false,"rental_uris":{"android":"levelo://app?vid=7d7795fe-4341-42f0-9b6d-6e8baae444d9","ios":"levelo://app?vid=7d7795fe-4341-42f0-9b6d-6e8baae444d9"},"vehicle_type_id":"4","last_reported":1725959408,"current_range_meters":30400,"station_id":"ce4bhgh2rcd13ifvqfb0","pricing_plan_id":"cebpf4jnsgd1na2vs0mg"},{"bike_id":"fcd0ef70-61af-449e-91a4-721e992f5485","system_id":"levelo_inurba_marseille","lat":43.2396,"lon":5.36638,"is_reserved":false,"is_disabled":false,"rental_uris":{"android":"levelo://app?vid=fcd0ef70-61af-449e-91a4-721e992f5485","ios":"levelo://app?vid=fcd0ef70-61af-449e-91a4-721e992f5485"},"vehicle_type_id":"4","last_reported":1725959408,"current_range_meters":28400,"station_id":"ce4bhi12rcd13ifvqfp0","pricing_plan_id":"cebpf4jnsgd1na2vs0mg"},{"bike_id":"a4d5373b-202a-41bc-a6de-150b9afc8bf5","system_id":"levelo_inurba_marseille","lat":43.28609,"lon":5.35105,"is_reserved":false,"is_disabled":false,"rental_uris":{"android":"levelo://app?vid=a4d5373b-202a-41bc-a6de-150b9afc8bf5","ios":"levelo://app?vid=a4d5373b-202a-41bc-a6de-150b9afc8bf5"},"vehicle_type_id":"4","last_reported":1725959408,"current_range_meters":37600,"station_id":"ce4bhch2rcd13ifvqeug","pricing_plan_id":"cebpf4jnsgd1na2vs0mg"},{"bike_id":"e09ff19f-fcc5-4058-bfe8-52e28f73cad5","system_id":"levelo_inurba_marseille","lat":43.31358,"lon":5.36731,"is_reserved":false,"is_disabled":false,"rental_uris":{"android":"levelo://app?vid=e09ff19f-fcc5-4058-bfe8-52e28f73cad5","ios":"levelo://app?vid=e09ff19f-fcc5-4058-bfe8-52e28f73cad5"},"vehicle_type_id":"4","last_reported":1725959408,"current_range_meters":22000,"station_id":"ce4bgr92rcd13ifvqc6g","pricing_plan_id":"cebpf4jnsgd1na2vs0mg"},{"bike_id":"c379a911-ce29-4e70-83a3-e7a9d2fe4120","system_id":"levelo_inurba_marseille","lat":43.26949,"lon":5.38629,"is_reserved":false,"is_disabled":false,"rental_uris":{"android":"levelo://app?vid=c379a911-ce29-4e70-83a3-e7a9d2fe4120","ios":"levelo://app?vid=c379a911-ce29-4e70-83a3-e7a9d2fe4120"},"vehicle_type_id":"4","last_reported":1725959408,"current_range_meters":38800,"station_id":"ce4bhh92rcd13ifvqfh0","pricing_plan_id":"cebpf4jnsgd1na2vs0mg"},{"bike_id":"a2ec860b-3cd0-4b74-b808-c9e72af2fa58","system_id":"levelo_inurba_marseille","lat":43.26953,"lon":5.3865,"is_reserved":false,"is_disabled":false,"rental_uris":{"android":"levelo://app?vid=a2ec860b-3cd0-4b74-b808-c9e72af2fa58","ios":"levelo://app?vid=a2ec860b-3cd0-4b74-b808-c9e72af2fa58"},"vehicle_type_id":"4","last_reported":1725959408,"current_range_meters":33600,"station_id":"ce4bhh92rcd13ifvqfh0","pricing_plan_id":"cebpf4jnsgd1na2vs0mg"},{"bike_id":"d0107236-82cf-4c5b-9115-8e3d984682df","system_id":"levelo_inurba_marseille","lat":43.25937,"lon":5.40904,"is_reserved":false,"is_disabled":false,"rental_uris":{"android":"levelo://app?vid=d0107236-82cf-4c5b-9115-8e3d984682df","ios":"levelo://app?vid=d0107236-82cf-4c5b-9115-8e3d984682df"},"vehicle_type_id":"4","last_reported":1725959408,"current_range_meters":22000,"station_id":"ce4bhm92rcd13ifvqglg","pricing_plan_id":"cebpf4jnsgd1na2vs0mg"},{"bike_id":"641a6f9a-c272-44cf-92d6-cbef97fa1631","system_id":"levelo_inurba_marseille","lat":43.26554,"lon":5.39015,"is_reserved":false,"is_disabled":false,"rental_uris":{"android":"levelo://app?vid=641a6f9a-c272-44cf-92d6-cbef97fa1631","ios":"levelo://app?vid=641a6f9a-c272-44cf-92d6-cbef97fa1631"},"vehicle_type_id":"4","last_reported":1725959408,"current_range_meters":19600,"station_id":"ce4bhe12rcd13ifvqf30","pricing_plan_id":"cebpf4jnsgd1na2vs0mg"},{"bike_id":"a50ca0cf-c0bd-4752-90d3-9be155298325","system_id":"levelo_inurba_marseille","lat":43.24078,"lon":5.37756,"is_reserved":false,"is_disabled":false,"rental_uris":{"android":"levelo://app?vid=a50ca0cf-c0bd-4752-90d3-9be155298325","ios":"levelo://app?vid=a50ca0cf-c0bd-4752-90d3-9be155298325"},"vehicle_type_id":"4","last_reported":1725959408,"current_range_meters":24400,"station_id":"ce4bhnp2rcd13ifvqgvg","pricing_plan_id":"cebpf4jnsgd1na2vs0mg"},{"bike_id":"4d25a0df-6656-47a3-90a8-04cfc5ac24db","system_id":"levelo_inurba_marseille","lat":43.29413,"lon":5.38622,"is_reserved":false,"is_disabled":false,"rental_uris":{"android":"levelo://app?vid=4d25a0df-6656-47a3-90a8-04cfc5ac24db","ios":"levelo://app?vid=4d25a0df-6656-47a3-90a8-04cfc5ac24db"},"vehicle_type_id":"4","last_reported":1725959408,"current_range_meters":24800,"station_id":"ce4bh2h2rcd13ifvqdh0","pricing_plan_id":"cebpf4jnsgd1na2vs0mg"},{"bike_id":"90c7fb9d-c48f-4d20-af50-573c6b0c1ef2","system_id":"levelo_inurba_marseille","lat":43.32542,"lon":5.41437,"is_reserved":false,"is_disabled":false,"rental_uris":{"android":"levelo://app?vid=90c7fb9d-c48f-4d20-af50-573c6b0c1ef2","ios":"levelo://app?vid=90c7fb9d-c48f-4d20-af50-573c6b0c1ef2"},"vehicle_type_id":"4","last_reported":1725959408,"current_range_meters":25600,"station_id":"ce4bhq12rcd13ifvqhhg","pricing_plan_id":"cebpf4jnsgd1na2vs0mg"},{"bike_id":"369f6a06-56d4-4875-958d-358bfb7efee6","system_id":"levelo_inurba_marseille","lat":43.25496,"lon":5.37652,"is_reserved":false,"is_disabled":false,"rental_uris":{"android":"levelo://app?vid=369f6a06-56d4-4875-958d-358bfb7efee6","ios":"levelo://app?vid=369f6a06-56d4-4875-958d-358bfb7efee6"},"vehicle_type_id":"4","last_reported":1725959408,"current_range_meters":27600,"station_id":"ce4bhh12rcd13ifvqff0","pricing_plan_id":"cebpf4jnsgd1na2vs0mg"},{"bike_id":"0d04b9ac-0f32-4541-b0f7-1c55af22b0e4","system_id":"levelo_inurba_marseille","lat":43.2594,"lon":5.40897,"is_reserved":false,"is_disabled":false,"rental_uris":{"android":"levelo://app?vid=0d04b9ac-0f32-4541-b0f7-1c55af22b0e4","ios":"levelo://app?vid=0d04b9ac-0f32-4541-b0f7-1c55af22b0e4"},"vehicle_type_id":"4","last_reported":1725959408,"current_range_meters":25200,"station_id":"ce4bhm92rcd13ifvqglg","pricing_plan_id":"cebpf4jnsgd1na2vs0mg"},{"bike_id":"d927a538-f208-40d7-af9c-a94b875396ee","system_id":"levelo_inurba_marseille","lat":43.2861,"lon":5.37071,"is_reserved":false,"is_disabled":false,"rental_uris":{"android":"levelo://app?vid=d927a538-f208-40d7-af9c-a94b875396ee","ios":"levelo://app?vid=d927a538-f208-40d7-af9c-a94b875396ee"},"vehicle_type_id":"4","last_reported":1725959408,"current_range_meters":25600,"station_id":"ce4bht12rcd13ifvqi60","pricing_plan_id":"cebpf4jnsgd1na2vs0mg"},{"bike_id":"64f25725-e05b-4f29-8181-60e04b4ee309","system_id":"levelo_inurba_marseille","lat":43.24394,"lon":5.37059,"is_reserved":false,"is_disabled":false,"rental_uris":{"android":"levelo://app?vid=64f25725-e05b-4f29-8181-60e04b4ee309","ios":"levelo://app?vid=64f25725-e05b-4f29-8181-60e04b4ee309"},"vehicle_type_id":"4","last_reported":1725959408,"current_range_meters":6800,"station_id":"ce4bhhh2rcd13ifvqfk0","pricing_plan_id":"cebpf4jnsgd1na2vs0mg"},{"bike_id":"03750b00-9c9d-4e79-ad45-589bcc218443","system_id":"levelo_inurba_marseille","lat":43.25,"lon":5.38931,"is_reserved":false,"is_disabled":false,"rental_uris":{"android":"levelo://app?vid=03750b00-9c9d-4e79-ad45-589bcc218443","ios":"levelo://app?vid=03750b00-9c9d-4e79-ad45-589bcc218443"},"vehicle_type_id":"4","last_reported":1725959408,"current_range_meters":38800,"station_id":"ce4bhgp2rcd13ifvqfd0","pricing_plan_id":"cebpf4jnsgd1na2vs0mg"},{"bike_id":"09d15703-fd8c-4ed1-8730-025698de9a93","system_id":"levelo_inurba_marseille","lat":43.30271,"lon":5.37705,"is_reserved":false,"is_disabled":false,"rental_uris":{"android":"levelo://app?vid=09d15703-fd8c-4ed1-8730-025698de9a93","ios":"levelo://app?vid=09d15703-fd8c-4ed1-8730-025698de9a93"},"vehicle_type_id":"4","last_reported":1725959408,"current_range_meters":24400,"station_id":"ce4bguh2rcd13ifvqcj0","pricing_plan_id":"cebpf4jnsgd1na2vs0mg"},{"bike_id":"ba71fde6-330c-4694-b58a-6b28fa15c9ce","system_id":"levelo_inurba_marseille","lat":43.30452,"lon":5.37898,"is_reserved":false,"is_disabled":false,"rental_uris":{"android":"levelo://app?vid=ba71fde6-330c-4694-b58a-6b28fa15c9ce","ios":"levelo://app?vid=ba71fde6-330c-4694-b58a-6b28fa15c9ce"},"vehicle_type_id":"4","last_reported":1725959408,"current_range_meters":39200,"station_id":"ce4bgup2rcd13ifvqcn0","pricing_plan_id":"cebpf4jnsgd1na2vs0mg"},{"bike_id":"68c0b3ab-1eca-4638-890a-fe270b6fc20b","system_id":"levelo_inurba_marseille","lat":43.337444,"lon":5.374475,"is_reserved":false,"is_disabled":false,"rental_uris":{"android":"levelo://app?vid=68c0b3ab-1eca-4638-890a-fe270b6fc20b","ios":"levelo://app?vid=68c0b3ab-1eca-4638-890a-fe270b6fc20b"},"vehicle_type_id":"4","last_reported":1725959408,"current_range_meters":38000,"station_id":"","pricing_plan_id":"cebpf4jnsgd1na2vs0mg"},{"bike_id":"e0731622-94a1-43e6-ab86-d933c45e9d15","system_id":"levelo_inurba_marseille","lat":43.24078,"lon":5.37761,"is_reserved":false,"is_disabled":false,"rental_uris":{"android":"levelo://app?vid=e0731622-94a1-43e6-ab86-d933c45e9d15","ios":"levelo://app?vid=e0731622-94a1-43e6-ab86-d933c45e9d15"},"vehicle_type_id":"4","last_reported":1725959408,"current_range_meters":4800,"station_id":"ce4bhnp2rcd13ifvqgvg","pricing_plan_id":"cebpf4jnsgd1na2vs0mg"},{"bike_id":"9395e962-76ca-4e02-9084-a21e990a1068","system_id":"levelo_inurba_marseille","lat":43.26562,"lon":5.39014,"is_reserved":false,"is_disabled":false,"rental_uris":{"android":"levelo://app?vid=9395e962-76ca-4e02-9084-a21e990a1068","ios":"levelo://app?vid=9395e962-76ca-4e02-9084-a21e990a1068"},"vehicle_type_id":"4","last_reported":1725959408,"current_range_meters":31200,"station_id":"ce4bhe12rcd13ifvqf30","pricing_plan_id":"cebpf4jnsgd1na2vs0mg"},{"bike_id":"08e5430f-3e19-44d0-b6e4-8ec0f213bf4d","system_id":"levelo_inurba_marseille","lat":43.30793,"lon":5.38151,"is_reserved":false,"is_disabled":false,"rental_uris":{"android":"levelo://app?vid=08e5430f-3e19-44d0-b6e4-8ec0f213bf4d","ios":"levelo://app?vid=08e5430f-3e19-44d0-b6e4-8ec0f213bf4d"},"vehicle_type_id":"4","last_reported":1725959408,"current_range_meters":34000,"station_id":"ce4bgt12rcd13ifvqce0","pricing_plan_id":"cebpf4jnsgd1na2vs0mg"},{"bike_id":"a2e8960d-0be4-498e-a78c-8356043e9ec4","system_id":"levelo_inurba_marseille","lat":43.30274,"lon":5.37699,"is_reserved":false,"is_disabled":false,"rental_uris":{"android":"levelo://app?vid=a2e8960d-0be4-498e-a78c-8356043e9ec4","ios":"levelo://app?vid=a2e8960d-0be4-498e-a78c-8356043e9ec4"},"vehicle_type_id":"4","last_reported":1725959408,"current_range_meters":39200,"station_id":"ce4bguh2rcd13ifvqcj0","pricing_plan_id":"cebpf4jnsgd1na2vs0mg"},{"bike_id":"3c6c0f4e-a3ab-4518-a08c-6f8d1166e07c","system_id":"levelo_inurba_marseille","lat":43.23154,"lon":5.43708,"is_reserved":false,"is_disabled":false,"rental_uris":{"android":"levelo://app?vid=3c6c0f4e-a3ab-4518-a08c-6f8d1166e07c","ios":"levelo://app?vid=3c6c0f4e-a3ab-4518-a08c-6f8d1166e07c"},"vehicle_type_id":"4","last_reported":1725959408,"current_range_meters":18000,"station_id":"ce4bhmp2rcd13ifvqgog","pricing_plan_id":"cebpf4jnsgd1na2vs0mg"},{"bike_id":"90437a4a-a8ed-419f-b482-00ce1f86e2f2","system_id":"levelo_inurba_marseille","lat":43.30469,"lon":5.37889,"is_reserved":false,"is_disabled":false,"rental_uris":{"android":"levelo://app?vid=90437a4a-a8ed-419f-b482-00ce1f86e2f2","ios":"levelo://app?vid=90437a4a-a8ed-419f-b482-00ce1f86e2f2"},"vehicle_type_id":"4","last_reported":1725959408,"current_range_meters":20800,"station_id":"ce4bgup2rcd13ifvqcn0","pricing_plan_id":"cebpf4jnsgd1na2vs0mg"},{"bike_id":"392bfabb-6239-43cc-935d-dc80e84f23a6","system_id":"levelo_inurba_marseille","lat":43.25718,"lon":5.41119,"is_reserved":false,"is_disabled":false,"rental_uris":{"android":"levelo://app?vid=392bfabb-6239-43cc-935d-dc80e84f23a6","ios":"levelo://app?vid=392bfabb-6239-43cc-935d-dc80e84f23a6"},"vehicle_type_id":"4","last_reported":1725959408,"current_range_meters":22800,"station_id":"ce4bhkp2rcd13ifvqgd0","pricing_plan_id":"cebpf4jnsgd1na2vs0mg"},{"bike_id":"a9e266ed-0782-429f-b1fa-dbdbe29237bf","system_id":"levelo_inurba_marseille","lat":43.25106,"lon":5.40327,"is_reserved":false,"is_disabled":false,"rental_uris":{"android":"levelo://app?vid=a9e266ed-0782-429f-b1fa-dbdbe29237bf","ios":"levelo://app?vid=a9e266ed-0782-429f-b1fa-dbdbe29237bf"},"vehicle_type_id":"4","last_reported":1725959408,"current_range_meters":16800,"station_id":"ce4bhlh2rcd13ifvqgig","pricing_plan_id":"cebpf4jnsgd1na2vs0mg"},{"bike_id":"e37969b2-dcaa-47ef-965f-3f9a73f73dbe","system_id":"levelo_inurba_marseille","lat":43.28564,"lon":5.39496,"is_reserved":false,"is_disabled":false,"rental_uris":{"android":"levelo://app?vid=e37969b2-dcaa-47ef-965f-3f9a73f73dbe","ios":"levelo://app?vid=e37969b2-dcaa-47ef-965f-3f9a73f73dbe"},"vehicle_type_id":"4","last_reported":1725959408,"current_range_meters":34000,"station_id":"ce4bh292rcd13ifvqdg0","pricing_plan_id":"cebpf4jnsgd1na2vs0mg"},{"bike_id":"8d2ae83c-a90c-4d50-8c8e-b137ed16cdf7","system_id":"levelo_inurba_marseille","lat":43.337444,"lon":5.374475,"is_reserved":false,"is_disabled":false,"rental_uris":{"android":"levelo://app?vid=8d2ae83c-a90c-4d50-8c8e-b137ed16cdf7","ios":"levelo://app?vid=8d2ae83c-a90c-4d50-8c8e-b137ed16cdf7"},"vehicle_type_id":"4","last_reported":1725959408,"current_range_meters":34800,"station_id":"","pricing_plan_id":"cebpf4jnsgd1na2vs0mg"},{"bike_id":"b108262c-7c7d-4d80-aa40-0711ab55944d","system_id":"levelo_inurba_marseille","lat":43.27906,"lon":5.38018,"is_reserved":false,"is_disabled":false,"rental_uris":{"android":"levelo://app?vid=b108262c-7c7d-4d80-aa40-0711ab55944d","ios":"levelo://app?vid=b108262c-7c7d-4d80-aa40-0711ab55944d"},"vehicle_type_id":"4","last_reported":1725959408,"current_range_meters":2800,"station_id":"ce4bhf92rcd13ifvqf50","pricing_plan_id":"cebpf4jnsgd1na2vs0mg"},{"bike_id":"7931cda6-a2f4-4ffc-bbcd-6d51b5729dec","system_id":"levelo_inurba_marseille","lat":43.33727,"lon":5.39178,"is_reserved":false,"is_disabled":false,"rental_uris":{"android":"levelo://app?vid=7931cda6-a2f4-4ffc-bbcd-6d51b5729dec","ios":"levelo://app?vid=7931cda6-a2f4-4ffc-bbcd-6d51b5729dec"},"vehicle_type_id":"4","last_reported":1725959408,"current_range_meters":38800,"station_id":"ce4bhr92rcd13ifvqhsg","pricing_plan_id":"cebpf4jnsgd1na2vs0mg"},{"bike_id":"99ff5113-63b8-4286-bc76-22496d34f647","system_id":"levelo_inurba_marseille","lat":43.23194,"lon":5.35559,"is_reserved":false,"is_disabled":false,"rental_uris":{"android":"levelo://app?vid=99ff5113-63b8-4286-bc76-22496d34f647","ios":"levelo://app?vid=99ff5113-63b8-4286-bc76-22496d34f647"},"vehicle_type_id":"4","last_reported":1725959408,"current_range_meters":5600,"station_id":"ce4bhu92rcd13ifvqi70","pricing_plan_id":"cebpf4jnsgd1na2vs0mg"},{"bike_id":"b2271fdc-77ec-463d-81cd-45840003e14b","system_id":"levelo_inurba_marseille","lat":43.337444,"lon":5.374475,"is_reserved":false,"is_disabled":false,"rental_uris":{"android":"levelo://app?vid=b2271fdc-77ec-463d-81cd-45840003e14b","ios":"levelo://app?vid=b2271fdc-77ec-463d-81cd-45840003e14b"},"vehicle_type_id":"4","last_reported":1725959408,"current_range_meters":38400,"station_id":"","pricing_plan_id":"cebpf4jnsgd1na2vs0mg"},{"bike_id":"564d59a7-37f7-4749-9d7c-782d2d7ae974","system_id":"levelo_inurba_marseille","lat":43.3254,"lon":5.41442,"is_reserved":false,"is_disabled":false,"rental_uris":{"android":"levelo://app?vid=564d59a7-37f7-4749-9d7c-782d2d7ae974","ios":"levelo://app?vid=564d59a7-37f7-4749-9d7c-782d2d7ae974"},"vehicle_type_id":"4","last_reported":1725959408,"current_range_meters":6000,"station_id":"ce4bhq12rcd13ifvqhhg","pricing_plan_id":"cebpf4jnsgd1na2vs0mg"},{"bike_id":"9542ed03-90de-4c1d-95bc-e3de3b5e4905","system_id":"levelo_inurba_marseille","lat":43.28613,"lon":5.35099,"is_reserved":false,"is_disabled":false,"rental_uris":{"android":"levelo://app?vid=9542ed03-90de-4c1d-95bc-e3de3b5e4905","ios":"levelo://app?vid=9542ed03-90de-4c1d-95bc-e3de3b5e4905"},"vehicle_type_id":"4","last_reported":1725959408,"current_range_meters":32000,"station_id":"ce4bhch2rcd13ifvqeug","pricing_plan_id":"cebpf4jnsgd1na2vs0mg"},{"bike_id":"a5fba7ca-49a6-49bc-91d4-82b83bdca5c3","system_id":"levelo_inurba_marseille","lat":43.30556,"lon":5.3655,"is_reserved":false,"is_disabled":false,"rental_uris":{"android":"levelo://app?vid=a5fba7ca-49a6-49bc-91d4-82b83bdca5c3","ios":"levelo://app?vid=a5fba7ca-49a6-49bc-91d4-82b83bdca5c3"},"vehicle_type_id":"4","last_reported":1725959408,"current_range_meters":11200,"station_id":"ce4bgs12rcd13ifvqcag","pricing_plan_id":"cebpf4jnsgd1na2vs0mg"},{"bike_id":"ab9b8990-e378-4cf6-9ff1-6f0f22223b29","system_id":"levelo_inurba_marseille","lat":43.23146,"lon":5.43711,"is_reserved":false,"is_disabled":false,"rental_uris":{"android":"levelo://app?vid=ab9b8990-e378-4cf6-9ff1-6f0f22223b29","ios":"levelo://app?vid=ab9b8990-e378-4cf6-9ff1-6f0f22223b29"},"vehicle_type_id":"4","last_reported":1725959408,"current_range_meters":16000,"station_id":"ce4bhmp2rcd13ifvqgog","pricing_plan_id":"cebpf4jnsgd1na2vs0mg"},{"bike_id":"56fe391e-723e-42df-8d0c-af51e6441891","system_id":"levelo_inurba_marseille","lat":43.2306,"lon":5.35481,"is_reserved":false,"is_disabled":false,"rental_uris":{"android":"levelo://app?vid=56fe391e-723e-42df-8d0c-af51e6441891","ios":"levelo://app?vid=56fe391e-723e-42df-8d0c-af51e6441891"},"vehicle_type_id":"4","last_reported":1725959408,"current_range_meters":4000,"station_id":"cpo3342slgdg3j2ifvpg","pricing_plan_id":"cebpf4jnsgd1na2vs0mg"},{"bike_id":"e88197ed-cef7-4441-86a7-84ab731d73ee","system_id":"levelo_inurba_marseille","lat":43.30257,"lon":5.40073,"is_reserved":false,"is_disabled":false,"rental_uris":{"android":"levelo://app?vid=e88197ed-cef7-4441-86a7-84ab731d73ee","ios":"levelo://app?vid=e88197ed-cef7-4441-86a7-84ab731d73ee"},"vehicle_type_id":"4","last_reported":1725959408,"current_range_meters":36000,"station_id":"ce4bgvh2rcd13ifvqcs0","pricing_plan_id":"cebpf4jnsgd1na2vs0mg"},{"bike_id":"52b49fbc-d945-4f7a-af12-e8a97e08a46e","system_id":"levelo_inurba_marseille","lat":43.29003,"lon":5.35609,"is_reserved":false,"is_disabled":false,"rental_uris":{"android":"levelo://app?vid=52b49fbc-d945-4f7a-af12-e8a97e08a46e","ios":"levelo://app?vid=52b49fbc-d945-4f7a-af12-e8a97e08a46e"},"vehicle_type_id":"4","last_reported":1725959408,"current_range_meters":8400,"station_id":"ce4bhb92rcd13ifvqen0","pricing_plan_id":"cebpf4jnsgd1na2vs0mg"},{"bike_id":"c5b54f07-9e8a-4d5d-af65-a461c660ca45","system_id":"levelo_inurba_marseille","lat":43.3228,"lon":5.38258,"is_reserved":false,"is_disabled":false,"rental_uris":{"android":"levelo://app?vid=c5b54f07-9e8a-4d5d-af65-a461c660ca45","ios":"levelo://app?vid=c5b54f07-9e8a-4d5d-af65-a461c660ca45"},"vehicle_type_id":"4","last_reported":1725959408,"current_range_meters":10000,"station_id":"ce4bhr12rcd13ifvqhqg","pricing_plan_id":"cebpf4jnsgd1na2vs0mg"},{"bike_id":"d0952ab0-3044-44df-af2c-2dcfb366a544","system_id":"levelo_inurba_marseille","lat":43.23157,"lon":5.43702,"is_reserved":false,"is_disabled":false,"rental_uris":{"android":"levelo://app?vid=d0952ab0-3044-44df-af2c-2dcfb366a544","ios":"levelo://app?vid=d0952ab0-3044-44df-af2c-2dcfb366a544"},"vehicle_type_id":"4","last_reported":1725959408,"current_range_meters":17200,"station_id":"ce4bhmp2rcd13ifvqgog","pricing_plan_id":"cebpf4jnsgd1na2vs0mg"},{"bike_id":"25f8faea-b05a-448c-a51a-4364016d5e72","system_id":"levelo_inurba_marseille","lat":43.27434,"lon":5.39406,"is_reserved":false,"is_disabled":false,"rental_uris":{"android":"levelo://app?vid=25f8faea-b05a-448c-a51a-4364016d5e72","ios":"levelo://app?vid=25f8faea-b05a-448c-a51a-4364016d5e72"},"vehicle_type_id":"4","last_reported":1725959408,"current_range_meters":17600,"station_id":"ce4bhdp2rcd13ifvqf20","pricing_plan_id":"cebpf4jnsgd1na2vs0mg"},{"bike_id":"b874cd39-3ae9-4272-8c2c-95985a6792ea","system_id":"levelo_inurba_marseille","lat":43.30541,"lon":5.36538,"is_reserved":false,"is_disabled":false,"rental_uris":{"android":"levelo://app?vid=b874cd39-3ae9-4272-8c2c-95985a6792ea","ios":"levelo://app?vid=b874cd39-3ae9-4272-8c2c-95985a6792ea"},"vehicle_type_id":"4","last_reported":1725959408,"current_range_meters":28400,"station_id":"ce4bgs12rcd13ifvqcag","pricing_plan_id":"cebpf4jnsgd1na2vs0mg"},{"bike_id":"0e6d8ac9-eb06-4686-b2a2-953fdab7dd5a","system_id":"levelo_inurba_marseille","lat":43.33607,"lon":5.41025,"is_reserved":false,"is_disabled":false,"rental_uris":{"android":"levelo://app?vid=0e6d8ac9-eb06-4686-b2a2-953fdab7dd5a","ios":"levelo://app?vid=0e6d8ac9-eb06-4686-b2a2-953fdab7dd5a"},"vehicle_type_id":"4","last_reported":1725959408,"current_range_meters":37600,"station_id":"ce4bhqh2rcd13ifvqhmg","pricing_plan_id":"cebpf4jnsgd1na2vs0mg"},{"bike_id":"94776667-da28-4633-adb9-87e58c79c629","system_id":"levelo_inurba_marseille","lat":43.26944,"lon":5.38638,"is_reserved":false,"is_disabled":false,"rental_uris":{"android":"levelo://app?vid=94776667-da28-4633-adb9-87e58c79c629","ios":"levelo://app?vid=94776667-da28-4633-adb9-87e58c79c629"},"vehicle_type_id":"4","last_reported":1725959408,"current_range_meters":9600,"station_id":"ce4bhh92rcd13ifvqfh0","pricing_plan_id":"cebpf4jnsgd1na2vs0mg"},{"bike_id":"f5ab10c4-6d47-48ee-9572-4519f61eb1b5","system_id":"levelo_inurba_marseille","lat":43.25937,"lon":5.40907,"is_reserved":false,"is_disabled":false,"rental_uris":{"android":"levelo://app?vid=f5ab10c4-6d47-48ee-9572-4519f61eb1b5","ios":"levelo://app?vid=f5ab10c4-6d47-48ee-9572-4519f61eb1b5"},"vehicle_type_id":"4","last_reported":1725959408,"current_range_meters":7200,"station_id":"ce4bhm92rcd13ifvqglg","pricing_plan_id":"cebpf4jnsgd1na2vs0mg"},{"bike_id":"9ec6a2be-c877-46d5-b492-7c70ec4b40f3","system_id":"levelo_inurba_marseille","lat":43.31358,"lon":5.36726,"is_reserved":false,"is_disabled":false,"rental_uris":{"android":"levelo://app?vid=9ec6a2be-c877-46d5-b492-7c70ec4b40f3","ios":"levelo://app?vid=9ec6a2be-c877-46d5-b492-7c70ec4b40f3"},"vehicle_type_id":"4","last_reported":1725959408,"current_range_meters":28400,"station_id":"ce4bgr92rcd13ifvqc6g","pricing_plan_id":"cebpf4jnsgd1na2vs0mg"},{"bike_id":"980afb58-a040-4b55-9505-8bab9b3cad7b","system_id":"levelo_inurba_marseille","lat":43.30951,"lon":5.39043,"is_reserved":false,"is_disabled":false,"rental_uris":{"android":"levelo://app?vid=980afb58-a040-4b55-9505-8bab9b3cad7b","ios":"levelo://app?vid=980afb58-a040-4b55-9505-8bab9b3cad7b"},"vehicle_type_id":"4","last_reported":1725959408,"current_range_meters":31200,"station_id":"ce4bgup2rcd13ifvqco0","pricing_plan_id":"cebpf4jnsgd1na2vs0mg"},{"bike_id":"e238eb9a-b5ce-4daa-a070-0709dee78a5d","system_id":"levelo_inurba_marseille","lat":43.23151,"lon":5.43713,"is_reserved":false,"is_disabled":false,"rental_uris":{"android":"levelo://app?vid=e238eb9a-b5ce-4daa-a070-0709dee78a5d","ios":"levelo://app?vid=e238eb9a-b5ce-4daa-a070-0709dee78a5d"},"vehicle_type_id":"4","last_reported":1725959408,"current_range_meters":19600,"station_id":"ce4bhmp2rcd13ifvqgog","pricing_plan_id":"cebpf4jnsgd1na2vs0mg"},{"bike_id":"3a9f2183-4c2d-40bd-8177-6c729387fd9f","system_id":"levelo_inurba_marseille","lat":43.2992,"lon":5.37473,"is_reserved":false,"is_disabled":false,"rental_uris":{"android":"levelo://app?vid=3a9f2183-4c2d-40bd-8177-6c729387fd9f","ios":"levelo://app?vid=3a9f2183-4c2d-40bd-8177-6c729387fd9f"},"vehicle_type_id":"4","last_reported":1725959408,"current_range_meters":2800,"station_id":"ce4bgjh2rcd13ifvqbg0","pricing_plan_id":"cebpf4jnsgd1na2vs0mg"},{"bike_id":"9c1c2862-72f5-485b-8155-229a5d029ce6","system_id":"levelo_inurba_marseille","lat":43.26942,"lon":5.3864,"is_reserved":false,"is_disabled":false,"rental_uris":{"android":"levelo://app?vid=9c1c2862-72f5-485b-8155-229a5d029ce6","ios":"levelo://app?vid=9c1c2862-72f5-485b-8155-229a5d029ce6"},"vehicle_type_id":"4","last_reported":1725959408,"current_range_meters":30000,"station_id":"ce4bhh92rcd13ifvqfh0","pricing_plan_id":"cebpf4jnsgd1na2vs0mg"},{"bike_id":"a06240a2-2162-4d42-bc0f-9a76740c8ac5","system_id":"levelo_inurba_marseille","lat":43.2904,"lon":5.39949,"is_reserved":false,"is_disabled":false,"rental_uris":{"android":"levelo://app?vid=a06240a2-2162-4d42-bc0f-9a76740c8ac5","ios":"levelo://app?vid=a06240a2-2162-4d42-bc0f-9a76740c8ac5"},"vehicle_type_id":"4","last_reported":1725959408,"current_range_meters":12400,"station_id":"ce4bh392rcd13ifvqdm0","pricing_plan_id":"cebpf4jnsgd1na2vs0mg"},{"bike_id":"ca932e2d-e371-4f17-b3f0-369b6de92a82","system_id":"levelo_inurba_marseille","lat":43.26556,"lon":5.37289,"is_reserved":false,"is_disabled":false,"rental_uris":{"android":"levelo://app?vid=ca932e2d-e371-4f17-b3f0-369b6de92a82","ios":"levelo://app?vid=ca932e2d-e371-4f17-b3f0-369b6de92a82"},"vehicle_type_id":"4","last_reported":1725959408,"current_range_meters":18000,"station_id":"ce4bhg12rcd13ifvqf70","pricing_plan_id":"cebpf4jnsgd1na2vs0mg"},{"bike_id":"df10b944-e5a5-4da4-b121-513a52757ff8","system_id":"levelo_inurba_marseille","lat":43.31757,"lon":5.39014,"is_reserved":false,"is_disabled":false,"rental_uris":{"android":"levelo://app?vid=df10b944-e5a5-4da4-b121-513a52757ff8","ios":"levelo://app?vid=df10b944-e5a5-4da4-b121-513a52757ff8"},"vehicle_type_id":"4","last_reported":1725959408,"current_range_meters":18800,"station_id":"ce4bhqp2rcd13ifvqhng","pricing_plan_id":"cebpf4jnsgd1na2vs0mg"},{"bike_id":"35a92e2d-d77b-400b-aeba-f522bf358e49","system_id":"levelo_inurba_marseille","lat":43.31869,"lon":5.37384,"is_reserved":false,"is_disabled":false,"rental_uris":{"android":"levelo://app?vid=35a92e2d-d77b-400b-aeba-f522bf358e49","ios":"levelo://app?vid=35a92e2d-d77b-400b-aeba-f522bf358e49"},"vehicle_type_id":"4","last_reported":1725959408,"current_range_meters":16800,"station_id":"ce4bgup2rcd13ifvqco0","pricing_plan_id":"cebpf4jnsgd1na2vs0mg"},{"bike_id":"080c7b59-af9b-4684-a1b3-a8785e08146e","system_id":"levelo_inurba_marseille","lat":43.3229,"lon":5.38257,"is_reserved":false,"is_disabled":false,"rental_uris":{"android":"levelo://app?vid=080c7b59-af9b-4684-a1b3-a8785e08146e","ios":"levelo://app?vid=080c7b59-af9b-4684-a1b3-a8785e08146e"},"vehicle_type_id":"4","last_reported":1725959408,"current_range_meters":37600,"station_id":"ce4bhr12rcd13ifvqhqg","pricing_plan_id":"cebpf4jnsgd1na2vs0mg"},{"bike_id":"74e8506f-52d8-48d1-b2f5-3ab864ffd9ce","system_id":"levelo_inurba_marseille","lat":43.30094,"lon":5.39077,"is_reserved":false,"is_disabled":false,"rental_uris":{"android":"levelo://app?vid=74e8506f-52d8-48d1-b2f5-3ab864ffd9ce","ios":"levelo://app?vid=74e8506f-52d8-48d1-b2f5-3ab864ffd9ce"},"vehicle_type_id":"4","last_reported":1725959408,"current_range_meters":16400,"station_id":"ce4bh192rcd13ifvqdb0","pricing_plan_id":"cebpf4jnsgd1na2vs0mg"},{"bike_id":"689af299-077a-4b96-aadf-024a1a87228a","system_id":"levelo_inurba_marseille","lat":43.27496,"lon":5.42448,"is_reserved":false,"is_disabled":false,"rental_uris":{"android":"levelo://app?vid=689af299-077a-4b96-aadf-024a1a87228a","ios":"levelo://app?vid=689af299-077a-4b96-aadf-024a1a87228a"},"vehicle_type_id":"4","last_reported":1725959408,"current_range_meters":24000,"station_id":"ce4bhn92rcd13ifvqgrg","pricing_plan_id":"cebpf4jnsgd1na2vs0mg"},{"bike_id":"cfc6650a-34d8-4613-835d-150880fbaae0","system_id":"levelo_inurba_marseille","lat":43.23152,"lon":5.43722,"is_reserved":false,"is_disabled":false,"rental_uris":{"android":"levelo://app?vid=cfc6650a-34d8-4613-835d-150880fbaae0","ios":"levelo://app?vid=cfc6650a-34d8-4613-835d-150880fbaae0"},"vehicle_type_id":"4","last_reported":1725959408,"current_range_meters":15200,"station_id":"ce4bhmp2rcd13ifvqgog","pricing_plan_id":"cebpf4jnsgd1na2vs0mg"},{"bike_id":"78778da8-03c2-4260-b5d2-a398d9400b64","system_id":"levelo_inurba_marseille","lat":43.23144,"lon":5.43722,"is_reserved":false,"is_disabled":false,"rental_uris":{"android":"levelo://app?vid=78778da8-03c2-4260-b5d2-a398d9400b64","ios":"levelo://app?vid=78778da8-03c2-4260-b5d2-a398d9400b64"},"vehicle_type_id":"4","last_reported":1725959408,"current_range_meters":36000,"station_id":"ce4bhmp2rcd13ifvqgog","pricing_plan_id":"cebpf4jnsgd1na2vs0mg"},{"bike_id":"e5fe99c7-2f72-45a0-8b40-7f01a1d3bae7","system_id":"levelo_inurba_marseille","lat":43.33606,"lon":5.41032,"is_reserved":false,"is_disabled":false,"rental_uris":{"android":"levelo://app?vid=e5fe99c7-2f72-45a0-8b40-7f01a1d3bae7","ios":"levelo://app?vid=e5fe99c7-2f72-45a0-8b40-7f01a1d3bae7"},"vehicle_type_id":"4","last_reported":1725959408,"current_range_meters":3600,"station_id":"ce4bhqh2rcd13ifvqhmg","pricing_plan_id":"cebpf4jnsgd1na2vs0mg"},{"bike_id":"5704885e-1618-4594-8cff-7f027c04c4a2","system_id":"levelo_inurba_marseille","lat":43.25942,"lon":5.40903,"is_reserved":false,"is_disabled":false,"rental_uris":{"android":"levelo://app?vid=5704885e-1618-4594-8cff-7f027c04c4a2","ios":"levelo://app?vid=5704885e-1618-4594-8cff-7f027c04c4a2"},"vehicle_type_id":"4","last_reported":1725959408,"current_range_meters":17200,"station_id":"ce4bhm92rcd13ifvqglg","pricing_plan_id":"cebpf4jnsgd1na2vs0mg"},{"bike_id":"02e9227e-4d15-45e3-b464-2b03b597a05f","system_id":"levelo_inurba_marseille","lat":43.30547,"lon":5.36705,"is_reserved":false,"is_disabled":false,"rental_uris":{"android":"levelo://app?vid=02e9227e-4d15-45e3-b464-2b03b597a05f","ios":"levelo://app?vid=02e9227e-4d15-45e3-b464-2b03b597a05f"},"vehicle_type_id":"4","last_reported":1725959408,"current_range_meters":38400,"station_id":"ce4bgrp2rcd13ifvqc9g","pricing_plan_id":"cebpf4jnsgd1na2vs0mg"},{"bike_id":"1d583431-4535-43ff-9cfe-97c3afe38e61","system_id":"levelo_inurba_marseille","lat":43.30956,"lon":5.40057,"is_reserved":false,"is_disabled":false,"rental_uris":{"android":"levelo://app?vid=1d583431-4535-43ff-9cfe-97c3afe38e61","ios":"levelo://app?vid=1d583431-4535-43ff-9cfe-97c3afe38e61"},"vehicle_type_id":"4","last_reported":1725959408,"current_range_meters":14000,"station_id":"ce4bhpp2rcd13ifvqhgg","pricing_plan_id":"cebpf4jnsgd1na2vs0mg"},{"bike_id":"5d411a94-71dc-41e3-ae74-13086227871e","system_id":"levelo_inurba_marseille","lat":43.27491,"lon":5.42447,"is_reserved":false,"is_disabled":false,"rental_uris":{"android":"levelo://app?vid=5d411a94-71dc-41e3-ae74-13086227871e","ios":"levelo://app?vid=5d411a94-71dc-41e3-ae74-13086227871e"},"vehicle_type_id":"4","last_reported":1725959408,"current_range_meters":34800,"station_id":"ce4bhn92rcd13ifvqgrg","pricing_plan_id":"cebpf4jnsgd1na2vs0mg"},{"bike_id":"fd35fa38-adf1-4f1a-b3da-4f1d38e91ee0","system_id":"levelo_inurba_marseille","lat":43.2418,"lon":5.39727,"is_reserved":false,"is_disabled":false,"rental_uris":{"android":"levelo://app?vid=fd35fa38-adf1-4f1a-b3da-4f1d38e91ee0","ios":"levelo://app?vid=fd35fa38-adf1-4f1a-b3da-4f1d38e91ee0"},"vehicle_type_id":"4","last_reported":1725959408,"current_range_meters":19200,"station_id":"ce4bhn12rcd13ifvqgpg","pricing_plan_id":"cebpf4jnsgd1na2vs0mg"},{"bike_id":"bf5555e9-efb7-4521-b052-9d5a2c8f2941","system_id":"levelo_inurba_marseille","lat":43.25937,"lon":5.40905,"is_reserved":false,"is_disabled":false,"rental_uris":{"android":"levelo://app?vid=bf5555e9-efb7-4521-b052-9d5a2c8f2941","ios":"levelo://app?vid=bf5555e9-efb7-4521-b052-9d5a2c8f2941"},"vehicle_type_id":"4","last_reported":1725959408,"current_range_meters":31200,"station_id":"ce4bhm92rcd13ifvqglg","pricing_plan_id":"cebpf4jnsgd1na2vs0mg"},{"bike_id":"d9d4d188-20d5-4e72-ba89-dd83c1d985d9","system_id":"levelo_inurba_marseille","lat":43.337444,"lon":5.374475,"is_reserved":false,"is_disabled":false,"rental_uris":{"android":"levelo://app?vid=d9d4d188-20d5-4e72-ba89-dd83c1d985d9","ios":"levelo://app?vid=d9d4d188-20d5-4e72-ba89-dd83c1d985d9"},"vehicle_type_id":"4","last_reported":1725959408,"current_range_meters":34800,"station_id":"ce4bh0h2rcd13ifvqd60","pricing_plan_id":"cebpf4jnsgd1na2vs0mg"},{"bike_id":"07d70a6a-8074-40e1-ae01-8ee8594cd9e3","system_id":"levelo_inurba_marseille","lat":43.24078,"lon":5.37748,"is_reserved":false,"is_disabled":false,"rental_uris":{"android":"levelo://app?vid=07d70a6a-8074-40e1-ae01-8ee8594cd9e3","ios":"levelo://app?vid=07d70a6a-8074-40e1-ae01-8ee8594cd9e3"},"vehicle_type_id":"4","last_reported":1725959408,"current_range_meters":18000,"station_id":"ce4bhnp2rcd13ifvqgvg","pricing_plan_id":"cebpf4jnsgd1na2vs0mg"},{"bike_id":"0d318225-f77d-4b1b-8c7b-e5dce1e1083e","system_id":"levelo_inurba_marseille","lat":43.27986,"lon":5.40009,"is_reserved":false,"is_disabled":false,"rental_uris":{"android":"levelo://app?vid=0d318225-f77d-4b1b-8c7b-e5dce1e1083e","ios":"levelo://app?vid=0d318225-f77d-4b1b-8c7b-e5dce1e1083e"},"vehicle_type_id":"4","last_reported":1725959408,"current_range_meters":28400,"station_id":"ce4bho92rcd13ifvqh4g","pricing_plan_id":"cebpf4jnsgd1na2vs0mg"},{"bike_id":"e4067140-ef5f-4d5d-b312-3ad8fb897ba0","system_id":"levelo_inurba_marseille","lat":43.25571,"lon":5.38234,"is_reserved":false,"is_disabled":false,"rental_uris":{"android":"levelo://app?vid=e4067140-ef5f-4d5d-b312-3ad8fb897ba0","ios":"levelo://app?vid=e4067140-ef5f-4d5d-b312-3ad8fb897ba0"},"vehicle_type_id":"4","last_reported":1725959408,"current_range_meters":30000,"station_id":"ce4bhih2rcd13ifvqfs0","pricing_plan_id":"cebpf4jnsgd1na2vs0mg"},{"bike_id":"ec66178c-9377-4a8d-ba34-1a39bc42f1ac","system_id":"levelo_inurba_marseille","lat":43.32287,"lon":5.38277,"is_reserved":false,"is_disabled":false,"rental_uris":{"android":"levelo://app?vid=ec66178c-9377-4a8d-ba34-1a39bc42f1ac","ios":"levelo://app?vid=ec66178c-9377-4a8d-ba34-1a39bc42f1ac"},"vehicle_type_id":"4","last_reported":1725959408,"current_range_meters":37600,"station_id":"ce4bhr12rcd13ifvqhqg","pricing_plan_id":"cebpf4jnsgd1na2vs0mg"},{"bike_id":"b8c3d51d-b0b7-4220-84d6-7c9ab9263782","system_id":"levelo_inurba_marseille","lat":43.30886,"lon":5.39653,"is_reserved":false,"is_disabled":false,"rental_uris":{"android":"levelo://app?vid=b8c3d51d-b0b7-4220-84d6-7c9ab9263782","ios":"levelo://app?vid=b8c3d51d-b0b7-4220-84d6-7c9ab9263782"},"vehicle_type_id":"4","last_reported":1725959408,"current_range_meters":31200,"station_id":"ce4bh012rcd13ifvqcv0","pricing_plan_id":"cebpf4jnsgd1na2vs0mg"},{"bike_id":"c8566ff8-48bb-4153-8f25-6ecc62ca6edb","system_id":"levelo_inurba_marseille","lat":43.34141,"lon":5.40903,"is_reserved":false,"is_disabled":false,"rental_uris":{"android":"levelo://app?vid=c8566ff8-48bb-4153-8f25-6ecc62ca6edb","ios":"levelo://app?vid=c8566ff8-48bb-4153-8f25-6ecc62ca6edb"},"vehicle_type_id":"4","last_reported":1725959408,"current_range_meters":39200,"station_id":"ce4bhqh2rcd13ifvqhlg","pricing_plan_id":"cebpf4jnsgd1na2vs0mg"},{"bike_id":"bc745383-2511-4656-a4d1-e131400dfd60","system_id":"levelo_inurba_marseille","lat":43.23195,"lon":5.35549,"is_reserved":false,"is_disabled":false,"rental_uris":{"android":"levelo://app?vid=bc745383-2511-4656-a4d1-e131400dfd60","ios":"levelo://app?vid=bc745383-2511-4656-a4d1-e131400dfd60"},"vehicle_type_id":"4","last_reported":1725959408,"current_range_meters":17600,"station_id":"ce4bhu92rcd13ifvqi70","pricing_plan_id":"cebpf4jnsgd1na2vs0mg"},{"bike_id":"da79121b-839b-4688-8795-d88ebc670735","system_id":"levelo_inurba_marseille","lat":43.28041,"lon":5.36939,"is_reserved":false,"is_disabled":false,"rental_uris":{"android":"levelo://app?vid=da79121b-839b-4688-8795-d88ebc670735","ios":"levelo://app?vid=da79121b-839b-4688-8795-d88ebc670735"},"vehicle_type_id":"4","last_reported":1725959408,"current_range_meters":23200,"station_id":"ce4bha12rcd13ifvqef0","pricing_plan_id":"cebpf4jnsgd1na2vs0mg"},{"bike_id":"381afb08-b9e6-4ee5-9150-82d4a194a11a","system_id":"levelo_inurba_marseille","lat":43.260262,"lon":5.375484,"is_reserved":false,"is_disabled":false,"rental_uris":{"android":"levelo://app?vid=381afb08-b9e6-4ee5-9150-82d4a194a11a","ios":"levelo://app?vid=381afb08-b9e6-4ee5-9150-82d4a194a11a"},"vehicle_type_id":"4","last_reported":1725959408,"current_range_meters":4400,"station_id":"ce4bhgh2rcd13ifvqfa0","pricing_plan_id":"cebpf4jnsgd1na2vs0mg"},{"bike_id":"256ff1b4-3cda-4078-ac92-9b2b566638b7","system_id":"levelo_inurba_marseille","lat":43.25569,"lon":5.38233,"is_reserved":false,"is_disabled":false,"rental_uris":{"android":"levelo://app?vid=256ff1b4-3cda-4078-ac92-9b2b566638b7","ios":"levelo://app?vid=256ff1b4-3cda-4078-ac92-9b2b566638b7"},"vehicle_type_id":"4","last_reported":1725959408,"current_range_meters":32000,"station_id":"ce4bhih2rcd13ifvqfs0","pricing_plan_id":"cebpf4jnsgd1na2vs0mg"},{"bike_id":"45b7ed4c-9360-4103-8798-411ac78a4321","system_id":"levelo_inurba_marseille","lat":43.33614,"lon":5.4102,"is_reserved":false,"is_disabled":false,"rental_uris":{"android":"levelo://app?vid=45b7ed4c-9360-4103-8798-411ac78a4321","ios":"levelo://app?vid=45b7ed4c-9360-4103-8798-411ac78a4321"},"vehicle_type_id":"4","last_reported":1725959408,"current_range_meters":21600,"station_id":"ce4bhqh2rcd13ifvqhmg","pricing_plan_id":"cebpf4jnsgd1na2vs0mg"},{"bike_id":"b6dd93d6-3321-496b-b2bb-d916ea607a54","system_id":"levelo_inurba_marseille","lat":43.337444,"lon":5.374475,"is_reserved":false,"is_disabled":false,"rental_uris":{"android":"levelo://app?vid=b6dd93d6-3321-496b-b2bb-d916ea607a54","ios":"levelo://app?vid=b6dd93d6-3321-496b-b2bb-d916ea607a54"},"vehicle_type_id":"4","last_reported":1725959408,"current_range_meters":30000,"station_id":"ce4bgqh2rcd13ifvqc4g","pricing_plan_id":"cebpf4jnsgd1na2vs0mg"},{"bike_id":"e725015d-de34-473c-8e97-ff25677e08ff","system_id":"levelo_inurba_marseille","lat":43.337444,"lon":5.374475,"is_reserved":false,"is_disabled":false,"rental_uris":{"android":"levelo://app?vid=e725015d-de34-473c-8e97-ff25677e08ff","ios":"levelo://app?vid=e725015d-de34-473c-8e97-ff25677e08ff"},"vehicle_type_id":"4","last_reported":1725959408,"current_range_meters":34800,"station_id":"ce4bgvp2rcd13ifvqcu0","pricing_plan_id":"cebpf4jnsgd1na2vs0mg"},{"bike_id":"cbf59a2f-5339-4273-acba-478410a57dc1","system_id":"levelo_inurba_marseille","lat":43.309577,"lon":5.390064,"is_reserved":false,"is_disabled":false,"rental_uris":{"android":"levelo://app?vid=cbf59a2f-5339-4273-acba-478410a57dc1","ios":"levelo://app?vid=cbf59a2f-5339-4273-acba-478410a57dc1"},"vehicle_type_id":"4","last_reported":1725959408,"current_range_meters":30800,"station_id":"ce4bgup2rcd13ifvqco0","pricing_plan_id":"cebpf4jnsgd1na2vs0mg"},{"bike_id":"ccbf5e43-be0f-4330-aa14-cfe13aff8a11","system_id":"levelo_inurba_marseille","lat":43.27288,"lon":5.41598,"is_reserved":false,"is_disabled":false,"rental_uris":{"android":"levelo://app?vid=ccbf5e43-be0f-4330-aa14-cfe13aff8a11","ios":"levelo://app?vid=ccbf5e43-be0f-4330-aa14-cfe13aff8a11"},"vehicle_type_id":"4","last_reported":1725959408,"current_range_meters":8000,"station_id":"","pricing_plan_id":"cebpf4jnsgd1na2vs0mg"},{"bike_id":"c12a0e6c-b6ea-4440-8aee-e91c38422fb9","system_id":"levelo_inurba_marseille","lat":43.29848,"lon":5.36283,"is_reserved":false,"is_disabled":false,"rental_uris":{"android":"levelo://app?vid=c12a0e6c-b6ea-4440-8aee-e91c38422fb9","ios":"levelo://app?vid=c12a0e6c-b6ea-4440-8aee-e91c38422fb9"},"vehicle_type_id":"4","last_reported":1725959408,"current_range_meters":34000,"station_id":"ce4bgpp2rcd13ifvqc3g","pricing_plan_id":"cebpf4jnsgd1na2vs0mg"},{"bike_id":"bc64e6cd-9d83-4f4c-af18-11d729e90cad","system_id":"levelo_inurba_marseille","lat":43.29098,"lon":5.38125,"is_reserved":false,"is_disabled":false,"rental_uris":{"android":"levelo://app?vid=bc64e6cd-9d83-4f4c-af18-11d729e90cad","ios":"levelo://app?vid=bc64e6cd-9d83-4f4c-af18-11d729e90cad"},"vehicle_type_id":"4","last_reported":1725959408,"current_range_meters":32000,"station_id":"ce4bh512rcd13ifvqe2g","pricing_plan_id":"cebpf4jnsgd1na2vs0mg"},{"bike_id":"a5bdacf3-b99a-4be5-a424-483226f1ce0b","system_id":"levelo_inurba_marseille","lat":43.24074,"lon":5.37754,"is_reserved":false,"is_disabled":false,"rental_uris":{"android":"levelo://app?vid=a5bdacf3-b99a-4be5-a424-483226f1ce0b","ios":"levelo://app?vid=a5bdacf3-b99a-4be5-a424-483226f1ce0b"},"vehicle_type_id":"4","last_reported":1725959408,"current_range_meters":13600,"station_id":"ce4bhnp2rcd13ifvqgvg","pricing_plan_id":"cebpf4jnsgd1na2vs0mg"},{"bike_id":"3d2264ab-05ae-4dca-b782-680dc12c7edb","system_id":"levelo_inurba_marseille","lat":43.30912,"lon":5.36859,"is_reserved":false,"is_disabled":false,"rental_uris":{"android":"levelo://app?vid=3d2264ab-05ae-4dca-b782-680dc12c7edb","ios":"levelo://app?vid=3d2264ab-05ae-4dca-b782-680dc12c7edb"},"vehicle_type_id":"4","last_reported":1725959408,"current_range_meters":8400,"station_id":"ce4bgn92rcd13ifvqbvg","pricing_plan_id":"cebpf4jnsgd1na2vs0mg"},{"bike_id":"98dc66e2-5a71-4a68-b04f-72f920b4931b","system_id":"levelo_inurba_marseille","lat":43.26684,"lon":5.38253,"is_reserved":false,"is_disabled":false,"rental_uris":{"android":"levelo://app?vid=98dc66e2-5a71-4a68-b04f-72f920b4931b","ios":"levelo://app?vid=98dc66e2-5a71-4a68-b04f-72f920b4931b"},"vehicle_type_id":"4","last_reported":1725959408,"current_range_meters":11200,"station_id":"ce4bhg92rcd13ifvqf90","pricing_plan_id":"cebpf4jnsgd1na2vs0mg"},{"bike_id":"69e887f5-8a63-4dc2-8534-1bb6d6ddd4fa","system_id":"levelo_inurba_marseille","lat":43.23151,"lon":5.43712,"is_reserved":false,"is_disabled":false,"rental_uris":{"android":"levelo://app?vid=69e887f5-8a63-4dc2-8534-1bb6d6ddd4fa","ios":"levelo://app?vid=69e887f5-8a63-4dc2-8534-1bb6d6ddd4fa"},"vehicle_type_id":"4","last_reported":1725959408,"current_range_meters":36000,"station_id":"ce4bhmp2rcd13ifvqgog","pricing_plan_id":"cebpf4jnsgd1na2vs0mg"},{"bike_id":"9f74645e-94a3-47c5-ba57-37e1a6f6f703","system_id":"levelo_inurba_marseille","lat":43.29285,"lon":5.36854,"is_reserved":false,"is_disabled":false,"rental_uris":{"android":"levelo://app?vid=9f74645e-94a3-47c5-ba57-37e1a6f6f703","ios":"levelo://app?vid=9f74645e-94a3-47c5-ba57-37e1a6f6f703"},"vehicle_type_id":"4","last_reported":1725959408,"current_range_meters":6000,"station_id":"ce4bhbp2rcd13ifvqesg","pricing_plan_id":"cebpf4jnsgd1na2vs0mg"},{"bike_id":"06b1ad91-f7c5-4c45-bef2-6fd0d0916a03","system_id":"levelo_inurba_marseille","lat":43.24083,"lon":5.37753,"is_reserved":false,"is_disabled":false,"rental_uris":{"android":"levelo://app?vid=06b1ad91-f7c5-4c45-bef2-6fd0d0916a03","ios":"levelo://app?vid=06b1ad91-f7c5-4c45-bef2-6fd0d0916a03"},"vehicle_type_id":"4","last_reported":1725959408,"current_range_meters":29600,"station_id":"ce4bhnp2rcd13ifvqgvg","pricing_plan_id":"cebpf4jnsgd1na2vs0mg"},{"bike_id":"06715854-c7d2-4ad4-b1ff-c4c9680cabdf","system_id":"levelo_inurba_marseille","lat":43.24082,"lon":5.37757,"is_reserved":false,"is_disabled":false,"rental_uris":{"android":"levelo://app?vid=06715854-c7d2-4ad4-b1ff-c4c9680cabdf","ios":"levelo://app?vid=06715854-c7d2-4ad4-b1ff-c4c9680cabdf"},"vehicle_type_id":"4","last_reported":1725959408,"current_range_meters":33600,"station_id":"ce4bhnp2rcd13ifvqgvg","pricing_plan_id":"cebpf4jnsgd1na2vs0mg"},{"bike_id":"c13e1edb-f817-452d-bc46-6f34e97f4d9c","system_id":"levelo_inurba_marseille","lat":43.24082,"lon":5.3775,"is_reserved":false,"is_disabled":false,"rental_uris":{"android":"levelo://app?vid=c13e1edb-f817-452d-bc46-6f34e97f4d9c","ios":"levelo://app?vid=c13e1edb-f817-452d-bc46-6f34e97f4d9c"},"vehicle_type_id":"4","last_reported":1725959408,"current_range_meters":32400,"station_id":"ce4bhnp2rcd13ifvqgvg","pricing_plan_id":"cebpf4jnsgd1na2vs0mg"},{"bike_id":"c04069d4-9651-4641-ae1e-105db3e950ec","system_id":"levelo_inurba_marseille","lat":43.295038,"lon":5.387755,"is_reserved":false,"is_disabled":false,"rental_uris":{"android":"levelo://app?vid=c04069d4-9651-4641-ae1e-105db3e950ec","ios":"levelo://app?vid=c04069d4-9651-4641-ae1e-105db3e950ec"},"vehicle_type_id":"4","last_reported":1725959408,"current_range_meters":8800,"station_id":"ce4bh2h2rcd13ifvqdh0","pricing_plan_id":"cebpf4jnsgd1na2vs0mg"},{"bike_id":"d4ac2223-a57f-44d7-84aa-ee78468d1a93","system_id":"levelo_inurba_marseille","lat":43.24648,"lon":5.38894,"is_reserved":false,"is_disabled":false,"rental_uris":{"android":"levelo://app?vid=d4ac2223-a57f-44d7-84aa-ee78468d1a93","ios":"levelo://app?vid=d4ac2223-a57f-44d7-84aa-ee78468d1a93"},"vehicle_type_id":"4","last_reported":1725959408,"current_range_meters":32400,"station_id":"ce4bhg12rcd13ifvqf60","pricing_plan_id":"cebpf4jnsgd1na2vs0mg"},{"bike_id":"6b0dbfcc-4a2e-4496-a840-341e8adbca2f","system_id":"levelo_inurba_marseille","lat":43.24072,"lon":5.37762,"is_reserved":false,"is_disabled":false,"rental_uris":{"android":"levelo://app?vid=6b0dbfcc-4a2e-4496-a840-341e8adbca2f","ios":"levelo://app?vid=6b0dbfcc-4a2e-4496-a840-341e8adbca2f"},"vehicle_type_id":"4","last_reported":1725959408,"current_range_meters":16800,"station_id":"ce4bhnp2rcd13ifvqgvg","pricing_plan_id":"cebpf4jnsgd1na2vs0mg"},{"bike_id":"b431ae45-151f-44c8-8690-790461e8ccc2","system_id":"levelo_inurba_marseille","lat":43.27489,"lon":5.42451,"is_reserved":false,"is_disabled":false,"rental_uris":{"android":"levelo://app?vid=b431ae45-151f-44c8-8690-790461e8ccc2","ios":"levelo://app?vid=b431ae45-151f-44c8-8690-790461e8ccc2"},"vehicle_type_id":"4","last_reported":1725959408,"current_range_meters":23200,"station_id":"ce4bhn92rcd13ifvqgrg","pricing_plan_id":"cebpf4jnsgd1na2vs0mg"},{"bike_id":"5221c0b4-e605-4aaf-857f-11e406852fdf","system_id":"levelo_inurba_marseille","lat":43.24077,"lon":5.37748,"is_reserved":false,"is_disabled":false,"rental_uris":{"android":"levelo://app?vid=5221c0b4-e605-4aaf-857f-11e406852fdf","ios":"levelo://app?vid=5221c0b4-e605-4aaf-857f-11e406852fdf"},"vehicle_type_id":"4","last_reported":1725959408,"current_range_meters":15200,"station_id":"ce4bhnp2rcd13ifvqgvg","pricing_plan_id":"cebpf4jnsgd1na2vs0mg"},{"bike_id":"26505684-7909-4a05-a336-28c2a2ea143e","system_id":"levelo_inurba_marseille","lat":43.24088,"lon":5.37747,"is_reserved":false,"is_disabled":false,"rental_uris":{"android":"levelo://app?vid=26505684-7909-4a05-a336-28c2a2ea143e","ios":"levelo://app?vid=26505684-7909-4a05-a336-28c2a2ea143e"},"vehicle_type_id":"4","last_reported":1725959408,"current_range_meters":20800,"station_id":"ce4bhnp2rcd13ifvqgvg","pricing_plan_id":"cebpf4jnsgd1na2vs0mg"},{"bike_id":"058501bb-5a22-4398-ae6a-7b4d1f5de701","system_id":"levelo_inurba_marseille","lat":43.32282,"lon":5.38277,"is_reserved":false,"is_disabled":false,"rental_uris":{"android":"levelo://app?vid=058501bb-5a22-4398-ae6a-7b4d1f5de701","ios":"levelo://app?vid=058501bb-5a22-4398-ae6a-7b4d1f5de701"},"vehicle_type_id":"4","last_reported":1725959408,"current_range_meters":34000,"station_id":"ce4bhr12rcd13ifvqhqg","pricing_plan_id":"cebpf4jnsgd1na2vs0mg"},{"bike_id":"53bfff36-b94a-45fe-82e3-e585e0b70be0","system_id":"levelo_inurba_marseille","lat":43.2668,"lon":5.38264,"is_reserved":false,"is_disabled":false,"rental_uris":{"android":"levelo://app?vid=53bfff36-b94a-45fe-82e3-e585e0b70be0","ios":"levelo://app?vid=53bfff36-b94a-45fe-82e3-e585e0b70be0"},"vehicle_type_id":"4","last_reported":1725959408,"current_range_meters":28400,"station_id":"ce4bhg92rcd13ifvqf90","pricing_plan_id":"cebpf4jnsgd1na2vs0mg"},{"bike_id":"d170a587-1e00-4d01-b299-3ca4977fc50a","system_id":"levelo_inurba_marseille","lat":43.337444,"lon":5.374475,"is_reserved":false,"is_disabled":false,"rental_uris":{"android":"levelo://app?vid=d170a587-1e00-4d01-b299-3ca4977fc50a","ios":"levelo://app?vid=d170a587-1e00-4d01-b299-3ca4977fc50a"},"vehicle_type_id":"4","last_reported":1725959408,"current_range_meters":36400,"station_id":"","pricing_plan_id":"cebpf4jnsgd1na2vs0mg"},{"bike_id":"f1be54b5-059f-421d-b193-aa359673dfe0","system_id":"levelo_inurba_marseille","lat":43.27918,"lon":5.38014,"is_reserved":false,"is_disabled":false,"rental_uris":{"android":"levelo://app?vid=f1be54b5-059f-421d-b193-aa359673dfe0","ios":"levelo://app?vid=f1be54b5-059f-421d-b193-aa359673dfe0"},"vehicle_type_id":"4","last_reported":1725959408,"current_range_meters":6000,"station_id":"ce4bhf92rcd13ifvqf50","pricing_plan_id":"cebpf4jnsgd1na2vs0mg"},{"bike_id":"a095d557-e884-4866-b6c4-5dbebc1d04a9","system_id":"levelo_inurba_marseille","lat":43.29554,"lon":5.42277,"is_reserved":false,"is_disabled":false,"rental_uris":{"android":"levelo://app?vid=a095d557-e884-4866-b6c4-5dbebc1d04a9","ios":"levelo://app?vid=a095d557-e884-4866-b6c4-5dbebc1d04a9"},"vehicle_type_id":"4","last_reported":1725959408,"current_range_meters":20400,"station_id":"ce4bhph2rcd13ifvqhdg","pricing_plan_id":"cebpf4jnsgd1na2vs0mg"},{"bike_id":"ccdbfbda-93aa-45a6-ba3a-1df13fd94b65","system_id":"levelo_inurba_marseille","lat":43.30465,"lon":5.37894,"is_reserved":false,"is_disabled":false,"rental_uris":{"android":"levelo://app?vid=ccdbfbda-93aa-45a6-ba3a-1df13fd94b65","ios":"levelo://app?vid=ccdbfbda-93aa-45a6-ba3a-1df13fd94b65"},"vehicle_type_id":"4","last_reported":1725959408,"current_range_meters":32800,"station_id":"ce4bgup2rcd13ifvqcn0","pricing_plan_id":"cebpf4jnsgd1na2vs0mg"},{"bike_id":"f56be7f7-b650-4832-81d7-708a77f643a2","system_id":"levelo_inurba_marseille","lat":43.299048,"lon":5.384832,"is_reserved":false,"is_disabled":false,"rental_uris":{"android":"levelo://app?vid=f56be7f7-b650-4832-81d7-708a77f643a2","ios":"levelo://app?vid=f56be7f7-b650-4832-81d7-708a77f643a2"},"vehicle_type_id":"4","last_reported":1725959408,"current_range_meters":20400,"station_id":"ce4bgj12rcd13ifvqbc0","pricing_plan_id":"cebpf4jnsgd1na2vs0mg"},{"bike_id":"835ae718-d954-4895-8110-addc0146bee5","system_id":"levelo_inurba_marseille","lat":43.3137,"lon":5.36711,"is_reserved":false,"is_disabled":false,"rental_uris":{"android":"levelo://app?vid=835ae718-d954-4895-8110-addc0146bee5","ios":"levelo://app?vid=835ae718-d954-4895-8110-addc0146bee5"},"vehicle_type_id":"4","last_reported":1725959408,"current_range_meters":38800,"station_id":"ce4bgr92rcd13ifvqc6g","pricing_plan_id":"cebpf4jnsgd1na2vs0mg"},{"bike_id":"5786f67f-c2dd-4682-9f1b-60264c69ea15","system_id":"levelo_inurba_marseille","lat":43.25875,"lon":5.398,"is_reserved":false,"is_disabled":false,"rental_uris":{"android":"levelo://app?vid=5786f67f-c2dd-4682-9f1b-60264c69ea15","ios":"levelo://app?vid=5786f67f-c2dd-4682-9f1b-60264c69ea15"},"vehicle_type_id":"4","last_reported":1725959408,"current_range_meters":9600,"station_id":"ce4bhl92rcd13ifvqghg","pricing_plan_id":"cebpf4jnsgd1na2vs0mg"},{"bike_id":"cf8f7022-0d98-41b6-a4ac-2434f86f3ea5","system_id":"levelo_inurba_marseille","lat":43.24994,"lon":5.38931,"is_reserved":false,"is_disabled":false,"rental_uris":{"android":"levelo://app?vid=cf8f7022-0d98-41b6-a4ac-2434f86f3ea5","ios":"levelo://app?vid=cf8f7022-0d98-41b6-a4ac-2434f86f3ea5"},"vehicle_type_id":"4","last_reported":1725959408,"current_range_meters":8000,"station_id":"ce4bhgp2rcd13ifvqfd0","pricing_plan_id":"cebpf4jnsgd1na2vs0mg"},{"bike_id":"e1a869db-a9c9-40ff-852a-8793cc94c5a8","system_id":"levelo_inurba_marseille","lat":43.27492,"lon":5.42451,"is_reserved":false,"is_disabled":false,"rental_uris":{"android":"levelo://app?vid=e1a869db-a9c9-40ff-852a-8793cc94c5a8","ios":"levelo://app?vid=e1a869db-a9c9-40ff-852a-8793cc94c5a8"},"vehicle_type_id":"4","last_reported":1725959408,"current_range_meters":33200,"station_id":"ce4bhn92rcd13ifvqgrg","pricing_plan_id":"cebpf4jnsgd1na2vs0mg"},{"bike_id":"e1afa912-2bf9-49f5-ab54-6e9af09aacb3","system_id":"levelo_inurba_marseille","lat":43.23186,"lon":5.39994,"is_reserved":false,"is_disabled":false,"rental_uris":{"android":"levelo://app?vid=e1afa912-2bf9-49f5-ab54-6e9af09aacb3","ios":"levelo://app?vid=e1afa912-2bf9-49f5-ab54-6e9af09aacb3"},"vehicle_type_id":"4","last_reported":1725959408,"current_range_meters":11600,"station_id":"ce4bhn12rcd13ifvqgqg","pricing_plan_id":"cebpf4jnsgd1na2vs0mg"},{"bike_id":"3d4d19c6-bf5e-4f87-86e7-1b81d6b5a9ce","system_id":"levelo_inurba_marseille","lat":43.301429,"lon":5.374086,"is_reserved":false,"is_disabled":false,"rental_uris":{"android":"levelo://app?vid=3d4d19c6-bf5e-4f87-86e7-1b81d6b5a9ce","ios":"levelo://app?vid=3d4d19c6-bf5e-4f87-86e7-1b81d6b5a9ce"},"vehicle_type_id":"4","last_reported":1725959408,"current_range_meters":13600,"station_id":"ce4bgs92rcd13ifvqcc0","pricing_plan_id":"cebpf4jnsgd1na2vs0mg"},{"bike_id":"e7036c44-a45a-4935-b5dd-c627753e0a29","system_id":"levelo_inurba_marseille","lat":43.337444,"lon":5.374475,"is_reserved":false,"is_disabled":false,"rental_uris":{"android":"levelo://app?vid=e7036c44-a45a-4935-b5dd-c627753e0a29","ios":"levelo://app?vid=e7036c44-a45a-4935-b5dd-c627753e0a29"},"vehicle_type_id":"4","last_reported":1725959408,"current_range_meters":38800,"station_id":"","pricing_plan_id":"cebpf4jnsgd1na2vs0mg"},{"bike_id":"2f824156-96da-43d7-90fd-bf156c3d9316","system_id":"levelo_inurba_marseille","lat":43.31485,"lon":5.37297,"is_reserved":false,"is_disabled":false,"rental_uris":{"android":"levelo://app?vid=2f824156-96da-43d7-90fd-bf156c3d9316","ios":"levelo://app?vid=2f824156-96da-43d7-90fd-bf156c3d9316"},"vehicle_type_id":"4","last_reported":1725959408,"current_range_meters":10800,"station_id":"ce4bgt12rcd13ifvqcd0","pricing_plan_id":"cebpf4jnsgd1na2vs0mg"},{"bike_id":"d7bee781-b902-4332-8374-b8948b296a63","system_id":"levelo_inurba_marseille","lat":43.25002,"lon":5.38921,"is_reserved":false,"is_disabled":false,"rental_uris":{"android":"levelo://app?vid=d7bee781-b902-4332-8374-b8948b296a63","ios":"levelo://app?vid=d7bee781-b902-4332-8374-b8948b296a63"},"vehicle_type_id":"4","last_reported":1725959408,"current_range_meters":18000,"station_id":"ce4bhgp2rcd13ifvqfd0","pricing_plan_id":"cebpf4jnsgd1na2vs0mg"},{"bike_id":"be1fc29f-2b45-45f4-958a-272653e8af6f","system_id":"levelo_inurba_marseille","lat":43.337444,"lon":5.374475,"is_reserved":false,"is_disabled":false,"rental_uris":{"android":"levelo://app?vid=be1fc29f-2b45-45f4-958a-272653e8af6f","ios":"levelo://app?vid=be1fc29f-2b45-45f4-958a-272653e8af6f"},"vehicle_type_id":"4","last_reported":1725959408,"current_range_meters":37600,"station_id":"ce4bh0h2rcd13ifvqd50","pricing_plan_id":"cebpf4jnsgd1na2vs0mg"},{"bike_id":"5da2003d-fb1c-434c-ae81-c10b92dc97e9","system_id":"levelo_inurba_marseille","lat":43.30468,"lon":5.37898,"is_reserved":false,"is_disabled":false,"rental_uris":{"android":"levelo://app?vid=5da2003d-fb1c-434c-ae81-c10b92dc97e9","ios":"levelo://app?vid=5da2003d-fb1c-434c-ae81-c10b92dc97e9"},"vehicle_type_id":"4","last_reported":1725959408,"current_range_meters":38800,"station_id":"ce4bgup2rcd13ifvqcn0","pricing_plan_id":"cebpf4jnsgd1na2vs0mg"},{"bike_id":"d7157b4c-ce34-4da6-9658-de5de99b3db5","system_id":"levelo_inurba_marseille","lat":43.30946,"lon":5.39036,"is_reserved":false,"is_disabled":false,"rental_uris":{"android":"levelo://app?vid=d7157b4c-ce34-4da6-9658-de5de99b3db5","ios":"levelo://app?vid=d7157b4c-ce34-4da6-9658-de5de99b3db5"},"vehicle_type_id":"4","last_reported":1725959408,"current_range_meters":28000,"station_id":"ce4bgup2rcd13ifvqco0","pricing_plan_id":"cebpf4jnsgd1na2vs0mg"},{"bike_id":"fc3a0572-143d-4313-9e0d-391fb9baa90a","system_id":"levelo_inurba_marseille","lat":43.26554,"lon":5.3728,"is_reserved":false,"is_disabled":false,"rental_uris":{"android":"levelo://app?vid=fc3a0572-143d-4313-9e0d-391fb9baa90a","ios":"levelo://app?vid=fc3a0572-143d-4313-9e0d-391fb9baa90a"},"vehicle_type_id":"4","last_reported":1725959408,"current_range_meters":5600,"station_id":"ce4bhg12rcd13ifvqf70","pricing_plan_id":"cebpf4jnsgd1na2vs0mg"},{"bike_id":"10725217-d3c2-4283-aa6b-406c866b0e90","system_id":"levelo_inurba_marseille","lat":43.32599,"lon":5.3773,"is_reserved":false,"is_disabled":false,"rental_uris":{"android":"levelo://app?vid=10725217-d3c2-4283-aa6b-406c866b0e90","ios":"levelo://app?vid=10725217-d3c2-4283-aa6b-406c866b0e90"},"vehicle_type_id":"4","last_reported":1725959408,"current_range_meters":8400,"station_id":"","pricing_plan_id":"cebpf4jnsgd1na2vs0mg"},{"bike_id":"37070a74-00b0-4f72-8eca-a9d173186f92","system_id":"levelo_inurba_marseille","lat":43.24073,"lon":5.3776,"is_reserved":false,"is_disabled":false,"rental_uris":{"android":"levelo://app?vid=37070a74-00b0-4f72-8eca-a9d173186f92","ios":"levelo://app?vid=37070a74-00b0-4f72-8eca-a9d173186f92"},"vehicle_type_id":"4","last_reported":1725959408,"current_range_meters":14400,"station_id":"ce4bhnp2rcd13ifvqgvg","pricing_plan_id":"cebpf4jnsgd1na2vs0mg"},{"bike_id":"a85c78bc-418c-4af0-8edd-59c76790768f","system_id":"levelo_inurba_marseille","lat":43.32483,"lon":5.36578,"is_reserved":false,"is_disabled":false,"rental_uris":{"android":"levelo://app?vid=a85c78bc-418c-4af0-8edd-59c76790768f","ios":"levelo://app?vid=a85c78bc-418c-4af0-8edd-59c76790768f"},"vehicle_type_id":"4","last_reported":1725959408,"current_range_meters":28400,"station_id":"ce4bhs12rcd13ifvqhvg","pricing_plan_id":"cebpf4jnsgd1na2vs0mg"},{"bike_id":"8bcc0cac-e194-457b-af48-a1976a5d5edd","system_id":"levelo_inurba_marseille","lat":43.2465,"lon":5.38895,"is_reserved":false,"is_disabled":false,"rental_uris":{"android":"levelo://app?vid=8bcc0cac-e194-457b-af48-a1976a5d5edd","ios":"levelo://app?vid=8bcc0cac-e194-457b-af48-a1976a5d5edd"},"vehicle_type_id":"4","last_reported":1725959408,"current_range_meters":36400,"station_id":"ce4bhg12rcd13ifvqf60","pricing_plan_id":"cebpf4jnsgd1na2vs0mg"},{"bike_id":"d9663d21-c90b-4b46-821c-b724101c7b12","system_id":"levelo_inurba_marseille","lat":43.29835,"lon":5.3626,"is_reserved":false,"is_disabled":false,"rental_uris":{"android":"levelo://app?vid=d9663d21-c90b-4b46-821c-b724101c7b12","ios":"levelo://app?vid=d9663d21-c90b-4b46-821c-b724101c7b12"},"vehicle_type_id":"4","last_reported":1725959408,"current_range_meters":27200,"station_id":"ce4bgpp2rcd13ifvqc3g","pricing_plan_id":"cebpf4jnsgd1na2vs0mg"},{"bike_id":"69d87a96-62d5-48ac-a203-3fc99ced94d7","system_id":"levelo_inurba_marseille","lat":43.26947,"lon":5.38636,"is_reserved":false,"is_disabled":false,"rental_uris":{"android":"levelo://app?vid=69d87a96-62d5-48ac-a203-3fc99ced94d7","ios":"levelo://app?vid=69d87a96-62d5-48ac-a203-3fc99ced94d7"},"vehicle_type_id":"4","last_reported":1725959408,"current_range_meters":38800,"station_id":"ce4bhh92rcd13ifvqfh0","pricing_plan_id":"cebpf4jnsgd1na2vs0mg"},{"bike_id":"d12b0250-5c7f-4add-96f7-d571b6142981","system_id":"levelo_inurba_marseille","lat":43.34142,"lon":5.40905,"is_reserved":false,"is_disabled":false,"rental_uris":{"android":"levelo://app?vid=d12b0250-5c7f-4add-96f7-d571b6142981","ios":"levelo://app?vid=d12b0250-5c7f-4add-96f7-d571b6142981"},"vehicle_type_id":"4","last_reported":1725959408,"current_range_meters":28800,"station_id":"ce4bhqh2rcd13ifvqhlg","pricing_plan_id":"cebpf4jnsgd1na2vs0mg"},{"bike_id":"9f0a1eb3-ed63-4bc1-a966-5af9292852d5","system_id":"levelo_inurba_marseille","lat":43.29847,"lon":5.36278,"is_reserved":false,"is_disabled":false,"rental_uris":{"android":"levelo://app?vid=9f0a1eb3-ed63-4bc1-a966-5af9292852d5","ios":"levelo://app?vid=9f0a1eb3-ed63-4bc1-a966-5af9292852d5"},"vehicle_type_id":"4","last_reported":1725959408,"current_range_meters":31200,"station_id":"ce4bgpp2rcd13ifvqc3g","pricing_plan_id":"cebpf4jnsgd1na2vs0mg"},{"bike_id":"9c97f9ec-7a9d-41fa-833c-34ce56ba5dfe","system_id":"levelo_inurba_marseille","lat":43.2293,"lon":5.35375,"is_reserved":false,"is_disabled":false,"rental_uris":{"android":"levelo://app?vid=9c97f9ec-7a9d-41fa-833c-34ce56ba5dfe","ios":"levelo://app?vid=9c97f9ec-7a9d-41fa-833c-34ce56ba5dfe"},"vehicle_type_id":"4","last_reported":1725959408,"current_range_meters":6800,"station_id":"cpo3532slgdg3j2ikp40","pricing_plan_id":"cebpf4jnsgd1na2vs0mg"},{"bike_id":"74deabc1-d687-4294-9852-300975c87d9e","system_id":"levelo_inurba_marseille","lat":43.2408,"lon":5.37741,"is_reserved":false,"is_disabled":false,"rental_uris":{"android":"levelo://app?vid=74deabc1-d687-4294-9852-300975c87d9e","ios":"levelo://app?vid=74deabc1-d687-4294-9852-300975c87d9e"},"vehicle_type_id":"4","last_reported":1725959408,"current_range_meters":18000,"station_id":"ce4bhnp2rcd13ifvqgvg","pricing_plan_id":"cebpf4jnsgd1na2vs0mg"},{"bike_id":"6bc78a58-cf39-436d-963c-76da93ea5d85","system_id":"levelo_inurba_marseille","lat":43.3375,"lon":5.37432,"is_reserved":false,"is_disabled":false,"rental_uris":{"android":"levelo://app?vid=6bc78a58-cf39-436d-963c-76da93ea5d85","ios":"levelo://app?vid=6bc78a58-cf39-436d-963c-76da93ea5d85"},"vehicle_type_id":"4","last_reported":1725959408,"current_range_meters":25600,"station_id":"","pricing_plan_id":"cebpf4jnsgd1na2vs0mg"},{"bike_id":"2a232d4c-0caf-4608-80d1-9bfef437d62b","system_id":"levelo_inurba_marseille","lat":43.28149,"lon":5.42641,"is_reserved":false,"is_disabled":false,"rental_uris":{"android":"levelo://app?vid=2a232d4c-0caf-4608-80d1-9bfef437d62b","ios":"levelo://app?vid=2a232d4c-0caf-4608-80d1-9bfef437d62b"},"vehicle_type_id":"4","last_reported":1725959408,"current_range_meters":35200,"station_id":"ce4bhnh2rcd13ifvqgug","pricing_plan_id":"cebpf4jnsgd1na2vs0mg"},{"bike_id":"8d65f939-f2ab-4d51-801b-8265c19a6813","system_id":"levelo_inurba_marseille","lat":43.31347,"lon":5.36733,"is_reserved":false,"is_disabled":false,"rental_uris":{"android":"levelo://app?vid=8d65f939-f2ab-4d51-801b-8265c19a6813","ios":"levelo://app?vid=8d65f939-f2ab-4d51-801b-8265c19a6813"},"vehicle_type_id":"4","last_reported":1725959408,"current_range_meters":38800,"station_id":"ce4bgr92rcd13ifvqc6g","pricing_plan_id":"cebpf4jnsgd1na2vs0mg"},{"bike_id":"4490c6dd-a0b6-4c6a-8bd3-d2268595024a","system_id":"levelo_inurba_marseille","lat":43.24078,"lon":5.37761,"is_reserved":false,"is_disabled":false,"rental_uris":{"android":"levelo://app?vid=4490c6dd-a0b6-4c6a-8bd3-d2268595024a","ios":"levelo://app?vid=4490c6dd-a0b6-4c6a-8bd3-d2268595024a"},"vehicle_type_id":"4","last_reported":1725959408,"current_range_meters":8800,"station_id":"ce4bhnp2rcd13ifvqgvg","pricing_plan_id":"cebpf4jnsgd1na2vs0mg"},{"bike_id":"1a9dfcb8-d4cc-46d1-bada-7d344f8f428d","system_id":"levelo_inurba_marseille","lat":43.30551,"lon":5.36535,"is_reserved":false,"is_disabled":false,"rental_uris":{"android":"levelo://app?vid=1a9dfcb8-d4cc-46d1-bada-7d344f8f428d","ios":"levelo://app?vid=1a9dfcb8-d4cc-46d1-bada-7d344f8f428d"},"vehicle_type_id":"4","last_reported":1725959408,"current_range_meters":38800,"station_id":"ce4bgs12rcd13ifvqcag","pricing_plan_id":"cebpf4jnsgd1na2vs0mg"},{"bike_id":"0f8d4871-40aa-4918-ae57-55191cfaadca","system_id":"levelo_inurba_marseille","lat":43.2408,"lon":5.37735,"is_reserved":false,"is_disabled":false,"rental_uris":{"android":"levelo://app?vid=0f8d4871-40aa-4918-ae57-55191cfaadca","ios":"levelo://app?vid=0f8d4871-40aa-4918-ae57-55191cfaadca"},"vehicle_type_id":"4","last_reported":1725959408,"current_range_meters":18800,"station_id":"ce4bhnp2rcd13ifvqgvg","pricing_plan_id":"cebpf4jnsgd1na2vs0mg"},{"bike_id":"957f5501-98e5-436f-b1b5-906f5ab68b8c","system_id":"levelo_inurba_marseille","lat":43.26946,"lon":5.38647,"is_reserved":false,"is_disabled":false,"rental_uris":{"android":"levelo://app?vid=957f5501-98e5-436f-b1b5-906f5ab68b8c","ios":"levelo://app?vid=957f5501-98e5-436f-b1b5-906f5ab68b8c"},"vehicle_type_id":"4","last_reported":1725959408,"current_range_meters":38800,"station_id":"ce4bhh92rcd13ifvqfh0","pricing_plan_id":"cebpf4jnsgd1na2vs0mg"},{"bike_id":"9baddae9-b8c3-4cc1-960e-931e02749a2d","system_id":"levelo_inurba_marseille","lat":43.31069,"lon":5.38361,"is_reserved":false,"is_disabled":false,"rental_uris":{"android":"levelo://app?vid=9baddae9-b8c3-4cc1-960e-931e02749a2d","ios":"levelo://app?vid=9baddae9-b8c3-4cc1-960e-931e02749a2d"},"vehicle_type_id":"4","last_reported":1725959408,"current_range_meters":32000,"station_id":"ce4bgv92rcd13ifvqcr0","pricing_plan_id":"cebpf4jnsgd1na2vs0mg"},{"bike_id":"7bb5a6c7-6dd5-4a42-9215-dad1557690cc","system_id":"levelo_inurba_marseille","lat":43.32289,"lon":5.38265,"is_reserved":false,"is_disabled":false,"rental_uris":{"android":"levelo://app?vid=7bb5a6c7-6dd5-4a42-9215-dad1557690cc","ios":"levelo://app?vid=7bb5a6c7-6dd5-4a42-9215-dad1557690cc"},"vehicle_type_id":"4","last_reported":1725959408,"current_range_meters":36800,"station_id":"ce4bhr12rcd13ifvqhqg","pricing_plan_id":"cebpf4jnsgd1na2vs0mg"},{"bike_id":"ff7f1318-7ba5-4b6a-837f-e7781625fc1b","system_id":"levelo_inurba_marseille","lat":43.30911,"lon":5.36852,"is_reserved":false,"is_disabled":false,"rental_uris":{"android":"levelo://app?vid=ff7f1318-7ba5-4b6a-837f-e7781625fc1b","ios":"levelo://app?vid=ff7f1318-7ba5-4b6a-837f-e7781625fc1b"},"vehicle_type_id":"4","last_reported":1725959408,"current_range_meters":8000,"station_id":"ce4bgn92rcd13ifvqbvg","pricing_plan_id":"cebpf4jnsgd1na2vs0mg"},{"bike_id":"8c317ca4-ae87-4e85-8597-c0aa99af97e9","system_id":"levelo_inurba_marseille","lat":43.24997,"lon":5.38927,"is_reserved":false,"is_disabled":false,"rental_uris":{"android":"levelo://app?vid=8c317ca4-ae87-4e85-8597-c0aa99af97e9","ios":"levelo://app?vid=8c317ca4-ae87-4e85-8597-c0aa99af97e9"},"vehicle_type_id":"4","last_reported":1725959408,"current_range_meters":12400,"station_id":"ce4bhgp2rcd13ifvqfd0","pricing_plan_id":"cebpf4jnsgd1na2vs0mg"},{"bike_id":"eeb049b6-0fb7-45a9-9efc-e612af9a2f25","system_id":"levelo_inurba_marseille","lat":43.337444,"lon":5.374475,"is_reserved":false,"is_disabled":false,"rental_uris":{"android":"levelo://app?vid=eeb049b6-0fb7-45a9-9efc-e612af9a2f25","ios":"levelo://app?vid=eeb049b6-0fb7-45a9-9efc-e612af9a2f25"},"vehicle_type_id":"4","last_reported":1725959408,"current_range_meters":32000,"station_id":"ce4bgqh2rcd13ifvqc4g","pricing_plan_id":"cebpf4jnsgd1na2vs0mg"},{"bike_id":"03adf265-5294-4cb4-9af1-99e88745ace6","system_id":"levelo_inurba_marseille","lat":43.29307,"lon":5.37171,"is_reserved":false,"is_disabled":false,"rental_uris":{"android":"levelo://app?vid=03adf265-5294-4cb4-9af1-99e88745ace6","ios":"levelo://app?vid=03adf265-5294-4cb4-9af1-99e88745ace6"},"vehicle_type_id":"4","last_reported":1725959408,"current_range_meters":8000,"station_id":"ce4bgh92rcd13ifvqb40","pricing_plan_id":"cebpf4jnsgd1na2vs0mg"},{"bike_id":"f39b2119-4a11-4daa-9c63-03c8da229918","system_id":"levelo_inurba_marseille","lat":43.27494,"lon":5.4245,"is_reserved":false,"is_disabled":false,"rental_uris":{"android":"levelo://app?vid=f39b2119-4a11-4daa-9c63-03c8da229918","ios":"levelo://app?vid=f39b2119-4a11-4daa-9c63-03c8da229918"},"vehicle_type_id":"4","last_reported":1725959408,"current_range_meters":4400,"station_id":"ce4bhn92rcd13ifvqgrg","pricing_plan_id":"cebpf4jnsgd1na2vs0mg"},{"bike_id":"47cbb08f-2c06-4732-9d13-3d24efe47c79","system_id":"levelo_inurba_marseille","lat":43.31221,"lon":5.36857,"is_reserved":false,"is_disabled":false,"rental_uris":{"android":"levelo://app?vid=47cbb08f-2c06-4732-9d13-3d24efe47c79","ios":"levelo://app?vid=47cbb08f-2c06-4732-9d13-3d24efe47c79"},"vehicle_type_id":"4","last_reported":1725959408,"current_range_meters":32400,"station_id":"ce4bgl92rcd13ifvqbq0","pricing_plan_id":"cebpf4jnsgd1na2vs0mg"},{"bike_id":"e79dc6d1-d6a3-467f-a9dd-348e2da1839e","system_id":"levelo_inurba_marseille","lat":43.25571,"lon":5.38232,"is_reserved":false,"is_disabled":false,"rental_uris":{"android":"levelo://app?vid=e79dc6d1-d6a3-467f-a9dd-348e2da1839e","ios":"levelo://app?vid=e79dc6d1-d6a3-467f-a9dd-348e2da1839e"},"vehicle_type_id":"4","last_reported":1725959408,"current_range_meters":31200,"station_id":"ce4bhih2rcd13ifvqfs0","pricing_plan_id":"cebpf4jnsgd1na2vs0mg"},{"bike_id":"46918be4-89f5-4bc3-8e45-c03577c77f12","system_id":"levelo_inurba_marseille","lat":43.26556,"lon":5.37281,"is_reserved":false,"is_disabled":false,"rental_uris":{"android":"levelo://app?vid=46918be4-89f5-4bc3-8e45-c03577c77f12","ios":"levelo://app?vid=46918be4-89f5-4bc3-8e45-c03577c77f12"},"vehicle_type_id":"4","last_reported":1725959408,"current_range_meters":3200,"station_id":"ce4bhg12rcd13ifvqf70","pricing_plan_id":"cebpf4jnsgd1na2vs0mg"},{"bike_id":"70741a29-0553-4045-8001-e8b52992dc18","system_id":"levelo_inurba_marseille","lat":43.2985,"lon":5.36281,"is_reserved":false,"is_disabled":false,"rental_uris":{"android":"levelo://app?vid=70741a29-0553-4045-8001-e8b52992dc18","ios":"levelo://app?vid=70741a29-0553-4045-8001-e8b52992dc18"},"vehicle_type_id":"4","last_reported":1725959408,"current_range_meters":14800,"station_id":"ce4bgpp2rcd13ifvqc3g","pricing_plan_id":"cebpf4jnsgd1na2vs0mg"},{"bike_id":"9eca9a6a-33a9-48a1-b859-9d0a66f8ab8a","system_id":"levelo_inurba_marseille","lat":43.26567,"lon":5.39008,"is_reserved":false,"is_disabled":false,"rental_uris":{"android":"levelo://app?vid=9eca9a6a-33a9-48a1-b859-9d0a66f8ab8a","ios":"levelo://app?vid=9eca9a6a-33a9-48a1-b859-9d0a66f8ab8a"},"vehicle_type_id":"4","last_reported":1725959408,"current_range_meters":25200,"station_id":"ce4bhe12rcd13ifvqf30","pricing_plan_id":"cebpf4jnsgd1na2vs0mg"},{"bike_id":"7455bc20-60a5-48d2-9928-62fe204b368f","system_id":"levelo_inurba_marseille","lat":43.26571,"lon":5.3901,"is_reserved":false,"is_disabled":false,"rental_uris":{"android":"levelo://app?vid=7455bc20-60a5-48d2-9928-62fe204b368f","ios":"levelo://app?vid=7455bc20-60a5-48d2-9928-62fe204b368f"},"vehicle_type_id":"4","last_reported":1725959408,"current_range_meters":29600,"station_id":"ce4bhe12rcd13ifvqf30","pricing_plan_id":"cebpf4jnsgd1na2vs0mg"},{"bike_id":"78b1b82e-d125-4cc9-8ef0-28c026514956","system_id":"levelo_inurba_marseille","lat":43.30602,"lon":5.37223,"is_reserved":false,"is_disabled":false,"rental_uris":{"android":"levelo://app?vid=78b1b82e-d125-4cc9-8ef0-28c026514956","ios":"levelo://app?vid=78b1b82e-d125-4cc9-8ef0-28c026514956"},"vehicle_type_id":"4","last_reported":1725959408,"current_range_meters":26000,"station_id":"ce4bgqh2rcd13ifvqc4g","pricing_plan_id":"cebpf4jnsgd1na2vs0mg"},{"bike_id":"b67357ee-48ea-4477-9752-bb18a5a0f543","system_id":"levelo_inurba_marseille","lat":43.31894,"lon":5.40738,"is_reserved":false,"is_disabled":false,"rental_uris":{"android":"levelo://app?vid=b67357ee-48ea-4477-9752-bb18a5a0f543","ios":"levelo://app?vid=b67357ee-48ea-4477-9752-bb18a5a0f543"},"vehicle_type_id":"4","last_reported":1725959408,"current_range_meters":9600,"station_id":"ce4bhq12rcd13ifvqhig","pricing_plan_id":"cebpf4jnsgd1na2vs0mg"},{"bike_id":"42c0fdad-d79b-4d19-b8fe-3fc76fe453e4","system_id":"levelo_inurba_marseille","lat":43.26939,"lon":5.40244,"is_reserved":false,"is_disabled":false,"rental_uris":{"android":"levelo://app?vid=42c0fdad-d79b-4d19-b8fe-3fc76fe453e4","ios":"levelo://app?vid=42c0fdad-d79b-4d19-b8fe-3fc76fe453e4"},"vehicle_type_id":"4","last_reported":1725959408,"current_range_meters":32800,"station_id":"cjm6bp8fraef2m0cb0m0","pricing_plan_id":"cebpf4jnsgd1na2vs0mg"},{"bike_id":"bf3f6b11-b600-497a-84fe-1a0c1f2f273f","system_id":"levelo_inurba_marseille","lat":43.3237,"lon":5.38926,"is_reserved":false,"is_disabled":false,"rental_uris":{"android":"levelo://app?vid=bf3f6b11-b600-497a-84fe-1a0c1f2f273f","ios":"levelo://app?vid=bf3f6b11-b600-497a-84fe-1a0c1f2f273f"},"vehicle_type_id":"4","last_reported":1725959408,"current_range_meters":19200,"station_id":"","pricing_plan_id":"cebpf4jnsgd1na2vs0mg"},{"bike_id":"69ffd63f-aada-407a-bee5-70246d2e35bd","system_id":"levelo_inurba_marseille","lat":43.337444,"lon":5.374475,"is_reserved":false,"is_disabled":false,"rental_uris":{"android":"levelo://app?vid=69ffd63f-aada-407a-bee5-70246d2e35bd","ios":"levelo://app?vid=69ffd63f-aada-407a-bee5-70246d2e35bd"},"vehicle_type_id":"4","last_reported":1725959408,"current_range_meters":26000,"station_id":"ce4bh0h2rcd13ifvqd60","pricing_plan_id":"cebpf4jnsgd1na2vs0mg"},{"bike_id":"8d87be81-f4b1-4e86-b753-ff05e2d45fba","system_id":"levelo_inurba_marseille","lat":43.337444,"lon":5.374475,"is_reserved":false,"is_disabled":false,"rental_uris":{"android":"levelo://app?vid=8d87be81-f4b1-4e86-b753-ff05e2d45fba","ios":"levelo://app?vid=8d87be81-f4b1-4e86-b753-ff05e2d45fba"},"vehicle_type_id":"4","last_reported":1725959408,"current_range_meters":36400,"station_id":"ce4bh112rcd13ifvqda0","pricing_plan_id":"cebpf4jnsgd1na2vs0mg"},{"bike_id":"27610625-9e5c-478a-902d-703e97a787d0","system_id":"levelo_inurba_marseille","lat":43.25928,"lon":5.40912,"is_reserved":false,"is_disabled":false,"rental_uris":{"android":"levelo://app?vid=27610625-9e5c-478a-902d-703e97a787d0","ios":"levelo://app?vid=27610625-9e5c-478a-902d-703e97a787d0"},"vehicle_type_id":"4","last_reported":1725959408,"current_range_meters":9200,"station_id":"ce4bhm92rcd13ifvqglg","pricing_plan_id":"cebpf4jnsgd1na2vs0mg"},{"bike_id":"260c9c35-08f5-4048-b9e0-5ddbdb52b2a2","system_id":"levelo_inurba_marseille","lat":43.29373,"lon":5.37846,"is_reserved":false,"is_disabled":false,"rental_uris":{"android":"levelo://app?vid=260c9c35-08f5-4048-b9e0-5ddbdb52b2a2","ios":"levelo://app?vid=260c9c35-08f5-4048-b9e0-5ddbdb52b2a2"},"vehicle_type_id":"4","last_reported":1725959408,"current_range_meters":16800,"station_id":"ce4bgjh2rcd13ifvqbf0","pricing_plan_id":"cebpf4jnsgd1na2vs0mg"},{"bike_id":"6edf3869-ce40-4622-98ae-b491d4d63322","system_id":"levelo_inurba_marseille","lat":43.32287,"lon":5.38266,"is_reserved":false,"is_disabled":false,"rental_uris":{"android":"levelo://app?vid=6edf3869-ce40-4622-98ae-b491d4d63322","ios":"levelo://app?vid=6edf3869-ce40-4622-98ae-b491d4d63322"},"vehicle_type_id":"4","last_reported":1725959408,"current_range_meters":24000,"station_id":"ce4bhr12rcd13ifvqhqg","pricing_plan_id":"cebpf4jnsgd1na2vs0mg"},{"bike_id":"c751c2ca-b94f-4305-b133-7a17b4775307","system_id":"levelo_inurba_marseille","lat":43.24385,"lon":5.37054,"is_reserved":false,"is_disabled":false,"rental_uris":{"android":"levelo://app?vid=c751c2ca-b94f-4305-b133-7a17b4775307","ios":"levelo://app?vid=c751c2ca-b94f-4305-b133-7a17b4775307"},"vehicle_type_id":"4","last_reported":1725959408,"current_range_meters":35200,"station_id":"ce4bhhh2rcd13ifvqfk0","pricing_plan_id":"cebpf4jnsgd1na2vs0mg"},{"bike_id":"2fab2f64-f490-4758-921a-3009b4ba8bca","system_id":"levelo_inurba_marseille","lat":43.32277,"lon":5.38283,"is_reserved":false,"is_disabled":false,"rental_uris":{"android":"levelo://app?vid=2fab2f64-f490-4758-921a-3009b4ba8bca","ios":"levelo://app?vid=2fab2f64-f490-4758-921a-3009b4ba8bca"},"vehicle_type_id":"4","last_reported":1725959408,"current_range_meters":38000,"station_id":"ce4bhr12rcd13ifvqhqg","pricing_plan_id":"cebpf4jnsgd1na2vs0mg"},{"bike_id":"6e3cdfb9-fe5c-4830-adfd-7542b79c6d41","system_id":"levelo_inurba_marseille","lat":43.25001,"lon":5.38926,"is_reserved":false,"is_disabled":false,"rental_uris":{"android":"levelo://app?vid=6e3cdfb9-fe5c-4830-adfd-7542b79c6d41","ios":"levelo://app?vid=6e3cdfb9-fe5c-4830-adfd-7542b79c6d41"},"vehicle_type_id":"4","last_reported":1725959408,"current_range_meters":30800,"station_id":"ce4bhgp2rcd13ifvqfd0","pricing_plan_id":"cebpf4jnsgd1na2vs0mg"},{"bike_id":"936b7026-0e80-4776-a9d9-736974aea195","system_id":"levelo_inurba_marseille","lat":43.337444,"lon":5.374475,"is_reserved":false,"is_disabled":false,"rental_uris":{"android":"levelo://app?vid=936b7026-0e80-4776-a9d9-736974aea195","ios":"levelo://app?vid=936b7026-0e80-4776-a9d9-736974aea195"},"vehicle_type_id":"4","last_reported":1725959408,"current_range_meters":32800,"station_id":"","pricing_plan_id":"cebpf4jnsgd1na2vs0mg"},{"bike_id":"d48e0dec-518d-4e84-94f6-11981c7616c0","system_id":"levelo_inurba_marseille","lat":43.24075,"lon":5.37758,"is_reserved":false,"is_disabled":false,"rental_uris":{"android":"levelo://app?vid=d48e0dec-518d-4e84-94f6-11981c7616c0","ios":"levelo://app?vid=d48e0dec-518d-4e84-94f6-11981c7616c0"},"vehicle_type_id":"4","last_reported":1725959408,"current_range_meters":28000,"station_id":"ce4bhnp2rcd13ifvqgvg","pricing_plan_id":"cebpf4jnsgd1na2vs0mg"},{"bike_id":"c67c7d7f-c4eb-48ce-9d9b-c43bb1e9035d","system_id":"levelo_inurba_marseille","lat":43.29791,"lon":5.38103,"is_reserved":false,"is_disabled":false,"rental_uris":{"android":"levelo://app?vid=c67c7d7f-c4eb-48ce-9d9b-c43bb1e9035d","ios":"levelo://app?vid=c67c7d7f-c4eb-48ce-9d9b-c43bb1e9035d"},"vehicle_type_id":"4","last_reported":1725959408,"current_range_meters":25600,"station_id":"","pricing_plan_id":"cebpf4jnsgd1na2vs0mg"},{"bike_id":"87caf7c2-7cbf-450a-af2b-04c48adb6edf","system_id":"levelo_inurba_marseille","lat":43.25861,"lon":5.39898,"is_reserved":false,"is_disabled":false,"rental_uris":{"android":"levelo://app?vid=87caf7c2-7cbf-450a-af2b-04c48adb6edf","ios":"levelo://app?vid=87caf7c2-7cbf-450a-af2b-04c48adb6edf"},"vehicle_type_id":"4","last_reported":1725959408,"current_range_meters":28000,"station_id":"ce4bhl92rcd13ifvqghg","pricing_plan_id":"cebpf4jnsgd1na2vs0mg"},{"bike_id":"109a1101-907d-480f-b4f1-6cd46320c406","system_id":"levelo_inurba_marseille","lat":43.30549,"lon":5.36545,"is_reserved":false,"is_disabled":false,"rental_uris":{"android":"levelo://app?vid=109a1101-907d-480f-b4f1-6cd46320c406","ios":"levelo://app?vid=109a1101-907d-480f-b4f1-6cd46320c406"},"vehicle_type_id":"4","last_reported":1725959408,"current_range_meters":22400,"station_id":"ce4bgs12rcd13ifvqcag","pricing_plan_id":"cebpf4jnsgd1na2vs0mg"},{"bike_id":"72f833ca-370e-469e-a6b2-a3b2bf6fb689","system_id":"levelo_inurba_marseille","lat":43.33764,"lon":5.37438,"is_reserved":false,"is_disabled":false,"rental_uris":{"android":"levelo://app?vid=72f833ca-370e-469e-a6b2-a3b2bf6fb689","ios":"levelo://app?vid=72f833ca-370e-469e-a6b2-a3b2bf6fb689"},"vehicle_type_id":"4","last_reported":1725959408,"current_range_meters":36400,"station_id":"","pricing_plan_id":"cebpf4jnsgd1na2vs0mg"},{"bike_id":"daf6a3ba-2164-4a27-beb4-c576906cea03","system_id":"levelo_inurba_marseille","lat":43.24998,"lon":5.38927,"is_reserved":false,"is_disabled":false,"rental_uris":{"android":"levelo://app?vid=daf6a3ba-2164-4a27-beb4-c576906cea03","ios":"levelo://app?vid=daf6a3ba-2164-4a27-beb4-c576906cea03"},"vehicle_type_id":"4","last_reported":1725959408,"current_range_meters":35200,"station_id":"ce4bhgp2rcd13ifvqfd0","pricing_plan_id":"cebpf4jnsgd1na2vs0mg"},{"bike_id":"43ada199-80a5-4f49-8427-9ab5b3366aec","system_id":"levelo_inurba_marseille","lat":43.337444,"lon":5.374475,"is_reserved":false,"is_disabled":false,"rental_uris":{"android":"levelo://app?vid=43ada199-80a5-4f49-8427-9ab5b3366aec","ios":"levelo://app?vid=43ada199-80a5-4f49-8427-9ab5b3366aec"},"vehicle_type_id":"4","last_reported":1725959408,"current_range_meters":17200,"station_id":"","pricing_plan_id":"cebpf4jnsgd1na2vs0mg"},{"bike_id":"97e6c8e4-f770-4de0-ba9b-deb2b2948e9c","system_id":"levelo_inurba_marseille","lat":43.25935,"lon":5.40904,"is_reserved":false,"is_disabled":false,"rental_uris":{"android":"levelo://app?vid=97e6c8e4-f770-4de0-ba9b-deb2b2948e9c","ios":"levelo://app?vid=97e6c8e4-f770-4de0-ba9b-deb2b2948e9c"},"vehicle_type_id":"4","last_reported":1725959408,"current_range_meters":17200,"station_id":"ce4bhm92rcd13ifvqglg","pricing_plan_id":"cebpf4jnsgd1na2vs0mg"},{"bike_id":"a56e0313-2f46-466c-b71e-0dddf2401d63","system_id":"levelo_inurba_marseille","lat":43.23051,"lon":5.35484,"is_reserved":false,"is_disabled":false,"rental_uris":{"android":"levelo://app?vid=a56e0313-2f46-466c-b71e-0dddf2401d63","ios":"levelo://app?vid=a56e0313-2f46-466c-b71e-0dddf2401d63"},"vehicle_type_id":"4","last_reported":1725959408,"current_range_meters":20800,"station_id":"cpo3342slgdg3j2ifvpg","pricing_plan_id":"cebpf4jnsgd1na2vs0mg"},{"bike_id":"b182df05-ebe1-4122-a462-3c5c0cc47e4a","system_id":"levelo_inurba_marseille","lat":43.28097,"lon":5.37842,"is_reserved":false,"is_disabled":false,"rental_uris":{"android":"levelo://app?vid=b182df05-ebe1-4122-a462-3c5c0cc47e4a","ios":"levelo://app?vid=b182df05-ebe1-4122-a462-3c5c0cc47e4a"},"vehicle_type_id":"4","last_reported":1725959408,"current_range_meters":20000,"station_id":"ce4bha12rcd13ifvqee0","pricing_plan_id":"cebpf4jnsgd1na2vs0mg"},{"bike_id":"2f66624b-8c0e-4d51-8d2d-6d9ca5e77fa9","system_id":"levelo_inurba_marseille","lat":43.304618,"lon":5.378975,"is_reserved":false,"is_disabled":false,"rental_uris":{"android":"levelo://app?vid=2f66624b-8c0e-4d51-8d2d-6d9ca5e77fa9","ios":"levelo://app?vid=2f66624b-8c0e-4d51-8d2d-6d9ca5e77fa9"},"vehicle_type_id":"4","last_reported":1725959408,"current_range_meters":26000,"station_id":"ce4bgup2rcd13ifvqcn0","pricing_plan_id":"cebpf4jnsgd1na2vs0mg"},{"bike_id":"7ea42b98-c662-4101-91d7-0ac3ed5805e7","system_id":"levelo_inurba_marseille","lat":43.29518,"lon":5.37501,"is_reserved":false,"is_disabled":false,"rental_uris":{"android":"levelo://app?vid=7ea42b98-c662-4101-91d7-0ac3ed5805e7","ios":"levelo://app?vid=7ea42b98-c662-4101-91d7-0ac3ed5805e7"},"vehicle_type_id":"4","last_reported":1725959408,"current_range_meters":11600,"station_id":"ce4bgkp2rcd13ifvqbmg","pricing_plan_id":"cebpf4jnsgd1na2vs0mg"},{"bike_id":"edcbb97f-0f6a-4ff3-b31e-93cbcd019131","system_id":"levelo_inurba_marseille","lat":43.337444,"lon":5.374475,"is_reserved":false,"is_disabled":false,"rental_uris":{"android":"levelo://app?vid=edcbb97f-0f6a-4ff3-b31e-93cbcd019131","ios":"levelo://app?vid=edcbb97f-0f6a-4ff3-b31e-93cbcd019131"},"vehicle_type_id":"4","last_reported":1725959408,"current_range_meters":26800,"station_id":"ce4bh112rcd13ifvqda0","pricing_plan_id":"cebpf4jnsgd1na2vs0mg"},{"bike_id":"1d82499c-a78f-4123-82d2-ca52e3982e4c","system_id":"levelo_inurba_marseille","lat":43.33745,"lon":5.37417,"is_reserved":false,"is_disabled":false,"rental_uris":{"android":"levelo://app?vid=1d82499c-a78f-4123-82d2-ca52e3982e4c","ios":"levelo://app?vid=1d82499c-a78f-4123-82d2-ca52e3982e4c"},"vehicle_type_id":"4","last_reported":1725959408,"current_range_meters":34000,"station_id":"","pricing_plan_id":"cebpf4jnsgd1na2vs0mg"},{"bike_id":"881c9b09-bda7-4d6c-8e25-4a653fe14830","system_id":"levelo_inurba_marseille","lat":43.23961,"lon":5.36629,"is_reserved":false,"is_disabled":false,"rental_uris":{"android":"levelo://app?vid=881c9b09-bda7-4d6c-8e25-4a653fe14830","ios":"levelo://app?vid=881c9b09-bda7-4d6c-8e25-4a653fe14830"},"vehicle_type_id":"4","last_reported":1725959408,"current_range_meters":2000,"station_id":"ce4bhi12rcd13ifvqfp0","pricing_plan_id":"cebpf4jnsgd1na2vs0mg"},