{"last_updated":1701443250,"ttl":30,"version":"2.2","data":{"bikes":[{"bike_id":"49721f5a-9181-445b-bd39-d8ff40d4d3c7","system_id":"levelo_inurba_marseille","lat":43.312239,"lon":5.368562,"is_reserved":false,"is_disabled":false,"rental_uris":{"android":"levelo://app?vid=49721f5a-9181-445b-bd39-d8ff40d4d3c7","ios":"levelo://app?vid=49721f5a-9181-445b-bd39-d8ff40d4d3c7"},"vehicle_type_id":"4","last_reported":1701443250,"current_range_meters":30400,"station_id":"ce4bgl92rcd13ifvqbq0","pricing_plan_id":"free"},{"bike_id":"01bdb905-19d1-43c9-bdb1-9718f69f28c6","system_id":"levelo_inurba_marseille","lat":43.31693,"lon":5.36738,"is_reserved":false,"is_disabled":false,"rental_uris":{"android":"levelo://app?vid=01bdb905-19d1-43c9-bdb1-9718f69f28c6","ios":"levelo://app?vid=01bdb905-19d1-43c9-bdb1-9718f69f28c6"},"vehicle_type_id":"4","last_reported":1701443250,"current_range_meters":21200,"station_id":"","pricing_plan_id":"free"},{"bike_id":"ae8bf233-ed3f-4c12-baf8-502f946603d1","system_id":"levelo_inurba_marseille","lat":43.314811,"lon":5.373104,"is_reserved":false,"is_disabled":false,"rental_uris":{"android":"levelo://app?vid=ae8bf233-ed3f-4c12-baf8-502f946603d1","ios":"levelo://app?vid=ae8bf233-ed3f-4c12-baf8-502f946603d1"},"vehicle_type_id":"4","last_reported":1701443250,"current_range_meters":12400,"station_id":"ce4bgt12rcd13ifvqcd0","pricing_plan_id":"free"},{"bike_id":"c89c3dfe-e6ca-4cbc-96f6-79c8a8baa3f6","system_id":"levelo_inurba_marseille","lat":43.30539,"lon":5.36534,"is_reserved":false,"is_disabled":false,"rental_uris":{"android":"levelo://app?vid=c89c3dfe-e6ca-4cbc-96f6-79c8a8baa3f6","ios":"levelo://app?vid=c89c3dfe-e6ca-4cbc-96f6-79c8a8baa3f6"},"vehicle_type_id":"4","last_reported":1701443250,"current_range_meters":0,"station_id":"ce4bgs12rcd13ifvqcag","pricing_plan_id":"free"},{"bike_id":"581999d5-1d9b-4a79-9a4f-ce5f54458ed2","system_id":"levelo_inurba_marseille","lat":43.30536,"lon":5.36548,"is_reserved":false,"is_disabled":false,"rental_uris":{"android":"levelo://app?vid=581999d5-1d9b-4a79-9a4f-ce5f54458ed2","ios":"levelo://app?vid=581999d5-1d9b-4a79-9a4f-ce5f54458ed2"},"vehicle_type_id":"4","last_reported":1701443250,"current_range_meters":18000,"station_id":"ce4bgs12rcd13ifvqcag","pricing_plan_id":"free"},{"bike_id":"8bbf7466-b2a3-486e-ab44-3efaba79170d","system_id":"levelo_inurba_marseille","lat":43.305989,"lon":5.37225,"is_reserved":false,"is_disabled":false,"rental_uris":{"android":"levelo://app?vid=8bbf7466-b2a3-486e-ab44-3efaba79170d","ios":"levelo://app?vid=8bbf7466-b2a3-486e-ab44-3efaba79170d"},"vehicle_type_id":"4","last_reported":1701443250,"current_range_meters":28000,"station_id":"ce4bgqh2rcd13ifvqc4g","pricing_plan_id":"free"},{"bike_id":"5a390d26-7e46-45e6-8a3b-89c5fa7ea65f","system_id":"levelo_inurba_marseille","lat":43.30604,"lon":5.3725,"is_reserved":false,"is_disabled":false,"rental_uris":{"android":"levelo://app?vid=5a390d26-7e46-45e6-8a3b-89c5fa7ea65f","ios":"levelo://app?vid=5a390d26-7e46-45e6-8a3b-89c5fa7ea65f"},"vehicle_type_id":"4","last_reported":1701443250,"current_range_meters":25600,"station_id":"ce4bgqh2rcd13ifvqc4g","pricing_plan_id":"free"},{"bike_id":"7bdbcfe9-924e-49e5-849f-fb7276f261aa","system_id":"levelo_inurba_marseille","lat":43.31048,"lon":5.37755,"is_reserved":false,"is_disabled":false,"rental_uris":{"android":"levelo://app?vid=7bdbcfe9-924e-49e5-849f-fb7276f261aa","ios":"levelo://app?vid=7bdbcfe9-924e-49e5-849f-fb7276f261aa"},"vehicle_type_id":"4","last_reported":1701443250,"current_range_meters":10400,"station_id":"","pricing_plan_id":"free"},{"bike_id":"cfefc72d-7f63-4538-a804-9fe376e48ad9","system_id":"levelo_inurba_marseille","lat":43.3111,"lon":5.3778,"is_reserved":false,"is_disabled":false,"rental_uris":{"android":"levelo://app?vid=cfefc72d-7f63-4538-a804-9fe376e48ad9","ios":"levelo://app?vid=cfefc72d-7f63-4538-a804-9fe376e48ad9"},"vehicle_type_id":"4","last_reported":1701443250,"current_range_meters":13600,"station_id":"ce4bgt92rcd13ifvqcg0","pricing_plan_id":"free"},{"bike_id":"bf3cf9c1-ae22-45c9-b792-a9d06ca34d24","system_id":"levelo_inurba_marseille","lat":43.30439,"lon":5.36753,"is_reserved":false,"is_disabled":false,"rental_uris":{"android":"levelo://app?vid=bf3cf9c1-ae22-45c9-b792-a9d06ca34d24","ios":"levelo://app?vid=bf3cf9c1-ae22-45c9-b792-a9d06ca34d24"},"vehicle_type_id":"4","last_reported":1701443250,"current_range_meters":28000,"station_id":"","pricing_plan_id":"free"},{"bike_id":"f427a2c3-6e4a-446b-ae2f-9be8aa7f4122","system_id":"levelo_inurba_marseille","lat":43.31719,"lon":5.376813,"is_reserved":false,"is_disabled":false,"rental_uris":{"android":"levelo://app?vid=f427a2c3-6e4a-446b-ae2f-9be8aa7f4122","ios":"levelo://app?vid=f427a2c3-6e4a-446b-ae2f-9be8aa7f4122"},"vehicle_type_id":"4","last_reported":1701443250,"current_range_meters":1600,"station_id":"","pricing_plan_id":"free"},{"bike_id":"e913f328-1e31-4c22-bd87-f809ea246de4","system_id":"levelo_inurba_marseille","lat":43.317168,"lon":5.376883,"is_reserved":false,"is_disabled":false,"rental_uris":{"android":"levelo://app?vid=e913f328-1e31-4c22-bd87-f809ea246de4","ios":"levelo://app?vid=e913f328-1e31-4c22-bd87-f809ea246de4"},"vehicle_type_id":"4","last_reported":1701443250,"current_range_meters":4000,"station_id":"","pricing_plan_id":"free"},{"bike_id":"38faacaf-e8d7-4ba4-bc12-89c061a5f581","system_id":"levelo_inurba_marseille","lat":43.307945,"lon":5.376487,"is_reserved":false,"is_disabled":false,"rental_uris":{"android":"levelo://app?vid=38faacaf-e8d7-4ba4-bc12-89c061a5f581","ios":"levelo://app?vid=38faacaf-e8d7-4ba4-bc12-89c061a5f581"},"vehicle_type_id":"4","last_reported":1701443250,"current_range_meters":24000,"station_id":"ce4bgv92rcd13ifvqcq0","pricing_plan_id":"free"},{"bike_id":"fb6fd937-527b-4585-9058-0dfdc6436ac8","system_id":"levelo_inurba_marseille","lat":43.313415,"lon":5.379005,"is_reserved":false,"is_disabled":false,"rental_uris":{"android":"levelo://app?vid=fb6fd937-527b-4585-9058-0dfdc6436ac8","ios":"levelo://app?vid=fb6fd937-527b-4585-9058-0dfdc6436ac8"},"vehicle_type_id":"4","last_reported":1701443250,"current_range_meters":25200,"station_id":"","pricing_plan_id":"free"},{"bike_id":"4424e131-6fff-435f-9a49-93f46fb125d5","system_id":"levelo_inurba_marseille","lat":43.317075,"lon":5.377367,"is_reserved":false,"is_disabled":false,"rental_uris":{"android":"levelo://app?vid=4424e131-6fff-435f-9a49-93f46fb125d5","ios":"levelo://app?vid=4424e131-6fff-435f-9a49-93f46fb125d5"},"vehicle_type_id":"4","last_reported":1701443250,"current_range_meters":24800,"station_id":"ce4bgth2rcd13ifvqch0","pricing_plan_id":"free"},{"bike_id":"daf3ba7e-9a9e-4fce-9266-0196ac8b6b72","system_id":"levelo_inurba_marseille","lat":43.301939,"lon":5.366286,"is_reserved":false,"is_disabled":false,"rental_uris":{"android":"levelo://app?vid=daf3ba7e-9a9e-4fce-9266-0196ac8b6b72","ios":"levelo://app?vid=daf3ba7e-9a9e-4fce-9266-0196ac8b6b72"},"vehicle_type_id":"4","last_reported":1701443250,"current_range_meters":18800,"station_id":"ce4bgrh2rcd13ifvqc8g","pricing_plan_id":"free"},{"bike_id":"19dcde97-826d-4c77-b8cf-d90ba7f775b0","system_id":"levelo_inurba_marseille","lat":43.324771,"lon":5.36557,"is_reserved":false,"is_disabled":false,"rental_uris":{"android":"levelo://app?vid=19dcde97-826d-4c77-b8cf-d90ba7f775b0","ios":"levelo://app?vid=19dcde97-826d-4c77-b8cf-d90ba7f775b0"},"vehicle_type_id":"4","last_reported":1701443250,"current_range_meters":18400,"station_id":"ce4bhs12rcd13ifvqhvg","pricing_plan_id":"free"},{"bike_id":"5448ee15-4fe1-4bb3-a771-fe0030ef3c4e","system_id":"levelo_inurba_marseille","lat":43.302784,"lon":5.377158,"is_reserved":false,"is_disabled":false,"rental_uris":{"android":"levelo://app?vid=5448ee15-4fe1-4bb3-a771-fe0030ef3c4e","ios":"levelo://app?vid=5448ee15-4fe1-4bb3-a771-fe0030ef3c4e"},"vehicle_type_id":"4","last_reported":1701443250,"current_range_meters":8400,"station_id":"ce4bguh2rcd13ifvqcj0","pricing_plan_id":"free"},{"bike_id":"2275aca5-3158-4c2c-8022-ca5d2714bc86","system_id":"levelo_inurba_marseille","lat":43.319997,"lon":5.381594,"is_reserved":false,"is_disabled":false,"rental_uris":{"android":"levelo://app?vid=2275aca5-3158-4c2c-8022-ca5d2714bc86","ios":"levelo://app?vid=2275aca5-3158-4c2c-8022-ca5d2714bc86"},"vehicle_type_id":"4","last_reported":1701443250,"current_range_meters":18800,"station_id":"ce4bhr12rcd13ifvqhpg","pricing_plan_id":"free"},{"bike_id":"4250c6d2-749d-4dd5-b59c-c4ec398a8a23","system_id":"levelo_inurba_marseille","lat":43.31993,"lon":5.38172,"is_reserved":false,"is_disabled":false,"rental_uris":{"android":"levelo://app?vid=4250c6d2-749d-4dd5-b59c-c4ec398a8a23","ios":"levelo://app?vid=4250c6d2-749d-4dd5-b59c-c4ec398a8a23"},"vehicle_type_id":"4","last_reported":1701443250,"current_range_meters":24800,"station_id":"ce4bhr12rcd13ifvqhpg","pricing_plan_id":"free"},{"bike_id":"ccdbc303-b4c4-4452-b001-acd66b3837d2","system_id":"levelo_inurba_marseille","lat":43.313571,"lon":5.384829,"is_reserved":false,"is_disabled":false,"rental_uris":{"android":"levelo://app?vid=ccdbc303-b4c4-4452-b001-acd66b3837d2","ios":"levelo://app?vid=ccdbc303-b4c4-4452-b001-acd66b3837d2"},"vehicle_type_id":"4","last_reported":1701443250,"current_range_meters":1200,"station_id":"ce4bgt92rcd13ifvqcf0","pricing_plan_id":"free"},{"bike_id":"115148d7-52a0-4210-99ad-8f19ed4f5c31","system_id":"levelo_inurba_marseille","lat":43.313571,"lon":5.384829,"is_reserved":false,"is_disabled":false,"rental_uris":{"android":"levelo://app?vid=115148d7-52a0-4210-99ad-8f19ed4f5c31","ios":"levelo://app?vid=115148d7-52a0-4210-99ad-8f19ed4f5c31"},"vehicle_type_id":"4","last_reported":1701443250,"current_range_meters":2400,"station_id":"ce4bgt92rcd13ifvqcf0","pricing_plan_id":"free"},{"bike_id":"7ec7da08-a3dd-40f3-b470-abb2386c09de","system_id":"levelo_inurba_marseille","lat":43.299222,"lon":5.365554,"is_reserved":false,"is_disabled":false,"rental_uris":{"android":"levelo://app?vid=7ec7da08-a3dd-40f3-b470-abb2386c09de","ios":"levelo://app?vid=7ec7da08-a3dd-40f3-b470-abb2386c09de"},"vehicle_type_id":"4","last_reported":1701443250,"current_range_meters":27200,"station_id":"ce4bgm92rcd13ifvqbr0","pricing_plan_id":"free"},{"bike_id":"c7293d50-5e7d-4ef6-9c11-eaf455a44932","system_id":"levelo_inurba_marseille","lat":43.299724,"lon":5.371829,"is_reserved":false,"is_disabled":false,"rental_uris":{"android":"levelo://app?vid=c7293d50-5e7d-4ef6-9c11-eaf455a44932","ios":"levelo://app?vid=c7293d50-5e7d-4ef6-9c11-eaf455a44932"},"vehicle_type_id":"4","last_reported":1701443250,"current_range_meters":20000,"station_id":"ce4bgr92rcd13ifvqc7g","pricing_plan_id":"free"},{"bike_id":"748d12ab-8e09-4ecd-b2d2-cbe0ea9624f6","system_id":"levelo_inurba_marseille","lat":43.298473,"lon":5.367601,"is_reserved":false,"is_disabled":false,"rental_uris":{"android":"levelo://app?vid=748d12ab-8e09-4ecd-b2d2-cbe0ea9624f6","ios":"levelo://app?vid=748d12ab-8e09-4ecd-b2d2-cbe0ea9624f6"},"vehicle_type_id":"4","last_reported":1701443250,"current_range_meters":10400,"station_id":"","pricing_plan_id":"free"},{"bike_id":"b513b7c9-3414-452e-ba04-1e652a9b0d75","system_id":"levelo_inurba_marseille","lat":43.305364,"lon":5.384119,"is_reserved":false,"is_disabled":false,"rental_uris":{"android":"levelo://app?vid=b513b7c9-3414-452e-ba04-1e652a9b0d75","ios":"levelo://app?vid=b513b7c9-3414-452e-ba04-1e652a9b0d75"},"vehicle_type_id":"4","last_reported":1701443250,"current_range_meters":23200,"station_id":"ce4bgg92rcd13ifvqb30","pricing_plan_id":"free"},{"bike_id":"53dfd21b-b5f1-4a08-97d5-9e6ee0714477","system_id":"levelo_inurba_marseille","lat":43.299243,"lon":5.37481,"is_reserved":false,"is_disabled":false,"rental_uris":{"android":"levelo://app?vid=53dfd21b-b5f1-4a08-97d5-9e6ee0714477","ios":"levelo://app?vid=53dfd21b-b5f1-4a08-97d5-9e6ee0714477"},"vehicle_type_id":"4","last_reported":1701443250,"current_range_meters":24800,"station_id":"ce4bgjh2rcd13ifvqbg0","pricing_plan_id":"free"},{"bike_id":"2d3c06c8-9f7d-41dd-a3a4-0644a73191c5","system_id":"levelo_inurba_marseille","lat":43.311722,"lon":5.387247,"is_reserved":false,"is_disabled":false,"rental_uris":{"android":"levelo://app?vid=2d3c06c8-9f7d-41dd-a3a4-0644a73191c5","ios":"levelo://app?vid=2d3c06c8-9f7d-41dd-a3a4-0644a73191c5"},"vehicle_type_id":"4","last_reported":1701443250,"current_range_meters":12400,"station_id":"ce4bgv12rcd13ifvqcp0","pricing_plan_id":"free"},{"bike_id":"a7cd1e8a-185c-4bd5-a2ec-e4d20c7fb334","system_id":"levelo_inurba_marseille","lat":43.299243,"lon":5.37481,"is_reserved":false,"is_disabled":false,"rental_uris":{"android":"levelo://app?vid=a7cd1e8a-185c-4bd5-a2ec-e4d20c7fb334","ios":"levelo://app?vid=a7cd1e8a-185c-4bd5-a2ec-e4d20c7fb334"},"vehicle_type_id":"4","last_reported":1701443250,"current_range_meters":16000,"station_id":"ce4bgjh2rcd13ifvqbg0","pricing_plan_id":"free"},{"bike_id":"044199e5-3443-4984-b151-477a87db8a3e","system_id":"levelo_inurba_marseille","lat":43.3281,"lon":5.3668,"is_reserved":false,"is_disabled":false,"rental_uris":{"android":"levelo://app?vid=044199e5-3443-4984-b151-477a87db8a3e","ios":"levelo://app?vid=044199e5-3443-4984-b151-477a87db8a3e"},"vehicle_type_id":"4","last_reported":1701443250,"current_range_meters":28400,"station_id":"ce4bhs92rcd13ifvqi0g","pricing_plan_id":"free"},{"bike_id":"65073be3-64d5-4947-9113-fd11101b78dd","system_id":"levelo_inurba_marseille","lat":43.322872,"lon":5.382756,"is_reserved":false,"is_disabled":false,"rental_uris":{"android":"levelo://app?vid=65073be3-64d5-4947-9113-fd11101b78dd","ios":"levelo://app?vid=65073be3-64d5-4947-9113-fd11101b78dd"},"vehicle_type_id":"4","last_reported":1701443250,"current_range_meters":12400,"station_id":"ce4bhr12rcd13ifvqhqg","pricing_plan_id":"free"},{"bike_id":"3030ed07-200c-4d57-9d38-479b6dffddb9","system_id":"levelo_inurba_marseille","lat":43.3282,"lon":5.36694,"is_reserved":false,"is_disabled":false,"rental_uris":{"android":"levelo://app?vid=3030ed07-200c-4d57-9d38-479b6dffddb9","ios":"levelo://app?vid=3030ed07-200c-4d57-9d38-479b6dffddb9"},"vehicle_type_id":"4","last_reported":1701443250,"current_range_meters":26800,"station_id":"ce4bhs92rcd13ifvqi0g","pricing_plan_id":"free"},{"bike_id":"38b36a3d-7fa0-425f-884d-37f0109ceebf","system_id":"levelo_inurba_marseille","lat":43.32827,"lon":5.36691,"is_reserved":false,"is_disabled":false,"rental_uris":{"android":"levelo://app?vid=38b36a3d-7fa0-425f-884d-37f0109ceebf","ios":"levelo://app?vid=38b36a3d-7fa0-425f-884d-37f0109ceebf"},"vehicle_type_id":"4","last_reported":1701443250,"current_range_meters":17200,"station_id":"ce4bhs92rcd13ifvqi0g","pricing_plan_id":"free"},{"bike_id":"b79c00e9-2e26-4f63-a6b2-e6d49a437cf5","system_id":"levelo_inurba_marseille","lat":43.328371,"lon":5.366909,"is_reserved":false,"is_disabled":false,"rental_uris":{"android":"levelo://app?vid=b79c00e9-2e26-4f63-a6b2-e6d49a437cf5","ios":"levelo://app?vid=b79c00e9-2e26-4f63-a6b2-e6d49a437cf5"},"vehicle_type_id":"4","last_reported":1701443250,"current_range_meters":8800,"station_id":"ce4bhs92rcd13ifvqi0g","pricing_plan_id":"free"},{"bike_id":"eaa0e7e7-2390-47fa-909b-7b240952cbef","system_id":"levelo_inurba_marseille","lat":43.315371,"lon":5.388159,"is_reserved":false,"is_disabled":false,"rental_uris":{"android":"levelo://app?vid=eaa0e7e7-2390-47fa-909b-7b240952cbef","ios":"levelo://app?vid=eaa0e7e7-2390-47fa-909b-7b240952cbef"},"vehicle_type_id":"4","last_reported":1701443250,"current_range_meters":18800,"station_id":"","pricing_plan_id":"free"},{"bike_id":"5983625d-69f5-485f-a399-daec2999c965","system_id":"levelo_inurba_marseille","lat":43.321515,"lon":5.385721,"is_reserved":false,"is_disabled":false,"rental_uris":{"android":"levelo://app?vid=5983625d-69f5-485f-a399-daec2999c965","ios":"levelo://app?vid=5983625d-69f5-485f-a399-daec2999c965"},"vehicle_type_id":"4","last_reported":1701443250,"current_range_meters":6000,"station_id":"","pricing_plan_id":"free"},{"bike_id":"3913932d-655e-47ea-a13e-4116f8947368","system_id":"levelo_inurba_marseille","lat":43.2968,"lon":5.37291,"is_reserved":false,"is_disabled":false,"rental_uris":{"android":"levelo://app?vid=3913932d-655e-47ea-a13e-4116f8947368","ios":"levelo://app?vid=3913932d-655e-47ea-a13e-4116f8947368"},"vehicle_type_id":"4","last_reported":1701443250,"current_range_meters":8400,"station_id":"ce4bgk12rcd13ifvqbj0","pricing_plan_id":"free"},{"bike_id":"d068864e-3768-4cb7-8f2c-e01febcf4d60","system_id":"levelo_inurba_marseille","lat":43.296187,"lon":5.365283,"is_reserved":false,"is_disabled":false,"rental_uris":{"android":"levelo://app?vid=d068864e-3768-4cb7-8f2c-e01febcf4d60","ios":"levelo://app?vid=d068864e-3768-4cb7-8f2c-e01febcf4d60"},"vehicle_type_id":"4","last_reported":1701443250,"current_range_meters":7200,"station_id":"","pricing_plan_id":"free"},{"bike_id":"d7bbd4f4-518d-4dc8-9b43-b57004e95000","system_id":"levelo_inurba_marseille","lat":43.296935,"lon":5.376544,"is_reserved":false,"is_disabled":false,"rental_uris":{"android":"levelo://app?vid=d7bbd4f4-518d-4dc8-9b43-b57004e95000","ios":"levelo://app?vid=d7bbd4f4-518d-4dc8-9b43-b57004e95000"},"vehicle_type_id":"4","last_reported":1701443250,"current_range_meters":7200,"station_id":"ce4bgkh2rcd13ifvqbl0","pricing_plan_id":"free"},{"bike_id":"a10bae6c-5b0e-4849-96db-5611254488a4","system_id":"levelo_inurba_marseille","lat":43.309589,"lon":5.390258,"is_reserved":false,"is_disabled":false,"rental_uris":{"android":"levelo://app?vid=a10bae6c-5b0e-4849-96db-5611254488a4","ios":"levelo://app?vid=a10bae6c-5b0e-4849-96db-5611254488a4"},"vehicle_type_id":"4","last_reported":1701443250,"current_range_meters":16400,"station_id":"ce4bgup2rcd13ifvqco0","pricing_plan_id":"free"},{"bike_id":"ec985be4-7232-42d0-8f80-5faa332763f0","system_id":"levelo_inurba_marseille","lat":43.29578,"lon":5.37512,"is_reserved":false,"is_disabled":false,"rental_uris":{"android":"levelo://app?vid=ec985be4-7232-42d0-8f80-5faa332763f0","ios":"levelo://app?vid=ec985be4-7232-42d0-8f80-5faa332763f0"},"vehicle_type_id":"4","last_reported":1701443250,"current_range_meters":0,"station_id":"ce4bgh92rcd13ifvqb50","pricing_plan_id":"free"},{"bike_id":"952939cb-d2d9-4daf-a558-619bfc6656be","system_id":"levelo_inurba_marseille","lat":43.323685,"lon":5.38883,"is_reserved":false,"is_disabled":false,"rental_uris":{"android":"levelo://app?vid=952939cb-d2d9-4daf-a558-619bfc6656be","ios":"levelo://app?vid=952939cb-d2d9-4daf-a558-619bfc6656be"},"vehicle_type_id":"4","last_reported":1701443250,"current_range_meters":12000,"station_id":"ce4bhqp2rcd13ifvqhog","pricing_plan_id":"free"},{"bike_id":"81c81765-686e-4ef8-8ba0-60d7276501a3","system_id":"levelo_inurba_marseille","lat":43.32366,"lon":5.38888,"is_reserved":false,"is_disabled":false,"rental_uris":{"android":"levelo://app?vid=81c81765-686e-4ef8-8ba0-60d7276501a3","ios":"levelo://app?vid=81c81765-686e-4ef8-8ba0-60d7276501a3"},"vehicle_type_id":"4","last_reported":1701443250,"current_range_meters":26000,"station_id":"ce4bhqp2rcd13ifvqhog","pricing_plan_id":"free"},{"bike_id":"a008b22d-7374-4826-abdc-de825f493215","system_id":"levelo_inurba_marseille","lat":43.29602,"lon":5.381084,"is_reserved":false,"is_disabled":false,"rental_uris":{"android":"levelo://app?vid=a008b22d-7374-4826-abdc-de825f493215","ios":"levelo://app?vid=a008b22d-7374-4826-abdc-de825f493215"},"vehicle_type_id":"4","last_reported":1701443250,"current_range_meters":28800,"station_id":"ce4bgl12rcd13ifvqbo0","pricing_plan_id":"free"},{"bike_id":"d5aa917d-67ad-4ba3-b064-95d0f873e077","system_id":"levelo_inurba_marseille","lat":43.293259,"lon":5.371586,"is_reserved":false,"is_disabled":false,"rental_uris":{"android":"levelo://app?vid=d5aa917d-67ad-4ba3-b064-95d0f873e077","ios":"levelo://app?vid=d5aa917d-67ad-4ba3-b064-95d0f873e077"},"vehicle_type_id":"4","last_reported":1701443250,"current_range_meters":24400,"station_id":"ce4bgh92rcd13ifvqb40","pricing_plan_id":"free"},{"bike_id":"4d68df9b-f58f-472d-98a7-cc8545fa04c7","system_id":"levelo_inurba_marseille","lat":43.293259,"lon":5.371586,"is_reserved":false,"is_disabled":false,"rental_uris":{"android":"levelo://app?vid=4d68df9b-f58f-472d-98a7-cc8545fa04c7","ios":"levelo://app?vid=4d68df9b-f58f-472d-98a7-cc8545fa04c7"},"vehicle_type_id":"4","last_reported":1701443250,"current_range_meters":9200,"station_id":"ce4bgh92rcd13ifvqb40","pricing_plan_id":"free"},{"bike_id":"ff6e6534-45e5-415d-b60c-3642792e420f","system_id":"levelo_inurba_marseille","lat":43.292749,"lon":5.368402,"is_reserved":false,"is_disabled":false,"rental_uris":{"android":"levelo://app?vid=ff6e6534-45e5-415d-b60c-3642792e420f","ios":"levelo://app?vid=ff6e6534-45e5-415d-b60c-3642792e420f"},"vehicle_type_id":"4","last_reported":1701443250,"current_range_meters":13200,"station_id":"ce4bhbp2rcd13ifvqesg","pricing_plan_id":"free"},{"bike_id":"a09d197c-84e7-444f-b0ef-0104ecf752c2","system_id":"levelo_inurba_marseille","lat":43.293009,"lon":5.374584,"is_reserved":false,"is_disabled":false,"rental_uris":{"android":"levelo://app?vid=a09d197c-84e7-444f-b0ef-0104ecf752c2","ios":"levelo://app?vid=a09d197c-84e7-444f-b0ef-0104ecf752c2"},"vehicle_type_id":"4","last_reported":1701443250,"current_range_meters":18000,"station_id":"ce4bgi12rcd13ifvqb70","pricing_plan_id":"free"},{"bike_id":"f269d7b3-263a-493f-b29a-577c318b28bb","system_id":"levelo_inurba_marseille","lat":43.293009,"lon":5.374584,"is_reserved":false,"is_disabled":false,"rental_uris":{"android":"levelo://app?vid=f269d7b3-263a-493f-b29a-577c318b28bb","ios":"levelo://app?vid=f269d7b3-263a-493f-b29a-577c318b28bb"},"vehicle_type_id":"4","last_reported":1701443250,"current_range_meters":20800,"station_id":"ce4bgi12rcd13ifvqb70","pricing_plan_id":"free"},{"bike_id":"28e14794-6d34-4473-b180-861ab332e743","system_id":"levelo_inurba_marseille","lat":43.303002,"lon":5.392142,"is_reserved":false,"is_disabled":false,"rental_uris":{"android":"levelo://app?vid=28e14794-6d34-4473-b180-861ab332e743","ios":"levelo://app?vid=28e14794-6d34-4473-b180-861ab332e743"},"vehicle_type_id":"4","last_reported":1701443250,"current_range_meters":800,"station_id":"ce4bgkh2rcd13ifvqbk0","pricing_plan_id":"free"},{"bike_id":"8eab1f1b-dbbe-4a46-b010-e16f711e563b","system_id":"levelo_inurba_marseille","lat":43.291671,"lon":5.371575,"is_reserved":false,"is_disabled":false,"rental_uris":{"android":"levelo://app?vid=8eab1f1b-dbbe-4a46-b010-e16f711e563b","ios":"levelo://app?vid=8eab1f1b-dbbe-4a46-b010-e16f711e563b"},"vehicle_type_id":"4","last_reported":1701443250,"current_range_meters":25200,"station_id":"ce4bha92rcd13ifvqeh0","pricing_plan_id":"free"},{"bike_id":"e06aaf7a-33f5-48eb-96b0-947093ef6dfb","system_id":"levelo_inurba_marseille","lat":43.291675,"lon":5.371583,"is_reserved":false,"is_disabled":false,"rental_uris":{"android":"levelo://app?vid=e06aaf7a-33f5-48eb-96b0-947093ef6dfb","ios":"levelo://app?vid=e06aaf7a-33f5-48eb-96b0-947093ef6dfb"},"vehicle_type_id":"4","last_reported":1701443250,"current_range_meters":6400,"station_id":"ce4bha92rcd13ifvqeh0","pricing_plan_id":"free"},{"bike_id":"82c63f44-44ed-4581-8e9a-224d66c06c05","system_id":"levelo_inurba_marseille","lat":43.309038,"lon":5.396546,"is_reserved":false,"is_disabled":false,"rental_uris":{"android":"levelo://app?vid=82c63f44-44ed-4581-8e9a-224d66c06c05","ios":"levelo://app?vid=82c63f44-44ed-4581-8e9a-224d66c06c05"},"vehicle_type_id":"4","last_reported":1701443250,"current_range_meters":800,"station_id":"ce4bh012rcd13ifvqcv0","pricing_plan_id":"free"},{"bike_id":"710f4165-d037-4778-a68d-060f23c9b0ee","system_id":"levelo_inurba_marseille","lat":43.29529,"lon":5.385581,"is_reserved":false,"is_disabled":false,"rental_uris":{"android":"levelo://app?vid=710f4165-d037-4778-a68d-060f23c9b0ee","ios":"levelo://app?vid=710f4165-d037-4778-a68d-060f23c9b0ee"},"vehicle_type_id":"4","last_reported":1701443250,"current_range_meters":23600,"station_id":"ce4bgih2rcd13ifvqba0","pricing_plan_id":"free"},{"bike_id":"5d092445-683f-437c-8acf-664d814cbd3f","system_id":"levelo_inurba_marseille","lat":43.29529,"lon":5.385581,"is_reserved":false,"is_disabled":false,"rental_uris":{"android":"levelo://app?vid=5d092445-683f-437c-8acf-664d814cbd3f","ios":"levelo://app?vid=5d092445-683f-437c-8acf-664d814cbd3f"},"vehicle_type_id":"4","last_reported":1701443250,"current_range_meters":26000,"station_id":"ce4bgih2rcd13ifvqba0","pricing_plan_id":"free"},{"bike_id":"322284b5-9de7-41b2-b6cb-6d30a38e9f44","system_id":"levelo_inurba_marseille","lat":43.290779,"lon":5.371482,"is_reserved":false,"is_disabled":false,"rental_uris":{"android":"levelo://app?vid=322284b5-9de7-41b2-b6cb-6d30a38e9f44","ios":"levelo://app?vid=322284b5-9de7-41b2-b6cb-6d30a38e9f44"},"vehicle_type_id":"4","last_reported":1701443250,"current_range_meters":12400,"station_id":"ce4bh5p2rcd13ifvqe4g","pricing_plan_id":"free"},{"bike_id":"13bb6d85-68aa-47f0-970b-d399d18224f6","system_id":"levelo_inurba_marseille","lat":43.290615,"lon":5.37158,"is_reserved":false,"is_disabled":false,"rental_uris":{"android":"levelo://app?vid=13bb6d85-68aa-47f0-970b-d399d18224f6","ios":"levelo://app?vid=13bb6d85-68aa-47f0-970b-d399d18224f6"},"vehicle_type_id":"4","last_reported":1701443250,"current_range_meters":2800,"station_id":"ce4bh5p2rcd13ifvqe4g","pricing_plan_id":"free"},{"bike_id":"a5528366-e6da-44e9-8228-e15cdc0ab3cb","system_id":"levelo_inurba_marseille","lat":43.292644,"lon":5.384257,"is_reserved":false,"is_disabled":false,"rental_uris":{"android":"levelo://app?vid=a5528366-e6da-44e9-8228-e15cdc0ab3cb","ios":"levelo://app?vid=a5528366-e6da-44e9-8228-e15cdc0ab3cb"},"vehicle_type_id":"4","last_reported":1701443250,"current_range_meters":30000,"station_id":"ce4bh692rcd13ifvqea0","pricing_plan_id":"free"},{"bike_id":"85d952ec-0a8d-4798-ba37-be00bb918a16","system_id":"levelo_inurba_marseille","lat":43.292642,"lon":5.384254,"is_reserved":false,"is_disabled":false,"rental_uris":{"android":"levelo://app?vid=85d952ec-0a8d-4798-ba37-be00bb918a16","ios":"levelo://app?vid=85d952ec-0a8d-4798-ba37-be00bb918a16"},"vehicle_type_id":"4","last_reported":1701443250,"current_range_meters":29200,"station_id":"ce4bh692rcd13ifvqea0","pricing_plan_id":"free"},{"bike_id":"b83feedd-4475-4ef5-b2fb-0ff018fd1d63","system_id":"levelo_inurba_marseille","lat":43.292644,"lon":5.384257,"is_reserved":false,"is_disabled":false,"rental_uris":{"android":"levelo://app?vid=b83feedd-4475-4ef5-b2fb-0ff018fd1d63","ios":"levelo://app?vid=b83feedd-4475-4ef5-b2fb-0ff018fd1d63"},"vehicle_type_id":"4","last_reported":1701443250,"current_range_meters":8800,"station_id":"ce4bh692rcd13ifvqea0","pricing_plan_id":"free"},{"bike_id":"08dbfbba-4534-451d-acc4-15f8f58f689f","system_id":"levelo_inurba_marseille","lat":43.290104,"lon":5.356111,"is_reserved":false,"is_disabled":false,"rental_uris":{"android":"levelo://app?vid=08dbfbba-4534-451d-acc4-15f8f58f689f","ios":"levelo://app?vid=08dbfbba-4534-451d-acc4-15f8f58f689f"},"vehicle_type_id":"4","last_reported":1701443250,"current_range_meters":2800,"station_id":"ce4bhb92rcd13ifvqen0","pricing_plan_id":"free"},{"bike_id":"f8e5615c-b83c-4a3e-8c71-c2c9638694f9","system_id":"levelo_inurba_marseille","lat":43.290104,"lon":5.356111,"is_reserved":false,"is_disabled":false,"rental_uris":{"android":"levelo://app?vid=f8e5615c-b83c-4a3e-8c71-c2c9638694f9","ios":"levelo://app?vid=f8e5615c-b83c-4a3e-8c71-c2c9638694f9"},"vehicle_type_id":"4","last_reported":1701443250,"current_range_meters":0,"station_id":"ce4bhb92rcd13ifvqen0","pricing_plan_id":"free"},{"bike_id":"fdc2fc9e-2f29-4c49-bcea-7a560d4446be","system_id":"levelo_inurba_marseille","lat":43.330526,"lon":5.390596,"is_reserved":false,"is_disabled":false,"rental_uris":{"android":"levelo://app?vid=fdc2fc9e-2f29-4c49-bcea-7a560d4446be","ios":"levelo://app?vid=fdc2fc9e-2f29-4c49-bcea-7a560d4446be"},"vehicle_type_id":"4","last_reported":1701443250,"current_range_meters":12800,"station_id":"","pricing_plan_id":"free"},{"bike_id":"54f10c1d-64b2-426f-ad9f-a0d190aad68c","system_id":"levelo_inurba_marseille","lat":43.2952,"lon":5.39094,"is_reserved":false,"is_disabled":false,"rental_uris":{"android":"levelo://app?vid=54f10c1d-64b2-426f-ad9f-a0d190aad68c","ios":"levelo://app?vid=54f10c1d-64b2-426f-ad9f-a0d190aad68c"},"vehicle_type_id":"4","last_reported":1701443250,"current_range_meters":24400,"station_id":"ce4bh3p2rcd13ifvqdp0","pricing_plan_id":"free"},{"bike_id":"f71bec80-1512-44cd-95d2-3d7fdee5df30","system_id":"levelo_inurba_marseille","lat":43.33057,"lon":5.39055,"is_reserved":false,"is_disabled":false,"rental_uris":{"android":"levelo://app?vid=f71bec80-1512-44cd-95d2-3d7fdee5df30","ios":"levelo://app?vid=f71bec80-1512-44cd-95d2-3d7fdee5df30"},"vehicle_type_id":"4","last_reported":1701443250,"current_range_meters":15600,"station_id":"","pricing_plan_id":"free"},{"bike_id":"1b6aa3ec-60db-44b9-865c-8e0f3068a5b1","system_id":"levelo_inurba_marseille","lat":43.288601,"lon":5.358674,"is_reserved":false,"is_disabled":false,"rental_uris":{"android":"levelo://app?vid=1b6aa3ec-60db-44b9-865c-8e0f3068a5b1","ios":"levelo://app?vid=1b6aa3ec-60db-44b9-865c-8e0f3068a5b1"},"vehicle_type_id":"4","last_reported":1701443250,"current_range_meters":0,"station_id":"ce4bhb12rcd13ifvqem0","pricing_plan_id":"free"},{"bike_id":"d6f45f16-dec9-43f2-aa48-6d10bb9b9741","system_id":"levelo_inurba_marseille","lat":43.293355,"lon":5.388667,"is_reserved":false,"is_disabled":false,"rental_uris":{"android":"levelo://app?vid=d6f45f16-dec9-43f2-aa48-6d10bb9b9741","ios":"levelo://app?vid=d6f45f16-dec9-43f2-aa48-6d10bb9b9741"},"vehicle_type_id":"4","last_reported":1701443250,"current_range_meters":0,"station_id":"","pricing_plan_id":"free"},{"bike_id":"94907f9a-2d73-4196-93bb-c5df451ea335","system_id":"levelo_inurba_marseille","lat":43.33758,"lon":5.37448,"is_reserved":false,"is_disabled":false,"rental_uris":{"android":"levelo://app?vid=94907f9a-2d73-4196-93bb-c5df451ea335","ios":"levelo://app?vid=94907f9a-2d73-4196-93bb-c5df451ea335"},"vehicle_type_id":"4","last_reported":1701443250,"current_range_meters":24400,"station_id":"","pricing_plan_id":"free"},{"bike_id":"2c42d540-8256-417d-bd6a-3409c7c26682","system_id":"levelo_inurba_marseille","lat":43.3376,"lon":5.37462,"is_reserved":false,"is_disabled":false,"rental_uris":{"android":"levelo://app?vid=2c42d540-8256-417d-bd6a-3409c7c26682","ios":"levelo://app?vid=2c42d540-8256-417d-bd6a-3409c7c26682"},"vehicle_type_id":"4","last_reported":1701443250,"current_range_meters":29600,"station_id":"","pricing_plan_id":"free"},{"bike_id":"29bfedc8-d241-4f3e-9def-e2bdcf29e4d9","system_id":"levelo_inurba_marseille","lat":43.286591,"lon":5.363346,"is_reserved":false,"is_disabled":false,"rental_uris":{"android":"levelo://app?vid=29bfedc8-d241-4f3e-9def-e2bdcf29e4d9","ios":"levelo://app?vid=29bfedc8-d241-4f3e-9def-e2bdcf29e4d9"},"vehicle_type_id":"4","last_reported":1701443250,"current_range_meters":21200,"station_id":"ce4bhah2rcd13ifvqej0","pricing_plan_id":"free"},{"bike_id":"1ab75806-7e49-45a5-9c83-9ef33ffdfc35","system_id":"levelo_inurba_marseille","lat":43.298681,"lon":5.397225,"is_reserved":false,"is_disabled":false,"rental_uris":{"android":"levelo://app?vid=1ab75806-7e49-45a5-9c83-9ef33ffdfc35","ios":"levelo://app?vid=1ab75806-7e49-45a5-9c83-9ef33ffdfc35"},"vehicle_type_id":"4","last_reported":1701443250,"current_range_meters":9200,"station_id":"ce4bh0h2rcd13ifvqd50","pricing_plan_id":"free"},{"bike_id":"36732f4e-09ba-4e71-8a17-33a540ba7981","system_id":"levelo_inurba_marseille","lat":43.290303,"lon":5.38648,"is_reserved":false,"is_disabled":false,"rental_uris":{"android":"levelo://app?vid=36732f4e-09ba-4e71-8a17-33a540ba7981","ios":"levelo://app?vid=36732f4e-09ba-4e71-8a17-33a540ba7981"},"vehicle_type_id":"4","last_reported":1701443250,"current_range_meters":20800,"station_id":"","pricing_plan_id":"free"},{"bike_id":"888a61e1-0eba-4525-bd7b-3db928d4ca23","system_id":"levelo_inurba_marseille","lat":43.286039,"lon":5.370681,"is_reserved":false,"is_disabled":false,"rental_uris":{"android":"levelo://app?vid=888a61e1-0eba-4525-bd7b-3db928d4ca23","ios":"levelo://app?vid=888a61e1-0eba-4525-bd7b-3db928d4ca23"},"vehicle_type_id":"4","last_reported":1701443250,"current_range_meters":2400,"station_id":"ce4bht12rcd13ifvqi60","pricing_plan_id":"free"},{"bike_id":"6ec219dd-e2f0-43e6-97be-b9ed2327cf64","system_id":"levelo_inurba_marseille","lat":43.286039,"lon":5.370679,"is_reserved":false,"is_disabled":false,"rental_uris":{"android":"levelo://app?vid=6ec219dd-e2f0-43e6-97be-b9ed2327cf64","ios":"levelo://app?vid=6ec219dd-e2f0-43e6-97be-b9ed2327cf64"},"vehicle_type_id":"4","last_reported":1701443250,"current_range_meters":20400,"station_id":"ce4bht12rcd13ifvqi60","pricing_plan_id":"free"},{"bike_id":"51e80092-f709-463a-96a2-8b25587b914d","system_id":"levelo_inurba_marseille","lat":43.286039,"lon":5.370681,"is_reserved":false,"is_disabled":false,"rental_uris":{"android":"levelo://app?vid=51e80092-f709-463a-96a2-8b25587b914d","ios":"levelo://app?vid=51e80092-f709-463a-96a2-8b25587b914d"},"vehicle_type_id":"4","last_reported":1701443250,"current_range_meters":28400,"station_id":"ce4bht12rcd13ifvqi60","pricing_plan_id":"free"},{"bike_id":"79acb073-3d58-4685-87fb-d2c270dcf856","system_id":"levelo_inurba_marseille","lat":43.287184,"lon":5.37937,"is_reserved":false,"is_disabled":false,"rental_uris":{"android":"levelo://app?vid=79acb073-3d58-4685-87fb-d2c270dcf856","ios":"levelo://app?vid=79acb073-3d58-4685-87fb-d2c270dcf856"},"vehicle_type_id":"4","last_reported":1701443250,"current_range_meters":0,"station_id":"ce4bh9p2rcd13ifvqec0","pricing_plan_id":"free"},{"bike_id":"6a2ab72a-2b9b-4c42-8de0-605b1de64ced","system_id":"levelo_inurba_marseille","lat":43.284538,"lon":5.358657,"is_reserved":false,"is_disabled":false,"rental_uris":{"android":"levelo://app?vid=6a2ab72a-2b9b-4c42-8de0-605b1de64ced","ios":"levelo://app?vid=6a2ab72a-2b9b-4c42-8de0-605b1de64ced"},"vehicle_type_id":"4","last_reported":1701443250,"current_range_meters":4000,"station_id":"ce4bhah2rcd13ifvqei0","pricing_plan_id":"free"},{"bike_id":"9c17a87d-d666-4eea-8912-e00e8acb08d3","system_id":"levelo_inurba_marseille","lat":43.284538,"lon":5.358657,"is_reserved":false,"is_disabled":false,"rental_uris":{"android":"levelo://app?vid=9c17a87d-d666-4eea-8912-e00e8acb08d3","ios":"levelo://app?vid=9c17a87d-d666-4eea-8912-e00e8acb08d3"},"vehicle_type_id":"4","last_reported":1701443250,"current_range_meters":10800,"station_id":"ce4bhah2rcd13ifvqei0","pricing_plan_id":"free"},{"bike_id":"d46a7596-065d-4902-835d-3649f1b4134b","system_id":"levelo_inurba_marseille","lat":43.294314,"lon":5.397498,"is_reserved":false,"is_disabled":false,"rental_uris":{"android":"levelo://app?vid=d46a7596-065d-4902-835d-3649f1b4134b","ios":"levelo://app?vid=d46a7596-065d-4902-835d-3649f1b4134b"},"vehicle_type_id":"4","last_reported":1701443250,"current_range_meters":31600,"station_id":"ce4bh3h2rcd13ifvqdo0","pricing_plan_id":"free"},{"bike_id":"817b958f-805d-442a-a6ea-334d011248fd","system_id":"levelo_inurba_marseille","lat":43.284538,"lon":5.358657,"is_reserved":false,"is_disabled":false,"rental_uris":{"android":"levelo://app?vid=817b958f-805d-442a-a6ea-334d011248fd","ios":"levelo://app?vid=817b958f-805d-442a-a6ea-334d011248fd"},"vehicle_type_id":"4","last_reported":1701443250,"current_range_meters":30000,"station_id":"ce4bhah2rcd13ifvqei0","pricing_plan_id":"free"},{"bike_id":"7aa48501-245f-4b99-a784-89bd91ec1e23","system_id":"levelo_inurba_marseille","lat":43.284538,"lon":5.358657,"is_reserved":false,"is_disabled":false,"rental_uris":{"android":"levelo://app?vid=7aa48501-245f-4b99-a784-89bd91ec1e23","ios":"levelo://app?vid=7aa48501-245f-4b99-a784-89bd91ec1e23"},"vehicle_type_id":"4","last_reported":1701443250,"current_range_meters":31600,"station_id":"ce4bhah2rcd13ifvqei0","pricing_plan_id":"free"},{"bike_id":"85814b88-95df-4cbc-b304-2582be4b3bc0","system_id":"levelo_inurba_marseille","lat":43.294314,"lon":5.397498,"is_reserved":false,"is_disabled":false,"rental_uris":{"android":"levelo://app?vid=85814b88-95df-4cbc-b304-2582be4b3bc0","ios":"levelo://app?vid=85814b88-95df-4cbc-b304-2582be4b3bc0"},"vehicle_type_id":"4","last_reported":1701443250,"current_range_meters":18400,"station_id":"ce4bh3h2rcd13ifvqdo0","pricing_plan_id":"free"},{"bike_id":"7e449df7-1725-4fd3-a720-bcf4e080d4cd","system_id":"levelo_inurba_marseille","lat":43.295713,"lon":5.399639,"is_reserved":false,"is_disabled":false,"rental_uris":{"android":"levelo://app?vid=7e449df7-1725-4fd3-a720-bcf4e080d4cd","ios":"levelo://app?vid=7e449df7-1725-4fd3-a720-bcf4e080d4cd"},"vehicle_type_id":"4","last_reported":1701443250,"current_range_meters":8800,"station_id":"ce4bh312rcd13ifvqdj0","pricing_plan_id":"free"},{"bike_id":"c0cd9ab3-bd90-4ad4-80c5-ba459a2dc580","system_id":"levelo_inurba_marseille","lat":43.286595,"lon":5.386795,"is_reserved":false,"is_disabled":false,"rental_uris":{"android":"levelo://app?vid=c0cd9ab3-bd90-4ad4-80c5-ba459a2dc580","ios":"levelo://app?vid=c0cd9ab3-bd90-4ad4-80c5-ba459a2dc580"},"vehicle_type_id":"4","last_reported":1701443250,"current_range_meters":26800,"station_id":"ce4bh492rcd13ifvqdug","pricing_plan_id":"free"},{"bike_id":"f99fc4d8-709b-4cee-a32c-2cdd6f1e8b1e","system_id":"levelo_inurba_marseille","lat":43.337168,"lon":5.391825,"is_reserved":false,"is_disabled":false,"rental_uris":{"android":"levelo://app?vid=f99fc4d8-709b-4cee-a32c-2cdd6f1e8b1e","ios":"levelo://app?vid=f99fc4d8-709b-4cee-a32c-2cdd6f1e8b1e"},"vehicle_type_id":"4","last_reported":1701443250,"current_range_meters":23600,"station_id":"ce4bhr92rcd13ifvqhsg","pricing_plan_id":"free"},{"bike_id":"c9d0918b-7aaf-4b45-81e2-90c4d96edfe3","system_id":"levelo_inurba_marseille","lat":43.28357,"lon":5.38119,"is_reserved":false,"is_disabled":false,"rental_uris":{"android":"levelo://app?vid=c9d0918b-7aaf-4b45-81e2-90c4d96edfe3","ios":"levelo://app?vid=c9d0918b-7aaf-4b45-81e2-90c4d96edfe3"},"vehicle_type_id":"4","last_reported":1701443250,"current_range_meters":29600,"station_id":"ce4bh412rcd13ifvqdr0","pricing_plan_id":"free"},{"bike_id":"6f1a2a99-12b9-4800-bd16-1e7e3636cb58","system_id":"levelo_inurba_marseille","lat":43.288568,"lon":5.393841,"is_reserved":false,"is_disabled":false,"rental_uris":{"android":"levelo://app?vid=6f1a2a99-12b9-4800-bd16-1e7e3636cb58","ios":"levelo://app?vid=6f1a2a99-12b9-4800-bd16-1e7e3636cb58"},"vehicle_type_id":"4","last_reported":1701443250,"current_range_meters":21200,"station_id":"","pricing_plan_id":"free"},{"bike_id":"7ac662a1-516a-4598-935f-c13e2478c6d5","system_id":"levelo_inurba_marseille","lat":43.284217,"lon":5.349697,"is_reserved":false,"is_disabled":false,"rental_uris":{"android":"levelo://app?vid=7ac662a1-516a-4598-935f-c13e2478c6d5","ios":"levelo://app?vid=7ac662a1-516a-4598-935f-c13e2478c6d5"},"vehicle_type_id":"4","last_reported":1701443250,"current_range_meters":22400,"station_id":"ce4bhbh2rcd13ifvqepg","pricing_plan_id":"free"},{"bike_id":"8d7158fe-7b53-43db-9345-63e12ef4194d","system_id":"levelo_inurba_marseille","lat":43.284219,"lon":5.3497,"is_reserved":false,"is_disabled":false,"rental_uris":{"android":"levelo://app?vid=8d7158fe-7b53-43db-9345-63e12ef4194d","ios":"levelo://app?vid=8d7158fe-7b53-43db-9345-63e12ef4194d"},"vehicle_type_id":"4","last_reported":1701443250,"current_range_meters":20000,"station_id":"ce4bhbh2rcd13ifvqepg","pricing_plan_id":"free"},{"bike_id":"ca68dffd-1b55-42dd-a36f-67c8d14159fe","system_id":"levelo_inurba_marseille","lat":43.284219,"lon":5.3497,"is_reserved":false,"is_disabled":false,"rental_uris":{"android":"levelo://app?vid=ca68dffd-1b55-42dd-a36f-67c8d14159fe","ios":"levelo://app?vid=ca68dffd-1b55-42dd-a36f-67c8d14159fe"},"vehicle_type_id":"4","last_reported":1701443250,"current_range_meters":24000,"station_id":"ce4bhbh2rcd13ifvqepg","pricing_plan_id":"free"},{"bike_id":"5f14e861-7a4e-41d1-8b4e-97480382a7a6","system_id":"levelo_inurba_marseille","lat":43.284219,"lon":5.3497,"is_reserved":false,"is_disabled":false,"rental_uris":{"android":"levelo://app?vid=5f14e861-7a4e-41d1-8b4e-97480382a7a6","ios":"levelo://app?vid=5f14e861-7a4e-41d1-8b4e-97480382a7a6"},"vehicle_type_id":"4","last_reported":1701443250,"current_range_meters":28800,"station_id":"ce4bhbh2rcd13ifvqepg","pricing_plan_id":"free"},{"bike_id":"35ecb18c-753b-4bab-b8f7-c0b847176eb7","system_id":"levelo_inurba_marseille","lat":43.284217,"lon":5.349697,"is_reserved":false,"is_disabled":false,"rental_uris":{"android":"levelo://app?vid=35ecb18c-753b-4bab-b8f7-c0b847176eb7","ios":"levelo://app?vid=35ecb18c-753b-4bab-b8f7-c0b847176eb7"},"vehicle_type_id":"4","last_reported":1701443250,"current_range_meters":24800,"station_id":"ce4bhbh2rcd13ifvqepg","pricing_plan_id":"free"},{"bike_id":"8e37c7df-9407-4b30-be79-a649ffe0b4ec","system_id":"levelo_inurba_marseille","lat":43.284219,"lon":5.3497,"is_reserved":false,"is_disabled":false,"rental_uris":{"android":"levelo://app?vid=8e37c7df-9407-4b30-be79-a649ffe0b4ec","ios":"levelo://app?vid=8e37c7df-9407-4b30-be79-a649ffe0b4ec"},"vehicle_type_id":"4","last_reported":1701443250,"current_range_meters":29200,"station_id":"ce4bhbh2rcd13ifvqepg","pricing_plan_id":"free"},{"bike_id":"2d70261f-feb0-4598-b0b0-d60000be38e5","system_id":"levelo_inurba_marseille","lat":43.284217,"lon":5.349697,"is_reserved":false,"is_disabled":false,"rental_uris":{"android":"levelo://app?vid=2d70261f-feb0-4598-b0b0-d60000be38e5","ios":"levelo://app?vid=2d70261f-feb0-4598-b0b0-d60000be38e5"},"vehicle_type_id":"4","last_reported":1701443250,"current_range_meters":32000,"station_id":"ce4bhbh2rcd13ifvqepg","pricing_plan_id":"free"},{"bike_id":"faf50001-2cbc-4d9d-8e71-ac0bb8f36179","system_id":"levelo_inurba_marseille","lat":43.284214,"lon":5.349706,"is_reserved":false,"is_disabled":false,"rental_uris":{"android":"levelo://app?vid=faf50001-2cbc-4d9d-8e71-ac0bb8f36179","ios":"levelo://app?vid=faf50001-2cbc-4d9d-8e71-ac0bb8f36179"},"vehicle_type_id":"4","last_reported":1701443250,"current_range_meters":17600,"station_id":"ce4bhbh2rcd13ifvqepg","pricing_plan_id":"free"},{"bike_id":"8e6098da-c693-4278-9fa3-8965cb048bea","system_id":"levelo_inurba_marseille","lat":43.284217,"lon":5.349697,"is_reserved":false,"is_disabled":false,"rental_uris":{"android":"levelo://app?vid=8e6098da-c693-4278-9fa3-8965cb048bea","ios":"levelo://app?vid=8e6098da-c693-4278-9fa3-8965cb048bea"},"vehicle_type_id":"4","last_reported":1701443250,"current_range_meters":31600,"station_id":"ce4bhbh2rcd13ifvqepg","pricing_plan_id":"free"},{"bike_id":"51a6dde1-3259-428b-bc60-361517ede212","system_id":"levelo_inurba_marseille","lat":43.282754,"lon":5.350519,"is_reserved":false,"is_disabled":false,"rental_uris":{"android":"levelo://app?vid=51a6dde1-3259-428b-bc60-361517ede212","ios":"levelo://app?vid=51a6dde1-3259-428b-bc60-361517ede212"},"vehicle_type_id":"4","last_reported":1701443250,"current_range_meters":12400,"station_id":"ce4bhbp2rcd13ifvqerg","pricing_plan_id":"free"},{"bike_id":"a681b935-b017-420a-875d-272d9a5f3e76","system_id":"levelo_inurba_marseille","lat":43.282754,"lon":5.350519,"is_reserved":false,"is_disabled":false,"rental_uris":{"android":"levelo://app?vid=a681b935-b017-420a-875d-272d9a5f3e76","ios":"levelo://app?vid=a681b935-b017-420a-875d-272d9a5f3e76"},"vehicle_type_id":"4","last_reported":1701443250,"current_range_meters":30000,"station_id":"ce4bhbp2rcd13ifvqerg","pricing_plan_id":"free"},{"bike_id":"75686283-6663-4869-b24e-3c4fb966e46a","system_id":"levelo_inurba_marseille","lat":43.283502,"lon":5.386471,"is_reserved":false,"is_disabled":false,"rental_uris":{"android":"levelo://app?vid=75686283-6663-4869-b24e-3c4fb966e46a","ios":"levelo://app?vid=75686283-6663-4869-b24e-3c4fb966e46a"},"vehicle_type_id":"4","last_reported":1701443250,"current_range_meters":14800,"station_id":"ce4bh492rcd13ifvqdvg","pricing_plan_id":"free"},{"bike_id":"02da05f7-684e-4e0e-976b-4af4dd525fb6","system_id":"levelo_inurba_marseille","lat":43.28261,"lon":5.35076,"is_reserved":false,"is_disabled":false,"rental_uris":{"android":"levelo://app?vid=02da05f7-684e-4e0e-976b-4af4dd525fb6","ios":"levelo://app?vid=02da05f7-684e-4e0e-976b-4af4dd525fb6"},"vehicle_type_id":"4","last_reported":1701443250,"current_range_meters":0,"station_id":"ce4bhbp2rcd13ifvqerg","pricing_plan_id":"free"},{"bike_id":"a61f9949-e31f-4447-9136-eee42a400807","system_id":"levelo_inurba_marseille","lat":43.28039,"lon":5.369297,"is_reserved":false,"is_disabled":false,"rental_uris":{"android":"levelo://app?vid=a61f9949-e31f-4447-9136-eee42a400807","ios":"levelo://app?vid=a61f9949-e31f-4447-9136-eee42a400807"},"vehicle_type_id":"4","last_reported":1701443250,"current_range_meters":27600,"station_id":"ce4bha12rcd13ifvqef0","pricing_plan_id":"free"},{"bike_id":"12aeb8b4-56db-461e-8e1a-81bb8b40294d","system_id":"levelo_inurba_marseille","lat":43.29041,"lon":5.399634,"is_reserved":false,"is_disabled":false,"rental_uris":{"android":"levelo://app?vid=12aeb8b4-56db-461e-8e1a-81bb8b40294d","ios":"levelo://app?vid=12aeb8b4-56db-461e-8e1a-81bb8b40294d"},"vehicle_type_id":"4","last_reported":1701443250,"current_range_meters":20800,"station_id":"ce4bh392rcd13ifvqdm0","pricing_plan_id":"free"},{"bike_id":"8332980f-5ed0-450e-a474-79460d111291","system_id":"levelo_inurba_marseille","lat":43.29041,"lon":5.399634,"is_reserved":false,"is_disabled":false,"rental_uris":{"android":"levelo://app?vid=8332980f-5ed0-450e-a474-79460d111291","ios":"levelo://app?vid=8332980f-5ed0-450e-a474-79460d111291"},"vehicle_type_id":"4","last_reported":1701443250,"current_range_meters":21600,"station_id":"ce4bh392rcd13ifvqdm0","pricing_plan_id":"free"},{"bike_id":"25392909-029e-4146-b77b-f5d662930bcc","system_id":"levelo_inurba_marseille","lat":43.29636,"lon":5.40599,"is_reserved":false,"is_disabled":false,"rental_uris":{"android":"levelo://app?vid=25392909-029e-4146-b77b-f5d662930bcc","ios":"levelo://app?vid=25392909-029e-4146-b77b-f5d662930bcc"},"vehicle_type_id":"4","last_reported":1701443250,"current_range_meters":26400,"station_id":"ce4bh0h2rcd13ifvqd60","pricing_plan_id":"free"},{"bike_id":"9fdb7f97-586d-42d2-befd-15216ba2e422","system_id":"levelo_inurba_marseille","lat":43.284317,"lon":5.391844,"is_reserved":false,"is_disabled":false,"rental_uris":{"android":"levelo://app?vid=9fdb7f97-586d-42d2-befd-15216ba2e422","ios":"levelo://app?vid=9fdb7f97-586d-42d2-befd-15216ba2e422"},"vehicle_type_id":"4","last_reported":1701443250,"current_range_meters":0,"station_id":"ce4bhoh2rcd13ifvqh5g","pricing_plan_id":"free"},{"bike_id":"0be951d4-0bc3-42fb-a9bb-4d9f80730161","system_id":"levelo_inurba_marseille","lat":43.284462,"lon":5.392121,"is_reserved":false,"is_disabled":false,"rental_uris":{"android":"levelo://app?vid=0be951d4-0bc3-42fb-a9bb-4d9f80730161","ios":"levelo://app?vid=0be951d4-0bc3-42fb-a9bb-4d9f80730161"},"vehicle_type_id":"4","last_reported":1701443250,"current_range_meters":14400,"station_id":"ce4bhoh2rcd13ifvqh5g","pricing_plan_id":"free"},{"bike_id":"c93b1c9a-c4ae-4c26-bf86-e2b074651c4d","system_id":"levelo_inurba_marseille","lat":43.304188,"lon":5.412904,"is_reserved":false,"is_disabled":false,"rental_uris":{"android":"levelo://app?vid=c93b1c9a-c4ae-4c26-bf86-e2b074651c4d","ios":"levelo://app?vid=c93b1c9a-c4ae-4c26-bf86-e2b074651c4d"},"vehicle_type_id":"4","last_reported":1701443250,"current_range_meters":8000,"station_id":"ce4bhop2rcd13ifvqh8g","pricing_plan_id":"free"},{"bike_id":"a50c0429-afba-467a-8379-c3b5803a834a","system_id":"levelo_inurba_marseille","lat":43.304188,"lon":5.412904,"is_reserved":false,"is_disabled":false,"rental_uris":{"android":"levelo://app?vid=a50c0429-afba-467a-8379-c3b5803a834a","ios":"levelo://app?vid=a50c0429-afba-467a-8379-c3b5803a834a"},"vehicle_type_id":"4","last_reported":1701443250,"current_range_meters":17600,"station_id":"ce4bhop2rcd13ifvqh8g","pricing_plan_id":"free"},{"bike_id":"731e7c0f-634e-40ce-b49a-d7cfdf7bf632","system_id":"levelo_inurba_marseille","lat":43.287154,"lon":5.399979,"is_reserved":false,"is_disabled":false,"rental_uris":{"android":"levelo://app?vid=731e7c0f-634e-40ce-b49a-d7cfdf7bf632","ios":"levelo://app?vid=731e7c0f-634e-40ce-b49a-d7cfdf7bf632"},"vehicle_type_id":"4","last_reported":1701443250,"current_range_meters":10400,"station_id":"ce4bho92rcd13ifvqh3g","pricing_plan_id":"free"},{"bike_id":"33918e0d-cdb0-4611-a687-3272d72d60a6","system_id":"levelo_inurba_marseille","lat":43.32033,"lon":5.41495,"is_reserved":false,"is_disabled":false,"rental_uris":{"android":"levelo://app?vid=33918e0d-cdb0-4611-a687-3272d72d60a6","ios":"levelo://app?vid=33918e0d-cdb0-4611-a687-3272d72d60a6"},"vehicle_type_id":"4","last_reported":1701443250,"current_range_meters":28000,"station_id":"","pricing_plan_id":"free"},{"bike_id":"edccd163-f6e1-4e7d-bc68-768d7ebe881c","system_id":"levelo_inurba_marseille","lat":43.32086,"lon":5.41525,"is_reserved":false,"is_disabled":false,"rental_uris":{"android":"levelo://app?vid=edccd163-f6e1-4e7d-bc68-768d7ebe881c","ios":"levelo://app?vid=edccd163-f6e1-4e7d-bc68-768d7ebe881c"},"vehicle_type_id":"4","last_reported":1701443250,"current_range_meters":26000,"station_id":"","pricing_plan_id":"free"},{"bike_id":"9e8f1ba4-c82f-480b-9485-c493e964e712","system_id":"levelo_inurba_marseille","lat":43.320045,"lon":5.415048,"is_reserved":false,"is_disabled":false,"rental_uris":{"android":"levelo://app?vid=9e8f1ba4-c82f-480b-9485-c493e964e712","ios":"levelo://app?vid=9e8f1ba4-c82f-480b-9485-c493e964e712"},"vehicle_type_id":"4","last_reported":1701443250,"current_range_meters":18400,"station_id":"ce4bhq92rcd13ifvqhkg","pricing_plan_id":"free"},{"bike_id":"9bffcf0a-45ac-480c-ad28-4b9c53f789f1","system_id":"levelo_inurba_marseille","lat":43.279691,"lon":5.387439,"is_reserved":false,"is_disabled":false,"rental_uris":{"android":"levelo://app?vid=9bffcf0a-45ac-480c-ad28-4b9c53f789f1","ios":"levelo://app?vid=9bffcf0a-45ac-480c-ad28-4b9c53f789f1"},"vehicle_type_id":"4","last_reported":1701443250,"current_range_meters":23600,"station_id":"","pricing_plan_id":"free"},{"bike_id":"fee6171d-438d-46de-b2ba-adcf5f0352e8","system_id":"levelo_inurba_marseille","lat":43.292569,"lon":5.409107,"is_reserved":false,"is_disabled":false,"rental_uris":{"android":"levelo://app?vid=fee6171d-438d-46de-b2ba-adcf5f0352e8","ios":"levelo://app?vid=fee6171d-438d-46de-b2ba-adcf5f0352e8"},"vehicle_type_id":"4","last_reported":1701443250,"current_range_meters":25600,"station_id":"ce4bh192rcd13ifvqdc0","pricing_plan_id":"free"},{"bike_id":"6859c10d-ffa2-4d68-80a6-c5596143b025","system_id":"levelo_inurba_marseille","lat":43.29248,"lon":5.40917,"is_reserved":false,"is_disabled":false,"rental_uris":{"android":"levelo://app?vid=6859c10d-ffa2-4d68-80a6-c5596143b025","ios":"levelo://app?vid=6859c10d-ffa2-4d68-80a6-c5596143b025"},"vehicle_type_id":"4","last_reported":1701443250,"current_range_meters":21200,"station_id":"ce4bh192rcd13ifvqdc0","pricing_plan_id":"free"},{"bike_id":"864cac3e-77b6-480f-a074-f87767d693eb","system_id":"levelo_inurba_marseille","lat":43.276179,"lon":5.361009,"is_reserved":false,"is_disabled":false,"rental_uris":{"android":"levelo://app?vid=864cac3e-77b6-480f-a074-f87767d693eb","ios":"levelo://app?vid=864cac3e-77b6-480f-a074-f87767d693eb"},"vehicle_type_id":"4","last_reported":1701443250,"current_range_meters":31200,"station_id":"ce4bgj92rcd13ifvqbe0","pricing_plan_id":"free"},{"bike_id":"786b24d6-edad-4b85-bd75-bcd37e451834","system_id":"levelo_inurba_marseille","lat":43.280784,"lon":5.396622,"is_reserved":false,"is_disabled":false,"rental_uris":{"android":"levelo://app?vid=786b24d6-edad-4b85-bd75-bcd37e451834","ios":"levelo://app?vid=786b24d6-edad-4b85-bd75-bcd37e451834"},"vehicle_type_id":"4","last_reported":1701443250,"current_range_meters":23200,"station_id":"ce4bho12rcd13ifvqh2g","pricing_plan_id":"free"},{"bike_id":"a71c9579-ffc7-45ff-b406-0fadf5589436","system_id":"levelo_inurba_marseille","lat":43.33612,"lon":5.410321,"is_reserved":false,"is_disabled":false,"rental_uris":{"android":"levelo://app?vid=a71c9579-ffc7-45ff-b406-0fadf5589436","ios":"levelo://app?vid=a71c9579-ffc7-45ff-b406-0fadf5589436"},"vehicle_type_id":"4","last_reported":1701443250,"current_range_meters":2800,"station_id":"ce4bhqh2rcd13ifvqhmg","pricing_plan_id":"free"},{"bike_id":"57cdbd4b-8255-4315-a963-21a4ecacdea2","system_id":"levelo_inurba_marseille","lat":43.275625,"lon":5.384392,"is_reserved":false,"is_disabled":false,"rental_uris":{"android":"levelo://app?vid=57cdbd4b-8255-4315-a963-21a4ecacdea2","ios":"levelo://app?vid=57cdbd4b-8255-4315-a963-21a4ecacdea2"},"vehicle_type_id":"4","last_reported":1701443250,"current_range_meters":15200,"station_id":"ce4bhh92rcd13ifvqfi0","pricing_plan_id":"free"},{"bike_id":"b90a5940-328c-432e-9ac3-26462cd5960f","system_id":"levelo_inurba_marseille","lat":43.275625,"lon":5.384392,"is_reserved":false,"is_disabled":false,"rental_uris":{"android":"levelo://app?vid=b90a5940-328c-432e-9ac3-26462cd5960f","ios":"levelo://app?vid=b90a5940-328c-432e-9ac3-26462cd5960f"},"vehicle_type_id":"4","last_reported":1701443250,"current_range_meters":9600,"station_id":"ce4bhh92rcd13ifvqfi0","pricing_plan_id":"free"},{"bike_id":"765d5068-c9a3-4f63-9c8d-61ce6a8e61ed","system_id":"levelo_inurba_marseille","lat":43.275625,"lon":5.384392,"is_reserved":false,"is_disabled":false,"rental_uris":{"android":"levelo://app?vid=765d5068-c9a3-4f63-9c8d-61ce6a8e61ed","ios":"levelo://app?vid=765d5068-c9a3-4f63-9c8d-61ce6a8e61ed"},"vehicle_type_id":"4","last_reported":1701443250,"current_range_meters":30800,"station_id":"ce4bhh92rcd13ifvqfi0","pricing_plan_id":"free"},{"bike_id":"806870a9-e262-4f3c-9dca-eead85427f93","system_id":"levelo_inurba_marseille","lat":43.279952,"lon":5.400085,"is_reserved":false,"is_disabled":false,"rental_uris":{"android":"levelo://app?vid=806870a9-e262-4f3c-9dca-eead85427f93","ios":"levelo://app?vid=806870a9-e262-4f3c-9dca-eead85427f93"},"vehicle_type_id":"4","last_reported":1701443250,"current_range_meters":20000,"station_id":"ce4bho92rcd13ifvqh4g","pricing_plan_id":"free"},{"bike_id":"db7ffdb9-f10e-41dc-9854-cecf34a3d463","system_id":"levelo_inurba_marseille","lat":43.279952,"lon":5.400085,"is_reserved":false,"is_disabled":false,"rental_uris":{"android":"levelo://app?vid=db7ffdb9-f10e-41dc-9854-cecf34a3d463","ios":"levelo://app?vid=db7ffdb9-f10e-41dc-9854-cecf34a3d463"},"vehicle_type_id":"4","last_reported":1701443250,"current_range_meters":10400,"station_id":"ce4bho92rcd13ifvqh4g","pricing_plan_id":"free"},{"bike_id":"8b95fa19-34cb-496e-ada5-cf4ce57829c5","system_id":"levelo_inurba_marseille","lat":43.279952,"lon":5.400085,"is_reserved":false,"is_disabled":false,"rental_uris":{"android":"levelo://app?vid=8b95fa19-34cb-496e-ada5-cf4ce57829c5","ios":"levelo://app?vid=8b95fa19-34cb-496e-ada5-cf4ce57829c5"},"vehicle_type_id":"4","last_reported":1701443250,"current_range_meters":18400,"station_id":"ce4bho92rcd13ifvqh4g","pricing_plan_id":"free"},{"bike_id":"54818783-e029-4078-8684-73a01bba5f52","system_id":"levelo_inurba_marseille","lat":43.310785,"lon":5.424305,"is_reserved":false,"is_disabled":false,"rental_uris":{"android":"levelo://app?vid=54818783-e029-4078-8684-73a01bba5f52","ios":"levelo://app?vid=54818783-e029-4078-8684-73a01bba5f52"},"vehicle_type_id":"4","last_reported":1701443250,"current_range_meters":27200,"station_id":"ce4bhp92rcd13ifvqhag","pricing_plan_id":"free"},{"bike_id":"92d88886-639d-41c5-9129-1bc0d1454262","system_id":"levelo_inurba_marseille","lat":43.310785,"lon":5.424305,"is_reserved":false,"is_disabled":false,"rental_uris":{"android":"levelo://app?vid=92d88886-639d-41c5-9129-1bc0d1454262","ios":"levelo://app?vid=92d88886-639d-41c5-9129-1bc0d1454262"},"vehicle_type_id":"4","last_reported":1701443250,"current_range_meters":29600,"station_id":"ce4bhp92rcd13ifvqhag","pricing_plan_id":"free"},{"bike_id":"894f6494-585b-4b1b-a39f-39b137cf17d0","system_id":"levelo_inurba_marseille","lat":43.310785,"lon":5.424305,"is_reserved":false,"is_disabled":false,"rental_uris":{"android":"levelo://app?vid=894f6494-585b-4b1b-a39f-39b137cf17d0","ios":"levelo://app?vid=894f6494-585b-4b1b-a39f-39b137cf17d0"},"vehicle_type_id":"4","last_reported":1701443250,"current_range_meters":13200,"station_id":"ce4bhp92rcd13ifvqhag","pricing_plan_id":"free"},{"bike_id":"f10e256e-5a3b-4cf0-b1f6-ce959fea45ce","system_id":"levelo_inurba_marseille","lat":43.274099,"lon":5.394019,"is_reserved":false,"is_disabled":false,"rental_uris":{"android":"levelo://app?vid=f10e256e-5a3b-4cf0-b1f6-ce959fea45ce","ios":"levelo://app?vid=f10e256e-5a3b-4cf0-b1f6-ce959fea45ce"},"vehicle_type_id":"4","last_reported":1701443250,"current_range_meters":16400,"station_id":"ce4bhdp2rcd13ifvqf20","pricing_plan_id":"free"},{"bike_id":"39054965-f11d-4b0a-a732-c22945f74131","system_id":"levelo_inurba_marseille","lat":43.2955,"lon":5.42289,"is_reserved":false,"is_disabled":false,"rental_uris":{"android":"levelo://app?vid=39054965-f11d-4b0a-a732-c22945f74131","ios":"levelo://app?vid=39054965-f11d-4b0a-a732-c22945f74131"},"vehicle_type_id":"4","last_reported":1701443250,"current_range_meters":22400,"station_id":"ce4bhph2rcd13ifvqhdg","pricing_plan_id":"free"},{"bike_id":"20a58410-1d49-4d7a-9892-3b8865376f3e","system_id":"levelo_inurba_marseille","lat":43.295511,"lon":5.422926,"is_reserved":false,"is_disabled":false,"rental_uris":{"android":"levelo://app?vid=20a58410-1d49-4d7a-9892-3b8865376f3e","ios":"levelo://app?vid=20a58410-1d49-4d7a-9892-3b8865376f3e"},"vehicle_type_id":"4","last_reported":1701443250,"current_range_meters":26800,"station_id":"ce4bhph2rcd13ifvqhdg","pricing_plan_id":"free"},{"bike_id":"811d8211-8686-4c6e-8950-7cd72cf083a1","system_id":"levelo_inurba_marseille","lat":43.295511,"lon":5.422926,"is_reserved":false,"is_disabled":false,"rental_uris":{"android":"levelo://app?vid=811d8211-8686-4c6e-8950-7cd72cf083a1","ios":"levelo://app?vid=811d8211-8686-4c6e-8950-7cd72cf083a1"},"vehicle_type_id":"4","last_reported":1701443250,"current_range_meters":12000,"station_id":"ce4bhph2rcd13ifvqhdg","pricing_plan_id":"free"},{"bike_id":"055c0346-bef5-4cfa-a947-6bb2859ee082","system_id":"levelo_inurba_marseille","lat":43.272116,"lon":5.391763,"is_reserved":false,"is_disabled":false,"rental_uris":{"android":"levelo://app?vid=055c0346-bef5-4cfa-a947-6bb2859ee082","ios":"levelo://app?vid=055c0346-bef5-4cfa-a947-6bb2859ee082"},"vehicle_type_id":"4","last_reported":1701443250,"current_range_meters":31200,"station_id":"ce4bhhp2rcd13ifvqfm0","pricing_plan_id":"free"},{"bike_id":"a54a3600-1a2e-4ec3-8b31-9c2954bd40ce","system_id":"levelo_inurba_marseille","lat":43.272124,"lon":5.391768,"is_reserved":false,"is_disabled":false,"rental_uris":{"android":"levelo://app?vid=a54a3600-1a2e-4ec3-8b31-9c2954bd40ce","ios":"levelo://app?vid=a54a3600-1a2e-4ec3-8b31-9c2954bd40ce"},"vehicle_type_id":"4","last_reported":1701443250,"current_range_meters":2800,"station_id":"ce4bhhp2rcd13ifvqfm0","pricing_plan_id":"free"},{"bike_id":"e85a1455-d0a2-44cb-baef-4d17334ecb5d","system_id":"levelo_inurba_marseille","lat":43.272118,"lon":5.391758,"is_reserved":false,"is_disabled":false,"rental_uris":{"android":"levelo://app?vid=e85a1455-d0a2-44cb-baef-4d17334ecb5d","ios":"levelo://app?vid=e85a1455-d0a2-44cb-baef-4d17334ecb5d"},"vehicle_type_id":"4","last_reported":1701443250,"current_range_meters":23200,"station_id":"ce4bhhp2rcd13ifvqfm0","pricing_plan_id":"free"},{"bike_id":"6c4ec707-b162-47ad-a6e5-3b572f4cceb7","system_id":"levelo_inurba_marseille","lat":43.269616,"lon":5.385077,"is_reserved":false,"is_disabled":false,"rental_uris":{"android":"levelo://app?vid=6c4ec707-b162-47ad-a6e5-3b572f4cceb7","ios":"levelo://app?vid=6c4ec707-b162-47ad-a6e5-3b572f4cceb7"},"vehicle_type_id":"4","last_reported":1701443250,"current_range_meters":15600,"station_id":"","pricing_plan_id":"free"},{"bike_id":"ef1693b6-83e3-4ba4-b7a1-94e4d74e3550","system_id":"levelo_inurba_marseille","lat":43.269467,"lon":5.386439,"is_reserved":false,"is_disabled":false,"rental_uris":{"android":"levelo://app?vid=ef1693b6-83e3-4ba4-b7a1-94e4d74e3550","ios":"levelo://app?vid=ef1693b6-83e3-4ba4-b7a1-94e4d74e3550"},"vehicle_type_id":"4","last_reported":1701443250,"current_range_meters":31200,"station_id":"ce4bhh92rcd13ifvqfh0","pricing_plan_id":"free"},{"bike_id":"0d115e42-7d4d-4d47-82f1-219d6c44043d","system_id":"levelo_inurba_marseille","lat":43.27945,"lon":5.41048,"is_reserved":false,"is_disabled":false,"rental_uris":{"android":"levelo://app?vid=0d115e42-7d4d-4d47-82f1-219d6c44043d","ios":"levelo://app?vid=0d115e42-7d4d-4d47-82f1-219d6c44043d"},"vehicle_type_id":"4","last_reported":1701443250,"current_range_meters":10400,"station_id":"ce4bhnp2rcd13ifvqh0g","pricing_plan_id":"free"},{"bike_id":"be784777-ad96-448a-9b37-643aa3e149c0","system_id":"levelo_inurba_marseille","lat":43.27941,"lon":5.41054,"is_reserved":false,"is_disabled":false,"rental_uris":{"android":"levelo://app?vid=be784777-ad96-448a-9b37-643aa3e149c0","ios":"levelo://app?vid=be784777-ad96-448a-9b37-643aa3e149c0"},"vehicle_type_id":"4","last_reported":1701443250,"current_range_meters":800,"station_id":"ce4bhnp2rcd13ifvqh0g","pricing_plan_id":"free"},{"bike_id":"d3e86ee0-25cc-46da-9490-2861495a5777","system_id":"levelo_inurba_marseille","lat":43.269276,"lon":5.389436,"is_reserved":false,"is_disabled":false,"rental_uris":{"android":"levelo://app?vid=d3e86ee0-25cc-46da-9490-2861495a5777","ios":"levelo://app?vid=d3e86ee0-25cc-46da-9490-2861495a5777"},"vehicle_type_id":"4","last_reported":1701443250,"current_range_meters":23600,"station_id":"ce4bhhh2rcd13ifvqfl0","pricing_plan_id":"free"},{"bike_id":"0e181f77-72dd-4e7a-a81f-493e0f86678a","system_id":"levelo_inurba_marseille","lat":43.27996,"lon":5.416624,"is_reserved":false,"is_disabled":false,"rental_uris":{"android":"levelo://app?vid=0e181f77-72dd-4e7a-a81f-493e0f86678a","ios":"levelo://app?vid=0e181f77-72dd-4e7a-a81f-493e0f86678a"},"vehicle_type_id":"4","last_reported":1701443250,"current_range_meters":23600,"station_id":"ce4bho12rcd13ifvqh1g","pricing_plan_id":"free"},{"bike_id":"9bea48c7-7983-4935-9744-d77dd8fca5d8","system_id":"levelo_inurba_marseille","lat":43.267966,"lon":5.393976,"is_reserved":false,"is_disabled":false,"rental_uris":{"android":"levelo://app?vid=9bea48c7-7983-4935-9744-d77dd8fca5d8","ios":"levelo://app?vid=9bea48c7-7983-4935-9744-d77dd8fca5d8"},"vehicle_type_id":"4","last_reported":1701443250,"current_range_meters":15600,"station_id":"ce4bhh12rcd13ifvqfg0","pricing_plan_id":"free"},{"bike_id":"79e7154e-ef5c-4942-b83d-7d6d836d6dfd","system_id":"levelo_inurba_marseille","lat":43.267966,"lon":5.393976,"is_reserved":false,"is_disabled":false,"rental_uris":{"android":"levelo://app?vid=79e7154e-ef5c-4942-b83d-7d6d836d6dfd","ios":"levelo://app?vid=79e7154e-ef5c-4942-b83d-7d6d836d6dfd"},"vehicle_type_id":"4","last_reported":1701443250,"current_range_meters":24400,"station_id":"ce4bhh12rcd13ifvqfg0","pricing_plan_id":"free"},{"bike_id":"97b56209-3e20-4953-83b7-38e236d5a5b7","system_id":"levelo_inurba_marseille","lat":43.308051,"lon":5.43527,"is_reserved":false,"is_disabled":false,"rental_uris":{"android":"levelo://app?vid=97b56209-3e20-4953-83b7-38e236d5a5b7","ios":"levelo://app?vid=97b56209-3e20-4953-83b7-38e236d5a5b7"},"vehicle_type_id":"4","last_reported":1701443250,"current_range_meters":12400,"station_id":"ce4bhph2rcd13ifvqheg","pricing_plan_id":"free"},{"bike_id":"5d501b81-6173-4a00-95ca-16f492f5a557","system_id":"levelo_inurba_marseille","lat":43.261782,"lon":5.374515,"is_reserved":false,"is_disabled":false,"rental_uris":{"android":"levelo://app?vid=5d501b81-6173-4a00-95ca-16f492f5a557","ios":"levelo://app?vid=5d501b81-6173-4a00-95ca-16f492f5a557"},"vehicle_type_id":"4","last_reported":1701443250,"current_range_meters":25600,"station_id":"ce4bhgp2rcd13ifvqfc0","pricing_plan_id":"free"},{"bike_id":"fe4c0eb0-623c-46bd-9a29-3da07f34d641","system_id":"levelo_inurba_marseille","lat":43.261782,"lon":5.374515,"is_reserved":false,"is_disabled":false,"rental_uris":{"android":"levelo://app?vid=fe4c0eb0-623c-46bd-9a29-3da07f34d641","ios":"levelo://app?vid=fe4c0eb0-623c-46bd-9a29-3da07f34d641"},"vehicle_type_id":"4","last_reported":1701443250,"current_range_meters":18800,"station_id":"ce4bhgp2rcd13ifvqfc0","pricing_plan_id":"free"},{"bike_id":"9435e00b-797b-493b-8eb2-702778b735b1","system_id":"levelo_inurba_marseille","lat":43.261782,"lon":5.374515,"is_reserved":false,"is_disabled":false,"rental_uris":{"android":"levelo://app?vid=9435e00b-797b-493b-8eb2-702778b735b1","ios":"levelo://app?vid=9435e00b-797b-493b-8eb2-702778b735b1"},"vehicle_type_id":"4","last_reported":1701443250,"current_range_meters":24000,"station_id":"ce4bhgp2rcd13ifvqfc0","pricing_plan_id":"free"},{"bike_id":"6394474e-85a8-4fc5-ba69-bca97359fd9e","system_id":"levelo_inurba_marseille","lat":43.317104,"lon":5.436818,"is_reserved":false,"is_disabled":false,"rental_uris":{"android":"levelo://app?vid=6394474e-85a8-4fc5-ba69-bca97359fd9e","ios":"levelo://app?vid=6394474e-85a8-4fc5-ba69-bca97359fd9e"},"vehicle_type_id":"4","last_reported":1701443250,"current_range_meters":27200,"station_id":"ce4bhp92rcd13ifvqhcg","pricing_plan_id":"free"},{"bike_id":"ed2cf8df-32be-432f-a551-c14b6dffc84e","system_id":"levelo_inurba_marseille","lat":43.262012,"lon":5.379307,"is_reserved":false,"is_disabled":false,"rental_uris":{"android":"levelo://app?vid=ed2cf8df-32be-432f-a551-c14b6dffc84e","ios":"levelo://app?vid=ed2cf8df-32be-432f-a551-c14b6dffc84e"},"vehicle_type_id":"4","last_reported":1701443250,"current_range_meters":11200,"station_id":"ce4bhjp2rcd13ifvqg90","pricing_plan_id":"free"},{"bike_id":"0ec67467-79e1-4976-b345-f781c74de997","system_id":"levelo_inurba_marseille","lat":43.26202,"lon":5.379299,"is_reserved":false,"is_disabled":false,"rental_uris":{"android":"levelo://app?vid=0ec67467-79e1-4976-b345-f781c74de997","ios":"levelo://app?vid=0ec67467-79e1-4976-b345-f781c74de997"},"vehicle_type_id":"4","last_reported":1701443250,"current_range_meters":23600,"station_id":"ce4bhjp2rcd13ifvqg90","pricing_plan_id":"free"},{"bike_id":"0b2f324f-a5d8-4d51-a8fa-6b629dccc78e","system_id":"levelo_inurba_marseille","lat":43.271368,"lon":5.40928,"is_reserved":false,"is_disabled":false,"rental_uris":{"android":"levelo://app?vid=0b2f324f-a5d8-4d51-a8fa-6b629dccc78e","ios":"levelo://app?vid=0b2f324f-a5d8-4d51-a8fa-6b629dccc78e"},"vehicle_type_id":"4","last_reported":1701443250,"current_range_meters":19600,"station_id":"ce4bhl12rcd13ifvqgf0","pricing_plan_id":"free"},{"bike_id":"3d92db85-fa12-42d2-9b53-65f2f9388e3c","system_id":"levelo_inurba_marseille","lat":43.298768,"lon":5.43643,"is_reserved":false,"is_disabled":false,"rental_uris":{"android":"levelo://app?vid=3d92db85-fa12-42d2-9b53-65f2f9388e3c","ios":"levelo://app?vid=3d92db85-fa12-42d2-9b53-65f2f9388e3c"},"vehicle_type_id":"4","last_reported":1701443250,"current_range_meters":21200,"station_id":"ce4bhpp2rcd13ifvqhfg","pricing_plan_id":"free"},{"bike_id":"6d5827bb-e379-4067-bb3f-6136611daee9","system_id":"levelo_inurba_marseille","lat":43.298768,"lon":5.43643,"is_reserved":false,"is_disabled":false,"rental_uris":{"android":"levelo://app?vid=6d5827bb-e379-4067-bb3f-6136611daee9","ios":"levelo://app?vid=6d5827bb-e379-4067-bb3f-6136611daee9"},"vehicle_type_id":"4","last_reported":1701443250,"current_range_meters":31600,"station_id":"ce4bhpp2rcd13ifvqhfg","pricing_plan_id":"free"},{"bike_id":"b802834e-51f4-41a4-96cb-c31681473515","system_id":"levelo_inurba_marseille","lat":43.281548,"lon":5.42643,"is_reserved":false,"is_disabled":false,"rental_uris":{"android":"levelo://app?vid=b802834e-51f4-41a4-96cb-c31681473515","ios":"levelo://app?vid=b802834e-51f4-41a4-96cb-c31681473515"},"vehicle_type_id":"4","last_reported":1701443250,"current_range_meters":31600,"station_id":"ce4bhnh2rcd13ifvqgug","pricing_plan_id":"free"},{"bike_id":"a265f57d-2203-4406-8278-bc194922c399","system_id":"levelo_inurba_marseille","lat":43.281512,"lon":5.426382,"is_reserved":false,"is_disabled":false,"rental_uris":{"android":"levelo://app?vid=a265f57d-2203-4406-8278-bc194922c399","ios":"levelo://app?vid=a265f57d-2203-4406-8278-bc194922c399"},"vehicle_type_id":"4","last_reported":1701443250,"current_range_meters":30800,"station_id":"ce4bhnh2rcd13ifvqgug","pricing_plan_id":"free"},{"bike_id":"3e4fb47e-33e8-4ee2-bfc1-1bd948cfa529","system_id":"levelo_inurba_marseille","lat":43.28158,"lon":5.42647,"is_reserved":false,"is_disabled":false,"rental_uris":{"android":"levelo://app?vid=3e4fb47e-33e8-4ee2-bfc1-1bd948cfa529","ios":"levelo://app?vid=3e4fb47e-33e8-4ee2-bfc1-1bd948cfa529"},"vehicle_type_id":"4","last_reported":1701443250,"current_range_meters":30800,"station_id":"ce4bhnh2rcd13ifvqgug","pricing_plan_id":"free"},{"bike_id":"16e3cf12-314c-4e26-8315-bcc6e17dd084","system_id":"levelo_inurba_marseille","lat":43.2815,"lon":5.4264,"is_reserved":false,"is_disabled":false,"rental_uris":{"android":"levelo://app?vid=16e3cf12-314c-4e26-8315-bcc6e17dd084","ios":"levelo://app?vid=16e3cf12-314c-4e26-8315-bcc6e17dd084"},"vehicle_type_id":"4","last_reported":1701443250,"current_range_meters":7600,"station_id":"ce4bhnh2rcd13ifvqgug","pricing_plan_id":"free"},{"bike_id":"a22768ef-cd0f-4fc2-9133-3f185651faf9","system_id":"levelo_inurba_marseille","lat":43.28152,"lon":5.42644,"is_reserved":false,"is_disabled":false,"rental_uris":{"android":"levelo://app?vid=a22768ef-cd0f-4fc2-9133-3f185651faf9","ios":"levelo://app?vid=a22768ef-cd0f-4fc2-9133-3f185651faf9"},"vehicle_type_id":"4","last_reported":1701443250,"current_range_meters":2400,"station_id":"ce4bhnh2rcd13ifvqgug","pricing_plan_id":"free"},{"bike_id":"d3df04f1-aa36-401c-b9f0-16ea3bba87de","system_id":"levelo_inurba_marseille","lat":43.281548,"lon":5.42643,"is_reserved":false,"is_disabled":false,"rental_uris":{"android":"levelo://app?vid=d3df04f1-aa36-401c-b9f0-16ea3bba87de","ios":"levelo://app?vid=d3df04f1-aa36-401c-b9f0-16ea3bba87de"},"vehicle_type_id":"4","last_reported":1701443250,"current_range_meters":17200,"station_id":"ce4bhnh2rcd13ifvqgug","pricing_plan_id":"free"},{"bike_id":"3532a786-7312-4db1-88be-2e5e8a274941","system_id":"levelo_inurba_marseille","lat":43.281548,"lon":5.42643,"is_reserved":false,"is_disabled":false,"rental_uris":{"android":"levelo://app?vid=3532a786-7312-4db1-88be-2e5e8a274941","ios":"levelo://app?vid=3532a786-7312-4db1-88be-2e5e8a274941"},"vehicle_type_id":"4","last_reported":1701443250,"current_range_meters":27600,"station_id":"ce4bhnh2rcd13ifvqgug","pricing_plan_id":"free"},{"bike_id":"2b000e8e-c3d2-499c-96d9-224f0b43c759","system_id":"levelo_inurba_marseille","lat":43.275028,"lon":5.424534,"is_reserved":false,"is_disabled":false,"rental_uris":{"android":"levelo://app?vid=2b000e8e-c3d2-499c-96d9-224f0b43c759","ios":"levelo://app?vid=2b000e8e-c3d2-499c-96d9-224f0b43c759"},"vehicle_type_id":"4","last_reported":1701443250,"current_range_meters":11200,"station_id":"ce4bhn92rcd13ifvqgrg","pricing_plan_id":"free"},{"bike_id":"7094d100-2e8d-4292-9fd8-56091a446278","system_id":"levelo_inurba_marseille","lat":43.25588,"lon":5.38229,"is_reserved":false,"is_disabled":false,"rental_uris":{"android":"levelo://app?vid=7094d100-2e8d-4292-9fd8-56091a446278","ios":"levelo://app?vid=7094d100-2e8d-4292-9fd8-56091a446278"},"vehicle_type_id":"4","last_reported":1701443250,"current_range_meters":25600,"station_id":"ce4bhih2rcd13ifvqfs0","pricing_plan_id":"free"},{"bike_id":"701c18c4-6ee5-4642-9e8e-fc6ed0a020c6","system_id":"levelo_inurba_marseille","lat":43.270721,"lon":5.422764,"is_reserved":false,"is_disabled":false,"rental_uris":{"android":"levelo://app?vid=701c18c4-6ee5-4642-9e8e-fc6ed0a020c6","ios":"levelo://app?vid=701c18c4-6ee5-4642-9e8e-fc6ed0a020c6"},"vehicle_type_id":"4","last_reported":1701443250,"current_range_meters":15200,"station_id":"ce4bhk92rcd13ifvqgb0","pricing_plan_id":"free"},{"bike_id":"833afc2e-4d19-45ad-bafc-71f0d6fbfa4b","system_id":"levelo_inurba_marseille","lat":43.270721,"lon":5.422764,"is_reserved":false,"is_disabled":false,"rental_uris":{"android":"levelo://app?vid=833afc2e-4d19-45ad-bafc-71f0d6fbfa4b","ios":"levelo://app?vid=833afc2e-4d19-45ad-bafc-71f0d6fbfa4b"},"vehicle_type_id":"4","last_reported":1701443250,"current_range_meters":3200,"station_id":"ce4bhk92rcd13ifvqgb0","pricing_plan_id":"free"},{"bike_id":"9dbdbf4d-021f-41d9-8248-93041cd4a45c","system_id":"levelo_inurba_marseille","lat":43.270721,"lon":5.422764,"is_reserved":false,"is_disabled":false,"rental_uris":{"android":"levelo://app?vid=9dbdbf4d-021f-41d9-8248-93041cd4a45c","ios":"levelo://app?vid=9dbdbf4d-021f-41d9-8248-93041cd4a45c"},"vehicle_type_id":"4","last_reported":1701443250,"current_range_meters":8400,"station_id":"ce4bhk92rcd13ifvqgb0","pricing_plan_id":"free"},{"bike_id":"463e9b85-fff5-4102-b154-ff0d8e9c3fef","system_id":"levelo_inurba_marseille","lat":43.258658,"lon":5.398935,"is_reserved":false,"is_disabled":false,"rental_uris":{"android":"levelo://app?vid=463e9b85-fff5-4102-b154-ff0d8e9c3fef","ios":"levelo://app?vid=463e9b85-fff5-4102-b154-ff0d8e9c3fef"},"vehicle_type_id":"4","last_reported":1701443250,"current_range_meters":10400,"station_id":"ce4bhl92rcd13ifvqghg","pricing_plan_id":"free"},{"bike_id":"5c0693b6-d2e9-4446-940e-d4c2dff24c38","system_id":"levelo_inurba_marseille","lat":43.258658,"lon":5.398935,"is_reserved":false,"is_disabled":false,"rental_uris":{"android":"levelo://app?vid=5c0693b6-d2e9-4446-940e-d4c2dff24c38","ios":"levelo://app?vid=5c0693b6-d2e9-4446-940e-d4c2dff24c38"},"vehicle_type_id":"4","last_reported":1701443250,"current_range_meters":24000,"station_id":"ce4bhl92rcd13ifvqghg","pricing_plan_id":"free"},{"bike_id":"6bd4e0df-fab4-4528-9746-fe2d895500e1","system_id":"levelo_inurba_marseille","lat":43.258658,"lon":5.398935,"is_reserved":false,"is_disabled":false,"rental_uris":{"android":"levelo://app?vid=6bd4e0df-fab4-4528-9746-fe2d895500e1","ios":"levelo://app?vid=6bd4e0df-fab4-4528-9746-fe2d895500e1"},"vehicle_type_id":"4","last_reported":1701443250,"current_range_meters":19200,"station_id":"ce4bhl92rcd13ifvqghg","pricing_plan_id":"free"},{"bike_id":"ed19e6c0-2133-4dbe-b8ab-28133e653620","system_id":"levelo_inurba_marseille","lat":43.257079,"lon":5.411051,"is_reserved":false,"is_disabled":false,"rental_uris":{"android":"levelo://app?vid=ed19e6c0-2133-4dbe-b8ab-28133e653620","ios":"levelo://app?vid=ed19e6c0-2133-4dbe-b8ab-28133e653620"},"vehicle_type_id":"4","last_reported":1701443250,"current_range_meters":31200,"station_id":"ce4bhkp2rcd13ifvqgd0","pricing_plan_id":"free"},{"bike_id":"c477a605-90fa-4e92-aee3-67244c3da962","system_id":"levelo_inurba_marseille","lat":43.257079,"lon":5.411051,"is_reserved":false,"is_disabled":false,"rental_uris":{"android":"levelo://app?vid=c477a605-90fa-4e92-aee3-67244c3da962","ios":"levelo://app?vid=c477a605-90fa-4e92-aee3-67244c3da962"},"vehicle_type_id":"4","last_reported":1701443250,"current_range_meters":16000,"station_id":"ce4bhkp2rcd13ifvqgd0","pricing_plan_id":"free"},{"bike_id":"31537566-a137-4489-bc15-e27b62165b13","system_id":"levelo_inurba_marseille","lat":43.257079,"lon":5.411051,"is_reserved":false,"is_disabled":false,"rental_uris":{"android":"levelo://app?vid=31537566-a137-4489-bc15-e27b62165b13","ios":"levelo://app?vid=31537566-a137-4489-bc15-e27b62165b13"},"vehicle_type_id":"4","last_reported":1701443250,"current_range_meters":19600,"station_id":"ce4bhkp2rcd13ifvqgd0","pricing_plan_id":"free"},{"bike_id":"e25b1928-091f-419f-9b39-2b13f2987df5","system_id":"levelo_inurba_marseille","lat":43.250023,"lon":5.38919,"is_reserved":false,"is_disabled":false,"rental_uris":{"android":"levelo://app?vid=e25b1928-091f-419f-9b39-2b13f2987df5","ios":"levelo://app?vid=e25b1928-091f-419f-9b39-2b13f2987df5"},"vehicle_type_id":"4","last_reported":1701443250,"current_range_meters":24800,"station_id":"ce4bhgp2rcd13ifvqfd0","pricing_plan_id":"free"},{"bike_id":"7b86737e-88b6-402e-953d-d66f821e4367","system_id":"levelo_inurba_marseille","lat":43.250966,"lon":5.395186,"is_reserved":false,"is_disabled":false,"rental_uris":{"android":"levelo://app?vid=7b86737e-88b6-402e-953d-d66f821e4367","ios":"levelo://app?vid=7b86737e-88b6-402e-953d-d66f821e4367"},"vehicle_type_id":"4","last_reported":1701443250,"current_range_meters":27200,"station_id":"ce4bhm12rcd13ifvqgkg","pricing_plan_id":"free"},{"bike_id":"158b567f-a6c9-4273-adea-c2840e978cc0","system_id":"levelo_inurba_marseille","lat":43.250966,"lon":5.395186,"is_reserved":false,"is_disabled":false,"rental_uris":{"android":"levelo://app?vid=158b567f-a6c9-4273-adea-c2840e978cc0","ios":"levelo://app?vid=158b567f-a6c9-4273-adea-c2840e978cc0"},"vehicle_type_id":"4","last_reported":1701443250,"current_range_meters":6000,"station_id":"ce4bhm12rcd13ifvqgkg","pricing_plan_id":"free"},{"bike_id":"de4269ac-900c-4081-b5f8-179bb0d37f2e","system_id":"levelo_inurba_marseille","lat":43.250009,"lon":5.389195,"is_reserved":false,"is_disabled":false,"rental_uris":{"android":"levelo://app?vid=de4269ac-900c-4081-b5f8-179bb0d37f2e","ios":"levelo://app?vid=de4269ac-900c-4081-b5f8-179bb0d37f2e"},"vehicle_type_id":"4","last_reported":1701443250,"current_range_meters":26400,"station_id":"ce4bhgp2rcd13ifvqfd0","pricing_plan_id":"free"},{"bike_id":"52c2c45b-9191-4379-9cce-250f005bbdc4","system_id":"levelo_inurba_marseille","lat":43.24693,"lon":5.382096,"is_reserved":false,"is_disabled":false,"rental_uris":{"android":"levelo://app?vid=52c2c45b-9191-4379-9cce-250f005bbdc4","ios":"levelo://app?vid=52c2c45b-9191-4379-9cce-250f005bbdc4"},"vehicle_type_id":"4","last_reported":1701443250,"current_range_meters":15600,"station_id":"ce4bhih2rcd13ifvqfr0","pricing_plan_id":"free"},{"bike_id":"59cf6d6b-d7f0-4625-8cd9-7b7a3fc5ea32","system_id":"levelo_inurba_marseille","lat":43.25102,"lon":5.403214,"is_reserved":false,"is_disabled":false,"rental_uris":{"android":"levelo://app?vid=59cf6d6b-d7f0-4625-8cd9-7b7a3fc5ea32","ios":"levelo://app?vid=59cf6d6b-d7f0-4625-8cd9-7b7a3fc5ea32"},"vehicle_type_id":"4","last_reported":1701443250,"current_range_meters":27600,"station_id":"ce4bhlh2rcd13ifvqgig","pricing_plan_id":"free"},{"bike_id":"16bbbf99-1e21-4d5c-9e25-60b8461e1329","system_id":"levelo_inurba_marseille","lat":43.24658,"lon":5.38169,"is_reserved":false,"is_disabled":false,"rental_uris":{"android":"levelo://app?vid=16bbbf99-1e21-4d5c-9e25-60b8461e1329","ios":"levelo://app?vid=16bbbf99-1e21-4d5c-9e25-60b8461e1329"},"vehicle_type_id":"4","last_reported":1701443250,"current_range_meters":2400,"station_id":"ce4bhih2rcd13ifvqfr0","pricing_plan_id":"free"},{"bike_id":"b4fc2ad8-933e-4544-8f2b-ffdb3d34e94b","system_id":"levelo_inurba_marseille","lat":43.246461,"lon":5.389014,"is_reserved":false,"is_disabled":false,"rental_uris":{"android":"levelo://app?vid=b4fc2ad8-933e-4544-8f2b-ffdb3d34e94b","ios":"levelo://app?vid=b4fc2ad8-933e-4544-8f2b-ffdb3d34e94b"},"vehicle_type_id":"4","last_reported":1701443250,"current_range_meters":15600,"station_id":"ce4bhg12rcd13ifvqf60","pricing_plan_id":"free"},{"bike_id":"e7aad632-367b-4496-9cef-bcfeaf0ec9a0","system_id":"levelo_inurba_marseille","lat":43.246461,"lon":5.389014,"is_reserved":false,"is_disabled":false,"rental_uris":{"android":"levelo://app?vid=e7aad632-367b-4496-9cef-bcfeaf0ec9a0","ios":"levelo://app?vid=e7aad632-367b-4496-9cef-bcfeaf0ec9a0"},"vehicle_type_id":"4","last_reported":1701443250,"current_range_meters":31200,"station_id":"ce4bhg12rcd13ifvqf60","pricing_plan_id":"free"},{"bike_id":"0732e905-8363-4c62-a08b-8028248cfd9d","system_id":"levelo_inurba_marseille","lat":43.246467,"lon":5.388984,"is_reserved":false,"is_disabled":false,"rental_uris":{"android":"levelo://app?vid=0732e905-8363-4c62-a08b-8028248cfd9d","ios":"levelo://app?vid=0732e905-8363-4c62-a08b-8028248cfd9d"},"vehicle_type_id":"4","last_reported":1701443250,"current_range_meters":16400,"station_id":"ce4bhg12rcd13ifvqf60","pricing_plan_id":"free"},{"bike_id":"48120d6f-a5ad-4b77-aa78-a715e967e174","system_id":"levelo_inurba_marseille","lat":43.246467,"lon":5.388984,"is_reserved":false,"is_disabled":false,"rental_uris":{"android":"levelo://app?vid=48120d6f-a5ad-4b77-aa78-a715e967e174","ios":"levelo://app?vid=48120d6f-a5ad-4b77-aa78-a715e967e174"},"vehicle_type_id":"4","last_reported":1701443250,"current_range_meters":22000,"station_id":"ce4bhg12rcd13ifvqf60","pricing_plan_id":"free"},{"bike_id":"e1e7503a-23a5-47d1-9ea8-05ad23f0b81e","system_id":"levelo_inurba_marseille","lat":43.246467,"lon":5.388984,"is_reserved":false,"is_disabled":false,"rental_uris":{"android":"levelo://app?vid=e1e7503a-23a5-47d1-9ea8-05ad23f0b81e","ios":"levelo://app?vid=e1e7503a-23a5-47d1-9ea8-05ad23f0b81e"},"vehicle_type_id":"4","last_reported":1701443250,"current_range_meters":30400,"station_id":"ce4bhg12rcd13ifvqf60","pricing_plan_id":"free"},{"bike_id":"8b2c85bb-5fc8-4c07-814b-cbee55ca2d29","system_id":"levelo_inurba_marseille","lat":43.243883,"lon":5.370578,"is_reserved":false,"is_disabled":false,"rental_uris":{"android":"levelo://app?vid=8b2c85bb-5fc8-4c07-814b-cbee55ca2d29","ios":"levelo://app?vid=8b2c85bb-5fc8-4c07-814b-cbee55ca2d29"},"vehicle_type_id":"4","last_reported":1701443250,"current_range_meters":26400,"station_id":"ce4bhnp2rcd13ifvqgvg","pricing_plan_id":"free"},{"bike_id":"230e6576-7f21-4c08-adc5-4c1b8e14bc3d","system_id":"levelo_inurba_marseille","lat":43.243884,"lon":5.370737,"is_reserved":false,"is_disabled":false,"rental_uris":{"android":"levelo://app?vid=230e6576-7f21-4c08-adc5-4c1b8e14bc3d","ios":"levelo://app?vid=230e6576-7f21-4c08-adc5-4c1b8e14bc3d"},"vehicle_type_id":"4","last_reported":1701443250,"current_range_meters":0,"station_id":"ce4bhhh2rcd13ifvqfk0","pricing_plan_id":"free"},{"bike_id":"28cc30b1-3b2e-4169-99ee-09ebd7cab057","system_id":"levelo_inurba_marseille","lat":43.245581,"lon":5.395069,"is_reserved":false,"is_disabled":false,"rental_uris":{"android":"levelo://app?vid=28cc30b1-3b2e-4169-99ee-09ebd7cab057","ios":"levelo://app?vid=28cc30b1-3b2e-4169-99ee-09ebd7cab057"},"vehicle_type_id":"4","last_reported":1701443250,"current_range_meters":1200,"station_id":"ce4bhlp2rcd13ifvqgjg","pricing_plan_id":"free"},{"bike_id":"8a6d21ee-8178-4f32-b8d1-754b3c0d95f1","system_id":"levelo_inurba_marseille","lat":43.245581,"lon":5.395069,"is_reserved":false,"is_disabled":false,"rental_uris":{"android":"levelo://app?vid=8a6d21ee-8178-4f32-b8d1-754b3c0d95f1","ios":"levelo://app?vid=8a6d21ee-8178-4f32-b8d1-754b3c0d95f1"},"vehicle_type_id":"4","last_reported":1701443250,"current_range_meters":28800,"station_id":"ce4bhlp2rcd13ifvqgjg","pricing_plan_id":"free"},{"bike_id":"8f8a08c5-5ca8-4694-93c6-b968749a30c2","system_id":"levelo_inurba_marseille","lat":43.245581,"lon":5.395069,"is_reserved":false,"is_disabled":false,"rental_uris":{"android":"levelo://app?vid=8f8a08c5-5ca8-4694-93c6-b968749a30c2","ios":"levelo://app?vid=8f8a08c5-5ca8-4694-93c6-b968749a30c2"},"vehicle_type_id":"4","last_reported":1701443250,"current_range_meters":24800,"station_id":"ce4bhlp2rcd13ifvqgjg","pricing_plan_id":"free"},{"bike_id":"f44122c3-b152-40c3-bace-5f58768a5b54","system_id":"levelo_inurba_marseille","lat":43.245581,"lon":5.395069,"is_reserved":false,"is_disabled":false,"rental_uris":{"android":"levelo://app?vid=f44122c3-b152-40c3-bace-5f58768a5b54","ios":"levelo://app?vid=f44122c3-b152-40c3-bace-5f58768a5b54"},"vehicle_type_id":"4","last_reported":1701443250,"current_range_meters":30000,"station_id":"ce4bhlp2rcd13ifvqgjg","pricing_plan_id":"free"},{"bike_id":"2a87836b-b1d6-4514-8a85-314a7b8248c8","system_id":"levelo_inurba_marseille","lat":43.239588,"lon":5.366238,"is_reserved":false,"is_disabled":false,"rental_uris":{"android":"levelo://app?vid=2a87836b-b1d6-4514-8a85-314a7b8248c8","ios":"levelo://app?vid=2a87836b-b1d6-4514-8a85-314a7b8248c8"},"vehicle_type_id":"4","last_reported":1701443250,"current_range_meters":11600,"station_id":"ce4bhi12rcd13ifvqfp0","pricing_plan_id":"free"},{"bike_id":"460ff11d-43d6-4fa0-9381-c598ad26d49a","system_id":"levelo_inurba_marseille","lat":43.241782,"lon":5.397261,"is_reserved":false,"is_disabled":false,"rental_uris":{"android":"levelo://app?vid=460ff11d-43d6-4fa0-9381-c598ad26d49a","ios":"levelo://app?vid=460ff11d-43d6-4fa0-9381-c598ad26d49a"},"vehicle_type_id":"4","last_reported":1701443250,"current_range_meters":31600,"station_id":"ce4bhn12rcd13ifvqgpg","pricing_plan_id":"free"},{"bike_id":"2b87974a-d432-4d0d-9e2e-39ef327a82c9","system_id":"levelo_inurba_marseille","lat":43.241782,"lon":5.397261,"is_reserved":false,"is_disabled":false,"rental_uris":{"android":"levelo://app?vid=2b87974a-d432-4d0d-9e2e-39ef327a82c9","ios":"levelo://app?vid=2b87974a-d432-4d0d-9e2e-39ef327a82c9"},"vehicle_type_id":"4","last_reported":1701443250,"current_range_meters":17600,"station_id":"ce4bhn12rcd13ifvqgpg","pricing_plan_id":"free"},{"bike_id":"0e24d051-c50c-4b49-a037-3ba348f8040f","system_id":"levelo_inurba_marseille","lat":43.24178,"lon":5.39735,"is_reserved":false,"is_disabled":false,"rental_uris":{"android":"levelo://app?vid=0e24d051-c50c-4b49-a037-3ba348f8040f","ios":"levelo://app?vid=0e24d051-c50c-4b49-a037-3ba348f8040f"},"vehicle_type_id":"4","last_reported":1701443250,"current_range_meters":18000,"station_id":"ce4bhn12rcd13ifvqgpg","pricing_plan_id":"free"},{"bike_id":"f0a953fa-f3e0-4e57-a744-3d302484cd59","system_id":"levelo_inurba_marseille","lat":43.241782,"lon":5.397261,"is_reserved":false,"is_disabled":false,"rental_uris":{"android":"levelo://app?vid=f0a953fa-f3e0-4e57-a744-3d302484cd59","ios":"levelo://app?vid=f0a953fa-f3e0-4e57-a744-3d302484cd59"},"vehicle_type_id":"4","last_reported":1701443250,"current_range_meters":19200,"station_id":"ce4bhn12rcd13ifvqgpg","pricing_plan_id":"free"},{"bike_id":"6382809b-45d0-4ad2-8be7-697249f82077","system_id":"levelo_inurba_marseille","lat":43.231919,"lon":5.355532,"is_reserved":false,"is_disabled":false,"rental_uris":{"android":"levelo://app?vid=6382809b-45d0-4ad2-8be7-697249f82077","ios":"levelo://app?vid=6382809b-45d0-4ad2-8be7-697249f82077"},"vehicle_type_id":"4","last_reported":1701443250,"current_range_meters":31600,"station_id":"ce4bhu92rcd13ifvqi70","pricing_plan_id":"free"},{"bike_id":"d919cd84-7675-4a37-b94c-3ba2519b645c","system_id":"levelo_inurba_marseille","lat":43.231919,"lon":5.355532,"is_reserved":false,"is_disabled":false,"rental_uris":{"android":"levelo://app?vid=d919cd84-7675-4a37-b94c-3ba2519b645c","ios":"levelo://app?vid=d919cd84-7675-4a37-b94c-3ba2519b645c"},"vehicle_type_id":"4","last_reported":1701443250,"current_range_meters":28400,"station_id":"ce4bhu92rcd13ifvqi70","pricing_plan_id":"free"},{"bike_id":"d1703505-b125-4a98-a807-11024241bc04","system_id":"levelo_inurba_marseille","lat":43.23192,"lon":5.35555,"is_reserved":false,"is_disabled":false,"rental_uris":{"android":"levelo://app?vid=d1703505-b125-4a98-a807-11024241bc04","ios":"levelo://app?vid=d1703505-b125-4a98-a807-11024241bc04"},"vehicle_type_id":"4","last_reported":1701443250,"current_range_meters":31200,"station_id":"ce4bhu92rcd13ifvqi70","pricing_plan_id":"free"},{"bike_id":"5aaa36a6-4257-480d-95b7-86aa5f368a64","system_id":"levelo_inurba_marseille","lat":43.231919,"lon":5.355532,"is_reserved":false,"is_disabled":false,"rental_uris":{"android":"levelo://app?vid=5aaa36a6-4257-480d-95b7-86aa5f368a64","ios":"levelo://app?vid=5aaa36a6-4257-480d-95b7-86aa5f368a64"},"vehicle_type_id":"4","last_reported":1701443250,"current_range_meters":22000,"station_id":"ce4bhu92rcd13ifvqi70","pricing_plan_id":"free"},{"bike_id":"cf3102c4-88e0-4a41-86b7-69a76932d3e6","system_id":"levelo_inurba_marseille","lat":43.231908,"lon":5.355474,"is_reserved":false,"is_disabled":false,"rental_uris":{"android":"levelo://app?vid=cf3102c4-88e0-4a41-86b7-69a76932d3e6","ios":"levelo://app?vid=cf3102c4-88e0-4a41-86b7-69a76932d3e6"},"vehicle_type_id":"4","last_reported":1701443250,"current_range_meters":31200,"station_id":"ce4bhu92rcd13ifvqi70","pricing_plan_id":"free"},{"bike_id":"e12f8e11-b84e-42bf-bdb7-555721935514","system_id":"levelo_inurba_marseille","lat":43.231794,"lon":5.400052,"is_reserved":false,"is_disabled":false,"rental_uris":{"android":"levelo://app?vid=e12f8e11-b84e-42bf-bdb7-555721935514","ios":"levelo://app?vid=e12f8e11-b84e-42bf-bdb7-555721935514"},"vehicle_type_id":"4","last_reported":1701443250,"current_range_meters":16400,"station_id":"ce4bhn12rcd13ifvqgqg","pricing_plan_id":"free"},{"bike_id":"22bd98e3-c33f-4c44-ae2b-f96729d36f4f","system_id":"levelo_inurba_marseille","lat":43.23187,"lon":5.399942,"is_reserved":false,"is_disabled":false,"rental_uris":{"android":"levelo://app?vid=22bd98e3-c33f-4c44-ae2b-f96729d36f4f","ios":"levelo://app?vid=22bd98e3-c33f-4c44-ae2b-f96729d36f4f"},"vehicle_type_id":"4","last_reported":1701443250,"current_range_meters":31200,"station_id":"ce4bhn12rcd13ifvqgqg","pricing_plan_id":"free"},{"bike_id":"d0b35396-6769-42d4-8160-8b44cb829902","system_id":"levelo_inurba_marseille","lat":43.231793,"lon":5.400044,"is_reserved":false,"is_disabled":false,"rental_uris":{"android":"levelo://app?vid=d0b35396-6769-42d4-8160-8b44cb829902","ios":"levelo://app?vid=d0b35396-6769-42d4-8160-8b44cb829902"},"vehicle_type_id":"4","last_reported":1701443250,"current_range_meters":30400,"station_id":"ce4bhn12rcd13ifvqgqg","pricing_plan_id":"free"},{"bike_id":"1eeab9a5-d341-4bc8-8d21-ee151ff9d9b2","system_id":"levelo_inurba_marseille","lat":43.231814,"lon":5.399928,"is_reserved":false,"is_disabled":false,"rental_uris":{"android":"levelo://app?vid=1eeab9a5-d341-4bc8-8d21-ee151ff9d9b2","ios":"levelo://app?vid=1eeab9a5-d341-4bc8-8d21-ee151ff9d9b2"},"vehicle_type_id":"4","last_reported":1701443250,"current_range_meters":22800,"station_id":"ce4bhn12rcd13ifvqgqg","pricing_plan_id":"free"},{"bike_id":"179bc0fb-370c-4234-b30f-9121ae3c4192","system_id":"levelo_inurba_marseille","lat":43.231794,"lon":5.400052,"is_reserved":false,"is_disabled":false,"rental_uris":{"android":"levelo://app?vid=179bc0fb-370c-4234-b30f-9121ae3c4192","ios":"levelo://app?vid=179bc0fb-370c-4234-b30f-9121ae3c4192"},"vehicle_type_id":"4","last_reported":1701443250,"current_range_meters":16400,"station_id":"ce4bhn12rcd13ifvqgqg","pricing_plan_id":"free"},{"bike_id":"bfb1ccb5-dfa1-425d-901e-02799fedd445","system_id":"levelo_inurba_marseille","lat":43.23179,"lon":5.39997,"is_reserved":false,"is_disabled":false,"rental_uris":{"android":"levelo://app?vid=bfb1ccb5-dfa1-425d-901e-02799fedd445","ios":"levelo://app?vid=bfb1ccb5-dfa1-425d-901e-02799fedd445"},"vehicle_type_id":"4","last_reported":1701443250,"current_range_meters":14000,"station_id":"ce4bhn12rcd13ifvqgqg","pricing_plan_id":"free"},{"bike_id":"c8630d6f-c7f9-4c0d-908b-b8ff188671e4","system_id":"levelo_inurba_marseille","lat":43.231562,"lon":5.436933,"is_reserved":false,"is_disabled":false,"rental_uris":{"android":"levelo://app?vid=c8630d6f-c7f9-4c0d-908b-b8ff188671e4","ios":"levelo://app?vid=c8630d6f-c7f9-4c0d-908b-b8ff188671e4"},"vehicle_type_id":"4","last_reported":1701443250,"current_range_meters":3200,"station_id":"ce4bhmp2rcd13ifvqgog","pricing_plan_id":"free"},{"bike_id":"8e19b34d-d472-4ef1-b579-647ff7eb6077","system_id":"levelo_inurba_marseille","lat":43.23145,"lon":5.437107,"is_reserved":false,"is_disabled":false,"rental_uris":{"android":"levelo://app?vid=8e19b34d-d472-4ef1-b579-647ff7eb6077","ios":"levelo://app?vid=8e19b34d-d472-4ef1-b579-647ff7eb6077"},"vehicle_type_id":"4","last_reported":1701443250,"current_range_meters":18000,"station_id":"ce4bhmp2rcd13ifvqgog","pricing_plan_id":"free"}]}}