{"last_updated":1730027200,"ttl":60,"version":"2.2","data":{"bikes":[{"bike_id":"afcafc6c-ecc3-4f5c-a312-79b6f9633782","system_id":"levelo_inurba_marseille","lat":43.28422,"lon":5.34985,"is_reserved":false,"is_disabled":false,"rental_uris":{"android":"levelo://app?vid=afcafc6c-ecc3-4f5c-a312-79b6f9633782","ios":"levelo://app?vid=afcafc6c-ecc3-4f5c-a312-79b6f9633782"},"vehicle_type_id":"4","last_reported":1730027200,"current_range_meters":10800,"station_id":"ce4bhbh2rcd13ifvqepg","pricing_plan_id":"cebpf4jnsgd1na2vs0mg"},{"bike_id":"69f4165a-13a2-4bd8-b4d6-abfa25614867","system_id":"levelo_inurba_marseille","lat":43.26807,"lon":5.4026,"is_reserved":false,"is_disabled":false,"rental_uris":{"android":"levelo://app?vid=69f4165a-13a2-4bd8-b4d6-abfa25614867","ios":"levelo://app?vid=69f4165a-13a2-4bd8-b4d6-abfa25614867"},"vehicle_type_id":"4","last_reported":1730027200,"current_range_meters":38800,"station_id":"ce501612rcd8frsf0b60","pricing_plan_id":"cebpf4jnsgd1na2vs0mg"},{"bike_id":"a5665962-8f9b-48f5-a5d3-fa16ab36a6ff","system_id":"levelo_inurba_marseille","lat":43.2808,"lon":5.39657,"is_reserved":false,"is_disabled":false,"rental_uris":{"android":"levelo://app?vid=a5665962-8f9b-48f5-a5d3-fa16ab36a6ff","ios":"levelo://app?vid=a5665962-8f9b-48f5-a5d3-fa16ab36a6ff"},"vehicle_type_id":"4","last_reported":1730027200,"current_range_meters":38800,"station_id":"ce4bho12rcd13ifvqh2g","pricing_plan_id":"cebpf4jnsgd1na2vs0mg"},{"bike_id":"5fb7b3c7-bbad-4c2d-828b-aaad6b48e7cf","system_id":"levelo_inurba_marseille","lat":43.27999,"lon":5.40002,"is_reserved":false,"is_disabled":false,"rental_uris":{"android":"levelo://app?vid=5fb7b3c7-bbad-4c2d-828b-aaad6b48e7cf","ios":"levelo://app?vid=5fb7b3c7-bbad-4c2d-828b-aaad6b48e7cf"},"vehicle_type_id":"4","last_reported":1730027200,"current_range_meters":30800,"station_id":"ce4bho92rcd13ifvqh4g","pricing_plan_id":"cebpf4jnsgd1na2vs0mg"},{"bike_id":"0a85807d-c51f-445a-a710-daa2f936e2d8","system_id":"levelo_inurba_marseille","lat":43.29311,"lon":5.37441,"is_reserved":false,"is_disabled":false,"rental_uris":{"android":"levelo://app?vid=0a85807d-c51f-445a-a710-daa2f936e2d8","ios":"levelo://app?vid=0a85807d-c51f-445a-a710-daa2f936e2d8"},"vehicle_type_id":"4","last_reported":1730027200,"current_range_meters":36400,"station_id":"ce4bgi12rcd13ifvqb70","pricing_plan_id":"cebpf4jnsgd1na2vs0mg"},{"bike_id":"48660d12-eacc-4f93-a06c-04c2aa9e37e4","system_id":"levelo_inurba_marseille","lat":43.26802,"lon":5.40264,"is_reserved":false,"is_disabled":false,"rental_uris":{"android":"levelo://app?vid=48660d12-eacc-4f93-a06c-04c2aa9e37e4","ios":"levelo://app?vid=48660d12-eacc-4f93-a06c-04c2aa9e37e4"},"vehicle_type_id":"4","last_reported":1730027200,"current_range_meters":18000,"station_id":"ce501612rcd8frsf0b60","pricing_plan_id":"cebpf4jnsgd1na2vs0mg"},{"bike_id":"9d1f8e5b-a54b-44ef-a1e3-676db13b2967","system_id":"levelo_inurba_marseille","lat":43.30463,"lon":5.3791,"is_reserved":false,"is_disabled":false,"rental_uris":{"android":"levelo://app?vid=9d1f8e5b-a54b-44ef-a1e3-676db13b2967","ios":"levelo://app?vid=9d1f8e5b-a54b-44ef-a1e3-676db13b2967"},"vehicle_type_id":"4","last_reported":1730027200,"current_range_meters":38800,"station_id":"ce4bgup2rcd13ifvqcn0","pricing_plan_id":"cebpf4jnsgd1na2vs0mg"},{"bike_id":"78720953-dc66-4056-9566-1b8201fd6bf1","system_id":"levelo_inurba_marseille","lat":43.30531,"lon":5.36706,"is_reserved":false,"is_disabled":false,"rental_uris":{"android":"levelo://app?vid=78720953-dc66-4056-9566-1b8201fd6bf1","ios":"levelo://app?vid=78720953-dc66-4056-9566-1b8201fd6bf1"},"vehicle_type_id":"4","last_reported":1730027200,"current_range_meters":37600,"station_id":"ce4bgrp2rcd13ifvqc9g","pricing_plan_id":"cebpf4jnsgd1na2vs0mg"},{"bike_id":"f3d5c86c-ab11-4ca3-aa72-c97ea732ed17","system_id":"levelo_inurba_marseille","lat":43.27331,"lon":5.39095,"is_reserved":false,"is_disabled":false,"rental_uris":{"android":"levelo://app?vid=f3d5c86c-ab11-4ca3-aa72-c97ea732ed17","ios":"levelo://app?vid=f3d5c86c-ab11-4ca3-aa72-c97ea732ed17"},"vehicle_type_id":"4","last_reported":1730027200,"current_range_meters":30000,"station_id":"ce4bhgp2rcd13ifvqfe0","pricing_plan_id":"cebpf4jnsgd1na2vs0mg"},{"bike_id":"3381cd79-1316-4c50-ad86-ee5056cd0e14","system_id":"levelo_inurba_marseille","lat":43.26061,"lon":5.39393,"is_reserved":false,"is_disabled":false,"rental_uris":{"android":"levelo://app?vid=3381cd79-1316-4c50-ad86-ee5056cd0e14","ios":"levelo://app?vid=3381cd79-1316-4c50-ad86-ee5056cd0e14"},"vehicle_type_id":"4","last_reported":1730027200,"current_range_meters":31200,"station_id":"ce4bhh92rcd13ifvqfj0","pricing_plan_id":"cebpf4jnsgd1na2vs0mg"},{"bike_id":"64dbca5d-e636-4e76-836b-5c5b035bcc10","system_id":"levelo_inurba_marseille","lat":43.29162,"lon":5.37166,"is_reserved":false,"is_disabled":false,"rental_uris":{"android":"levelo://app?vid=64dbca5d-e636-4e76-836b-5c5b035bcc10","ios":"levelo://app?vid=64dbca5d-e636-4e76-836b-5c5b035bcc10"},"vehicle_type_id":"4","last_reported":1730027200,"current_range_meters":26000,"station_id":"ce4bha92rcd13ifvqeh0","pricing_plan_id":"cebpf4jnsgd1na2vs0mg"},{"bike_id":"cdbd66f0-968f-4f0a-8358-db0a80a81b9d","system_id":"levelo_inurba_marseille","lat":43.29025,"lon":5.38639,"is_reserved":false,"is_disabled":false,"rental_uris":{"android":"levelo://app?vid=cdbd66f0-968f-4f0a-8358-db0a80a81b9d","ios":"levelo://app?vid=cdbd66f0-968f-4f0a-8358-db0a80a81b9d"},"vehicle_type_id":"4","last_reported":1730027200,"current_range_meters":38000,"station_id":"ce4bh4p2rcd13ifvqe0g","pricing_plan_id":"cebpf4jnsgd1na2vs0mg"},{"bike_id":"c9651fb3-7b99-44ae-a0ca-7e5acf898697","system_id":"levelo_inurba_marseille","lat":43.30414,"lon":5.41283,"is_reserved":false,"is_disabled":false,"rental_uris":{"android":"levelo://app?vid=c9651fb3-7b99-44ae-a0ca-7e5acf898697","ios":"levelo://app?vid=c9651fb3-7b99-44ae-a0ca-7e5acf898697"},"vehicle_type_id":"4","last_reported":1730027200,"current_range_meters":31200,"station_id":"ce4bhop2rcd13ifvqh8g","pricing_plan_id":"cebpf4jnsgd1na2vs0mg"},{"bike_id":"03121799-72ec-42bb-9550-27020bd930b3","system_id":"levelo_inurba_marseille","lat":43.29004,"lon":5.35612,"is_reserved":false,"is_disabled":false,"rental_uris":{"android":"levelo://app?vid=03121799-72ec-42bb-9550-27020bd930b3","ios":"levelo://app?vid=03121799-72ec-42bb-9550-27020bd930b3"},"vehicle_type_id":"4","last_reported":1730027200,"current_range_meters":36000,"station_id":"ce4bhb92rcd13ifvqen0","pricing_plan_id":"cebpf4jnsgd1na2vs0mg"},{"bike_id":"d3c00326-2053-4dfa-8f38-475bf5a8246c","system_id":"levelo_inurba_marseille","lat":43.24389,"lon":5.37056,"is_reserved":false,"is_disabled":false,"rental_uris":{"android":"levelo://app?vid=d3c00326-2053-4dfa-8f38-475bf5a8246c","ios":"levelo://app?vid=d3c00326-2053-4dfa-8f38-475bf5a8246c"},"vehicle_type_id":"4","last_reported":1730027200,"current_range_meters":33200,"station_id":"ce4bhhh2rcd13ifvqfk0","pricing_plan_id":"cebpf4jnsgd1na2vs0mg"},{"bike_id":"abc1cbd8-f302-480b-80c1-79d269cb054d","system_id":"levelo_inurba_marseille","lat":43.29711,"lon":5.37689,"is_reserved":false,"is_disabled":false,"rental_uris":{"android":"levelo://app?vid=abc1cbd8-f302-480b-80c1-79d269cb054d","ios":"levelo://app?vid=abc1cbd8-f302-480b-80c1-79d269cb054d"},"vehicle_type_id":"4","last_reported":1730027200,"current_range_meters":18800,"station_id":"ce4bgkh2rcd13ifvqbl0","pricing_plan_id":"cebpf4jnsgd1na2vs0mg"},{"bike_id":"fd4c24ff-33c5-4aae-82d8-3b6c24881973","system_id":"levelo_inurba_marseille","lat":43.29278,"lon":5.36844,"is_reserved":false,"is_disabled":false,"rental_uris":{"android":"levelo://app?vid=fd4c24ff-33c5-4aae-82d8-3b6c24881973","ios":"levelo://app?vid=fd4c24ff-33c5-4aae-82d8-3b6c24881973"},"vehicle_type_id":"4","last_reported":1730027200,"current_range_meters":12000,"station_id":"ce4bhbp2rcd13ifvqesg","pricing_plan_id":"cebpf4jnsgd1na2vs0mg"},{"bike_id":"96e8a04e-eaaa-4c54-b7b2-d27222ec8868","system_id":"levelo_inurba_marseille","lat":43.25006,"lon":5.38917,"is_reserved":false,"is_disabled":false,"rental_uris":{"android":"levelo://app?vid=96e8a04e-eaaa-4c54-b7b2-d27222ec8868","ios":"levelo://app?vid=96e8a04e-eaaa-4c54-b7b2-d27222ec8868"},"vehicle_type_id":"4","last_reported":1730027200,"current_range_meters":9200,"station_id":"ce4bhgp2rcd13ifvqfd0","pricing_plan_id":"cebpf4jnsgd1na2vs0mg"},{"bike_id":"d97b91f4-e188-49a4-8c71-216ae6228de5","system_id":"levelo_inurba_marseille","lat":43.32659,"lon":5.40981,"is_reserved":false,"is_disabled":false,"rental_uris":{"android":"levelo://app?vid=d97b91f4-e188-49a4-8c71-216ae6228de5","ios":"levelo://app?vid=d97b91f4-e188-49a4-8c71-216ae6228de5"},"vehicle_type_id":"4","last_reported":1730027200,"current_range_meters":40000,"station_id":"ce4bhpp2rcd13ifvqhgg","pricing_plan_id":"cebpf4jnsgd1na2vs0mg"},{"bike_id":"51078806-6744-4d81-a522-f0ddb5187917","system_id":"levelo_inurba_marseille","lat":43.30147,"lon":5.38076,"is_reserved":false,"is_disabled":false,"rental_uris":{"android":"levelo://app?vid=51078806-6744-4d81-a522-f0ddb5187917","ios":"levelo://app?vid=51078806-6744-4d81-a522-f0ddb5187917"},"vehicle_type_id":"4","last_reported":1730027200,"current_range_meters":38400,"station_id":"ce4bgjp2rcd13ifvqbh0","pricing_plan_id":"cebpf4jnsgd1na2vs0mg"},{"bike_id":"2f051961-c4ba-4018-add6-212a167960d0","system_id":"levelo_inurba_marseille","lat":43.29296,"lon":5.37448,"is_reserved":false,"is_disabled":false,"rental_uris":{"android":"levelo://app?vid=2f051961-c4ba-4018-add6-212a167960d0","ios":"levelo://app?vid=2f051961-c4ba-4018-add6-212a167960d0"},"vehicle_type_id":"4","last_reported":1730027200,"current_range_meters":20000,"station_id":"ce4bgi12rcd13ifvqb70","pricing_plan_id":"cebpf4jnsgd1na2vs0mg"},{"bike_id":"6f5be585-ce43-4721-b2d4-ef357e71fe7d","system_id":"levelo_inurba_marseille","lat":43.29296,"lon":5.37458,"is_reserved":false,"is_disabled":false,"rental_uris":{"android":"levelo://app?vid=6f5be585-ce43-4721-b2d4-ef357e71fe7d","ios":"levelo://app?vid=6f5be585-ce43-4721-b2d4-ef357e71fe7d"},"vehicle_type_id":"4","last_reported":1730027200,"current_range_meters":8000,"station_id":"ce4bgi12rcd13ifvqb70","pricing_plan_id":"cebpf4jnsgd1na2vs0mg"},{"bike_id":"dd85d6ee-8329-49b3-9eca-13a38a896c8c","system_id":"levelo_inurba_marseille","lat":43.2439,"lon":5.37059,"is_reserved":false,"is_disabled":false,"rental_uris":{"android":"levelo://app?vid=dd85d6ee-8329-49b3-9eca-13a38a896c8c","ios":"levelo://app?vid=dd85d6ee-8329-49b3-9eca-13a38a896c8c"},"vehicle_type_id":"4","last_reported":1730027200,"current_range_meters":30000,"station_id":"ce4bhhh2rcd13ifvqfk0","pricing_plan_id":"cebpf4jnsgd1na2vs0mg"},{"bike_id":"f85d1b72-3a8c-4a2a-864a-92a540d77af2","system_id":"levelo_inurba_marseille","lat":43.31271,"lon":5.40166,"is_reserved":false,"is_disabled":false,"rental_uris":{"android":"levelo://app?vid=f85d1b72-3a8c-4a2a-864a-92a540d77af2","ios":"levelo://app?vid=f85d1b72-3a8c-4a2a-864a-92a540d77af2"},"vehicle_type_id":"4","last_reported":1730027200,"current_range_meters":40000,"station_id":"ce4bh092rcd13ifvqd30","pricing_plan_id":"cebpf4jnsgd1na2vs0mg"},{"bike_id":"f3a7107b-ddff-4a13-a6db-1923cbf636f7","system_id":"levelo_inurba_marseille","lat":43.29623,"lon":5.37165,"is_reserved":false,"is_disabled":false,"rental_uris":{"android":"levelo://app?vid=f3a7107b-ddff-4a13-a6db-1923cbf636f7","ios":"levelo://app?vid=f3a7107b-ddff-4a13-a6db-1923cbf636f7"},"vehicle_type_id":"4","last_reported":1730027200,"current_range_meters":30400,"station_id":"ce4bgnh2rcd13ifvqc0g","pricing_plan_id":"cebpf4jnsgd1na2vs0mg"},{"bike_id":"633bdd84-8a27-486c-8d5a-62bd9dd56f9f","system_id":"levelo_inurba_marseille","lat":43.26944,"lon":5.40245,"is_reserved":false,"is_disabled":false,"rental_uris":{"android":"levelo://app?vid=633bdd84-8a27-486c-8d5a-62bd9dd56f9f","ios":"levelo://app?vid=633bdd84-8a27-486c-8d5a-62bd9dd56f9f"},"vehicle_type_id":"4","last_reported":1730027200,"current_range_meters":38800,"station_id":"cjm6bp8fraef2m0cb0m0","pricing_plan_id":"cebpf4jnsgd1na2vs0mg"},{"bike_id":"92486913-3069-465a-9940-1f6062124ee2","system_id":"levelo_inurba_marseille","lat":43.29847,"lon":5.36268,"is_reserved":false,"is_disabled":false,"rental_uris":{"android":"levelo://app?vid=92486913-3069-465a-9940-1f6062124ee2","ios":"levelo://app?vid=92486913-3069-465a-9940-1f6062124ee2"},"vehicle_type_id":"4","last_reported":1730027200,"current_range_meters":38800,"station_id":"ce4bgpp2rcd13ifvqc3g","pricing_plan_id":"cebpf4jnsgd1na2vs0mg"},{"bike_id":"94008cea-95dd-4c3d-b32c-368ab2fae152","system_id":"levelo_inurba_marseille","lat":43.24178,"lon":5.39734,"is_reserved":false,"is_disabled":false,"rental_uris":{"android":"levelo://app?vid=94008cea-95dd-4c3d-b32c-368ab2fae152","ios":"levelo://app?vid=94008cea-95dd-4c3d-b32c-368ab2fae152"},"vehicle_type_id":"4","last_reported":1730027200,"current_range_meters":40000,"station_id":"ce4bhn12rcd13ifvqgpg","pricing_plan_id":"cebpf4jnsgd1na2vs0mg"},{"bike_id":"0c5cd99c-9f06-4e90-a5fc-6ff2c5bc4703","system_id":"levelo_inurba_marseille","lat":43.26932,"lon":5.38906,"is_reserved":false,"is_disabled":false,"rental_uris":{"android":"levelo://app?vid=0c5cd99c-9f06-4e90-a5fc-6ff2c5bc4703","ios":"levelo://app?vid=0c5cd99c-9f06-4e90-a5fc-6ff2c5bc4703"},"vehicle_type_id":"4","last_reported":1730027200,"current_range_meters":37600,"station_id":"ce4bhhh2rcd13ifvqfl0","pricing_plan_id":"cebpf4jnsgd1na2vs0mg"},{"bike_id":"7ef3afa6-a563-4f79-a95b-021fa19908bc","system_id":"levelo_inurba_marseille","lat":43.25502,"lon":5.37649,"is_reserved":false,"is_disabled":false,"rental_uris":{"android":"levelo://app?vid=7ef3afa6-a563-4f79-a95b-021fa19908bc","ios":"levelo://app?vid=7ef3afa6-a563-4f79-a95b-021fa19908bc"},"vehicle_type_id":"4","last_reported":1730027200,"current_range_meters":39200,"station_id":"ce4bhh12rcd13ifvqff0","pricing_plan_id":"cebpf4jnsgd1na2vs0mg"},{"bike_id":"c8f33dbe-8d46-4679-b0bd-686b38e43e1d","system_id":"levelo_inurba_marseille","lat":43.24543,"lon":5.39524,"is_reserved":false,"is_disabled":false,"rental_uris":{"android":"levelo://app?vid=c8f33dbe-8d46-4679-b0bd-686b38e43e1d","ios":"levelo://app?vid=c8f33dbe-8d46-4679-b0bd-686b38e43e1d"},"vehicle_type_id":"4","last_reported":1730027200,"current_range_meters":28400,"station_id":"ce4bhlp2rcd13ifvqgjg","pricing_plan_id":"cebpf4jnsgd1na2vs0mg"},{"bike_id":"a402349c-2289-4512-8e06-ddedd18ccc18","system_id":"levelo_inurba_marseille","lat":43.27321,"lon":5.39079,"is_reserved":false,"is_disabled":false,"rental_uris":{"android":"levelo://app?vid=a402349c-2289-4512-8e06-ddedd18ccc18","ios":"levelo://app?vid=a402349c-2289-4512-8e06-ddedd18ccc18"},"vehicle_type_id":"4","last_reported":1730027200,"current_range_meters":12800,"station_id":"ce4bhgp2rcd13ifvqfe0","pricing_plan_id":"cebpf4jnsgd1na2vs0mg"},{"bike_id":"ff081f0c-ea21-431a-8d61-ad48db65fd3a","system_id":"levelo_inurba_marseille","lat":43.30353,"lon":5.41879,"is_reserved":false,"is_disabled":false,"rental_uris":{"android":"levelo://app?vid=ff081f0c-ea21-431a-8d61-ad48db65fd3a","ios":"levelo://app?vid=ff081f0c-ea21-431a-8d61-ad48db65fd3a"},"vehicle_type_id":"4","last_reported":1730027200,"current_range_meters":29600,"station_id":"ce4bhop2rcd13ifvqh7g","pricing_plan_id":"cebpf4jnsgd1na2vs0mg"},{"bike_id":"b3dddb20-083c-47eb-8f00-9a6e4abc0713","system_id":"levelo_inurba_marseille","lat":43.26813,"lon":5.37902,"is_reserved":false,"is_disabled":false,"rental_uris":{"android":"levelo://app?vid=b3dddb20-083c-47eb-8f00-9a6e4abc0713","ios":"levelo://app?vid=b3dddb20-083c-47eb-8f00-9a6e4abc0713"},"vehicle_type_id":"4","last_reported":1730027200,"current_range_meters":6800,"station_id":"ce4bhf92rcd13ifvqf50","pricing_plan_id":"cebpf4jnsgd1na2vs0mg"},{"bike_id":"8c0c2fa1-37f9-48f1-b246-0c1a1c47fbb2","system_id":"levelo_inurba_marseille","lat":43.26567,"lon":5.38997,"is_reserved":false,"is_disabled":false,"rental_uris":{"android":"levelo://app?vid=8c0c2fa1-37f9-48f1-b246-0c1a1c47fbb2","ios":"levelo://app?vid=8c0c2fa1-37f9-48f1-b246-0c1a1c47fbb2"},"vehicle_type_id":"4","last_reported":1730027200,"current_range_meters":38800,"station_id":"ce4bhe12rcd13ifvqf30","pricing_plan_id":"cebpf4jnsgd1na2vs0mg"},{"bike_id":"c6ea231e-12f0-40bd-b9b2-e7bf1a3de1c5","system_id":"levelo_inurba_marseille","lat":43.3081,"lon":5.43524,"is_reserved":false,"is_disabled":false,"rental_uris":{"android":"levelo://app?vid=c6ea231e-12f0-40bd-b9b2-e7bf1a3de1c5","ios":"levelo://app?vid=c6ea231e-12f0-40bd-b9b2-e7bf1a3de1c5"},"vehicle_type_id":"4","last_reported":1730027200,"current_range_meters":21600,"station_id":"ce4bhph2rcd13ifvqheg","pricing_plan_id":"cebpf4jnsgd1na2vs0mg"},{"bike_id":"8ed0e600-52f7-4841-aa09-f2be0f0fd557","system_id":"levelo_inurba_marseille","lat":43.26798,"lon":5.40263,"is_reserved":false,"is_disabled":false,"rental_uris":{"android":"levelo://app?vid=8ed0e600-52f7-4841-aa09-f2be0f0fd557","ios":"levelo://app?vid=8ed0e600-52f7-4841-aa09-f2be0f0fd557"},"vehicle_type_id":"4","last_reported":1730027200,"current_range_meters":38800,"station_id":"ce501612rcd8frsf0b60","pricing_plan_id":"cebpf4jnsgd1na2vs0mg"},{"bike_id":"77bdee59-8b1a-4a67-a616-a0a4a9f1faaa","system_id":"levelo_inurba_marseille","lat":43.29183,"lon":5.37157,"is_reserved":false,"is_disabled":false,"rental_uris":{"android":"levelo://app?vid=77bdee59-8b1a-4a67-a616-a0a4a9f1faaa","ios":"levelo://app?vid=77bdee59-8b1a-4a67-a616-a0a4a9f1faaa"},"vehicle_type_id":"4","last_reported":1730027200,"current_range_meters":39200,"station_id":"ce4bha92rcd13ifvqeh0","pricing_plan_id":"cebpf4jnsgd1na2vs0mg"},{"bike_id":"02e93658-a646-4595-9a8b-543b60579eaa","system_id":"levelo_inurba_marseille","lat":43.26945,"lon":5.38628,"is_reserved":false,"is_disabled":false,"rental_uris":{"android":"levelo://app?vid=02e93658-a646-4595-9a8b-543b60579eaa","ios":"levelo://app?vid=02e93658-a646-4595-9a8b-543b60579eaa"},"vehicle_type_id":"4","last_reported":1730027200,"current_range_meters":12400,"station_id":"ce4bhh92rcd13ifvqfh0","pricing_plan_id":"cebpf4jnsgd1na2vs0mg"},{"bike_id":"e6d3bcb8-2f97-4379-9ffc-70495f1bd10c","system_id":"levelo_inurba_marseille","lat":43.27329,"lon":5.39084,"is_reserved":false,"is_disabled":false,"rental_uris":{"android":"levelo://app?vid=e6d3bcb8-2f97-4379-9ffc-70495f1bd10c","ios":"levelo://app?vid=e6d3bcb8-2f97-4379-9ffc-70495f1bd10c"},"vehicle_type_id":"4","last_reported":1730027200,"current_range_meters":12400,"station_id":"ce4bhgp2rcd13ifvqfe0","pricing_plan_id":"cebpf4jnsgd1na2vs0mg"},{"bike_id":"b8b59812-7afe-47c0-9894-bde2533a587e","system_id":"levelo_inurba_marseille","lat":43.297821,"lon":5.380978,"is_reserved":false,"is_disabled":false,"rental_uris":{"android":"levelo://app?vid=b8b59812-7afe-47c0-9894-bde2533a587e","ios":"levelo://app?vid=b8b59812-7afe-47c0-9894-bde2533a587e"},"vehicle_type_id":"4","last_reported":1730027200,"current_range_meters":38800,"station_id":"ce4bgip2rcd13ifvqbb0","pricing_plan_id":"cebpf4jnsgd1na2vs0mg"},{"bike_id":"8d083ce6-a870-4d2e-8e48-f42f492e858e","system_id":"levelo_inurba_marseille","lat":43.30463,"lon":5.37906,"is_reserved":false,"is_disabled":false,"rental_uris":{"android":"levelo://app?vid=8d083ce6-a870-4d2e-8e48-f42f492e858e","ios":"levelo://app?vid=8d083ce6-a870-4d2e-8e48-f42f492e858e"},"vehicle_type_id":"4","last_reported":1730027200,"current_range_meters":24000,"station_id":"ce4bgup2rcd13ifvqcn0","pricing_plan_id":"cebpf4jnsgd1na2vs0mg"},{"bike_id":"5de0a329-7698-4bce-b772-88bd5818048d","system_id":"levelo_inurba_marseille","lat":43.26067,"lon":5.39391,"is_reserved":false,"is_disabled":false,"rental_uris":{"android":"levelo://app?vid=5de0a329-7698-4bce-b772-88bd5818048d","ios":"levelo://app?vid=5de0a329-7698-4bce-b772-88bd5818048d"},"vehicle_type_id":"4","last_reported":1730027200,"current_range_meters":32800,"station_id":"ce4bhh92rcd13ifvqfj0","pricing_plan_id":"cebpf4jnsgd1na2vs0mg"},{"bike_id":"7ff070ee-928e-477c-a7e2-582135fb1318","system_id":"levelo_inurba_marseille","lat":43.30284,"lon":5.376916,"is_reserved":false,"is_disabled":false,"rental_uris":{"android":"levelo://app?vid=7ff070ee-928e-477c-a7e2-582135fb1318","ios":"levelo://app?vid=7ff070ee-928e-477c-a7e2-582135fb1318"},"vehicle_type_id":"4","last_reported":1730027200,"current_range_meters":34000,"station_id":"ce4bguh2rcd13ifvqcj0","pricing_plan_id":"cebpf4jnsgd1na2vs0mg"},{"bike_id":"27f39214-437b-402f-ba70-e8fd46f4e41b","system_id":"levelo_inurba_marseille","lat":43.28518,"lon":5.36937,"is_reserved":false,"is_disabled":false,"rental_uris":{"android":"levelo://app?vid=27f39214-437b-402f-ba70-e8fd46f4e41b","ios":"levelo://app?vid=27f39214-437b-402f-ba70-e8fd46f4e41b"},"vehicle_type_id":"4","last_reported":1730027200,"current_range_meters":19200,"station_id":"","pricing_plan_id":"cebpf4jnsgd1na2vs0mg"},{"bike_id":"5ed72901-e44e-460e-9669-5f1f8a6d2f53","system_id":"levelo_inurba_marseille","lat":43.28666,"lon":5.44468,"is_reserved":false,"is_disabled":false,"rental_uris":{"android":"levelo://app?vid=5ed72901-e44e-460e-9669-5f1f8a6d2f53","ios":"levelo://app?vid=5ed72901-e44e-460e-9669-5f1f8a6d2f53"},"vehicle_type_id":"4","last_reported":1730027200,"current_range_meters":9600,"station_id":"","pricing_plan_id":"cebpf4jnsgd1na2vs0mg"},{"bike_id":"e7360508-6978-487a-a79b-5e2dad5d0ea3","system_id":"levelo_inurba_marseille","lat":43.22932,"lon":5.35374,"is_reserved":false,"is_disabled":false,"rental_uris":{"android":"levelo://app?vid=e7360508-6978-487a-a79b-5e2dad5d0ea3","ios":"levelo://app?vid=e7360508-6978-487a-a79b-5e2dad5d0ea3"},"vehicle_type_id":"4","last_reported":1730027200,"current_range_meters":25200,"station_id":"cpo3532slgdg3j2ikp40","pricing_plan_id":"cebpf4jnsgd1na2vs0mg"},{"bike_id":"0ffc7421-c922-46fc-ab65-c26a6371c358","system_id":"levelo_inurba_marseille","lat":43.27183,"lon":5.4099,"is_reserved":false,"is_disabled":false,"rental_uris":{"android":"levelo://app?vid=0ffc7421-c922-46fc-ab65-c26a6371c358","ios":"levelo://app?vid=0ffc7421-c922-46fc-ab65-c26a6371c358"},"vehicle_type_id":"4","last_reported":1730027200,"current_range_meters":33600,"station_id":"ce4bhl12rcd13ifvqgf0","pricing_plan_id":"cebpf4jnsgd1na2vs0mg"},{"bike_id":"f10a7595-a672-47e5-a778-3d8dcc9d60d6","system_id":"levelo_inurba_marseille","lat":43.29524,"lon":5.38541,"is_reserved":false,"is_disabled":false,"rental_uris":{"android":"levelo://app?vid=f10a7595-a672-47e5-a778-3d8dcc9d60d6","ios":"levelo://app?vid=f10a7595-a672-47e5-a778-3d8dcc9d60d6"},"vehicle_type_id":"4","last_reported":1730027200,"current_range_meters":30800,"station_id":"ce4bgih2rcd13ifvqba0","pricing_plan_id":"cebpf4jnsgd1na2vs0mg"},{"bike_id":"b35a0392-e554-4546-b711-92909535a7a9","system_id":"levelo_inurba_marseille","lat":43.25586,"lon":5.38231,"is_reserved":false,"is_disabled":false,"rental_uris":{"android":"levelo://app?vid=b35a0392-e554-4546-b711-92909535a7a9","ios":"levelo://app?vid=b35a0392-e554-4546-b711-92909535a7a9"},"vehicle_type_id":"4","last_reported":1730027200,"current_range_meters":29600,"station_id":"ce4bhih2rcd13ifvqfs0","pricing_plan_id":"cebpf4jnsgd1na2vs0mg"},{"bike_id":"32669b12-4ec1-41d8-be48-28f196a0ec8b","system_id":"levelo_inurba_marseille","lat":43.30149,"lon":5.3741,"is_reserved":false,"is_disabled":false,"rental_uris":{"android":"levelo://app?vid=32669b12-4ec1-41d8-be48-28f196a0ec8b","ios":"levelo://app?vid=32669b12-4ec1-41d8-be48-28f196a0ec8b"},"vehicle_type_id":"4","last_reported":1730027200,"current_range_meters":38400,"station_id":"ce4bgs92rcd13ifvqcc0","pricing_plan_id":"cebpf4jnsgd1na2vs0mg"},{"bike_id":"34c0b19e-e327-425b-bf09-25bec92dd9c4","system_id":"levelo_inurba_marseille","lat":43.2933,"lon":5.4547,"is_reserved":false,"is_disabled":false,"rental_uris":{"android":"levelo://app?vid=34c0b19e-e327-425b-bf09-25bec92dd9c4","ios":"levelo://app?vid=34c0b19e-e327-425b-bf09-25bec92dd9c4"},"vehicle_type_id":"4","last_reported":1730027200,"current_range_meters":6400,"station_id":"","pricing_plan_id":"cebpf4jnsgd1na2vs0mg"},{"bike_id":"82b38875-307d-40a4-b2d2-29f6abfedf60","system_id":"levelo_inurba_marseille","lat":43.25935,"lon":5.40909,"is_reserved":false,"is_disabled":false,"rental_uris":{"android":"levelo://app?vid=82b38875-307d-40a4-b2d2-29f6abfedf60","ios":"levelo://app?vid=82b38875-307d-40a4-b2d2-29f6abfedf60"},"vehicle_type_id":"4","last_reported":1730027200,"current_range_meters":19200,"station_id":"ce4bhm92rcd13ifvqglg","pricing_plan_id":"cebpf4jnsgd1na2vs0mg"},{"bike_id":"4e1b89e2-f965-455a-b9ce-8fa933558641","system_id":"levelo_inurba_marseille","lat":43.24651,"lon":5.38898,"is_reserved":false,"is_disabled":false,"rental_uris":{"android":"levelo://app?vid=4e1b89e2-f965-455a-b9ce-8fa933558641","ios":"levelo://app?vid=4e1b89e2-f965-455a-b9ce-8fa933558641"},"vehicle_type_id":"4","last_reported":1730027200,"current_range_meters":38800,"station_id":"ce4bhg12rcd13ifvqf60","pricing_plan_id":"cebpf4jnsgd1na2vs0mg"},{"bike_id":"34f93e00-5029-4642-b0c4-0b8938f16f5d","system_id":"levelo_inurba_marseille","lat":43.313544,"lon":5.367216,"is_reserved":false,"is_disabled":false,"rental_uris":{"android":"levelo://app?vid=34f93e00-5029-4642-b0c4-0b8938f16f5d","ios":"levelo://app?vid=34f93e00-5029-4642-b0c4-0b8938f16f5d"},"vehicle_type_id":"4","last_reported":1730027200,"current_range_meters":31200,"station_id":"ce4bgr92rcd13ifvqc6g","pricing_plan_id":"cebpf4jnsgd1na2vs0mg"},{"bike_id":"60694fb9-2561-4b49-a50e-f1a6af5c3232","system_id":"levelo_inurba_marseille","lat":43.30915,"lon":5.36843,"is_reserved":false,"is_disabled":false,"rental_uris":{"android":"levelo://app?vid=60694fb9-2561-4b49-a50e-f1a6af5c3232","ios":"levelo://app?vid=60694fb9-2561-4b49-a50e-f1a6af5c3232"},"vehicle_type_id":"4","last_reported":1730027200,"current_range_meters":28000,"station_id":"ce4bgn92rcd13ifvqbvg","pricing_plan_id":"cebpf4jnsgd1na2vs0mg"},{"bike_id":"c8c2d31b-9502-41d1-bb85-b951d5c86200","system_id":"levelo_inurba_marseille","lat":43.30142,"lon":5.38084,"is_reserved":false,"is_disabled":false,"rental_uris":{"android":"levelo://app?vid=c8c2d31b-9502-41d1-bb85-b951d5c86200","ios":"levelo://app?vid=c8c2d31b-9502-41d1-bb85-b951d5c86200"},"vehicle_type_id":"4","last_reported":1730027200,"current_range_meters":24800,"station_id":"ce4bgjp2rcd13ifvqbh0","pricing_plan_id":"cebpf4jnsgd1na2vs0mg"},{"bike_id":"e16ba0fb-c8f9-4074-a1c8-ad626ad5602f","system_id":"levelo_inurba_marseille","lat":43.26944,"lon":5.40239,"is_reserved":false,"is_disabled":false,"rental_uris":{"android":"levelo://app?vid=e16ba0fb-c8f9-4074-a1c8-ad626ad5602f","ios":"levelo://app?vid=e16ba0fb-c8f9-4074-a1c8-ad626ad5602f"},"vehicle_type_id":"4","last_reported":1730027200,"current_range_meters":38800,"station_id":"cjm6bp8fraef2m0cb0m0","pricing_plan_id":"cebpf4jnsgd1na2vs0mg"},{"bike_id":"0e1999de-b984-4f60-b291-f83e907cbd57","system_id":"levelo_inurba_marseille","lat":43.27315,"lon":5.39089,"is_reserved":false,"is_disabled":false,"rental_uris":{"android":"levelo://app?vid=0e1999de-b984-4f60-b291-f83e907cbd57","ios":"levelo://app?vid=0e1999de-b984-4f60-b291-f83e907cbd57"},"vehicle_type_id":"4","last_reported":1730027200,"current_range_meters":35200,"station_id":"ce4bhgp2rcd13ifvqfe0","pricing_plan_id":"cebpf4jnsgd1na2vs0mg"},{"bike_id":"516d2c7e-30e2-429a-adec-fbbadb0d1d0b","system_id":"levelo_inurba_marseille","lat":43.28618,"lon":5.351,"is_reserved":false,"is_disabled":false,"rental_uris":{"android":"levelo://app?vid=516d2c7e-30e2-429a-adec-fbbadb0d1d0b","ios":"levelo://app?vid=516d2c7e-30e2-429a-adec-fbbadb0d1d0b"},"vehicle_type_id":"4","last_reported":1730027200,"current_range_meters":32800,"station_id":"ce4bhch2rcd13ifvqeug","pricing_plan_id":"cebpf4jnsgd1na2vs0mg"},{"bike_id":"b3521c6c-2e5f-490e-be8f-d619a4b8037c","system_id":"levelo_inurba_marseille","lat":43.23181,"lon":5.39982,"is_reserved":false,"is_disabled":false,"rental_uris":{"android":"levelo://app?vid=b3521c6c-2e5f-490e-be8f-d619a4b8037c","ios":"levelo://app?vid=b3521c6c-2e5f-490e-be8f-d619a4b8037c"},"vehicle_type_id":"4","last_reported":1730027200,"current_range_meters":11200,"station_id":"ce4bhn12rcd13ifvqgqg","pricing_plan_id":"cebpf4jnsgd1na2vs0mg"},{"bike_id":"0927a9a6-2aa8-4e37-9962-91ca9c7b80a8","system_id":"levelo_inurba_marseille","lat":43.27425,"lon":5.39403,"is_reserved":false,"is_disabled":false,"rental_uris":{"android":"levelo://app?vid=0927a9a6-2aa8-4e37-9962-91ca9c7b80a8","ios":"levelo://app?vid=0927a9a6-2aa8-4e37-9962-91ca9c7b80a8"},"vehicle_type_id":"4","last_reported":1730027200,"current_range_meters":28800,"station_id":"ce4bhdp2rcd13ifvqf20","pricing_plan_id":"cebpf4jnsgd1na2vs0mg"},{"bike_id":"6875a1a6-32b9-4783-93f5-84a3a0c85f67","system_id":"levelo_inurba_marseille","lat":43.23069,"lon":5.35489,"is_reserved":false,"is_disabled":false,"rental_uris":{"android":"levelo://app?vid=6875a1a6-32b9-4783-93f5-84a3a0c85f67","ios":"levelo://app?vid=6875a1a6-32b9-4783-93f5-84a3a0c85f67"},"vehicle_type_id":"4","last_reported":1730027200,"current_range_meters":26000,"station_id":"cpo3342slgdg3j2ifvpg","pricing_plan_id":"cebpf4jnsgd1na2vs0mg"},{"bike_id":"4d119be0-f244-48af-924a-f5cd3481568e","system_id":"levelo_inurba_marseille","lat":43.301379,"lon":5.374129,"is_reserved":false,"is_disabled":false,"rental_uris":{"android":"levelo://app?vid=4d119be0-f244-48af-924a-f5cd3481568e","ios":"levelo://app?vid=4d119be0-f244-48af-924a-f5cd3481568e"},"vehicle_type_id":"4","last_reported":1730027200,"current_range_meters":38000,"station_id":"ce4bgs92rcd13ifvqcc0","pricing_plan_id":"cebpf4jnsgd1na2vs0mg"},{"bike_id":"b0c69a31-8df0-4543-be39-d450987138e1","system_id":"levelo_inurba_marseille","lat":43.27324,"lon":5.39091,"is_reserved":false,"is_disabled":false,"rental_uris":{"android":"levelo://app?vid=b0c69a31-8df0-4543-be39-d450987138e1","ios":"levelo://app?vid=b0c69a31-8df0-4543-be39-d450987138e1"},"vehicle_type_id":"4","last_reported":1730027200,"current_range_meters":33600,"station_id":"ce4bhgp2rcd13ifvqfe0","pricing_plan_id":"cebpf4jnsgd1na2vs0mg"},{"bike_id":"b53fffa5-0d16-4a06-9e9e-cb1255503a6e","system_id":"levelo_inurba_marseille","lat":43.28156,"lon":5.42639,"is_reserved":false,"is_disabled":false,"rental_uris":{"android":"levelo://app?vid=b53fffa5-0d16-4a06-9e9e-cb1255503a6e","ios":"levelo://app?vid=b53fffa5-0d16-4a06-9e9e-cb1255503a6e"},"vehicle_type_id":"4","last_reported":1730027200,"current_range_meters":28800,"station_id":"ce4bhnh2rcd13ifvqgug","pricing_plan_id":"cebpf4jnsgd1na2vs0mg"},{"bike_id":"4ffa6ef0-131f-4089-a38d-c20ee9ffbdad","system_id":"levelo_inurba_marseille","lat":43.29306,"lon":5.37457,"is_reserved":false,"is_disabled":false,"rental_uris":{"android":"levelo://app?vid=4ffa6ef0-131f-4089-a38d-c20ee9ffbdad","ios":"levelo://app?vid=4ffa6ef0-131f-4089-a38d-c20ee9ffbdad"},"vehicle_type_id":"4","last_reported":1730027200,"current_range_meters":27200,"station_id":"ce4bgi12rcd13ifvqb70","pricing_plan_id":"cebpf4jnsgd1na2vs0mg"},{"bike_id":"794d7bc8-d607-44de-a2b0-2a1fc45dca3e","system_id":"levelo_inurba_marseille","lat":43.25488,"lon":5.3765,"is_reserved":false,"is_disabled":false,"rental_uris":{"android":"levelo://app?vid=794d7bc8-d607-44de-a2b0-2a1fc45dca3e","ios":"levelo://app?vid=794d7bc8-d607-44de-a2b0-2a1fc45dca3e"},"vehicle_type_id":"4","last_reported":1730027200,"current_range_meters":23200,"station_id":"ce4bhh12rcd13ifvqff0","pricing_plan_id":"cebpf4jnsgd1na2vs0mg"},{"bike_id":"10ee936f-868d-43e4-990f-cc800eeddb4e","system_id":"levelo_inurba_marseille","lat":43.32656,"lon":5.4099,"is_reserved":false,"is_disabled":false,"rental_uris":{"android":"levelo://app?vid=10ee936f-868d-43e4-990f-cc800eeddb4e","ios":"levelo://app?vid=10ee936f-868d-43e4-990f-cc800eeddb4e"},"vehicle_type_id":"4","last_reported":1730027200,"current_range_meters":25600,"station_id":"ce4bhpp2rcd13ifvqhgg","pricing_plan_id":"cebpf4jnsgd1na2vs0mg"},{"bike_id":"54642b2e-0ba2-49a2-8b26-3d73f5c6be8d","system_id":"levelo_inurba_marseille","lat":43.26938,"lon":5.40244,"is_reserved":false,"is_disabled":false,"rental_uris":{"android":"levelo://app?vid=54642b2e-0ba2-49a2-8b26-3d73f5c6be8d","ios":"levelo://app?vid=54642b2e-0ba2-49a2-8b26-3d73f5c6be8d"},"vehicle_type_id":"4","last_reported":1730027200,"current_range_meters":40000,"station_id":"cjm6bp8fraef2m0cb0m0","pricing_plan_id":"cebpf4jnsgd1na2vs0mg"},{"bike_id":"5145d0c5-fbc1-475a-ab25-e88b08be27b6","system_id":"levelo_inurba_marseille","lat":43.30145,"lon":5.3742,"is_reserved":false,"is_disabled":false,"rental_uris":{"android":"levelo://app?vid=5145d0c5-fbc1-475a-ab25-e88b08be27b6","ios":"levelo://app?vid=5145d0c5-fbc1-475a-ab25-e88b08be27b6"},"vehicle_type_id":"4","last_reported":1730027200,"current_range_meters":28000,"station_id":"ce4bgs92rcd13ifvqcc0","pricing_plan_id":"cebpf4jnsgd1na2vs0mg"},{"bike_id":"272108ab-c66d-4277-b942-346fbf20d819","system_id":"levelo_inurba_marseille","lat":43.30355,"lon":5.41876,"is_reserved":false,"is_disabled":false,"rental_uris":{"android":"levelo://app?vid=272108ab-c66d-4277-b942-346fbf20d819","ios":"levelo://app?vid=272108ab-c66d-4277-b942-346fbf20d819"},"vehicle_type_id":"4","last_reported":1730027200,"current_range_meters":8400,"station_id":"ce4bhop2rcd13ifvqh7g","pricing_plan_id":"cebpf4jnsgd1na2vs0mg"},{"bike_id":"9bf2ab5d-f85c-4d9a-a1f6-70dc559d4a7f","system_id":"levelo_inurba_marseille","lat":43.26024,"lon":5.37548,"is_reserved":false,"is_disabled":false,"rental_uris":{"android":"levelo://app?vid=9bf2ab5d-f85c-4d9a-a1f6-70dc559d4a7f","ios":"levelo://app?vid=9bf2ab5d-f85c-4d9a-a1f6-70dc559d4a7f"},"vehicle_type_id":"4","last_reported":1730027200,"current_range_meters":38000,"station_id":"ce4bhgh2rcd13ifvqfa0","pricing_plan_id":"cebpf4jnsgd1na2vs0mg"},{"bike_id":"8fbb3d87-cdca-4c4a-859f-e70dea3485a5","system_id":"levelo_inurba_marseille","lat":43.27494,"lon":5.42448,"is_reserved":false,"is_disabled":false,"rental_uris":{"android":"levelo://app?vid=8fbb3d87-cdca-4c4a-859f-e70dea3485a5","ios":"levelo://app?vid=8fbb3d87-cdca-4c4a-859f-e70dea3485a5"},"vehicle_type_id":"4","last_reported":1730027200,"current_range_meters":33600,"station_id":"ce4bhn92rcd13ifvqgrg","pricing_plan_id":"cebpf4jnsgd1na2vs0mg"},{"bike_id":"f96c21ca-2eac-4d4f-b041-e6246240a459","system_id":"levelo_inurba_marseille","lat":43.30782,"lon":5.37649,"is_reserved":false,"is_disabled":false,"rental_uris":{"android":"levelo://app?vid=f96c21ca-2eac-4d4f-b041-e6246240a459","ios":"levelo://app?vid=f96c21ca-2eac-4d4f-b041-e6246240a459"},"vehicle_type_id":"4","last_reported":1730027200,"current_range_meters":8400,"station_id":"ce4bgv92rcd13ifvqcq0","pricing_plan_id":"cebpf4jnsgd1na2vs0mg"},{"bike_id":"20db6b8a-8c82-4712-80f6-626349a87361","system_id":"levelo_inurba_marseille","lat":43.25494,"lon":5.37641,"is_reserved":false,"is_disabled":false,"rental_uris":{"android":"levelo://app?vid=20db6b8a-8c82-4712-80f6-626349a87361","ios":"levelo://app?vid=20db6b8a-8c82-4712-80f6-626349a87361"},"vehicle_type_id":"4","last_reported":1730027200,"current_range_meters":38800,"station_id":"ce4bhh12rcd13ifvqff0","pricing_plan_id":"cebpf4jnsgd1na2vs0mg"},{"bike_id":"b1f541c4-f6f1-4393-b5dc-7f8b525508f0","system_id":"levelo_inurba_marseille","lat":43.31277,"lon":5.40166,"is_reserved":false,"is_disabled":false,"rental_uris":{"android":"levelo://app?vid=b1f541c4-f6f1-4393-b5dc-7f8b525508f0","ios":"levelo://app?vid=b1f541c4-f6f1-4393-b5dc-7f8b525508f0"},"vehicle_type_id":"4","last_reported":1730027200,"current_range_meters":17600,"station_id":"ce4bh092rcd13ifvqd30","pricing_plan_id":"cebpf4jnsgd1na2vs0mg"},{"bike_id":"010556e8-69f7-4dfc-b80f-b3335225b0f4","system_id":"levelo_inurba_marseille","lat":43.26211,"lon":5.37441,"is_reserved":false,"is_disabled":false,"rental_uris":{"android":"levelo://app?vid=010556e8-69f7-4dfc-b80f-b3335225b0f4","ios":"levelo://app?vid=010556e8-69f7-4dfc-b80f-b3335225b0f4"},"vehicle_type_id":"4","last_reported":1730027200,"current_range_meters":38400,"station_id":"ce4bhgp2rcd13ifvqfc0","pricing_plan_id":"cebpf4jnsgd1na2vs0mg"},{"bike_id":"51a3b430-922e-4c29-a369-d8bcbb43e4f4","system_id":"levelo_inurba_marseille","lat":43.27316,"lon":5.39092,"is_reserved":false,"is_disabled":false,"rental_uris":{"android":"levelo://app?vid=51a3b430-922e-4c29-a369-d8bcbb43e4f4","ios":"levelo://app?vid=51a3b430-922e-4c29-a369-d8bcbb43e4f4"},"vehicle_type_id":"4","last_reported":1730027200,"current_range_meters":39200,"station_id":"ce4bhgp2rcd13ifvqfe0","pricing_plan_id":"cebpf4jnsgd1na2vs0mg"},{"bike_id":"0d715061-4764-4092-9b7a-0a81263e465c","system_id":"levelo_inurba_marseille","lat":43.29189,"lon":5.35808,"is_reserved":false,"is_disabled":false,"rental_uris":{"android":"levelo://app?vid=0d715061-4764-4092-9b7a-0a81263e465c","ios":"levelo://app?vid=0d715061-4764-4092-9b7a-0a81263e465c"},"vehicle_type_id":"4","last_reported":1730027200,"current_range_meters":38000,"station_id":"ce4bhb12rcd13ifvqel0","pricing_plan_id":"cebpf4jnsgd1na2vs0mg"},{"bike_id":"cae5512b-eeb1-4b21-8d8f-d8841b2677f3","system_id":"levelo_inurba_marseille","lat":43.24175,"lon":5.39724,"is_reserved":false,"is_disabled":false,"rental_uris":{"android":"levelo://app?vid=cae5512b-eeb1-4b21-8d8f-d8841b2677f3","ios":"levelo://app?vid=cae5512b-eeb1-4b21-8d8f-d8841b2677f3"},"vehicle_type_id":"4","last_reported":1730027200,"current_range_meters":20800,"station_id":"ce4bhn12rcd13ifvqgpg","pricing_plan_id":"cebpf4jnsgd1na2vs0mg"},{"bike_id":"4634c45b-a98b-4da7-a654-eacb21d5618b","system_id":"levelo_inurba_marseille","lat":43.24179,"lon":5.39728,"is_reserved":false,"is_disabled":false,"rental_uris":{"android":"levelo://app?vid=4634c45b-a98b-4da7-a654-eacb21d5618b","ios":"levelo://app?vid=4634c45b-a98b-4da7-a654-eacb21d5618b"},"vehicle_type_id":"4","last_reported":1730027200,"current_range_meters":30000,"station_id":"ce4bhn12rcd13ifvqgpg","pricing_plan_id":"cebpf4jnsgd1na2vs0mg"},{"bike_id":"fbfd7661-7ae4-4e65-bf47-ac683de1ca56","system_id":"levelo_inurba_marseille","lat":43.30545,"lon":5.36546,"is_reserved":false,"is_disabled":false,"rental_uris":{"android":"levelo://app?vid=fbfd7661-7ae4-4e65-bf47-ac683de1ca56","ios":"levelo://app?vid=fbfd7661-7ae4-4e65-bf47-ac683de1ca56"},"vehicle_type_id":"4","last_reported":1730027200,"current_range_meters":30400,"station_id":"ce4bgs12rcd13ifvqcag","pricing_plan_id":"cebpf4jnsgd1na2vs0mg"},{"bike_id":"cd8988cf-34e0-4cd8-92c1-67d3cd8c964e","system_id":"levelo_inurba_marseille","lat":43.23964,"lon":5.3662,"is_reserved":false,"is_disabled":false,"rental_uris":{"android":"levelo://app?vid=cd8988cf-34e0-4cd8-92c1-67d3cd8c964e","ios":"levelo://app?vid=cd8988cf-34e0-4cd8-92c1-67d3cd8c964e"},"vehicle_type_id":"4","last_reported":1730027200,"current_range_meters":16800,"station_id":"ce4bhi12rcd13ifvqfp0","pricing_plan_id":"cebpf4jnsgd1na2vs0mg"},{"bike_id":"c6b2fc05-7410-47d6-b54b-25615935e650","system_id":"levelo_inurba_marseille","lat":43.28152,"lon":5.42637,"is_reserved":false,"is_disabled":false,"rental_uris":{"android":"levelo://app?vid=c6b2fc05-7410-47d6-b54b-25615935e650","ios":"levelo://app?vid=c6b2fc05-7410-47d6-b54b-25615935e650"},"vehicle_type_id":"4","last_reported":1730027200,"current_range_meters":30800,"station_id":"ce4bhnh2rcd13ifvqgug","pricing_plan_id":"cebpf4jnsgd1na2vs0mg"},{"bike_id":"736f152f-ce2c-474b-9dfc-3d56dcdd84c6","system_id":"levelo_inurba_marseille","lat":43.29718,"lon":5.37691,"is_reserved":false,"is_disabled":false,"rental_uris":{"android":"levelo://app?vid=736f152f-ce2c-474b-9dfc-3d56dcdd84c6","ios":"levelo://app?vid=736f152f-ce2c-474b-9dfc-3d56dcdd84c6"},"vehicle_type_id":"4","last_reported":1730027200,"current_range_meters":31200,"station_id":"ce4bgkh2rcd13ifvqbl0","pricing_plan_id":"cebpf4jnsgd1na2vs0mg"},{"bike_id":"8300f4af-3b29-4c7d-8ec8-48620780b31d","system_id":"levelo_inurba_marseille","lat":43.26932,"lon":5.38907,"is_reserved":false,"is_disabled":false,"rental_uris":{"android":"levelo://app?vid=8300f4af-3b29-4c7d-8ec8-48620780b31d","ios":"levelo://app?vid=8300f4af-3b29-4c7d-8ec8-48620780b31d"},"vehicle_type_id":"4","last_reported":1730027200,"current_range_meters":29600,"station_id":"ce4bhhh2rcd13ifvqfl0","pricing_plan_id":"cebpf4jnsgd1na2vs0mg"},{"bike_id":"ef136fa5-257b-4ee5-bd73-f0de7405e6ba","system_id":"levelo_inurba_marseille","lat":43.24538,"lon":5.39525,"is_reserved":false,"is_disabled":false,"rental_uris":{"android":"levelo://app?vid=ef136fa5-257b-4ee5-bd73-f0de7405e6ba","ios":"levelo://app?vid=ef136fa5-257b-4ee5-bd73-f0de7405e6ba"},"vehicle_type_id":"4","last_reported":1730027200,"current_range_meters":25200,"station_id":"ce4bhlp2rcd13ifvqgjg","pricing_plan_id":"cebpf4jnsgd1na2vs0mg"},{"bike_id":"67d33dda-8872-42e4-81a7-a7fb36b0d7be","system_id":"levelo_inurba_marseille","lat":43.29959,"lon":5.41316,"is_reserved":false,"is_disabled":false,"rental_uris":{"android":"levelo://app?vid=67d33dda-8872-42e4-81a7-a7fb36b0d7be","ios":"levelo://app?vid=67d33dda-8872-42e4-81a7-a7fb36b0d7be"},"vehicle_type_id":"4","last_reported":1730027200,"current_range_meters":24800,"station_id":"ce4bhp12rcd13ifvqh9g","pricing_plan_id":"cebpf4jnsgd1na2vs0mg"},{"bike_id":"27e31678-f86a-433a-a57e-85d03f387139","system_id":"levelo_inurba_marseille","lat":43.2782,"lon":5.40714,"is_reserved":false,"is_disabled":false,"rental_uris":{"android":"levelo://app?vid=27e31678-f86a-433a-a57e-85d03f387139","ios":"levelo://app?vid=27e31678-f86a-433a-a57e-85d03f387139"},"vehicle_type_id":"4","last_reported":1730027200,"current_range_meters":30400,"station_id":"ce4bhnh2rcd13ifvqgtg","pricing_plan_id":"cebpf4jnsgd1na2vs0mg"},{"bike_id":"9488ca84-aa5e-4311-bde9-38d634703444","system_id":"levelo_inurba_marseille","lat":43.32481,"lon":5.3656,"is_reserved":false,"is_disabled":false,"rental_uris":{"android":"levelo://app?vid=9488ca84-aa5e-4311-bde9-38d634703444","ios":"levelo://app?vid=9488ca84-aa5e-4311-bde9-38d634703444"},"vehicle_type_id":"4","last_reported":1730027200,"current_range_meters":38000,"station_id":"ce4bhs12rcd13ifvqhvg","pricing_plan_id":"cebpf4jnsgd1na2vs0mg"},{"bike_id":"5809a0b6-4a3c-4116-a401-5ea44791b160","system_id":"levelo_inurba_marseille","lat":43.26689,"lon":5.38271,"is_reserved":false,"is_disabled":false,"rental_uris":{"android":"levelo://app?vid=5809a0b6-4a3c-4116-a401-5ea44791b160","ios":"levelo://app?vid=5809a0b6-4a3c-4116-a401-5ea44791b160"},"vehicle_type_id":"4","last_reported":1730027200,"current_range_meters":30000,"station_id":"ce4bhg92rcd13ifvqf90","pricing_plan_id":"cebpf4jnsgd1na2vs0mg"},{"bike_id":"e5e817e3-05ee-42a0-97b8-792b18b2b2d7","system_id":"levelo_inurba_marseille","lat":43.32483,"lon":5.36574,"is_reserved":false,"is_disabled":false,"rental_uris":{"android":"levelo://app?vid=e5e817e3-05ee-42a0-97b8-792b18b2b2d7","ios":"levelo://app?vid=e5e817e3-05ee-42a0-97b8-792b18b2b2d7"},"vehicle_type_id":"4","last_reported":1730027200,"current_range_meters":24800,"station_id":"ce4bhs12rcd13ifvqhvg","pricing_plan_id":"cebpf4jnsgd1na2vs0mg"},{"bike_id":"e145adb6-5aa2-4b11-96d2-eb3a71fb3ad1","system_id":"levelo_inurba_marseille","lat":43.29847,"lon":5.36272,"is_reserved":false,"is_disabled":false,"rental_uris":{"android":"levelo://app?vid=e145adb6-5aa2-4b11-96d2-eb3a71fb3ad1","ios":"levelo://app?vid=e145adb6-5aa2-4b11-96d2-eb3a71fb3ad1"},"vehicle_type_id":"4","last_reported":1730027200,"current_range_meters":7200,"station_id":"ce4bgpp2rcd13ifvqc3g","pricing_plan_id":"cebpf4jnsgd1na2vs0mg"},{"bike_id":"80f76666-e73a-42ad-ae8f-0e775abdc325","system_id":"levelo_inurba_marseille","lat":43.30608,"lon":5.37204,"is_reserved":false,"is_disabled":false,"rental_uris":{"android":"levelo://app?vid=80f76666-e73a-42ad-ae8f-0e775abdc325","ios":"levelo://app?vid=80f76666-e73a-42ad-ae8f-0e775abdc325"},"vehicle_type_id":"4","last_reported":1730027200,"current_range_meters":39200,"station_id":"ce4bgqh2rcd13ifvqc4g","pricing_plan_id":"cebpf4jnsgd1na2vs0mg"},{"bike_id":"4934b42d-0b7b-4140-b606-f24ce00389e2","system_id":"levelo_inurba_marseille","lat":43.30537,"lon":5.36555,"is_reserved":false,"is_disabled":false,"rental_uris":{"android":"levelo://app?vid=4934b42d-0b7b-4140-b606-f24ce00389e2","ios":"levelo://app?vid=4934b42d-0b7b-4140-b606-f24ce00389e2"},"vehicle_type_id":"4","last_reported":1730027200,"current_range_meters":27200,"station_id":"ce4bgs12rcd13ifvqcag","pricing_plan_id":"cebpf4jnsgd1na2vs0mg"},{"bike_id":"c974fabd-be44-458f-a4d2-7912bf5b7cfc","system_id":"levelo_inurba_marseille","lat":43.31694,"lon":5.37733,"is_reserved":false,"is_disabled":false,"rental_uris":{"android":"levelo://app?vid=c974fabd-be44-458f-a4d2-7912bf5b7cfc","ios":"levelo://app?vid=c974fabd-be44-458f-a4d2-7912bf5b7cfc"},"vehicle_type_id":"4","last_reported":1730027200,"current_range_meters":36800,"station_id":"ce4bgth2rcd13ifvqch0","pricing_plan_id":"cebpf4jnsgd1na2vs0mg"},{"bike_id":"601916c5-3274-4e01-863c-d96df39ce3b1","system_id":"levelo_inurba_marseille","lat":43.26562,"lon":5.39002,"is_reserved":false,"is_disabled":false,"rental_uris":{"android":"levelo://app?vid=601916c5-3274-4e01-863c-d96df39ce3b1","ios":"levelo://app?vid=601916c5-3274-4e01-863c-d96df39ce3b1"},"vehicle_type_id":"4","last_reported":1730027200,"current_range_meters":36400,"station_id":"ce4bhe12rcd13ifvqf30","pricing_plan_id":"cebpf4jnsgd1na2vs0mg"},{"bike_id":"50eadc69-f203-4153-823b-d4a65774a67f","system_id":"levelo_inurba_marseille","lat":43.28153,"lon":5.42631,"is_reserved":false,"is_disabled":false,"rental_uris":{"android":"levelo://app?vid=50eadc69-f203-4153-823b-d4a65774a67f","ios":"levelo://app?vid=50eadc69-f203-4153-823b-d4a65774a67f"},"vehicle_type_id":"4","last_reported":1730027200,"current_range_meters":20400,"station_id":"ce4bhnh2rcd13ifvqgug","pricing_plan_id":"cebpf4jnsgd1na2vs0mg"},{"bike_id":"59a91155-6b0b-4425-94a0-7ee9ed9b8729","system_id":"levelo_inurba_marseille","lat":43.25004,"lon":5.38927,"is_reserved":false,"is_disabled":false,"rental_uris":{"android":"levelo://app?vid=59a91155-6b0b-4425-94a0-7ee9ed9b8729","ios":"levelo://app?vid=59a91155-6b0b-4425-94a0-7ee9ed9b8729"},"vehicle_type_id":"4","last_reported":1730027200,"current_range_meters":38800,"station_id":"ce4bhgp2rcd13ifvqfd0","pricing_plan_id":"cebpf4jnsgd1na2vs0mg"},{"bike_id":"1fafbe93-2ba4-4077-bfcf-7b3992b30a25","system_id":"levelo_inurba_marseille","lat":43.29552,"lon":5.42283,"is_reserved":false,"is_disabled":false,"rental_uris":{"android":"levelo://app?vid=1fafbe93-2ba4-4077-bfcf-7b3992b30a25","ios":"levelo://app?vid=1fafbe93-2ba4-4077-bfcf-7b3992b30a25"},"vehicle_type_id":"4","last_reported":1730027200,"current_range_meters":39200,"station_id":"ce4bhph2rcd13ifvqhdg","pricing_plan_id":"cebpf4jnsgd1na2vs0mg"},{"bike_id":"4411b6bd-5258-4adb-bd5b-cc28f4a5d2ec","system_id":"levelo_inurba_marseille","lat":43.29894,"lon":5.43667,"is_reserved":false,"is_disabled":false,"rental_uris":{"android":"levelo://app?vid=4411b6bd-5258-4adb-bd5b-cc28f4a5d2ec","ios":"levelo://app?vid=4411b6bd-5258-4adb-bd5b-cc28f4a5d2ec"},"vehicle_type_id":"4","last_reported":1730027200,"current_range_meters":38400,"station_id":"ce4bhpp2rcd13ifvqhfg","pricing_plan_id":"cebpf4jnsgd1na2vs0mg"},{"bike_id":"8a55373d-8f54-4890-9729-5db301ba9fa0","system_id":"levelo_inurba_marseille","lat":43.25004,"lon":5.38909,"is_reserved":false,"is_disabled":false,"rental_uris":{"android":"levelo://app?vid=8a55373d-8f54-4890-9729-5db301ba9fa0","ios":"levelo://app?vid=8a55373d-8f54-4890-9729-5db301ba9fa0"},"vehicle_type_id":"4","last_reported":1730027200,"current_range_meters":32400,"station_id":"ce4bhgp2rcd13ifvqfd0","pricing_plan_id":"cebpf4jnsgd1na2vs0mg"},{"bike_id":"b578f7b3-8f77-4f46-9d4e-a4993ca67d0d","system_id":"levelo_inurba_marseille","lat":43.3135,"lon":5.36719,"is_reserved":false,"is_disabled":false,"rental_uris":{"android":"levelo://app?vid=b578f7b3-8f77-4f46-9d4e-a4993ca67d0d","ios":"levelo://app?vid=b578f7b3-8f77-4f46-9d4e-a4993ca67d0d"},"vehicle_type_id":"4","last_reported":1730027200,"current_range_meters":34000,"station_id":"ce4bgr92rcd13ifvqc6g","pricing_plan_id":"cebpf4jnsgd1na2vs0mg"},{"bike_id":"2eea41a0-4aff-409d-8357-8142d0482011","system_id":"levelo_inurba_marseille","lat":43.25583,"lon":5.3823,"is_reserved":false,"is_disabled":false,"rental_uris":{"android":"levelo://app?vid=2eea41a0-4aff-409d-8357-8142d0482011","ios":"levelo://app?vid=2eea41a0-4aff-409d-8357-8142d0482011"},"vehicle_type_id":"4","last_reported":1730027200,"current_range_meters":28800,"station_id":"ce4bhih2rcd13ifvqfs0","pricing_plan_id":"cebpf4jnsgd1na2vs0mg"},{"bike_id":"b0c7ce4f-cf48-4b13-99b1-24dbbfafc315","system_id":"levelo_inurba_marseille","lat":43.2781,"lon":5.40709,"is_reserved":false,"is_disabled":false,"rental_uris":{"android":"levelo://app?vid=b0c7ce4f-cf48-4b13-99b1-24dbbfafc315","ios":"levelo://app?vid=b0c7ce4f-cf48-4b13-99b1-24dbbfafc315"},"vehicle_type_id":"4","last_reported":1730027200,"current_range_meters":28000,"station_id":"ce4bhnh2rcd13ifvqgtg","pricing_plan_id":"cebpf4jnsgd1na2vs0mg"},{"bike_id":"e113f747-4daa-44f7-a218-9e030daa2565","system_id":"levelo_inurba_marseille","lat":43.32105,"lon":5.36773,"is_reserved":false,"is_disabled":false,"rental_uris":{"android":"levelo://app?vid=e113f747-4daa-44f7-a218-9e030daa2565","ios":"levelo://app?vid=e113f747-4daa-44f7-a218-9e030daa2565"},"vehicle_type_id":"4","last_reported":1730027200,"current_range_meters":26800,"station_id":"ce4bhrh2rcd13ifvqhug","pricing_plan_id":"cebpf4jnsgd1na2vs0mg"},{"bike_id":"bc90f224-bf50-48ab-9476-f806f6f8efc8","system_id":"levelo_inurba_marseille","lat":43.2928,"lon":5.37449,"is_reserved":false,"is_disabled":false,"rental_uris":{"android":"levelo://app?vid=bc90f224-bf50-48ab-9476-f806f6f8efc8","ios":"levelo://app?vid=bc90f224-bf50-48ab-9476-f806f6f8efc8"},"vehicle_type_id":"4","last_reported":1730027200,"current_range_meters":10800,"station_id":"ce4bgi12rcd13ifvqb70","pricing_plan_id":"cebpf4jnsgd1na2vs0mg"},{"bike_id":"6dfe5cc9-8aa4-4177-aac2-34ca48bf27f9","system_id":"levelo_inurba_marseille","lat":43.3127,"lon":5.40165,"is_reserved":false,"is_disabled":false,"rental_uris":{"android":"levelo://app?vid=6dfe5cc9-8aa4-4177-aac2-34ca48bf27f9","ios":"levelo://app?vid=6dfe5cc9-8aa4-4177-aac2-34ca48bf27f9"},"vehicle_type_id":"4","last_reported":1730027200,"current_range_meters":4400,"station_id":"ce4bh092rcd13ifvqd30","pricing_plan_id":"cebpf4jnsgd1na2vs0mg"},{"bike_id":"4cb54fe2-6aa3-4b51-89f9-1a40a399762b","system_id":"levelo_inurba_marseille","lat":43.29619,"lon":5.37149,"is_reserved":false,"is_disabled":false,"rental_uris":{"android":"levelo://app?vid=4cb54fe2-6aa3-4b51-89f9-1a40a399762b","ios":"levelo://app?vid=4cb54fe2-6aa3-4b51-89f9-1a40a399762b"},"vehicle_type_id":"4","last_reported":1730027200,"current_range_meters":19600,"station_id":"ce4bgnh2rcd13ifvqc0g","pricing_plan_id":"cebpf4jnsgd1na2vs0mg"},{"bike_id":"9fd56fad-5f3d-42b4-b491-7b57b76bc0cf","system_id":"levelo_inurba_marseille","lat":43.27816,"lon":5.40719,"is_reserved":false,"is_disabled":false,"rental_uris":{"android":"levelo://app?vid=9fd56fad-5f3d-42b4-b491-7b57b76bc0cf","ios":"levelo://app?vid=9fd56fad-5f3d-42b4-b491-7b57b76bc0cf"},"vehicle_type_id":"4","last_reported":1730027200,"current_range_meters":23200,"station_id":"ce4bhnh2rcd13ifvqgtg","pricing_plan_id":"cebpf4jnsgd1na2vs0mg"},{"bike_id":"bf291e7e-22e0-40c3-9fbf-804e4d125b27","system_id":"levelo_inurba_marseille","lat":43.25581,"lon":5.38224,"is_reserved":false,"is_disabled":false,"rental_uris":{"android":"levelo://app?vid=bf291e7e-22e0-40c3-9fbf-804e4d125b27","ios":"levelo://app?vid=bf291e7e-22e0-40c3-9fbf-804e4d125b27"},"vehicle_type_id":"4","last_reported":1730027200,"current_range_meters":14000,"station_id":"ce4bhih2rcd13ifvqfs0","pricing_plan_id":"cebpf4jnsgd1na2vs0mg"},{"bike_id":"cb176300-6569-4931-a7b5-26a3947ac35d","system_id":"levelo_inurba_marseille","lat":43.25012,"lon":5.38912,"is_reserved":false,"is_disabled":false,"rental_uris":{"android":"levelo://app?vid=cb176300-6569-4931-a7b5-26a3947ac35d","ios":"levelo://app?vid=cb176300-6569-4931-a7b5-26a3947ac35d"},"vehicle_type_id":"4","last_reported":1730027200,"current_range_meters":32000,"station_id":"ce4bhgp2rcd13ifvqfd0","pricing_plan_id":"cebpf4jnsgd1na2vs0mg"},{"bike_id":"67d7da00-177f-422a-88da-51633e2dc1f3","system_id":"levelo_inurba_marseille","lat":43.29894,"lon":5.43671,"is_reserved":false,"is_disabled":false,"rental_uris":{"android":"levelo://app?vid=67d7da00-177f-422a-88da-51633e2dc1f3","ios":"levelo://app?vid=67d7da00-177f-422a-88da-51633e2dc1f3"},"vehicle_type_id":"4","last_reported":1730027200,"current_range_meters":39200,"station_id":"ce4bhpp2rcd13ifvqhfg","pricing_plan_id":"cebpf4jnsgd1na2vs0mg"},{"bike_id":"e15bb622-e5ac-4172-b38e-636d67ec7202","system_id":"levelo_inurba_marseille","lat":43.30154,"lon":5.38079,"is_reserved":false,"is_disabled":false,"rental_uris":{"android":"levelo://app?vid=e15bb622-e5ac-4172-b38e-636d67ec7202","ios":"levelo://app?vid=e15bb622-e5ac-4172-b38e-636d67ec7202"},"vehicle_type_id":"4","last_reported":1730027200,"current_range_meters":26000,"station_id":"ce4bgjp2rcd13ifvqbh0","pricing_plan_id":"cebpf4jnsgd1na2vs0mg"},{"bike_id":"744bde82-bd02-445d-b711-6cd860d3c3d0","system_id":"levelo_inurba_marseille","lat":43.30422,"lon":5.41278,"is_reserved":false,"is_disabled":false,"rental_uris":{"android":"levelo://app?vid=744bde82-bd02-445d-b711-6cd860d3c3d0","ios":"levelo://app?vid=744bde82-bd02-445d-b711-6cd860d3c3d0"},"vehicle_type_id":"4","last_reported":1730027200,"current_range_meters":35600,"station_id":"ce4bhop2rcd13ifvqh8g","pricing_plan_id":"cebpf4jnsgd1na2vs0mg"},{"bike_id":"4e34ffc2-4ae4-4483-9511-9a97f6d751e6","system_id":"levelo_inurba_marseille","lat":43.29303,"lon":5.37439,"is_reserved":false,"is_disabled":false,"rental_uris":{"android":"levelo://app?vid=4e34ffc2-4ae4-4483-9511-9a97f6d751e6","ios":"levelo://app?vid=4e34ffc2-4ae4-4483-9511-9a97f6d751e6"},"vehicle_type_id":"4","last_reported":1730027200,"current_range_meters":34000,"station_id":"ce4bgi12rcd13ifvqb70","pricing_plan_id":"cebpf4jnsgd1na2vs0mg"},{"bike_id":"76655054-c5bb-403b-83de-851da69c462b","system_id":"levelo_inurba_marseille","lat":43.30414,"lon":5.41274,"is_reserved":false,"is_disabled":false,"rental_uris":{"android":"levelo://app?vid=76655054-c5bb-403b-83de-851da69c462b","ios":"levelo://app?vid=76655054-c5bb-403b-83de-851da69c462b"},"vehicle_type_id":"4","last_reported":1730027200,"current_range_meters":26800,"station_id":"ce4bhop2rcd13ifvqh8g","pricing_plan_id":"cebpf4jnsgd1na2vs0mg"},{"bike_id":"a4cdb9e2-dcee-478e-b833-1e72009d3ae3","system_id":"levelo_inurba_marseille","lat":43.30418,"lon":5.41274,"is_reserved":false,"is_disabled":false,"rental_uris":{"android":"levelo://app?vid=a4cdb9e2-dcee-478e-b833-1e72009d3ae3","ios":"levelo://app?vid=a4cdb9e2-dcee-478e-b833-1e72009d3ae3"},"vehicle_type_id":"4","last_reported":1730027200,"current_range_meters":38000,"station_id":"ce4bhop2rcd13ifvqh8g","pricing_plan_id":"cebpf4jnsgd1na2vs0mg"},{"bike_id":"3fbbcadf-263b-4c5b-92b7-ddb28da9e3e2","system_id":"levelo_inurba_marseille","lat":43.28077,"lon":5.39654,"is_reserved":false,"is_disabled":false,"rental_uris":{"android":"levelo://app?vid=3fbbcadf-263b-4c5b-92b7-ddb28da9e3e2","ios":"levelo://app?vid=3fbbcadf-263b-4c5b-92b7-ddb28da9e3e2"},"vehicle_type_id":"4","last_reported":1730027200,"current_range_meters":28800,"station_id":"ce4bho12rcd13ifvqh2g","pricing_plan_id":"cebpf4jnsgd1na2vs0mg"},{"bike_id":"c65417d6-6622-4395-b76f-feb2f4595473","system_id":"levelo_inurba_marseille","lat":43.25723,"lon":5.41102,"is_reserved":false,"is_disabled":false,"rental_uris":{"android":"levelo://app?vid=c65417d6-6622-4395-b76f-feb2f4595473","ios":"levelo://app?vid=c65417d6-6622-4395-b76f-feb2f4595473"},"vehicle_type_id":"4","last_reported":1730027200,"current_range_meters":36400,"station_id":"ce4bhkp2rcd13ifvqgd0","pricing_plan_id":"cebpf4jnsgd1na2vs0mg"},{"bike_id":"75bc418d-5fa4-4111-819c-79228dcd39de","system_id":"levelo_inurba_marseille","lat":43.26056,"lon":5.39394,"is_reserved":false,"is_disabled":false,"rental_uris":{"android":"levelo://app?vid=75bc418d-5fa4-4111-819c-79228dcd39de","ios":"levelo://app?vid=75bc418d-5fa4-4111-819c-79228dcd39de"},"vehicle_type_id":"4","last_reported":1730027200,"current_range_meters":9600,"station_id":"ce4bhh92rcd13ifvqfj0","pricing_plan_id":"cebpf4jnsgd1na2vs0mg"},{"bike_id":"d7ff7165-6d5c-4f76-865c-b2ea1a2a3c7a","system_id":"levelo_inurba_marseille","lat":43.27498,"lon":5.42447,"is_reserved":false,"is_disabled":false,"rental_uris":{"android":"levelo://app?vid=d7ff7165-6d5c-4f76-865c-b2ea1a2a3c7a","ios":"levelo://app?vid=d7ff7165-6d5c-4f76-865c-b2ea1a2a3c7a"},"vehicle_type_id":"4","last_reported":1730027200,"current_range_meters":6000,"station_id":"ce4bhn92rcd13ifvqgrg","pricing_plan_id":"cebpf4jnsgd1na2vs0mg"},{"bike_id":"ceb2afe2-ec71-45e0-b6e1-4ce988215eeb","system_id":"levelo_inurba_marseille","lat":43.30475,"lon":5.37903,"is_reserved":false,"is_disabled":false,"rental_uris":{"android":"levelo://app?vid=ceb2afe2-ec71-45e0-b6e1-4ce988215eeb","ios":"levelo://app?vid=ceb2afe2-ec71-45e0-b6e1-4ce988215eeb"},"vehicle_type_id":"4","last_reported":1730027200,"current_range_meters":38800,"station_id":"ce4bgup2rcd13ifvqcn0","pricing_plan_id":"cebpf4jnsgd1na2vs0mg"},{"bike_id":"7ca9dac5-907d-408c-8f43-f7bcc972b892","system_id":"levelo_inurba_marseille","lat":43.29269,"lon":5.40918,"is_reserved":false,"is_disabled":false,"rental_uris":{"android":"levelo://app?vid=7ca9dac5-907d-408c-8f43-f7bcc972b892","ios":"levelo://app?vid=7ca9dac5-907d-408c-8f43-f7bcc972b892"},"vehicle_type_id":"4","last_reported":1730027200,"current_range_meters":17600,"station_id":"ce4bh192rcd13ifvqdc0","pricing_plan_id":"cebpf4jnsgd1na2vs0mg"},{"bike_id":"b3c71d30-6ded-428e-8293-1451c253108f","system_id":"levelo_inurba_marseille","lat":43.29893,"lon":5.43659,"is_reserved":false,"is_disabled":false,"rental_uris":{"android":"levelo://app?vid=b3c71d30-6ded-428e-8293-1451c253108f","ios":"levelo://app?vid=b3c71d30-6ded-428e-8293-1451c253108f"},"vehicle_type_id":"4","last_reported":1730027200,"current_range_meters":30800,"station_id":"ce4bhpp2rcd13ifvqhfg","pricing_plan_id":"cebpf4jnsgd1na2vs0mg"},{"bike_id":"ec1ef2fd-0187-4063-a08a-f08e31fd67e9","system_id":"levelo_inurba_marseille","lat":43.25004,"lon":5.38912,"is_reserved":false,"is_disabled":false,"rental_uris":{"android":"levelo://app?vid=ec1ef2fd-0187-4063-a08a-f08e31fd67e9","ios":"levelo://app?vid=ec1ef2fd-0187-4063-a08a-f08e31fd67e9"},"vehicle_type_id":"4","last_reported":1730027200,"current_range_meters":32000,"station_id":"ce4bhgp2rcd13ifvqfd0","pricing_plan_id":"cebpf4jnsgd1na2vs0mg"},{"bike_id":"da41005b-3fbd-4389-9128-80ea7e3c96a4","system_id":"levelo_inurba_marseille","lat":43.269519,"lon":5.38629,"is_reserved":false,"is_disabled":false,"rental_uris":{"android":"levelo://app?vid=da41005b-3fbd-4389-9128-80ea7e3c96a4","ios":"levelo://app?vid=da41005b-3fbd-4389-9128-80ea7e3c96a4"},"vehicle_type_id":"4","last_reported":1730027200,"current_range_meters":400,"station_id":"ce4bhh92rcd13ifvqfh0","pricing_plan_id":"cebpf4jnsgd1na2vs0mg"},{"bike_id":"e7724ef7-2c56-40d1-a107-98b66e372f66","system_id":"levelo_inurba_marseille","lat":43.28612,"lon":5.35097,"is_reserved":false,"is_disabled":false,"rental_uris":{"android":"levelo://app?vid=e7724ef7-2c56-40d1-a107-98b66e372f66","ios":"levelo://app?vid=e7724ef7-2c56-40d1-a107-98b66e372f66"},"vehicle_type_id":"4","last_reported":1730027200,"current_range_meters":8800,"station_id":"ce4bhch2rcd13ifvqeug","pricing_plan_id":"cebpf4jnsgd1na2vs0mg"},{"bike_id":"b54a1450-a5e2-4400-8ed0-f6ad27dc90fa","system_id":"levelo_inurba_marseille","lat":43.27315,"lon":5.39099,"is_reserved":false,"is_disabled":false,"rental_uris":{"android":"levelo://app?vid=b54a1450-a5e2-4400-8ed0-f6ad27dc90fa","ios":"levelo://app?vid=b54a1450-a5e2-4400-8ed0-f6ad27dc90fa"},"vehicle_type_id":"4","last_reported":1730027200,"current_range_meters":14000,"station_id":"ce4bhgp2rcd13ifvqfe0","pricing_plan_id":"cebpf4jnsgd1na2vs0mg"},{"bike_id":"bf74c18a-9570-4971-a107-83f74c935f83","system_id":"levelo_inurba_marseille","lat":43.30314,"lon":5.36891,"is_reserved":false,"is_disabled":false,"rental_uris":{"android":"levelo://app?vid=bf74c18a-9570-4971-a107-83f74c935f83","ios":"levelo://app?vid=bf74c18a-9570-4971-a107-83f74c935f83"},"vehicle_type_id":"4","last_reported":1730027200,"current_range_meters":28400,"station_id":"ce4bgqh2rcd13ifvqc5g","pricing_plan_id":"cebpf4jnsgd1na2vs0mg"},{"bike_id":"cf18b8b0-965c-45a0-8f5f-f2dd6363c8e5","system_id":"levelo_inurba_marseille","lat":43.29167,"lon":5.37161,"is_reserved":false,"is_disabled":false,"rental_uris":{"android":"levelo://app?vid=cf18b8b0-965c-45a0-8f5f-f2dd6363c8e5","ios":"levelo://app?vid=cf18b8b0-965c-45a0-8f5f-f2dd6363c8e5"},"vehicle_type_id":"4","last_reported":1730027200,"current_range_meters":39200,"station_id":"ce4bha92rcd13ifvqeh0","pricing_plan_id":"cebpf4jnsgd1na2vs0mg"},{"bike_id":"5a86cee8-958e-40b5-b755-fb407477545f","system_id":"levelo_inurba_marseille","lat":43.30463,"lon":5.379045,"is_reserved":false,"is_disabled":false,"rental_uris":{"android":"levelo://app?vid=5a86cee8-958e-40b5-b755-fb407477545f","ios":"levelo://app?vid=5a86cee8-958e-40b5-b755-fb407477545f"},"vehicle_type_id":"4","last_reported":1730027200,"current_range_meters":14000,"station_id":"ce4bgup2rcd13ifvqcn0","pricing_plan_id":"cebpf4jnsgd1na2vs0mg"},{"bike_id":"2c00785b-2b5c-440e-bd4e-13c0920ac93f","system_id":"levelo_inurba_marseille","lat":43.29219,"lon":5.36071,"is_reserved":false,"is_disabled":false,"rental_uris":{"android":"levelo://app?vid=2c00785b-2b5c-440e-bd4e-13c0920ac93f","ios":"levelo://app?vid=2c00785b-2b5c-440e-bd4e-13c0920ac93f"},"vehicle_type_id":"4","last_reported":1730027200,"current_range_meters":37600,"station_id":"ce4bhbh2rcd13ifvqeqg","pricing_plan_id":"cebpf4jnsgd1na2vs0mg"},{"bike_id":"263f93c9-144a-4508-b60e-cbaf71ba2571","system_id":"levelo_inurba_marseille","lat":43.24175,"lon":5.39718,"is_reserved":false,"is_disabled":false,"rental_uris":{"android":"levelo://app?vid=263f93c9-144a-4508-b60e-cbaf71ba2571","ios":"levelo://app?vid=263f93c9-144a-4508-b60e-cbaf71ba2571"},"vehicle_type_id":"4","last_reported":1730027200,"current_range_meters":37600,"station_id":"ce4bhn12rcd13ifvqgpg","pricing_plan_id":"cebpf4jnsgd1na2vs0mg"},{"bike_id":"f9dd0103-b045-4d3e-97f0-feaf4a2d3923","system_id":"levelo_inurba_marseille","lat":43.25006,"lon":5.38909,"is_reserved":false,"is_disabled":false,"rental_uris":{"android":"levelo://app?vid=f9dd0103-b045-4d3e-97f0-feaf4a2d3923","ios":"levelo://app?vid=f9dd0103-b045-4d3e-97f0-feaf4a2d3923"},"vehicle_type_id":"4","last_reported":1730027200,"current_range_meters":38800,"station_id":"ce4bhgp2rcd13ifvqfd0","pricing_plan_id":"cebpf4jnsgd1na2vs0mg"},{"bike_id":"736dd2d8-e900-4518-b6b3-e7f823c2ae5f","system_id":"levelo_inurba_marseille","lat":43.284607,"lon":5.383969,"is_reserved":false,"is_disabled":false,"rental_uris":{"android":"levelo://app?vid=736dd2d8-e900-4518-b6b3-e7f823c2ae5f","ios":"levelo://app?vid=736dd2d8-e900-4518-b6b3-e7f823c2ae5f"},"vehicle_type_id":"4","last_reported":1730027200,"current_range_meters":25600,"station_id":"ce4bh512rcd13ifvqe3g","pricing_plan_id":"cebpf4jnsgd1na2vs0mg"},{"bike_id":"c6021d6c-c69f-4d81-b7c3-3f3ec72c1782","system_id":"levelo_inurba_marseille","lat":43.30146,"lon":5.37418,"is_reserved":false,"is_disabled":false,"rental_uris":{"android":"levelo://app?vid=c6021d6c-c69f-4d81-b7c3-3f3ec72c1782","ios":"levelo://app?vid=c6021d6c-c69f-4d81-b7c3-3f3ec72c1782"},"vehicle_type_id":"4","last_reported":1730027200,"current_range_meters":30800,"station_id":"ce4bgs92rcd13ifvqcc0","pricing_plan_id":"cebpf4jnsgd1na2vs0mg"},{"bike_id":"c7493202-7ba4-4657-a88f-5b1ffe0cc379","system_id":"levelo_inurba_marseille","lat":43.25725,"lon":5.41101,"is_reserved":false,"is_disabled":false,"rental_uris":{"android":"levelo://app?vid=c7493202-7ba4-4657-a88f-5b1ffe0cc379","ios":"levelo://app?vid=c7493202-7ba4-4657-a88f-5b1ffe0cc379"},"vehicle_type_id":"4","last_reported":1730027200,"current_range_meters":36800,"station_id":"ce4bhkp2rcd13ifvqgd0","pricing_plan_id":"cebpf4jnsgd1na2vs0mg"},{"bike_id":"fdb7a2ea-1502-497e-9330-45cbda59e4b8","system_id":"levelo_inurba_marseille","lat":43.25932,"lon":5.40907,"is_reserved":false,"is_disabled":false,"rental_uris":{"android":"levelo://app?vid=fdb7a2ea-1502-497e-9330-45cbda59e4b8","ios":"levelo://app?vid=fdb7a2ea-1502-497e-9330-45cbda59e4b8"},"vehicle_type_id":"4","last_reported":1730027200,"current_range_meters":38400,"station_id":"ce4bhm92rcd13ifvqglg","pricing_plan_id":"cebpf4jnsgd1na2vs0mg"},{"bike_id":"66573150-901d-4315-999f-1bdf296e6efc","system_id":"levelo_inurba_marseille","lat":43.28856,"lon":5.35857,"is_reserved":false,"is_disabled":false,"rental_uris":{"android":"levelo://app?vid=66573150-901d-4315-999f-1bdf296e6efc","ios":"levelo://app?vid=66573150-901d-4315-999f-1bdf296e6efc"},"vehicle_type_id":"4","last_reported":1730027200,"current_range_meters":38800,"station_id":"ce4bhb12rcd13ifvqem0","pricing_plan_id":"cebpf4jnsgd1na2vs0mg"},{"bike_id":"98e33aa4-2131-4227-b5ee-7452ffb51601","system_id":"levelo_inurba_marseille","lat":43.30321,"lon":5.36893,"is_reserved":false,"is_disabled":false,"rental_uris":{"android":"levelo://app?vid=98e33aa4-2131-4227-b5ee-7452ffb51601","ios":"levelo://app?vid=98e33aa4-2131-4227-b5ee-7452ffb51601"},"vehicle_type_id":"4","last_reported":1730027200,"current_range_meters":38800,"station_id":"ce4bgqh2rcd13ifvqc5g","pricing_plan_id":"cebpf4jnsgd1na2vs0mg"},{"bike_id":"1f07241c-6882-47d1-ad93-cfa396a64aa8","system_id":"levelo_inurba_marseille","lat":43.26202,"lon":5.3793,"is_reserved":false,"is_disabled":false,"rental_uris":{"android":"levelo://app?vid=1f07241c-6882-47d1-ad93-cfa396a64aa8","ios":"levelo://app?vid=1f07241c-6882-47d1-ad93-cfa396a64aa8"},"vehicle_type_id":"4","last_reported":1730027200,"current_range_meters":32800,"station_id":"ce4bhjp2rcd13ifvqg90","pricing_plan_id":"cebpf4jnsgd1na2vs0mg"},{"bike_id":"8e05c1c9-c561-470b-83c7-44b67333075d","system_id":"levelo_inurba_marseille","lat":43.29276,"lon":5.38444,"is_reserved":false,"is_disabled":false,"rental_uris":{"android":"levelo://app?vid=8e05c1c9-c561-470b-83c7-44b67333075d","ios":"levelo://app?vid=8e05c1c9-c561-470b-83c7-44b67333075d"},"vehicle_type_id":"4","last_reported":1730027200,"current_range_meters":36800,"station_id":"ce4bh692rcd13ifvqea0","pricing_plan_id":"cebpf4jnsgd1na2vs0mg"},{"bike_id":"0ecf5e07-d4ac-4f2c-bd1b-3acf9f99ddc6","system_id":"levelo_inurba_marseille","lat":43.2602,"lon":5.37544,"is_reserved":false,"is_disabled":false,"rental_uris":{"android":"levelo://app?vid=0ecf5e07-d4ac-4f2c-bd1b-3acf9f99ddc6","ios":"levelo://app?vid=0ecf5e07-d4ac-4f2c-bd1b-3acf9f99ddc6"},"vehicle_type_id":"4","last_reported":1730027200,"current_range_meters":36400,"station_id":"ce4bhgh2rcd13ifvqfa0","pricing_plan_id":"cebpf4jnsgd1na2vs0mg"},{"bike_id":"48e66b17-4371-4e17-9d32-8d4b1940654f","system_id":"levelo_inurba_marseille","lat":43.29877,"lon":5.39749,"is_reserved":false,"is_disabled":false,"rental_uris":{"android":"levelo://app?vid=48e66b17-4371-4e17-9d32-8d4b1940654f","ios":"levelo://app?vid=48e66b17-4371-4e17-9d32-8d4b1940654f"},"vehicle_type_id":"4","last_reported":1730027200,"current_range_meters":37600,"station_id":"ce4bh0h2rcd13ifvqd50","pricing_plan_id":"cebpf4jnsgd1na2vs0mg"},{"bike_id":"3440d9b5-3e68-45f4-98be-6b0e41381653","system_id":"levelo_inurba_marseille","lat":43.28444,"lon":5.3918,"is_reserved":false,"is_disabled":false,"rental_uris":{"android":"levelo://app?vid=3440d9b5-3e68-45f4-98be-6b0e41381653","ios":"levelo://app?vid=3440d9b5-3e68-45f4-98be-6b0e41381653"},"vehicle_type_id":"4","last_reported":1730027200,"current_range_meters":22800,"station_id":"ce4bhoh2rcd13ifvqh5g","pricing_plan_id":"cebpf4jnsgd1na2vs0mg"},{"bike_id":"748d37e9-6840-4bd3-b735-ba632a69b9bc","system_id":"levelo_inurba_marseille","lat":43.27054,"lon":5.40257,"is_reserved":false,"is_disabled":false,"rental_uris":{"android":"levelo://app?vid=748d37e9-6840-4bd3-b735-ba632a69b9bc","ios":"levelo://app?vid=748d37e9-6840-4bd3-b735-ba632a69b9bc"},"vehicle_type_id":"4","last_reported":1730027200,"current_range_meters":19200,"station_id":"ce4bhk92rcd13ifvqgc0","pricing_plan_id":"cebpf4jnsgd1na2vs0mg"},{"bike_id":"8d1224ea-8c67-414f-8e8e-8dff85dd0343","system_id":"levelo_inurba_marseille","lat":43.25,"lon":5.38924,"is_reserved":false,"is_disabled":false,"rental_uris":{"android":"levelo://app?vid=8d1224ea-8c67-414f-8e8e-8dff85dd0343","ios":"levelo://app?vid=8d1224ea-8c67-414f-8e8e-8dff85dd0343"},"vehicle_type_id":"4","last_reported":1730027200,"current_range_meters":36800,"station_id":"ce4bhgp2rcd13ifvqfd0","pricing_plan_id":"cebpf4jnsgd1na2vs0mg"},{"bike_id":"9befed88-9f8c-464c-b07b-093bd97066bb","system_id":"levelo_inurba_marseille","lat":43.29805,"lon":5.37136,"is_reserved":false,"is_disabled":false,"rental_uris":{"android":"levelo://app?vid=9befed88-9f8c-464c-b07b-093bd97066bb","ios":"levelo://app?vid=9befed88-9f8c-464c-b07b-093bd97066bb"},"vehicle_type_id":"4","last_reported":1730027200,"current_range_meters":20000,"station_id":"","pricing_plan_id":"cebpf4jnsgd1na2vs0mg"},{"bike_id":"f37e3b02-a49c-4c4e-b112-f9c8c24edf90","system_id":"levelo_inurba_marseille","lat":43.2319,"lon":5.35552,"is_reserved":false,"is_disabled":false,"rental_uris":{"android":"levelo://app?vid=f37e3b02-a49c-4c4e-b112-f9c8c24edf90","ios":"levelo://app?vid=f37e3b02-a49c-4c4e-b112-f9c8c24edf90"},"vehicle_type_id":"4","last_reported":1730027200,"current_range_meters":16800,"station_id":"ce4bhu92rcd13ifvqi70","pricing_plan_id":"cebpf4jnsgd1na2vs0mg"},{"bike_id":"601b34eb-bb27-49aa-bc78-4cf12d6bde95","system_id":"levelo_inurba_marseille","lat":43.28278,"lon":5.35071,"is_reserved":false,"is_disabled":false,"rental_uris":{"android":"levelo://app?vid=601b34eb-bb27-49aa-bc78-4cf12d6bde95","ios":"levelo://app?vid=601b34eb-bb27-49aa-bc78-4cf12d6bde95"},"vehicle_type_id":"4","last_reported":1730027200,"current_range_meters":26800,"station_id":"ce4bhbp2rcd13ifvqerg","pricing_plan_id":"cebpf4jnsgd1na2vs0mg"},{"bike_id":"b34006c4-4a8d-41be-95d1-471c5cd262f4","system_id":"levelo_inurba_marseille","lat":43.2919,"lon":5.35803,"is_reserved":false,"is_disabled":false,"rental_uris":{"android":"levelo://app?vid=b34006c4-4a8d-41be-95d1-471c5cd262f4","ios":"levelo://app?vid=b34006c4-4a8d-41be-95d1-471c5cd262f4"},"vehicle_type_id":"4","last_reported":1730027200,"current_range_meters":37600,"station_id":"ce4bhb12rcd13ifvqel0","pricing_plan_id":"cebpf4jnsgd1na2vs0mg"},{"bike_id":"a4d2aac1-98f7-4ee9-bb54-2720ee698eac","system_id":"levelo_inurba_marseille","lat":43.25583,"lon":5.38238,"is_reserved":false,"is_disabled":false,"rental_uris":{"android":"levelo://app?vid=a4d2aac1-98f7-4ee9-bb54-2720ee698eac","ios":"levelo://app?vid=a4d2aac1-98f7-4ee9-bb54-2720ee698eac"},"vehicle_type_id":"4","last_reported":1730027200,"current_range_meters":30800,"station_id":"ce4bhih2rcd13ifvqfs0","pricing_plan_id":"cebpf4jnsgd1na2vs0mg"},{"bike_id":"dad2718b-ffdf-4024-8a84-70e058921ae1","system_id":"levelo_inurba_marseille","lat":43.26052,"lon":5.39395,"is_reserved":false,"is_disabled":false,"rental_uris":{"android":"levelo://app?vid=dad2718b-ffdf-4024-8a84-70e058921ae1","ios":"levelo://app?vid=dad2718b-ffdf-4024-8a84-70e058921ae1"},"vehicle_type_id":"4","last_reported":1730027200,"current_range_meters":28400,"station_id":"ce4bhh92rcd13ifvqfj0","pricing_plan_id":"cebpf4jnsgd1na2vs0mg"},{"bike_id":"5c8d47df-cace-44d5-9922-d4ea86fc841f","system_id":"levelo_inurba_marseille","lat":43.23968,"lon":5.36621,"is_reserved":false,"is_disabled":false,"rental_uris":{"android":"levelo://app?vid=5c8d47df-cace-44d5-9922-d4ea86fc841f","ios":"levelo://app?vid=5c8d47df-cace-44d5-9922-d4ea86fc841f"},"vehicle_type_id":"4","last_reported":1730027200,"current_range_meters":38400,"station_id":"ce4bhi12rcd13ifvqfp0","pricing_plan_id":"cebpf4jnsgd1na2vs0mg"},{"bike_id":"9645a8f6-5675-47c8-85f1-27871e7f8159","system_id":"levelo_inurba_marseille","lat":43.28966,"lon":5.3783,"is_reserved":false,"is_disabled":false,"rental_uris":{"android":"levelo://app?vid=9645a8f6-5675-47c8-85f1-27871e7f8159","ios":"levelo://app?vid=9645a8f6-5675-47c8-85f1-27871e7f8159"},"vehicle_type_id":"4","last_reported":1730027200,"current_range_meters":11200,"station_id":"ce4bh9p2rcd13ifvqed0","pricing_plan_id":"cebpf4jnsgd1na2vs0mg"},{"bike_id":"872bf1d7-f852-4002-8545-4ba28e44ca4c","system_id":"levelo_inurba_marseille","lat":43.27494,"lon":5.42454,"is_reserved":false,"is_disabled":false,"rental_uris":{"android":"levelo://app?vid=872bf1d7-f852-4002-8545-4ba28e44ca4c","ios":"levelo://app?vid=872bf1d7-f852-4002-8545-4ba28e44ca4c"},"vehicle_type_id":"4","last_reported":1730027200,"current_range_meters":23200,"station_id":"ce4bhn92rcd13ifvqgrg","pricing_plan_id":"cebpf4jnsgd1na2vs0mg"},{"bike_id":"a731c236-2a13-4698-ab34-0dbdd02731ea","system_id":"levelo_inurba_marseille","lat":43.30546,"lon":5.36697,"is_reserved":false,"is_disabled":false,"rental_uris":{"android":"levelo://app?vid=a731c236-2a13-4698-ab34-0dbdd02731ea","ios":"levelo://app?vid=a731c236-2a13-4698-ab34-0dbdd02731ea"},"vehicle_type_id":"4","last_reported":1730027200,"current_range_meters":34800,"station_id":"ce4bgrp2rcd13ifvqc9g","pricing_plan_id":"cebpf4jnsgd1na2vs0mg"},{"bike_id":"7c415667-afd5-4e51-88b5-a0f16e35d58c","system_id":"levelo_inurba_marseille","lat":43.27494,"lon":5.42452,"is_reserved":false,"is_disabled":false,"rental_uris":{"android":"levelo://app?vid=7c415667-afd5-4e51-88b5-a0f16e35d58c","ios":"levelo://app?vid=7c415667-afd5-4e51-88b5-a0f16e35d58c"},"vehicle_type_id":"4","last_reported":1730027200,"current_range_meters":27600,"station_id":"ce4bhn92rcd13ifvqgrg","pricing_plan_id":"cebpf4jnsgd1na2vs0mg"},{"bike_id":"63dffe58-b321-4992-b66b-9f28a3e3e3b4","system_id":"levelo_inurba_marseille","lat":43.29962,"lon":5.41317,"is_reserved":false,"is_disabled":false,"rental_uris":{"android":"levelo://app?vid=63dffe58-b321-4992-b66b-9f28a3e3e3b4","ios":"levelo://app?vid=63dffe58-b321-4992-b66b-9f28a3e3e3b4"},"vehicle_type_id":"4","last_reported":1730027200,"current_range_meters":39200,"station_id":"ce4bhp12rcd13ifvqh9g","pricing_plan_id":"cebpf4jnsgd1na2vs0mg"},{"bike_id":"4cbdf7c2-edd1-4df4-bbed-82f8f91945a4","system_id":"levelo_inurba_marseille","lat":43.27426,"lon":5.39414,"is_reserved":false,"is_disabled":false,"rental_uris":{"android":"levelo://app?vid=4cbdf7c2-edd1-4df4-bbed-82f8f91945a4","ios":"levelo://app?vid=4cbdf7c2-edd1-4df4-bbed-82f8f91945a4"},"vehicle_type_id":"4","last_reported":1730027200,"current_range_meters":38000,"station_id":"ce4bhdp2rcd13ifvqf20","pricing_plan_id":"cebpf4jnsgd1na2vs0mg"},{"bike_id":"acfb6634-ffe9-4431-9d14-d212bdf3c5b7","system_id":"levelo_inurba_marseille","lat":43.290432,"lon":5.399731,"is_reserved":false,"is_disabled":false,"rental_uris":{"android":"levelo://app?vid=acfb6634-ffe9-4431-9d14-d212bdf3c5b7","ios":"levelo://app?vid=acfb6634-ffe9-4431-9d14-d212bdf3c5b7"},"vehicle_type_id":"4","last_reported":1730027200,"current_range_meters":15200,"station_id":"ce4bh392rcd13ifvqdm0","pricing_plan_id":"cebpf4jnsgd1na2vs0mg"},{"bike_id":"a3e0d9da-5427-4778-8249-427ccd80d981","system_id":"levelo_inurba_marseille","lat":43.29551,"lon":5.42283,"is_reserved":false,"is_disabled":false,"rental_uris":{"android":"levelo://app?vid=a3e0d9da-5427-4778-8249-427ccd80d981","ios":"levelo://app?vid=a3e0d9da-5427-4778-8249-427ccd80d981"},"vehicle_type_id":"4","last_reported":1730027200,"current_range_meters":39200,"station_id":"ce4bhph2rcd13ifvqhdg","pricing_plan_id":"cebpf4jnsgd1na2vs0mg"},{"bike_id":"b3395865-638c-409f-8ba5-b009807c2e9a","system_id":"levelo_inurba_marseille","lat":43.29942,"lon":5.36532,"is_reserved":false,"is_disabled":false,"rental_uris":{"android":"levelo://app?vid=b3395865-638c-409f-8ba5-b009807c2e9a","ios":"levelo://app?vid=b3395865-638c-409f-8ba5-b009807c2e9a"},"vehicle_type_id":"4","last_reported":1730027200,"current_range_meters":36400,"station_id":"ce4bgm92rcd13ifvqbr0","pricing_plan_id":"cebpf4jnsgd1na2vs0mg"},{"bike_id":"1dd08197-2221-4b6c-9784-fc19edd892c3","system_id":"levelo_inurba_marseille","lat":43.29277,"lon":5.36838,"is_reserved":false,"is_disabled":false,"rental_uris":{"android":"levelo://app?vid=1dd08197-2221-4b6c-9784-fc19edd892c3","ios":"levelo://app?vid=1dd08197-2221-4b6c-9784-fc19edd892c3"},"vehicle_type_id":"4","last_reported":1730027200,"current_range_meters":22000,"station_id":"ce4bhbp2rcd13ifvqesg","pricing_plan_id":"cebpf4jnsgd1na2vs0mg"},{"bike_id":"cc0aae01-c914-41df-b1ad-a6a66487281f","system_id":"levelo_inurba_marseille","lat":43.28616,"lon":5.35098,"is_reserved":false,"is_disabled":false,"rental_uris":{"android":"levelo://app?vid=cc0aae01-c914-41df-b1ad-a6a66487281f","ios":"levelo://app?vid=cc0aae01-c914-41df-b1ad-a6a66487281f"},"vehicle_type_id":"4","last_reported":1730027200,"current_range_meters":24800,"station_id":"ce4bhch2rcd13ifvqeug","pricing_plan_id":"cebpf4jnsgd1na2vs0mg"},{"bike_id":"5ddd6abc-d466-42c9-a31c-a2ca8e327870","system_id":"levelo_inurba_marseille","lat":43.29529,"lon":5.38552,"is_reserved":false,"is_disabled":false,"rental_uris":{"android":"levelo://app?vid=5ddd6abc-d466-42c9-a31c-a2ca8e327870","ios":"levelo://app?vid=5ddd6abc-d466-42c9-a31c-a2ca8e327870"},"vehicle_type_id":"4","last_reported":1730027200,"current_range_meters":32800,"station_id":"ce4bgih2rcd13ifvqba0","pricing_plan_id":"cebpf4jnsgd1na2vs0mg"},{"bike_id":"b4348c01-0050-43c0-9d00-efd0ac088090","system_id":"levelo_inurba_marseille","lat":43.31489,"lon":5.373,"is_reserved":false,"is_disabled":false,"rental_uris":{"android":"levelo://app?vid=b4348c01-0050-43c0-9d00-efd0ac088090","ios":"levelo://app?vid=b4348c01-0050-43c0-9d00-efd0ac088090"},"vehicle_type_id":"4","last_reported":1730027200,"current_range_meters":36800,"station_id":"ce4bgt12rcd13ifvqcd0","pricing_plan_id":"cebpf4jnsgd1na2vs0mg"},{"bike_id":"527e92ae-b4ce-4598-aab7-26478bfb9ebe","system_id":"levelo_inurba_marseille","lat":43.27325,"lon":5.39096,"is_reserved":false,"is_disabled":false,"rental_uris":{"android":"levelo://app?vid=527e92ae-b4ce-4598-aab7-26478bfb9ebe","ios":"levelo://app?vid=527e92ae-b4ce-4598-aab7-26478bfb9ebe"},"vehicle_type_id":"4","last_reported":1730027200,"current_range_meters":8400,"station_id":"ce4bhgp2rcd13ifvqfe0","pricing_plan_id":"cebpf4jnsgd1na2vs0mg"},{"bike_id":"b425a53a-2ca1-45d6-9375-1a007f59f76d","system_id":"levelo_inurba_marseille","lat":43.27423,"lon":5.39411,"is_reserved":false,"is_disabled":false,"rental_uris":{"android":"levelo://app?vid=b425a53a-2ca1-45d6-9375-1a007f59f76d","ios":"levelo://app?vid=b425a53a-2ca1-45d6-9375-1a007f59f76d"},"vehicle_type_id":"4","last_reported":1730027200,"current_range_meters":14800,"station_id":"ce4bhdp2rcd13ifvqf20","pricing_plan_id":"cebpf4jnsgd1na2vs0mg"},{"bike_id":"0a8f76cc-76e5-49dd-a5c6-ca2a8c60c54d","system_id":"levelo_inurba_marseille","lat":43.31487,"lon":5.37289,"is_reserved":false,"is_disabled":false,"rental_uris":{"android":"levelo://app?vid=0a8f76cc-76e5-49dd-a5c6-ca2a8c60c54d","ios":"levelo://app?vid=0a8f76cc-76e5-49dd-a5c6-ca2a8c60c54d"},"vehicle_type_id":"4","last_reported":1730027200,"current_range_meters":18000,"station_id":"ce4bgt12rcd13ifvqcd0","pricing_plan_id":"cebpf4jnsgd1na2vs0mg"},{"bike_id":"2b40dfcc-2b0c-474e-83a9-66a062480ab7","system_id":"levelo_inurba_marseille","lat":43.29615,"lon":5.37719,"is_reserved":false,"is_disabled":false,"rental_uris":{"android":"levelo://app?vid=2b40dfcc-2b0c-474e-83a9-66a062480ab7","ios":"levelo://app?vid=2b40dfcc-2b0c-474e-83a9-66a062480ab7"},"vehicle_type_id":"4","last_reported":1730027200,"current_range_meters":38400,"station_id":"ce4bgi92rcd13ifvqb90","pricing_plan_id":"cebpf4jnsgd1na2vs0mg"},{"bike_id":"0368df39-ab17-4ab8-a028-be7b756b9ccb","system_id":"levelo_inurba_marseille","lat":43.30265,"lon":5.40077,"is_reserved":false,"is_disabled":false,"rental_uris":{"android":"levelo://app?vid=0368df39-ab17-4ab8-a028-be7b756b9ccb","ios":"levelo://app?vid=0368df39-ab17-4ab8-a028-be7b756b9ccb"},"vehicle_type_id":"4","last_reported":1730027200,"current_range_meters":19600,"station_id":"ce4bgvh2rcd13ifvqcs0","pricing_plan_id":"cebpf4jnsgd1na2vs0mg"},{"bike_id":"a1b80174-51e4-493d-96af-04d40eab308b","system_id":"levelo_inurba_marseille","lat":43.28073,"lon":5.3965,"is_reserved":false,"is_disabled":false,"rental_uris":{"android":"levelo://app?vid=a1b80174-51e4-493d-96af-04d40eab308b","ios":"levelo://app?vid=a1b80174-51e4-493d-96af-04d40eab308b"},"vehicle_type_id":"4","last_reported":1730027200,"current_range_meters":40000,"station_id":"ce4bho12rcd13ifvqh2g","pricing_plan_id":"cebpf4jnsgd1na2vs0mg"},{"bike_id":"2fdd8efd-807f-43c0-a5f8-acb8d352d834","system_id":"levelo_inurba_marseille","lat":43.32369,"lon":5.38873,"is_reserved":false,"is_disabled":false,"rental_uris":{"android":"levelo://app?vid=2fdd8efd-807f-43c0-a5f8-acb8d352d834","ios":"levelo://app?vid=2fdd8efd-807f-43c0-a5f8-acb8d352d834"},"vehicle_type_id":"4","last_reported":1730027200,"current_range_meters":4800,"station_id":"ce4bhqp2rcd13ifvqhog","pricing_plan_id":"cebpf4jnsgd1na2vs0mg"},{"bike_id":"204327f8-9563-4b7e-85f7-fa5518c12fa3","system_id":"levelo_inurba_marseille","lat":43.26807,"lon":5.40271,"is_reserved":false,"is_disabled":false,"rental_uris":{"android":"levelo://app?vid=204327f8-9563-4b7e-85f7-fa5518c12fa3","ios":"levelo://app?vid=204327f8-9563-4b7e-85f7-fa5518c12fa3"},"vehicle_type_id":"4","last_reported":1730027200,"current_range_meters":26000,"station_id":"ce501612rcd8frsf0b60","pricing_plan_id":"cebpf4jnsgd1na2vs0mg"},{"bike_id":"43df6f01-ce4c-441f-bf0c-95fe2920d7eb","system_id":"levelo_inurba_marseille","lat":43.26561,"lon":5.38998,"is_reserved":false,"is_disabled":false,"rental_uris":{"android":"levelo://app?vid=43df6f01-ce4c-441f-bf0c-95fe2920d7eb","ios":"levelo://app?vid=43df6f01-ce4c-441f-bf0c-95fe2920d7eb"},"vehicle_type_id":"4","last_reported":1730027200,"current_range_meters":28400,"station_id":"ce4bhe12rcd13ifvqf30","pricing_plan_id":"cebpf4jnsgd1na2vs0mg"},{"bike_id":"a5fdf9c1-fd52-4abe-90ae-59eb8e3e6fb3","system_id":"levelo_inurba_marseille","lat":43.2808,"lon":5.42682,"is_reserved":false,"is_disabled":false,"rental_uris":{"android":"levelo://app?vid=a5fdf9c1-fd52-4abe-90ae-59eb8e3e6fb3","ios":"levelo://app?vid=a5fdf9c1-fd52-4abe-90ae-59eb8e3e6fb3"},"vehicle_type_id":"4","last_reported":1730027200,"current_range_meters":38000,"station_id":"ce4bhnh2rcd13ifvqgug","pricing_plan_id":"cebpf4jnsgd1na2vs0mg"},{"bike_id":"59cf5278-0bb9-48eb-9f54-5c0fbb1e820a","system_id":"levelo_inurba_marseille","lat":43.27055,"lon":5.40255,"is_reserved":false,"is_disabled":false,"rental_uris":{"android":"levelo://app?vid=59cf5278-0bb9-48eb-9f54-5c0fbb1e820a","ios":"levelo://app?vid=59cf5278-0bb9-48eb-9f54-5c0fbb1e820a"},"vehicle_type_id":"4","last_reported":1730027200,"current_range_meters":37600,"station_id":"ce4bhk92rcd13ifvqgc0","pricing_plan_id":"cebpf4jnsgd1na2vs0mg"},{"bike_id":"8598d374-617e-45fe-b533-f94f0241ccf1","system_id":"levelo_inurba_marseille","lat":43.30962,"lon":5.39038,"is_reserved":false,"is_disabled":false,"rental_uris":{"android":"levelo://app?vid=8598d374-617e-45fe-b533-f94f0241ccf1","ios":"levelo://app?vid=8598d374-617e-45fe-b533-f94f0241ccf1"},"vehicle_type_id":"4","last_reported":1730027200,"current_range_meters":39200,"station_id":"ce4bgup2rcd13ifvqco0","pricing_plan_id":"cebpf4jnsgd1na2vs0mg"},{"bike_id":"fad259e2-ab5e-4787-b90a-db8e118caee8","system_id":"levelo_inurba_marseille","lat":43.29176,"lon":5.37148,"is_reserved":false,"is_disabled":false,"rental_uris":{"android":"levelo://app?vid=fad259e2-ab5e-4787-b90a-db8e118caee8","ios":"levelo://app?vid=fad259e2-ab5e-4787-b90a-db8e118caee8"},"vehicle_type_id":"4","last_reported":1730027200,"current_range_meters":30000,"station_id":"ce4bha92rcd13ifvqeh0","pricing_plan_id":"cebpf4jnsgd1na2vs0mg"},{"bike_id":"7cb42997-af5c-469b-aa0b-74468687cbb2","system_id":"levelo_inurba_marseille","lat":43.29011,"lon":5.35611,"is_reserved":false,"is_disabled":false,"rental_uris":{"android":"levelo://app?vid=7cb42997-af5c-469b-aa0b-74468687cbb2","ios":"levelo://app?vid=7cb42997-af5c-469b-aa0b-74468687cbb2"},"vehicle_type_id":"4","last_reported":1730027200,"current_range_meters":11200,"station_id":"ce4bhb92rcd13ifvqen0","pricing_plan_id":"cebpf4jnsgd1na2vs0mg"},{"bike_id":"370fb9f1-e4ae-4609-b5af-3aa7de86c13a","system_id":"levelo_inurba_marseille","lat":43.29916,"lon":5.37468,"is_reserved":false,"is_disabled":false,"rental_uris":{"android":"levelo://app?vid=370fb9f1-e4ae-4609-b5af-3aa7de86c13a","ios":"levelo://app?vid=370fb9f1-e4ae-4609-b5af-3aa7de86c13a"},"vehicle_type_id":"4","last_reported":1730027200,"current_range_meters":29600,"station_id":"ce4bgjh2rcd13ifvqbg0","pricing_plan_id":"cebpf4jnsgd1na2vs0mg"},{"bike_id":"315552ae-12d3-4b73-b5ec-d1580a4accf3","system_id":"levelo_inurba_marseille","lat":43.31269,"lon":5.40169,"is_reserved":false,"is_disabled":false,"rental_uris":{"android":"levelo://app?vid=315552ae-12d3-4b73-b5ec-d1580a4accf3","ios":"levelo://app?vid=315552ae-12d3-4b73-b5ec-d1580a4accf3"},"vehicle_type_id":"4","last_reported":1730027200,"current_range_meters":38800,"station_id":"ce4bh092rcd13ifvqd30","pricing_plan_id":"cebpf4jnsgd1na2vs0mg"},{"bike_id":"d4b0d68a-ae82-42a1-b0da-b39254ee1044","system_id":"levelo_inurba_marseille","lat":43.23195,"lon":5.35546,"is_reserved":false,"is_disabled":false,"rental_uris":{"android":"levelo://app?vid=d4b0d68a-ae82-42a1-b0da-b39254ee1044","ios":"levelo://app?vid=d4b0d68a-ae82-42a1-b0da-b39254ee1044"},"vehicle_type_id":"4","last_reported":1730027200,"current_range_meters":10800,"station_id":"ce4bhu92rcd13ifvqi70","pricing_plan_id":"cebpf4jnsgd1na2vs0mg"},{"bike_id":"c5492a8f-254e-4854-8ee2-b5fb3012bb13","system_id":"levelo_inurba_marseille","lat":43.30144,"lon":5.38079,"is_reserved":false,"is_disabled":false,"rental_uris":{"android":"levelo://app?vid=c5492a8f-254e-4854-8ee2-b5fb3012bb13","ios":"levelo://app?vid=c5492a8f-254e-4854-8ee2-b5fb3012bb13"},"vehicle_type_id":"4","last_reported":1730027200,"current_range_meters":25200,"station_id":"ce4bgjp2rcd13ifvqbh0","pricing_plan_id":"cebpf4jnsgd1na2vs0mg"},{"bike_id":"7cdd88d2-5824-40fa-8faf-90ef733261c2","system_id":"levelo_inurba_marseille","lat":43.23973,"lon":5.36622,"is_reserved":false,"is_disabled":false,"rental_uris":{"android":"levelo://app?vid=7cdd88d2-5824-40fa-8faf-90ef733261c2","ios":"levelo://app?vid=7cdd88d2-5824-40fa-8faf-90ef733261c2"},"vehicle_type_id":"4","last_reported":1730027200,"current_range_meters":17200,"station_id":"ce4bhi12rcd13ifvqfp0","pricing_plan_id":"cebpf4jnsgd1na2vs0mg"},{"bike_id":"19f69231-8e11-4184-871e-b2819d917f85","system_id":"levelo_inurba_marseille","lat":43.27998,"lon":5.40012,"is_reserved":false,"is_disabled":false,"rental_uris":{"android":"levelo://app?vid=19f69231-8e11-4184-871e-b2819d917f85","ios":"levelo://app?vid=19f69231-8e11-4184-871e-b2819d917f85"},"vehicle_type_id":"4","last_reported":1730027200,"current_range_meters":4000,"station_id":"ce4bho92rcd13ifvqh4g","pricing_plan_id":"cebpf4jnsgd1na2vs0mg"},{"bike_id":"3e1205ab-0bc6-479c-9e06-2c971082cf74","system_id":"levelo_inurba_marseille","lat":43.32058,"lon":5.41563,"is_reserved":false,"is_disabled":false,"rental_uris":{"android":"levelo://app?vid=3e1205ab-0bc6-479c-9e06-2c971082cf74","ios":"levelo://app?vid=3e1205ab-0bc6-479c-9e06-2c971082cf74"},"vehicle_type_id":"4","last_reported":1730027200,"current_range_meters":11600,"station_id":"ce4bhq92rcd13ifvqhkg","pricing_plan_id":"cebpf4jnsgd1na2vs0mg"},{"bike_id":"8a7ea3b3-7c19-4f13-a31a-07202c98e2c3","system_id":"levelo_inurba_marseille","lat":43.324821,"lon":5.365601,"is_reserved":false,"is_disabled":false,"rental_uris":{"android":"levelo://app?vid=8a7ea3b3-7c19-4f13-a31a-07202c98e2c3","ios":"levelo://app?vid=8a7ea3b3-7c19-4f13-a31a-07202c98e2c3"},"vehicle_type_id":"4","last_reported":1730027200,"current_range_meters":22000,"station_id":"ce4bhs12rcd13ifvqhvg","pricing_plan_id":"cebpf4jnsgd1na2vs0mg"},{"bike_id":"04518ea9-c53f-40a3-80da-3e58bba4a32f","system_id":"levelo_inurba_marseille","lat":43.2293,"lon":5.35377,"is_reserved":false,"is_disabled":false,"rental_uris":{"android":"levelo://app?vid=04518ea9-c53f-40a3-80da-3e58bba4a32f","ios":"levelo://app?vid=04518ea9-c53f-40a3-80da-3e58bba4a32f"},"vehicle_type_id":"4","last_reported":1730027200,"current_range_meters":28000,"station_id":"cpo3532slgdg3j2ikp40","pricing_plan_id":"cebpf4jnsgd1na2vs0mg"},{"bike_id":"2fe0754b-3a04-446b-8450-6e9bb771c109","system_id":"levelo_inurba_marseille","lat":43.29419,"lon":5.38617,"is_reserved":false,"is_disabled":false,"rental_uris":{"android":"levelo://app?vid=2fe0754b-3a04-446b-8450-6e9bb771c109","ios":"levelo://app?vid=2fe0754b-3a04-446b-8450-6e9bb771c109"},"vehicle_type_id":"4","last_reported":1730027200,"current_range_meters":24000,"station_id":"ce4bh2h2rcd13ifvqdh0","pricing_plan_id":"cebpf4jnsgd1na2vs0mg"},{"bike_id":"37715975-b7d7-45ae-87a1-9fd2bf4e6777","system_id":"levelo_inurba_marseille","lat":43.23964,"lon":5.36619,"is_reserved":false,"is_disabled":false,"rental_uris":{"android":"levelo://app?vid=37715975-b7d7-45ae-87a1-9fd2bf4e6777","ios":"levelo://app?vid=37715975-b7d7-45ae-87a1-9fd2bf4e6777"},"vehicle_type_id":"4","last_reported":1730027200,"current_range_meters":8400,"station_id":"ce4bhi12rcd13ifvqfp0","pricing_plan_id":"cebpf4jnsgd1na2vs0mg"},{"bike_id":"a929bb97-02ec-400c-aafd-a4d93e575497","system_id":"levelo_inurba_marseille","lat":43.24163,"lon":5.36399,"is_reserved":false,"is_disabled":false,"rental_uris":{"android":"levelo://app?vid=a929bb97-02ec-400c-aafd-a4d93e575497","ios":"levelo://app?vid=a929bb97-02ec-400c-aafd-a4d93e575497"},"vehicle_type_id":"4","last_reported":1730027200,"current_range_meters":29600,"station_id":"cpo36qri1sfpv3e86is0","pricing_plan_id":"cebpf4jnsgd1na2vs0mg"},{"bike_id":"1a504bb3-387b-4e83-ae89-5c5ddfebd1d6","system_id":"levelo_inurba_marseille","lat":43.26928,"lon":5.38906,"is_reserved":false,"is_disabled":false,"rental_uris":{"android":"levelo://app?vid=1a504bb3-387b-4e83-ae89-5c5ddfebd1d6","ios":"levelo://app?vid=1a504bb3-387b-4e83-ae89-5c5ddfebd1d6"},"vehicle_type_id":"4","last_reported":1730027200,"current_range_meters":38800,"station_id":"ce4bhhh2rcd13ifvqfl0","pricing_plan_id":"cebpf4jnsgd1na2vs0mg"},{"bike_id":"c99defe0-8efc-4702-86ff-f4db4c3ca963","system_id":"levelo_inurba_marseille","lat":43.27426,"lon":5.39406,"is_reserved":false,"is_disabled":false,"rental_uris":{"android":"levelo://app?vid=c99defe0-8efc-4702-86ff-f4db4c3ca963","ios":"levelo://app?vid=c99defe0-8efc-4702-86ff-f4db4c3ca963"},"vehicle_type_id":"4","last_reported":1730027200,"current_range_meters":38800,"station_id":"ce4bhdp2rcd13ifvqf20","pricing_plan_id":"cebpf4jnsgd1na2vs0mg"},{"bike_id":"aad06f1d-3204-49db-9049-7043b4e36244","system_id":"levelo_inurba_marseille","lat":43.254913,"lon":5.376484,"is_reserved":false,"is_disabled":false,"rental_uris":{"android":"levelo://app?vid=aad06f1d-3204-49db-9049-7043b4e36244","ios":"levelo://app?vid=aad06f1d-3204-49db-9049-7043b4e36244"},"vehicle_type_id":"4","last_reported":1730027200,"current_range_meters":38800,"station_id":"ce4bhh12rcd13ifvqff0","pricing_plan_id":"cebpf4jnsgd1na2vs0mg"},{"bike_id":"6495af04-c874-4345-ae15-2fb517b868e4","system_id":"levelo_inurba_marseille","lat":43.30545,"lon":5.36539,"is_reserved":false,"is_disabled":false,"rental_uris":{"android":"levelo://app?vid=6495af04-c874-4345-ae15-2fb517b868e4","ios":"levelo://app?vid=6495af04-c874-4345-ae15-2fb517b868e4"},"vehicle_type_id":"4","last_reported":1730027200,"current_range_meters":28400,"station_id":"ce4bgs12rcd13ifvqcag","pricing_plan_id":"cebpf4jnsgd1na2vs0mg"},{"bike_id":"960c25fd-a513-4486-9205-28e40f919a67","system_id":"levelo_inurba_marseille","lat":43.28448,"lon":5.39179,"is_reserved":false,"is_disabled":false,"rental_uris":{"android":"levelo://app?vid=960c25fd-a513-4486-9205-28e40f919a67","ios":"levelo://app?vid=960c25fd-a513-4486-9205-28e40f919a67"},"vehicle_type_id":"4","last_reported":1730027200,"current_range_meters":26800,"station_id":"ce4bhoh2rcd13ifvqh5g","pricing_plan_id":"cebpf4jnsgd1na2vs0mg"},{"bike_id":"01a8e98b-5b3e-425b-8bde-b143fe7810a1","system_id":"levelo_inurba_marseille","lat":43.26563,"lon":5.38996,"is_reserved":false,"is_disabled":false,"rental_uris":{"android":"levelo://app?vid=01a8e98b-5b3e-425b-8bde-b143fe7810a1","ios":"levelo://app?vid=01a8e98b-5b3e-425b-8bde-b143fe7810a1"},"vehicle_type_id":"4","last_reported":1730027200,"current_range_meters":26800,"station_id":"ce4bhe12rcd13ifvqf30","pricing_plan_id":"cebpf4jnsgd1na2vs0mg"},{"bike_id":"46b631eb-2e74-4466-b4ed-98bb2494e13b","system_id":"levelo_inurba_marseille","lat":43.29711,"lon":5.37694,"is_reserved":false,"is_disabled":false,"rental_uris":{"android":"levelo://app?vid=46b631eb-2e74-4466-b4ed-98bb2494e13b","ios":"levelo://app?vid=46b631eb-2e74-4466-b4ed-98bb2494e13b"},"vehicle_type_id":"4","last_reported":1730027200,"current_range_meters":8400,"station_id":"ce4bgkh2rcd13ifvqbl0","pricing_plan_id":"cebpf4jnsgd1na2vs0mg"},{"bike_id":"ce23124f-07c3-4bc2-8e89-df0834cb248a","system_id":"levelo_inurba_marseille","lat":43.303115,"lon":5.369004,"is_reserved":false,"is_disabled":false,"rental_uris":{"android":"levelo://app?vid=ce23124f-07c3-4bc2-8e89-df0834cb248a","ios":"levelo://app?vid=ce23124f-07c3-4bc2-8e89-df0834cb248a"},"vehicle_type_id":"4","last_reported":1730027200,"current_range_meters":36000,"station_id":"ce4bgqh2rcd13ifvqc5g","pricing_plan_id":"cebpf4jnsgd1na2vs0mg"},{"bike_id":"f2ed6acf-c629-4dbf-ac89-5a99a7993473","system_id":"levelo_inurba_marseille","lat":43.27111,"lon":5.40887,"is_reserved":false,"is_disabled":false,"rental_uris":{"android":"levelo://app?vid=f2ed6acf-c629-4dbf-ac89-5a99a7993473","ios":"levelo://app?vid=f2ed6acf-c629-4dbf-ac89-5a99a7993473"},"vehicle_type_id":"4","last_reported":1730027200,"current_range_meters":2800,"station_id":"","pricing_plan_id":"cebpf4jnsgd1na2vs0mg"},{"bike_id":"64ed699a-81ee-469d-aa10-67ef9f831c3c","system_id":"levelo_inurba_marseille","lat":43.30537,"lon":5.36697,"is_reserved":false,"is_disabled":false,"rental_uris":{"android":"levelo://app?vid=64ed699a-81ee-469d-aa10-67ef9f831c3c","ios":"levelo://app?vid=64ed699a-81ee-469d-aa10-67ef9f831c3c"},"vehicle_type_id":"4","last_reported":1730027200,"current_range_meters":28400,"station_id":"ce4bgrp2rcd13ifvqc9g","pricing_plan_id":"cebpf4jnsgd1na2vs0mg"},{"bike_id":"396b02c8-3bf6-444d-ba51-1cc84b771be6","system_id":"levelo_inurba_marseille","lat":43.30537,"lon":5.36542,"is_reserved":false,"is_disabled":false,"rental_uris":{"android":"levelo://app?vid=396b02c8-3bf6-444d-ba51-1cc84b771be6","ios":"levelo://app?vid=396b02c8-3bf6-444d-ba51-1cc84b771be6"},"vehicle_type_id":"4","last_reported":1730027200,"current_range_meters":26800,"station_id":"ce4bgs12rcd13ifvqcag","pricing_plan_id":"cebpf4jnsgd1na2vs0mg"},{"bike_id":"6e45bd55-8d3d-47a0-ae26-852c24ebcb13","system_id":"levelo_inurba_marseille","lat":43.2781,"lon":5.40704,"is_reserved":false,"is_disabled":false,"rental_uris":{"android":"levelo://app?vid=6e45bd55-8d3d-47a0-ae26-852c24ebcb13","ios":"levelo://app?vid=6e45bd55-8d3d-47a0-ae26-852c24ebcb13"},"vehicle_type_id":"4","last_reported":1730027200,"current_range_meters":38800,"station_id":"ce4bhnh2rcd13ifvqgtg","pricing_plan_id":"cebpf4jnsgd1na2vs0mg"},{"bike_id":"1667e150-1508-460c-b172-36d13f115642","system_id":"levelo_inurba_marseille","lat":43.30277,"lon":5.37696,"is_reserved":false,"is_disabled":false,"rental_uris":{"android":"levelo://app?vid=1667e150-1508-460c-b172-36d13f115642","ios":"levelo://app?vid=1667e150-1508-460c-b172-36d13f115642"},"vehicle_type_id":"4","last_reported":1730027200,"current_range_meters":33200,"station_id":"ce4bguh2rcd13ifvqcj0","pricing_plan_id":"cebpf4jnsgd1na2vs0mg"},{"bike_id":"56075183-762f-4ebb-ac7b-41d84e492998","system_id":"levelo_inurba_marseille","lat":43.30358,"lon":5.41876,"is_reserved":false,"is_disabled":false,"rental_uris":{"android":"levelo://app?vid=56075183-762f-4ebb-ac7b-41d84e492998","ios":"levelo://app?vid=56075183-762f-4ebb-ac7b-41d84e492998"},"vehicle_type_id":"4","last_reported":1730027200,"current_range_meters":12800,"station_id":"ce4bhop2rcd13ifvqh7g","pricing_plan_id":"cebpf4jnsgd1na2vs0mg"},{"bike_id":"e89316dc-a19a-469f-a9cd-dc00b495757e","system_id":"levelo_inurba_marseille","lat":43.27442,"lon":5.40641,"is_reserved":false,"is_disabled":false,"rental_uris":{"android":"levelo://app?vid=e89316dc-a19a-469f-a9cd-dc00b495757e","ios":"levelo://app?vid=e89316dc-a19a-469f-a9cd-dc00b495757e"},"vehicle_type_id":"4","last_reported":1730027200,"current_range_meters":9600,"station_id":"","pricing_plan_id":"cebpf4jnsgd1na2vs0mg"},{"bike_id":"b5c3c869-5366-48a9-b35a-0cc017a89f01","system_id":"levelo_inurba_marseille","lat":43.29007,"lon":5.35612,"is_reserved":false,"is_disabled":false,"rental_uris":{"android":"levelo://app?vid=b5c3c869-5366-48a9-b35a-0cc017a89f01","ios":"levelo://app?vid=b5c3c869-5366-48a9-b35a-0cc017a89f01"},"vehicle_type_id":"4","last_reported":1730027200,"current_range_meters":28800,"station_id":"ce4bhb92rcd13ifvqen0","pricing_plan_id":"cebpf4jnsgd1na2vs0mg"},{"bike_id":"81e500be-3ff6-45b1-af40-237783c8efb0","system_id":"levelo_inurba_marseille","lat":43.27814,"lon":5.40718,"is_reserved":false,"is_disabled":false,"rental_uris":{"android":"levelo://app?vid=81e500be-3ff6-45b1-af40-237783c8efb0","ios":"levelo://app?vid=81e500be-3ff6-45b1-af40-237783c8efb0"},"vehicle_type_id":"4","last_reported":1730027200,"current_range_meters":15200,"station_id":"ce4bhnh2rcd13ifvqgtg","pricing_plan_id":"cebpf4jnsgd1na2vs0mg"},{"bike_id":"3b742143-4d68-48a2-91b0-09a2c57af789","system_id":"levelo_inurba_marseille","lat":43.3014,"lon":5.39848,"is_reserved":false,"is_disabled":false,"rental_uris":{"android":"levelo://app?vid=3b742143-4d68-48a2-91b0-09a2c57af789","ios":"levelo://app?vid=3b742143-4d68-48a2-91b0-09a2c57af789"},"vehicle_type_id":"4","last_reported":1730027200,"current_range_meters":29600,"station_id":"ce4bh0h2rcd13ifvqd40","pricing_plan_id":"cebpf4jnsgd1na2vs0mg"},{"bike_id":"fa30867d-31fd-449d-bf86-f380d61b29ca","system_id":"levelo_inurba_marseille","lat":43.28429,"lon":5.34983,"is_reserved":false,"is_disabled":false,"rental_uris":{"android":"levelo://app?vid=fa30867d-31fd-449d-bf86-f380d61b29ca","ios":"levelo://app?vid=fa30867d-31fd-449d-bf86-f380d61b29ca"},"vehicle_type_id":"4","last_reported":1730027200,"current_range_meters":32000,"station_id":"ce4bhbh2rcd13ifvqepg","pricing_plan_id":"cebpf4jnsgd1na2vs0mg"},{"bike_id":"a74deb4d-a360-4848-99b6-31e4ebbde648","system_id":"levelo_inurba_marseille","lat":43.26953,"lon":5.38629,"is_reserved":false,"is_disabled":false,"rental_uris":{"android":"levelo://app?vid=a74deb4d-a360-4848-99b6-31e4ebbde648","ios":"levelo://app?vid=a74deb4d-a360-4848-99b6-31e4ebbde648"},"vehicle_type_id":"4","last_reported":1730027200,"current_range_meters":11200,"station_id":"ce4bhh92rcd13ifvqfh0","pricing_plan_id":"cebpf4jnsgd1na2vs0mg"},{"bike_id":"f388c246-2c3d-4c8e-92b0-fd5e5fd2e527","system_id":"levelo_inurba_marseille","lat":43.294067,"lon":5.385975,"is_reserved":false,"is_disabled":false,"rental_uris":{"android":"levelo://app?vid=f388c246-2c3d-4c8e-92b0-fd5e5fd2e527","ios":"levelo://app?vid=f388c246-2c3d-4c8e-92b0-fd5e5fd2e527"},"vehicle_type_id":"4","last_reported":1730027200,"current_range_meters":24000,"station_id":"ce4bgup2rcd13ifvqco0","pricing_plan_id":"cebpf4jnsgd1na2vs0mg"},{"bike_id":"5969da41-f62f-4c2d-bec0-a048a6d67f8e","system_id":"levelo_inurba_marseille","lat":43.29617,"lon":5.37721,"is_reserved":false,"is_disabled":false,"rental_uris":{"android":"levelo://app?vid=5969da41-f62f-4c2d-bec0-a048a6d67f8e","ios":"levelo://app?vid=5969da41-f62f-4c2d-bec0-a048a6d67f8e"},"vehicle_type_id":"4","last_reported":1730027200,"current_range_meters":37600,"station_id":"ce4bgi92rcd13ifvqb90","pricing_plan_id":"cebpf4jnsgd1na2vs0mg"},{"bike_id":"9845a481-28a2-455b-82da-9a74fc1c7c0a","system_id":"levelo_inurba_marseille","lat":43.30181,"lon":5.36613,"is_reserved":false,"is_disabled":false,"rental_uris":{"android":"levelo://app?vid=9845a481-28a2-455b-82da-9a74fc1c7c0a","ios":"levelo://app?vid=9845a481-28a2-455b-82da-9a74fc1c7c0a"},"vehicle_type_id":"4","last_reported":1730027200,"current_range_meters":33600,"station_id":"ce4bgrh2rcd13ifvqc8g","pricing_plan_id":"cebpf4jnsgd1na2vs0mg"},{"bike_id":"f550c23d-5cf7-4270-b8b3-5433d13c892c","system_id":"levelo_inurba_marseille","lat":43.28777,"lon":5.39103,"is_reserved":false,"is_disabled":false,"rental_uris":{"android":"levelo://app?vid=f550c23d-5cf7-4270-b8b3-5433d13c892c","ios":"levelo://app?vid=f550c23d-5cf7-4270-b8b3-5433d13c892c"},"vehicle_type_id":"4","last_reported":1730027200,"current_range_meters":34800,"station_id":"","pricing_plan_id":"cebpf4jnsgd1na2vs0mg"},