{"last_updated":1688080064,"ttl":30,"version":"2.2","data":{"bikes":[{"bike_id":"666c1415-28e9-4944-87f5-29a628446c75","system_id":"levelo_inurba_marseille","lat":43.312239,"lon":5.368562,"is_reserved":false,"is_disabled":false,"rental_uris":{"android":"levelo://app?vid=666c1415-28e9-4944-87f5-29a628446c75","ios":"levelo://app?vid=666c1415-28e9-4944-87f5-29a628446c75"},"vehicle_type_id":"4","last_reported":1688080064,"current_range_meters":31200,"station_id":"ce4bgl92rcd13ifvqbq0","pricing_plan_id":"free"},{"bike_id":"1bebc548-7e7a-4da8-a346-86a7081321f1","system_id":"levelo_inurba_marseille","lat":43.312239,"lon":5.368562,"is_reserved":false,"is_disabled":false,"rental_uris":{"android":"levelo://app?vid=1bebc548-7e7a-4da8-a346-86a7081321f1","ios":"levelo://app?vid=1bebc548-7e7a-4da8-a346-86a7081321f1"},"vehicle_type_id":"4","last_reported":1688080064,"current_range_meters":30400,"station_id":"ce4bgl92rcd13ifvqbq0","pricing_plan_id":"free"},{"bike_id":"d66aad9b-ffab-4565-86ba-69c989a8ded8","system_id":"levelo_inurba_marseille","lat":43.30938,"lon":5.36691,"is_reserved":false,"is_disabled":false,"rental_uris":{"android":"levelo://app?vid=d66aad9b-ffab-4565-86ba-69c989a8ded8","ios":"levelo://app?vid=d66aad9b-ffab-4565-86ba-69c989a8ded8"},"vehicle_type_id":"4","last_reported":1688080064,"current_range_meters":12800,"station_id":"","pricing_plan_id":"free"},{"bike_id":"069172fd-073c-454a-b7ca-8e4f892921ec","system_id":"levelo_inurba_marseille","lat":43.314811,"lon":5.373103,"is_reserved":false,"is_disabled":false,"rental_uris":{"android":"levelo://app?vid=069172fd-073c-454a-b7ca-8e4f892921ec","ios":"levelo://app?vid=069172fd-073c-454a-b7ca-8e4f892921ec"},"vehicle_type_id":"4","last_reported":1688080064,"current_range_meters":7200,"station_id":"ce4bgt12rcd13ifvqcd0","pricing_plan_id":"free"},{"bike_id":"fb9a9fa1-f813-4e51-937d-7bac0f3c545e","system_id":"levelo_inurba_marseille","lat":43.30891,"lon":5.37181,"is_reserved":false,"is_disabled":false,"rental_uris":{"android":"levelo://app?vid=fb9a9fa1-f813-4e51-937d-7bac0f3c545e","ios":"levelo://app?vid=fb9a9fa1-f813-4e51-937d-7bac0f3c545e"},"vehicle_type_id":"4","last_reported":1688080064,"current_range_meters":31200,"station_id":"","pricing_plan_id":"free"},{"bike_id":"0f465d21-cc05-456a-87e6-110fa702754f","system_id":"levelo_inurba_marseille","lat":43.30891,"lon":5.37183,"is_reserved":false,"is_disabled":false,"rental_uris":{"android":"levelo://app?vid=0f465d21-cc05-456a-87e6-110fa702754f","ios":"levelo://app?vid=0f465d21-cc05-456a-87e6-110fa702754f"},"vehicle_type_id":"4","last_reported":1688080064,"current_range_meters":31200,"station_id":"ce4bguh2rcd13ifvqckg","pricing_plan_id":"free"},{"bike_id":"c0dee58e-52e0-4341-95f9-e5e3b9a18448","system_id":"levelo_inurba_marseille","lat":43.30891,"lon":5.37185,"is_reserved":false,"is_disabled":false,"rental_uris":{"android":"levelo://app?vid=c0dee58e-52e0-4341-95f9-e5e3b9a18448","ios":"levelo://app?vid=c0dee58e-52e0-4341-95f9-e5e3b9a18448"},"vehicle_type_id":"4","last_reported":1688080064,"current_range_meters":30000,"station_id":"","pricing_plan_id":"free"},{"bike_id":"5f838d10-a751-4454-8c50-21167e5bacbb","system_id":"levelo_inurba_marseille","lat":43.308614,"lon":5.372098,"is_reserved":false,"is_disabled":false,"rental_uris":{"android":"levelo://app?vid=5f838d10-a751-4454-8c50-21167e5bacbb","ios":"levelo://app?vid=5f838d10-a751-4454-8c50-21167e5bacbb"},"vehicle_type_id":"4","last_reported":1688080064,"current_range_meters":7600,"station_id":"ce4bguh2rcd13ifvqckg","pricing_plan_id":"free"},{"bike_id":"82d4232d-b633-4ac6-9909-8160215578c6","system_id":"levelo_inurba_marseille","lat":43.30893,"lon":5.37195,"is_reserved":false,"is_disabled":false,"rental_uris":{"android":"levelo://app?vid=82d4232d-b633-4ac6-9909-8160215578c6","ios":"levelo://app?vid=82d4232d-b633-4ac6-9909-8160215578c6"},"vehicle_type_id":"4","last_reported":1688080064,"current_range_meters":18800,"station_id":"","pricing_plan_id":"free"},{"bike_id":"8df842b1-28dd-4cec-85d3-fe9c12fc831f","system_id":"levelo_inurba_marseille","lat":43.30617,"lon":5.36746,"is_reserved":false,"is_disabled":false,"rental_uris":{"android":"levelo://app?vid=8df842b1-28dd-4cec-85d3-fe9c12fc831f","ios":"levelo://app?vid=8df842b1-28dd-4cec-85d3-fe9c12fc831f"},"vehicle_type_id":"4","last_reported":1688080064,"current_range_meters":0,"station_id":"","pricing_plan_id":"free"},{"bike_id":"6df011d5-e522-4970-8c42-b1c2fa0de785","system_id":"levelo_inurba_marseille","lat":43.305989,"lon":5.37225,"is_reserved":false,"is_disabled":false,"rental_uris":{"android":"levelo://app?vid=6df011d5-e522-4970-8c42-b1c2fa0de785","ios":"levelo://app?vid=6df011d5-e522-4970-8c42-b1c2fa0de785"},"vehicle_type_id":"4","last_reported":1688080064,"current_range_meters":31200,"station_id":"ce4bgqh2rcd13ifvqc4g","pricing_plan_id":"free"},{"bike_id":"005f9dbf-fb0c-4764-94ea-a20a8de91386","system_id":"levelo_inurba_marseille","lat":43.30603,"lon":5.37214,"is_reserved":false,"is_disabled":false,"rental_uris":{"android":"levelo://app?vid=005f9dbf-fb0c-4764-94ea-a20a8de91386","ios":"levelo://app?vid=005f9dbf-fb0c-4764-94ea-a20a8de91386"},"vehicle_type_id":"4","last_reported":1688080064,"current_range_meters":4800,"station_id":"ce4bgqh2rcd13ifvqc4g","pricing_plan_id":"free"},{"bike_id":"355d2294-89e4-4be2-a783-09e0b71bf5ec","system_id":"levelo_inurba_marseille","lat":43.305989,"lon":5.37225,"is_reserved":false,"is_disabled":false,"rental_uris":{"android":"levelo://app?vid=355d2294-89e4-4be2-a783-09e0b71bf5ec","ios":"levelo://app?vid=355d2294-89e4-4be2-a783-09e0b71bf5ec"},"vehicle_type_id":"4","last_reported":1688080064,"current_range_meters":12000,"station_id":"ce4bgqh2rcd13ifvqc4g","pricing_plan_id":"free"},{"bike_id":"9ef08247-eb95-4936-8cd5-aa85c40d939f","system_id":"levelo_inurba_marseille","lat":43.305989,"lon":5.37225,"is_reserved":false,"is_disabled":false,"rental_uris":{"android":"levelo://app?vid=9ef08247-eb95-4936-8cd5-aa85c40d939f","ios":"levelo://app?vid=9ef08247-eb95-4936-8cd5-aa85c40d939f"},"vehicle_type_id":"4","last_reported":1688080064,"current_range_meters":4800,"station_id":"ce4bgqh2rcd13ifvqc4g","pricing_plan_id":"free"},{"bike_id":"03e4406e-a50b-46f8-a9fb-119fa6ae1dc9","system_id":"levelo_inurba_marseille","lat":43.305989,"lon":5.37225,"is_reserved":false,"is_disabled":false,"rental_uris":{"android":"levelo://app?vid=03e4406e-a50b-46f8-a9fb-119fa6ae1dc9","ios":"levelo://app?vid=03e4406e-a50b-46f8-a9fb-119fa6ae1dc9"},"vehicle_type_id":"4","last_reported":1688080064,"current_range_meters":6800,"station_id":"ce4bgqh2rcd13ifvqc4g","pricing_plan_id":"free"},{"bike_id":"aa29d396-651d-4375-be7b-07db3ab0d60c","system_id":"levelo_inurba_marseille","lat":43.311131,"lon":5.377651,"is_reserved":false,"is_disabled":false,"rental_uris":{"android":"levelo://app?vid=aa29d396-651d-4375-be7b-07db3ab0d60c","ios":"levelo://app?vid=aa29d396-651d-4375-be7b-07db3ab0d60c"},"vehicle_type_id":"4","last_reported":1688080064,"current_range_meters":11200,"station_id":"ce4bgt92rcd13ifvqcg0","pricing_plan_id":"free"},{"bike_id":"b074630c-bd53-4ff5-b894-1b3ce6ee05bf","system_id":"levelo_inurba_marseille","lat":43.311131,"lon":5.377651,"is_reserved":false,"is_disabled":false,"rental_uris":{"android":"levelo://app?vid=b074630c-bd53-4ff5-b894-1b3ce6ee05bf","ios":"levelo://app?vid=b074630c-bd53-4ff5-b894-1b3ce6ee05bf"},"vehicle_type_id":"4","last_reported":1688080064,"current_range_meters":31200,"station_id":"ce4bgt92rcd13ifvqcg0","pricing_plan_id":"free"},{"bike_id":"c8190e2b-0fff-4188-a1e0-d35a491a1e2d","system_id":"levelo_inurba_marseille","lat":43.311125,"lon":5.377624,"is_reserved":false,"is_disabled":false,"rental_uris":{"android":"levelo://app?vid=c8190e2b-0fff-4188-a1e0-d35a491a1e2d","ios":"levelo://app?vid=c8190e2b-0fff-4188-a1e0-d35a491a1e2d"},"vehicle_type_id":"4","last_reported":1688080064,"current_range_meters":13200,"station_id":"ce4bgt92rcd13ifvqcg0","pricing_plan_id":"free"},{"bike_id":"f8e2ccc2-cacd-4169-89cc-edb0fcf3b1fe","system_id":"levelo_inurba_marseille","lat":43.311125,"lon":5.377624,"is_reserved":false,"is_disabled":false,"rental_uris":{"android":"levelo://app?vid=f8e2ccc2-cacd-4169-89cc-edb0fcf3b1fe","ios":"levelo://app?vid=f8e2ccc2-cacd-4169-89cc-edb0fcf3b1fe"},"vehicle_type_id":"4","last_reported":1688080064,"current_range_meters":6400,"station_id":"ce4bgt92rcd13ifvqcg0","pricing_plan_id":"free"},{"bike_id":"447654bd-97b2-48ce-a833-60e4c36bb768","system_id":"levelo_inurba_marseille","lat":43.311125,"lon":5.377624,"is_reserved":false,"is_disabled":false,"rental_uris":{"android":"levelo://app?vid=447654bd-97b2-48ce-a833-60e4c36bb768","ios":"levelo://app?vid=447654bd-97b2-48ce-a833-60e4c36bb768"},"vehicle_type_id":"4","last_reported":1688080064,"current_range_meters":5600,"station_id":"ce4bgt92rcd13ifvqcg0","pricing_plan_id":"free"},{"bike_id":"f143fd2a-bded-46b0-928a-d97f1c0c4828","system_id":"levelo_inurba_marseille","lat":43.3056,"lon":5.37352,"is_reserved":false,"is_disabled":false,"rental_uris":{"android":"levelo://app?vid=f143fd2a-bded-46b0-928a-d97f1c0c4828","ios":"levelo://app?vid=f143fd2a-bded-46b0-928a-d97f1c0c4828"},"vehicle_type_id":"4","last_reported":1688080064,"current_range_meters":18800,"station_id":"","pricing_plan_id":"free"},{"bike_id":"1dd894a5-fa86-4061-aae5-84f8e66aed75","system_id":"levelo_inurba_marseille","lat":43.317075,"lon":5.377367,"is_reserved":false,"is_disabled":false,"rental_uris":{"android":"levelo://app?vid=1dd894a5-fa86-4061-aae5-84f8e66aed75","ios":"levelo://app?vid=1dd894a5-fa86-4061-aae5-84f8e66aed75"},"vehicle_type_id":"4","last_reported":1688080064,"current_range_meters":2400,"station_id":"ce4bgth2rcd13ifvqch0","pricing_plan_id":"free"},{"bike_id":"38ad3184-fcfd-4f10-908e-d9c7eca5e25d","system_id":"levelo_inurba_marseille","lat":43.317075,"lon":5.377367,"is_reserved":false,"is_disabled":false,"rental_uris":{"android":"levelo://app?vid=38ad3184-fcfd-4f10-908e-d9c7eca5e25d","ios":"levelo://app?vid=38ad3184-fcfd-4f10-908e-d9c7eca5e25d"},"vehicle_type_id":"4","last_reported":1688080064,"current_range_meters":25600,"station_id":"ce4bgth2rcd13ifvqch0","pricing_plan_id":"free"},{"bike_id":"0922827c-21e0-4989-811f-3318df700889","system_id":"levelo_inurba_marseille","lat":43.317075,"lon":5.377367,"is_reserved":false,"is_disabled":false,"rental_uris":{"android":"levelo://app?vid=0922827c-21e0-4989-811f-3318df700889","ios":"levelo://app?vid=0922827c-21e0-4989-811f-3318df700889"},"vehicle_type_id":"4","last_reported":1688080064,"current_range_meters":5600,"station_id":"ce4bgth2rcd13ifvqch0","pricing_plan_id":"free"},{"bike_id":"49f5d38a-a490-42b3-9c0e-54311c19f454","system_id":"levelo_inurba_marseille","lat":43.315289,"lon":5.380349,"is_reserved":false,"is_disabled":false,"rental_uris":{"android":"levelo://app?vid=49f5d38a-a490-42b3-9c0e-54311c19f454","ios":"levelo://app?vid=49f5d38a-a490-42b3-9c0e-54311c19f454"},"vehicle_type_id":"4","last_reported":1688080064,"current_range_meters":4800,"station_id":"ce4bhsp2rcd13ifvqi50","pricing_plan_id":"free"},{"bike_id":"89e698f8-dbe8-4590-a24f-e3f41de4f6dd","system_id":"levelo_inurba_marseille","lat":43.308012,"lon":5.381511,"is_reserved":false,"is_disabled":false,"rental_uris":{"android":"levelo://app?vid=89e698f8-dbe8-4590-a24f-e3f41de4f6dd","ios":"levelo://app?vid=89e698f8-dbe8-4590-a24f-e3f41de4f6dd"},"vehicle_type_id":"4","last_reported":1688080064,"current_range_meters":19200,"station_id":"ce4bgt12rcd13ifvqce0","pricing_plan_id":"free"},{"bike_id":"225e5276-8a22-426d-8990-ec266cc6c25c","system_id":"levelo_inurba_marseille","lat":43.304606,"lon":5.379026,"is_reserved":false,"is_disabled":false,"rental_uris":{"android":"levelo://app?vid=225e5276-8a22-426d-8990-ec266cc6c25c","ios":"levelo://app?vid=225e5276-8a22-426d-8990-ec266cc6c25c"},"vehicle_type_id":"4","last_reported":1688080064,"current_range_meters":23600,"station_id":"ce4bgup2rcd13ifvqcn0","pricing_plan_id":"free"},{"bike_id":"1843e180-e545-4e47-ae29-5ca8bc537aca","system_id":"levelo_inurba_marseille","lat":43.302784,"lon":5.377158,"is_reserved":false,"is_disabled":false,"rental_uris":{"android":"levelo://app?vid=1843e180-e545-4e47-ae29-5ca8bc537aca","ios":"levelo://app?vid=1843e180-e545-4e47-ae29-5ca8bc537aca"},"vehicle_type_id":"4","last_reported":1688080064,"current_range_meters":16800,"station_id":"ce4bguh2rcd13ifvqcj0","pricing_plan_id":"free"},{"bike_id":"1c0c91bf-0123-43e7-8d71-946acc731e4e","system_id":"levelo_inurba_marseille","lat":43.30723,"lon":5.38244,"is_reserved":false,"is_disabled":false,"rental_uris":{"android":"levelo://app?vid=1c0c91bf-0123-43e7-8d71-946acc731e4e","ios":"levelo://app?vid=1c0c91bf-0123-43e7-8d71-946acc731e4e"},"vehicle_type_id":"4","last_reported":1688080064,"current_range_meters":19600,"station_id":"","pricing_plan_id":"free"},{"bike_id":"34ee49b9-c50b-4a68-a7c0-e16e42a93913","system_id":"levelo_inurba_marseille","lat":43.32534,"lon":5.36873,"is_reserved":false,"is_disabled":false,"rental_uris":{"android":"levelo://app?vid=34ee49b9-c50b-4a68-a7c0-e16e42a93913","ios":"levelo://app?vid=34ee49b9-c50b-4a68-a7c0-e16e42a93913"},"vehicle_type_id":"4","last_reported":1688080064,"current_range_meters":15200,"station_id":"","pricing_plan_id":"free"},{"bike_id":"a95db9a8-3544-4127-a403-ba78eeb190c7","system_id":"levelo_inurba_marseille","lat":43.319935,"lon":5.381699,"is_reserved":false,"is_disabled":false,"rental_uris":{"android":"levelo://app?vid=a95db9a8-3544-4127-a403-ba78eeb190c7","ios":"levelo://app?vid=a95db9a8-3544-4127-a403-ba78eeb190c7"},"vehicle_type_id":"4","last_reported":1688080064,"current_range_meters":4400,"station_id":"ce4bhr12rcd13ifvqhpg","pricing_plan_id":"free"},{"bike_id":"4a1a26e0-db70-410c-8281-802e517c26f3","system_id":"levelo_inurba_marseille","lat":43.319935,"lon":5.381699,"is_reserved":false,"is_disabled":false,"rental_uris":{"android":"levelo://app?vid=4a1a26e0-db70-410c-8281-802e517c26f3","ios":"levelo://app?vid=4a1a26e0-db70-410c-8281-802e517c26f3"},"vehicle_type_id":"4","last_reported":1688080064,"current_range_meters":31200,"station_id":"ce4bhr12rcd13ifvqhpg","pricing_plan_id":"free"},{"bike_id":"c6e29822-c919-4841-82f1-6591d0b3432d","system_id":"levelo_inurba_marseille","lat":43.319935,"lon":5.381699,"is_reserved":false,"is_disabled":false,"rental_uris":{"android":"levelo://app?vid=c6e29822-c919-4841-82f1-6591d0b3432d","ios":"levelo://app?vid=c6e29822-c919-4841-82f1-6591d0b3432d"},"vehicle_type_id":"4","last_reported":1688080064,"current_range_meters":17200,"station_id":"ce4bhr12rcd13ifvqhpg","pricing_plan_id":"free"},{"bike_id":"2267bba9-3e6a-433f-bc7f-64d2d90d9c17","system_id":"levelo_inurba_marseille","lat":43.313571,"lon":5.384829,"is_reserved":false,"is_disabled":false,"rental_uris":{"android":"levelo://app?vid=2267bba9-3e6a-433f-bc7f-64d2d90d9c17","ios":"levelo://app?vid=2267bba9-3e6a-433f-bc7f-64d2d90d9c17"},"vehicle_type_id":"4","last_reported":1688080064,"current_range_meters":27600,"station_id":"ce4bgt92rcd13ifvqcf0","pricing_plan_id":"free"},{"bike_id":"01a806ca-7373-4c5d-b3e0-3ba0c5e63019","system_id":"levelo_inurba_marseille","lat":43.313571,"lon":5.384829,"is_reserved":false,"is_disabled":false,"rental_uris":{"android":"levelo://app?vid=01a806ca-7373-4c5d-b3e0-3ba0c5e63019","ios":"levelo://app?vid=01a806ca-7373-4c5d-b3e0-3ba0c5e63019"},"vehicle_type_id":"4","last_reported":1688080064,"current_range_meters":10400,"station_id":"ce4bgt92rcd13ifvqcf0","pricing_plan_id":"free"},{"bike_id":"662f4f3c-33ec-4642-9477-ffe6a7a999c0","system_id":"levelo_inurba_marseille","lat":43.313571,"lon":5.384829,"is_reserved":false,"is_disabled":false,"rental_uris":{"android":"levelo://app?vid=662f4f3c-33ec-4642-9477-ffe6a7a999c0","ios":"levelo://app?vid=662f4f3c-33ec-4642-9477-ffe6a7a999c0"},"vehicle_type_id":"4","last_reported":1688080064,"current_range_meters":26000,"station_id":"ce4bgt92rcd13ifvqcf0","pricing_plan_id":"free"},{"bike_id":"2db6ccfe-e756-4004-8afb-1502d2232b59","system_id":"levelo_inurba_marseille","lat":43.313571,"lon":5.384829,"is_reserved":false,"is_disabled":false,"rental_uris":{"android":"levelo://app?vid=2db6ccfe-e756-4004-8afb-1502d2232b59","ios":"levelo://app?vid=2db6ccfe-e756-4004-8afb-1502d2232b59"},"vehicle_type_id":"4","last_reported":1688080064,"current_range_meters":30000,"station_id":"ce4bgt92rcd13ifvqcf0","pricing_plan_id":"free"},{"bike_id":"d6656e17-e1fa-4a96-aadb-40a4d897b09d","system_id":"levelo_inurba_marseille","lat":43.313571,"lon":5.384829,"is_reserved":false,"is_disabled":false,"rental_uris":{"android":"levelo://app?vid=d6656e17-e1fa-4a96-aadb-40a4d897b09d","ios":"levelo://app?vid=d6656e17-e1fa-4a96-aadb-40a4d897b09d"},"vehicle_type_id":"4","last_reported":1688080064,"current_range_meters":17200,"station_id":"ce4bgt92rcd13ifvqcf0","pricing_plan_id":"free"},{"bike_id":"a8388328-7977-4408-a1b8-4ac1e8268de5","system_id":"levelo_inurba_marseille","lat":43.299243,"lon":5.374807,"is_reserved":false,"is_disabled":false,"rental_uris":{"android":"levelo://app?vid=a8388328-7977-4408-a1b8-4ac1e8268de5","ios":"levelo://app?vid=a8388328-7977-4408-a1b8-4ac1e8268de5"},"vehicle_type_id":"4","last_reported":1688080064,"current_range_meters":23200,"station_id":"ce4bgjh2rcd13ifvqbg0","pricing_plan_id":"free"},{"bike_id":"548d2b17-23f8-4791-8c83-083c8f8306c7","system_id":"levelo_inurba_marseille","lat":43.3053,"lon":5.3843,"is_reserved":false,"is_disabled":false,"rental_uris":{"android":"levelo://app?vid=548d2b17-23f8-4791-8c83-083c8f8306c7","ios":"levelo://app?vid=548d2b17-23f8-4791-8c83-083c8f8306c7"},"vehicle_type_id":"4","last_reported":1688080064,"current_range_meters":31200,"station_id":"ce4bgg92rcd13ifvqb30","pricing_plan_id":"free"},{"bike_id":"fec3f438-34fe-4b29-9cee-f0624db5fb06","system_id":"levelo_inurba_marseille","lat":43.2992,"lon":5.37477,"is_reserved":false,"is_disabled":false,"rental_uris":{"android":"levelo://app?vid=fec3f438-34fe-4b29-9cee-f0624db5fb06","ios":"levelo://app?vid=fec3f438-34fe-4b29-9cee-f0624db5fb06"},"vehicle_type_id":"4","last_reported":1688080064,"current_range_meters":22400,"station_id":"ce4bgjh2rcd13ifvqbg0","pricing_plan_id":"free"},{"bike_id":"17cb2d35-b405-4633-921e-150726ae96bf","system_id":"levelo_inurba_marseille","lat":43.311722,"lon":5.387247,"is_reserved":false,"is_disabled":false,"rental_uris":{"android":"levelo://app?vid=17cb2d35-b405-4633-921e-150726ae96bf","ios":"levelo://app?vid=17cb2d35-b405-4633-921e-150726ae96bf"},"vehicle_type_id":"4","last_reported":1688080064,"current_range_meters":16800,"station_id":"ce4bgv12rcd13ifvqcp0","pricing_plan_id":"free"},{"bike_id":"9a9e6909-d8c1-43b1-bb72-244a4738a23a","system_id":"levelo_inurba_marseille","lat":43.298433,"lon":5.362774,"is_reserved":false,"is_disabled":false,"rental_uris":{"android":"levelo://app?vid=9a9e6909-d8c1-43b1-bb72-244a4738a23a","ios":"levelo://app?vid=9a9e6909-d8c1-43b1-bb72-244a4738a23a"},"vehicle_type_id":"4","last_reported":1688080064,"current_range_meters":28000,"station_id":"ce4bgpp2rcd13ifvqc3g","pricing_plan_id":"free"},{"bike_id":"53686ec0-aeb5-44e6-962c-dd0a1f6c50d5","system_id":"levelo_inurba_marseille","lat":43.297774,"lon":5.370875,"is_reserved":false,"is_disabled":false,"rental_uris":{"android":"levelo://app?vid=53686ec0-aeb5-44e6-962c-dd0a1f6c50d5","ios":"levelo://app?vid=53686ec0-aeb5-44e6-962c-dd0a1f6c50d5"},"vehicle_type_id":"4","last_reported":1688080064,"current_range_meters":1200,"station_id":"ce4bgop2rcd13ifvqc1g","pricing_plan_id":"free"},{"bike_id":"edcd4795-9ae3-45cc-a7ee-5b8845ea7313","system_id":"levelo_inurba_marseille","lat":43.297774,"lon":5.370875,"is_reserved":false,"is_disabled":false,"rental_uris":{"android":"levelo://app?vid=edcd4795-9ae3-45cc-a7ee-5b8845ea7313","ios":"levelo://app?vid=edcd4795-9ae3-45cc-a7ee-5b8845ea7313"},"vehicle_type_id":"4","last_reported":1688080064,"current_range_meters":29600,"station_id":"ce4bgop2rcd13ifvqc1g","pricing_plan_id":"free"},{"bike_id":"62a3c4e6-f6e4-4d88-a092-4e66d323c822","system_id":"levelo_inurba_marseille","lat":43.328371,"lon":5.366909,"is_reserved":false,"is_disabled":false,"rental_uris":{"android":"levelo://app?vid=62a3c4e6-f6e4-4d88-a092-4e66d323c822","ios":"levelo://app?vid=62a3c4e6-f6e4-4d88-a092-4e66d323c822"},"vehicle_type_id":"4","last_reported":1688080064,"current_range_meters":31200,"station_id":"ce4bhs92rcd13ifvqi0g","pricing_plan_id":"free"},{"bike_id":"a5bfe231-bc81-46fe-9ea6-6672d7c45834","system_id":"levelo_inurba_marseille","lat":43.328371,"lon":5.366912,"is_reserved":false,"is_disabled":false,"rental_uris":{"android":"levelo://app?vid=a5bfe231-bc81-46fe-9ea6-6672d7c45834","ios":"levelo://app?vid=a5bfe231-bc81-46fe-9ea6-6672d7c45834"},"vehicle_type_id":"4","last_reported":1688080064,"current_range_meters":28800,"station_id":"ce4bhs92rcd13ifvqi0g","pricing_plan_id":"free"},{"bike_id":"cd48d919-abcf-4e95-abda-b4cc46b46269","system_id":"levelo_inurba_marseille","lat":43.328371,"lon":5.366912,"is_reserved":false,"is_disabled":false,"rental_uris":{"android":"levelo://app?vid=cd48d919-abcf-4e95-abda-b4cc46b46269","ios":"levelo://app?vid=cd48d919-abcf-4e95-abda-b4cc46b46269"},"vehicle_type_id":"4","last_reported":1688080064,"current_range_meters":11200,"station_id":"ce4bhs92rcd13ifvqi0g","pricing_plan_id":"free"},{"bike_id":"dc991152-807a-497a-bda7-245ae1cdca28","system_id":"levelo_inurba_marseille","lat":43.328371,"lon":5.366909,"is_reserved":false,"is_disabled":false,"rental_uris":{"android":"levelo://app?vid=dc991152-807a-497a-bda7-245ae1cdca28","ios":"levelo://app?vid=dc991152-807a-497a-bda7-245ae1cdca28"},"vehicle_type_id":"4","last_reported":1688080064,"current_range_meters":18800,"station_id":"ce4bhs92rcd13ifvqi0g","pricing_plan_id":"free"},{"bike_id":"c308155a-030c-4de2-86d3-17e39d98d109","system_id":"levelo_inurba_marseille","lat":43.328371,"lon":5.366909,"is_reserved":false,"is_disabled":false,"rental_uris":{"android":"levelo://app?vid=c308155a-030c-4de2-86d3-17e39d98d109","ios":"levelo://app?vid=c308155a-030c-4de2-86d3-17e39d98d109"},"vehicle_type_id":"4","last_reported":1688080064,"current_range_meters":22400,"station_id":"ce4bhs92rcd13ifvqi0g","pricing_plan_id":"free"},{"bike_id":"c465605b-42df-4b41-84fc-10ea3100f081","system_id":"levelo_inurba_marseille","lat":43.328371,"lon":5.366909,"is_reserved":false,"is_disabled":false,"rental_uris":{"android":"levelo://app?vid=c465605b-42df-4b41-84fc-10ea3100f081","ios":"levelo://app?vid=c465605b-42df-4b41-84fc-10ea3100f081"},"vehicle_type_id":"4","last_reported":1688080064,"current_range_meters":31200,"station_id":"ce4bhs92rcd13ifvqi0g","pricing_plan_id":"free"},{"bike_id":"e6d89631-a621-46a9-9a6d-81fb7a6ed3b7","system_id":"levelo_inurba_marseille","lat":43.328371,"lon":5.366912,"is_reserved":false,"is_disabled":false,"rental_uris":{"android":"levelo://app?vid=e6d89631-a621-46a9-9a6d-81fb7a6ed3b7","ios":"levelo://app?vid=e6d89631-a621-46a9-9a6d-81fb7a6ed3b7"},"vehicle_type_id":"4","last_reported":1688080064,"current_range_meters":9600,"station_id":"ce4bhs92rcd13ifvqi0g","pricing_plan_id":"free"},{"bike_id":"9759d232-642c-49e4-8d0e-d8c71db56140","system_id":"levelo_inurba_marseille","lat":43.328371,"lon":5.366909,"is_reserved":false,"is_disabled":false,"rental_uris":{"android":"levelo://app?vid=9759d232-642c-49e4-8d0e-d8c71db56140","ios":"levelo://app?vid=9759d232-642c-49e4-8d0e-d8c71db56140"},"vehicle_type_id":"4","last_reported":1688080064,"current_range_meters":24400,"station_id":"ce4bhs92rcd13ifvqi0g","pricing_plan_id":"free"},{"bike_id":"d5b5ffdb-9f75-4299-8080-cd3a3e0ca775","system_id":"levelo_inurba_marseille","lat":43.328371,"lon":5.366909,"is_reserved":false,"is_disabled":false,"rental_uris":{"android":"levelo://app?vid=d5b5ffdb-9f75-4299-8080-cd3a3e0ca775","ios":"levelo://app?vid=d5b5ffdb-9f75-4299-8080-cd3a3e0ca775"},"vehicle_type_id":"4","last_reported":1688080064,"current_range_meters":800,"station_id":"ce4bhs92rcd13ifvqi0g","pricing_plan_id":"free"},{"bike_id":"904ecbc7-df05-45ec-bca3-3c7184a82fb2","system_id":"levelo_inurba_marseille","lat":43.328371,"lon":5.366909,"is_reserved":false,"is_disabled":false,"rental_uris":{"android":"levelo://app?vid=904ecbc7-df05-45ec-bca3-3c7184a82fb2","ios":"levelo://app?vid=904ecbc7-df05-45ec-bca3-3c7184a82fb2"},"vehicle_type_id":"4","last_reported":1688080064,"current_range_meters":31200,"station_id":"ce4bhs92rcd13ifvqi0g","pricing_plan_id":"free"},{"bike_id":"34b8e086-201b-47bd-be7e-18c795171611","system_id":"levelo_inurba_marseille","lat":43.328371,"lon":5.366912,"is_reserved":false,"is_disabled":false,"rental_uris":{"android":"levelo://app?vid=34b8e086-201b-47bd-be7e-18c795171611","ios":"levelo://app?vid=34b8e086-201b-47bd-be7e-18c795171611"},"vehicle_type_id":"4","last_reported":1688080064,"current_range_meters":13200,"station_id":"ce4bhs92rcd13ifvqi0g","pricing_plan_id":"free"},{"bike_id":"7b74120c-7d6f-4c5b-8316-45a197bfc01f","system_id":"levelo_inurba_marseille","lat":43.29812,"lon":5.37687,"is_reserved":false,"is_disabled":false,"rental_uris":{"android":"levelo://app?vid=7b74120c-7d6f-4c5b-8316-45a197bfc01f","ios":"levelo://app?vid=7b74120c-7d6f-4c5b-8316-45a197bfc01f"},"vehicle_type_id":"4","last_reported":1688080064,"current_range_meters":16400,"station_id":"","pricing_plan_id":"free"},{"bike_id":"cae8fc90-3f96-42e1-8086-7eb9e0e56cac","system_id":"levelo_inurba_marseille","lat":43.30366,"lon":5.38636,"is_reserved":false,"is_disabled":false,"rental_uris":{"android":"levelo://app?vid=cae8fc90-3f96-42e1-8086-7eb9e0e56cac","ios":"levelo://app?vid=cae8fc90-3f96-42e1-8086-7eb9e0e56cac"},"vehicle_type_id":"4","last_reported":1688080064,"current_range_meters":0,"station_id":"","pricing_plan_id":"free"},{"bike_id":"1c231f91-18f0-4bd2-b866-2de5cdbcdab2","system_id":"levelo_inurba_marseille","lat":43.29735,"lon":5.37699,"is_reserved":false,"is_disabled":false,"rental_uris":{"android":"levelo://app?vid=1c231f91-18f0-4bd2-b866-2de5cdbcdab2","ios":"levelo://app?vid=1c231f91-18f0-4bd2-b866-2de5cdbcdab2"},"vehicle_type_id":"4","last_reported":1688080064,"current_range_meters":27600,"station_id":"","pricing_plan_id":"free"},{"bike_id":"76a397dc-9d3e-4419-ad9a-e5a56fa72423","system_id":"levelo_inurba_marseille","lat":43.317557,"lon":5.390173,"is_reserved":false,"is_disabled":false,"rental_uris":{"android":"levelo://app?vid=76a397dc-9d3e-4419-ad9a-e5a56fa72423","ios":"levelo://app?vid=76a397dc-9d3e-4419-ad9a-e5a56fa72423"},"vehicle_type_id":"4","last_reported":1688080064,"current_range_meters":0,"station_id":"ce4bhqp2rcd13ifvqhng","pricing_plan_id":"free"},{"bike_id":"1efc2668-7f21-46b3-9ce4-f9d0870364ed","system_id":"levelo_inurba_marseille","lat":43.317557,"lon":5.390173,"is_reserved":false,"is_disabled":false,"rental_uris":{"android":"levelo://app?vid=1efc2668-7f21-46b3-9ce4-f9d0870364ed","ios":"levelo://app?vid=1efc2668-7f21-46b3-9ce4-f9d0870364ed"},"vehicle_type_id":"4","last_reported":1688080064,"current_range_meters":21600,"station_id":"ce4bhqp2rcd13ifvqhng","pricing_plan_id":"free"},{"bike_id":"b6e7f317-91f2-4448-8a8b-61141b0ca09f","system_id":"levelo_inurba_marseille","lat":43.295748,"lon":5.37522,"is_reserved":false,"is_disabled":false,"rental_uris":{"android":"levelo://app?vid=b6e7f317-91f2-4448-8a8b-61141b0ca09f","ios":"levelo://app?vid=b6e7f317-91f2-4448-8a8b-61141b0ca09f"},"vehicle_type_id":"4","last_reported":1688080064,"current_range_meters":17200,"station_id":"ce4bgh92rcd13ifvqb50","pricing_plan_id":"free"},{"bike_id":"de8c96e0-71f1-47a6-9b44-95feebc0d2a5","system_id":"levelo_inurba_marseille","lat":43.29641,"lon":5.37733,"is_reserved":false,"is_disabled":false,"rental_uris":{"android":"levelo://app?vid=de8c96e0-71f1-47a6-9b44-95feebc0d2a5","ios":"levelo://app?vid=de8c96e0-71f1-47a6-9b44-95feebc0d2a5"},"vehicle_type_id":"4","last_reported":1688080064,"current_range_meters":8800,"station_id":"ce4bgi92rcd13ifvqb90","pricing_plan_id":"free"},{"bike_id":"eb41eb70-1492-48d8-9a21-b2b9519fa376","system_id":"levelo_inurba_marseille","lat":43.304274,"lon":5.388873,"is_reserved":false,"is_disabled":false,"rental_uris":{"android":"levelo://app?vid=eb41eb70-1492-48d8-9a21-b2b9519fa376","ios":"levelo://app?vid=eb41eb70-1492-48d8-9a21-b2b9519fa376"},"vehicle_type_id":"4","last_reported":1688080064,"current_range_meters":12400,"station_id":"ce4bgk12rcd13ifvqbi0","pricing_plan_id":"free"},{"bike_id":"4fbea406-e279-4a33-9d43-365cc06074f0","system_id":"levelo_inurba_marseille","lat":43.304274,"lon":5.388873,"is_reserved":false,"is_disabled":false,"rental_uris":{"android":"levelo://app?vid=4fbea406-e279-4a33-9d43-365cc06074f0","ios":"levelo://app?vid=4fbea406-e279-4a33-9d43-365cc06074f0"},"vehicle_type_id":"4","last_reported":1688080064,"current_range_meters":10800,"station_id":"ce4bgk12rcd13ifvqbi0","pricing_plan_id":"free"},{"bike_id":"e5a4d109-16da-4369-9981-ff655d254cae","system_id":"levelo_inurba_marseille","lat":43.297526,"lon":5.380432,"is_reserved":false,"is_disabled":false,"rental_uris":{"android":"levelo://app?vid=e5a4d109-16da-4369-9981-ff655d254cae","ios":"levelo://app?vid=e5a4d109-16da-4369-9981-ff655d254cae"},"vehicle_type_id":"4","last_reported":1688080064,"current_range_meters":20800,"station_id":"","pricing_plan_id":"free"},{"bike_id":"20c808d8-f8d2-4086-85ce-823aea2abd68","system_id":"levelo_inurba_marseille","lat":43.29622,"lon":5.37733,"is_reserved":false,"is_disabled":false,"rental_uris":{"android":"levelo://app?vid=20c808d8-f8d2-4086-85ce-823aea2abd68","ios":"levelo://app?vid=20c808d8-f8d2-4086-85ce-823aea2abd68"},"vehicle_type_id":"4","last_reported":1688080064,"current_range_meters":0,"station_id":"ce4bgi92rcd13ifvqb90","pricing_plan_id":"free"},{"bike_id":"cb379276-9d4c-406f-b093-635b7e80ebb0","system_id":"levelo_inurba_marseille","lat":43.2962,"lon":5.37734,"is_reserved":false,"is_disabled":false,"rental_uris":{"android":"levelo://app?vid=cb379276-9d4c-406f-b093-635b7e80ebb0","ios":"levelo://app?vid=cb379276-9d4c-406f-b093-635b7e80ebb0"},"vehicle_type_id":"4","last_reported":1688080064,"current_range_meters":13600,"station_id":"","pricing_plan_id":"free"},{"bike_id":"cf600c25-04e9-4070-b32d-94e8b24d6227","system_id":"levelo_inurba_marseille","lat":43.296277,"lon":5.377108,"is_reserved":false,"is_disabled":false,"rental_uris":{"android":"levelo://app?vid=cf600c25-04e9-4070-b32d-94e8b24d6227","ios":"levelo://app?vid=cf600c25-04e9-4070-b32d-94e8b24d6227"},"vehicle_type_id":"4","last_reported":1688080064,"current_range_meters":11200,"station_id":"ce4bgi92rcd13ifvqb90","pricing_plan_id":"free"},{"bike_id":"12e842e1-ca90-4b3f-8b02-e3c7e2ee1a32","system_id":"levelo_inurba_marseille","lat":43.299717,"lon":5.384845,"is_reserved":false,"is_disabled":false,"rental_uris":{"android":"levelo://app?vid=12e842e1-ca90-4b3f-8b02-e3c7e2ee1a32","ios":"levelo://app?vid=12e842e1-ca90-4b3f-8b02-e3c7e2ee1a32"},"vehicle_type_id":"4","last_reported":1688080064,"current_range_meters":0,"station_id":"ce4bgj92rcd13ifvqbd0","pricing_plan_id":"free"},{"bike_id":"5be71fd1-292c-4fc7-b8a4-98ece97074a4","system_id":"levelo_inurba_marseille","lat":43.32363,"lon":5.38885,"is_reserved":false,"is_disabled":false,"rental_uris":{"android":"levelo://app?vid=5be71fd1-292c-4fc7-b8a4-98ece97074a4","ios":"levelo://app?vid=5be71fd1-292c-4fc7-b8a4-98ece97074a4"},"vehicle_type_id":"4","last_reported":1688080064,"current_range_meters":3600,"station_id":"ce4bhqp2rcd13ifvqhog","pricing_plan_id":"free"},{"bike_id":"4aa36428-e98f-40db-9ee9-c8ee37674db6","system_id":"levelo_inurba_marseille","lat":43.32367,"lon":5.388836,"is_reserved":false,"is_disabled":false,"rental_uris":{"android":"levelo://app?vid=4aa36428-e98f-40db-9ee9-c8ee37674db6","ios":"levelo://app?vid=4aa36428-e98f-40db-9ee9-c8ee37674db6"},"vehicle_type_id":"4","last_reported":1688080064,"current_range_meters":400,"station_id":"ce4bhqp2rcd13ifvqhog","pricing_plan_id":"free"},{"bike_id":"c737b305-2f9e-411a-b1ca-26b0f745d0f2","system_id":"levelo_inurba_marseille","lat":43.33188,"lon":5.36158,"is_reserved":false,"is_disabled":false,"rental_uris":{"android":"levelo://app?vid=c737b305-2f9e-411a-b1ca-26b0f745d0f2","ios":"levelo://app?vid=c737b305-2f9e-411a-b1ca-26b0f745d0f2"},"vehicle_type_id":"4","last_reported":1688080064,"current_range_meters":4000,"station_id":"","pricing_plan_id":"free"},{"bike_id":"4a62a5bf-2de6-4264-afb6-3fdd978518cf","system_id":"levelo_inurba_marseille","lat":43.29601,"lon":5.381084,"is_reserved":false,"is_disabled":false,"rental_uris":{"android":"levelo://app?vid=4a62a5bf-2de6-4264-afb6-3fdd978518cf","ios":"levelo://app?vid=4a62a5bf-2de6-4264-afb6-3fdd978518cf"},"vehicle_type_id":"4","last_reported":1688080064,"current_range_meters":10400,"station_id":"ce4bgl12rcd13ifvqbo0","pricing_plan_id":"free"},{"bike_id":"d3227517-52e4-4126-8296-e8f8b314c652","system_id":"levelo_inurba_marseille","lat":43.32367,"lon":5.388836,"is_reserved":false,"is_disabled":false,"rental_uris":{"android":"levelo://app?vid=d3227517-52e4-4126-8296-e8f8b314c652","ios":"levelo://app?vid=d3227517-52e4-4126-8296-e8f8b314c652"},"vehicle_type_id":"4","last_reported":1688080064,"current_range_meters":0,"station_id":"ce4bhqp2rcd13ifvqhog","pricing_plan_id":"free"},{"bike_id":"0b724798-ff08-48b2-bc53-d586a96ea8a3","system_id":"levelo_inurba_marseille","lat":43.30589,"lon":5.39359,"is_reserved":false,"is_disabled":false,"rental_uris":{"android":"levelo://app?vid=0b724798-ff08-48b2-bc53-d586a96ea8a3","ios":"levelo://app?vid=0b724798-ff08-48b2-bc53-d586a96ea8a3"},"vehicle_type_id":"4","last_reported":1688080064,"current_range_meters":24400,"station_id":"","pricing_plan_id":"free"},{"bike_id":"da7b98d1-0d72-4833-ab7f-50ac89214602","system_id":"levelo_inurba_marseille","lat":43.2936,"lon":5.37835,"is_reserved":false,"is_disabled":false,"rental_uris":{"android":"levelo://app?vid=da7b98d1-0d72-4833-ab7f-50ac89214602","ios":"levelo://app?vid=da7b98d1-0d72-4833-ab7f-50ac89214602"},"vehicle_type_id":"4","last_reported":1688080064,"current_range_meters":5600,"station_id":"ce4bgjh2rcd13ifvqbf0","pricing_plan_id":"free"},{"bike_id":"d9389a46-ab2e-427e-96b7-e754b919c0ff","system_id":"levelo_inurba_marseille","lat":43.302992,"lon":5.392136,"is_reserved":false,"is_disabled":false,"rental_uris":{"android":"levelo://app?vid=d9389a46-ab2e-427e-96b7-e754b919c0ff","ios":"levelo://app?vid=d9389a46-ab2e-427e-96b7-e754b919c0ff"},"vehicle_type_id":"4","last_reported":1688080064,"current_range_meters":0,"station_id":"ce4bgkh2rcd13ifvqbk0","pricing_plan_id":"free"},{"bike_id":"26508dee-51fe-4869-99e0-845b1056e4d7","system_id":"levelo_inurba_marseille","lat":43.2923,"lon":5.36053,"is_reserved":false,"is_disabled":false,"rental_uris":{"android":"levelo://app?vid=26508dee-51fe-4869-99e0-845b1056e4d7","ios":"levelo://app?vid=26508dee-51fe-4869-99e0-845b1056e4d7"},"vehicle_type_id":"4","last_reported":1688080064,"current_range_meters":31200,"station_id":"ce4bhbh2rcd13ifvqeqg","pricing_plan_id":"free"},{"bike_id":"e438c869-692d-4d5f-9383-175562815792","system_id":"levelo_inurba_marseille","lat":43.29229,"lon":5.36055,"is_reserved":false,"is_disabled":false,"rental_uris":{"android":"levelo://app?vid=e438c869-692d-4d5f-9383-175562815792","ios":"levelo://app?vid=e438c869-692d-4d5f-9383-175562815792"},"vehicle_type_id":"4","last_reported":1688080064,"current_range_meters":15200,"station_id":"ce4bhbh2rcd13ifvqeqg","pricing_plan_id":"free"},{"bike_id":"66994986-b9c7-464b-aef8-3a10a9d691a5","system_id":"levelo_inurba_marseille","lat":43.298764,"lon":5.388973,"is_reserved":false,"is_disabled":false,"rental_uris":{"android":"levelo://app?vid=66994986-b9c7-464b-aef8-3a10a9d691a5","ios":"levelo://app?vid=66994986-b9c7-464b-aef8-3a10a9d691a5"},"vehicle_type_id":"4","last_reported":1688080064,"current_range_meters":22800,"station_id":"ce4bh392rcd13ifvqdl0","pricing_plan_id":"free"},{"bike_id":"3559096d-6ca5-4dba-aefb-bb4a4e85a5a4","system_id":"levelo_inurba_marseille","lat":43.29176,"lon":5.37171,"is_reserved":false,"is_disabled":false,"rental_uris":{"android":"levelo://app?vid=3559096d-6ca5-4dba-aefb-bb4a4e85a5a4","ios":"levelo://app?vid=3559096d-6ca5-4dba-aefb-bb4a4e85a5a4"},"vehicle_type_id":"4","last_reported":1688080064,"current_range_meters":22000,"station_id":"ce4bha92rcd13ifvqeh0","pricing_plan_id":"free"},{"bike_id":"679ce38f-7815-4d99-8c28-6d6c55dc7c26","system_id":"levelo_inurba_marseille","lat":43.309038,"lon":5.396546,"is_reserved":false,"is_disabled":false,"rental_uris":{"android":"levelo://app?vid=679ce38f-7815-4d99-8c28-6d6c55dc7c26","ios":"levelo://app?vid=679ce38f-7815-4d99-8c28-6d6c55dc7c26"},"vehicle_type_id":"4","last_reported":1688080064,"current_range_meters":30800,"station_id":"ce4bh012rcd13ifvqcv0","pricing_plan_id":"free"},{"bike_id":"627caaa5-fcfc-4586-b18d-3c4db96df327","system_id":"levelo_inurba_marseille","lat":43.309038,"lon":5.396546,"is_reserved":false,"is_disabled":false,"rental_uris":{"android":"levelo://app?vid=627caaa5-fcfc-4586-b18d-3c4db96df327","ios":"levelo://app?vid=627caaa5-fcfc-4586-b18d-3c4db96df327"},"vehicle_type_id":"4","last_reported":1688080064,"current_range_meters":30800,"station_id":"ce4bh012rcd13ifvqcv0","pricing_plan_id":"free"},{"bike_id":"212c2c22-079d-477d-85e1-84bf314ecfe9","system_id":"levelo_inurba_marseille","lat":43.309038,"lon":5.396546,"is_reserved":false,"is_disabled":false,"rental_uris":{"android":"levelo://app?vid=212c2c22-079d-477d-85e1-84bf314ecfe9","ios":"levelo://app?vid=212c2c22-079d-477d-85e1-84bf314ecfe9"},"vehicle_type_id":"4","last_reported":1688080064,"current_range_meters":31200,"station_id":"ce4bh012rcd13ifvqcv0","pricing_plan_id":"free"},{"bike_id":"ec529ad2-4e03-4b93-910a-bc1928707379","system_id":"levelo_inurba_marseille","lat":43.309038,"lon":5.396546,"is_reserved":false,"is_disabled":false,"rental_uris":{"android":"levelo://app?vid=ec529ad2-4e03-4b93-910a-bc1928707379","ios":"levelo://app?vid=ec529ad2-4e03-4b93-910a-bc1928707379"},"vehicle_type_id":"4","last_reported":1688080064,"current_range_meters":30000,"station_id":"ce4bh012rcd13ifvqcv0","pricing_plan_id":"free"},{"bike_id":"39de7eec-8d8f-4460-94ef-9b4923b6e342","system_id":"levelo_inurba_marseille","lat":43.309038,"lon":5.396546,"is_reserved":false,"is_disabled":false,"rental_uris":{"android":"levelo://app?vid=39de7eec-8d8f-4460-94ef-9b4923b6e342","ios":"levelo://app?vid=39de7eec-8d8f-4460-94ef-9b4923b6e342"},"vehicle_type_id":"4","last_reported":1688080064,"current_range_meters":31200,"station_id":"ce4bh012rcd13ifvqcv0","pricing_plan_id":"free"},{"bike_id":"ef5e8fcd-290b-45f7-9ea9-25d612b3a010","system_id":"levelo_inurba_marseille","lat":43.309038,"lon":5.396546,"is_reserved":false,"is_disabled":false,"rental_uris":{"android":"levelo://app?vid=ef5e8fcd-290b-45f7-9ea9-25d612b3a010","ios":"levelo://app?vid=ef5e8fcd-290b-45f7-9ea9-25d612b3a010"},"vehicle_type_id":"4","last_reported":1688080064,"current_range_meters":31200,"station_id":"ce4bh012rcd13ifvqcv0","pricing_plan_id":"free"},{"bike_id":"7b3f5a61-52d2-40ac-b668-748a007960d5","system_id":"levelo_inurba_marseille","lat":43.309038,"lon":5.396546,"is_reserved":false,"is_disabled":false,"rental_uris":{"android":"levelo://app?vid=7b3f5a61-52d2-40ac-b668-748a007960d5","ios":"levelo://app?vid=7b3f5a61-52d2-40ac-b668-748a007960d5"},"vehicle_type_id":"4","last_reported":1688080064,"current_range_meters":22400,"station_id":"ce4bh012rcd13ifvqcv0","pricing_plan_id":"free"},{"bike_id":"522521fb-25ad-4433-862d-3285abb007f3","system_id":"levelo_inurba_marseille","lat":43.309038,"lon":5.396546,"is_reserved":false,"is_disabled":false,"rental_uris":{"android":"levelo://app?vid=522521fb-25ad-4433-862d-3285abb007f3","ios":"levelo://app?vid=522521fb-25ad-4433-862d-3285abb007f3"},"vehicle_type_id":"4","last_reported":1688080064,"current_range_meters":30800,"station_id":"ce4bh012rcd13ifvqcv0","pricing_plan_id":"free"},{"bike_id":"b6757c30-ddb6-48d3-953d-ec62d30a9df3","system_id":"levelo_inurba_marseille","lat":43.309038,"lon":5.396546,"is_reserved":false,"is_disabled":false,"rental_uris":{"android":"levelo://app?vid=b6757c30-ddb6-48d3-953d-ec62d30a9df3","ios":"levelo://app?vid=b6757c30-ddb6-48d3-953d-ec62d30a9df3"},"vehicle_type_id":"4","last_reported":1688080064,"current_range_meters":30800,"station_id":"ce4bh012rcd13ifvqcv0","pricing_plan_id":"free"},{"bike_id":"0260f38c-f49b-4aaa-a289-c8719735dd28","system_id":"levelo_inurba_marseille","lat":43.309038,"lon":5.396546,"is_reserved":false,"is_disabled":false,"rental_uris":{"android":"levelo://app?vid=0260f38c-f49b-4aaa-a289-c8719735dd28","ios":"levelo://app?vid=0260f38c-f49b-4aaa-a289-c8719735dd28"},"vehicle_type_id":"4","last_reported":1688080064,"current_range_meters":12800,"station_id":"ce4bh012rcd13ifvqcv0","pricing_plan_id":"free"},{"bike_id":"5dc1aee9-7992-4fad-a7ca-088ef4f2606e","system_id":"levelo_inurba_marseille","lat":43.31331,"lon":5.39687,"is_reserved":false,"is_disabled":false,"rental_uris":{"android":"levelo://app?vid=5dc1aee9-7992-4fad-a7ca-088ef4f2606e","ios":"levelo://app?vid=5dc1aee9-7992-4fad-a7ca-088ef4f2606e"},"vehicle_type_id":"4","last_reported":1688080064,"current_range_meters":17600,"station_id":"ce4bgvp2rcd13ifvqcu0","pricing_plan_id":"free"},{"bike_id":"e55586e9-5b55-4a4e-a843-289caa261df5","system_id":"levelo_inurba_marseille","lat":43.309038,"lon":5.396546,"is_reserved":false,"is_disabled":false,"rental_uris":{"android":"levelo://app?vid=e55586e9-5b55-4a4e-a843-289caa261df5","ios":"levelo://app?vid=e55586e9-5b55-4a4e-a843-289caa261df5"},"vehicle_type_id":"4","last_reported":1688080064,"current_range_meters":12800,"station_id":"ce4bh012rcd13ifvqcv0","pricing_plan_id":"free"},{"bike_id":"76e16d8e-53d5-4104-8534-5363cb5d0ca3","system_id":"levelo_inurba_marseille","lat":43.309038,"lon":5.396546,"is_reserved":false,"is_disabled":false,"rental_uris":{"android":"levelo://app?vid=76e16d8e-53d5-4104-8534-5363cb5d0ca3","ios":"levelo://app?vid=76e16d8e-53d5-4104-8534-5363cb5d0ca3"},"vehicle_type_id":"4","last_reported":1688080064,"current_range_meters":31200,"station_id":"ce4bh012rcd13ifvqcv0","pricing_plan_id":"free"},{"bike_id":"4f5ef381-9e29-4dc9-bb1b-c9fc312a8756","system_id":"levelo_inurba_marseille","lat":43.309038,"lon":5.396546,"is_reserved":false,"is_disabled":false,"rental_uris":{"android":"levelo://app?vid=4f5ef381-9e29-4dc9-bb1b-c9fc312a8756","ios":"levelo://app?vid=4f5ef381-9e29-4dc9-bb1b-c9fc312a8756"},"vehicle_type_id":"4","last_reported":1688080064,"current_range_meters":28000,"station_id":"ce4bh012rcd13ifvqcv0","pricing_plan_id":"free"},{"bike_id":"3e9f0a2e-252d-433a-98c6-43af1e93e7c9","system_id":"levelo_inurba_marseille","lat":43.309038,"lon":5.396546,"is_reserved":false,"is_disabled":false,"rental_uris":{"android":"levelo://app?vid=3e9f0a2e-252d-433a-98c6-43af1e93e7c9","ios":"levelo://app?vid=3e9f0a2e-252d-433a-98c6-43af1e93e7c9"},"vehicle_type_id":"4","last_reported":1688080064,"current_range_meters":30400,"station_id":"ce4bh012rcd13ifvqcv0","pricing_plan_id":"free"},{"bike_id":"b7e794f3-48da-4dba-89cd-cffe15f6ebe1","system_id":"levelo_inurba_marseille","lat":43.309038,"lon":5.396546,"is_reserved":false,"is_disabled":false,"rental_uris":{"android":"levelo://app?vid=b7e794f3-48da-4dba-89cd-cffe15f6ebe1","ios":"levelo://app?vid=b7e794f3-48da-4dba-89cd-cffe15f6ebe1"},"vehicle_type_id":"4","last_reported":1688080064,"current_range_meters":20000,"station_id":"ce4bh012rcd13ifvqcv0","pricing_plan_id":"free"},{"bike_id":"7dfbc4ed-95bd-47ad-b497-ae9f760273fc","system_id":"levelo_inurba_marseille","lat":43.32705,"lon":5.39009,"is_reserved":false,"is_disabled":false,"rental_uris":{"android":"levelo://app?vid=7dfbc4ed-95bd-47ad-b497-ae9f760273fc","ios":"levelo://app?vid=7dfbc4ed-95bd-47ad-b497-ae9f760273fc"},"vehicle_type_id":"4","last_reported":1688080064,"current_range_meters":1600,"station_id":"","pricing_plan_id":"free"},{"bike_id":"97d2ec9d-faa3-4add-b4f7-05c676343b11","system_id":"levelo_inurba_marseille","lat":43.302008,"lon":5.394694,"is_reserved":false,"is_disabled":false,"rental_uris":{"android":"levelo://app?vid=97d2ec9d-faa3-4add-b4f7-05c676343b11","ios":"levelo://app?vid=97d2ec9d-faa3-4add-b4f7-05c676343b11"},"vehicle_type_id":"4","last_reported":1688080064,"current_range_meters":400,"station_id":"ce4bh0p2rcd13ifvqd70","pricing_plan_id":"free"},{"bike_id":"eb3d6696-f298-4554-bf32-5eeb3268b744","system_id":"levelo_inurba_marseille","lat":43.289184,"lon":5.366408,"is_reserved":false,"is_disabled":false,"rental_uris":{"android":"levelo://app?vid=eb3d6696-f298-4554-bf32-5eeb3268b744","ios":"levelo://app?vid=eb3d6696-f298-4554-bf32-5eeb3268b744"},"vehicle_type_id":"4","last_reported":1688080064,"current_range_meters":0,"station_id":"ce4bhap2rcd13ifvqek0","pricing_plan_id":"free"},{"bike_id":"c48cbe95-842d-4670-a2ff-a97acf51c1ce","system_id":"levelo_inurba_marseille","lat":43.294162,"lon":5.386292,"is_reserved":false,"is_disabled":false,"rental_uris":{"android":"levelo://app?vid=c48cbe95-842d-4670-a2ff-a97acf51c1ce","ios":"levelo://app?vid=c48cbe95-842d-4670-a2ff-a97acf51c1ce"},"vehicle_type_id":"4","last_reported":1688080064,"current_range_meters":18800,"station_id":"ce4bh2h2rcd13ifvqdh0","pricing_plan_id":"free"},{"bike_id":"ae785014-6077-4d36-89e2-2806af32fb97","system_id":"levelo_inurba_marseille","lat":43.294162,"lon":5.386292,"is_reserved":false,"is_disabled":false,"rental_uris":{"android":"levelo://app?vid=ae785014-6077-4d36-89e2-2806af32fb97","ios":"levelo://app?vid=ae785014-6077-4d36-89e2-2806af32fb97"},"vehicle_type_id":"4","last_reported":1688080064,"current_range_meters":24000,"station_id":"ce4bh2h2rcd13ifvqdh0","pricing_plan_id":"free"},{"bike_id":"02e9af25-422f-4e7d-a536-aac388937756","system_id":"levelo_inurba_marseille","lat":43.289184,"lon":5.366408,"is_reserved":false,"is_disabled":false,"rental_uris":{"android":"levelo://app?vid=02e9af25-422f-4e7d-a536-aac388937756","ios":"levelo://app?vid=02e9af25-422f-4e7d-a536-aac388937756"},"vehicle_type_id":"4","last_reported":1688080064,"current_range_meters":11600,"station_id":"ce4bhap2rcd13ifvqek0","pricing_plan_id":"free"},{"bike_id":"421f55cd-b7c1-450c-b14e-38d9d6d75389","system_id":"levelo_inurba_marseille","lat":43.294174,"lon":5.386231,"is_reserved":false,"is_disabled":false,"rental_uris":{"android":"levelo://app?vid=421f55cd-b7c1-450c-b14e-38d9d6d75389","ios":"levelo://app?vid=421f55cd-b7c1-450c-b14e-38d9d6d75389"},"vehicle_type_id":"4","last_reported":1688080064,"current_range_meters":5200,"station_id":"","pricing_plan_id":"free"},{"bike_id":"b6562fd7-8584-4bcc-8aca-21d09fb5c7a0","system_id":"levelo_inurba_marseille","lat":43.294153,"lon":5.386305,"is_reserved":false,"is_disabled":false,"rental_uris":{"android":"levelo://app?vid=b6562fd7-8584-4bcc-8aca-21d09fb5c7a0","ios":"levelo://app?vid=b6562fd7-8584-4bcc-8aca-21d09fb5c7a0"},"vehicle_type_id":"4","last_reported":1688080064,"current_range_meters":25600,"station_id":"ce4bh2h2rcd13ifvqdh0","pricing_plan_id":"free"},{"bike_id":"0d57dfa2-b7e6-4227-83bd-985611b80f78","system_id":"levelo_inurba_marseille","lat":43.289184,"lon":5.366408,"is_reserved":false,"is_disabled":false,"rental_uris":{"android":"levelo://app?vid=0d57dfa2-b7e6-4227-83bd-985611b80f78","ios":"levelo://app?vid=0d57dfa2-b7e6-4227-83bd-985611b80f78"},"vehicle_type_id":"4","last_reported":1688080064,"current_range_meters":2400,"station_id":"ce4bhap2rcd13ifvqek0","pricing_plan_id":"free"},{"bike_id":"399ef6b6-bd49-40a3-a085-0dfa050cfb9f","system_id":"levelo_inurba_marseille","lat":43.29411,"lon":5.38614,"is_reserved":false,"is_disabled":false,"rental_uris":{"android":"levelo://app?vid=399ef6b6-bd49-40a3-a085-0dfa050cfb9f","ios":"levelo://app?vid=399ef6b6-bd49-40a3-a085-0dfa050cfb9f"},"vehicle_type_id":"4","last_reported":1688080064,"current_range_meters":0,"station_id":"","pricing_plan_id":"free"},{"bike_id":"88d9bb8a-cab5-4608-806d-2abfbf887b13","system_id":"levelo_inurba_marseille","lat":43.289184,"lon":5.366408,"is_reserved":false,"is_disabled":false,"rental_uris":{"android":"levelo://app?vid=88d9bb8a-cab5-4608-806d-2abfbf887b13","ios":"levelo://app?vid=88d9bb8a-cab5-4608-806d-2abfbf887b13"},"vehicle_type_id":"4","last_reported":1688080064,"current_range_meters":11200,"station_id":"ce4bhap2rcd13ifvqek0","pricing_plan_id":"free"},{"bike_id":"92677498-a346-4c38-ad1a-036cfd088969","system_id":"levelo_inurba_marseille","lat":43.29418,"lon":5.38629,"is_reserved":false,"is_disabled":false,"rental_uris":{"android":"levelo://app?vid=92677498-a346-4c38-ad1a-036cfd088969","ios":"levelo://app?vid=92677498-a346-4c38-ad1a-036cfd088969"},"vehicle_type_id":"4","last_reported":1688080064,"current_range_meters":0,"station_id":"ce4bh2h2rcd13ifvqdh0","pricing_plan_id":"free"},{"bike_id":"3a75894c-5b10-49bf-bbf8-cf3316076f94","system_id":"levelo_inurba_marseille","lat":43.289184,"lon":5.366408,"is_reserved":false,"is_disabled":false,"rental_uris":{"android":"levelo://app?vid=3a75894c-5b10-49bf-bbf8-cf3316076f94","ios":"levelo://app?vid=3a75894c-5b10-49bf-bbf8-cf3316076f94"},"vehicle_type_id":"4","last_reported":1688080064,"current_range_meters":10000,"station_id":"ce4bhap2rcd13ifvqek0","pricing_plan_id":"free"},{"bike_id":"2749f690-0129-4ecc-9f22-a85b0d4d2bc0","system_id":"levelo_inurba_marseille","lat":43.289184,"lon":5.366408,"is_reserved":false,"is_disabled":false,"rental_uris":{"android":"levelo://app?vid=2749f690-0129-4ecc-9f22-a85b0d4d2bc0","ios":"levelo://app?vid=2749f690-0129-4ecc-9f22-a85b0d4d2bc0"},"vehicle_type_id":"4","last_reported":1688080064,"current_range_meters":30400,"station_id":"ce4bhap2rcd13ifvqek0","pricing_plan_id":"free"},{"bike_id":"bba7742d-ceb7-466d-8f52-29a03561e6df","system_id":"levelo_inurba_marseille","lat":43.304296,"lon":5.397513,"is_reserved":false,"is_disabled":false,"rental_uris":{"android":"levelo://app?vid=bba7742d-ceb7-466d-8f52-29a03561e6df","ios":"levelo://app?vid=bba7742d-ceb7-466d-8f52-29a03561e6df"},"vehicle_type_id":"4","last_reported":1688080064,"current_range_meters":25200,"station_id":"ce4bh092rcd13ifvqd20","pricing_plan_id":"free"},{"bike_id":"05123e5b-3e98-45b4-9ed0-3daa06230053","system_id":"levelo_inurba_marseille","lat":43.304274,"lon":5.397513,"is_reserved":false,"is_disabled":false,"rental_uris":{"android":"levelo://app?vid=05123e5b-3e98-45b4-9ed0-3daa06230053","ios":"levelo://app?vid=05123e5b-3e98-45b4-9ed0-3daa06230053"},"vehicle_type_id":"4","last_reported":1688080064,"current_range_meters":6800,"station_id":"ce4bh092rcd13ifvqd20","pricing_plan_id":"free"},{"bike_id":"041da59e-b12d-4939-8c18-6453309450ff","system_id":"levelo_inurba_marseille","lat":43.33044,"lon":5.38916,"is_reserved":false,"is_disabled":false,"rental_uris":{"android":"levelo://app?vid=041da59e-b12d-4939-8c18-6453309450ff","ios":"levelo://app?vid=041da59e-b12d-4939-8c18-6453309450ff"},"vehicle_type_id":"4","last_reported":1688080064,"current_range_meters":30400,"station_id":"ce4bhr92rcd13ifvqhrg","pricing_plan_id":"free"},{"bike_id":"631eca96-b17f-4241-aeb8-7f1ce9874c78","system_id":"levelo_inurba_marseille","lat":43.29796,"lon":5.39344,"is_reserved":false,"is_disabled":false,"rental_uris":{"android":"levelo://app?vid=631eca96-b17f-4241-aeb8-7f1ce9874c78","ios":"levelo://app?vid=631eca96-b17f-4241-aeb8-7f1ce9874c78"},"vehicle_type_id":"4","last_reported":1688080064,"current_range_meters":31200,"station_id":"chh1huq6cuj3fo74tm60","pricing_plan_id":"free"},{"bike_id":"d355086c-df19-49b6-be61-2f3ecb0554c0","system_id":"levelo_inurba_marseille","lat":43.297815,"lon":5.393548,"is_reserved":false,"is_disabled":false,"rental_uris":{"android":"levelo://app?vid=d355086c-df19-49b6-be61-2f3ecb0554c0","ios":"levelo://app?vid=d355086c-df19-49b6-be61-2f3ecb0554c0"},"vehicle_type_id":"4","last_reported":1688080064,"current_range_meters":22400,"station_id":"chh1huq6cuj3fo74tm60","pricing_plan_id":"free"},{"bike_id":"5b7b64ff-17e0-411c-b906-bef29ca57836","system_id":"levelo_inurba_marseille","lat":43.29795,"lon":5.39353,"is_reserved":false,"is_disabled":false,"rental_uris":{"android":"levelo://app?vid=5b7b64ff-17e0-411c-b906-bef29ca57836","ios":"levelo://app?vid=5b7b64ff-17e0-411c-b906-bef29ca57836"},"vehicle_type_id":"4","last_reported":1688080064,"current_range_meters":31200,"station_id":"chh1huq6cuj3fo74tm60","pricing_plan_id":"free"},{"bike_id":"14db88cc-88d7-4ea9-845a-ea453a215faa","system_id":"levelo_inurba_marseille","lat":43.297815,"lon":5.393548,"is_reserved":false,"is_disabled":false,"rental_uris":{"android":"levelo://app?vid=14db88cc-88d7-4ea9-845a-ea453a215faa","ios":"levelo://app?vid=14db88cc-88d7-4ea9-845a-ea453a215faa"},"vehicle_type_id":"4","last_reported":1688080064,"current_range_meters":30000,"station_id":"chh1huq6cuj3fo74tm60","pricing_plan_id":"free"},{"bike_id":"b26f2777-9e3a-4a2a-8378-1f7a04834ba6","system_id":"levelo_inurba_marseille","lat":43.28856,"lon":5.358371,"is_reserved":false,"is_disabled":false,"rental_uris":{"android":"levelo://app?vid=b26f2777-9e3a-4a2a-8378-1f7a04834ba6","ios":"levelo://app?vid=b26f2777-9e3a-4a2a-8378-1f7a04834ba6"},"vehicle_type_id":"4","last_reported":1688080064,"current_range_meters":22800,"station_id":"ce4bhb12rcd13ifvqem0","pricing_plan_id":"free"},{"bike_id":"50addb93-59ca-464f-9bd3-af34b1190966","system_id":"levelo_inurba_marseille","lat":43.33732,"lon":5.37399,"is_reserved":false,"is_disabled":false,"rental_uris":{"android":"levelo://app?vid=50addb93-59ca-464f-9bd3-af34b1190966","ios":"levelo://app?vid=50addb93-59ca-464f-9bd3-af34b1190966"},"vehicle_type_id":"4","last_reported":1688080064,"current_range_meters":28400,"station_id":"","pricing_plan_id":"free"},{"bike_id":"eb8f3759-629d-4889-9d64-ffcfccb9cf15","system_id":"levelo_inurba_marseille","lat":43.30934,"lon":5.40133,"is_reserved":false,"is_disabled":false,"rental_uris":{"android":"levelo://app?vid=eb8f3759-629d-4889-9d64-ffcfccb9cf15","ios":"levelo://app?vid=eb8f3759-629d-4889-9d64-ffcfccb9cf15"},"vehicle_type_id":"4","last_reported":1688080064,"current_range_meters":5600,"station_id":"ce4bgvp2rcd13ifvqct0","pricing_plan_id":"free"},{"bike_id":"6f23985a-a1d7-40de-966c-c75f29733035","system_id":"levelo_inurba_marseille","lat":43.30944,"lon":5.4014,"is_reserved":false,"is_disabled":false,"rental_uris":{"android":"levelo://app?vid=6f23985a-a1d7-40de-966c-c75f29733035","ios":"levelo://app?vid=6f23985a-a1d7-40de-966c-c75f29733035"},"vehicle_type_id":"4","last_reported":1688080064,"current_range_meters":8800,"station_id":"ce4bgvp2rcd13ifvqct0","pricing_plan_id":"free"},{"bike_id":"2a98c03e-3a80-461e-9f5e-56d645f14785","system_id":"levelo_inurba_marseille","lat":43.30932,"lon":5.40138,"is_reserved":false,"is_disabled":false,"rental_uris":{"android":"levelo://app?vid=2a98c03e-3a80-461e-9f5e-56d645f14785","ios":"levelo://app?vid=2a98c03e-3a80-461e-9f5e-56d645f14785"},"vehicle_type_id":"4","last_reported":1688080064,"current_range_meters":18800,"station_id":"ce4bgvp2rcd13ifvqct0","pricing_plan_id":"free"},{"bike_id":"956dc1c4-569f-47e9-900d-601d0b0ef8e6","system_id":"levelo_inurba_marseille","lat":43.30934,"lon":5.40139,"is_reserved":false,"is_disabled":false,"rental_uris":{"android":"levelo://app?vid=956dc1c4-569f-47e9-900d-601d0b0ef8e6","ios":"levelo://app?vid=956dc1c4-569f-47e9-900d-601d0b0ef8e6"},"vehicle_type_id":"4","last_reported":1688080064,"current_range_meters":3600,"station_id":"ce4bgvp2rcd13ifvqct0","pricing_plan_id":"free"},{"bike_id":"17bd0a13-bf92-46e4-a68a-eaa2616b2035","system_id":"levelo_inurba_marseille","lat":43.30941,"lon":5.40142,"is_reserved":false,"is_disabled":false,"rental_uris":{"android":"levelo://app?vid=17bd0a13-bf92-46e4-a68a-eaa2616b2035","ios":"levelo://app?vid=17bd0a13-bf92-46e4-a68a-eaa2616b2035"},"vehicle_type_id":"4","last_reported":1688080064,"current_range_meters":27600,"station_id":"ce4bgvp2rcd13ifvqct0","pricing_plan_id":"free"},{"bike_id":"2204d22c-3c26-4f15-8083-ee7fc4daa893","system_id":"levelo_inurba_marseille","lat":43.30928,"lon":5.40141,"is_reserved":false,"is_disabled":false,"rental_uris":{"android":"levelo://app?vid=2204d22c-3c26-4f15-8083-ee7fc4daa893","ios":"levelo://app?vid=2204d22c-3c26-4f15-8083-ee7fc4daa893"},"vehicle_type_id":"4","last_reported":1688080064,"current_range_meters":25200,"station_id":"ce4bgvp2rcd13ifvqct0","pricing_plan_id":"free"},{"bike_id":"b8bf73c4-9484-46f1-97b5-8575db35b481","system_id":"levelo_inurba_marseille","lat":43.33743,"lon":5.37473,"is_reserved":false,"is_disabled":false,"rental_uris":{"android":"levelo://app?vid=b8bf73c4-9484-46f1-97b5-8575db35b481","ios":"levelo://app?vid=b8bf73c4-9484-46f1-97b5-8575db35b481"},"vehicle_type_id":"4","last_reported":1688080064,"current_range_meters":29200,"station_id":"","pricing_plan_id":"free"},{"bike_id":"d1d48dbc-bef7-4f0a-ac87-eeefad6e13c7","system_id":"levelo_inurba_marseille","lat":43.33744,"lon":5.37478,"is_reserved":false,"is_disabled":false,"rental_uris":{"android":"levelo://app?vid=d1d48dbc-bef7-4f0a-ac87-eeefad6e13c7","ios":"levelo://app?vid=d1d48dbc-bef7-4f0a-ac87-eeefad6e13c7"},"vehicle_type_id":"4","last_reported":1688080064,"current_range_meters":11600,"station_id":"","pricing_plan_id":"free"},{"bike_id":"b152602a-aaa7-4eed-93ba-89050d9c58ba","system_id":"levelo_inurba_marseille","lat":43.3067,"lon":5.40078,"is_reserved":false,"is_disabled":false,"rental_uris":{"android":"levelo://app?vid=b152602a-aaa7-4eed-93ba-89050d9c58ba","ios":"levelo://app?vid=b152602a-aaa7-4eed-93ba-89050d9c58ba"},"vehicle_type_id":"4","last_reported":1688080064,"current_range_meters":18000,"station_id":"","pricing_plan_id":"free"},{"bike_id":"476cd57c-2e9c-4f0d-a086-f93a7e3396f6","system_id":"levelo_inurba_marseille","lat":43.337516,"lon":5.374747,"is_reserved":false,"is_disabled":false,"rental_uris":{"android":"levelo://app?vid=476cd57c-2e9c-4f0d-a086-f93a7e3396f6","ios":"levelo://app?vid=476cd57c-2e9c-4f0d-a086-f93a7e3396f6"},"vehicle_type_id":"4","last_reported":1688080064,"current_range_meters":23200,"station_id":"","pricing_plan_id":"free"},{"bike_id":"376ba1ea-7998-4207-9679-4e25a94b2a69","system_id":"levelo_inurba_marseille","lat":43.30642,"lon":5.401031,"is_reserved":false,"is_disabled":false,"rental_uris":{"android":"levelo://app?vid=376ba1ea-7998-4207-9679-4e25a94b2a69","ios":"levelo://app?vid=376ba1ea-7998-4207-9679-4e25a94b2a69"},"vehicle_type_id":"4","last_reported":1688080064,"current_range_meters":13600,"station_id":"ce4bh112rcd13ifvqda0","pricing_plan_id":"free"},{"bike_id":"a65ffe01-f56f-4fe2-9232-8d8ae1d36c4d","system_id":"levelo_inurba_marseille","lat":43.30642,"lon":5.401031,"is_reserved":false,"is_disabled":false,"rental_uris":{"android":"levelo://app?vid=a65ffe01-f56f-4fe2-9232-8d8ae1d36c4d","ios":"levelo://app?vid=a65ffe01-f56f-4fe2-9232-8d8ae1d36c4d"},"vehicle_type_id":"4","last_reported":1688080064,"current_range_meters":14400,"station_id":"ce4bh112rcd13ifvqda0","pricing_plan_id":"free"},{"bike_id":"a3cc2b1a-359f-4faf-8c03-d6b775dc4a11","system_id":"levelo_inurba_marseille","lat":43.30642,"lon":5.401031,"is_reserved":false,"is_disabled":false,"rental_uris":{"android":"levelo://app?vid=a3cc2b1a-359f-4faf-8c03-d6b775dc4a11","ios":"levelo://app?vid=a3cc2b1a-359f-4faf-8c03-d6b775dc4a11"},"vehicle_type_id":"4","last_reported":1688080064,"current_range_meters":21600,"station_id":"ce4bh112rcd13ifvqda0","pricing_plan_id":"free"},{"bike_id":"19f5193a-2bf0-4c09-b21a-64b495156397","system_id":"levelo_inurba_marseille","lat":43.301117,"lon":5.398795,"is_reserved":false,"is_disabled":false,"rental_uris":{"android":"levelo://app?vid=19f5193a-2bf0-4c09-b21a-64b495156397","ios":"levelo://app?vid=19f5193a-2bf0-4c09-b21a-64b495156397"},"vehicle_type_id":"4","last_reported":1688080064,"current_range_meters":25600,"station_id":"ce4bh0h2rcd13ifvqd40","pricing_plan_id":"free"},{"bike_id":"ae07ddaa-bcd3-451c-9e70-d759c9f233c2","system_id":"levelo_inurba_marseille","lat":43.30138,"lon":5.39879,"is_reserved":false,"is_disabled":false,"rental_uris":{"android":"levelo://app?vid=ae07ddaa-bcd3-451c-9e70-d759c9f233c2","ios":"levelo://app?vid=ae07ddaa-bcd3-451c-9e70-d759c9f233c2"},"vehicle_type_id":"4","last_reported":1688080064,"current_range_meters":27600,"station_id":"","pricing_plan_id":"free"},{"bike_id":"90353797-0df6-4dd6-b183-3a607b46c512","system_id":"levelo_inurba_marseille","lat":43.28714,"lon":5.3739,"is_reserved":false,"is_disabled":false,"rental_uris":{"android":"levelo://app?vid=90353797-0df6-4dd6-b183-3a607b46c512","ios":"levelo://app?vid=90353797-0df6-4dd6-b183-3a607b46c512"},"vehicle_type_id":"4","last_reported":1688080064,"current_range_meters":1200,"station_id":"ce4bh3p2rcd13ifvqdq0","pricing_plan_id":"free"},{"bike_id":"64042e0e-f8df-4cc7-994d-805598e962c8","system_id":"levelo_inurba_marseille","lat":43.286591,"lon":5.363346,"is_reserved":false,"is_disabled":false,"rental_uris":{"android":"levelo://app?vid=64042e0e-f8df-4cc7-994d-805598e962c8","ios":"levelo://app?vid=64042e0e-f8df-4cc7-994d-805598e962c8"},"vehicle_type_id":"4","last_reported":1688080064,"current_range_meters":8000,"station_id":"ce4bhah2rcd13ifvqej0","pricing_plan_id":"free"},{"bike_id":"6a45c238-d7be-4a18-b095-6532eec0b61d","system_id":"levelo_inurba_marseille","lat":43.298681,"lon":5.397225,"is_reserved":false,"is_disabled":false,"rental_uris":{"android":"levelo://app?vid=6a45c238-d7be-4a18-b095-6532eec0b61d","ios":"levelo://app?vid=6a45c238-d7be-4a18-b095-6532eec0b61d"},"vehicle_type_id":"4","last_reported":1688080064,"current_range_meters":1200,"station_id":"ce4bh0h2rcd13ifvqd50","pricing_plan_id":"free"},{"bike_id":"717187d1-0e23-40b8-be05-0184adb602b1","system_id":"levelo_inurba_marseille","lat":43.298681,"lon":5.397225,"is_reserved":false,"is_disabled":false,"rental_uris":{"android":"levelo://app?vid=717187d1-0e23-40b8-be05-0184adb602b1","ios":"levelo://app?vid=717187d1-0e23-40b8-be05-0184adb602b1"},"vehicle_type_id":"4","last_reported":1688080064,"current_range_meters":15200,"station_id":"ce4bh0h2rcd13ifvqd50","pricing_plan_id":"free"},{"bike_id":"b5d02483-b41e-43c6-b50b-762e6aa825d0","system_id":"levelo_inurba_marseille","lat":43.298681,"lon":5.397225,"is_reserved":false,"is_disabled":false,"rental_uris":{"android":"levelo://app?vid=b5d02483-b41e-43c6-b50b-762e6aa825d0","ios":"levelo://app?vid=b5d02483-b41e-43c6-b50b-762e6aa825d0"},"vehicle_type_id":"4","last_reported":1688080064,"current_range_meters":12000,"station_id":"ce4bh0h2rcd13ifvqd50","pricing_plan_id":"free"},{"bike_id":"0c8dc4d0-dc3a-4a86-a38d-a5f5921f3970","system_id":"levelo_inurba_marseille","lat":43.298681,"lon":5.397225,"is_reserved":false,"is_disabled":false,"rental_uris":{"android":"levelo://app?vid=0c8dc4d0-dc3a-4a86-a38d-a5f5921f3970","ios":"levelo://app?vid=0c8dc4d0-dc3a-4a86-a38d-a5f5921f3970"},"vehicle_type_id":"4","last_reported":1688080064,"current_range_meters":800,"station_id":"ce4bh0h2rcd13ifvqd50","pricing_plan_id":"free"},{"bike_id":"3077b434-6ed0-4f81-a2c3-70d5fe5dd0dd","system_id":"levelo_inurba_marseille","lat":43.286591,"lon":5.363346,"is_reserved":false,"is_disabled":false,"rental_uris":{"android":"levelo://app?vid=3077b434-6ed0-4f81-a2c3-70d5fe5dd0dd","ios":"levelo://app?vid=3077b434-6ed0-4f81-a2c3-70d5fe5dd0dd"},"vehicle_type_id":"4","last_reported":1688080064,"current_range_meters":16400,"station_id":"ce4bhah2rcd13ifvqej0","pricing_plan_id":"free"},{"bike_id":"bf80eaeb-1177-48f1-9f45-4f70f818057c","system_id":"levelo_inurba_marseille","lat":43.2867,"lon":5.36345,"is_reserved":false,"is_disabled":false,"rental_uris":{"android":"levelo://app?vid=bf80eaeb-1177-48f1-9f45-4f70f818057c","ios":"levelo://app?vid=bf80eaeb-1177-48f1-9f45-4f70f818057c"},"vehicle_type_id":"4","last_reported":1688080064,"current_range_meters":4800,"station_id":"ce4bhah2rcd13ifvqej0","pricing_plan_id":"free"},{"bike_id":"2829c9ba-4537-4b7b-9fc3-ba90e62c08d4","system_id":"levelo_inurba_marseille","lat":43.298681,"lon":5.397225,"is_reserved":false,"is_disabled":false,"rental_uris":{"android":"levelo://app?vid=2829c9ba-4537-4b7b-9fc3-ba90e62c08d4","ios":"levelo://app?vid=2829c9ba-4537-4b7b-9fc3-ba90e62c08d4"},"vehicle_type_id":"4","last_reported":1688080064,"current_range_meters":31200,"station_id":"ce4bh0h2rcd13ifvqd50","pricing_plan_id":"free"},{"bike_id":"78406bc8-2936-41b2-a3a4-011ad291d8af","system_id":"levelo_inurba_marseille","lat":43.298681,"lon":5.397225,"is_reserved":false,"is_disabled":false,"rental_uris":{"android":"levelo://app?vid=78406bc8-2936-41b2-a3a4-011ad291d8af","ios":"levelo://app?vid=78406bc8-2936-41b2-a3a4-011ad291d8af"},"vehicle_type_id":"4","last_reported":1688080064,"current_range_meters":13200,"station_id":"ce4bh0h2rcd13ifvqd50","pricing_plan_id":"free"},{"bike_id":"96462f9c-ce93-4db0-8abf-2da32debe153","system_id":"levelo_inurba_marseille","lat":43.298681,"lon":5.397225,"is_reserved":false,"is_disabled":false,"rental_uris":{"android":"levelo://app?vid=96462f9c-ce93-4db0-8abf-2da32debe153","ios":"levelo://app?vid=96462f9c-ce93-4db0-8abf-2da32debe153"},"vehicle_type_id":"4","last_reported":1688080064,"current_range_meters":19600,"station_id":"ce4bh0h2rcd13ifvqd50","pricing_plan_id":"free"},{"bike_id":"58b088c5-bfe0-43d9-a80c-639a90663698","system_id":"levelo_inurba_marseille","lat":43.298681,"lon":5.397225,"is_reserved":false,"is_disabled":false,"rental_uris":{"android":"levelo://app?vid=58b088c5-bfe0-43d9-a80c-639a90663698","ios":"levelo://app?vid=58b088c5-bfe0-43d9-a80c-639a90663698"},"vehicle_type_id":"4","last_reported":1688080064,"current_range_meters":16000,"station_id":"ce4bh0h2rcd13ifvqd50","pricing_plan_id":"free"},{"bike_id":"59e298ab-7f6b-418d-8696-d08a53527528","system_id":"levelo_inurba_marseille","lat":43.298681,"lon":5.397225,"is_reserved":false,"is_disabled":false,"rental_uris":{"android":"levelo://app?vid=59e298ab-7f6b-418d-8696-d08a53527528","ios":"levelo://app?vid=59e298ab-7f6b-418d-8696-d08a53527528"},"vehicle_type_id":"4","last_reported":1688080064,"current_range_meters":23200,"station_id":"ce4bh0h2rcd13ifvqd50","pricing_plan_id":"free"},{"bike_id":"45780c57-863e-45b9-ac6b-85d7e05110bd","system_id":"levelo_inurba_marseille","lat":43.298681,"lon":5.397225,"is_reserved":false,"is_disabled":false,"rental_uris":{"android":"levelo://app?vid=45780c57-863e-45b9-ac6b-85d7e05110bd","ios":"levelo://app?vid=45780c57-863e-45b9-ac6b-85d7e05110bd"},"vehicle_type_id":"4","last_reported":1688080064,"current_range_meters":31600,"station_id":"ce4bh0h2rcd13ifvqd50","pricing_plan_id":"free"},{"bike_id":"3c8467ba-5706-47d8-a031-85af4e16b88b","system_id":"levelo_inurba_marseille","lat":43.298681,"lon":5.397225,"is_reserved":false,"is_disabled":false,"rental_uris":{"android":"levelo://app?vid=3c8467ba-5706-47d8-a031-85af4e16b88b","ios":"levelo://app?vid=3c8467ba-5706-47d8-a031-85af4e16b88b"},"vehicle_type_id":"4","last_reported":1688080064,"current_range_meters":4000,"station_id":"ce4bh0h2rcd13ifvqd50","pricing_plan_id":"free"},{"bike_id":"6fd1d0c0-b2be-49d9-ad6e-599d24ab89a6","system_id":"levelo_inurba_marseille","lat":43.286591,"lon":5.363346,"is_reserved":false,"is_disabled":false,"rental_uris":{"android":"levelo://app?vid=6fd1d0c0-b2be-49d9-ad6e-599d24ab89a6","ios":"levelo://app?vid=6fd1d0c0-b2be-49d9-ad6e-599d24ab89a6"},"vehicle_type_id":"4","last_reported":1688080064,"current_range_meters":22800,"station_id":"ce4bhah2rcd13ifvqej0","pricing_plan_id":"free"},{"bike_id":"105d352a-1e20-427e-b621-11f41e116f73","system_id":"levelo_inurba_marseille","lat":43.286591,"lon":5.363346,"is_reserved":false,"is_disabled":false,"rental_uris":{"android":"levelo://app?vid=105d352a-1e20-427e-b621-11f41e116f73","ios":"levelo://app?vid=105d352a-1e20-427e-b621-11f41e116f73"},"vehicle_type_id":"4","last_reported":1688080064,"current_range_meters":26000,"station_id":"ce4bhah2rcd13ifvqej0","pricing_plan_id":"free"},{"bike_id":"c52fb9ee-f7a0-4c6b-944e-81dce01b9eac","system_id":"levelo_inurba_marseille","lat":43.286591,"lon":5.363346,"is_reserved":false,"is_disabled":false,"rental_uris":{"android":"levelo://app?vid=c52fb9ee-f7a0-4c6b-944e-81dce01b9eac","ios":"levelo://app?vid=c52fb9ee-f7a0-4c6b-944e-81dce01b9eac"},"vehicle_type_id":"4","last_reported":1688080064,"current_range_meters":13600,"station_id":"ce4bhah2rcd13ifvqej0","pricing_plan_id":"free"},{"bike_id":"138762c1-3c2b-4f41-ae37-4a038a185297","system_id":"levelo_inurba_marseille","lat":43.286591,"lon":5.363346,"is_reserved":false,"is_disabled":false,"rental_uris":{"android":"levelo://app?vid=138762c1-3c2b-4f41-ae37-4a038a185297","ios":"levelo://app?vid=138762c1-3c2b-4f41-ae37-4a038a185297"},"vehicle_type_id":"4","last_reported":1688080064,"current_range_meters":27200,"station_id":"ce4bhah2rcd13ifvqej0","pricing_plan_id":"free"},{"bike_id":"b6b5dbf3-1982-414d-8dac-0eaa1bce6f67","system_id":"levelo_inurba_marseille","lat":43.28665,"lon":5.37073,"is_reserved":false,"is_disabled":false,"rental_uris":{"android":"levelo://app?vid=b6b5dbf3-1982-414d-8dac-0eaa1bce6f67","ios":"levelo://app?vid=b6b5dbf3-1982-414d-8dac-0eaa1bce6f67"},"vehicle_type_id":"4","last_reported":1688080064,"current_range_meters":0,"station_id":"","pricing_plan_id":"free"},{"bike_id":"a1a5f3c9-8400-412b-a603-2db8ee85a39d","system_id":"levelo_inurba_marseille","lat":43.286591,"lon":5.363346,"is_reserved":false,"is_disabled":false,"rental_uris":{"android":"levelo://app?vid=a1a5f3c9-8400-412b-a603-2db8ee85a39d","ios":"levelo://app?vid=a1a5f3c9-8400-412b-a603-2db8ee85a39d"},"vehicle_type_id":"4","last_reported":1688080064,"current_range_meters":21600,"station_id":"ce4bhah2rcd13ifvqej0","pricing_plan_id":"free"},{"bike_id":"b55ec7fa-77bb-412d-9e99-2d64ffe8811d","system_id":"levelo_inurba_marseille","lat":43.302759,"lon":5.400793,"is_reserved":false,"is_disabled":false,"rental_uris":{"android":"levelo://app?vid=b55ec7fa-77bb-412d-9e99-2d64ffe8811d","ios":"levelo://app?vid=b55ec7fa-77bb-412d-9e99-2d64ffe8811d"},"vehicle_type_id":"4","last_reported":1688080064,"current_range_meters":9200,"station_id":"ce4bgvh2rcd13ifvqcs0","pricing_plan_id":"free"},{"bike_id":"0926dc55-4842-4b11-a0be-58d54d4abe1b","system_id":"levelo_inurba_marseille","lat":43.302759,"lon":5.400793,"is_reserved":false,"is_disabled":false,"rental_uris":{"android":"levelo://app?vid=0926dc55-4842-4b11-a0be-58d54d4abe1b","ios":"levelo://app?vid=0926dc55-4842-4b11-a0be-58d54d4abe1b"},"vehicle_type_id":"4","last_reported":1688080064,"current_range_meters":16800,"station_id":"ce4bgvh2rcd13ifvqcs0","pricing_plan_id":"free"},{"bike_id":"79400a0b-8dfa-4e39-9e12-335bd234c952","system_id":"levelo_inurba_marseille","lat":43.286039,"lon":5.370679,"is_reserved":false,"is_disabled":false,"rental_uris":{"android":"levelo://app?vid=79400a0b-8dfa-4e39-9e12-335bd234c952","ios":"levelo://app?vid=79400a0b-8dfa-4e39-9e12-335bd234c952"},"vehicle_type_id":"4","last_reported":1688080064,"current_range_meters":9600,"station_id":"ce4bht12rcd13ifvqi60","pricing_plan_id":"free"},{"bike_id":"6515c3ff-7d07-46fc-8e5e-d9a8c4c3a412","system_id":"levelo_inurba_marseille","lat":43.3031,"lon":5.40123,"is_reserved":false,"is_disabled":false,"rental_uris":{"android":"levelo://app?vid=6515c3ff-7d07-46fc-8e5e-d9a8c4c3a412","ios":"levelo://app?vid=6515c3ff-7d07-46fc-8e5e-d9a8c4c3a412"},"vehicle_type_id":"4","last_reported":1688080064,"current_range_meters":25200,"station_id":"","pricing_plan_id":"free"},{"bike_id":"4c9b5f72-88f6-483b-b0a1-b46796be6707","system_id":"levelo_inurba_marseille","lat":43.2861,"lon":5.37059,"is_reserved":false,"is_disabled":false,"rental_uris":{"android":"levelo://app?vid=4c9b5f72-88f6-483b-b0a1-b46796be6707","ios":"levelo://app?vid=4c9b5f72-88f6-483b-b0a1-b46796be6707"},"vehicle_type_id":"4","last_reported":1688080064,"current_range_meters":26800,"station_id":"ce4bht12rcd13ifvqi60","pricing_plan_id":"free"},{"bike_id":"b2b86f05-1a76-4753-bbf3-bbf37102b873","system_id":"levelo_inurba_marseille","lat":43.287184,"lon":5.37937,"is_reserved":false,"is_disabled":false,"rental_uris":{"android":"levelo://app?vid=b2b86f05-1a76-4753-bbf3-bbf37102b873","ios":"levelo://app?vid=b2b86f05-1a76-4753-bbf3-bbf37102b873"},"vehicle_type_id":"4","last_reported":1688080064,"current_range_meters":19200,"station_id":"ce4bh9p2rcd13ifvqec0","pricing_plan_id":"free"},{"bike_id":"61fd9bb3-daf1-4738-b19c-f7aad8e4e1e2","system_id":"levelo_inurba_marseille","lat":43.287184,"lon":5.37937,"is_reserved":false,"is_disabled":false,"rental_uris":{"android":"levelo://app?vid=61fd9bb3-daf1-4738-b19c-f7aad8e4e1e2","ios":"levelo://app?vid=61fd9bb3-daf1-4738-b19c-f7aad8e4e1e2"},"vehicle_type_id":"4","last_reported":1688080064,"current_range_meters":20800,"station_id":"ce4bh9p2rcd13ifvqec0","pricing_plan_id":"free"},{"bike_id":"668765f2-9d68-409d-9a6f-8d4f4c01e932","system_id":"levelo_inurba_marseille","lat":43.287184,"lon":5.37937,"is_reserved":false,"is_disabled":false,"rental_uris":{"android":"levelo://app?vid=668765f2-9d68-409d-9a6f-8d4f4c01e932","ios":"levelo://app?vid=668765f2-9d68-409d-9a6f-8d4f4c01e932"},"vehicle_type_id":"4","last_reported":1688080064,"current_range_meters":15200,"station_id":"ce4bh9p2rcd13ifvqec0","pricing_plan_id":"free"},{"bike_id":"6547a91d-d917-44e5-9706-0465a91f2ec6","system_id":"levelo_inurba_marseille","lat":43.287185,"lon":5.379373,"is_reserved":false,"is_disabled":false,"rental_uris":{"android":"levelo://app?vid=6547a91d-d917-44e5-9706-0465a91f2ec6","ios":"levelo://app?vid=6547a91d-d917-44e5-9706-0465a91f2ec6"},"vehicle_type_id":"4","last_reported":1688080064,"current_range_meters":27600,"station_id":"ce4bh9p2rcd13ifvqec0","pricing_plan_id":"free"},{"bike_id":"7569d5b9-fe21-4771-91ba-3b26192c3592","system_id":"levelo_inurba_marseille","lat":43.316517,"lon":5.404375,"is_reserved":false,"is_disabled":false,"rental_uris":{"android":"levelo://app?vid=7569d5b9-fe21-4771-91ba-3b26192c3592","ios":"levelo://app?vid=7569d5b9-fe21-4771-91ba-3b26192c3592"},"vehicle_type_id":"4","last_reported":1688080064,"current_range_meters":31200,"station_id":"ce4bh012rcd13ifvqd00","pricing_plan_id":"free"},{"bike_id":"d69fed3a-efe9-46fb-b1dc-1240b8978d3e","system_id":"levelo_inurba_marseille","lat":43.316517,"lon":5.404375,"is_reserved":false,"is_disabled":false,"rental_uris":{"android":"levelo://app?vid=d69fed3a-efe9-46fb-b1dc-1240b8978d3e","ios":"levelo://app?vid=d69fed3a-efe9-46fb-b1dc-1240b8978d3e"},"vehicle_type_id":"4","last_reported":1688080064,"current_range_meters":19600,"station_id":"ce4bh012rcd13ifvqd00","pricing_plan_id":"free"},{"bike_id":"17a4c4d7-2101-430d-b85d-1852b19a53ac","system_id":"levelo_inurba_marseille","lat":43.316517,"lon":5.404375,"is_reserved":false,"is_disabled":false,"rental_uris":{"android":"levelo://app?vid=17a4c4d7-2101-430d-b85d-1852b19a53ac","ios":"levelo://app?vid=17a4c4d7-2101-430d-b85d-1852b19a53ac"},"vehicle_type_id":"4","last_reported":1688080064,"current_range_meters":25600,"station_id":"ce4bh012rcd13ifvqd00","pricing_plan_id":"free"},{"bike_id":"b83768cd-0839-4db2-8c24-f816c7fe1fd0","system_id":"levelo_inurba_marseille","lat":43.316517,"lon":5.404375,"is_reserved":false,"is_disabled":false,"rental_uris":{"android":"levelo://app?vid=b83768cd-0839-4db2-8c24-f816c7fe1fd0","ios":"levelo://app?vid=b83768cd-0839-4db2-8c24-f816c7fe1fd0"},"vehicle_type_id":"4","last_reported":1688080064,"current_range_meters":2400,"station_id":"ce4bh012rcd13ifvqd00","pricing_plan_id":"free"},{"bike_id":"ae304b6d-f8b5-407e-a980-bdb1535c09d3","system_id":"levelo_inurba_marseille","lat":43.316517,"lon":5.404375,"is_reserved":false,"is_disabled":false,"rental_uris":{"android":"levelo://app?vid=ae304b6d-f8b5-407e-a980-bdb1535c09d3","ios":"levelo://app?vid=ae304b6d-f8b5-407e-a980-bdb1535c09d3"},"vehicle_type_id":"4","last_reported":1688080064,"current_range_meters":18800,"station_id":"ce4bh012rcd13ifvqd00","pricing_plan_id":"free"},{"bike_id":"ac2d1f0f-a9b6-402c-b50e-32da6065f738","system_id":"levelo_inurba_marseille","lat":43.316517,"lon":5.404375,"is_reserved":false,"is_disabled":false,"rental_uris":{"android":"levelo://app?vid=ac2d1f0f-a9b6-402c-b50e-32da6065f738","ios":"levelo://app?vid=ac2d1f0f-a9b6-402c-b50e-32da6065f738"},"vehicle_type_id":"4","last_reported":1688080064,"current_range_meters":16800,"station_id":"ce4bh012rcd13ifvqd00","pricing_plan_id":"free"},{"bike_id":"b00e4111-9307-4edb-a4be-0a17eef7872a","system_id":"levelo_inurba_marseille","lat":43.29215,"lon":5.3932,"is_reserved":false,"is_disabled":false,"rental_uris":{"android":"levelo://app?vid=b00e4111-9307-4edb-a4be-0a17eef7872a","ios":"levelo://app?vid=b00e4111-9307-4edb-a4be-0a17eef7872a"},"vehicle_type_id":"4","last_reported":1688080064,"current_range_meters":18400,"station_id":"","pricing_plan_id":"free"},{"bike_id":"9ffa1047-f5ea-4a96-a5a0-7c0992d705e5","system_id":"levelo_inurba_marseille","lat":43.291994,"lon":5.392907,"is_reserved":false,"is_disabled":false,"rental_uris":{"android":"levelo://app?vid=9ffa1047-f5ea-4a96-a5a0-7c0992d705e5","ios":"levelo://app?vid=9ffa1047-f5ea-4a96-a5a0-7c0992d705e5"},"vehicle_type_id":"4","last_reported":1688080064,"current_range_meters":10400,"station_id":"ce4bh192rcd13ifvqdd0","pricing_plan_id":"free"},{"bike_id":"139a3017-a13e-4f9c-b402-cb7973cc5313","system_id":"levelo_inurba_marseille","lat":43.291994,"lon":5.392907,"is_reserved":false,"is_disabled":false,"rental_uris":{"android":"levelo://app?vid=139a3017-a13e-4f9c-b402-cb7973cc5313","ios":"levelo://app?vid=139a3017-a13e-4f9c-b402-cb7973cc5313"},"vehicle_type_id":"4","last_reported":1688080064,"current_range_meters":31600,"station_id":"ce4bh192rcd13ifvqdd0","pricing_plan_id":"free"},{"bike_id":"065f10ab-a5cd-4368-8aa4-b5e50f288f90","system_id":"levelo_inurba_marseille","lat":43.291994,"lon":5.392907,"is_reserved":false,"is_disabled":false,"rental_uris":{"android":"levelo://app?vid=065f10ab-a5cd-4368-8aa4-b5e50f288f90","ios":"levelo://app?vid=065f10ab-a5cd-4368-8aa4-b5e50f288f90"},"vehicle_type_id":"4","last_reported":1688080064,"current_range_meters":31200,"station_id":"ce4bh192rcd13ifvqdd0","pricing_plan_id":"free"},{"bike_id":"a67147b6-b261-4feb-b203-c47fd0c90e38","system_id":"levelo_inurba_marseille","lat":43.291994,"lon":5.392907,"is_reserved":false,"is_disabled":false,"rental_uris":{"android":"levelo://app?vid=a67147b6-b261-4feb-b203-c47fd0c90e38","ios":"levelo://app?vid=a67147b6-b261-4feb-b203-c47fd0c90e38"},"vehicle_type_id":"4","last_reported":1688080064,"current_range_meters":8800,"station_id":"ce4bh192rcd13ifvqdd0","pricing_plan_id":"free"},{"bike_id":"52da10ed-054a-4e3f-bbe6-c7a4eaf76123","system_id":"levelo_inurba_marseille","lat":43.28469,"lon":5.35881,"is_reserved":false,"is_disabled":false,"rental_uris":{"android":"levelo://app?vid=52da10ed-054a-4e3f-bbe6-c7a4eaf76123","ios":"levelo://app?vid=52da10ed-054a-4e3f-bbe6-c7a4eaf76123"},"vehicle_type_id":"4","last_reported":1688080064,"current_range_meters":3200,"station_id":"ce4bhah2rcd13ifvqei0","pricing_plan_id":"free"},{"bike_id":"29271062-26e9-4403-9194-1914f38c1a6b","system_id":"levelo_inurba_marseille","lat":43.28467,"lon":5.35893,"is_reserved":false,"is_disabled":false,"rental_uris":{"android":"levelo://app?vid=29271062-26e9-4403-9194-1914f38c1a6b","ios":"levelo://app?vid=29271062-26e9-4403-9194-1914f38c1a6b"},"vehicle_type_id":"4","last_reported":1688080064,"current_range_meters":26800,"station_id":"ce4bhah2rcd13ifvqei0","pricing_plan_id":"free"},{"bike_id":"ad17e0fc-f741-4dc8-a7be-9ea2c3fb03e9","system_id":"levelo_inurba_marseille","lat":43.28467,"lon":5.3589,"is_reserved":false,"is_disabled":false,"rental_uris":{"android":"levelo://app?vid=ad17e0fc-f741-4dc8-a7be-9ea2c3fb03e9","ios":"levelo://app?vid=ad17e0fc-f741-4dc8-a7be-9ea2c3fb03e9"},"vehicle_type_id":"4","last_reported":1688080064,"current_range_meters":8000,"station_id":"ce4bhah2rcd13ifvqei0","pricing_plan_id":"free"},{"bike_id":"ee65d491-94f4-4f36-89a5-78b09b473bd7","system_id":"levelo_inurba_marseille","lat":43.28464,"lon":5.35882,"is_reserved":false,"is_disabled":false,"rental_uris":{"android":"levelo://app?vid=ee65d491-94f4-4f36-89a5-78b09b473bd7","ios":"levelo://app?vid=ee65d491-94f4-4f36-89a5-78b09b473bd7"},"vehicle_type_id":"4","last_reported":1688080064,"current_range_meters":5200,"station_id":"ce4bhah2rcd13ifvqei0","pricing_plan_id":"free"},{"bike_id":"8c9bb625-ca96-4660-88b3-3f0fab2a3369","system_id":"levelo_inurba_marseille","lat":43.294314,"lon":5.397498,"is_reserved":false,"is_disabled":false,"rental_uris":{"android":"levelo://app?vid=8c9bb625-ca96-4660-88b3-3f0fab2a3369","ios":"levelo://app?vid=8c9bb625-ca96-4660-88b3-3f0fab2a3369"},"vehicle_type_id":"4","last_reported":1688080064,"current_range_meters":24400,"station_id":"ce4bh3h2rcd13ifvqdo0","pricing_plan_id":"free"},{"bike_id":"89ac9a93-26dd-4ae4-b6b8-769476ad0fac","system_id":"levelo_inurba_marseille","lat":43.284534,"lon":5.358662,"is_reserved":false,"is_disabled":false,"rental_uris":{"android":"levelo://app?vid=89ac9a93-26dd-4ae4-b6b8-769476ad0fac","ios":"levelo://app?vid=89ac9a93-26dd-4ae4-b6b8-769476ad0fac"},"vehicle_type_id":"4","last_reported":1688080064,"current_range_meters":14000,"station_id":"ce4bhah2rcd13ifvqei0","pricing_plan_id":"free"},{"bike_id":"5088ead8-4f85-4321-824c-9ea8ddb744dd","system_id":"levelo_inurba_marseille","lat":43.2957,"lon":5.39957,"is_reserved":false,"is_disabled":false,"rental_uris":{"android":"levelo://app?vid=5088ead8-4f85-4321-824c-9ea8ddb744dd","ios":"levelo://app?vid=5088ead8-4f85-4321-824c-9ea8ddb744dd"},"vehicle_type_id":"4","last_reported":1688080064,"current_range_meters":3200,"station_id":"ce4bh312rcd13ifvqdj0","pricing_plan_id":"free"},{"bike_id":"737fdb27-62e2-456c-a310-b847ccf510fa","system_id":"levelo_inurba_marseille","lat":43.283998,"lon":5.375062,"is_reserved":false,"is_disabled":false,"rental_uris":{"android":"levelo://app?vid=737fdb27-62e2-456c-a310-b847ccf510fa","ios":"levelo://app?vid=737fdb27-62e2-456c-a310-b847ccf510fa"},"vehicle_type_id":"4","last_reported":1688080064,"current_range_meters":800,"station_id":"ce4bh412rcd13ifvqds0","pricing_plan_id":"free"},{"bike_id":"c41774bd-b4ea-4137-afbb-4d4b4365d117","system_id":"levelo_inurba_marseille","lat":43.29572,"lon":5.39965,"is_reserved":false,"is_disabled":false,"rental_uris":{"android":"levelo://app?vid=c41774bd-b4ea-4137-afbb-4d4b4365d117","ios":"levelo://app?vid=c41774bd-b4ea-4137-afbb-4d4b4365d117"},"vehicle_type_id":"4","last_reported":1688080064,"current_range_meters":4400,"station_id":"ce4bh312rcd13ifvqdj0","pricing_plan_id":"free"},{"bike_id":"a4807405-02a0-4ff4-a6ca-740868c81b0c","system_id":"levelo_inurba_marseille","lat":43.295713,"lon":5.399639,"is_reserved":false,"is_disabled":false,"rental_uris":{"android":"levelo://app?vid=a4807405-02a0-4ff4-a6ca-740868c81b0c","ios":"levelo://app?vid=a4807405-02a0-4ff4-a6ca-740868c81b0c"},"vehicle_type_id":"4","last_reported":1688080064,"current_range_meters":29200,"station_id":"ce4bh312rcd13ifvqdj0","pricing_plan_id":"free"},{"bike_id":"1fcaebd2-1b04-43a4-a330-747f51f7132d","system_id":"levelo_inurba_marseille","lat":43.29569,"lon":5.39967,"is_reserved":false,"is_disabled":false,"rental_uris":{"android":"levelo://app?vid=1fcaebd2-1b04-43a4-a330-747f51f7132d","ios":"levelo://app?vid=1fcaebd2-1b04-43a4-a330-747f51f7132d"},"vehicle_type_id":"4","last_reported":1688080064,"current_range_meters":800,"station_id":"ce4bh312rcd13ifvqdj0","pricing_plan_id":"free"},{"bike_id":"57e2260c-1532-4513-84fa-7427bd6a6361","system_id":"levelo_inurba_marseille","lat":43.2957,"lon":5.39969,"is_reserved":false,"is_disabled":false,"rental_uris":{"android":"levelo://app?vid=57e2260c-1532-4513-84fa-7427bd6a6361","ios":"levelo://app?vid=57e2260c-1532-4513-84fa-7427bd6a6361"},"vehicle_type_id":"4","last_reported":1688080064,"current_range_meters":2000,"station_id":"ce4bh312rcd13ifvqdj0","pricing_plan_id":"free"},{"bike_id":"be3bf881-9c8f-468e-bf17-2bd7481c4228","system_id":"levelo_inurba_marseille","lat":43.283998,"lon":5.375062,"is_reserved":false,"is_disabled":false,"rental_uris":{"android":"levelo://app?vid=be3bf881-9c8f-468e-bf17-2bd7481c4228","ios":"levelo://app?vid=be3bf881-9c8f-468e-bf17-2bd7481c4228"},"vehicle_type_id":"4","last_reported":1688080064,"current_range_meters":16000,"station_id":"ce4bh412rcd13ifvqds0","pricing_plan_id":"free"},{"bike_id":"905691a5-b2e1-4df0-8fb7-b8b605a986cc","system_id":"levelo_inurba_marseille","lat":43.28677,"lon":5.3865,"is_reserved":false,"is_disabled":false,"rental_uris":{"android":"levelo://app?vid=905691a5-b2e1-4df0-8fb7-b8b605a986cc","ios":"levelo://app?vid=905691a5-b2e1-4df0-8fb7-b8b605a986cc"},"vehicle_type_id":"4","last_reported":1688080064,"current_range_meters":31200,"station_id":"ce4bh492rcd13ifvqdug","pricing_plan_id":"free"},{"bike_id":"75ad2b55-685c-44b8-b7e0-ae3cd9e57620","system_id":"levelo_inurba_marseille","lat":43.28678,"lon":5.38656,"is_reserved":false,"is_disabled":false,"rental_uris":{"android":"levelo://app?vid=75ad2b55-685c-44b8-b7e0-ae3cd9e57620","ios":"levelo://app?vid=75ad2b55-685c-44b8-b7e0-ae3cd9e57620"},"vehicle_type_id":"4","last_reported":1688080064,"current_range_meters":800,"station_id":"","pricing_plan_id":"free"},{"bike_id":"ba829723-55d5-4950-8819-8d7a47d65b78","system_id":"levelo_inurba_marseille","lat":43.286595,"lon":5.386795,"is_reserved":false,"is_disabled":false,"rental_uris":{"android":"levelo://app?vid=ba829723-55d5-4950-8819-8d7a47d65b78","ios":"levelo://app?vid=ba829723-55d5-4950-8819-8d7a47d65b78"},"vehicle_type_id":"4","last_reported":1688080064,"current_range_meters":5600,"station_id":"ce4bh492rcd13ifvqdug","pricing_plan_id":"free"},{"bike_id":"e35d5d1d-7278-4689-90e7-a3bd07e15183","system_id":"levelo_inurba_marseille","lat":43.28664,"lon":5.3866,"is_reserved":false,"is_disabled":false,"rental_uris":{"android":"levelo://app?vid=e35d5d1d-7278-4689-90e7-a3bd07e15183","ios":"levelo://app?vid=e35d5d1d-7278-4689-90e7-a3bd07e15183"},"vehicle_type_id":"4","last_reported":1688080064,"current_range_meters":29200,"station_id":"","pricing_plan_id":"free"},{"bike_id":"8525491f-3db0-400c-9669-dc39652966d2","system_id":"levelo_inurba_marseille","lat":43.32341,"lon":5.4061,"is_reserved":false,"is_disabled":false,"rental_uris":{"android":"levelo://app?vid=8525491f-3db0-400c-9669-dc39652966d2","ios":"levelo://app?vid=8525491f-3db0-400c-9669-dc39652966d2"},"vehicle_type_id":"4","last_reported":1688080064,"current_range_meters":28800,"station_id":"ce4bhq92rcd13ifvqhjg","pricing_plan_id":"free"},{"bike_id":"b4c950db-352f-4a1a-8e3c-c05101a6dad0","system_id":"levelo_inurba_marseille","lat":43.28804,"lon":5.39155,"is_reserved":false,"is_disabled":false,"rental_uris":{"android":"levelo://app?vid=b4c950db-352f-4a1a-8e3c-c05101a6dad0","ios":"levelo://app?vid=b4c950db-352f-4a1a-8e3c-c05101a6dad0"},"vehicle_type_id":"4","last_reported":1688080064,"current_range_meters":28800,"station_id":"","pricing_plan_id":"free"},{"bike_id":"3a0f51f0-8596-4524-8d34-8bb3be073fd8","system_id":"levelo_inurba_marseille","lat":43.284793,"lon":5.384113,"is_reserved":false,"is_disabled":false,"rental_uris":{"android":"levelo://app?vid=3a0f51f0-8596-4524-8d34-8bb3be073fd8","ios":"levelo://app?vid=3a0f51f0-8596-4524-8d34-8bb3be073fd8"},"vehicle_type_id":"4","last_reported":1688080064,"current_range_meters":6000,"station_id":"ce4bh512rcd13ifvqe3g","pricing_plan_id":"free"},{"bike_id":"74a1123a-86b2-4fb9-823c-e5c5c3b0e0ec","system_id":"levelo_inurba_marseille","lat":43.288501,"lon":5.393087,"is_reserved":false,"is_disabled":false,"rental_uris":{"android":"levelo://app?vid=74a1123a-86b2-4fb9-823c-e5c5c3b0e0ec","ios":"levelo://app?vid=74a1123a-86b2-4fb9-823c-e5c5c3b0e0ec"},"vehicle_type_id":"4","last_reported":1688080064,"current_range_meters":14000,"station_id":"ce4bh2p2rcd13ifvqdi0","pricing_plan_id":"free"},{"bike_id":"f614d88f-9e55-4181-8863-02fc408f541e","system_id":"levelo_inurba_marseille","lat":43.288501,"lon":5.393087,"is_reserved":false,"is_disabled":false,"rental_uris":{"android":"levelo://app?vid=f614d88f-9e55-4181-8863-02fc408f541e","ios":"levelo://app?vid=f614d88f-9e55-4181-8863-02fc408f541e"},"vehicle_type_id":"4","last_reported":1688080064,"current_range_meters":16400,"station_id":"ce4bh2p2rcd13ifvqdi0","pricing_plan_id":"free"},{"bike_id":"62f3078d-daad-4db6-b008-3de10cd16758","system_id":"levelo_inurba_marseille","lat":43.2886,"lon":5.39309,"is_reserved":false,"is_disabled":false,"rental_uris":{"android":"levelo://app?vid=62f3078d-daad-4db6-b008-3de10cd16758","ios":"levelo://app?vid=62f3078d-daad-4db6-b008-3de10cd16758"},"vehicle_type_id":"4","last_reported":1688080064,"current_range_meters":2800,"station_id":"ce4bh2p2rcd13ifvqdi0","pricing_plan_id":"free"},{"bike_id":"40265de3-3a11-49a7-8206-7e7d7ca77493","system_id":"levelo_inurba_marseille","lat":43.28856,"lon":5.39304,"is_reserved":false,"is_disabled":false,"rental_uris":{"android":"levelo://app?vid=40265de3-3a11-49a7-8206-7e7d7ca77493","ios":"levelo://app?vid=40265de3-3a11-49a7-8206-7e7d7ca77493"},"vehicle_type_id":"4","last_reported":1688080064,"current_range_meters":0,"station_id":"ce4bh2p2rcd13ifvqdi0","pricing_plan_id":"free"},{"bike_id":"0221ebf8-42e5-4a40-9df9-ce5bba1fde13","system_id":"levelo_inurba_marseille","lat":43.288501,"lon":5.393087,"is_reserved":false,"is_disabled":false,"rental_uris":{"android":"levelo://app?vid=0221ebf8-42e5-4a40-9df9-ce5bba1fde13","ios":"levelo://app?vid=0221ebf8-42e5-4a40-9df9-ce5bba1fde13"},"vehicle_type_id":"4","last_reported":1688080064,"current_range_meters":4400,"station_id":"ce4bh2p2rcd13ifvqdi0","pricing_plan_id":"free"},{"bike_id":"15eb607c-0668-44e7-8d62-f1a744b0909c","system_id":"levelo_inurba_marseille","lat":43.288501,"lon":5.393087,"is_reserved":false,"is_disabled":false,"rental_uris":{"android":"levelo://app?vid=15eb607c-0668-44e7-8d62-f1a744b0909c","ios":"levelo://app?vid=15eb607c-0668-44e7-8d62-f1a744b0909c"},"vehicle_type_id":"4","last_reported":1688080064,"current_range_meters":24800,"station_id":"ce4bh2p2rcd13ifvqdi0","pricing_plan_id":"free"},{"bike_id":"548b60c0-fa3a-4157-b614-713abb274d2f","system_id":"levelo_inurba_marseille","lat":43.28852,"lon":5.39305,"is_reserved":false,"is_disabled":false,"rental_uris":{"android":"levelo://app?vid=548b60c0-fa3a-4157-b614-713abb274d2f","ios":"levelo://app?vid=548b60c0-fa3a-4157-b614-713abb274d2f"},"vehicle_type_id":"4","last_reported":1688080064,"current_range_meters":18000,"station_id":"ce4bh2p2rcd13ifvqdi0","pricing_plan_id":"free"},{"bike_id":"1b7faf63-29ed-4053-8dc0-233713637f48","system_id":"levelo_inurba_marseille","lat":43.283494,"lon":5.380945,"is_reserved":false,"is_disabled":false,"rental_uris":{"android":"levelo://app?vid=1b7faf63-29ed-4053-8dc0-233713637f48","ios":"levelo://app?vid=1b7faf63-29ed-4053-8dc0-233713637f48"},"vehicle_type_id":"4","last_reported":1688080064,"current_range_meters":30000,"station_id":"ce4bh412rcd13ifvqdr0","pricing_plan_id":"free"},{"bike_id":"fccdbdaa-57aa-4a4d-b42a-dcf52de0c91c","system_id":"levelo_inurba_marseille","lat":43.283494,"lon":5.380945,"is_reserved":false,"is_disabled":false,"rental_uris":{"android":"levelo://app?vid=fccdbdaa-57aa-4a4d-b42a-dcf52de0c91c","ios":"levelo://app?vid=fccdbdaa-57aa-4a4d-b42a-dcf52de0c91c"},"vehicle_type_id":"4","last_reported":1688080064,"current_range_meters":30800,"station_id":"ce4bh412rcd13ifvqdr0","pricing_plan_id":"free"},{"bike_id":"e529bb16-7af7-4165-9265-26765f972865","system_id":"levelo_inurba_marseille","lat":43.283494,"lon":5.380945,"is_reserved":false,"is_disabled":false,"rental_uris":{"android":"levelo://app?vid=e529bb16-7af7-4165-9265-26765f972865","ios":"levelo://app?vid=e529bb16-7af7-4165-9265-26765f972865"},"vehicle_type_id":"4","last_reported":1688080064,"current_range_meters":20000,"station_id":"ce4bh412rcd13ifvqdr0","pricing_plan_id":"free"},{"bike_id":"faf566e6-693f-4478-bcf0-391d5cd3de6d","system_id":"levelo_inurba_marseille","lat":43.283498,"lon":5.380948,"is_reserved":false,"is_disabled":false,"rental_uris":{"android":"levelo://app?vid=faf566e6-693f-4478-bcf0-391d5cd3de6d","ios":"levelo://app?vid=faf566e6-693f-4478-bcf0-391d5cd3de6d"},"vehicle_type_id":"4","last_reported":1688080064,"current_range_meters":28000,"station_id":"ce4bh412rcd13ifvqdr0","pricing_plan_id":"free"},{"bike_id":"1437ae42-8a68-4fce-80eb-841a43301615","system_id":"levelo_inurba_marseille","lat":43.28429,"lon":5.34991,"is_reserved":false,"is_disabled":false,"rental_uris":{"android":"levelo://app?vid=1437ae42-8a68-4fce-80eb-841a43301615","ios":"levelo://app?vid=1437ae42-8a68-4fce-80eb-841a43301615"},"vehicle_type_id":"4","last_reported":1688080064,"current_range_meters":0,"station_id":"ce4bhbh2rcd13ifvqepg","pricing_plan_id":"free"},{"bike_id":"a31a35a5-e61f-4317-9391-7f19d8fcfbcd","system_id":"levelo_inurba_marseille","lat":43.28429,"lon":5.34985,"is_reserved":false,"is_disabled":false,"rental_uris":{"android":"levelo://app?vid=a31a35a5-e61f-4317-9391-7f19d8fcfbcd","ios":"levelo://app?vid=a31a35a5-e61f-4317-9391-7f19d8fcfbcd"},"vehicle_type_id":"4","last_reported":1688080064,"current_range_meters":0,"station_id":"ce4bhbh2rcd13ifvqepg","pricing_plan_id":"free"},{"bike_id":"ab3fd236-05cc-4b51-8571-8f21156157e4","system_id":"levelo_inurba_marseille","lat":43.28723,"lon":5.39294,"is_reserved":false,"is_disabled":false,"rental_uris":{"android":"levelo://app?vid=ab3fd236-05cc-4b51-8571-8f21156157e4","ios":"levelo://app?vid=ab3fd236-05cc-4b51-8571-8f21156157e4"},"vehicle_type_id":"4","last_reported":1688080064,"current_range_meters":7200,"station_id":"","pricing_plan_id":"free"},{"bike_id":"57a0c2eb-d3ea-4e4a-bfc9-8f44de8d01b5","system_id":"levelo_inurba_marseille","lat":43.292724,"lon":5.401131,"is_reserved":false,"is_disabled":false,"rental_uris":{"android":"levelo://app?vid=57a0c2eb-d3ea-4e4a-bfc9-8f44de8d01b5","ios":"levelo://app?vid=57a0c2eb-d3ea-4e4a-bfc9-8f44de8d01b5"},"vehicle_type_id":"4","last_reported":1688080064,"current_range_meters":5200,"station_id":"ce4bh312rcd13ifvqdk0","pricing_plan_id":"free"},{"bike_id":"8e1ffae6-8ba8-4cad-96e2-383ab36086b0","system_id":"levelo_inurba_marseille","lat":43.292724,"lon":5.401131,"is_reserved":false,"is_disabled":false,"rental_uris":{"android":"levelo://app?vid=8e1ffae6-8ba8-4cad-96e2-383ab36086b0","ios":"levelo://app?vid=8e1ffae6-8ba8-4cad-96e2-383ab36086b0"},"vehicle_type_id":"4","last_reported":1688080064,"current_range_meters":12000,"station_id":"ce4bh312rcd13ifvqdk0","pricing_plan_id":"free"},{"bike_id":"70cb742a-d103-4d15-999a-c2bf637bab18","system_id":"levelo_inurba_marseille","lat":43.292724,"lon":5.401131,"is_reserved":false,"is_disabled":false,"rental_uris":{"android":"levelo://app?vid=70cb742a-d103-4d15-999a-c2bf637bab18","ios":"levelo://app?vid=70cb742a-d103-4d15-999a-c2bf637bab18"},"vehicle_type_id":"4","last_reported":1688080064,"current_range_meters":7200,"station_id":"ce4bh312rcd13ifvqdk0","pricing_plan_id":"free"},{"bike_id":"24a64150-f38e-4905-b81d-5300604ef32a","system_id":"levelo_inurba_marseille","lat":43.292724,"lon":5.401131,"is_reserved":false,"is_disabled":false,"rental_uris":{"android":"levelo://app?vid=24a64150-f38e-4905-b81d-5300604ef32a","ios":"levelo://app?vid=24a64150-f38e-4905-b81d-5300604ef32a"},"vehicle_type_id":"4","last_reported":1688080064,"current_range_meters":12400,"station_id":"ce4bh312rcd13ifvqdk0","pricing_plan_id":"free"},{"bike_id":"f3e2207c-6554-4136-9336-3997d9ffa099","system_id":"levelo_inurba_marseille","lat":43.292724,"lon":5.401131,"is_reserved":false,"is_disabled":false,"rental_uris":{"android":"levelo://app?vid=f3e2207c-6554-4136-9336-3997d9ffa099","ios":"levelo://app?vid=f3e2207c-6554-4136-9336-3997d9ffa099"},"vehicle_type_id":"4","last_reported":1688080064,"current_range_meters":15600,"station_id":"ce4bh312rcd13ifvqdk0","pricing_plan_id":"free"},{"bike_id":"e16f7055-2f1b-4c22-a9d7-b313ce6d3b15","system_id":"levelo_inurba_marseille","lat":43.292724,"lon":5.401131,"is_reserved":false,"is_disabled":false,"rental_uris":{"android":"levelo://app?vid=e16f7055-2f1b-4c22-a9d7-b313ce6d3b15","ios":"levelo://app?vid=e16f7055-2f1b-4c22-a9d7-b313ce6d3b15"},"vehicle_type_id":"4","last_reported":1688080064,"current_range_meters":12400,"station_id":"ce4bh312rcd13ifvqdk0","pricing_plan_id":"free"},{"bike_id":"6f70ba40-9add-4a01-914f-112fcce0d8cf","system_id":"levelo_inurba_marseille","lat":43.282754,"lon":5.350519,"is_reserved":false,"is_disabled":false,"rental_uris":{"android":"levelo://app?vid=6f70ba40-9add-4a01-914f-112fcce0d8cf","ios":"levelo://app?vid=6f70ba40-9add-4a01-914f-112fcce0d8cf"},"vehicle_type_id":"4","last_reported":1688080064,"current_range_meters":2800,"station_id":"ce4bhbp2rcd13ifvqerg","pricing_plan_id":"free"},{"bike_id":"96878916-2c36-473e-a359-58c00d77ad17","system_id":"levelo_inurba_marseille","lat":43.287154,"lon":5.399979,"is_reserved":false,"is_disabled":false,"rental_uris":{"android":"levelo://app?vid=96878916-2c36-473e-a359-58c00d77ad17","ios":"levelo://app?vid=96878916-2c36-473e-a359-58c00d77ad17"},"vehicle_type_id":"4","last_reported":1688080064,"current_range_meters":8400,"station_id":"ce4bho92rcd13ifvqh3g","pricing_plan_id":"free"},{"bike_id":"97efbc94-dba5-43b4-8cc7-b9f7ac07648a","system_id":"levelo_inurba_marseille","lat":43.29034,"lon":5.3995,"is_reserved":false,"is_disabled":false,"rental_uris":{"android":"levelo://app?vid=97efbc94-dba5-43b4-8cc7-b9f7ac07648a","ios":"levelo://app?vid=97efbc94-dba5-43b4-8cc7-b9f7ac07648a"},"vehicle_type_id":"4","last_reported":1688080064,"current_range_meters":0,"station_id":"ce4bh392rcd13ifvqdm0","pricing_plan_id":"free"},{"bike_id":"e457b3f7-dcca-46dd-baf0-1140b1d62de0","system_id":"levelo_inurba_marseille","lat":43.290412,"lon":5.399633,"is_reserved":false,"is_disabled":false,"rental_uris":{"android":"levelo://app?vid=e457b3f7-dcca-46dd-baf0-1140b1d62de0","ios":"levelo://app?vid=e457b3f7-dcca-46dd-baf0-1140b1d62de0"},"vehicle_type_id":"4","last_reported":1688080064,"current_range_meters":19200,"station_id":"ce4bh392rcd13ifvqdm0","pricing_plan_id":"free"},{"bike_id":"a0f6afe9-fe91-4aa7-a806-ac26bab7cb15","system_id":"levelo_inurba_marseille","lat":43.28112,"lon":5.37819,"is_reserved":false,"is_disabled":false,"rental_uris":{"android":"levelo://app?vid=a0f6afe9-fe91-4aa7-a806-ac26bab7cb15","ios":"levelo://app?vid=a0f6afe9-fe91-4aa7-a806-ac26bab7cb15"},"vehicle_type_id":"4","last_reported":1688080064,"current_range_meters":25600,"station_id":"ce4bha12rcd13ifvqee0","pricing_plan_id":"free"},{"bike_id":"bf02bee8-7a22-477e-a238-9f722a4ad3e4","system_id":"levelo_inurba_marseille","lat":43.281044,"lon":5.378308,"is_reserved":false,"is_disabled":false,"rental_uris":{"android":"levelo://app?vid=bf02bee8-7a22-477e-a238-9f722a4ad3e4","ios":"levelo://app?vid=bf02bee8-7a22-477e-a238-9f722a4ad3e4"},"vehicle_type_id":"4","last_reported":1688080064,"current_range_meters":20400,"station_id":"ce4bha12rcd13ifvqee0","pricing_plan_id":"free"},{"bike_id":"3560168f-b9db-41ef-b4e3-d614ad2b246a","system_id":"levelo_inurba_marseille","lat":43.281044,"lon":5.378308,"is_reserved":false,"is_disabled":false,"rental_uris":{"android":"levelo://app?vid=3560168f-b9db-41ef-b4e3-d614ad2b246a","ios":"levelo://app?vid=3560168f-b9db-41ef-b4e3-d614ad2b246a"},"vehicle_type_id":"4","last_reported":1688080064,"current_range_meters":30000,"station_id":"ce4bha12rcd13ifvqee0","pricing_plan_id":"free"},{"bike_id":"2e077eef-d27d-4e2a-85bf-f3d8a9df1422","system_id":"levelo_inurba_marseille","lat":43.281044,"lon":5.378308,"is_reserved":false,"is_disabled":false,"rental_uris":{"android":"levelo://app?vid=2e077eef-d27d-4e2a-85bf-f3d8a9df1422","ios":"levelo://app?vid=2e077eef-d27d-4e2a-85bf-f3d8a9df1422"},"vehicle_type_id":"4","last_reported":1688080064,"current_range_meters":12000,"station_id":"ce4bha12rcd13ifvqee0","pricing_plan_id":"free"},{"bike_id":"ce1903ca-cec0-44bd-b63f-eb84cb7c0f25","system_id":"levelo_inurba_marseille","lat":43.28112,"lon":5.37841,"is_reserved":false,"is_disabled":false,"rental_uris":{"android":"levelo://app?vid=ce1903ca-cec0-44bd-b63f-eb84cb7c0f25","ios":"levelo://app?vid=ce1903ca-cec0-44bd-b63f-eb84cb7c0f25"},"vehicle_type_id":"4","last_reported":1688080064,"current_range_meters":22800,"station_id":"ce4bha12rcd13ifvqee0","pricing_plan_id":"free"},{"bike_id":"e44fc683-7ea7-4b81-af8f-4ac47702255f","system_id":"levelo_inurba_marseille","lat":43.281044,"lon":5.378308,"is_reserved":false,"is_disabled":false,"rental_uris":{"android":"levelo://app?vid=e44fc683-7ea7-4b81-af8f-4ac47702255f","ios":"levelo://app?vid=e44fc683-7ea7-4b81-af8f-4ac47702255f"},"vehicle_type_id":"4","last_reported":1688080064,"current_range_meters":25600,"station_id":"ce4bha12rcd13ifvqee0","pricing_plan_id":"free"},