{"last_updated":1781213881,"ttl":60,"version":"2.2","data":{"bikes":[{"bike_id":"ec12d144-24c8-4071-abf6-197e520eae96","system_id":"levelo_inurba_marseille","lat":43.337444,"lon":5.374475,"is_reserved":false,"is_disabled":false,"rental_uris":{"android":"levelo://app?vid=ec12d144-24c8-4071-abf6-197e520eae96","ios":"levelo://app?vid=ec12d144-24c8-4071-abf6-197e520eae96"},"vehicle_type_id":"4","last_reported":1781213882,"current_range_meters":0,"station_id":"","pricing_plan_id":"cebpf4jnsgd1na2vs0mg"},{"bike_id":"42ce0662-1437-4a17-8fbb-4a3524110752","system_id":"levelo_inurba_marseille","lat":43.27189,"lon":5.4097,"is_reserved":false,"is_disabled":false,"rental_uris":{"android":"levelo://app?vid=42ce0662-1437-4a17-8fbb-4a3524110752","ios":"levelo://app?vid=42ce0662-1437-4a17-8fbb-4a3524110752"},"vehicle_type_id":"4","last_reported":1781213882,"current_range_meters":2800,"station_id":"ce4bhl12rcd13ifvqgf0","pricing_plan_id":"cebpf4jnsgd1na2vs0mg"},{"bike_id":"3289b7e2-fa31-4cbf-9046-96a34ed2b0db","system_id":"levelo_inurba_marseille","lat":43.30867,"lon":5.39642,"is_reserved":false,"is_disabled":true,"rental_uris":{"android":"levelo://app?vid=3289b7e2-fa31-4cbf-9046-96a34ed2b0db","ios":"levelo://app?vid=3289b7e2-fa31-4cbf-9046-96a34ed2b0db"},"vehicle_type_id":"4","last_reported":1781213882,"current_range_meters":2800,"station_id":"ce4bh012rcd13ifvqcv0","pricing_plan_id":"cebpf4jnsgd1na2vs0mg"},{"bike_id":"1b6ca918-1743-49ab-af19-a83031407f07","system_id":"levelo_inurba_marseille","lat":43.23875,"lon":5.37484,"is_reserved":false,"is_disabled":true,"rental_uris":{"android":"levelo://app?vid=1b6ca918-1743-49ab-af19-a83031407f07","ios":"levelo://app?vid=1b6ca918-1743-49ab-af19-a83031407f07"},"vehicle_type_id":"4","last_reported":1781213882,"current_range_meters":2800,"station_id":"st_d6sm7csbq4hs73f8fpjg","pricing_plan_id":"cebpf4jnsgd1na2vs0mg"},{"bike_id":"22c69f15-2347-490c-9ca8-c9114c6e84ee","system_id":"levelo_inurba_marseille","lat":43.28843,"lon":5.39314,"is_reserved":false,"is_disabled":false,"rental_uris":{"android":"levelo://app?vid=22c69f15-2347-490c-9ca8-c9114c6e84ee","ios":"levelo://app?vid=22c69f15-2347-490c-9ca8-c9114c6e84ee"},"vehicle_type_id":"4","last_reported":1781213882,"current_range_meters":2800,"station_id":"ce4bh2p2rcd13ifvqdi0","pricing_plan_id":"cebpf4jnsgd1na2vs0mg"},{"bike_id":"26a548b1-2ac5-4ad7-89b5-8bc650cf2caa","system_id":"levelo_inurba_marseille","lat":43.24664,"lon":5.38144,"is_reserved":false,"is_disabled":false,"rental_uris":{"android":"levelo://app?vid=26a548b1-2ac5-4ad7-89b5-8bc650cf2caa","ios":"levelo://app?vid=26a548b1-2ac5-4ad7-89b5-8bc650cf2caa"},"vehicle_type_id":"4","last_reported":1781213882,"current_range_meters":2800,"station_id":"ce4bhih2rcd13ifvqfr0","pricing_plan_id":"cebpf4jnsgd1na2vs0mg"},{"bike_id":"4c9315b6-5037-48f8-acd1-7a92cedaad02","system_id":"levelo_inurba_marseille","lat":43.27287,"lon":5.41023,"is_reserved":false,"is_disabled":false,"rental_uris":{"android":"levelo://app?vid=4c9315b6-5037-48f8-acd1-7a92cedaad02","ios":"levelo://app?vid=4c9315b6-5037-48f8-acd1-7a92cedaad02"},"vehicle_type_id":"4","last_reported":1781213882,"current_range_meters":2800,"station_id":"","pricing_plan_id":"cebpf4jnsgd1na2vs0mg"},{"bike_id":"c601e1eb-3a5b-4b58-a5b1-b6a3a34523b7","system_id":"levelo_inurba_marseille","lat":43.30546,"lon":5.365787,"is_reserved":false,"is_disabled":false,"rental_uris":{"android":"levelo://app?vid=c601e1eb-3a5b-4b58-a5b1-b6a3a34523b7","ios":"levelo://app?vid=c601e1eb-3a5b-4b58-a5b1-b6a3a34523b7"},"vehicle_type_id":"4","last_reported":1781213882,"current_range_meters":2800,"station_id":"ce4bgs12rcd13ifvqcag","pricing_plan_id":"cebpf4jnsgd1na2vs0mg"},{"bike_id":"564980c7-4086-4d0c-b20e-906bc61640a8","system_id":"levelo_inurba_marseille","lat":43.29675,"lon":5.36326,"is_reserved":false,"is_disabled":false,"rental_uris":{"android":"levelo://app?vid=564980c7-4086-4d0c-b20e-906bc61640a8","ios":"levelo://app?vid=564980c7-4086-4d0c-b20e-906bc61640a8"},"vehicle_type_id":"4","last_reported":1781213882,"current_range_meters":2800,"station_id":"","pricing_plan_id":"cebpf4jnsgd1na2vs0mg"},{"bike_id":"fafdb545-4263-4738-90a4-2c4a24e0b45a","system_id":"levelo_inurba_marseille","lat":43.33332,"lon":5.41061,"is_reserved":false,"is_disabled":false,"rental_uris":{"android":"levelo://app?vid=fafdb545-4263-4738-90a4-2c4a24e0b45a","ios":"levelo://app?vid=fafdb545-4263-4738-90a4-2c4a24e0b45a"},"vehicle_type_id":"4","last_reported":1781213882,"current_range_meters":2800,"station_id":"","pricing_plan_id":"cebpf4jnsgd1na2vs0mg"},{"bike_id":"44ca1cc2-91fd-4df7-82ef-32a060c085f9","system_id":"levelo_inurba_marseille","lat":43.31878,"lon":5.40737,"is_reserved":false,"is_disabled":false,"rental_uris":{"android":"levelo://app?vid=44ca1cc2-91fd-4df7-82ef-32a060c085f9","ios":"levelo://app?vid=44ca1cc2-91fd-4df7-82ef-32a060c085f9"},"vehicle_type_id":"4","last_reported":1781213882,"current_range_meters":2800,"station_id":"ce4bhq12rcd13ifvqhig","pricing_plan_id":"cebpf4jnsgd1na2vs0mg"},{"bike_id":"380eeb0a-ddcf-4d2f-a116-c2459cb019db","system_id":"levelo_inurba_marseille","lat":43.25583,"lon":5.38224,"is_reserved":false,"is_disabled":false,"rental_uris":{"android":"levelo://app?vid=380eeb0a-ddcf-4d2f-a116-c2459cb019db","ios":"levelo://app?vid=380eeb0a-ddcf-4d2f-a116-c2459cb019db"},"vehicle_type_id":"4","last_reported":1781213882,"current_range_meters":2800,"station_id":"ce4bhih2rcd13ifvqfs0","pricing_plan_id":"cebpf4jnsgd1na2vs0mg"},{"bike_id":"c50a9e43-666a-4ebb-bb15-fba6ac3b0d59","system_id":"levelo_inurba_marseille","lat":43.29295,"lon":5.36332,"is_reserved":false,"is_disabled":false,"rental_uris":{"android":"levelo://app?vid=c50a9e43-666a-4ebb-bb15-fba6ac3b0d59","ios":"levelo://app?vid=c50a9e43-666a-4ebb-bb15-fba6ac3b0d59"},"vehicle_type_id":"4","last_reported":1781213882,"current_range_meters":2800,"station_id":"","pricing_plan_id":"cebpf4jnsgd1na2vs0mg"},{"bike_id":"3a0a3c1e-d128-4138-b2e1-df846eb876c4","system_id":"levelo_inurba_marseille","lat":43.28685,"lon":5.39461,"is_reserved":false,"is_disabled":false,"rental_uris":{"android":"levelo://app?vid=3a0a3c1e-d128-4138-b2e1-df846eb876c4","ios":"levelo://app?vid=3a0a3c1e-d128-4138-b2e1-df846eb876c4"},"vehicle_type_id":"4","last_reported":1781213882,"current_range_meters":3200,"station_id":"","pricing_plan_id":"cebpf4jnsgd1na2vs0mg"},{"bike_id":"12df29cc-abfa-41e4-9d8d-6005376fb963","system_id":"levelo_inurba_marseille","lat":43.266188,"lon":5.394222,"is_reserved":false,"is_disabled":false,"rental_uris":{"android":"levelo://app?vid=12df29cc-abfa-41e4-9d8d-6005376fb963","ios":"levelo://app?vid=12df29cc-abfa-41e4-9d8d-6005376fb963"},"vehicle_type_id":"4","last_reported":1781213882,"current_range_meters":3200,"station_id":"","pricing_plan_id":"cebpf4jnsgd1na2vs0mg"},{"bike_id":"66b320c3-1103-46ba-9122-fd86642f87ff","system_id":"levelo_inurba_marseille","lat":43.29269,"lon":5.38449,"is_reserved":false,"is_disabled":false,"rental_uris":{"android":"levelo://app?vid=66b320c3-1103-46ba-9122-fd86642f87ff","ios":"levelo://app?vid=66b320c3-1103-46ba-9122-fd86642f87ff"},"vehicle_type_id":"4","last_reported":1781213882,"current_range_meters":3200,"station_id":"ce4bh692rcd13ifvqea0","pricing_plan_id":"cebpf4jnsgd1na2vs0mg"},{"bike_id":"2a8ee5a0-6852-44b0-a6e2-f4e4bf4a3fe5","system_id":"levelo_inurba_marseille","lat":43.25507,"lon":5.38919,"is_reserved":false,"is_disabled":true,"rental_uris":{"android":"levelo://app?vid=2a8ee5a0-6852-44b0-a6e2-f4e4bf4a3fe5","ios":"levelo://app?vid=2a8ee5a0-6852-44b0-a6e2-f4e4bf4a3fe5"},"vehicle_type_id":"4","last_reported":1781213882,"current_range_meters":3200,"station_id":"","pricing_plan_id":"cebpf4jnsgd1na2vs0mg"},{"bike_id":"2b40751b-6a5e-4adf-b929-23b5e6b3110b","system_id":"levelo_inurba_marseille","lat":43.31227,"lon":5.36853,"is_reserved":false,"is_disabled":false,"rental_uris":{"android":"levelo://app?vid=2b40751b-6a5e-4adf-b929-23b5e6b3110b","ios":"levelo://app?vid=2b40751b-6a5e-4adf-b929-23b5e6b3110b"},"vehicle_type_id":"4","last_reported":1781213882,"current_range_meters":3200,"station_id":"ce4bgl92rcd13ifvqbq0","pricing_plan_id":"cebpf4jnsgd1na2vs0mg"},{"bike_id":"546f4a36-7b07-4e2f-bbb6-a4b1e72e823b","system_id":"levelo_inurba_marseille","lat":43.29637,"lon":5.40604,"is_reserved":false,"is_disabled":false,"rental_uris":{"android":"levelo://app?vid=546f4a36-7b07-4e2f-bbb6-a4b1e72e823b","ios":"levelo://app?vid=546f4a36-7b07-4e2f-bbb6-a4b1e72e823b"},"vehicle_type_id":"4","last_reported":1781213882,"current_range_meters":3200,"station_id":"ce4bh0h2rcd13ifvqd60","pricing_plan_id":"cebpf4jnsgd1na2vs0mg"},{"bike_id":"e9517150-ed51-4bf3-bf7d-ad7e105a86f9","system_id":"levelo_inurba_marseille","lat":43.30788,"lon":5.37656,"is_reserved":false,"is_disabled":false,"rental_uris":{"android":"levelo://app?vid=e9517150-ed51-4bf3-bf7d-ad7e105a86f9","ios":"levelo://app?vid=e9517150-ed51-4bf3-bf7d-ad7e105a86f9"},"vehicle_type_id":"4","last_reported":1781213882,"current_range_meters":3200,"station_id":"ce4bgv92rcd13ifvqcq0","pricing_plan_id":"cebpf4jnsgd1na2vs0mg"},{"bike_id":"291a9c35-35dd-42aa-bdfc-4e281234a90a","system_id":"levelo_inurba_marseille","lat":43.28414,"lon":5.38579,"is_reserved":false,"is_disabled":true,"rental_uris":{"android":"levelo://app?vid=291a9c35-35dd-42aa-bdfc-4e281234a90a","ios":"levelo://app?vid=291a9c35-35dd-42aa-bdfc-4e281234a90a"},"vehicle_type_id":"4","last_reported":1781213882,"current_range_meters":3200,"station_id":"","pricing_plan_id":"cebpf4jnsgd1na2vs0mg"},{"bike_id":"1b46b3a9-16b1-4dc0-ba9c-b4a91ee35a59","system_id":"levelo_inurba_marseille","lat":43.26582,"lon":5.38991,"is_reserved":false,"is_disabled":false,"rental_uris":{"android":"levelo://app?vid=1b46b3a9-16b1-4dc0-ba9c-b4a91ee35a59","ios":"levelo://app?vid=1b46b3a9-16b1-4dc0-ba9c-b4a91ee35a59"},"vehicle_type_id":"4","last_reported":1781213882,"current_range_meters":3200,"station_id":"ce4bhe12rcd13ifvqf30","pricing_plan_id":"cebpf4jnsgd1na2vs0mg"},{"bike_id":"a949ab75-be2f-4de3-87b1-03b69d2967c5","system_id":"levelo_inurba_marseille","lat":43.25201,"lon":5.4115,"is_reserved":false,"is_disabled":false,"rental_uris":{"android":"levelo://app?vid=a949ab75-be2f-4de3-87b1-03b69d2967c5","ios":"levelo://app?vid=a949ab75-be2f-4de3-87b1-03b69d2967c5"},"vehicle_type_id":"4","last_reported":1781213882,"current_range_meters":3200,"station_id":"","pricing_plan_id":"cebpf4jnsgd1na2vs0mg"},{"bike_id":"66a57e97-9916-4ab9-af0c-be880c2d5570","system_id":"levelo_inurba_marseille","lat":43.28741,"lon":5.40423,"is_reserved":false,"is_disabled":false,"rental_uris":{"android":"levelo://app?vid=66a57e97-9916-4ab9-af0c-be880c2d5570","ios":"levelo://app?vid=66a57e97-9916-4ab9-af0c-be880c2d5570"},"vehicle_type_id":"4","last_reported":1781213882,"current_range_meters":3200,"station_id":"","pricing_plan_id":"cebpf4jnsgd1na2vs0mg"},{"bike_id":"70416f6a-8362-43f4-8132-2e1471232fe2","system_id":"levelo_inurba_marseille","lat":43.29706,"lon":5.36609,"is_reserved":false,"is_disabled":false,"rental_uris":{"android":"levelo://app?vid=70416f6a-8362-43f4-8132-2e1471232fe2","ios":"levelo://app?vid=70416f6a-8362-43f4-8132-2e1471232fe2"},"vehicle_type_id":"4","last_reported":1781213882,"current_range_meters":3200,"station_id":"ce4bgn12rcd13ifvqbt0","pricing_plan_id":"cebpf4jnsgd1na2vs0mg"},{"bike_id":"60726254-c8fc-4392-ad13-50ba34082b25","system_id":"levelo_inurba_marseille","lat":43.28115,"lon":5.40488,"is_reserved":false,"is_disabled":false,"rental_uris":{"android":"levelo://app?vid=60726254-c8fc-4392-ad13-50ba34082b25","ios":"levelo://app?vid=60726254-c8fc-4392-ad13-50ba34082b25"},"vehicle_type_id":"4","last_reported":1781213882,"current_range_meters":3200,"station_id":"","pricing_plan_id":"cebpf4jnsgd1na2vs0mg"},{"bike_id":"402cee7f-7d33-47c7-a4a6-ec74389838c4","system_id":"levelo_inurba_marseille","lat":43.31458,"lon":5.37389,"is_reserved":false,"is_disabled":false,"rental_uris":{"android":"levelo://app?vid=402cee7f-7d33-47c7-a4a6-ec74389838c4","ios":"levelo://app?vid=402cee7f-7d33-47c7-a4a6-ec74389838c4"},"vehicle_type_id":"4","last_reported":1781213882,"current_range_meters":3600,"station_id":"","pricing_plan_id":"cebpf4jnsgd1na2vs0mg"},{"bike_id":"cc044a5d-6424-486c-a90d-3884464a6b29","system_id":"levelo_inurba_marseille","lat":43.32069,"lon":5.36306,"is_reserved":false,"is_disabled":false,"rental_uris":{"android":"levelo://app?vid=cc044a5d-6424-486c-a90d-3884464a6b29","ios":"levelo://app?vid=cc044a5d-6424-486c-a90d-3884464a6b29"},"vehicle_type_id":"4","last_reported":1781213882,"current_range_meters":3600,"station_id":"","pricing_plan_id":"cebpf4jnsgd1na2vs0mg"},{"bike_id":"4ac9e88b-c671-4557-8838-fe3557509874","system_id":"levelo_inurba_marseille","lat":43.24081,"lon":5.37748,"is_reserved":false,"is_disabled":true,"rental_uris":{"android":"levelo://app?vid=4ac9e88b-c671-4557-8838-fe3557509874","ios":"levelo://app?vid=4ac9e88b-c671-4557-8838-fe3557509874"},"vehicle_type_id":"4","last_reported":1781213882,"current_range_meters":3600,"station_id":"ce4bhnp2rcd13ifvqgvg","pricing_plan_id":"cebpf4jnsgd1na2vs0mg"},{"bike_id":"fa8687c9-0246-4a50-a77f-6e17350d19b9","system_id":"levelo_inurba_marseille","lat":43.25098,"lon":5.40337,"is_reserved":false,"is_disabled":false,"rental_uris":{"android":"levelo://app?vid=fa8687c9-0246-4a50-a77f-6e17350d19b9","ios":"levelo://app?vid=fa8687c9-0246-4a50-a77f-6e17350d19b9"},"vehicle_type_id":"4","last_reported":1781213882,"current_range_meters":3600,"station_id":"ce4bhlh2rcd13ifvqgig","pricing_plan_id":"cebpf4jnsgd1na2vs0mg"},{"bike_id":"845a3784-b288-41b3-8cc0-32d8dd65a7d5","system_id":"levelo_inurba_marseille","lat":43.29485,"lon":5.4331,"is_reserved":false,"is_disabled":false,"rental_uris":{"android":"levelo://app?vid=845a3784-b288-41b3-8cc0-32d8dd65a7d5","ios":"levelo://app?vid=845a3784-b288-41b3-8cc0-32d8dd65a7d5"},"vehicle_type_id":"4","last_reported":1781213882,"current_range_meters":3600,"station_id":"st_d3j5ugp08ojc73fj9d10","pricing_plan_id":"cebpf4jnsgd1na2vs0mg"},{"bike_id":"e1c6c299-9da3-4fb8-8020-b461c214840d","system_id":"levelo_inurba_marseille","lat":43.31945,"lon":5.39016,"is_reserved":false,"is_disabled":false,"rental_uris":{"android":"levelo://app?vid=e1c6c299-9da3-4fb8-8020-b461c214840d","ios":"levelo://app?vid=e1c6c299-9da3-4fb8-8020-b461c214840d"},"vehicle_type_id":"4","last_reported":1781213882,"current_range_meters":3600,"station_id":"","pricing_plan_id":"cebpf4jnsgd1na2vs0mg"},{"bike_id":"627383c3-1ca4-4292-a0f0-c21bf7584678","system_id":"levelo_inurba_marseille","lat":43.28715,"lon":5.42721,"is_reserved":false,"is_disabled":false,"rental_uris":{"android":"levelo://app?vid=627383c3-1ca4-4292-a0f0-c21bf7584678","ios":"levelo://app?vid=627383c3-1ca4-4292-a0f0-c21bf7584678"},"vehicle_type_id":"4","last_reported":1781213882,"current_range_meters":3600,"station_id":"","pricing_plan_id":"cebpf4jnsgd1na2vs0mg"},{"bike_id":"e1c6b1e8-b0de-43ea-92d4-e0c13058b35e","system_id":"levelo_inurba_marseille","lat":43.25495,"lon":5.37651,"is_reserved":false,"is_disabled":false,"rental_uris":{"android":"levelo://app?vid=e1c6b1e8-b0de-43ea-92d4-e0c13058b35e","ios":"levelo://app?vid=e1c6b1e8-b0de-43ea-92d4-e0c13058b35e"},"vehicle_type_id":"4","last_reported":1781213882,"current_range_meters":3600,"station_id":"ce4bhh12rcd13ifvqff0","pricing_plan_id":"cebpf4jnsgd1na2vs0mg"},{"bike_id":"878cf148-cdf3-479a-82b7-cdbba697cd71","system_id":"levelo_inurba_marseille","lat":43.313171,"lon":5.367255,"is_reserved":false,"is_disabled":false,"rental_uris":{"android":"levelo://app?vid=878cf148-cdf3-479a-82b7-cdbba697cd71","ios":"levelo://app?vid=878cf148-cdf3-479a-82b7-cdbba697cd71"},"vehicle_type_id":"4","last_reported":1781213882,"current_range_meters":3600,"station_id":"ce4bgr92rcd13ifvqc6g","pricing_plan_id":"cebpf4jnsgd1na2vs0mg"},{"bike_id":"1140d017-c3b9-43dd-ba73-6e5a45e2fcc8","system_id":"levelo_inurba_marseille","lat":43.3199,"lon":5.38128,"is_reserved":false,"is_disabled":false,"rental_uris":{"android":"levelo://app?vid=1140d017-c3b9-43dd-ba73-6e5a45e2fcc8","ios":"levelo://app?vid=1140d017-c3b9-43dd-ba73-6e5a45e2fcc8"},"vehicle_type_id":"4","last_reported":1781213882,"current_range_meters":3600,"station_id":"ce4bhr12rcd13ifvqhpg","pricing_plan_id":"cebpf4jnsgd1na2vs0mg"},{"bike_id":"14b4b371-8f26-4cf1-95b4-880cc3bc4611","system_id":"levelo_inurba_marseille","lat":43.29293,"lon":5.37172,"is_reserved":false,"is_disabled":true,"rental_uris":{"android":"levelo://app?vid=14b4b371-8f26-4cf1-95b4-880cc3bc4611","ios":"levelo://app?vid=14b4b371-8f26-4cf1-95b4-880cc3bc4611"},"vehicle_type_id":"4","last_reported":1781213882,"current_range_meters":3600,"station_id":"ce4bgh92rcd13ifvqb40","pricing_plan_id":"cebpf4jnsgd1na2vs0mg"},{"bike_id":"f8671556-b7c4-4a04-86c9-422f70a6fa84","system_id":"levelo_inurba_marseille","lat":43.33475,"lon":5.42035,"is_reserved":false,"is_disabled":false,"rental_uris":{"android":"levelo://app?vid=f8671556-b7c4-4a04-86c9-422f70a6fa84","ios":"levelo://app?vid=f8671556-b7c4-4a04-86c9-422f70a6fa84"},"vehicle_type_id":"4","last_reported":1781213882,"current_range_meters":3600,"station_id":"","pricing_plan_id":"cebpf4jnsgd1na2vs0mg"},{"bike_id":"c5ab485f-9d17-4442-8a02-4fd199bef794","system_id":"levelo_inurba_marseille","lat":43.24945,"lon":5.40497,"is_reserved":false,"is_disabled":false,"rental_uris":{"android":"levelo://app?vid=c5ab485f-9d17-4442-8a02-4fd199bef794","ios":"levelo://app?vid=c5ab485f-9d17-4442-8a02-4fd199bef794"},"vehicle_type_id":"4","last_reported":1781213882,"current_range_meters":3600,"station_id":"st_d2ngiaodas8pm72gd1h0","pricing_plan_id":"cebpf4jnsgd1na2vs0mg"},{"bike_id":"bbbe15c9-1226-4475-8ea9-4a918d5431c2","system_id":"levelo_inurba_marseille","lat":43.25344,"lon":5.42174,"is_reserved":false,"is_disabled":false,"rental_uris":{"android":"levelo://app?vid=bbbe15c9-1226-4475-8ea9-4a918d5431c2","ios":"levelo://app?vid=bbbe15c9-1226-4475-8ea9-4a918d5431c2"},"vehicle_type_id":"4","last_reported":1781213882,"current_range_meters":4000,"station_id":"st_d2m65c5bi1j21697t3ng","pricing_plan_id":"cebpf4jnsgd1na2vs0mg"},{"bike_id":"858bc1f1-e9df-4cf9-9233-92d9caba6756","system_id":"levelo_inurba_marseille","lat":43.26544,"lon":5.37294,"is_reserved":false,"is_disabled":true,"rental_uris":{"android":"levelo://app?vid=858bc1f1-e9df-4cf9-9233-92d9caba6756","ios":"levelo://app?vid=858bc1f1-e9df-4cf9-9233-92d9caba6756"},"vehicle_type_id":"4","last_reported":1781213882,"current_range_meters":4000,"station_id":"ce4bhg12rcd13ifvqf70","pricing_plan_id":"cebpf4jnsgd1na2vs0mg"},{"bike_id":"720b7a81-8ca4-4e49-b6a1-61c4c62a08f7","system_id":"levelo_inurba_marseille","lat":43.24791,"lon":5.3745,"is_reserved":false,"is_disabled":true,"rental_uris":{"android":"levelo://app?vid=720b7a81-8ca4-4e49-b6a1-61c4c62a08f7","ios":"levelo://app?vid=720b7a81-8ca4-4e49-b6a1-61c4c62a08f7"},"vehicle_type_id":"4","last_reported":1781213882,"current_range_meters":4000,"station_id":"ce4bhgh2rcd13ifvqfb0","pricing_plan_id":"cebpf4jnsgd1na2vs0mg"},{"bike_id":"f27116c3-c911-42bc-a826-c18f18ea8abc","system_id":"levelo_inurba_marseille","lat":43.29905,"lon":5.38147,"is_reserved":false,"is_disabled":false,"rental_uris":{"android":"levelo://app?vid=f27116c3-c911-42bc-a826-c18f18ea8abc","ios":"levelo://app?vid=f27116c3-c911-42bc-a826-c18f18ea8abc"},"vehicle_type_id":"4","last_reported":1781213882,"current_range_meters":4000,"station_id":"ce4bgj12rcd13ifvqbc0","pricing_plan_id":"cebpf4jnsgd1na2vs0mg"},{"bike_id":"31a4ce44-6565-47b1-9b14-cb341a9db1b6","system_id":"levelo_inurba_marseille","lat":43.30796,"lon":5.38156,"is_reserved":false,"is_disabled":false,"rental_uris":{"android":"levelo://app?vid=31a4ce44-6565-47b1-9b14-cb341a9db1b6","ios":"levelo://app?vid=31a4ce44-6565-47b1-9b14-cb341a9db1b6"},"vehicle_type_id":"4","last_reported":1781213882,"current_range_meters":4000,"station_id":"ce4bgt12rcd13ifvqce0","pricing_plan_id":"cebpf4jnsgd1na2vs0mg"},{"bike_id":"6ba15c2b-70bf-4892-8b14-66870b37121b","system_id":"levelo_inurba_marseille","lat":43.29764,"lon":5.37116,"is_reserved":false,"is_disabled":true,"rental_uris":{"android":"levelo://app?vid=6ba15c2b-70bf-4892-8b14-66870b37121b","ios":"levelo://app?vid=6ba15c2b-70bf-4892-8b14-66870b37121b"},"vehicle_type_id":"4","last_reported":1781213882,"current_range_meters":4000,"station_id":"ce4bgop2rcd13ifvqc1g","pricing_plan_id":"cebpf4jnsgd1na2vs0mg"},{"bike_id":"6c96fca7-4a83-479d-ac62-b341b0e9aa74","system_id":"levelo_inurba_marseille","lat":43.30436,"lon":5.38889,"is_reserved":false,"is_disabled":false,"rental_uris":{"android":"levelo://app?vid=6c96fca7-4a83-479d-ac62-b341b0e9aa74","ios":"levelo://app?vid=6c96fca7-4a83-479d-ac62-b341b0e9aa74"},"vehicle_type_id":"4","last_reported":1781213882,"current_range_meters":4000,"station_id":"ce4bgk12rcd13ifvqbi0","pricing_plan_id":"cebpf4jnsgd1na2vs0mg"},{"bike_id":"18ef74f6-f248-4a2c-8cf7-9e3e238771e6","system_id":"levelo_inurba_marseille","lat":43.28608,"lon":5.35146,"is_reserved":false,"is_disabled":false,"rental_uris":{"android":"levelo://app?vid=18ef74f6-f248-4a2c-8cf7-9e3e238771e6","ios":"levelo://app?vid=18ef74f6-f248-4a2c-8cf7-9e3e238771e6"},"vehicle_type_id":"4","last_reported":1781213882,"current_range_meters":4000,"station_id":"ce4bhch2rcd13ifvqeug","pricing_plan_id":"cebpf4jnsgd1na2vs0mg"},{"bike_id":"8b476511-21d9-4a0f-a1a0-2547d4284bd0","system_id":"levelo_inurba_marseille","lat":43.28736,"lon":5.36061,"is_reserved":false,"is_disabled":false,"rental_uris":{"android":"levelo://app?vid=8b476511-21d9-4a0f-a1a0-2547d4284bd0","ios":"levelo://app?vid=8b476511-21d9-4a0f-a1a0-2547d4284bd0"},"vehicle_type_id":"4","last_reported":1781213882,"current_range_meters":4000,"station_id":"cki0cbj6b192h4jlfktg","pricing_plan_id":"cebpf4jnsgd1na2vs0mg"},{"bike_id":"36a52cc1-4b60-4aac-8384-5286b63a149c","system_id":"levelo_inurba_marseille","lat":43.3212,"lon":5.36763,"is_reserved":false,"is_disabled":false,"rental_uris":{"android":"levelo://app?vid=36a52cc1-4b60-4aac-8384-5286b63a149c","ios":"levelo://app?vid=36a52cc1-4b60-4aac-8384-5286b63a149c"},"vehicle_type_id":"4","last_reported":1781213882,"current_range_meters":4000,"station_id":"ce4bhrh2rcd13ifvqhug","pricing_plan_id":"cebpf4jnsgd1na2vs0mg"},{"bike_id":"a4b00031-ee09-4aec-8eb7-94d1603e3e96","system_id":"levelo_inurba_marseille","lat":43.32088,"lon":5.36769,"is_reserved":false,"is_disabled":false,"rental_uris":{"android":"levelo://app?vid=a4b00031-ee09-4aec-8eb7-94d1603e3e96","ios":"levelo://app?vid=a4b00031-ee09-4aec-8eb7-94d1603e3e96"},"vehicle_type_id":"4","last_reported":1781213882,"current_range_meters":4000,"station_id":"ce4bhrh2rcd13ifvqhug","pricing_plan_id":"cebpf4jnsgd1na2vs0mg"},{"bike_id":"3a75f0d0-f871-460b-9645-7adb90b5c1ca","system_id":"levelo_inurba_marseille","lat":43.25042,"lon":5.40374,"is_reserved":false,"is_disabled":true,"rental_uris":{"android":"levelo://app?vid=3a75f0d0-f871-460b-9645-7adb90b5c1ca","ios":"levelo://app?vid=3a75f0d0-f871-460b-9645-7adb90b5c1ca"},"vehicle_type_id":"4","last_reported":1781213882,"current_range_meters":4000,"station_id":"","pricing_plan_id":"cebpf4jnsgd1na2vs0mg"},{"bike_id":"bc097639-96a2-4262-943a-dda0a941d0ce","system_id":"levelo_inurba_marseille","lat":43.28698,"lon":5.39975,"is_reserved":false,"is_disabled":false,"rental_uris":{"android":"levelo://app?vid=bc097639-96a2-4262-943a-dda0a941d0ce","ios":"levelo://app?vid=bc097639-96a2-4262-943a-dda0a941d0ce"},"vehicle_type_id":"4","last_reported":1781213882,"current_range_meters":4000,"station_id":"ce4bho92rcd13ifvqh3g","pricing_plan_id":"cebpf4jnsgd1na2vs0mg"},{"bike_id":"10735159-3397-4800-83f9-6dea2cbec6ca","system_id":"levelo_inurba_marseille","lat":43.3353,"lon":5.37447,"is_reserved":false,"is_disabled":false,"rental_uris":{"android":"levelo://app?vid=10735159-3397-4800-83f9-6dea2cbec6ca","ios":"levelo://app?vid=10735159-3397-4800-83f9-6dea2cbec6ca"},"vehicle_type_id":"4","last_reported":1781213882,"current_range_meters":4000,"station_id":"st_d46tts09ee8s73dlu43g","pricing_plan_id":"cebpf4jnsgd1na2vs0mg"},{"bike_id":"9167f767-0d7d-4a75-a2ed-c3bb3be42588","system_id":"levelo_inurba_marseille","lat":43.3136,"lon":5.38492,"is_reserved":false,"is_disabled":false,"rental_uris":{"android":"levelo://app?vid=9167f767-0d7d-4a75-a2ed-c3bb3be42588","ios":"levelo://app?vid=9167f767-0d7d-4a75-a2ed-c3bb3be42588"},"vehicle_type_id":"4","last_reported":1781213882,"current_range_meters":4000,"station_id":"ce4bgt92rcd13ifvqcf0","pricing_plan_id":"cebpf4jnsgd1na2vs0mg"},{"bike_id":"80523438-5de1-4acb-aa7c-07ea88be4dae","system_id":"levelo_inurba_marseille","lat":43.31302,"lon":5.40248,"is_reserved":false,"is_disabled":false,"rental_uris":{"android":"levelo://app?vid=80523438-5de1-4acb-aa7c-07ea88be4dae","ios":"levelo://app?vid=80523438-5de1-4acb-aa7c-07ea88be4dae"},"vehicle_type_id":"4","last_reported":1781213882,"current_range_meters":4000,"station_id":"","pricing_plan_id":"cebpf4jnsgd1na2vs0mg"},{"bike_id":"9caa4f18-c443-48c6-a3d1-f58fac60bb1f","system_id":"levelo_inurba_marseille","lat":43.26083,"lon":5.3748,"is_reserved":false,"is_disabled":false,"rental_uris":{"android":"levelo://app?vid=9caa4f18-c443-48c6-a3d1-f58fac60bb1f","ios":"levelo://app?vid=9caa4f18-c443-48c6-a3d1-f58fac60bb1f"},"vehicle_type_id":"4","last_reported":1781213882,"current_range_meters":4000,"station_id":"","pricing_plan_id":"cebpf4jnsgd1na2vs0mg"},{"bike_id":"4df93a2d-aa6a-4b31-93fb-7fa77fa8a80d","system_id":"levelo_inurba_marseille","lat":43.32161,"lon":5.43969,"is_reserved":false,"is_disabled":false,"rental_uris":{"android":"levelo://app?vid=4df93a2d-aa6a-4b31-93fb-7fa77fa8a80d","ios":"levelo://app?vid=4df93a2d-aa6a-4b31-93fb-7fa77fa8a80d"},"vehicle_type_id":"4","last_reported":1781213882,"current_range_meters":4000,"station_id":"","pricing_plan_id":"cebpf4jnsgd1na2vs0mg"},{"bike_id":"0bc6bb46-b582-495a-8c4b-d71a64844d3d","system_id":"levelo_inurba_marseille","lat":43.28151,"lon":5.4264,"is_reserved":false,"is_disabled":false,"rental_uris":{"android":"levelo://app?vid=0bc6bb46-b582-495a-8c4b-d71a64844d3d","ios":"levelo://app?vid=0bc6bb46-b582-495a-8c4b-d71a64844d3d"},"vehicle_type_id":"4","last_reported":1781213882,"current_range_meters":4400,"station_id":"ce4bhnh2rcd13ifvqgug","pricing_plan_id":"cebpf4jnsgd1na2vs0mg"},{"bike_id":"1ce90460-dbf8-4efb-b450-ae204565a0ce","system_id":"levelo_inurba_marseille","lat":43.30418,"lon":5.4071,"is_reserved":false,"is_disabled":false,"rental_uris":{"android":"levelo://app?vid=1ce90460-dbf8-4efb-b450-ae204565a0ce","ios":"levelo://app?vid=1ce90460-dbf8-4efb-b450-ae204565a0ce"},"vehicle_type_id":"4","last_reported":1781213882,"current_range_meters":4400,"station_id":"","pricing_plan_id":"cebpf4jnsgd1na2vs0mg"},{"bike_id":"a1c015e9-3e11-46f0-b642-1fa3036dfa73","system_id":"levelo_inurba_marseille","lat":43.33162,"lon":5.37681,"is_reserved":false,"is_disabled":false,"rental_uris":{"android":"levelo://app?vid=a1c015e9-3e11-46f0-b642-1fa3036dfa73","ios":"levelo://app?vid=a1c015e9-3e11-46f0-b642-1fa3036dfa73"},"vehicle_type_id":"4","last_reported":1781213882,"current_range_meters":4400,"station_id":"st_d46cu089ee8s73dldbu0","pricing_plan_id":"cebpf4jnsgd1na2vs0mg"},{"bike_id":"4feb760e-d727-4e02-99e8-5b8855ed78e4","system_id":"levelo_inurba_marseille","lat":43.290403,"lon":5.399559,"is_reserved":false,"is_disabled":false,"rental_uris":{"android":"levelo://app?vid=4feb760e-d727-4e02-99e8-5b8855ed78e4","ios":"levelo://app?vid=4feb760e-d727-4e02-99e8-5b8855ed78e4"},"vehicle_type_id":"4","last_reported":1781213882,"current_range_meters":4400,"station_id":"ce4bh392rcd13ifvqdm0","pricing_plan_id":"cebpf4jnsgd1na2vs0mg"},{"bike_id":"0082fcf3-e54c-458b-b6dc-d23325d3f8a2","system_id":"levelo_inurba_marseille","lat":43.28724,"lon":5.36079,"is_reserved":false,"is_disabled":false,"rental_uris":{"android":"levelo://app?vid=0082fcf3-e54c-458b-b6dc-d23325d3f8a2","ios":"levelo://app?vid=0082fcf3-e54c-458b-b6dc-d23325d3f8a2"},"vehicle_type_id":"4","last_reported":1781213882,"current_range_meters":4400,"station_id":"cki0cbj6b192h4jlfktg","pricing_plan_id":"cebpf4jnsgd1na2vs0mg"},{"bike_id":"75b1fd4f-107b-4ebf-99ad-eeeaef9183aa","system_id":"levelo_inurba_marseille","lat":43.26209,"lon":5.37451,"is_reserved":false,"is_disabled":false,"rental_uris":{"android":"levelo://app?vid=75b1fd4f-107b-4ebf-99ad-eeeaef9183aa","ios":"levelo://app?vid=75b1fd4f-107b-4ebf-99ad-eeeaef9183aa"},"vehicle_type_id":"4","last_reported":1781213882,"current_range_meters":4400,"station_id":"ce4bhgp2rcd13ifvqfc0","pricing_plan_id":"cebpf4jnsgd1na2vs0mg"},{"bike_id":"18e2f1af-31a9-439a-92d2-4bf5225eada2","system_id":"levelo_inurba_marseille","lat":43.29275,"lon":5.36858,"is_reserved":false,"is_disabled":false,"rental_uris":{"android":"levelo://app?vid=18e2f1af-31a9-439a-92d2-4bf5225eada2","ios":"levelo://app?vid=18e2f1af-31a9-439a-92d2-4bf5225eada2"},"vehicle_type_id":"4","last_reported":1781213882,"current_range_meters":4400,"station_id":"ce4bhbp2rcd13ifvqesg","pricing_plan_id":"cebpf4jnsgd1na2vs0mg"},{"bike_id":"9845ecd6-c2e1-44c8-9b95-22ed5860c660","system_id":"levelo_inurba_marseille","lat":43.2316,"lon":5.40495,"is_reserved":false,"is_disabled":false,"rental_uris":{"android":"levelo://app?vid=9845ecd6-c2e1-44c8-9b95-22ed5860c660","ios":"levelo://app?vid=9845ecd6-c2e1-44c8-9b95-22ed5860c660"},"vehicle_type_id":"4","last_reported":1781213882,"current_range_meters":4400,"station_id":"","pricing_plan_id":"cebpf4jnsgd1na2vs0mg"},{"bike_id":"a00bd01e-46a9-4603-be87-6d43ca277b80","system_id":"levelo_inurba_marseille","lat":43.30639,"lon":5.40101,"is_reserved":false,"is_disabled":false,"rental_uris":{"android":"levelo://app?vid=a00bd01e-46a9-4603-be87-6d43ca277b80","ios":"levelo://app?vid=a00bd01e-46a9-4603-be87-6d43ca277b80"},"vehicle_type_id":"4","last_reported":1781213882,"current_range_meters":4400,"station_id":"ce4bh112rcd13ifvqda0","pricing_plan_id":"cebpf4jnsgd1na2vs0mg"},{"bike_id":"4c0a8f24-ecc0-4345-b630-46ca6846bd78","system_id":"levelo_inurba_marseille","lat":43.29465,"lon":5.38435,"is_reserved":false,"is_disabled":false,"rental_uris":{"android":"levelo://app?vid=4c0a8f24-ecc0-4345-b630-46ca6846bd78","ios":"levelo://app?vid=4c0a8f24-ecc0-4345-b630-46ca6846bd78"},"vehicle_type_id":"4","last_reported":1781213882,"current_range_meters":4400,"station_id":"","pricing_plan_id":"cebpf4jnsgd1na2vs0mg"},{"bike_id":"f0d88a7e-8639-4c59-8c2b-72991fbbec8b","system_id":"levelo_inurba_marseille","lat":43.24807,"lon":5.37451,"is_reserved":false,"is_disabled":false,"rental_uris":{"android":"levelo://app?vid=f0d88a7e-8639-4c59-8c2b-72991fbbec8b","ios":"levelo://app?vid=f0d88a7e-8639-4c59-8c2b-72991fbbec8b"},"vehicle_type_id":"4","last_reported":1781213882,"current_range_meters":4400,"station_id":"ce4bhgh2rcd13ifvqfb0","pricing_plan_id":"cebpf4jnsgd1na2vs0mg"},{"bike_id":"505fdc5d-a145-478c-9e7b-b68c4f88c063","system_id":"levelo_inurba_marseille","lat":43.283504,"lon":5.380998,"is_reserved":false,"is_disabled":false,"rental_uris":{"android":"levelo://app?vid=505fdc5d-a145-478c-9e7b-b68c4f88c063","ios":"levelo://app?vid=505fdc5d-a145-478c-9e7b-b68c4f88c063"},"vehicle_type_id":"4","last_reported":1781213882,"current_range_meters":4400,"station_id":"ce4bh412rcd13ifvqdr0","pricing_plan_id":"cebpf4jnsgd1na2vs0mg"},{"bike_id":"2342907d-28d7-441e-a79f-1a070462f8e5","system_id":"levelo_inurba_marseille","lat":43.28912,"lon":5.39652,"is_reserved":false,"is_disabled":false,"rental_uris":{"android":"levelo://app?vid=2342907d-28d7-441e-a79f-1a070462f8e5","ios":"levelo://app?vid=2342907d-28d7-441e-a79f-1a070462f8e5"},"vehicle_type_id":"4","last_reported":1781213882,"current_range_meters":4400,"station_id":"ce4bh3h2rcd13ifvqdn0","pricing_plan_id":"cebpf4jnsgd1na2vs0mg"},{"bike_id":"954e3355-5fd3-400f-9041-6432c39b51f3","system_id":"levelo_inurba_marseille","lat":43.27986,"lon":5.41661,"is_reserved":false,"is_disabled":false,"rental_uris":{"android":"levelo://app?vid=954e3355-5fd3-400f-9041-6432c39b51f3","ios":"levelo://app?vid=954e3355-5fd3-400f-9041-6432c39b51f3"},"vehicle_type_id":"4","last_reported":1781213882,"current_range_meters":4400,"station_id":"ce4bho12rcd13ifvqh1g","pricing_plan_id":"cebpf4jnsgd1na2vs0mg"},{"bike_id":"80b6575a-787e-4cc1-9c47-73963fb63968","system_id":"levelo_inurba_marseille","lat":43.28616,"lon":5.35102,"is_reserved":false,"is_disabled":false,"rental_uris":{"android":"levelo://app?vid=80b6575a-787e-4cc1-9c47-73963fb63968","ios":"levelo://app?vid=80b6575a-787e-4cc1-9c47-73963fb63968"},"vehicle_type_id":"4","last_reported":1781213882,"current_range_meters":4400,"station_id":"ce4bhch2rcd13ifvqeug","pricing_plan_id":"cebpf4jnsgd1na2vs0mg"},{"bike_id":"868ceb5e-668c-4b4c-a85b-0a01567dccdc","system_id":"levelo_inurba_marseille","lat":43.27913,"lon":5.39581,"is_reserved":false,"is_disabled":false,"rental_uris":{"android":"levelo://app?vid=868ceb5e-668c-4b4c-a85b-0a01567dccdc","ios":"levelo://app?vid=868ceb5e-668c-4b4c-a85b-0a01567dccdc"},"vehicle_type_id":"4","last_reported":1781213882,"current_range_meters":4400,"station_id":"ce4bhf92rcd13ifvqf40","pricing_plan_id":"cebpf4jnsgd1na2vs0mg"},{"bike_id":"c2fd1dcf-9515-4468-8e03-d5ed5d6a02f1","system_id":"levelo_inurba_marseille","lat":43.28857,"lon":5.35859,"is_reserved":false,"is_disabled":false,"rental_uris":{"android":"levelo://app?vid=c2fd1dcf-9515-4468-8e03-d5ed5d6a02f1","ios":"levelo://app?vid=c2fd1dcf-9515-4468-8e03-d5ed5d6a02f1"},"vehicle_type_id":"4","last_reported":1781213882,"current_range_meters":4400,"station_id":"ce4bhb12rcd13ifvqem0","pricing_plan_id":"cebpf4jnsgd1na2vs0mg"},{"bike_id":"d755bfb8-ea71-43de-9781-fd71bae1486e","system_id":"levelo_inurba_marseille","lat":43.28712,"lon":5.37384,"is_reserved":false,"is_disabled":false,"rental_uris":{"android":"levelo://app?vid=d755bfb8-ea71-43de-9781-fd71bae1486e","ios":"levelo://app?vid=d755bfb8-ea71-43de-9781-fd71bae1486e"},"vehicle_type_id":"4","last_reported":1781213882,"current_range_meters":4400,"station_id":"ce4bh3p2rcd13ifvqdq0","pricing_plan_id":"cebpf4jnsgd1na2vs0mg"},{"bike_id":"31d391cf-deb0-4bdc-8122-c7bce88320de","system_id":"levelo_inurba_marseille","lat":43.28556,"lon":5.38448,"is_reserved":false,"is_disabled":false,"rental_uris":{"android":"levelo://app?vid=31d391cf-deb0-4bdc-8122-c7bce88320de","ios":"levelo://app?vid=31d391cf-deb0-4bdc-8122-c7bce88320de"},"vehicle_type_id":"4","last_reported":1781213882,"current_range_meters":4800,"station_id":"","pricing_plan_id":"cebpf4jnsgd1na2vs0mg"},{"bike_id":"06b0e4c9-7d0e-4204-99ac-ea2c0040b0a5","system_id":"levelo_inurba_marseille","lat":43.2795,"lon":5.41043,"is_reserved":false,"is_disabled":false,"rental_uris":{"android":"levelo://app?vid=06b0e4c9-7d0e-4204-99ac-ea2c0040b0a5","ios":"levelo://app?vid=06b0e4c9-7d0e-4204-99ac-ea2c0040b0a5"},"vehicle_type_id":"4","last_reported":1781213882,"current_range_meters":4800,"station_id":"ce4bhnp2rcd13ifvqh0g","pricing_plan_id":"cebpf4jnsgd1na2vs0mg"},{"bike_id":"e2efc7c7-a347-4a56-a140-e9f45c94d1eb","system_id":"levelo_inurba_marseille","lat":43.28465,"lon":5.38534,"is_reserved":false,"is_disabled":true,"rental_uris":{"android":"levelo://app?vid=e2efc7c7-a347-4a56-a140-e9f45c94d1eb","ios":"levelo://app?vid=e2efc7c7-a347-4a56-a140-e9f45c94d1eb"},"vehicle_type_id":"4","last_reported":1781213882,"current_range_meters":4800,"station_id":"ce4bh8p2rcd13ifvqeb0","pricing_plan_id":"cebpf4jnsgd1na2vs0mg"},{"bike_id":"428c3e3c-12af-4f39-baa9-d9e5d7e21c93","system_id":"levelo_inurba_marseille","lat":43.28972,"lon":5.37824,"is_reserved":false,"is_disabled":false,"rental_uris":{"android":"levelo://app?vid=428c3e3c-12af-4f39-baa9-d9e5d7e21c93","ios":"levelo://app?vid=428c3e3c-12af-4f39-baa9-d9e5d7e21c93"},"vehicle_type_id":"4","last_reported":1781213882,"current_range_meters":4800,"station_id":"ce4bh9p2rcd13ifvqed0","pricing_plan_id":"cebpf4jnsgd1na2vs0mg"},{"bike_id":"0491d73d-4c56-4676-b871-ad2fd1ba025b","system_id":"levelo_inurba_marseille","lat":43.25335,"lon":5.42176,"is_reserved":false,"is_disabled":false,"rental_uris":{"android":"levelo://app?vid=0491d73d-4c56-4676-b871-ad2fd1ba025b","ios":"levelo://app?vid=0491d73d-4c56-4676-b871-ad2fd1ba025b"},"vehicle_type_id":"4","last_reported":1781213882,"current_range_meters":4800,"station_id":"st_d2m65c5bi1j21697t3ng","pricing_plan_id":"cebpf4jnsgd1na2vs0mg"},{"bike_id":"1d00e877-a9f8-4a55-8de8-7f231d49d2e1","system_id":"levelo_inurba_marseille","lat":43.28571,"lon":5.39504,"is_reserved":false,"is_disabled":true,"rental_uris":{"android":"levelo://app?vid=1d00e877-a9f8-4a55-8de8-7f231d49d2e1","ios":"levelo://app?vid=1d00e877-a9f8-4a55-8de8-7f231d49d2e1"},"vehicle_type_id":"4","last_reported":1781213882,"current_range_meters":4800,"station_id":"ce4bh292rcd13ifvqdg0","pricing_plan_id":"cebpf4jnsgd1na2vs0mg"},{"bike_id":"db878d09-78f8-433c-b1c2-03f523409cfa","system_id":"levelo_inurba_marseille","lat":43.27884,"lon":5.39626,"is_reserved":false,"is_disabled":false,"rental_uris":{"android":"levelo://app?vid=db878d09-78f8-433c-b1c2-03f523409cfa","ios":"levelo://app?vid=db878d09-78f8-433c-b1c2-03f523409cfa"},"vehicle_type_id":"4","last_reported":1781213882,"current_range_meters":4800,"station_id":"","pricing_plan_id":"cebpf4jnsgd1na2vs0mg"},{"bike_id":"a9c6ea0e-e582-4254-8783-076f5e9d8d41","system_id":"levelo_inurba_marseille","lat":43.28838,"lon":5.39345,"is_reserved":false,"is_disabled":true,"rental_uris":{"android":"levelo://app?vid=a9c6ea0e-e582-4254-8783-076f5e9d8d41","ios":"levelo://app?vid=a9c6ea0e-e582-4254-8783-076f5e9d8d41"},"vehicle_type_id":"4","last_reported":1781213882,"current_range_meters":4800,"station_id":"ce4bh2p2rcd13ifvqdi0","pricing_plan_id":"cebpf4jnsgd1na2vs0mg"},{"bike_id":"1310b6fd-c32c-4655-baa4-e66a23058acd","system_id":"levelo_inurba_marseille","lat":43.31043,"lon":5.37161,"is_reserved":false,"is_disabled":false,"rental_uris":{"android":"levelo://app?vid=1310b6fd-c32c-4655-baa4-e66a23058acd","ios":"levelo://app?vid=1310b6fd-c32c-4655-baa4-e66a23058acd"},"vehicle_type_id":"4","last_reported":1781213882,"current_range_meters":4800,"station_id":"st_d4kl2rp97mjs73e7tdfg","pricing_plan_id":"cebpf4jnsgd1na2vs0mg"},{"bike_id":"becf7538-a49a-47b2-898c-da691a16b228","system_id":"levelo_inurba_marseille","lat":43.29039,"lon":5.35928,"is_reserved":false,"is_disabled":true,"rental_uris":{"android":"levelo://app?vid=becf7538-a49a-47b2-898c-da691a16b228","ios":"levelo://app?vid=becf7538-a49a-47b2-898c-da691a16b228"},"vehicle_type_id":"4","last_reported":1781213882,"current_range_meters":4800,"station_id":"ce4bha92rcd13ifvqeg0","pricing_plan_id":"cebpf4jnsgd1na2vs0mg"},{"bike_id":"7559c9b8-1654-435b-8728-35bdc7d39a8e","system_id":"levelo_inurba_marseille","lat":43.26198,"lon":5.37444,"is_reserved":false,"is_disabled":false,"rental_uris":{"android":"levelo://app?vid=7559c9b8-1654-435b-8728-35bdc7d39a8e","ios":"levelo://app?vid=7559c9b8-1654-435b-8728-35bdc7d39a8e"},"vehicle_type_id":"4","last_reported":1781213882,"current_range_meters":4800,"station_id":"ce4bhgp2rcd13ifvqfc0","pricing_plan_id":"cebpf4jnsgd1na2vs0mg"},{"bike_id":"70e7d95b-20b7-4516-9d2e-344330fb2abc","system_id":"levelo_inurba_marseille","lat":43.3064,"lon":5.40098,"is_reserved":false,"is_disabled":false,"rental_uris":{"android":"levelo://app?vid=70e7d95b-20b7-4516-9d2e-344330fb2abc","ios":"levelo://app?vid=70e7d95b-20b7-4516-9d2e-344330fb2abc"},"vehicle_type_id":"4","last_reported":1781213882,"current_range_meters":4800,"station_id":"","pricing_plan_id":"cebpf4jnsgd1na2vs0mg"},{"bike_id":"4343f291-38b8-47e7-a883-039a0fd0f77e","system_id":"levelo_inurba_marseille","lat":43.32091,"lon":5.36756,"is_reserved":false,"is_disabled":false,"rental_uris":{"android":"levelo://app?vid=4343f291-38b8-47e7-a883-039a0fd0f77e","ios":"levelo://app?vid=4343f291-38b8-47e7-a883-039a0fd0f77e"},"vehicle_type_id":"4","last_reported":1781213882,"current_range_meters":4800,"station_id":"ce4bhrh2rcd13ifvqhug","pricing_plan_id":"cebpf4jnsgd1na2vs0mg"},{"bike_id":"8997a156-ad86-495d-8de9-9792ff07602b","system_id":"levelo_inurba_marseille","lat":43.288577,"lon":5.358642,"is_reserved":false,"is_disabled":false,"rental_uris":{"android":"levelo://app?vid=8997a156-ad86-495d-8de9-9792ff07602b","ios":"levelo://app?vid=8997a156-ad86-495d-8de9-9792ff07602b"},"vehicle_type_id":"4","last_reported":1781213882,"current_range_meters":4800,"station_id":"ce4bhb12rcd13ifvqem0","pricing_plan_id":"cebpf4jnsgd1na2vs0mg"},{"bike_id":"76f5dd5d-ca31-4b0e-8dbb-b6ce3553ebe9","system_id":"levelo_inurba_marseille","lat":43.26063,"lon":5.39371,"is_reserved":false,"is_disabled":false,"rental_uris":{"android":"levelo://app?vid=76f5dd5d-ca31-4b0e-8dbb-b6ce3553ebe9","ios":"levelo://app?vid=76f5dd5d-ca31-4b0e-8dbb-b6ce3553ebe9"},"vehicle_type_id":"4","last_reported":1781213882,"current_range_meters":4800,"station_id":"ce4bhh92rcd13ifvqfj0","pricing_plan_id":"cebpf4jnsgd1na2vs0mg"},{"bike_id":"a5738529-d6fe-4d63-b356-4ef3c5027584","system_id":"levelo_inurba_marseille","lat":43.24958,"lon":5.39006,"is_reserved":false,"is_disabled":false,"rental_uris":{"android":"levelo://app?vid=a5738529-d6fe-4d63-b356-4ef3c5027584","ios":"levelo://app?vid=a5738529-d6fe-4d63-b356-4ef3c5027584"},"vehicle_type_id":"4","last_reported":1781213882,"current_range_meters":4800,"station_id":"","pricing_plan_id":"cebpf4jnsgd1na2vs0mg"},{"bike_id":"9c950017-90b1-4f2a-8b80-26f2a3bd699c","system_id":"levelo_inurba_marseille","lat":43.27215,"lon":5.41025,"is_reserved":false,"is_disabled":false,"rental_uris":{"android":"levelo://app?vid=9c950017-90b1-4f2a-8b80-26f2a3bd699c","ios":"levelo://app?vid=9c950017-90b1-4f2a-8b80-26f2a3bd699c"},"vehicle_type_id":"4","last_reported":1781213882,"current_range_meters":4800,"station_id":"","pricing_plan_id":"cebpf4jnsgd1na2vs0mg"},{"bike_id":"f6bac920-035a-425f-9d43-04738b60b9e9","system_id":"levelo_inurba_marseille","lat":43.29274,"lon":5.38874,"is_reserved":false,"is_disabled":false,"rental_uris":{"android":"levelo://app?vid=f6bac920-035a-425f-9d43-04738b60b9e9","ios":"levelo://app?vid=f6bac920-035a-425f-9d43-04738b60b9e9"},"vehicle_type_id":"4","last_reported":1781213882,"current_range_meters":4800,"station_id":"","pricing_plan_id":"cebpf4jnsgd1na2vs0mg"},{"bike_id":"1a40880f-06f1-44a4-ba92-708afeb30515","system_id":"levelo_inurba_marseille","lat":43.26193,"lon":5.37456,"is_reserved":false,"is_disabled":false,"rental_uris":{"android":"levelo://app?vid=1a40880f-06f1-44a4-ba92-708afeb30515","ios":"levelo://app?vid=1a40880f-06f1-44a4-ba92-708afeb30515"},"vehicle_type_id":"4","last_reported":1781213882,"current_range_meters":5600,"station_id":"ce4bhgp2rcd13ifvqfc0","pricing_plan_id":"cebpf4jnsgd1na2vs0mg"},{"bike_id":"a49e079e-56e5-45de-9def-f5d53e5437d9","system_id":"levelo_inurba_marseille","lat":43.28059,"lon":5.35315,"is_reserved":false,"is_disabled":false,"rental_uris":{"android":"levelo://app?vid=a49e079e-56e5-45de-9def-f5d53e5437d9","ios":"levelo://app?vid=a49e079e-56e5-45de-9def-f5d53e5437d9"},"vehicle_type_id":"4","last_reported":1781213882,"current_range_meters":5600,"station_id":"","pricing_plan_id":"cebpf4jnsgd1na2vs0mg"},{"bike_id":"581eb976-4601-4f87-b521-f567cf030906","system_id":"levelo_inurba_marseille","lat":43.23933,"lon":5.43807,"is_reserved":false,"is_disabled":false,"rental_uris":{"android":"levelo://app?vid=581eb976-4601-4f87-b521-f567cf030906","ios":"levelo://app?vid=581eb976-4601-4f87-b521-f567cf030906"},"vehicle_type_id":"4","last_reported":1781213882,"current_range_meters":5600,"station_id":"","pricing_plan_id":"cebpf4jnsgd1na2vs0mg"},{"bike_id":"f42ad956-5eb1-4d9b-82e8-cfaf1aa616a2","system_id":"levelo_inurba_marseille","lat":43.26004,"lon":5.37551,"is_reserved":false,"is_disabled":false,"rental_uris":{"android":"levelo://app?vid=f42ad956-5eb1-4d9b-82e8-cfaf1aa616a2","ios":"levelo://app?vid=f42ad956-5eb1-4d9b-82e8-cfaf1aa616a2"},"vehicle_type_id":"4","last_reported":1781213882,"current_range_meters":5600,"station_id":"ce4bhgh2rcd13ifvqfa0","pricing_plan_id":"cebpf4jnsgd1na2vs0mg"},{"bike_id":"e30ddbc6-0254-49b9-9ae4-b157e53a94df","system_id":"levelo_inurba_marseille","lat":43.26191,"lon":5.37458,"is_reserved":false,"is_disabled":false,"rental_uris":{"android":"levelo://app?vid=e30ddbc6-0254-49b9-9ae4-b157e53a94df","ios":"levelo://app?vid=e30ddbc6-0254-49b9-9ae4-b157e53a94df"},"vehicle_type_id":"4","last_reported":1781213882,"current_range_meters":5600,"station_id":"ce4bhgp2rcd13ifvqfc0","pricing_plan_id":"cebpf4jnsgd1na2vs0mg"},{"bike_id":"7a2582a1-9f4e-4b77-a662-c666529e13ef","system_id":"levelo_inurba_marseille","lat":43.28058,"lon":5.34994,"is_reserved":false,"is_disabled":false,"rental_uris":{"android":"levelo://app?vid=7a2582a1-9f4e-4b77-a662-c666529e13ef","ios":"levelo://app?vid=7a2582a1-9f4e-4b77-a662-c666529e13ef"},"vehicle_type_id":"4","last_reported":1781213882,"current_range_meters":5600,"station_id":"","pricing_plan_id":"cebpf4jnsgd1na2vs0mg"},{"bike_id":"39008bdd-ec06-4509-aef5-6005174c0c03","system_id":"levelo_inurba_marseille","lat":43.2792,"lon":5.3852,"is_reserved":false,"is_disabled":false,"rental_uris":{"android":"levelo://app?vid=39008bdd-ec06-4509-aef5-6005174c0c03","ios":"levelo://app?vid=39008bdd-ec06-4509-aef5-6005174c0c03"},"vehicle_type_id":"4","last_reported":1781213882,"current_range_meters":5600,"station_id":"","pricing_plan_id":"cebpf4jnsgd1na2vs0mg"},{"bike_id":"1b19ecd1-a8c9-42eb-b4bc-6e17a49af936","system_id":"levelo_inurba_marseille","lat":43.29028,"lon":5.38652,"is_reserved":false,"is_disabled":false,"rental_uris":{"android":"levelo://app?vid=1b19ecd1-a8c9-42eb-b4bc-6e17a49af936","ios":"levelo://app?vid=1b19ecd1-a8c9-42eb-b4bc-6e17a49af936"},"vehicle_type_id":"4","last_reported":1781213882,"current_range_meters":5600,"station_id":"ce4bh4p2rcd13ifvqe0g","pricing_plan_id":"cebpf4jnsgd1na2vs0mg"},{"bike_id":"758b8575-bd39-4c4b-83ba-b708bb22f91d","system_id":"levelo_inurba_marseille","lat":43.27549,"lon":5.35948,"is_reserved":false,"is_disabled":false,"rental_uris":{"android":"levelo://app?vid=758b8575-bd39-4c4b-83ba-b708bb22f91d","ios":"levelo://app?vid=758b8575-bd39-4c4b-83ba-b708bb22f91d"},"vehicle_type_id":"4","last_reported":1781213882,"current_range_meters":5600,"station_id":"","pricing_plan_id":"cebpf4jnsgd1na2vs0mg"},{"bike_id":"eef80d5e-0c37-4e3b-a7c8-e434f4ea77e2","system_id":"levelo_inurba_marseille","lat":43.30461,"lon":5.38875,"is_reserved":false,"is_disabled":false,"rental_uris":{"android":"levelo://app?vid=eef80d5e-0c37-4e3b-a7c8-e434f4ea77e2","ios":"levelo://app?vid=eef80d5e-0c37-4e3b-a7c8-e434f4ea77e2"},"vehicle_type_id":"4","last_reported":1781213882,"current_range_meters":5600,"station_id":"ce4bgk12rcd13ifvqbi0","pricing_plan_id":"cebpf4jnsgd1na2vs0mg"},{"bike_id":"95070d6c-d830-4222-9cea-ab383f063bf8","system_id":"levelo_inurba_marseille","lat":43.29029,"lon":5.39967,"is_reserved":false,"is_disabled":false,"rental_uris":{"android":"levelo://app?vid=95070d6c-d830-4222-9cea-ab383f063bf8","ios":"levelo://app?vid=95070d6c-d830-4222-9cea-ab383f063bf8"},"vehicle_type_id":"4","last_reported":1781213882,"current_range_meters":5600,"station_id":"ce4bh392rcd13ifvqdm0","pricing_plan_id":"cebpf4jnsgd1na2vs0mg"},{"bike_id":"ee630227-b472-4a9b-99e9-bdd036978952","system_id":"levelo_inurba_marseille","lat":43.28584,"lon":5.39391,"is_reserved":false,"is_disabled":false,"rental_uris":{"android":"levelo://app?vid=ee630227-b472-4a9b-99e9-bdd036978952","ios":"levelo://app?vid=ee630227-b472-4a9b-99e9-bdd036978952"},"vehicle_type_id":"4","last_reported":1781213882,"current_range_meters":5600,"station_id":"","pricing_plan_id":"cebpf4jnsgd1na2vs0mg"},{"bike_id":"cdaffa5f-9ecb-409f-93bc-f132f49ebaf0","system_id":"levelo_inurba_marseille","lat":43.27622,"lon":5.36106,"is_reserved":false,"is_disabled":false,"rental_uris":{"android":"levelo://app?vid=cdaffa5f-9ecb-409f-93bc-f132f49ebaf0","ios":"levelo://app?vid=cdaffa5f-9ecb-409f-93bc-f132f49ebaf0"},"vehicle_type_id":"4","last_reported":1781213882,"current_range_meters":5600,"station_id":"ce4bgj92rcd13ifvqbe0","pricing_plan_id":"cebpf4jnsgd1na2vs0mg"},{"bike_id":"7c131e63-4882-494d-814c-185065bffc7c","system_id":"levelo_inurba_marseille","lat":43.28473,"lon":5.48379,"is_reserved":false,"is_disabled":false,"rental_uris":{"android":"levelo://app?vid=7c131e63-4882-494d-814c-185065bffc7c","ios":"levelo://app?vid=7c131e63-4882-494d-814c-185065bffc7c"},"vehicle_type_id":"4","last_reported":1781213882,"current_range_meters":5600,"station_id":"st_d3svhcjqgbts73a3dn0g","pricing_plan_id":"cebpf4jnsgd1na2vs0mg"},{"bike_id":"72596ebd-ea6d-4b6d-968a-acb42e5b04cf","system_id":"levelo_inurba_marseille","lat":43.29646,"lon":5.37888,"is_reserved":false,"is_disabled":false,"rental_uris":{"android":"levelo://app?vid=72596ebd-ea6d-4b6d-968a-acb42e5b04cf","ios":"levelo://app?vid=72596ebd-ea6d-4b6d-968a-acb42e5b04cf"},"vehicle_type_id":"4","last_reported":1781213882,"current_range_meters":5600,"station_id":"","pricing_plan_id":"cebpf4jnsgd1na2vs0mg"},{"bike_id":"d00e8805-27b9-4520-8162-b56084224f32","system_id":"levelo_inurba_marseille","lat":43.31121,"lon":5.37761,"is_reserved":false,"is_disabled":false,"rental_uris":{"android":"levelo://app?vid=d00e8805-27b9-4520-8162-b56084224f32","ios":"levelo://app?vid=d00e8805-27b9-4520-8162-b56084224f32"},"vehicle_type_id":"4","last_reported":1781213882,"current_range_meters":5600,"station_id":"ce4bgt92rcd13ifvqcg0","pricing_plan_id":"cebpf4jnsgd1na2vs0mg"},{"bike_id":"55b5bfc5-4cc2-4013-8a9d-77fc56d78c5e","system_id":"levelo_inurba_marseille","lat":43.29262,"lon":5.38441,"is_reserved":false,"is_disabled":false,"rental_uris":{"android":"levelo://app?vid=55b5bfc5-4cc2-4013-8a9d-77fc56d78c5e","ios":"levelo://app?vid=55b5bfc5-4cc2-4013-8a9d-77fc56d78c5e"},"vehicle_type_id":"4","last_reported":1781213882,"current_range_meters":5600,"station_id":"ce4bh692rcd13ifvqea0","pricing_plan_id":"cebpf4jnsgd1na2vs0mg"},{"bike_id":"bc21bf03-4137-4d04-86ac-ec41e9d80439","system_id":"levelo_inurba_marseille","lat":43.28875,"lon":5.42511,"is_reserved":false,"is_disabled":false,"rental_uris":{"android":"levelo://app?vid=bc21bf03-4137-4d04-86ac-ec41e9d80439","ios":"levelo://app?vid=bc21bf03-4137-4d04-86ac-ec41e9d80439"},"vehicle_type_id":"4","last_reported":1781213882,"current_range_meters":5600,"station_id":"st_d3b462108ojc7389ooeg","pricing_plan_id":"cebpf4jnsgd1na2vs0mg"},{"bike_id":"b1d4390c-fa30-4de9-be28-af2a85959551","system_id":"levelo_inurba_marseille","lat":43.28846,"lon":5.39309,"is_reserved":false,"is_disabled":false,"rental_uris":{"android":"levelo://app?vid=b1d4390c-fa30-4de9-be28-af2a85959551","ios":"levelo://app?vid=b1d4390c-fa30-4de9-be28-af2a85959551"},"vehicle_type_id":"4","last_reported":1781213882,"current_range_meters":5600,"station_id":"ce4bh2p2rcd13ifvqdi0","pricing_plan_id":"cebpf4jnsgd1na2vs0mg"},{"bike_id":"4c2252fc-e4e5-45d5-aee3-e7266645c2c8","system_id":"levelo_inurba_marseille","lat":43.31415,"lon":5.3725,"is_reserved":false,"is_disabled":false,"rental_uris":{"android":"levelo://app?vid=4c2252fc-e4e5-45d5-aee3-e7266645c2c8","ios":"levelo://app?vid=4c2252fc-e4e5-45d5-aee3-e7266645c2c8"},"vehicle_type_id":"4","last_reported":1781213882,"current_range_meters":5600,"station_id":"","pricing_plan_id":"cebpf4jnsgd1na2vs0mg"},{"bike_id":"3baa0b0a-3f15-4a6e-8e8a-c926251735e9","system_id":"levelo_inurba_marseille","lat":43.30553,"lon":5.36557,"is_reserved":false,"is_disabled":true,"rental_uris":{"android":"levelo://app?vid=3baa0b0a-3f15-4a6e-8e8a-c926251735e9","ios":"levelo://app?vid=3baa0b0a-3f15-4a6e-8e8a-c926251735e9"},"vehicle_type_id":"4","last_reported":1781213882,"current_range_meters":6000,"station_id":"ce4bgs12rcd13ifvqcag","pricing_plan_id":"cebpf4jnsgd1na2vs0mg"},{"bike_id":"a2e67601-4678-407f-a001-e53cd8d57696","system_id":"levelo_inurba_marseille","lat":43.29527,"lon":5.38541,"is_reserved":false,"is_disabled":false,"rental_uris":{"android":"levelo://app?vid=a2e67601-4678-407f-a001-e53cd8d57696","ios":"levelo://app?vid=a2e67601-4678-407f-a001-e53cd8d57696"},"vehicle_type_id":"4","last_reported":1781213882,"current_range_meters":6000,"station_id":"ce4bgih2rcd13ifvqba0","pricing_plan_id":"cebpf4jnsgd1na2vs0mg"},{"bike_id":"742dca8c-f5db-4c45-bb54-d3bc982dbb56","system_id":"levelo_inurba_marseille","lat":43.30528,"lon":5.38869,"is_reserved":false,"is_disabled":false,"rental_uris":{"android":"levelo://app?vid=742dca8c-f5db-4c45-bb54-d3bc982dbb56","ios":"levelo://app?vid=742dca8c-f5db-4c45-bb54-d3bc982dbb56"},"vehicle_type_id":"4","last_reported":1781213882,"current_range_meters":6000,"station_id":"ce4bgk12rcd13ifvqbi0","pricing_plan_id":"cebpf4jnsgd1na2vs0mg"},{"bike_id":"406c92e3-e806-4551-a2b6-fea67fbe0a72","system_id":"levelo_inurba_marseille","lat":43.28621,"lon":5.35114,"is_reserved":false,"is_disabled":false,"rental_uris":{"android":"levelo://app?vid=406c92e3-e806-4551-a2b6-fea67fbe0a72","ios":"levelo://app?vid=406c92e3-e806-4551-a2b6-fea67fbe0a72"},"vehicle_type_id":"4","last_reported":1781213882,"current_range_meters":6000,"station_id":"ce4bhch2rcd13ifvqeug","pricing_plan_id":"cebpf4jnsgd1na2vs0mg"},{"bike_id":"6bcc356f-7f69-45b4-a42f-c8af24594173","system_id":"levelo_inurba_marseille","lat":43.29641,"lon":5.38029,"is_reserved":false,"is_disabled":false,"rental_uris":{"android":"levelo://app?vid=6bcc356f-7f69-45b4-a42f-c8af24594173","ios":"levelo://app?vid=6bcc356f-7f69-45b4-a42f-c8af24594173"},"vehicle_type_id":"4","last_reported":1781213882,"current_range_meters":6000,"station_id":"","pricing_plan_id":"cebpf4jnsgd1na2vs0mg"},{"bike_id":"a77c6152-9421-4087-aa9d-02d9e6cdfcb4","system_id":"levelo_inurba_marseille","lat":43.29278,"lon":5.36844,"is_reserved":false,"is_disabled":false,"rental_uris":{"android":"levelo://app?vid=a77c6152-9421-4087-aa9d-02d9e6cdfcb4","ios":"levelo://app?vid=a77c6152-9421-4087-aa9d-02d9e6cdfcb4"},"vehicle_type_id":"4","last_reported":1781213882,"current_range_meters":6000,"station_id":"ce4bhbp2rcd13ifvqesg","pricing_plan_id":"cebpf4jnsgd1na2vs0mg"},{"bike_id":"72477282-3901-47f8-8e4f-cec0d47fffe9","system_id":"levelo_inurba_marseille","lat":43.27065,"lon":5.42292,"is_reserved":false,"is_disabled":false,"rental_uris":{"android":"levelo://app?vid=72477282-3901-47f8-8e4f-cec0d47fffe9","ios":"levelo://app?vid=72477282-3901-47f8-8e4f-cec0d47fffe9"},"vehicle_type_id":"4","last_reported":1781213882,"current_range_meters":6000,"station_id":"ce4bhk92rcd13ifvqgb0","pricing_plan_id":"cebpf4jnsgd1na2vs0mg"},{"bike_id":"de648162-aaef-4bfd-86bb-810a5c9563cf","system_id":"levelo_inurba_marseille","lat":43.26503,"lon":5.39527,"is_reserved":false,"is_disabled":false,"rental_uris":{"android":"levelo://app?vid=de648162-aaef-4bfd-86bb-810a5c9563cf","ios":"levelo://app?vid=de648162-aaef-4bfd-86bb-810a5c9563cf"},"vehicle_type_id":"4","last_reported":1781213882,"current_range_meters":6000,"station_id":"ce4bhi12rcd13ifvqfq0","pricing_plan_id":"cebpf4jnsgd1na2vs0mg"},{"bike_id":"e8cf9eca-54d0-4eb8-ae8a-b7fb6cbc0e8f","system_id":"levelo_inurba_marseille","lat":43.29589,"lon":5.38641,"is_reserved":false,"is_disabled":false,"rental_uris":{"android":"levelo://app?vid=e8cf9eca-54d0-4eb8-ae8a-b7fb6cbc0e8f","ios":"levelo://app?vid=e8cf9eca-54d0-4eb8-ae8a-b7fb6cbc0e8f"},"vehicle_type_id":"4","last_reported":1781213882,"current_range_meters":6000,"station_id":"","pricing_plan_id":"cebpf4jnsgd1na2vs0mg"},{"bike_id":"aa6cab79-c2c3-408a-b9d6-b691804efdf5","system_id":"levelo_inurba_marseille","lat":43.29527,"lon":5.38551,"is_reserved":false,"is_disabled":false,"rental_uris":{"android":"levelo://app?vid=aa6cab79-c2c3-408a-b9d6-b691804efdf5","ios":"levelo://app?vid=aa6cab79-c2c3-408a-b9d6-b691804efdf5"},"vehicle_type_id":"4","last_reported":1781213882,"current_range_meters":6000,"station_id":"ce4bgih2rcd13ifvqba0","pricing_plan_id":"cebpf4jnsgd1na2vs0mg"},{"bike_id":"734386a2-352c-4ed6-b8c1-e69a585b67ee","system_id":"levelo_inurba_marseille","lat":43.29278,"lon":5.36848,"is_reserved":false,"is_disabled":false,"rental_uris":{"android":"levelo://app?vid=734386a2-352c-4ed6-b8c1-e69a585b67ee","ios":"levelo://app?vid=734386a2-352c-4ed6-b8c1-e69a585b67ee"},"vehicle_type_id":"4","last_reported":1781213882,"current_range_meters":6000,"station_id":"ce4bhbp2rcd13ifvqesg","pricing_plan_id":"cebpf4jnsgd1na2vs0mg"},{"bike_id":"fb3897f5-03ce-42cb-b3cc-c680a2511c0e","system_id":"levelo_inurba_marseille","lat":43.30651,"lon":5.40079,"is_reserved":false,"is_disabled":false,"rental_uris":{"android":"levelo://app?vid=fb3897f5-03ce-42cb-b3cc-c680a2511c0e","ios":"levelo://app?vid=fb3897f5-03ce-42cb-b3cc-c680a2511c0e"},"vehicle_type_id":"4","last_reported":1781213882,"current_range_meters":6000,"station_id":"ce4bh112rcd13ifvqda0","pricing_plan_id":"cebpf4jnsgd1na2vs0mg"},{"bike_id":"e9821af1-9020-40ef-8394-c2fbd16cf750","system_id":"levelo_inurba_marseille","lat":43.23783,"lon":5.36634,"is_reserved":false,"is_disabled":false,"rental_uris":{"android":"levelo://app?vid=e9821af1-9020-40ef-8394-c2fbd16cf750","ios":"levelo://app?vid=e9821af1-9020-40ef-8394-c2fbd16cf750"},"vehicle_type_id":"4","last_reported":1781213882,"current_range_meters":6000,"station_id":"st_d3nk18o9ro0c73en2l3g","pricing_plan_id":"cebpf4jnsgd1na2vs0mg"},{"bike_id":"8afeb7a8-b686-4611-8220-2ade2d33c717","system_id":"levelo_inurba_marseille","lat":43.29591,"lon":5.37784,"is_reserved":false,"is_disabled":true,"rental_uris":{"android":"levelo://app?vid=8afeb7a8-b686-4611-8220-2ade2d33c717","ios":"levelo://app?vid=8afeb7a8-b686-4611-8220-2ade2d33c717"},"vehicle_type_id":"4","last_reported":1781213882,"current_range_meters":6000,"station_id":"","pricing_plan_id":"cebpf4jnsgd1na2vs0mg"},{"bike_id":"d8a3a082-3a8a-404e-ab31-a06649f9bec8","system_id":"levelo_inurba_marseille","lat":43.28933,"lon":5.36629,"is_reserved":false,"is_disabled":false,"rental_uris":{"android":"levelo://app?vid=d8a3a082-3a8a-404e-ab31-a06649f9bec8","ios":"levelo://app?vid=d8a3a082-3a8a-404e-ab31-a06649f9bec8"},"vehicle_type_id":"4","last_reported":1781213882,"current_range_meters":6000,"station_id":"ce4bhap2rcd13ifvqek0","pricing_plan_id":"cebpf4jnsgd1na2vs0mg"},{"bike_id":"75fef152-62c5-4e54-978d-e8ddf81662d8","system_id":"levelo_inurba_marseille","lat":43.29277,"lon":5.40157,"is_reserved":false,"is_disabled":false,"rental_uris":{"android":"levelo://app?vid=75fef152-62c5-4e54-978d-e8ddf81662d8","ios":"levelo://app?vid=75fef152-62c5-4e54-978d-e8ddf81662d8"},"vehicle_type_id":"4","last_reported":1781213882,"current_range_meters":6000,"station_id":"ce4bh312rcd13ifvqdk0","pricing_plan_id":"cebpf4jnsgd1na2vs0mg"},{"bike_id":"fad1015f-dbc4-4aa2-9aa7-7c10b9542bd4","system_id":"levelo_inurba_marseille","lat":43.27895,"lon":5.41614,"is_reserved":false,"is_disabled":false,"rental_uris":{"android":"levelo://app?vid=fad1015f-dbc4-4aa2-9aa7-7c10b9542bd4","ios":"levelo://app?vid=fad1015f-dbc4-4aa2-9aa7-7c10b9542bd4"},"vehicle_type_id":"4","last_reported":1781213882,"current_range_meters":6000,"station_id":"ce4bho12rcd13ifvqh1g","pricing_plan_id":"cebpf4jnsgd1na2vs0mg"},{"bike_id":"5ef8b45c-5a2e-4ef3-b317-791d97d054bf","system_id":"levelo_inurba_marseille","lat":43.27154,"lon":5.414,"is_reserved":false,"is_disabled":false,"rental_uris":{"android":"levelo://app?vid=5ef8b45c-5a2e-4ef3-b317-791d97d054bf","ios":"levelo://app?vid=5ef8b45c-5a2e-4ef3-b317-791d97d054bf"},"vehicle_type_id":"4","last_reported":1781213882,"current_range_meters":6000,"station_id":"","pricing_plan_id":"cebpf4jnsgd1na2vs0mg"},{"bike_id":"75eb8f1a-3f57-4e50-a45d-2acf50e96269","system_id":"levelo_inurba_marseille","lat":43.30897,"lon":5.37187,"is_reserved":false,"is_disabled":false,"rental_uris":{"android":"levelo://app?vid=75eb8f1a-3f57-4e50-a45d-2acf50e96269","ios":"levelo://app?vid=75eb8f1a-3f57-4e50-a45d-2acf50e96269"},"vehicle_type_id":"4","last_reported":1781213882,"current_range_meters":6000,"station_id":"ce4bguh2rcd13ifvqckg","pricing_plan_id":"cebpf4jnsgd1na2vs0mg"},{"bike_id":"b598c738-a367-41df-9cdc-2ced2e03c6a5","system_id":"levelo_inurba_marseille","lat":43.28155,"lon":5.38267,"is_reserved":false,"is_disabled":false,"rental_uris":{"android":"levelo://app?vid=b598c738-a367-41df-9cdc-2ced2e03c6a5","ios":"levelo://app?vid=b598c738-a367-41df-9cdc-2ced2e03c6a5"},"vehicle_type_id":"4","last_reported":1781213882,"current_range_meters":6000,"station_id":"","pricing_plan_id":"cebpf4jnsgd1na2vs0mg"},{"bike_id":"b2ad6388-0d4f-4e9c-8ff3-f1ad38b97382","system_id":"levelo_inurba_marseille","lat":43.27676,"lon":5.42441,"is_reserved":false,"is_disabled":false,"rental_uris":{"android":"levelo://app?vid=b2ad6388-0d4f-4e9c-8ff3-f1ad38b97382","ios":"levelo://app?vid=b2ad6388-0d4f-4e9c-8ff3-f1ad38b97382"},"vehicle_type_id":"4","last_reported":1781213882,"current_range_meters":6400,"station_id":"","pricing_plan_id":"cebpf4jnsgd1na2vs0mg"},{"bike_id":"a4519ab8-8a91-4627-a831-ddbbcc2b09e2","system_id":"levelo_inurba_marseille","lat":43.30414,"lon":5.39743,"is_reserved":false,"is_disabled":true,"rental_uris":{"android":"levelo://app?vid=a4519ab8-8a91-4627-a831-ddbbcc2b09e2","ios":"levelo://app?vid=a4519ab8-8a91-4627-a831-ddbbcc2b09e2"},"vehicle_type_id":"4","last_reported":1781213882,"current_range_meters":6400,"station_id":"ce4bh092rcd13ifvqd20","pricing_plan_id":"cebpf4jnsgd1na2vs0mg"},{"bike_id":"95c81c38-d1f6-4024-b076-f9248ef58fe7","system_id":"levelo_inurba_marseille","lat":43.3024,"lon":5.40033,"is_reserved":false,"is_disabled":false,"rental_uris":{"android":"levelo://app?vid=95c81c38-d1f6-4024-b076-f9248ef58fe7","ios":"levelo://app?vid=95c81c38-d1f6-4024-b076-f9248ef58fe7"},"vehicle_type_id":"4","last_reported":1781213882,"current_range_meters":6400,"station_id":"","pricing_plan_id":"cebpf4jnsgd1na2vs0mg"},{"bike_id":"f97d69c1-bfdb-48b8-a453-ef0ffbb86ca0","system_id":"levelo_inurba_marseille","lat":43.278137,"lon":5.40707,"is_reserved":false,"is_disabled":false,"rental_uris":{"android":"levelo://app?vid=f97d69c1-bfdb-48b8-a453-ef0ffbb86ca0","ios":"levelo://app?vid=f97d69c1-bfdb-48b8-a453-ef0ffbb86ca0"},"vehicle_type_id":"4","last_reported":1781213882,"current_range_meters":6400,"station_id":"ce4bhnh2rcd13ifvqgtg","pricing_plan_id":"cebpf4jnsgd1na2vs0mg"},{"bike_id":"70eaaf10-991d-4235-857f-4132c8289c1e","system_id":"levelo_inurba_marseille","lat":43.25504,"lon":5.37651,"is_reserved":false,"is_disabled":false,"rental_uris":{"android":"levelo://app?vid=70eaaf10-991d-4235-857f-4132c8289c1e","ios":"levelo://app?vid=70eaaf10-991d-4235-857f-4132c8289c1e"},"vehicle_type_id":"4","last_reported":1781213882,"current_range_meters":6400,"station_id":"ce4bhh12rcd13ifvqff0","pricing_plan_id":"cebpf4jnsgd1na2vs0mg"},{"bike_id":"f4604c3b-a56a-425f-8d90-3b8e1f77f859","system_id":"levelo_inurba_marseille","lat":43.31352,"lon":5.38499,"is_reserved":false,"is_disabled":false,"rental_uris":{"android":"levelo://app?vid=f4604c3b-a56a-425f-8d90-3b8e1f77f859","ios":"levelo://app?vid=f4604c3b-a56a-425f-8d90-3b8e1f77f859"},"vehicle_type_id":"4","last_reported":1781213882,"current_range_meters":6400,"station_id":"ce4bgt92rcd13ifvqcf0","pricing_plan_id":"cebpf4jnsgd1na2vs0mg"},{"bike_id":"5c7cb18c-5d05-4aaa-b216-4dbe4e45f0de","system_id":"levelo_inurba_marseille","lat":43.28846,"lon":5.39311,"is_reserved":false,"is_disabled":false,"rental_uris":{"android":"levelo://app?vid=5c7cb18c-5d05-4aaa-b216-4dbe4e45f0de","ios":"levelo://app?vid=5c7cb18c-5d05-4aaa-b216-4dbe4e45f0de"},"vehicle_type_id":"4","last_reported":1781213882,"current_range_meters":6400,"station_id":"ce4bh2p2rcd13ifvqdi0","pricing_plan_id":"cebpf4jnsgd1na2vs0mg"},{"bike_id":"95d4cd27-1914-4549-910d-e788342e2817","system_id":"levelo_inurba_marseille","lat":43.25513,"lon":5.37621,"is_reserved":false,"is_disabled":false,"rental_uris":{"android":"levelo://app?vid=95d4cd27-1914-4549-910d-e788342e2817","ios":"levelo://app?vid=95d4cd27-1914-4549-910d-e788342e2817"},"vehicle_type_id":"4","last_reported":1781213882,"current_range_meters":6400,"station_id":"ce4bhh12rcd13ifvqff0","pricing_plan_id":"cebpf4jnsgd1na2vs0mg"},{"bike_id":"bf0d513d-d24a-47b1-bcdb-11e9c8e00198","system_id":"levelo_inurba_marseille","lat":43.26383,"lon":5.41072,"is_reserved":false,"is_disabled":true,"rental_uris":{"android":"levelo://app?vid=bf0d513d-d24a-47b1-bcdb-11e9c8e00198","ios":"levelo://app?vid=bf0d513d-d24a-47b1-bcdb-11e9c8e00198"},"vehicle_type_id":"4","last_reported":1781213882,"current_range_meters":6400,"station_id":"st_d4e5ca6na9uc73bfl5fg","pricing_plan_id":"cebpf4jnsgd1na2vs0mg"},{"bike_id":"136e4448-6a20-415d-895f-c0d5fea55b74","system_id":"levelo_inurba_marseille","lat":43.28112,"lon":5.37853,"is_reserved":false,"is_disabled":false,"rental_uris":{"android":"levelo://app?vid=136e4448-6a20-415d-895f-c0d5fea55b74","ios":"levelo://app?vid=136e4448-6a20-415d-895f-c0d5fea55b74"},"vehicle_type_id":"4","last_reported":1781213882,"current_range_meters":6400,"station_id":"ce4bha12rcd13ifvqee0","pricing_plan_id":"cebpf4jnsgd1na2vs0mg"},{"bike_id":"d2fae584-e8a4-411b-8497-01e9defa4f72","system_id":"levelo_inurba_marseille","lat":43.28604,"lon":5.351,"is_reserved":false,"is_disabled":false,"rental_uris":{"android":"levelo://app?vid=d2fae584-e8a4-411b-8497-01e9defa4f72","ios":"levelo://app?vid=d2fae584-e8a4-411b-8497-01e9defa4f72"},"vehicle_type_id":"4","last_reported":1781213882,"current_range_meters":6400,"station_id":"ce4bhch2rcd13ifvqeug","pricing_plan_id":"cebpf4jnsgd1na2vs0mg"},{"bike_id":"60210465-87aa-4993-adce-44c433a76140","system_id":"levelo_inurba_marseille","lat":43.27328,"lon":5.36279,"is_reserved":false,"is_disabled":false,"rental_uris":{"android":"levelo://app?vid=60210465-87aa-4993-adce-44c433a76140","ios":"levelo://app?vid=60210465-87aa-4993-adce-44c433a76140"},"vehicle_type_id":"4","last_reported":1781213882,"current_range_meters":6400,"station_id":"ce4bhbh2rcd13ifvqeo0","pricing_plan_id":"cebpf4jnsgd1na2vs0mg"},{"bike_id":"82fe5de3-874d-4dc2-9977-385d666b9164","system_id":"levelo_inurba_marseille","lat":43.26221,"lon":5.40448,"is_reserved":false,"is_disabled":false,"rental_uris":{"android":"levelo://app?vid=82fe5de3-874d-4dc2-9977-385d666b9164","ios":"levelo://app?vid=82fe5de3-874d-4dc2-9977-385d666b9164"},"vehicle_type_id":"4","last_reported":1781213882,"current_range_meters":6400,"station_id":"","pricing_plan_id":"cebpf4jnsgd1na2vs0mg"},{"bike_id":"b779f016-01f7-4888-9600-fb0c0b367a8f","system_id":"levelo_inurba_marseille","lat":43.29567,"lon":5.37524,"is_reserved":false,"is_disabled":false,"rental_uris":{"android":"levelo://app?vid=b779f016-01f7-4888-9600-fb0c0b367a8f","ios":"levelo://app?vid=b779f016-01f7-4888-9600-fb0c0b367a8f"},"vehicle_type_id":"4","last_reported":1781213882,"current_range_meters":6400,"station_id":"ce4bgh92rcd13ifvqb50","pricing_plan_id":"cebpf4jnsgd1na2vs0mg"},{"bike_id":"8682f4e8-0798-4b4f-8fef-c4dc002ea1c8","system_id":"levelo_inurba_marseille","lat":43.29147,"lon":5.46101,"is_reserved":false,"is_disabled":false,"rental_uris":{"android":"levelo://app?vid=8682f4e8-0798-4b4f-8fef-c4dc002ea1c8","ios":"levelo://app?vid=8682f4e8-0798-4b4f-8fef-c4dc002ea1c8"},"vehicle_type_id":"4","last_reported":1781213882,"current_range_meters":6400,"station_id":"","pricing_plan_id":"cebpf4jnsgd1na2vs0mg"},{"bike_id":"1cb8ef7c-e98e-4cfb-992d-d3305541d0a3","system_id":"levelo_inurba_marseille","lat":43.27412,"lon":5.36231,"is_reserved":false,"is_disabled":false,"rental_uris":{"android":"levelo://app?vid=1cb8ef7c-e98e-4cfb-992d-d3305541d0a3","ios":"levelo://app?vid=1cb8ef7c-e98e-4cfb-992d-d3305541d0a3"},"vehicle_type_id":"4","last_reported":1781213882,"current_range_meters":6400,"station_id":"","pricing_plan_id":"cebpf4jnsgd1na2vs0mg"},{"bike_id":"ff3f8ae3-b500-4185-bec6-1d96949fa697","system_id":"levelo_inurba_marseille","lat":43.30939,"lon":5.40142,"is_reserved":false,"is_disabled":false,"rental_uris":{"android":"levelo://app?vid=ff3f8ae3-b500-4185-bec6-1d96949fa697","ios":"levelo://app?vid=ff3f8ae3-b500-4185-bec6-1d96949fa697"},"vehicle_type_id":"4","last_reported":1781213882,"current_range_meters":6400,"station_id":"ce4bgvp2rcd13ifvqct0","pricing_plan_id":"cebpf4jnsgd1na2vs0mg"},{"bike_id":"b96f57f5-82cb-45ba-83b3-3fc08e98f68c","system_id":"levelo_inurba_marseille","lat":43.28075,"lon":5.3963,"is_reserved":false,"is_disabled":false,"rental_uris":{"android":"levelo://app?vid=b96f57f5-82cb-45ba-83b3-3fc08e98f68c","ios":"levelo://app?vid=b96f57f5-82cb-45ba-83b3-3fc08e98f68c"},"vehicle_type_id":"4","last_reported":1781213882,"current_range_meters":6400,"station_id":"ce4bho12rcd13ifvqh2g","pricing_plan_id":"cebpf4jnsgd1na2vs0mg"},{"bike_id":"070057c1-c992-4bf0-8866-a67f352f117e","system_id":"levelo_inurba_marseille","lat":43.29521,"lon":5.38557,"is_reserved":false,"is_disabled":false,"rental_uris":{"android":"levelo://app?vid=070057c1-c992-4bf0-8866-a67f352f117e","ios":"levelo://app?vid=070057c1-c992-4bf0-8866-a67f352f117e"},"vehicle_type_id":"4","last_reported":1781213882,"current_range_meters":6400,"station_id":"ce4bgih2rcd13ifvqba0","pricing_plan_id":"cebpf4jnsgd1na2vs0mg"},{"bike_id":"75248494-6e46-4c4b-92d2-9db9ddbe9016","system_id":"levelo_inurba_marseille","lat":43.28463,"lon":5.48426,"is_reserved":false,"is_disabled":false,"rental_uris":{"android":"levelo://app?vid=75248494-6e46-4c4b-92d2-9db9ddbe9016","ios":"levelo://app?vid=75248494-6e46-4c4b-92d2-9db9ddbe9016"},"vehicle_type_id":"4","last_reported":1781213882,"current_range_meters":6400,"station_id":"st_d3svhcjqgbts73a3dn0g","pricing_plan_id":"cebpf4jnsgd1na2vs0mg"},{"bike_id":"a54be5f0-e0ce-4d83-8577-cdd8f1091a80","system_id":"levelo_inurba_marseille","lat":43.31537,"lon":5.38029,"is_reserved":false,"is_disabled":false,"rental_uris":{"android":"levelo://app?vid=a54be5f0-e0ce-4d83-8577-cdd8f1091a80","ios":"levelo://app?vid=a54be5f0-e0ce-4d83-8577-cdd8f1091a80"},"vehicle_type_id":"4","last_reported":1781213882,"current_range_meters":6400,"station_id":"ce4bhsp2rcd13ifvqi50","pricing_plan_id":"cebpf4jnsgd1na2vs0mg"},{"bike_id":"a8cff10f-925f-47d3-8d2a-4913d17e9425","system_id":"levelo_inurba_marseille","lat":43.30231,"lon":5.40083,"is_reserved":false,"is_disabled":true,"rental_uris":{"android":"levelo://app?vid=a8cff10f-925f-47d3-8d2a-4913d17e9425","ios":"levelo://app?vid=a8cff10f-925f-47d3-8d2a-4913d17e9425"},"vehicle_type_id":"4","last_reported":1781213882,"current_range_meters":6800,"station_id":"","pricing_plan_id":"cebpf4jnsgd1na2vs0mg"},{"bike_id":"643a5108-6712-460c-84ac-96a9e310c2a1","system_id":"levelo_inurba_marseille","lat":43.32306,"lon":5.36807,"is_reserved":false,"is_disabled":false,"rental_uris":{"android":"levelo://app?vid=643a5108-6712-460c-84ac-96a9e310c2a1","ios":"levelo://app?vid=643a5108-6712-460c-84ac-96a9e310c2a1"},"vehicle_type_id":"4","last_reported":1781213882,"current_range_meters":6800,"station_id":"","pricing_plan_id":"cebpf4jnsgd1na2vs0mg"},{"bike_id":"ca7d472d-be7b-4dff-a5e8-20110a5cc5c0","system_id":"levelo_inurba_marseille","lat":43.30823,"lon":5.4029,"is_reserved":false,"is_disabled":false,"rental_uris":{"android":"levelo://app?vid=ca7d472d-be7b-4dff-a5e8-20110a5cc5c0","ios":"levelo://app?vid=ca7d472d-be7b-4dff-a5e8-20110a5cc5c0"},"vehicle_type_id":"4","last_reported":1781213882,"current_range_meters":6800,"station_id":"","pricing_plan_id":"cebpf4jnsgd1na2vs0mg"},{"bike_id":"7340e38b-2e62-4f36-9f21-51402ddcc4a9","system_id":"levelo_inurba_marseille","lat":43.25476,"lon":5.37668,"is_reserved":false,"is_disabled":false,"rental_uris":{"android":"levelo://app?vid=7340e38b-2e62-4f36-9f21-51402ddcc4a9","ios":"levelo://app?vid=7340e38b-2e62-4f36-9f21-51402ddcc4a9"},"vehicle_type_id":"4","last_reported":1781213882,"current_range_meters":6800,"station_id":"ce4bhh12rcd13ifvqff0","pricing_plan_id":"cebpf4jnsgd1na2vs0mg"},{"bike_id":"3c1659d8-5e56-4dbb-908b-68c028d3c70c","system_id":"levelo_inurba_marseille","lat":43.24794,"lon":5.37493,"is_reserved":false,"is_disabled":false,"rental_uris":{"android":"levelo://app?vid=3c1659d8-5e56-4dbb-908b-68c028d3c70c","ios":"levelo://app?vid=3c1659d8-5e56-4dbb-908b-68c028d3c70c"},"vehicle_type_id":"4","last_reported":1781213882,"current_range_meters":6800,"station_id":"ce4bhgh2rcd13ifvqfb0","pricing_plan_id":"cebpf4jnsgd1na2vs0mg"},{"bike_id":"1c2a1b5b-c049-4e5c-b1d0-b40ecc795b35","system_id":"levelo_inurba_marseille","lat":43.22994,"lon":5.43693,"is_reserved":false,"is_disabled":false,"rental_uris":{"android":"levelo://app?vid=1c2a1b5b-c049-4e5c-b1d0-b40ecc795b35","ios":"levelo://app?vid=1c2a1b5b-c049-4e5c-b1d0-b40ecc795b35"},"vehicle_type_id":"4","last_reported":1781213882,"current_range_meters":6800,"station_id":"","pricing_plan_id":"cebpf4jnsgd1na2vs0mg"},{"bike_id":"cebd1f5e-4615-475e-bb1f-b98342d910da","system_id":"levelo_inurba_marseille","lat":43.2507,"lon":5.39566,"is_reserved":false,"is_disabled":false,"rental_uris":{"android":"levelo://app?vid=cebd1f5e-4615-475e-bb1f-b98342d910da","ios":"levelo://app?vid=cebd1f5e-4615-475e-bb1f-b98342d910da"},"vehicle_type_id":"4","last_reported":1781213882,"current_range_meters":6800,"station_id":"ce4bhm12rcd13ifvqgkg","pricing_plan_id":"cebpf4jnsgd1na2vs0mg"},{"bike_id":"c9a6fa83-1be1-4361-a74b-b86628aafcdd","system_id":"levelo_inurba_marseille","lat":43.3032,"lon":5.40437,"is_reserved":false,"is_disabled":false,"rental_uris":{"android":"levelo://app?vid=c9a6fa83-1be1-4361-a74b-b86628aafcdd","ios":"levelo://app?vid=c9a6fa83-1be1-4361-a74b-b86628aafcdd"},"vehicle_type_id":"4","last_reported":1781213882,"current_range_meters":6800,"station_id":"ce4bh012rcd13ifvqd10","pricing_plan_id":"cebpf4jnsgd1na2vs0mg"},{"bike_id":"315d3cd3-9556-47d2-bf87-42573b9faa84","system_id":"levelo_inurba_marseille","lat":43.29911,"lon":5.38376,"is_reserved":false,"is_disabled":false,"rental_uris":{"android":"levelo://app?vid=315d3cd3-9556-47d2-bf87-42573b9faa84","ios":"levelo://app?vid=315d3cd3-9556-47d2-bf87-42573b9faa84"},"vehicle_type_id":"4","last_reported":1781213882,"current_range_meters":6800,"station_id":"","pricing_plan_id":"cebpf4jnsgd1na2vs0mg"},{"bike_id":"17369bee-43fb-4510-ab11-4bc54a77a2f2","system_id":"levelo_inurba_marseille","lat":43.28607,"lon":5.35103,"is_reserved":false,"is_disabled":false,"rental_uris":{"android":"levelo://app?vid=17369bee-43fb-4510-ab11-4bc54a77a2f2","ios":"levelo://app?vid=17369bee-43fb-4510-ab11-4bc54a77a2f2"},"vehicle_type_id":"4","last_reported":1781213882,"current_range_meters":6800,"station_id":"ce4bhch2rcd13ifvqeug","pricing_plan_id":"cebpf4jnsgd1na2vs0mg"},{"bike_id":"5ac28b06-af05-4d8b-a509-2f5043908588","system_id":"levelo_inurba_marseille","lat":43.23431,"lon":5.36835,"is_reserved":false,"is_disabled":false,"rental_uris":{"android":"levelo://app?vid=5ac28b06-af05-4d8b-a509-2f5043908588","ios":"levelo://app?vid=5ac28b06-af05-4d8b-a509-2f5043908588"},"vehicle_type_id":"4","last_reported":1781213882,"current_range_meters":6800,"station_id":"","pricing_plan_id":"cebpf4jnsgd1na2vs0mg"},{"bike_id":"c1271c22-3cc0-44a9-9525-ab759a8e041c","system_id":"levelo_inurba_marseille","lat":43.29933,"lon":5.36556,"is_reserved":false,"is_disabled":false,"rental_uris":{"android":"levelo://app?vid=c1271c22-3cc0-44a9-9525-ab759a8e041c","ios":"levelo://app?vid=c1271c22-3cc0-44a9-9525-ab759a8e041c"},"vehicle_type_id":"4","last_reported":1781213882,"current_range_meters":6800,"station_id":"ce4bgm92rcd13ifvqbr0","pricing_plan_id":"cebpf4jnsgd1na2vs0mg"},{"bike_id":"e47dfd39-5c0c-45eb-a41f-cf3fd7d5df32","system_id":"levelo_inurba_marseille","lat":43.28952,"lon":5.46105,"is_reserved":false,"is_disabled":true,"rental_uris":{"android":"levelo://app?vid=e47dfd39-5c0c-45eb-a41f-cf3fd7d5df32","ios":"levelo://app?vid=e47dfd39-5c0c-45eb-a41f-cf3fd7d5df32"},"vehicle_type_id":"4","last_reported":1781213882,"current_range_meters":6800,"station_id":"","pricing_plan_id":"cebpf4jnsgd1na2vs0mg"},{"bike_id":"40de0209-043c-4ed6-84c3-7ac1da5cf58d","system_id":"levelo_inurba_marseille","lat":43.32109,"lon":5.36783,"is_reserved":false,"is_disabled":false,"rental_uris":{"android":"levelo://app?vid=40de0209-043c-4ed6-84c3-7ac1da5cf58d","ios":"levelo://app?vid=40de0209-043c-4ed6-84c3-7ac1da5cf58d"},"vehicle_type_id":"4","last_reported":1781213882,"current_range_meters":6800,"station_id":"ce4bhrh2rcd13ifvqhug","pricing_plan_id":"cebpf4jnsgd1na2vs0mg"},{"bike_id":"8859d173-9f5d-4e39-86ed-34ec86a90175","system_id":"levelo_inurba_marseille","lat":43.29952,"lon":5.4282,"is_reserved":false,"is_disabled":false,"rental_uris":{"android":"levelo://app?vid=8859d173-9f5d-4e39-86ed-34ec86a90175","ios":"levelo://app?vid=8859d173-9f5d-4e39-86ed-34ec86a90175"},"vehicle_type_id":"4","last_reported":1781213882,"current_range_meters":6800,"station_id":"","pricing_plan_id":"cebpf4jnsgd1na2vs0mg"},{"bike_id":"1ba59505-a6de-4aa3-ba1a-4e9f2410d21e","system_id":"levelo_inurba_marseille","lat":43.281126,"lon":5.378337,"is_reserved":false,"is_disabled":false,"rental_uris":{"android":"levelo://app?vid=1ba59505-a6de-4aa3-ba1a-4e9f2410d21e","ios":"levelo://app?vid=1ba59505-a6de-4aa3-ba1a-4e9f2410d21e"},"vehicle_type_id":"4","last_reported":1781213882,"current_range_meters":6800,"station_id":"ce4bha12rcd13ifvqee0","pricing_plan_id":"cebpf4jnsgd1na2vs0mg"},{"bike_id":"fdda2143-4eeb-4458-beec-ad642d8c99b1","system_id":"levelo_inurba_marseille","lat":43.28719,"lon":5.36092,"is_reserved":false,"is_disabled":false,"rental_uris":{"android":"levelo://app?vid=fdda2143-4eeb-4458-beec-ad642d8c99b1","ios":"levelo://app?vid=fdda2143-4eeb-4458-beec-ad642d8c99b1"},"vehicle_type_id":"4","last_reported":1781213882,"current_range_meters":6800,"station_id":"cki0cbj6b192h4jlfktg","pricing_plan_id":"cebpf4jnsgd1na2vs0mg"},{"bike_id":"7c31a111-ed30-4086-9105-25b1f4859447","system_id":"levelo_inurba_marseille","lat":43.28667,"lon":5.38668,"is_reserved":false,"is_disabled":false,"rental_uris":{"android":"levelo://app?vid=7c31a111-ed30-4086-9105-25b1f4859447","ios":"levelo://app?vid=7c31a111-ed30-4086-9105-25b1f4859447"},"vehicle_type_id":"4","last_reported":1781213882,"current_range_meters":6800,"station_id":"ce4bh492rcd13ifvqdug","pricing_plan_id":"cebpf4jnsgd1na2vs0mg"},{"bike_id":"397736ae-ddf7-4a55-b20d-a9b88be08d15","system_id":"levelo_inurba_marseille","lat":43.2927,"lon":5.38437,"is_reserved":false,"is_disabled":false,"rental_uris":{"android":"levelo://app?vid=397736ae-ddf7-4a55-b20d-a9b88be08d15","ios":"levelo://app?vid=397736ae-ddf7-4a55-b20d-a9b88be08d15"},"vehicle_type_id":"4","last_reported":1781213882,"current_range_meters":6800,"station_id":"ce4bh692rcd13ifvqea0","pricing_plan_id":"cebpf4jnsgd1na2vs0mg"},{"bike_id":"3584e241-1942-4015-86a4-f6e09519a952","system_id":"levelo_inurba_marseille","lat":43.28937,"lon":5.36629,"is_reserved":false,"is_disabled":false,"rental_uris":{"android":"levelo://app?vid=3584e241-1942-4015-86a4-f6e09519a952","ios":"levelo://app?vid=3584e241-1942-4015-86a4-f6e09519a952"},"vehicle_type_id":"4","last_reported":1781213882,"current_range_meters":6800,"station_id":"ce4bhap2rcd13ifvqek0","pricing_plan_id":"cebpf4jnsgd1na2vs0mg"},{"bike_id":"a044f23d-a405-47c5-adc5-a58a757a1a06","system_id":"levelo_inurba_marseille","lat":43.29046,"lon":5.35921,"is_reserved":false,"is_disabled":false,"rental_uris":{"android":"levelo://app?vid=a044f23d-a405-47c5-adc5-a58a757a1a06","ios":"levelo://app?vid=a044f23d-a405-47c5-adc5-a58a757a1a06"},"vehicle_type_id":"4","last_reported":1781213882,"current_range_meters":6800,"station_id":"ce4bha92rcd13ifvqeg0","pricing_plan_id":"cebpf4jnsgd1na2vs0mg"},{"bike_id":"078a9912-314b-4791-a1b5-9e120e7893fe","system_id":"levelo_inurba_marseille","lat":43.26007,"lon":5.37568,"is_reserved":false,"is_disabled":false,"rental_uris":{"android":"levelo://app?vid=078a9912-314b-4791-a1b5-9e120e7893fe","ios":"levelo://app?vid=078a9912-314b-4791-a1b5-9e120e7893fe"},"vehicle_type_id":"4","last_reported":1781213882,"current_range_meters":6800,"station_id":"ce4bhgh2rcd13ifvqfa0","pricing_plan_id":"cebpf4jnsgd1na2vs0mg"},{"bike_id":"779fdad7-e7f4-436c-9fce-9a7825f91cf8","system_id":"levelo_inurba_marseille","lat":43.2622,"lon":5.37428,"is_reserved":false,"is_disabled":false,"rental_uris":{"android":"levelo://app?vid=779fdad7-e7f4-436c-9fce-9a7825f91cf8","ios":"levelo://app?vid=779fdad7-e7f4-436c-9fce-9a7825f91cf8"},"vehicle_type_id":"4","last_reported":1781213882,"current_range_meters":7200,"station_id":"","pricing_plan_id":"cebpf4jnsgd1na2vs0mg"},{"bike_id":"59d963d0-d1fe-483b-80d5-41df37ab3e9b","system_id":"levelo_inurba_marseille","lat":43.25581,"lon":5.3823,"is_reserved":false,"is_disabled":false,"rental_uris":{"android":"levelo://app?vid=59d963d0-d1fe-483b-80d5-41df37ab3e9b","ios":"levelo://app?vid=59d963d0-d1fe-483b-80d5-41df37ab3e9b"},"vehicle_type_id":"4","last_reported":1781213882,"current_range_meters":7200,"station_id":"ce4bhih2rcd13ifvqfs0","pricing_plan_id":"cebpf4jnsgd1na2vs0mg"},{"bike_id":"2e41d0d3-9e86-4c08-89a6-e0a70cc8ae89","system_id":"levelo_inurba_marseille","lat":43.29248,"lon":5.38251,"is_reserved":false,"is_disabled":true,"rental_uris":{"android":"levelo://app?vid=2e41d0d3-9e86-4c08-89a6-e0a70cc8ae89","ios":"levelo://app?vid=2e41d0d3-9e86-4c08-89a6-e0a70cc8ae89"},"vehicle_type_id":"4","last_reported":1781213882,"current_range_meters":7200,"station_id":"","pricing_plan_id":"cebpf4jnsgd1na2vs0mg"},{"bike_id":"fc972235-3e35-4e5a-bc6b-0eedcab28dad","system_id":"levelo_inurba_marseille","lat":43.28623,"lon":5.35091,"is_reserved":false,"is_disabled":false,"rental_uris":{"android":"levelo://app?vid=fc972235-3e35-4e5a-bc6b-0eedcab28dad","ios":"levelo://app?vid=fc972235-3e35-4e5a-bc6b-0eedcab28dad"},"vehicle_type_id":"4","last_reported":1781213882,"current_range_meters":7200,"station_id":"ce4bhch2rcd13ifvqeug","pricing_plan_id":"cebpf4jnsgd1na2vs0mg"},{"bike_id":"b6d507f5-c915-4915-8d1e-3c84726370da","system_id":"levelo_inurba_marseille","lat":43.32112,"lon":5.36786,"is_reserved":false,"is_disabled":false,"rental_uris":{"android":"levelo://app?vid=b6d507f5-c915-4915-8d1e-3c84726370da","ios":"levelo://app?vid=b6d507f5-c915-4915-8d1e-3c84726370da"},"vehicle_type_id":"4","last_reported":1781213882,"current_range_meters":7200,"station_id":"ce4bhrh2rcd13ifvqhug","pricing_plan_id":"cebpf4jnsgd1na2vs0mg"},{"bike_id":"f63e0e69-6a54-4e19-8d8e-f67680de3ed1","system_id":"levelo_inurba_marseille","lat":43.24594,"lon":5.43144,"is_reserved":false,"is_disabled":false,"rental_uris":{"android":"levelo://app?vid=f63e0e69-6a54-4e19-8d8e-f67680de3ed1","ios":"levelo://app?vid=f63e0e69-6a54-4e19-8d8e-f67680de3ed1"},"vehicle_type_id":"4","last_reported":1781213882,"current_range_meters":7200,"station_id":"st_d2m6c4gdas8pm72e190g","pricing_plan_id":"cebpf4jnsgd1na2vs0mg"},{"bike_id":"c93c5c3d-0399-41f2-9364-8579b4d871cd","system_id":"levelo_inurba_marseille","lat":43.23994,"lon":5.36316,"is_reserved":false,"is_disabled":false,"rental_uris":{"android":"levelo://app?vid=c93c5c3d-0399-41f2-9364-8579b4d871cd","ios":"levelo://app?vid=c93c5c3d-0399-41f2-9364-8579b4d871cd"},"vehicle_type_id":"4","last_reported":1781213882,"current_range_meters":7200,"station_id":"","pricing_plan_id":"cebpf4jnsgd1na2vs0mg"},{"bike_id":"2e6bba6e-c925-452c-a2f7-298272432026","system_id":"levelo_inurba_marseille","lat":43.237866,"lon":5.366403,"is_reserved":false,"is_disabled":false,"rental_uris":{"android":"levelo://app?vid=2e6bba6e-c925-452c-a2f7-298272432026","ios":"levelo://app?vid=2e6bba6e-c925-452c-a2f7-298272432026"},"vehicle_type_id":"4","last_reported":1781213882,"current_range_meters":7200,"station_id":"st_d3nk18o9ro0c73en2l3g","pricing_plan_id":"cebpf4jnsgd1na2vs0mg"},{"bike_id":"f36a7326-9811-479f-8f8d-7d9611e1577d","system_id":"levelo_inurba_marseille","lat":43.26196,"lon":5.37447,"is_reserved":false,"is_disabled":false,"rental_uris":{"android":"levelo://app?vid=f36a7326-9811-479f-8f8d-7d9611e1577d","ios":"levelo://app?vid=f36a7326-9811-479f-8f8d-7d9611e1577d"},"vehicle_type_id":"4","last_reported":1781213882,"current_range_meters":7200,"station_id":"ce4bhgp2rcd13ifvqfc0","pricing_plan_id":"cebpf4jnsgd1na2vs0mg"},{"bike_id":"76c7fd52-7f1a-4007-8d4a-79ff993c8464","system_id":"levelo_inurba_marseille","lat":43.30259,"lon":5.40071,"is_reserved":false,"is_disabled":false,"rental_uris":{"android":"levelo://app?vid=76c7fd52-7f1a-4007-8d4a-79ff993c8464","ios":"levelo://app?vid=76c7fd52-7f1a-4007-8d4a-79ff993c8464"},"vehicle_type_id":"4","last_reported":1781213882,"current_range_meters":7200,"station_id":"ce4bgvh2rcd13ifvqcs0","pricing_plan_id":"cebpf4jnsgd1na2vs0mg"},{"bike_id":"b3b9d53c-3df4-40f0-ada2-c2029c13fb1f","system_id":"levelo_inurba_marseille","lat":43.30643,"lon":5.40059,"is_reserved":false,"is_disabled":false,"rental_uris":{"android":"levelo://app?vid=b3b9d53c-3df4-40f0-ada2-c2029c13fb1f","ios":"levelo://app?vid=b3b9d53c-3df4-40f0-ada2-c2029c13fb1f"},"vehicle_type_id":"4","last_reported":1781213882,"current_range_meters":7200,"station_id":"ce4bh112rcd13ifvqda0","pricing_plan_id":"cebpf4jnsgd1na2vs0mg"},{"bike_id":"2507d607-3822-4c87-a669-ab9b0690fc01","system_id":"levelo_inurba_marseille","lat":43.28593,"lon":5.35136,"is_reserved":false,"is_disabled":false,"rental_uris":{"android":"levelo://app?vid=2507d607-3822-4c87-a669-ab9b0690fc01","ios":"levelo://app?vid=2507d607-3822-4c87-a669-ab9b0690fc01"},"vehicle_type_id":"4","last_reported":1781213882,"current_range_meters":7200,"station_id":"ce4bhch2rcd13ifvqeug","pricing_plan_id":"cebpf4jnsgd1na2vs0mg"},{"bike_id":"a03b7c10-ac9b-478d-8584-d1f842d2e855","system_id":"levelo_inurba_marseille","lat":43.28613,"lon":5.39875,"is_reserved":false,"is_disabled":false,"rental_uris":{"android":"levelo://app?vid=a03b7c10-ac9b-478d-8584-d1f842d2e855","ios":"levelo://app?vid=a03b7c10-ac9b-478d-8584-d1f842d2e855"},"vehicle_type_id":"4","last_reported":1781213882,"current_range_meters":7200,"station_id":"st_d4a7ka997mjs738ck50g","pricing_plan_id":"cebpf4jnsgd1na2vs0mg"},{"bike_id":"e9ce25b8-b480-4907-8ce1-b8aecfbb3105","system_id":"levelo_inurba_marseille","lat":43.32301,"lon":5.3672,"is_reserved":false,"is_disabled":false,"rental_uris":{"android":"levelo://app?vid=e9ce25b8-b480-4907-8ce1-b8aecfbb3105","ios":"levelo://app?vid=e9ce25b8-b480-4907-8ce1-b8aecfbb3105"},"vehicle_type_id":"4","last_reported":1781213882,"current_range_meters":7200,"station_id":"","pricing_plan_id":"cebpf4jnsgd1na2vs0mg"},{"bike_id":"154a4988-c768-4d61-b1b6-de5533699c92","system_id":"levelo_inurba_marseille","lat":43.25312,"lon":5.42211,"is_reserved":false,"is_disabled":false,"rental_uris":{"android":"levelo://app?vid=154a4988-c768-4d61-b1b6-de5533699c92","ios":"levelo://app?vid=154a4988-c768-4d61-b1b6-de5533699c92"},"vehicle_type_id":"4","last_reported":1781213882,"current_range_meters":7200,"station_id":"st_d2m65c5bi1j21697t3ng","pricing_plan_id":"cebpf4jnsgd1na2vs0mg"},{"bike_id":"edd7f6cf-c00d-4334-ba4f-ddda86c6a12e","system_id":"levelo_inurba_marseille","lat":43.30304,"lon":5.37663,"is_reserved":false,"is_disabled":false,"rental_uris":{"android":"levelo://app?vid=edd7f6cf-c00d-4334-ba4f-ddda86c6a12e","ios":"levelo://app?vid=edd7f6cf-c00d-4334-ba4f-ddda86c6a12e"},"vehicle_type_id":"4","last_reported":1781213882,"current_range_meters":7200,"station_id":"","pricing_plan_id":"cebpf4jnsgd1na2vs0mg"},{"bike_id":"32e65dbb-64c4-4911-9176-a4e011b0a593","system_id":"levelo_inurba_marseille","lat":43.28692,"lon":5.42633,"is_reserved":false,"is_disabled":false,"rental_uris":{"android":"levelo://app?vid=32e65dbb-64c4-4911-9176-a4e011b0a593","ios":"levelo://app?vid=32e65dbb-64c4-4911-9176-a4e011b0a593"},"vehicle_type_id":"4","last_reported":1781213882,"current_range_meters":7200,"station_id":"","pricing_plan_id":"cebpf4jnsgd1na2vs0mg"},{"bike_id":"0193df8e-e671-4439-b878-059ede893bd0","system_id":"levelo_inurba_marseille","lat":43.24651,"lon":5.38175,"is_reserved":false,"is_disabled":false,"rental_uris":{"android":"levelo://app?vid=0193df8e-e671-4439-b878-059ede893bd0","ios":"levelo://app?vid=0193df8e-e671-4439-b878-059ede893bd0"},"vehicle_type_id":"4","last_reported":1781213882,"current_range_meters":7200,"station_id":"ce4bhih2rcd13ifvqfr0","pricing_plan_id":"cebpf4jnsgd1na2vs0mg"},{"bike_id":"41800e2a-f8e2-4eaa-bd59-a903c5f5f91b","system_id":"levelo_inurba_marseille","lat":43.31994,"lon":5.38157,"is_reserved":false,"is_disabled":false,"rental_uris":{"android":"levelo://app?vid=41800e2a-f8e2-4eaa-bd59-a903c5f5f91b","ios":"levelo://app?vid=41800e2a-f8e2-4eaa-bd59-a903c5f5f91b"},"vehicle_type_id":"4","last_reported":1781213882,"current_range_meters":7200,"station_id":"ce4bhr12rcd13ifvqhpg","pricing_plan_id":"cebpf4jnsgd1na2vs0mg"},{"bike_id":"3a44773b-a64a-45f6-9197-56969bf49878","system_id":"levelo_inurba_marseille","lat":43.2971,"lon":5.37057,"is_reserved":false,"is_disabled":false,"rental_uris":{"android":"levelo://app?vid=3a44773b-a64a-45f6-9197-56969bf49878","ios":"levelo://app?vid=3a44773b-a64a-45f6-9197-56969bf49878"},"vehicle_type_id":"4","last_reported":1781213882,"current_range_meters":7200,"station_id":"","pricing_plan_id":"cebpf4jnsgd1na2vs0mg"},{"bike_id":"42ad203c-dffb-4e44-a7e4-d8c873c3d956","system_id":"levelo_inurba_marseille","lat":43.27596,"lon":5.39364,"is_reserved":false,"is_disabled":false,"rental_uris":{"android":"levelo://app?vid=42ad203c-dffb-4e44-a7e4-d8c873c3d956","ios":"levelo://app?vid=42ad203c-dffb-4e44-a7e4-d8c873c3d956"},"vehicle_type_id":"4","last_reported":1781213882,"current_range_meters":7200,"station_id":"","pricing_plan_id":"cebpf4jnsgd1na2vs0mg"},{"bike_id":"31e2ad24-3edc-483e-9c48-bdf3d89974f0","system_id":"levelo_inurba_marseille","lat":43.28138,"lon":5.3831,"is_reserved":false,"is_disabled":false,"rental_uris":{"android":"levelo://app?vid=31e2ad24-3edc-483e-9c48-bdf3d89974f0","ios":"levelo://app?vid=31e2ad24-3edc-483e-9c48-bdf3d89974f0"},"vehicle_type_id":"4","last_reported":1781213882,"current_range_meters":7200,"station_id":"","pricing_plan_id":"cebpf4jnsgd1na2vs0mg"},{"bike_id":"cee6644e-3f7f-438f-874a-02654dd35298","system_id":"levelo_inurba_marseille","lat":43.24554,"lon":5.39515,"is_reserved":false,"is_disabled":false,"rental_uris":{"android":"levelo://app?vid=cee6644e-3f7f-438f-874a-02654dd35298","ios":"levelo://app?vid=cee6644e-3f7f-438f-874a-02654dd35298"},"vehicle_type_id":"4","last_reported":1781213882,"current_range_meters":7200,"station_id":"ce4bhlp2rcd13ifvqgjg","pricing_plan_id":"cebpf4jnsgd1na2vs0mg"},{"bike_id":"7614f617-3b67-487e-a1ee-b00a2ef07635","system_id":"levelo_inurba_marseille","lat":43.28723,"lon":5.36083,"is_reserved":false,"is_disabled":false,"rental_uris":{"android":"levelo://app?vid=7614f617-3b67-487e-a1ee-b00a2ef07635","ios":"levelo://app?vid=7614f617-3b67-487e-a1ee-b00a2ef07635"},"vehicle_type_id":"4","last_reported":1781213882,"current_range_meters":7200,"station_id":"cki0cbj6b192h4jlfktg","pricing_plan_id":"cebpf4jnsgd1na2vs0mg"},{"bike_id":"7174a037-033a-4532-b7d8-62a6cadea8be","system_id":"levelo_inurba_marseille","lat":43.30665,"lon":5.39855,"is_reserved":false,"is_disabled":false,"rental_uris":{"android":"levelo://app?vid=7174a037-033a-4532-b7d8-62a6cadea8be","ios":"levelo://app?vid=7174a037-033a-4532-b7d8-62a6cadea8be"},"vehicle_type_id":"4","last_reported":1781213882,"current_range_meters":7200,"station_id":"","pricing_plan_id":"cebpf4jnsgd1na2vs0mg"},{"bike_id":"9f59dfa0-6a15-4279-88d5-0d5ef43f954e","system_id":"levelo_inurba_marseille","lat":43.28257,"lon":5.35062,"is_reserved":false,"is_disabled":false,"rental_uris":{"android":"levelo://app?vid=9f59dfa0-6a15-4279-88d5-0d5ef43f954e","ios":"levelo://app?vid=9f59dfa0-6a15-4279-88d5-0d5ef43f954e"},"vehicle_type_id":"4","last_reported":1781213882,"current_range_meters":7200,"station_id":"ce4bhbp2rcd13ifvqerg","pricing_plan_id":"cebpf4jnsgd1na2vs0mg"},{"bike_id":"7825e339-ebb2-4b3f-a52f-f34996e6853e","system_id":"levelo_inurba_marseille","lat":43.30725,"lon":5.42445,"is_reserved":false,"is_disabled":false,"rental_uris":{"android":"levelo://app?vid=7825e339-ebb2-4b3f-a52f-f34996e6853e","ios":"levelo://app?vid=7825e339-ebb2-4b3f-a52f-f34996e6853e"},"vehicle_type_id":"4","last_reported":1781213882,"current_range_meters":7200,"station_id":"st_cvj6ca6bvosntc0bfgr0","pricing_plan_id":"cebpf4jnsgd1na2vs0mg"},{"bike_id":"1d78549c-12f6-4eec-838a-7fc8ffafebbe","system_id":"levelo_inurba_marseille","lat":43.29918,"lon":5.37477,"is_reserved":false,"is_disabled":false,"rental_uris":{"android":"levelo://app?vid=1d78549c-12f6-4eec-838a-7fc8ffafebbe","ios":"levelo://app?vid=1d78549c-12f6-4eec-838a-7fc8ffafebbe"},"vehicle_type_id":"4","last_reported":1781213882,"current_range_meters":8000,"station_id":"ce4bgjh2rcd13ifvqbg0","pricing_plan_id":"cebpf4jnsgd1na2vs0mg"},{"bike_id":"cc004e4f-fc90-4e7e-be02-eb12b4a73d90","system_id":"levelo_inurba_marseille","lat":43.29269,"lon":5.36849,"is_reserved":false,"is_disabled":false,"rental_uris":{"android":"levelo://app?vid=cc004e4f-fc90-4e7e-be02-eb12b4a73d90","ios":"levelo://app?vid=cc004e4f-fc90-4e7e-be02-eb12b4a73d90"},"vehicle_type_id":"4","last_reported":1781213882,"current_range_meters":8000,"station_id":"ce4bhbp2rcd13ifvqesg","pricing_plan_id":"cebpf4jnsgd1na2vs0mg"},{"bike_id":"2a192182-021b-439d-a0e2-993561972500","system_id":"levelo_inurba_marseille","lat":43.225345,"lon":5.348271,"is_reserved":false,"is_disabled":false,"rental_uris":{"android":"levelo://app?vid=2a192182-021b-439d-a0e2-993561972500","ios":"levelo://app?vid=2a192182-021b-439d-a0e2-993561972500"},"vehicle_type_id":"4","last_reported":1781213882,"current_range_meters":8000,"station_id":"st_cvj5dfep6f1abm77gieg","pricing_plan_id":"cebpf4jnsgd1na2vs0mg"},{"bike_id":"9485992f-6b3a-44de-9cef-64756ba6b13f","system_id":"levelo_inurba_marseille","lat":43.29531,"lon":5.38549,"is_reserved":false,"is_disabled":false,"rental_uris":{"android":"levelo://app?vid=9485992f-6b3a-44de-9cef-64756ba6b13f","ios":"levelo://app?vid=9485992f-6b3a-44de-9cef-64756ba6b13f"},"vehicle_type_id":"4","last_reported":1781213882,"current_range_meters":8000,"station_id":"ce4bgih2rcd13ifvqba0","pricing_plan_id":"cebpf4jnsgd1na2vs0mg"},{"bike_id":"0e86ce8f-0e91-432f-80bf-d4513463cb14","system_id":"levelo_inurba_marseille","lat":43.26205,"lon":5.37478,"is_reserved":false,"is_disabled":false,"rental_uris":{"android":"levelo://app?vid=0e86ce8f-0e91-432f-80bf-d4513463cb14","ios":"levelo://app?vid=0e86ce8f-0e91-432f-80bf-d4513463cb14"},"vehicle_type_id":"4","last_reported":1781213882,"current_range_meters":8000,"station_id":"ce4bhgp2rcd13ifvqfc0","pricing_plan_id":"cebpf4jnsgd1na2vs0mg"},{"bike_id":"9d08f453-997e-4a86-bb77-48f13810d5e6","system_id":"levelo_inurba_marseille","lat":43.26722,"lon":5.38945,"is_reserved":false,"is_disabled":false,"rental_uris":{"android":"levelo://app?vid=9d08f453-997e-4a86-bb77-48f13810d5e6","ios":"levelo://app?vid=9d08f453-997e-4a86-bb77-48f13810d5e6"},"vehicle_type_id":"4","last_reported":1781213882,"current_range_meters":8000,"station_id":"","pricing_plan_id":"cebpf4jnsgd1na2vs0mg"},{"bike_id":"b4471ab0-b57f-49fb-851a-dcdfc1f69478","system_id":"levelo_inurba_marseille","lat":43.29954,"lon":5.37181,"is_reserved":false,"is_disabled":false,"rental_uris":{"android":"levelo://app?vid=b4471ab0-b57f-49fb-851a-dcdfc1f69478","ios":"levelo://app?vid=b4471ab0-b57f-49fb-851a-dcdfc1f69478"},"vehicle_type_id":"4","last_reported":1781213882,"current_range_meters":8000,"station_id":"ce4bgr92rcd13ifvqc7g","pricing_plan_id":"cebpf4jnsgd1na2vs0mg"},{"bike_id":"c3807903-75cb-4f65-b20c-bdef3b1556f1","system_id":"levelo_inurba_marseille","lat":43.24587,"lon":5.40862,"is_reserved":false,"is_disabled":false,"rental_uris":{"android":"levelo://app?vid=c3807903-75cb-4f65-b20c-bdef3b1556f1","ios":"levelo://app?vid=c3807903-75cb-4f65-b20c-bdef3b1556f1"},"vehicle_type_id":"4","last_reported":1781213882,"current_range_meters":8000,"station_id":"","pricing_plan_id":"cebpf4jnsgd1na2vs0mg"},{"bike_id":"3643eb2e-b0e4-40f6-9aa2-b567c4963540","system_id":"levelo_inurba_marseille","lat":43.32102,"lon":5.36772,"is_reserved":false,"is_disabled":false,"rental_uris":{"android":"levelo://app?vid=3643eb2e-b0e4-40f6-9aa2-b567c4963540","ios":"levelo://app?vid=3643eb2e-b0e4-40f6-9aa2-b567c4963540"},"vehicle_type_id":"4","last_reported":1781213882,"current_range_meters":8000,"station_id":"ce4bhrh2rcd13ifvqhug","pricing_plan_id":"cebpf4jnsgd1na2vs0mg"},{"bike_id":"2e26d0e9-aca9-4cbe-acea-6ca83db1a561","system_id":"levelo_inurba_marseille","lat":43.297053,"lon":5.376977,"is_reserved":false,"is_disabled":false,"rental_uris":{"android":"levelo://app?vid=2e26d0e9-aca9-4cbe-acea-6ca83db1a561","ios":"levelo://app?vid=2e26d0e9-aca9-4cbe-acea-6ca83db1a561"},"vehicle_type_id":"4","last_reported":1781213882,"current_range_meters":8000,"station_id":"ce4bh392rcd13ifvqdm0","pricing_plan_id":"cebpf4jnsgd1na2vs0mg"},{"bike_id":"86980992-c341-4d42-9003-5f417602c220","system_id":"levelo_inurba_marseille","lat":43.29604,"lon":5.37969,"is_reserved":false,"is_disabled":false,"rental_uris":{"android":"levelo://app?vid=86980992-c341-4d42-9003-5f417602c220","ios":"levelo://app?vid=86980992-c341-4d42-9003-5f417602c220"},"vehicle_type_id":"4","last_reported":1781213882,"current_range_meters":8000,"station_id":"","pricing_plan_id":"cebpf4jnsgd1na2vs0mg"},{"bike_id":"fbdfa317-724b-4527-894d-7d409cedbf5f","system_id":"levelo_inurba_marseille","lat":43.26042,"lon":5.394,"is_reserved":false,"is_disabled":false,"rental_uris":{"android":"levelo://app?vid=fbdfa317-724b-4527-894d-7d409cedbf5f","ios":"levelo://app?vid=fbdfa317-724b-4527-894d-7d409cedbf5f"},"vehicle_type_id":"4","last_reported":1781213882,"current_range_meters":8000,"station_id":"ce4bhh92rcd13ifvqfj0","pricing_plan_id":"cebpf4jnsgd1na2vs0mg"},{"bike_id":"f8546570-fa2b-4ba3-bf49-3e69c77ebd2d","system_id":"levelo_inurba_marseille","lat":43.30091,"lon":5.39079,"is_reserved":false,"is_disabled":false,"rental_uris":{"android":"levelo://app?vid=f8546570-fa2b-4ba3-bf49-3e69c77ebd2d","ios":"levelo://app?vid=f8546570-fa2b-4ba3-bf49-3e69c77ebd2d"},"vehicle_type_id":"4","last_reported":1781213882,"current_range_meters":8000,"station_id":"ce4bh192rcd13ifvqdb0","pricing_plan_id":"cebpf4jnsgd1na2vs0mg"},{"bike_id":"3570045d-68d1-44c4-89a4-c4877f8e7816","system_id":"levelo_inurba_marseille","lat":43.28264,"lon":5.35074,"is_reserved":false,"is_disabled":true,"rental_uris":{"android":"levelo://app?vid=3570045d-68d1-44c4-89a4-c4877f8e7816","ios":"levelo://app?vid=3570045d-68d1-44c4-89a4-c4877f8e7816"},"vehicle_type_id":"4","last_reported":1781213882,"current_range_meters":8000,"station_id":"ce4bhbp2rcd13ifvqerg","pricing_plan_id":"cebpf4jnsgd1na2vs0mg"},{"bike_id":"78486d95-eae8-4f9f-af58-decc1476efea","system_id":"levelo_inurba_marseille","lat":43.26554,"lon":5.37279,"is_reserved":false,"is_disabled":false,"rental_uris":{"android":"levelo://app?vid=78486d95-eae8-4f9f-af58-decc1476efea","ios":"levelo://app?vid=78486d95-eae8-4f9f-af58-decc1476efea"},"vehicle_type_id":"4","last_reported":1781213882,"current_range_meters":8000,"station_id":"ce4bhg12rcd13ifvqf70","pricing_plan_id":"cebpf4jnsgd1na2vs0mg"},{"bike_id":"a2d79563-d9a2-42e8-800f-c522e0540cd7","system_id":"levelo_inurba_marseille","lat":43.26215,"lon":5.40475,"is_reserved":false,"is_disabled":false,"rental_uris":{"android":"levelo://app?vid=a2d79563-d9a2-42e8-800f-c522e0540cd7","ios":"levelo://app?vid=a2d79563-d9a2-42e8-800f-c522e0540cd7"},"vehicle_type_id":"4","last_reported":1781213882,"current_range_meters":8000,"station_id":"ce4bhmh2rcd13ifvqgmg","pricing_plan_id":"cebpf4jnsgd1na2vs0mg"},{"bike_id":"90f8f679-21ba-45f4-87f3-79468aeeabc5","system_id":"levelo_inurba_marseille","lat":43.31914,"lon":5.36795,"is_reserved":false,"is_disabled":false,"rental_uris":{"android":"levelo://app?vid=90f8f679-21ba-45f4-87f3-79468aeeabc5","ios":"levelo://app?vid=90f8f679-21ba-45f4-87f3-79468aeeabc5"},"vehicle_type_id":"4","last_reported":1781213882,"current_range_meters":8000,"station_id":"st_d6o2h0d0559c73evc1b0","pricing_plan_id":"cebpf4jnsgd1na2vs0mg"},{"bike_id":"f165abb2-7744-4ffb-b278-55e94862d529","system_id":"levelo_inurba_marseille","lat":43.25557,"lon":5.39173,"is_reserved":false,"is_disabled":false,"rental_uris":{"android":"levelo://app?vid=f165abb2-7744-4ffb-b278-55e94862d529","ios":"levelo://app?vid=f165abb2-7744-4ffb-b278-55e94862d529"},"vehicle_type_id":"4","last_reported":1781213882,"current_range_meters":8000,"station_id":"","pricing_plan_id":"cebpf4jnsgd1na2vs0mg"},{"bike_id":"a7af64ec-56f8-4f6d-8bf6-23931faec7f5","system_id":"levelo_inurba_marseille","lat":43.29206,"lon":5.36084,"is_reserved":false,"is_disabled":false,"rental_uris":{"android":"levelo://app?vid=a7af64ec-56f8-4f6d-8bf6-23931faec7f5","ios":"levelo://app?vid=a7af64ec-56f8-4f6d-8bf6-23931faec7f5"},"vehicle_type_id":"4","last_reported":1781213882,"current_range_meters":8000,"station_id":"ce4bhbh2rcd13ifvqeqg","pricing_plan_id":"cebpf4jnsgd1na2vs0mg"},