{"last_updated":1692558236,"ttl":30,"version":"2.2","data":{"bikes":[{"bike_id":"17bc782b-7b04-4bb6-8cb3-be34971be335","system_id":"levelo_inurba_marseille","lat":43.312239,"lon":5.368562,"is_reserved":false,"is_disabled":false,"rental_uris":{"android":"levelo://app?vid=17bc782b-7b04-4bb6-8cb3-be34971be335","ios":"levelo://app?vid=17bc782b-7b04-4bb6-8cb3-be34971be335"},"vehicle_type_id":"4","last_reported":1692558236,"current_range_meters":9600,"station_id":"ce4bgl92rcd13ifvqbq0","pricing_plan_id":"free"},{"bike_id":"6739b3e8-3faf-4701-b401-211cc139e143","system_id":"levelo_inurba_marseille","lat":43.312239,"lon":5.368562,"is_reserved":false,"is_disabled":false,"rental_uris":{"android":"levelo://app?vid=6739b3e8-3faf-4701-b401-211cc139e143","ios":"levelo://app?vid=6739b3e8-3faf-4701-b401-211cc139e143"},"vehicle_type_id":"4","last_reported":1692558236,"current_range_meters":5200,"station_id":"ce4bgl92rcd13ifvqbq0","pricing_plan_id":"free"},{"bike_id":"3c75c2b4-a28f-434f-93f9-73218756cb0b","system_id":"levelo_inurba_marseille","lat":43.312239,"lon":5.368562,"is_reserved":false,"is_disabled":false,"rental_uris":{"android":"levelo://app?vid=3c75c2b4-a28f-434f-93f9-73218756cb0b","ios":"levelo://app?vid=3c75c2b4-a28f-434f-93f9-73218756cb0b"},"vehicle_type_id":"4","last_reported":1692558236,"current_range_meters":14400,"station_id":"ce4bgl92rcd13ifvqbq0","pricing_plan_id":"free"},{"bike_id":"f22ca441-4e4e-4660-b824-b2f46943e54d","system_id":"levelo_inurba_marseille","lat":43.312239,"lon":5.368562,"is_reserved":false,"is_disabled":false,"rental_uris":{"android":"levelo://app?vid=f22ca441-4e4e-4660-b824-b2f46943e54d","ios":"levelo://app?vid=f22ca441-4e4e-4660-b824-b2f46943e54d"},"vehicle_type_id":"4","last_reported":1692558236,"current_range_meters":31200,"station_id":"ce4bgl92rcd13ifvqbq0","pricing_plan_id":"free"},{"bike_id":"c1ca783a-2faa-4d12-a037-b7a8c1480ac8","system_id":"levelo_inurba_marseille","lat":43.312239,"lon":5.368562,"is_reserved":false,"is_disabled":false,"rental_uris":{"android":"levelo://app?vid=c1ca783a-2faa-4d12-a037-b7a8c1480ac8","ios":"levelo://app?vid=c1ca783a-2faa-4d12-a037-b7a8c1480ac8"},"vehicle_type_id":"4","last_reported":1692558236,"current_range_meters":10800,"station_id":"ce4bgl92rcd13ifvqbq0","pricing_plan_id":"free"},{"bike_id":"96922e76-effd-4bb7-82cf-553de71a9858","system_id":"levelo_inurba_marseille","lat":43.305714,"lon":5.365633,"is_reserved":false,"is_disabled":false,"rental_uris":{"android":"levelo://app?vid=96922e76-effd-4bb7-82cf-553de71a9858","ios":"levelo://app?vid=96922e76-effd-4bb7-82cf-553de71a9858"},"vehicle_type_id":"4","last_reported":1692558236,"current_range_meters":28000,"station_id":"ce4bgs12rcd13ifvqcag","pricing_plan_id":"free"},{"bike_id":"386ed8e3-b71e-4f68-86af-202c5b76503e","system_id":"levelo_inurba_marseille","lat":43.305368,"lon":5.367343,"is_reserved":false,"is_disabled":false,"rental_uris":{"android":"levelo://app?vid=386ed8e3-b71e-4f68-86af-202c5b76503e","ios":"levelo://app?vid=386ed8e3-b71e-4f68-86af-202c5b76503e"},"vehicle_type_id":"4","last_reported":1692558236,"current_range_meters":19200,"station_id":"ce4bgrp2rcd13ifvqc9g","pricing_plan_id":"free"},{"bike_id":"9fbe6e18-d192-44c2-98b5-cafb68b41aa4","system_id":"levelo_inurba_marseille","lat":43.30551,"lon":5.36526,"is_reserved":false,"is_disabled":false,"rental_uris":{"android":"levelo://app?vid=9fbe6e18-d192-44c2-98b5-cafb68b41aa4","ios":"levelo://app?vid=9fbe6e18-d192-44c2-98b5-cafb68b41aa4"},"vehicle_type_id":"4","last_reported":1692558236,"current_range_meters":5200,"station_id":"ce4bgs12rcd13ifvqcag","pricing_plan_id":"free"},{"bike_id":"9e6a9a9c-b758-456e-a2d5-e295ed28859e","system_id":"levelo_inurba_marseille","lat":43.305989,"lon":5.37225,"is_reserved":false,"is_disabled":false,"rental_uris":{"android":"levelo://app?vid=9e6a9a9c-b758-456e-a2d5-e295ed28859e","ios":"levelo://app?vid=9e6a9a9c-b758-456e-a2d5-e295ed28859e"},"vehicle_type_id":"4","last_reported":1692558236,"current_range_meters":21200,"station_id":"ce4bgqh2rcd13ifvqc4g","pricing_plan_id":"free"},{"bike_id":"2d326e8b-c63e-45ba-8778-1c5e51b09bd8","system_id":"levelo_inurba_marseille","lat":43.311131,"lon":5.377651,"is_reserved":false,"is_disabled":false,"rental_uris":{"android":"levelo://app?vid=2d326e8b-c63e-45ba-8778-1c5e51b09bd8","ios":"levelo://app?vid=2d326e8b-c63e-45ba-8778-1c5e51b09bd8"},"vehicle_type_id":"4","last_reported":1692558236,"current_range_meters":16400,"station_id":"ce4bgt92rcd13ifvqcg0","pricing_plan_id":"free"},{"bike_id":"66f28e03-4eba-4bc9-a1b4-9331dc3e5037","system_id":"levelo_inurba_marseille","lat":43.311131,"lon":5.377651,"is_reserved":false,"is_disabled":false,"rental_uris":{"android":"levelo://app?vid=66f28e03-4eba-4bc9-a1b4-9331dc3e5037","ios":"levelo://app?vid=66f28e03-4eba-4bc9-a1b4-9331dc3e5037"},"vehicle_type_id":"4","last_reported":1692558236,"current_range_meters":7200,"station_id":"ce4bgt92rcd13ifvqcg0","pricing_plan_id":"free"},{"bike_id":"173c864a-0c7e-4231-8664-1bcc8a5588a7","system_id":"levelo_inurba_marseille","lat":43.307945,"lon":5.376487,"is_reserved":false,"is_disabled":false,"rental_uris":{"android":"levelo://app?vid=173c864a-0c7e-4231-8664-1bcc8a5588a7","ios":"levelo://app?vid=173c864a-0c7e-4231-8664-1bcc8a5588a7"},"vehicle_type_id":"4","last_reported":1692558236,"current_range_meters":2400,"station_id":"ce4bgv92rcd13ifvqcq0","pricing_plan_id":"free"},{"bike_id":"327fe0dc-08c0-428e-baf6-82942cb2943b","system_id":"levelo_inurba_marseille","lat":43.315293,"lon":5.380349,"is_reserved":false,"is_disabled":false,"rental_uris":{"android":"levelo://app?vid=327fe0dc-08c0-428e-baf6-82942cb2943b","ios":"levelo://app?vid=327fe0dc-08c0-428e-baf6-82942cb2943b"},"vehicle_type_id":"4","last_reported":1692558236,"current_range_meters":4000,"station_id":"ce4bhsp2rcd13ifvqi50","pricing_plan_id":"free"},{"bike_id":"779f8c7d-f6c1-4cc9-a593-c88874220bcf","system_id":"levelo_inurba_marseille","lat":43.31525,"lon":5.38033,"is_reserved":false,"is_disabled":false,"rental_uris":{"android":"levelo://app?vid=779f8c7d-f6c1-4cc9-a593-c88874220bcf","ios":"levelo://app?vid=779f8c7d-f6c1-4cc9-a593-c88874220bcf"},"vehicle_type_id":"4","last_reported":1692558236,"current_range_meters":26000,"station_id":"ce4bhsp2rcd13ifvqi50","pricing_plan_id":"free"},{"bike_id":"b4d89fd7-e137-4dbc-91e8-a2e75b6d4c00","system_id":"levelo_inurba_marseille","lat":43.304606,"lon":5.379026,"is_reserved":false,"is_disabled":false,"rental_uris":{"android":"levelo://app?vid=b4d89fd7-e137-4dbc-91e8-a2e75b6d4c00","ios":"levelo://app?vid=b4d89fd7-e137-4dbc-91e8-a2e75b6d4c00"},"vehicle_type_id":"4","last_reported":1692558236,"current_range_meters":23200,"station_id":"ce4bgup2rcd13ifvqcn0","pricing_plan_id":"free"},{"bike_id":"c1194416-143f-4c9e-af3e-3927ead71f5b","system_id":"levelo_inurba_marseille","lat":43.31368,"lon":5.38486,"is_reserved":false,"is_disabled":false,"rental_uris":{"android":"levelo://app?vid=c1194416-143f-4c9e-af3e-3927ead71f5b","ios":"levelo://app?vid=c1194416-143f-4c9e-af3e-3927ead71f5b"},"vehicle_type_id":"4","last_reported":1692558236,"current_range_meters":27600,"station_id":"ce4bgt92rcd13ifvqcf0","pricing_plan_id":"free"},{"bike_id":"f6a7e512-2190-41c4-80e4-b12247af9e1d","system_id":"levelo_inurba_marseille","lat":43.299882,"lon":5.371507,"is_reserved":false,"is_disabled":false,"rental_uris":{"android":"levelo://app?vid=f6a7e512-2190-41c4-80e4-b12247af9e1d","ios":"levelo://app?vid=f6a7e512-2190-41c4-80e4-b12247af9e1d"},"vehicle_type_id":"4","last_reported":1692558236,"current_range_meters":8400,"station_id":"ce4bgr92rcd13ifvqc7g","pricing_plan_id":"free"},{"bike_id":"4e958ac9-9f75-4b71-be9b-9d520672c397","system_id":"levelo_inurba_marseille","lat":43.29997,"lon":5.37338,"is_reserved":false,"is_disabled":false,"rental_uris":{"android":"levelo://app?vid=4e958ac9-9f75-4b71-be9b-9d520672c397","ios":"levelo://app?vid=4e958ac9-9f75-4b71-be9b-9d520672c397"},"vehicle_type_id":"4","last_reported":1692558236,"current_range_meters":23600,"station_id":"","pricing_plan_id":"free"},{"bike_id":"95dc9ecf-047e-4c3a-bb12-a5676cb36ad4","system_id":"levelo_inurba_marseille","lat":43.3216,"lon":5.38166,"is_reserved":false,"is_disabled":false,"rental_uris":{"android":"levelo://app?vid=95dc9ecf-047e-4c3a-bb12-a5676cb36ad4","ios":"levelo://app?vid=95dc9ecf-047e-4c3a-bb12-a5676cb36ad4"},"vehicle_type_id":"4","last_reported":1692558236,"current_range_meters":14000,"station_id":"","pricing_plan_id":"free"},{"bike_id":"fc849437-3127-4916-81de-95298dae65a5","system_id":"levelo_inurba_marseille","lat":43.30529,"lon":5.38423,"is_reserved":false,"is_disabled":false,"rental_uris":{"android":"levelo://app?vid=fc849437-3127-4916-81de-95298dae65a5","ios":"levelo://app?vid=fc849437-3127-4916-81de-95298dae65a5"},"vehicle_type_id":"4","last_reported":1692558236,"current_range_meters":16400,"station_id":"ce4bgg92rcd13ifvqb30","pricing_plan_id":"free"},{"bike_id":"c2cd3b38-115e-49c6-a33b-516099fdeebd","system_id":"levelo_inurba_marseille","lat":43.311722,"lon":5.387247,"is_reserved":false,"is_disabled":false,"rental_uris":{"android":"levelo://app?vid=c2cd3b38-115e-49c6-a33b-516099fdeebd","ios":"levelo://app?vid=c2cd3b38-115e-49c6-a33b-516099fdeebd"},"vehicle_type_id":"4","last_reported":1692558236,"current_range_meters":4400,"station_id":"ce4bgv12rcd13ifvqcp0","pricing_plan_id":"free"},{"bike_id":"b885f463-e8c5-42cc-902f-7152167ce1c7","system_id":"levelo_inurba_marseille","lat":43.29912,"lon":5.37472,"is_reserved":false,"is_disabled":false,"rental_uris":{"android":"levelo://app?vid=b885f463-e8c5-42cc-902f-7152167ce1c7","ios":"levelo://app?vid=b885f463-e8c5-42cc-902f-7152167ce1c7"},"vehicle_type_id":"4","last_reported":1692558236,"current_range_meters":31200,"station_id":"ce4bgjh2rcd13ifvqbg0","pricing_plan_id":"free"},{"bike_id":"06ed24f0-b96f-48bb-9d39-141a12c02ff6","system_id":"levelo_inurba_marseille","lat":43.311722,"lon":5.387247,"is_reserved":false,"is_disabled":false,"rental_uris":{"android":"levelo://app?vid=06ed24f0-b96f-48bb-9d39-141a12c02ff6","ios":"levelo://app?vid=06ed24f0-b96f-48bb-9d39-141a12c02ff6"},"vehicle_type_id":"4","last_reported":1692558236,"current_range_meters":19200,"station_id":"ce4bgv12rcd13ifvqcp0","pricing_plan_id":"free"},{"bike_id":"9d032aba-6e1e-4251-97ae-87375d5a74c6","system_id":"levelo_inurba_marseille","lat":43.311722,"lon":5.387247,"is_reserved":false,"is_disabled":false,"rental_uris":{"android":"levelo://app?vid=9d032aba-6e1e-4251-97ae-87375d5a74c6","ios":"levelo://app?vid=9d032aba-6e1e-4251-97ae-87375d5a74c6"},"vehicle_type_id":"4","last_reported":1692558236,"current_range_meters":13200,"station_id":"ce4bgv12rcd13ifvqcp0","pricing_plan_id":"free"},{"bike_id":"ff8bf84b-7c83-419d-a3ad-978e865f62fe","system_id":"levelo_inurba_marseille","lat":43.311722,"lon":5.387247,"is_reserved":false,"is_disabled":false,"rental_uris":{"android":"levelo://app?vid=ff8bf84b-7c83-419d-a3ad-978e865f62fe","ios":"levelo://app?vid=ff8bf84b-7c83-419d-a3ad-978e865f62fe"},"vehicle_type_id":"4","last_reported":1692558236,"current_range_meters":5600,"station_id":"ce4bgv12rcd13ifvqcp0","pricing_plan_id":"free"},{"bike_id":"c2c902b2-4933-454a-805f-66426de6b075","system_id":"levelo_inurba_marseille","lat":43.311722,"lon":5.387247,"is_reserved":false,"is_disabled":false,"rental_uris":{"android":"levelo://app?vid=c2c902b2-4933-454a-805f-66426de6b075","ios":"levelo://app?vid=c2c902b2-4933-454a-805f-66426de6b075"},"vehicle_type_id":"4","last_reported":1692558236,"current_range_meters":14800,"station_id":"ce4bgv12rcd13ifvqcp0","pricing_plan_id":"free"},{"bike_id":"a1f7b084-f437-4e0c-8b20-334f54c48d59","system_id":"levelo_inurba_marseille","lat":43.32289,"lon":5.38267,"is_reserved":false,"is_disabled":false,"rental_uris":{"android":"levelo://app?vid=a1f7b084-f437-4e0c-8b20-334f54c48d59","ios":"levelo://app?vid=a1f7b084-f437-4e0c-8b20-334f54c48d59"},"vehicle_type_id":"4","last_reported":1692558236,"current_range_meters":13200,"station_id":"ce4bhr12rcd13ifvqhqg","pricing_plan_id":"free"},{"bike_id":"5b5c8cae-b425-4976-9ba8-5ae205664d6b","system_id":"levelo_inurba_marseille","lat":43.32286,"lon":5.38274,"is_reserved":false,"is_disabled":false,"rental_uris":{"android":"levelo://app?vid=5b5c8cae-b425-4976-9ba8-5ae205664d6b","ios":"levelo://app?vid=5b5c8cae-b425-4976-9ba8-5ae205664d6b"},"vehicle_type_id":"4","last_reported":1692558236,"current_range_meters":12800,"station_id":"ce4bhr12rcd13ifvqhqg","pricing_plan_id":"free"},{"bike_id":"110bd150-ae2d-4085-890c-a8f4481980e0","system_id":"levelo_inurba_marseille","lat":43.32291,"lon":5.38275,"is_reserved":false,"is_disabled":false,"rental_uris":{"android":"levelo://app?vid=110bd150-ae2d-4085-890c-a8f4481980e0","ios":"levelo://app?vid=110bd150-ae2d-4085-890c-a8f4481980e0"},"vehicle_type_id":"4","last_reported":1692558236,"current_range_meters":24800,"station_id":"ce4bhr12rcd13ifvqhqg","pricing_plan_id":"free"},{"bike_id":"b9784bc4-a1f4-4e7b-a996-3746dcc4c656","system_id":"levelo_inurba_marseille","lat":43.32287,"lon":5.3828,"is_reserved":false,"is_disabled":false,"rental_uris":{"android":"levelo://app?vid=b9784bc4-a1f4-4e7b-a996-3746dcc4c656","ios":"levelo://app?vid=b9784bc4-a1f4-4e7b-a996-3746dcc4c656"},"vehicle_type_id":"4","last_reported":1692558236,"current_range_meters":4800,"station_id":"ce4bhr12rcd13ifvqhqg","pricing_plan_id":"free"},{"bike_id":"d47c449e-a395-4d6c-990a-7c56dfd0b9b0","system_id":"levelo_inurba_marseille","lat":43.29735,"lon":5.36402,"is_reserved":false,"is_disabled":false,"rental_uris":{"android":"levelo://app?vid=d47c449e-a395-4d6c-990a-7c56dfd0b9b0","ios":"levelo://app?vid=d47c449e-a395-4d6c-990a-7c56dfd0b9b0"},"vehicle_type_id":"4","last_reported":1692558236,"current_range_meters":30400,"station_id":"","pricing_plan_id":"free"},{"bike_id":"e1551569-4640-4838-a3c7-25594ec038b3","system_id":"levelo_inurba_marseille","lat":43.32833,"lon":5.36683,"is_reserved":false,"is_disabled":false,"rental_uris":{"android":"levelo://app?vid=e1551569-4640-4838-a3c7-25594ec038b3","ios":"levelo://app?vid=e1551569-4640-4838-a3c7-25594ec038b3"},"vehicle_type_id":"4","last_reported":1692558236,"current_range_meters":2800,"station_id":"ce4bhs92rcd13ifvqi0g","pricing_plan_id":"free"},{"bike_id":"dd789220-e7b5-42c1-b9dc-dc4243148021","system_id":"levelo_inurba_marseille","lat":43.297163,"lon":5.365866,"is_reserved":false,"is_disabled":false,"rental_uris":{"android":"levelo://app?vid=dd789220-e7b5-42c1-b9dc-dc4243148021","ios":"levelo://app?vid=dd789220-e7b5-42c1-b9dc-dc4243148021"},"vehicle_type_id":"4","last_reported":1692558236,"current_range_meters":31200,"station_id":"ce4bgn12rcd13ifvqbt0","pricing_plan_id":"free"},{"bike_id":"c9934a59-0a98-4791-82d5-c79870993931","system_id":"levelo_inurba_marseille","lat":43.311722,"lon":5.387247,"is_reserved":false,"is_disabled":false,"rental_uris":{"android":"levelo://app?vid=c9934a59-0a98-4791-82d5-c79870993931","ios":"levelo://app?vid=c9934a59-0a98-4791-82d5-c79870993931"},"vehicle_type_id":"4","last_reported":1692558236,"current_range_meters":19600,"station_id":"ce4bgv12rcd13ifvqcp0","pricing_plan_id":"free"},{"bike_id":"bb155e93-116e-494a-9911-2df351c7dae8","system_id":"levelo_inurba_marseille","lat":43.296129,"lon":5.370777,"is_reserved":false,"is_disabled":false,"rental_uris":{"android":"levelo://app?vid=bb155e93-116e-494a-9911-2df351c7dae8","ios":"levelo://app?vid=bb155e93-116e-494a-9911-2df351c7dae8"},"vehicle_type_id":"4","last_reported":1692558236,"current_range_meters":29200,"station_id":"ce4bgnh2rcd13ifvqc0g","pricing_plan_id":"free"},{"bike_id":"d3139180-8ba9-4c91-b6e4-8baae3c22113","system_id":"levelo_inurba_marseille","lat":43.29606,"lon":5.37191,"is_reserved":false,"is_disabled":false,"rental_uris":{"android":"levelo://app?vid=d3139180-8ba9-4c91-b6e4-8baae3c22113","ios":"levelo://app?vid=d3139180-8ba9-4c91-b6e4-8baae3c22113"},"vehicle_type_id":"4","last_reported":1692558236,"current_range_meters":29600,"station_id":"","pricing_plan_id":"free"},{"bike_id":"44c5ae40-5eeb-40ae-ad7f-d6a531274a8c","system_id":"levelo_inurba_marseille","lat":43.296935,"lon":5.376544,"is_reserved":false,"is_disabled":false,"rental_uris":{"android":"levelo://app?vid=44c5ae40-5eeb-40ae-ad7f-d6a531274a8c","ios":"levelo://app?vid=44c5ae40-5eeb-40ae-ad7f-d6a531274a8c"},"vehicle_type_id":"4","last_reported":1692558236,"current_range_meters":0,"station_id":"ce4bgkh2rcd13ifvqbl0","pricing_plan_id":"free"},{"bike_id":"2aeb91aa-6f0b-48b0-ae8d-3a98451c1348","system_id":"levelo_inurba_marseille","lat":43.296935,"lon":5.376544,"is_reserved":false,"is_disabled":false,"rental_uris":{"android":"levelo://app?vid=2aeb91aa-6f0b-48b0-ae8d-3a98451c1348","ios":"levelo://app?vid=2aeb91aa-6f0b-48b0-ae8d-3a98451c1348"},"vehicle_type_id":"4","last_reported":1692558236,"current_range_meters":25600,"station_id":"ce4bgkh2rcd13ifvqbl0","pricing_plan_id":"free"},{"bike_id":"ce7aa2b8-8e43-499d-aec1-39f4f0ad6332","system_id":"levelo_inurba_marseille","lat":43.299028,"lon":5.381509,"is_reserved":false,"is_disabled":false,"rental_uris":{"android":"levelo://app?vid=ce7aa2b8-8e43-499d-aec1-39f4f0ad6332","ios":"levelo://app?vid=ce7aa2b8-8e43-499d-aec1-39f4f0ad6332"},"vehicle_type_id":"4","last_reported":1692558236,"current_range_meters":22000,"station_id":"ce4bgj12rcd13ifvqbc0","pricing_plan_id":"free"},{"bike_id":"d9ac76f1-c793-4663-ad73-77f8ab05f628","system_id":"levelo_inurba_marseille","lat":43.309589,"lon":5.390258,"is_reserved":false,"is_disabled":false,"rental_uris":{"android":"levelo://app?vid=d9ac76f1-c793-4663-ad73-77f8ab05f628","ios":"levelo://app?vid=d9ac76f1-c793-4663-ad73-77f8ab05f628"},"vehicle_type_id":"4","last_reported":1692558236,"current_range_meters":3200,"station_id":"ce4bgup2rcd13ifvqco0","pricing_plan_id":"free"},{"bike_id":"d045c737-6df7-441c-8cc8-58ae3fa12c9a","system_id":"levelo_inurba_marseille","lat":43.309589,"lon":5.390258,"is_reserved":false,"is_disabled":false,"rental_uris":{"android":"levelo://app?vid=d045c737-6df7-441c-8cc8-58ae3fa12c9a","ios":"levelo://app?vid=d045c737-6df7-441c-8cc8-58ae3fa12c9a"},"vehicle_type_id":"4","last_reported":1692558236,"current_range_meters":24400,"station_id":"ce4bgup2rcd13ifvqco0","pricing_plan_id":"free"},{"bike_id":"5f43b0a6-4bdb-491a-a544-969d9f7321d4","system_id":"levelo_inurba_marseille","lat":43.295748,"lon":5.37522,"is_reserved":false,"is_disabled":false,"rental_uris":{"android":"levelo://app?vid=5f43b0a6-4bdb-491a-a544-969d9f7321d4","ios":"levelo://app?vid=5f43b0a6-4bdb-491a-a544-969d9f7321d4"},"vehicle_type_id":"4","last_reported":1692558236,"current_range_meters":16400,"station_id":"ce4bgh92rcd13ifvqb50","pricing_plan_id":"free"},{"bike_id":"f4c401a1-e198-42bc-9712-273c25a0849e","system_id":"levelo_inurba_marseille","lat":43.304278,"lon":5.388868,"is_reserved":false,"is_disabled":false,"rental_uris":{"android":"levelo://app?vid=f4c401a1-e198-42bc-9712-273c25a0849e","ios":"levelo://app?vid=f4c401a1-e198-42bc-9712-273c25a0849e"},"vehicle_type_id":"4","last_reported":1692558236,"current_range_meters":14000,"station_id":"ce4bgk12rcd13ifvqbi0","pricing_plan_id":"free"},{"bike_id":"a4df99ce-0488-49dd-a888-94686f562e88","system_id":"levelo_inurba_marseille","lat":43.295748,"lon":5.37522,"is_reserved":false,"is_disabled":false,"rental_uris":{"android":"levelo://app?vid=a4df99ce-0488-49dd-a888-94686f562e88","ios":"levelo://app?vid=a4df99ce-0488-49dd-a888-94686f562e88"},"vehicle_type_id":"4","last_reported":1692558236,"current_range_meters":28400,"station_id":"ce4bgh92rcd13ifvqb50","pricing_plan_id":"free"},{"bike_id":"c05815c9-520c-49ef-b9bb-52ea0231283e","system_id":"levelo_inurba_marseille","lat":43.29976,"lon":5.38484,"is_reserved":false,"is_disabled":false,"rental_uris":{"android":"levelo://app?vid=c05815c9-520c-49ef-b9bb-52ea0231283e","ios":"levelo://app?vid=c05815c9-520c-49ef-b9bb-52ea0231283e"},"vehicle_type_id":"4","last_reported":1692558236,"current_range_meters":9600,"station_id":"ce4bgj92rcd13ifvqbd0","pricing_plan_id":"free"},{"bike_id":"00883cd9-a56a-4720-bb55-237d0136a4a1","system_id":"levelo_inurba_marseille","lat":43.32367,"lon":5.388836,"is_reserved":false,"is_disabled":false,"rental_uris":{"android":"levelo://app?vid=00883cd9-a56a-4720-bb55-237d0136a4a1","ios":"levelo://app?vid=00883cd9-a56a-4720-bb55-237d0136a4a1"},"vehicle_type_id":"4","last_reported":1692558236,"current_range_meters":22000,"station_id":"ce4bhqp2rcd13ifvqhog","pricing_plan_id":"free"},{"bike_id":"6b6cba89-d2b8-44bb-8454-5df08cf65f67","system_id":"levelo_inurba_marseille","lat":43.32367,"lon":5.388836,"is_reserved":false,"is_disabled":false,"rental_uris":{"android":"levelo://app?vid=6b6cba89-d2b8-44bb-8454-5df08cf65f67","ios":"levelo://app?vid=6b6cba89-d2b8-44bb-8454-5df08cf65f67"},"vehicle_type_id":"4","last_reported":1692558236,"current_range_meters":7200,"station_id":"ce4bhqp2rcd13ifvqhog","pricing_plan_id":"free"},{"bike_id":"dfc2579e-44d1-4d71-91a7-ec2b1e326aa0","system_id":"levelo_inurba_marseille","lat":43.30596,"lon":5.39353,"is_reserved":false,"is_disabled":false,"rental_uris":{"android":"levelo://app?vid=dfc2579e-44d1-4d71-91a7-ec2b1e326aa0","ios":"levelo://app?vid=dfc2579e-44d1-4d71-91a7-ec2b1e326aa0"},"vehicle_type_id":"4","last_reported":1692558236,"current_range_meters":18800,"station_id":"ce4bh0p2rcd13ifvqd80","pricing_plan_id":"free"},{"bike_id":"38fef587-7cc5-4800-b069-87b8f296a10a","system_id":"levelo_inurba_marseille","lat":43.293009,"lon":5.374584,"is_reserved":false,"is_disabled":false,"rental_uris":{"android":"levelo://app?vid=38fef587-7cc5-4800-b069-87b8f296a10a","ios":"levelo://app?vid=38fef587-7cc5-4800-b069-87b8f296a10a"},"vehicle_type_id":"4","last_reported":1692558236,"current_range_meters":31200,"station_id":"ce4bgi12rcd13ifvqb70","pricing_plan_id":"free"},{"bike_id":"0724f352-a262-45b7-9b71-9a09ff17d945","system_id":"levelo_inurba_marseille","lat":43.30303,"lon":5.39208,"is_reserved":false,"is_disabled":false,"rental_uris":{"android":"levelo://app?vid=0724f352-a262-45b7-9b71-9a09ff17d945","ios":"levelo://app?vid=0724f352-a262-45b7-9b71-9a09ff17d945"},"vehicle_type_id":"4","last_reported":1692558236,"current_range_meters":18800,"station_id":"ce4bgkh2rcd13ifvqbk0","pricing_plan_id":"free"},{"bike_id":"cac118f9-6e0f-4a1d-a5c2-38bbad08e09e","system_id":"levelo_inurba_marseille","lat":43.2936,"lon":5.37835,"is_reserved":false,"is_disabled":false,"rental_uris":{"android":"levelo://app?vid=cac118f9-6e0f-4a1d-a5c2-38bbad08e09e","ios":"levelo://app?vid=cac118f9-6e0f-4a1d-a5c2-38bbad08e09e"},"vehicle_type_id":"4","last_reported":1692558236,"current_range_meters":0,"station_id":"ce4bgjh2rcd13ifvqbf0","pricing_plan_id":"free"},{"bike_id":"9fa67476-cdee-476c-bfd3-9214563c9cae","system_id":"levelo_inurba_marseille","lat":43.30085,"lon":5.390856,"is_reserved":false,"is_disabled":false,"rental_uris":{"android":"levelo://app?vid=9fa67476-cdee-476c-bfd3-9214563c9cae","ios":"levelo://app?vid=9fa67476-cdee-476c-bfd3-9214563c9cae"},"vehicle_type_id":"4","last_reported":1692558236,"current_range_meters":18400,"station_id":"ce4bh192rcd13ifvqdb0","pricing_plan_id":"free"},{"bike_id":"9f3fc79f-d788-43d9-898e-b58348d20cb9","system_id":"levelo_inurba_marseille","lat":43.29878,"lon":5.38906,"is_reserved":false,"is_disabled":false,"rental_uris":{"android":"levelo://app?vid=9f3fc79f-d788-43d9-898e-b58348d20cb9","ios":"levelo://app?vid=9f3fc79f-d788-43d9-898e-b58348d20cb9"},"vehicle_type_id":"4","last_reported":1692558236,"current_range_meters":2800,"station_id":"ce4bh392rcd13ifvqdl0","pricing_plan_id":"free"},{"bike_id":"f1acd286-18f1-4392-b240-dc5e98855c21","system_id":"levelo_inurba_marseille","lat":43.30887,"lon":5.39642,"is_reserved":false,"is_disabled":false,"rental_uris":{"android":"levelo://app?vid=f1acd286-18f1-4392-b240-dc5e98855c21","ios":"levelo://app?vid=f1acd286-18f1-4392-b240-dc5e98855c21"},"vehicle_type_id":"4","last_reported":1692558236,"current_range_meters":18000,"station_id":"ce4bh012rcd13ifvqcv0","pricing_plan_id":"free"},{"bike_id":"c0b6f707-36d4-4fe9-bb87-ac5bd9823b35","system_id":"levelo_inurba_marseille","lat":43.30888,"lon":5.39654,"is_reserved":false,"is_disabled":false,"rental_uris":{"android":"levelo://app?vid=c0b6f707-36d4-4fe9-bb87-ac5bd9823b35","ios":"levelo://app?vid=c0b6f707-36d4-4fe9-bb87-ac5bd9823b35"},"vehicle_type_id":"4","last_reported":1692558236,"current_range_meters":14400,"station_id":"ce4bh012rcd13ifvqcv0","pricing_plan_id":"free"},{"bike_id":"3c99606a-cfd1-4b08-a5da-392aa4b30abe","system_id":"levelo_inurba_marseille","lat":43.32894,"lon":5.38776,"is_reserved":false,"is_disabled":false,"rental_uris":{"android":"levelo://app?vid=3c99606a-cfd1-4b08-a5da-392aa4b30abe","ios":"levelo://app?vid=3c99606a-cfd1-4b08-a5da-392aa4b30abe"},"vehicle_type_id":"4","last_reported":1692558236,"current_range_meters":8800,"station_id":"","pricing_plan_id":"free"},{"bike_id":"da20afea-b3af-4937-aec5-c17b3015e54c","system_id":"levelo_inurba_marseille","lat":43.290779,"lon":5.371482,"is_reserved":false,"is_disabled":false,"rental_uris":{"android":"levelo://app?vid=da20afea-b3af-4937-aec5-c17b3015e54c","ios":"levelo://app?vid=da20afea-b3af-4937-aec5-c17b3015e54c"},"vehicle_type_id":"4","last_reported":1692558236,"current_range_meters":12400,"station_id":"ce4bh5p2rcd13ifvqe4g","pricing_plan_id":"free"},{"bike_id":"3644ef96-6bb0-49db-9c24-6d85bcbcf494","system_id":"levelo_inurba_marseille","lat":43.302008,"lon":5.394694,"is_reserved":false,"is_disabled":false,"rental_uris":{"android":"levelo://app?vid=3644ef96-6bb0-49db-9c24-6d85bcbcf494","ios":"levelo://app?vid=3644ef96-6bb0-49db-9c24-6d85bcbcf494"},"vehicle_type_id":"4","last_reported":1692558236,"current_range_meters":3200,"station_id":"ce4bh0p2rcd13ifvqd70","pricing_plan_id":"free"},{"bike_id":"0ef52f08-4233-40e9-84bb-b1672c6a6fd9","system_id":"levelo_inurba_marseille","lat":43.29042,"lon":5.37565,"is_reserved":false,"is_disabled":false,"rental_uris":{"android":"levelo://app?vid=0ef52f08-4233-40e9-84bb-b1672c6a6fd9","ios":"levelo://app?vid=0ef52f08-4233-40e9-84bb-b1672c6a6fd9"},"vehicle_type_id":"4","last_reported":1692558236,"current_range_meters":18800,"station_id":"ce4bh692rcd13ifvqe90","pricing_plan_id":"free"},{"bike_id":"1d73aeae-56b0-4d43-a03c-6f67fd71f38a","system_id":"levelo_inurba_marseille","lat":43.294153,"lon":5.386305,"is_reserved":false,"is_disabled":false,"rental_uris":{"android":"levelo://app?vid=1d73aeae-56b0-4d43-a03c-6f67fd71f38a","ios":"levelo://app?vid=1d73aeae-56b0-4d43-a03c-6f67fd71f38a"},"vehicle_type_id":"4","last_reported":1692558236,"current_range_meters":800,"station_id":"ce4bh2h2rcd13ifvqdh0","pricing_plan_id":"free"},{"bike_id":"d49fe562-61b4-45f6-96cb-863c03f791de","system_id":"levelo_inurba_marseille","lat":43.292642,"lon":5.384254,"is_reserved":false,"is_disabled":false,"rental_uris":{"android":"levelo://app?vid=d49fe562-61b4-45f6-96cb-863c03f791de","ios":"levelo://app?vid=d49fe562-61b4-45f6-96cb-863c03f791de"},"vehicle_type_id":"4","last_reported":1692558236,"current_range_meters":25600,"station_id":"ce4bh692rcd13ifvqea0","pricing_plan_id":"free"},{"bike_id":"d81a57cd-9c0f-4a4f-af5c-237463e4d90a","system_id":"levelo_inurba_marseille","lat":43.292642,"lon":5.384254,"is_reserved":false,"is_disabled":false,"rental_uris":{"android":"levelo://app?vid=d81a57cd-9c0f-4a4f-af5c-237463e4d90a","ios":"levelo://app?vid=d81a57cd-9c0f-4a4f-af5c-237463e4d90a"},"vehicle_type_id":"4","last_reported":1692558236,"current_range_meters":18400,"station_id":"ce4bh692rcd13ifvqea0","pricing_plan_id":"free"},{"bike_id":"cfbbc4a4-e554-4232-a73d-2a37254603d3","system_id":"levelo_inurba_marseille","lat":43.292642,"lon":5.384254,"is_reserved":false,"is_disabled":false,"rental_uris":{"android":"levelo://app?vid=cfbbc4a4-e554-4232-a73d-2a37254603d3","ios":"levelo://app?vid=cfbbc4a4-e554-4232-a73d-2a37254603d3"},"vehicle_type_id":"4","last_reported":1692558236,"current_range_meters":9600,"station_id":"ce4bh692rcd13ifvqea0","pricing_plan_id":"free"},{"bike_id":"fd01e957-98bd-450d-a772-ac6633f5a34c","system_id":"levelo_inurba_marseille","lat":43.292642,"lon":5.384254,"is_reserved":false,"is_disabled":false,"rental_uris":{"android":"levelo://app?vid=fd01e957-98bd-450d-a772-ac6633f5a34c","ios":"levelo://app?vid=fd01e957-98bd-450d-a772-ac6633f5a34c"},"vehicle_type_id":"4","last_reported":1692558236,"current_range_meters":0,"station_id":"ce4bh692rcd13ifvqea0","pricing_plan_id":"free"},{"bike_id":"06f42ee0-4b4e-4431-821d-fa731fdcb786","system_id":"levelo_inurba_marseille","lat":43.30432,"lon":5.39757,"is_reserved":false,"is_disabled":false,"rental_uris":{"android":"levelo://app?vid=06f42ee0-4b4e-4431-821d-fa731fdcb786","ios":"levelo://app?vid=06f42ee0-4b4e-4431-821d-fa731fdcb786"},"vehicle_type_id":"4","last_reported":1692558236,"current_range_meters":15200,"station_id":"ce4bh092rcd13ifvqd20","pricing_plan_id":"free"},{"bike_id":"311cb0a1-d2bd-42c8-aa64-be9b063c2c5e","system_id":"levelo_inurba_marseille","lat":43.33045,"lon":5.38907,"is_reserved":false,"is_disabled":false,"rental_uris":{"android":"levelo://app?vid=311cb0a1-d2bd-42c8-aa64-be9b063c2c5e","ios":"levelo://app?vid=311cb0a1-d2bd-42c8-aa64-be9b063c2c5e"},"vehicle_type_id":"4","last_reported":1692558236,"current_range_meters":22000,"station_id":"ce4bhr92rcd13ifvqhrg","pricing_plan_id":"free"},{"bike_id":"f7005a11-f4b8-40eb-a1e9-6d3833ad8114","system_id":"levelo_inurba_marseille","lat":43.33042,"lon":5.38913,"is_reserved":false,"is_disabled":false,"rental_uris":{"android":"levelo://app?vid=f7005a11-f4b8-40eb-a1e9-6d3833ad8114","ios":"levelo://app?vid=f7005a11-f4b8-40eb-a1e9-6d3833ad8114"},"vehicle_type_id":"4","last_reported":1692558236,"current_range_meters":25600,"station_id":"ce4bhr92rcd13ifvqhrg","pricing_plan_id":"free"},{"bike_id":"5036c72a-6252-47f4-a9fb-50fd514d506a","system_id":"levelo_inurba_marseille","lat":43.33039,"lon":5.38919,"is_reserved":false,"is_disabled":false,"rental_uris":{"android":"levelo://app?vid=5036c72a-6252-47f4-a9fb-50fd514d506a","ios":"levelo://app?vid=5036c72a-6252-47f4-a9fb-50fd514d506a"},"vehicle_type_id":"4","last_reported":1692558236,"current_range_meters":18800,"station_id":"ce4bhr92rcd13ifvqhrg","pricing_plan_id":"free"},{"bike_id":"b49ef1fe-d3e0-4690-8529-1330f595a727","system_id":"levelo_inurba_marseille","lat":43.33045,"lon":5.38911,"is_reserved":false,"is_disabled":false,"rental_uris":{"android":"levelo://app?vid=b49ef1fe-d3e0-4690-8529-1330f595a727","ios":"levelo://app?vid=b49ef1fe-d3e0-4690-8529-1330f595a727"},"vehicle_type_id":"4","last_reported":1692558236,"current_range_meters":8400,"station_id":"ce4bhr92rcd13ifvqhrg","pricing_plan_id":"free"},{"bike_id":"de450cac-4370-4660-9455-3e94463307a2","system_id":"levelo_inurba_marseille","lat":43.3304,"lon":5.38922,"is_reserved":false,"is_disabled":false,"rental_uris":{"android":"levelo://app?vid=de450cac-4370-4660-9455-3e94463307a2","ios":"levelo://app?vid=de450cac-4370-4660-9455-3e94463307a2"},"vehicle_type_id":"4","last_reported":1692558236,"current_range_meters":14000,"station_id":"ce4bhr92rcd13ifvqhrg","pricing_plan_id":"free"},{"bike_id":"c65152a1-dca7-4ee4-9864-308587d5ed74","system_id":"levelo_inurba_marseille","lat":43.3304,"lon":5.38922,"is_reserved":false,"is_disabled":false,"rental_uris":{"android":"levelo://app?vid=c65152a1-dca7-4ee4-9864-308587d5ed74","ios":"levelo://app?vid=c65152a1-dca7-4ee4-9864-308587d5ed74"},"vehicle_type_id":"4","last_reported":1692558236,"current_range_meters":18800,"station_id":"ce4bhr92rcd13ifvqhrg","pricing_plan_id":"free"},{"bike_id":"a5d7998c-4c76-4390-bbcf-8c2a2abd7eba","system_id":"levelo_inurba_marseille","lat":43.3304,"lon":5.38923,"is_reserved":false,"is_disabled":false,"rental_uris":{"android":"levelo://app?vid=a5d7998c-4c76-4390-bbcf-8c2a2abd7eba","ios":"levelo://app?vid=a5d7998c-4c76-4390-bbcf-8c2a2abd7eba"},"vehicle_type_id":"4","last_reported":1692558236,"current_range_meters":28000,"station_id":"ce4bhr92rcd13ifvqhrg","pricing_plan_id":"free"},{"bike_id":"3b3e7c42-cded-4bde-b175-99650afa4f17","system_id":"levelo_inurba_marseille","lat":43.33051,"lon":5.38907,"is_reserved":false,"is_disabled":false,"rental_uris":{"android":"levelo://app?vid=3b3e7c42-cded-4bde-b175-99650afa4f17","ios":"levelo://app?vid=3b3e7c42-cded-4bde-b175-99650afa4f17"},"vehicle_type_id":"4","last_reported":1692558236,"current_range_meters":20400,"station_id":"ce4bhr92rcd13ifvqhrg","pricing_plan_id":"free"},{"bike_id":"d2b15eb2-4474-4e56-aace-fe335ab0092e","system_id":"levelo_inurba_marseille","lat":43.33045,"lon":5.38917,"is_reserved":false,"is_disabled":false,"rental_uris":{"android":"levelo://app?vid=d2b15eb2-4474-4e56-aace-fe335ab0092e","ios":"levelo://app?vid=d2b15eb2-4474-4e56-aace-fe335ab0092e"},"vehicle_type_id":"4","last_reported":1692558236,"current_range_meters":11200,"station_id":"ce4bhr92rcd13ifvqhrg","pricing_plan_id":"free"},{"bike_id":"c8619c93-5f6a-45f4-8e07-c81fcc1e21be","system_id":"levelo_inurba_marseille","lat":43.33044,"lon":5.38919,"is_reserved":false,"is_disabled":false,"rental_uris":{"android":"levelo://app?vid=c8619c93-5f6a-45f4-8e07-c81fcc1e21be","ios":"levelo://app?vid=c8619c93-5f6a-45f4-8e07-c81fcc1e21be"},"vehicle_type_id":"4","last_reported":1692558236,"current_range_meters":23200,"station_id":"ce4bhr92rcd13ifvqhrg","pricing_plan_id":"free"},{"bike_id":"86eac789-1e56-496d-abfa-705e29d378c7","system_id":"levelo_inurba_marseille","lat":43.33043,"lon":5.38921,"is_reserved":false,"is_disabled":false,"rental_uris":{"android":"levelo://app?vid=86eac789-1e56-496d-abfa-705e29d378c7","ios":"levelo://app?vid=86eac789-1e56-496d-abfa-705e29d378c7"},"vehicle_type_id":"4","last_reported":1692558236,"current_range_meters":26400,"station_id":"ce4bhr92rcd13ifvqhrg","pricing_plan_id":"free"},{"bike_id":"9e24a65c-fe1e-45dc-88b9-dd0cad85064c","system_id":"levelo_inurba_marseille","lat":43.33046,"lon":5.38917,"is_reserved":false,"is_disabled":false,"rental_uris":{"android":"levelo://app?vid=9e24a65c-fe1e-45dc-88b9-dd0cad85064c","ios":"levelo://app?vid=9e24a65c-fe1e-45dc-88b9-dd0cad85064c"},"vehicle_type_id":"4","last_reported":1692558236,"current_range_meters":26000,"station_id":"ce4bhr92rcd13ifvqhrg","pricing_plan_id":"free"},{"bike_id":"708f7f21-b221-4c14-94b6-b5d8e3289350","system_id":"levelo_inurba_marseille","lat":43.33045,"lon":5.3892,"is_reserved":false,"is_disabled":false,"rental_uris":{"android":"levelo://app?vid=708f7f21-b221-4c14-94b6-b5d8e3289350","ios":"levelo://app?vid=708f7f21-b221-4c14-94b6-b5d8e3289350"},"vehicle_type_id":"4","last_reported":1692558236,"current_range_meters":17600,"station_id":"ce4bhr92rcd13ifvqhrg","pricing_plan_id":"free"},{"bike_id":"eb950724-6c95-4fb2-915f-35b08a8cfd23","system_id":"levelo_inurba_marseille","lat":43.33048,"lon":5.38919,"is_reserved":false,"is_disabled":false,"rental_uris":{"android":"levelo://app?vid=eb950724-6c95-4fb2-915f-35b08a8cfd23","ios":"levelo://app?vid=eb950724-6c95-4fb2-915f-35b08a8cfd23"},"vehicle_type_id":"4","last_reported":1692558236,"current_range_meters":16000,"station_id":"ce4bhr92rcd13ifvqhrg","pricing_plan_id":"free"},{"bike_id":"52662068-d06a-40c1-bfee-ce6664dc3a83","system_id":"levelo_inurba_marseille","lat":43.33048,"lon":5.3892,"is_reserved":false,"is_disabled":false,"rental_uris":{"android":"levelo://app?vid=52662068-d06a-40c1-bfee-ce6664dc3a83","ios":"levelo://app?vid=52662068-d06a-40c1-bfee-ce6664dc3a83"},"vehicle_type_id":"4","last_reported":1692558236,"current_range_meters":0,"station_id":"ce4bhr92rcd13ifvqhrg","pricing_plan_id":"free"},{"bike_id":"331b6e0a-8cfc-4305-9eef-0266cde03da7","system_id":"levelo_inurba_marseille","lat":43.33047,"lon":5.38929,"is_reserved":false,"is_disabled":false,"rental_uris":{"android":"levelo://app?vid=331b6e0a-8cfc-4305-9eef-0266cde03da7","ios":"levelo://app?vid=331b6e0a-8cfc-4305-9eef-0266cde03da7"},"vehicle_type_id":"4","last_reported":1692558236,"current_range_meters":12000,"station_id":"ce4bhr92rcd13ifvqhrg","pricing_plan_id":"free"},{"bike_id":"d3f409bb-e920-44d3-b7b4-1036761b0a43","system_id":"levelo_inurba_marseille","lat":43.290995,"lon":5.381361,"is_reserved":false,"is_disabled":false,"rental_uris":{"android":"levelo://app?vid=d3f409bb-e920-44d3-b7b4-1036761b0a43","ios":"levelo://app?vid=d3f409bb-e920-44d3-b7b4-1036761b0a43"},"vehicle_type_id":"4","last_reported":1692558236,"current_range_meters":0,"station_id":"ce4bh512rcd13ifvqe2g","pricing_plan_id":"free"},{"bike_id":"0d42adbb-852e-4176-b626-1e7a637147ac","system_id":"levelo_inurba_marseille","lat":43.290995,"lon":5.381361,"is_reserved":false,"is_disabled":false,"rental_uris":{"android":"levelo://app?vid=0d42adbb-852e-4176-b626-1e7a637147ac","ios":"levelo://app?vid=0d42adbb-852e-4176-b626-1e7a637147ac"},"vehicle_type_id":"4","last_reported":1692558236,"current_range_meters":25200,"station_id":"ce4bh512rcd13ifvqe2g","pricing_plan_id":"free"},{"bike_id":"400c2f13-cf15-41df-9442-294487ac200d","system_id":"levelo_inurba_marseille","lat":43.28994,"lon":5.37831,"is_reserved":false,"is_disabled":false,"rental_uris":{"android":"levelo://app?vid=400c2f13-cf15-41df-9442-294487ac200d","ios":"levelo://app?vid=400c2f13-cf15-41df-9442-294487ac200d"},"vehicle_type_id":"4","last_reported":1692558236,"current_range_meters":15600,"station_id":"ce4bh9p2rcd13ifvqed0","pricing_plan_id":"free"},{"bike_id":"80a66fc1-c4bb-475f-8926-e082eb447fed","system_id":"levelo_inurba_marseille","lat":43.289741,"lon":5.378306,"is_reserved":false,"is_disabled":false,"rental_uris":{"android":"levelo://app?vid=80a66fc1-c4bb-475f-8926-e082eb447fed","ios":"levelo://app?vid=80a66fc1-c4bb-475f-8926-e082eb447fed"},"vehicle_type_id":"4","last_reported":1692558236,"current_range_meters":24000,"station_id":"ce4bh9p2rcd13ifvqed0","pricing_plan_id":"free"},{"bike_id":"c9ac8dfd-0505-4fd2-a5e8-3e3a15b77b89","system_id":"levelo_inurba_marseille","lat":43.289741,"lon":5.378306,"is_reserved":false,"is_disabled":false,"rental_uris":{"android":"levelo://app?vid=c9ac8dfd-0505-4fd2-a5e8-3e3a15b77b89","ios":"levelo://app?vid=c9ac8dfd-0505-4fd2-a5e8-3e3a15b77b89"},"vehicle_type_id":"4","last_reported":1692558236,"current_range_meters":1200,"station_id":"ce4bh9p2rcd13ifvqed0","pricing_plan_id":"free"},{"bike_id":"fbef3c14-0b86-4a78-8deb-63802005fa3c","system_id":"levelo_inurba_marseille","lat":43.28977,"lon":5.37843,"is_reserved":false,"is_disabled":false,"rental_uris":{"android":"levelo://app?vid=fbef3c14-0b86-4a78-8deb-63802005fa3c","ios":"levelo://app?vid=fbef3c14-0b86-4a78-8deb-63802005fa3c"},"vehicle_type_id":"4","last_reported":1692558236,"current_range_meters":11200,"station_id":"ce4bh9p2rcd13ifvqed0","pricing_plan_id":"free"},{"bike_id":"eddca388-e10d-4a9f-adec-f2b1f70f382a","system_id":"levelo_inurba_marseille","lat":43.29022,"lon":5.38135,"is_reserved":false,"is_disabled":false,"rental_uris":{"android":"levelo://app?vid=eddca388-e10d-4a9f-adec-f2b1f70f382a","ios":"levelo://app?vid=eddca388-e10d-4a9f-adec-f2b1f70f382a"},"vehicle_type_id":"4","last_reported":1692558236,"current_range_meters":5200,"station_id":"ce4bh4p2rcd13ifvqe1g","pricing_plan_id":"free"},{"bike_id":"b78dac62-0986-43f9-9b79-56a15dc21d7c","system_id":"levelo_inurba_marseille","lat":43.28856,"lon":5.358371,"is_reserved":false,"is_disabled":false,"rental_uris":{"android":"levelo://app?vid=b78dac62-0986-43f9-9b79-56a15dc21d7c","ios":"levelo://app?vid=b78dac62-0986-43f9-9b79-56a15dc21d7c"},"vehicle_type_id":"4","last_reported":1692558236,"current_range_meters":14400,"station_id":"ce4bhb12rcd13ifvqem0","pricing_plan_id":"free"},{"bike_id":"1af09a21-1484-4c04-af28-7487a22cf519","system_id":"levelo_inurba_marseille","lat":43.309371,"lon":5.401449,"is_reserved":false,"is_disabled":false,"rental_uris":{"android":"levelo://app?vid=1af09a21-1484-4c04-af28-7487a22cf519","ios":"levelo://app?vid=1af09a21-1484-4c04-af28-7487a22cf519"},"vehicle_type_id":"4","last_reported":1692558236,"current_range_meters":5200,"station_id":"ce4bgvp2rcd13ifvqct0","pricing_plan_id":"free"},{"bike_id":"2241bce1-ebf9-4d91-b7e5-fe08a6544f42","system_id":"levelo_inurba_marseille","lat":43.33749,"lon":5.37499,"is_reserved":false,"is_disabled":false,"rental_uris":{"android":"levelo://app?vid=2241bce1-ebf9-4d91-b7e5-fe08a6544f42","ios":"levelo://app?vid=2241bce1-ebf9-4d91-b7e5-fe08a6544f42"},"vehicle_type_id":"4","last_reported":1692558236,"current_range_meters":19200,"station_id":"","pricing_plan_id":"free"},{"bike_id":"dd57614b-f089-482b-bc2c-0c04956898e3","system_id":"levelo_inurba_marseille","lat":43.301117,"lon":5.398795,"is_reserved":false,"is_disabled":false,"rental_uris":{"android":"levelo://app?vid=dd57614b-f089-482b-bc2c-0c04956898e3","ios":"levelo://app?vid=dd57614b-f089-482b-bc2c-0c04956898e3"},"vehicle_type_id":"4","last_reported":1692558236,"current_range_meters":17600,"station_id":"ce4bh0h2rcd13ifvqd40","pricing_plan_id":"free"},{"bike_id":"808f1637-db47-4c6a-941e-d3a8a59729db","system_id":"levelo_inurba_marseille","lat":43.28711,"lon":5.37368,"is_reserved":false,"is_disabled":false,"rental_uris":{"android":"levelo://app?vid=808f1637-db47-4c6a-941e-d3a8a59729db","ios":"levelo://app?vid=808f1637-db47-4c6a-941e-d3a8a59729db"},"vehicle_type_id":"4","last_reported":1692558236,"current_range_meters":11600,"station_id":"ce4bh3p2rcd13ifvqdq0","pricing_plan_id":"free"},{"bike_id":"4314af4c-9bf3-41b7-aa27-1cc75fe8865a","system_id":"levelo_inurba_marseille","lat":43.28711,"lon":5.37378,"is_reserved":false,"is_disabled":false,"rental_uris":{"android":"levelo://app?vid=4314af4c-9bf3-41b7-aa27-1cc75fe8865a","ios":"levelo://app?vid=4314af4c-9bf3-41b7-aa27-1cc75fe8865a"},"vehicle_type_id":"4","last_reported":1692558236,"current_range_meters":26000,"station_id":"ce4bh3p2rcd13ifvqdq0","pricing_plan_id":"free"},{"bike_id":"cb7d3afe-5267-4eb5-b98a-021dc2793292","system_id":"levelo_inurba_marseille","lat":43.28711,"lon":5.37382,"is_reserved":false,"is_disabled":false,"rental_uris":{"android":"levelo://app?vid=cb7d3afe-5267-4eb5-b98a-021dc2793292","ios":"levelo://app?vid=cb7d3afe-5267-4eb5-b98a-021dc2793292"},"vehicle_type_id":"4","last_reported":1692558236,"current_range_meters":24800,"station_id":"ce4bh3p2rcd13ifvqdq0","pricing_plan_id":"free"},{"bike_id":"7419ba2b-deee-4eed-b0ec-6c5ec00aea81","system_id":"levelo_inurba_marseille","lat":43.298681,"lon":5.397225,"is_reserved":false,"is_disabled":false,"rental_uris":{"android":"levelo://app?vid=7419ba2b-deee-4eed-b0ec-6c5ec00aea81","ios":"levelo://app?vid=7419ba2b-deee-4eed-b0ec-6c5ec00aea81"},"vehicle_type_id":"4","last_reported":1692558236,"current_range_meters":10800,"station_id":"ce4bh0h2rcd13ifvqd50","pricing_plan_id":"free"},{"bike_id":"8841df9d-320f-4c79-b807-b693ed045a00","system_id":"levelo_inurba_marseille","lat":43.28705,"lon":5.37388,"is_reserved":false,"is_disabled":false,"rental_uris":{"android":"levelo://app?vid=8841df9d-320f-4c79-b807-b693ed045a00","ios":"levelo://app?vid=8841df9d-320f-4c79-b807-b693ed045a00"},"vehicle_type_id":"4","last_reported":1692558236,"current_range_meters":25200,"station_id":"ce4bh3p2rcd13ifvqdq0","pricing_plan_id":"free"},{"bike_id":"899d99b9-7f95-4ccd-ba0a-d9684c4c2922","system_id":"levelo_inurba_marseille","lat":43.28702,"lon":5.37393,"is_reserved":false,"is_disabled":false,"rental_uris":{"android":"levelo://app?vid=899d99b9-7f95-4ccd-ba0a-d9684c4c2922","ios":"levelo://app?vid=899d99b9-7f95-4ccd-ba0a-d9684c4c2922"},"vehicle_type_id":"4","last_reported":1692558236,"current_range_meters":4800,"station_id":"ce4bh3p2rcd13ifvqdq0","pricing_plan_id":"free"},{"bike_id":"75199276-b705-4ad7-b6a9-49aeaa84628a","system_id":"levelo_inurba_marseille","lat":43.286591,"lon":5.363346,"is_reserved":false,"is_disabled":false,"rental_uris":{"android":"levelo://app?vid=75199276-b705-4ad7-b6a9-49aeaa84628a","ios":"levelo://app?vid=75199276-b705-4ad7-b6a9-49aeaa84628a"},"vehicle_type_id":"4","last_reported":1692558236,"current_range_meters":31200,"station_id":"ce4bhah2rcd13ifvqej0","pricing_plan_id":"free"},{"bike_id":"d09fe075-13c2-44b8-a2d7-d164fa7af7ae","system_id":"levelo_inurba_marseille","lat":43.295196,"lon":5.39397,"is_reserved":false,"is_disabled":false,"rental_uris":{"android":"levelo://app?vid=d09fe075-13c2-44b8-a2d7-d164fa7af7ae","ios":"levelo://app?vid=d09fe075-13c2-44b8-a2d7-d164fa7af7ae"},"vehicle_type_id":"4","last_reported":1692558236,"current_range_meters":8800,"station_id":"ce4bh292rcd13ifvqdf0","pricing_plan_id":"free"},{"bike_id":"8e7d02b3-f3b5-49f6-b792-dbd89474abcb","system_id":"levelo_inurba_marseille","lat":43.302759,"lon":5.400793,"is_reserved":false,"is_disabled":false,"rental_uris":{"android":"levelo://app?vid=8e7d02b3-f3b5-49f6-b792-dbd89474abcb","ios":"levelo://app?vid=8e7d02b3-f3b5-49f6-b792-dbd89474abcb"},"vehicle_type_id":"4","last_reported":1692558236,"current_range_meters":17200,"station_id":"ce4bgvh2rcd13ifvqcs0","pricing_plan_id":"free"},{"bike_id":"1d03d650-3562-450f-88d1-23ae7e72e99e","system_id":"levelo_inurba_marseille","lat":43.290345,"lon":5.38646,"is_reserved":false,"is_disabled":false,"rental_uris":{"android":"levelo://app?vid=1d03d650-3562-450f-88d1-23ae7e72e99e","ios":"levelo://app?vid=1d03d650-3562-450f-88d1-23ae7e72e99e"},"vehicle_type_id":"4","last_reported":1692558236,"current_range_meters":18000,"station_id":"ce4bh4p2rcd13ifvqe0g","pricing_plan_id":"free"},{"bike_id":"4213421f-31f7-49eb-98e0-58f54eafd4a9","system_id":"levelo_inurba_marseille","lat":43.290306,"lon":5.386346,"is_reserved":false,"is_disabled":false,"rental_uris":{"android":"levelo://app?vid=4213421f-31f7-49eb-98e0-58f54eafd4a9","ios":"levelo://app?vid=4213421f-31f7-49eb-98e0-58f54eafd4a9"},"vehicle_type_id":"4","last_reported":1692558236,"current_range_meters":5200,"station_id":"ce4bh4p2rcd13ifvqe0g","pricing_plan_id":"free"},{"bike_id":"9e97c3c4-9c56-4a04-bd33-4884cb9a86da","system_id":"levelo_inurba_marseille","lat":43.290345,"lon":5.38646,"is_reserved":false,"is_disabled":false,"rental_uris":{"android":"levelo://app?vid=9e97c3c4-9c56-4a04-bd33-4884cb9a86da","ios":"levelo://app?vid=9e97c3c4-9c56-4a04-bd33-4884cb9a86da"},"vehicle_type_id":"4","last_reported":1692558236,"current_range_meters":8800,"station_id":"ce4bh4p2rcd13ifvqe0g","pricing_plan_id":"free"},{"bike_id":"2472808d-af30-43af-bd30-b219ae59cbdd","system_id":"levelo_inurba_marseille","lat":43.302759,"lon":5.400793,"is_reserved":false,"is_disabled":false,"rental_uris":{"android":"levelo://app?vid=2472808d-af30-43af-bd30-b219ae59cbdd","ios":"levelo://app?vid=2472808d-af30-43af-bd30-b219ae59cbdd"},"vehicle_type_id":"4","last_reported":1692558236,"current_range_meters":6000,"station_id":"ce4bgvh2rcd13ifvqcs0","pricing_plan_id":"free"},{"bike_id":"80434e5e-b834-4f1c-8ada-7d3206987ba2","system_id":"levelo_inurba_marseille","lat":43.29027,"lon":5.38637,"is_reserved":false,"is_disabled":false,"rental_uris":{"android":"levelo://app?vid=80434e5e-b834-4f1c-8ada-7d3206987ba2","ios":"levelo://app?vid=80434e5e-b834-4f1c-8ada-7d3206987ba2"},"vehicle_type_id":"4","last_reported":1692558236,"current_range_meters":13600,"station_id":"ce4bh4p2rcd13ifvqe0g","pricing_plan_id":"free"},{"bike_id":"f544e401-bf20-4a71-975b-63cf31005b70","system_id":"levelo_inurba_marseille","lat":43.29033,"lon":5.38653,"is_reserved":false,"is_disabled":false,"rental_uris":{"android":"levelo://app?vid=f544e401-bf20-4a71-975b-63cf31005b70","ios":"levelo://app?vid=f544e401-bf20-4a71-975b-63cf31005b70"},"vehicle_type_id":"4","last_reported":1692558236,"current_range_meters":6800,"station_id":"ce4bh4p2rcd13ifvqe0g","pricing_plan_id":"free"},{"bike_id":"fd59e134-3d22-4584-b1d2-ae08a1be0f3c","system_id":"levelo_inurba_marseille","lat":43.290336,"lon":5.386425,"is_reserved":false,"is_disabled":false,"rental_uris":{"android":"levelo://app?vid=fd59e134-3d22-4584-b1d2-ae08a1be0f3c","ios":"levelo://app?vid=fd59e134-3d22-4584-b1d2-ae08a1be0f3c"},"vehicle_type_id":"4","last_reported":1692558236,"current_range_meters":4800,"station_id":"ce4bh4p2rcd13ifvqe0g","pricing_plan_id":"free"},{"bike_id":"e72a7729-14b8-4883-b8f7-9e1fd15826d6","system_id":"levelo_inurba_marseille","lat":43.290336,"lon":5.386425,"is_reserved":false,"is_disabled":false,"rental_uris":{"android":"levelo://app?vid=e72a7729-14b8-4883-b8f7-9e1fd15826d6","ios":"levelo://app?vid=e72a7729-14b8-4883-b8f7-9e1fd15826d6"},"vehicle_type_id":"4","last_reported":1692558236,"current_range_meters":24000,"station_id":"ce4bh4p2rcd13ifvqe0g","pricing_plan_id":"free"},{"bike_id":"d79c619a-8b76-4f90-ae49-7283a1a048f3","system_id":"levelo_inurba_marseille","lat":43.316517,"lon":5.404375,"is_reserved":false,"is_disabled":false,"rental_uris":{"android":"levelo://app?vid=d79c619a-8b76-4f90-ae49-7283a1a048f3","ios":"levelo://app?vid=d79c619a-8b76-4f90-ae49-7283a1a048f3"},"vehicle_type_id":"4","last_reported":1692558236,"current_range_meters":18800,"station_id":"ce4bh012rcd13ifvqd00","pricing_plan_id":"free"},{"bike_id":"cd12af34-545e-4336-9199-d60028070528","system_id":"levelo_inurba_marseille","lat":43.316517,"lon":5.404375,"is_reserved":false,"is_disabled":false,"rental_uris":{"android":"levelo://app?vid=cd12af34-545e-4336-9199-d60028070528","ios":"levelo://app?vid=cd12af34-545e-4336-9199-d60028070528"},"vehicle_type_id":"4","last_reported":1692558236,"current_range_meters":400,"station_id":"ce4bh012rcd13ifvqd00","pricing_plan_id":"free"},{"bike_id":"7da9e437-1e79-4b5f-9ab0-65254ac17dd7","system_id":"levelo_inurba_marseille","lat":43.31649,"lon":5.40442,"is_reserved":false,"is_disabled":false,"rental_uris":{"android":"levelo://app?vid=7da9e437-1e79-4b5f-9ab0-65254ac17dd7","ios":"levelo://app?vid=7da9e437-1e79-4b5f-9ab0-65254ac17dd7"},"vehicle_type_id":"4","last_reported":1692558236,"current_range_meters":20400,"station_id":"ce4bh012rcd13ifvqd00","pricing_plan_id":"free"},{"bike_id":"93c3de86-5747-4766-8dab-bba6521e1c6c","system_id":"levelo_inurba_marseille","lat":43.29199,"lon":5.39333,"is_reserved":false,"is_disabled":false,"rental_uris":{"android":"levelo://app?vid=93c3de86-5747-4766-8dab-bba6521e1c6c","ios":"levelo://app?vid=93c3de86-5747-4766-8dab-bba6521e1c6c"},"vehicle_type_id":"4","last_reported":1692558236,"current_range_meters":0,"station_id":"ce4bh192rcd13ifvqdd0","pricing_plan_id":"free"},{"bike_id":"3e258521-6d6c-4572-9afc-3521c59bf329","system_id":"levelo_inurba_marseille","lat":43.291994,"lon":5.392907,"is_reserved":false,"is_disabled":false,"rental_uris":{"android":"levelo://app?vid=3e258521-6d6c-4572-9afc-3521c59bf329","ios":"levelo://app?vid=3e258521-6d6c-4572-9afc-3521c59bf329"},"vehicle_type_id":"4","last_reported":1692558236,"current_range_meters":16000,"station_id":"ce4bh192rcd13ifvqdd0","pricing_plan_id":"free"},{"bike_id":"17ebde08-4c06-4c96-9ab8-73e27bfb346a","system_id":"levelo_inurba_marseille","lat":43.291994,"lon":5.392907,"is_reserved":false,"is_disabled":false,"rental_uris":{"android":"levelo://app?vid=17ebde08-4c06-4c96-9ab8-73e27bfb346a","ios":"levelo://app?vid=17ebde08-4c06-4c96-9ab8-73e27bfb346a"},"vehicle_type_id":"4","last_reported":1692558236,"current_range_meters":31200,"station_id":"ce4bh192rcd13ifvqdd0","pricing_plan_id":"free"},{"bike_id":"55caea29-b564-43e3-9700-d07775a0d70c","system_id":"levelo_inurba_marseille","lat":43.284655,"lon":5.358827,"is_reserved":false,"is_disabled":false,"rental_uris":{"android":"levelo://app?vid=55caea29-b564-43e3-9700-d07775a0d70c","ios":"levelo://app?vid=55caea29-b564-43e3-9700-d07775a0d70c"},"vehicle_type_id":"4","last_reported":1692558236,"current_range_meters":2000,"station_id":"","pricing_plan_id":"free"},{"bike_id":"03c7b553-c4c0-48e3-9cf9-748197f6f88b","system_id":"levelo_inurba_marseille","lat":43.28461,"lon":5.35881,"is_reserved":false,"is_disabled":false,"rental_uris":{"android":"levelo://app?vid=03c7b553-c4c0-48e3-9cf9-748197f6f88b","ios":"levelo://app?vid=03c7b553-c4c0-48e3-9cf9-748197f6f88b"},"vehicle_type_id":"4","last_reported":1692558236,"current_range_meters":0,"station_id":"ce4bhah2rcd13ifvqei0","pricing_plan_id":"free"},{"bike_id":"cd1a997e-bc79-40d7-b37c-ff9264aad1d9","system_id":"levelo_inurba_marseille","lat":43.284538,"lon":5.358657,"is_reserved":false,"is_disabled":false,"rental_uris":{"android":"levelo://app?vid=cd1a997e-bc79-40d7-b37c-ff9264aad1d9","ios":"levelo://app?vid=cd1a997e-bc79-40d7-b37c-ff9264aad1d9"},"vehicle_type_id":"4","last_reported":1692558236,"current_range_meters":31200,"station_id":"ce4bhah2rcd13ifvqei0","pricing_plan_id":"free"},{"bike_id":"4dbf0e68-b3e3-459b-ab22-3c160608ea64","system_id":"levelo_inurba_marseille","lat":43.294314,"lon":5.397498,"is_reserved":false,"is_disabled":false,"rental_uris":{"android":"levelo://app?vid=4dbf0e68-b3e3-459b-ab22-3c160608ea64","ios":"levelo://app?vid=4dbf0e68-b3e3-459b-ab22-3c160608ea64"},"vehicle_type_id":"4","last_reported":1692558236,"current_range_meters":0,"station_id":"ce4bh3h2rcd13ifvqdo0","pricing_plan_id":"free"},{"bike_id":"95b681b8-f415-46e9-a82f-6d76adb42a5c","system_id":"levelo_inurba_marseille","lat":43.284534,"lon":5.358662,"is_reserved":false,"is_disabled":false,"rental_uris":{"android":"levelo://app?vid=95b681b8-f415-46e9-a82f-6d76adb42a5c","ios":"levelo://app?vid=95b681b8-f415-46e9-a82f-6d76adb42a5c"},"vehicle_type_id":"4","last_reported":1692558236,"current_range_meters":21600,"station_id":"ce4bhah2rcd13ifvqei0","pricing_plan_id":"free"},{"bike_id":"9a04c8f1-f531-416d-b2ca-a6901847ed99","system_id":"levelo_inurba_marseille","lat":43.29436,"lon":5.39747,"is_reserved":false,"is_disabled":false,"rental_uris":{"android":"levelo://app?vid=9a04c8f1-f531-416d-b2ca-a6901847ed99","ios":"levelo://app?vid=9a04c8f1-f531-416d-b2ca-a6901847ed99"},"vehicle_type_id":"4","last_reported":1692558236,"current_range_meters":7200,"station_id":"ce4bh3h2rcd13ifvqdo0","pricing_plan_id":"free"},{"bike_id":"35eec3a1-aa54-4990-8eb4-78e6c0dd24d0","system_id":"levelo_inurba_marseille","lat":43.285856,"lon":5.350771,"is_reserved":false,"is_disabled":false,"rental_uris":{"android":"levelo://app?vid=35eec3a1-aa54-4990-8eb4-78e6c0dd24d0","ios":"levelo://app?vid=35eec3a1-aa54-4990-8eb4-78e6c0dd24d0"},"vehicle_type_id":"4","last_reported":1692558236,"current_range_meters":28000,"station_id":"ce4bhch2rcd13ifvqeug","pricing_plan_id":"free"},{"bike_id":"76b8f14c-bad2-45eb-aa60-f0a54880b2f8","system_id":"levelo_inurba_marseille","lat":43.28415,"lon":5.37511,"is_reserved":false,"is_disabled":false,"rental_uris":{"android":"levelo://app?vid=76b8f14c-bad2-45eb-aa60-f0a54880b2f8","ios":"levelo://app?vid=76b8f14c-bad2-45eb-aa60-f0a54880b2f8"},"vehicle_type_id":"4","last_reported":1692558236,"current_range_meters":28400,"station_id":"ce4bh412rcd13ifvqds0","pricing_plan_id":"free"},{"bike_id":"2363d3b5-6c15-401a-a59c-ee80bd4af927","system_id":"levelo_inurba_marseille","lat":43.28415,"lon":5.37522,"is_reserved":false,"is_disabled":false,"rental_uris":{"android":"levelo://app?vid=2363d3b5-6c15-401a-a59c-ee80bd4af927","ios":"levelo://app?vid=2363d3b5-6c15-401a-a59c-ee80bd4af927"},"vehicle_type_id":"4","last_reported":1692558236,"current_range_meters":16000,"station_id":"ce4bh412rcd13ifvqds0","pricing_plan_id":"free"},{"bike_id":"6453b43c-d4ea-4830-8317-b88745685e01","system_id":"levelo_inurba_marseille","lat":43.286595,"lon":5.386795,"is_reserved":false,"is_disabled":false,"rental_uris":{"android":"levelo://app?vid=6453b43c-d4ea-4830-8317-b88745685e01","ios":"levelo://app?vid=6453b43c-d4ea-4830-8317-b88745685e01"},"vehicle_type_id":"4","last_reported":1692558236,"current_range_meters":22800,"station_id":"ce4bh492rcd13ifvqdug","pricing_plan_id":"free"},{"bike_id":"efe8b264-ad35-4139-b98d-40041f267f16","system_id":"levelo_inurba_marseille","lat":43.33717,"lon":5.39173,"is_reserved":false,"is_disabled":false,"rental_uris":{"android":"levelo://app?vid=efe8b264-ad35-4139-b98d-40041f267f16","ios":"levelo://app?vid=efe8b264-ad35-4139-b98d-40041f267f16"},"vehicle_type_id":"4","last_reported":1692558236,"current_range_meters":22000,"station_id":"ce4bhr92rcd13ifvqhsg","pricing_plan_id":"free"},{"bike_id":"12c0f407-4ac2-49d3-b1e8-783bd26a8644","system_id":"levelo_inurba_marseille","lat":43.3372,"lon":5.39175,"is_reserved":false,"is_disabled":false,"rental_uris":{"android":"levelo://app?vid=12c0f407-4ac2-49d3-b1e8-783bd26a8644","ios":"levelo://app?vid=12c0f407-4ac2-49d3-b1e8-783bd26a8644"},"vehicle_type_id":"4","last_reported":1692558236,"current_range_meters":24400,"station_id":"ce4bhr92rcd13ifvqhsg","pricing_plan_id":"free"},{"bike_id":"82ce9e4e-2a06-4e64-84ff-38f47646688c","system_id":"levelo_inurba_marseille","lat":43.323464,"lon":5.406297,"is_reserved":false,"is_disabled":false,"rental_uris":{"android":"levelo://app?vid=82ce9e4e-2a06-4e64-84ff-38f47646688c","ios":"levelo://app?vid=82ce9e4e-2a06-4e64-84ff-38f47646688c"},"vehicle_type_id":"4","last_reported":1692558236,"current_range_meters":24800,"station_id":"ce4bhq92rcd13ifvqhjg","pricing_plan_id":"free"},{"bike_id":"4458971a-1e42-4d51-8e96-a944048bc368","system_id":"levelo_inurba_marseille","lat":43.3372,"lon":5.39179,"is_reserved":false,"is_disabled":false,"rental_uris":{"android":"levelo://app?vid=4458971a-1e42-4d51-8e96-a944048bc368","ios":"levelo://app?vid=4458971a-1e42-4d51-8e96-a944048bc368"},"vehicle_type_id":"4","last_reported":1692558236,"current_range_meters":27200,"station_id":"ce4bhr92rcd13ifvqhsg","pricing_plan_id":"free"},{"bike_id":"17105054-6fd8-493b-b0be-1ed88688055c","system_id":"levelo_inurba_marseille","lat":43.3372,"lon":5.39179,"is_reserved":false,"is_disabled":false,"rental_uris":{"android":"levelo://app?vid=17105054-6fd8-493b-b0be-1ed88688055c","ios":"levelo://app?vid=17105054-6fd8-493b-b0be-1ed88688055c"},"vehicle_type_id":"4","last_reported":1692558236,"current_range_meters":25200,"station_id":"ce4bhr92rcd13ifvqhsg","pricing_plan_id":"free"},{"bike_id":"72fc020d-a1d4-460a-a3d1-6187a1ea65d2","system_id":"levelo_inurba_marseille","lat":43.33721,"lon":5.39179,"is_reserved":false,"is_disabled":false,"rental_uris":{"android":"levelo://app?vid=72fc020d-a1d4-460a-a3d1-6187a1ea65d2","ios":"levelo://app?vid=72fc020d-a1d4-460a-a3d1-6187a1ea65d2"},"vehicle_type_id":"4","last_reported":1692558236,"current_range_meters":22000,"station_id":"ce4bhr92rcd13ifvqhsg","pricing_plan_id":"free"},{"bike_id":"c24cecf2-0503-470c-b3d3-fc37f377f710","system_id":"levelo_inurba_marseille","lat":43.3372,"lon":5.39181,"is_reserved":false,"is_disabled":false,"rental_uris":{"android":"levelo://app?vid=c24cecf2-0503-470c-b3d3-fc37f377f710","ios":"levelo://app?vid=c24cecf2-0503-470c-b3d3-fc37f377f710"},"vehicle_type_id":"4","last_reported":1692558236,"current_range_meters":24000,"station_id":"ce4bhr92rcd13ifvqhsg","pricing_plan_id":"free"},{"bike_id":"2b3f06e0-8f2d-4133-9563-f19f57fe46e5","system_id":"levelo_inurba_marseille","lat":43.337168,"lon":5.391825,"is_reserved":false,"is_disabled":false,"rental_uris":{"android":"levelo://app?vid=2b3f06e0-8f2d-4133-9563-f19f57fe46e5","ios":"levelo://app?vid=2b3f06e0-8f2d-4133-9563-f19f57fe46e5"},"vehicle_type_id":"4","last_reported":1692558236,"current_range_meters":5600,"station_id":"ce4bhr92rcd13ifvqhsg","pricing_plan_id":"free"},{"bike_id":"e45012d8-673a-4bd6-93d3-a427f767a00d","system_id":"levelo_inurba_marseille","lat":43.33721,"lon":5.39185,"is_reserved":false,"is_disabled":false,"rental_uris":{"android":"levelo://app?vid=e45012d8-673a-4bd6-93d3-a427f767a00d","ios":"levelo://app?vid=e45012d8-673a-4bd6-93d3-a427f767a00d"},"vehicle_type_id":"4","last_reported":1692558236,"current_range_meters":22800,"station_id":"ce4bhr92rcd13ifvqhsg","pricing_plan_id":"free"},{"bike_id":"7d2969ab-a065-4a23-b19e-667095d799c9","system_id":"levelo_inurba_marseille","lat":43.33722,"lon":5.39184,"is_reserved":false,"is_disabled":false,"rental_uris":{"android":"levelo://app?vid=7d2969ab-a065-4a23-b19e-667095d799c9","ios":"levelo://app?vid=7d2969ab-a065-4a23-b19e-667095d799c9"},"vehicle_type_id":"4","last_reported":1692558236,"current_range_meters":5600,"station_id":"ce4bhr92rcd13ifvqhsg","pricing_plan_id":"free"},{"bike_id":"0dda2562-498f-4f90-abfb-f3c666db2d2e","system_id":"levelo_inurba_marseille","lat":43.33722,"lon":5.39187,"is_reserved":false,"is_disabled":false,"rental_uris":{"android":"levelo://app?vid=0dda2562-498f-4f90-abfb-f3c666db2d2e","ios":"levelo://app?vid=0dda2562-498f-4f90-abfb-f3c666db2d2e"},"vehicle_type_id":"4","last_reported":1692558236,"current_range_meters":18800,"station_id":"ce4bhr92rcd13ifvqhsg","pricing_plan_id":"free"},{"bike_id":"8bd09c71-02ae-4371-8b55-ce1e7e2bf2df","system_id":"levelo_inurba_marseille","lat":43.33722,"lon":5.39188,"is_reserved":false,"is_disabled":false,"rental_uris":{"android":"levelo://app?vid=8bd09c71-02ae-4371-8b55-ce1e7e2bf2df","ios":"levelo://app?vid=8bd09c71-02ae-4371-8b55-ce1e7e2bf2df"},"vehicle_type_id":"4","last_reported":1692558236,"current_range_meters":24800,"station_id":"ce4bhr92rcd13ifvqhsg","pricing_plan_id":"free"},{"bike_id":"83f078db-3c79-4f8f-934f-7a45c372fd67","system_id":"levelo_inurba_marseille","lat":43.323464,"lon":5.406297,"is_reserved":false,"is_disabled":false,"rental_uris":{"android":"levelo://app?vid=83f078db-3c79-4f8f-934f-7a45c372fd67","ios":"levelo://app?vid=83f078db-3c79-4f8f-934f-7a45c372fd67"},"vehicle_type_id":"4","last_reported":1692558236,"current_range_meters":4000,"station_id":"ce4bhq92rcd13ifvqhjg","pricing_plan_id":"free"},{"bike_id":"01f563c5-7ac0-4d44-b1b3-0549f3b949f3","system_id":"levelo_inurba_marseille","lat":43.33729,"lon":5.39179,"is_reserved":false,"is_disabled":false,"rental_uris":{"android":"levelo://app?vid=01f563c5-7ac0-4d44-b1b3-0549f3b949f3","ios":"levelo://app?vid=01f563c5-7ac0-4d44-b1b3-0549f3b949f3"},"vehicle_type_id":"4","last_reported":1692558236,"current_range_meters":24800,"station_id":"ce4bhr92rcd13ifvqhsg","pricing_plan_id":"free"},{"bike_id":"02f29c2d-847e-4148-9200-bdb4c19acc46","system_id":"levelo_inurba_marseille","lat":43.33727,"lon":5.39184,"is_reserved":false,"is_disabled":false,"rental_uris":{"android":"levelo://app?vid=02f29c2d-847e-4148-9200-bdb4c19acc46","ios":"levelo://app?vid=02f29c2d-847e-4148-9200-bdb4c19acc46"},"vehicle_type_id":"4","last_reported":1692558236,"current_range_meters":24800,"station_id":"ce4bhr92rcd13ifvqhsg","pricing_plan_id":"free"},{"bike_id":"f24d321f-ba10-47bf-b834-145a0b92ec46","system_id":"levelo_inurba_marseille","lat":43.33723,"lon":5.39192,"is_reserved":false,"is_disabled":false,"rental_uris":{"android":"levelo://app?vid=f24d321f-ba10-47bf-b834-145a0b92ec46","ios":"levelo://app?vid=f24d321f-ba10-47bf-b834-145a0b92ec46"},"vehicle_type_id":"4","last_reported":1692558236,"current_range_meters":16400,"station_id":"ce4bhr92rcd13ifvqhsg","pricing_plan_id":"free"},{"bike_id":"186ddf38-a5ca-44a9-9dd3-9bfe2a53544b","system_id":"levelo_inurba_marseille","lat":43.33727,"lon":5.39186,"is_reserved":false,"is_disabled":false,"rental_uris":{"android":"levelo://app?vid=186ddf38-a5ca-44a9-9dd3-9bfe2a53544b","ios":"levelo://app?vid=186ddf38-a5ca-44a9-9dd3-9bfe2a53544b"},"vehicle_type_id":"4","last_reported":1692558236,"current_range_meters":23600,"station_id":"ce4bhr92rcd13ifvqhsg","pricing_plan_id":"free"},{"bike_id":"35e51cdd-0691-44df-be95-a6dd6fc17edd","system_id":"levelo_inurba_marseille","lat":43.3373,"lon":5.39186,"is_reserved":false,"is_disabled":false,"rental_uris":{"android":"levelo://app?vid=35e51cdd-0691-44df-be95-a6dd6fc17edd","ios":"levelo://app?vid=35e51cdd-0691-44df-be95-a6dd6fc17edd"},"vehicle_type_id":"4","last_reported":1692558236,"current_range_meters":14400,"station_id":"ce4bhr92rcd13ifvqhsg","pricing_plan_id":"free"},{"bike_id":"050e7326-890b-4d54-9a35-9bbfbca4205c","system_id":"levelo_inurba_marseille","lat":43.284787,"lon":5.384116,"is_reserved":false,"is_disabled":false,"rental_uris":{"android":"levelo://app?vid=050e7326-890b-4d54-9a35-9bbfbca4205c","ios":"levelo://app?vid=050e7326-890b-4d54-9a35-9bbfbca4205c"},"vehicle_type_id":"4","last_reported":1692558236,"current_range_meters":0,"station_id":"ce4bh512rcd13ifvqe3g","pricing_plan_id":"free"},{"bike_id":"79ae07f7-3d9b-456b-927e-8e880eafedba","system_id":"levelo_inurba_marseille","lat":43.32393,"lon":5.40638,"is_reserved":false,"is_disabled":false,"rental_uris":{"android":"levelo://app?vid=79ae07f7-3d9b-456b-927e-8e880eafedba","ios":"levelo://app?vid=79ae07f7-3d9b-456b-927e-8e880eafedba"},"vehicle_type_id":"4","last_reported":1692558236,"current_range_meters":2400,"station_id":"ce4bhq92rcd13ifvqhjg","pricing_plan_id":"free"},{"bike_id":"786b677b-9964-4512-8db2-870b5a0dbdad","system_id":"levelo_inurba_marseille","lat":43.289363,"lon":5.396322,"is_reserved":false,"is_disabled":false,"rental_uris":{"android":"levelo://app?vid=786b677b-9964-4512-8db2-870b5a0dbdad","ios":"levelo://app?vid=786b677b-9964-4512-8db2-870b5a0dbdad"},"vehicle_type_id":"4","last_reported":1692558236,"current_range_meters":20800,"station_id":"ce4bh3h2rcd13ifvqdn0","pricing_plan_id":"free"},{"bike_id":"f50aca5f-cf5b-4020-925f-826a2e34874f","system_id":"levelo_inurba_marseille","lat":43.289363,"lon":5.396322,"is_reserved":false,"is_disabled":false,"rental_uris":{"android":"levelo://app?vid=f50aca5f-cf5b-4020-925f-826a2e34874f","ios":"levelo://app?vid=f50aca5f-cf5b-4020-925f-826a2e34874f"},"vehicle_type_id":"4","last_reported":1692558236,"current_range_meters":28800,"station_id":"ce4bh3h2rcd13ifvqdn0","pricing_plan_id":"free"},{"bike_id":"5cec26ac-344f-432b-af34-450b75305b9b","system_id":"levelo_inurba_marseille","lat":43.2928,"lon":5.40115,"is_reserved":false,"is_disabled":false,"rental_uris":{"android":"levelo://app?vid=5cec26ac-344f-432b-af34-450b75305b9b","ios":"levelo://app?vid=5cec26ac-344f-432b-af34-450b75305b9b"},"vehicle_type_id":"4","last_reported":1692558236,"current_range_meters":31200,"station_id":"ce4bh312rcd13ifvqdk0","pricing_plan_id":"free"},{"bike_id":"88940920-727e-47f8-bee6-24feedff1167","system_id":"levelo_inurba_marseille","lat":43.282744,"lon":5.350533,"is_reserved":false,"is_disabled":false,"rental_uris":{"android":"levelo://app?vid=88940920-727e-47f8-bee6-24feedff1167","ios":"levelo://app?vid=88940920-727e-47f8-bee6-24feedff1167"},"vehicle_type_id":"4","last_reported":1692558236,"current_range_meters":29600,"station_id":"ce4bhbp2rcd13ifvqerg","pricing_plan_id":"free"},{"bike_id":"d8694d78-a1d6-49ee-9c69-0ccdc30229aa","system_id":"levelo_inurba_marseille","lat":43.283502,"lon":5.386471,"is_reserved":false,"is_disabled":false,"rental_uris":{"android":"levelo://app?vid=d8694d78-a1d6-49ee-9c69-0ccdc30229aa","ios":"levelo://app?vid=d8694d78-a1d6-49ee-9c69-0ccdc30229aa"},"vehicle_type_id":"4","last_reported":1692558236,"current_range_meters":12400,"station_id":"ce4bh492rcd13ifvqdvg","pricing_plan_id":"free"},{"bike_id":"fd0dd049-1ae6-436b-aa55-7530a03a9a06","system_id":"levelo_inurba_marseille","lat":43.28039,"lon":5.369297,"is_reserved":false,"is_disabled":false,"rental_uris":{"android":"levelo://app?vid=fd0dd049-1ae6-436b-aa55-7530a03a9a06","ios":"levelo://app?vid=fd0dd049-1ae6-436b-aa55-7530a03a9a06"},"vehicle_type_id":"4","last_reported":1692558236,"current_range_meters":12400,"station_id":"ce4bha12rcd13ifvqef0","pricing_plan_id":"free"},{"bike_id":"c55abc1a-ef88-4170-afbe-54a944c552f1","system_id":"levelo_inurba_marseille","lat":43.280382,"lon":5.369291,"is_reserved":false,"is_disabled":false,"rental_uris":{"android":"levelo://app?vid=c55abc1a-ef88-4170-afbe-54a944c552f1","ios":"levelo://app?vid=c55abc1a-ef88-4170-afbe-54a944c552f1"},"vehicle_type_id":"4","last_reported":1692558236,"current_range_meters":0,"station_id":"ce4bha12rcd13ifvqef0","pricing_plan_id":"free"},{"bike_id":"618df455-37c8-40a2-9358-626a7068f7fd","system_id":"levelo_inurba_marseille","lat":43.28039,"lon":5.369297,"is_reserved":false,"is_disabled":false,"rental_uris":{"android":"levelo://app?vid=618df455-37c8-40a2-9358-626a7068f7fd","ios":"levelo://app?vid=618df455-37c8-40a2-9358-626a7068f7fd"},"vehicle_type_id":"4","last_reported":1692558236,"current_range_meters":0,"station_id":"ce4bha12rcd13ifvqef0","pricing_plan_id":"free"},{"bike_id":"b1300aa7-b017-4813-b579-bf37d1a48fc8","system_id":"levelo_inurba_marseille","lat":43.280382,"lon":5.369291,"is_reserved":false,"is_disabled":false,"rental_uris":{"android":"levelo://app?vid=b1300aa7-b017-4813-b579-bf37d1a48fc8","ios":"levelo://app?vid=b1300aa7-b017-4813-b579-bf37d1a48fc8"},"vehicle_type_id":"4","last_reported":1692558236,"current_range_meters":30800,"station_id":"ce4bha12rcd13ifvqef0","pricing_plan_id":"free"},{"bike_id":"9f46cfde-4f76-4076-bade-5765c2d3d473","system_id":"levelo_inurba_marseille","lat":43.28039,"lon":5.369297,"is_reserved":false,"is_disabled":false,"rental_uris":{"android":"levelo://app?vid=9f46cfde-4f76-4076-bade-5765c2d3d473","ios":"levelo://app?vid=9f46cfde-4f76-4076-bade-5765c2d3d473"},"vehicle_type_id":"4","last_reported":1692558236,"current_range_meters":31200,"station_id":"ce4bha12rcd13ifvqef0","pricing_plan_id":"free"},{"bike_id":"3366fb37-6ec1-450a-bbd5-6c916e2cd111","system_id":"levelo_inurba_marseille","lat":43.280382,"lon":5.369291,"is_reserved":false,"is_disabled":false,"rental_uris":{"android":"levelo://app?vid=3366fb37-6ec1-450a-bbd5-6c916e2cd111","ios":"levelo://app?vid=3366fb37-6ec1-450a-bbd5-6c916e2cd111"},"vehicle_type_id":"4","last_reported":1692558236,"current_range_meters":13600,"station_id":"ce4bha12rcd13ifvqef0","pricing_plan_id":"free"},{"bike_id":"56773281-fa16-451a-a58b-452b46588267","system_id":"levelo_inurba_marseille","lat":43.290371,"lon":5.399576,"is_reserved":false,"is_disabled":false,"rental_uris":{"android":"levelo://app?vid=56773281-fa16-451a-a58b-452b46588267","ios":"levelo://app?vid=56773281-fa16-451a-a58b-452b46588267"},"vehicle_type_id":"4","last_reported":1692558236,"current_range_meters":0,"station_id":"ce4bh392rcd13ifvqdm0","pricing_plan_id":"free"},{"bike_id":"7b2499d8-5540-4807-a8fa-991ce4f71b8e","system_id":"levelo_inurba_marseille","lat":43.29039,"lon":5.399609,"is_reserved":false,"is_disabled":false,"rental_uris":{"android":"levelo://app?vid=7b2499d8-5540-4807-a8fa-991ce4f71b8e","ios":"levelo://app?vid=7b2499d8-5540-4807-a8fa-991ce4f71b8e"},"vehicle_type_id":"4","last_reported":1692558236,"current_range_meters":2400,"station_id":"ce4bh392rcd13ifvqdm0","pricing_plan_id":"free"},{"bike_id":"bc6629af-5ffe-4912-8523-b5bcd2d9425f","system_id":"levelo_inurba_marseille","lat":43.29035,"lon":5.39958,"is_reserved":false,"is_disabled":false,"rental_uris":{"android":"levelo://app?vid=bc6629af-5ffe-4912-8523-b5bcd2d9425f","ios":"levelo://app?vid=bc6629af-5ffe-4912-8523-b5bcd2d9425f"},"vehicle_type_id":"4","last_reported":1692558236,"current_range_meters":22800,"station_id":"ce4bh392rcd13ifvqdm0","pricing_plan_id":"free"},{"bike_id":"93e5406e-ee66-4cc9-9030-1a70387128d9","system_id":"levelo_inurba_marseille","lat":43.2903,"lon":5.39963,"is_reserved":false,"is_disabled":false,"rental_uris":{"android":"levelo://app?vid=93e5406e-ee66-4cc9-9030-1a70387128d9","ios":"levelo://app?vid=93e5406e-ee66-4cc9-9030-1a70387128d9"},"vehicle_type_id":"4","last_reported":1692558236,"current_range_meters":1600,"station_id":"ce4bh392rcd13ifvqdm0","pricing_plan_id":"free"},{"bike_id":"0aadbe52-b562-4e57-a77b-0e71a54b7211","system_id":"levelo_inurba_marseille","lat":43.284462,"lon":5.392121,"is_reserved":false,"is_disabled":false,"rental_uris":{"android":"levelo://app?vid=0aadbe52-b562-4e57-a77b-0e71a54b7211","ios":"levelo://app?vid=0aadbe52-b562-4e57-a77b-0e71a54b7211"},"vehicle_type_id":"4","last_reported":1692558236,"current_range_meters":8800,"station_id":"ce4bhoh2rcd13ifvqh5g","pricing_plan_id":"free"},{"bike_id":"9a3c6fa9-3d87-4396-a3e8-8edb44fa1d35","system_id":"levelo_inurba_marseille","lat":43.284462,"lon":5.392121,"is_reserved":false,"is_disabled":false,"rental_uris":{"android":"levelo://app?vid=9a3c6fa9-3d87-4396-a3e8-8edb44fa1d35","ios":"levelo://app?vid=9a3c6fa9-3d87-4396-a3e8-8edb44fa1d35"},"vehicle_type_id":"4","last_reported":1692558236,"current_range_meters":14000,"station_id":"ce4bhoh2rcd13ifvqh5g","pricing_plan_id":"free"},{"bike_id":"f8ef4f78-badc-40d1-a4a9-077301466e56","system_id":"levelo_inurba_marseille","lat":43.32662,"lon":5.40978,"is_reserved":false,"is_disabled":false,"rental_uris":{"android":"levelo://app?vid=f8ef4f78-badc-40d1-a4a9-077301466e56","ios":"levelo://app?vid=f8ef4f78-badc-40d1-a4a9-077301466e56"},"vehicle_type_id":"4","last_reported":1692558236,"current_range_meters":8000,"station_id":"ce4bhpp2rcd13ifvqhgg","pricing_plan_id":"free"},{"bike_id":"6ccbe685-efa1-4a99-b36d-13be50b1c9e3","system_id":"levelo_inurba_marseille","lat":43.326605,"lon":5.409903,"is_reserved":false,"is_disabled":false,"rental_uris":{"android":"levelo://app?vid=6ccbe685-efa1-4a99-b36d-13be50b1c9e3","ios":"levelo://app?vid=6ccbe685-efa1-4a99-b36d-13be50b1c9e3"},"vehicle_type_id":"4","last_reported":1692558236,"current_range_meters":4400,"station_id":"ce4bhpp2rcd13ifvqhgg","pricing_plan_id":"free"},{"bike_id":"62207ed7-2bb3-4a84-ae97-08e6a24132e0","system_id":"levelo_inurba_marseille","lat":43.279087,"lon":5.380114,"is_reserved":false,"is_disabled":false,"rental_uris":{"android":"levelo://app?vid=62207ed7-2bb3-4a84-ae97-08e6a24132e0","ios":"levelo://app?vid=62207ed7-2bb3-4a84-ae97-08e6a24132e0"},"vehicle_type_id":"4","last_reported":1692558236,"current_range_meters":12800,"station_id":"ce4bhf92rcd13ifvqf50","pricing_plan_id":"free"},{"bike_id":"071a165e-b2af-4a91-aaf7-06ee39290172","system_id":"levelo_inurba_marseille","lat":43.279087,"lon":5.380114,"is_reserved":false,"is_disabled":false,"rental_uris":{"android":"levelo://app?vid=071a165e-b2af-4a91-aaf7-06ee39290172","ios":"levelo://app?vid=071a165e-b2af-4a91-aaf7-06ee39290172"},"vehicle_type_id":"4","last_reported":1692558236,"current_range_meters":12400,"station_id":"ce4bhf92rcd13ifvqf50","pricing_plan_id":"free"},{"bike_id":"0d0d6915-0319-4f86-8031-362db7059b61","system_id":"levelo_inurba_marseille","lat":43.287154,"lon":5.399979,"is_reserved":false,"is_disabled":false,"rental_uris":{"android":"levelo://app?vid=0d0d6915-0319-4f86-8031-362db7059b61","ios":"levelo://app?vid=0d0d6915-0319-4f86-8031-362db7059b61"},"vehicle_type_id":"4","last_reported":1692558236,"current_range_meters":20800,"station_id":"ce4bho92rcd13ifvqh3g","pricing_plan_id":"free"},{"bike_id":"7cc0ec12-34c0-451f-8dc3-fd4727cf417a","system_id":"levelo_inurba_marseille","lat":43.279087,"lon":5.380114,"is_reserved":false,"is_disabled":false,"rental_uris":{"android":"levelo://app?vid=7cc0ec12-34c0-451f-8dc3-fd4727cf417a","ios":"levelo://app?vid=7cc0ec12-34c0-451f-8dc3-fd4727cf417a"},"vehicle_type_id":"4","last_reported":1692558236,"current_range_meters":800,"station_id":"ce4bhf92rcd13ifvqf50","pricing_plan_id":"free"},{"bike_id":"c327718a-8fe6-4791-a349-aba0f8f94e82","system_id":"levelo_inurba_marseille","lat":43.27968,"lon":5.38728,"is_reserved":false,"is_disabled":false,"rental_uris":{"android":"levelo://app?vid=c327718a-8fe6-4791-a349-aba0f8f94e82","ios":"levelo://app?vid=c327718a-8fe6-4791-a349-aba0f8f94e82"},"vehicle_type_id":"4","last_reported":1692558236,"current_range_meters":26400,"station_id":"ce4bhg12rcd13ifvqf80","pricing_plan_id":"free"},{"bike_id":"173831b7-c089-4f12-a7fd-0047c3989af3","system_id":"levelo_inurba_marseille","lat":43.292569,"lon":5.409107,"is_reserved":false,"is_disabled":false,"rental_uris":{"android":"levelo://app?vid=173831b7-c089-4f12-a7fd-0047c3989af3","ios":"levelo://app?vid=173831b7-c089-4f12-a7fd-0047c3989af3"},"vehicle_type_id":"4","last_reported":1692558236,"current_range_meters":22400,"station_id":"ce4bh192rcd13ifvqdc0","pricing_plan_id":"free"},{"bike_id":"35070e43-f0f5-412c-9f66-1dbc8d4dc660","system_id":"levelo_inurba_marseille","lat":43.34649,"lon":5.34732,"is_reserved":false,"is_disabled":false,"rental_uris":{"android":"levelo://app?vid=35070e43-f0f5-412c-9f66-1dbc8d4dc660","ios":"levelo://app?vid=35070e43-f0f5-412c-9f66-1dbc8d4dc660"},"vehicle_type_id":"4","last_reported":1692558236,"current_range_meters":9200,"station_id":"","pricing_plan_id":"free"},{"bike_id":"89e78ea8-37b0-4091-9740-4a3fba278086","system_id":"levelo_inurba_marseille","lat":43.292571,"lon":5.409107,"is_reserved":false,"is_disabled":false,"rental_uris":{"android":"levelo://app?vid=89e78ea8-37b0-4091-9740-4a3fba278086","ios":"levelo://app?vid=89e78ea8-37b0-4091-9740-4a3fba278086"},"vehicle_type_id":"4","last_reported":1692558236,"current_range_meters":12000,"station_id":"ce4bh192rcd13ifvqdc0","pricing_plan_id":"free"},{"bike_id":"848884fd-2653-4044-937e-5f506f1bef89","system_id":"levelo_inurba_marseille","lat":43.292571,"lon":5.409107,"is_reserved":false,"is_disabled":false,"rental_uris":{"android":"levelo://app?vid=848884fd-2653-4044-937e-5f506f1bef89","ios":"levelo://app?vid=848884fd-2653-4044-937e-5f506f1bef89"},"vehicle_type_id":"4","last_reported":1692558236,"current_range_meters":23200,"station_id":"ce4bh192rcd13ifvqdc0","pricing_plan_id":"free"},{"bike_id":"a147c8d6-f45b-479d-a1c8-befd5caf230f","system_id":"levelo_inurba_marseille","lat":43.27618,"lon":5.36101,"is_reserved":false,"is_disabled":false,"rental_uris":{"android":"levelo://app?vid=a147c8d6-f45b-479d-a1c8-befd5caf230f","ios":"levelo://app?vid=a147c8d6-f45b-479d-a1c8-befd5caf230f"},"vehicle_type_id":"4","last_reported":1692558236,"current_range_meters":10000,"station_id":"ce4bgj92rcd13ifvqbe0","pricing_plan_id":"free"},{"bike_id":"6c4dca58-d766-402d-a099-3c9ffbce1da4","system_id":"levelo_inurba_marseille","lat":43.303837,"lon":5.418724,"is_reserved":false,"is_disabled":false,"rental_uris":{"android":"levelo://app?vid=6c4dca58-d766-402d-a099-3c9ffbce1da4","ios":"levelo://app?vid=6c4dca58-d766-402d-a099-3c9ffbce1da4"},"vehicle_type_id":"4","last_reported":1692558236,"current_range_meters":13200,"station_id":"ce4bhop2rcd13ifvqh7g","pricing_plan_id":"free"},{"bike_id":"6059a6fb-0cc7-4a64-a948-7c58445231b5","system_id":"levelo_inurba_marseille","lat":43.33612,"lon":5.410321,"is_reserved":false,"is_disabled":false,"rental_uris":{"android":"levelo://app?vid=6059a6fb-0cc7-4a64-a948-7c58445231b5","ios":"levelo://app?vid=6059a6fb-0cc7-4a64-a948-7c58445231b5"},"vehicle_type_id":"4","last_reported":1692558236,"current_range_meters":21600,"station_id":"ce4bhqh2rcd13ifvqhmg","pricing_plan_id":"free"},{"bike_id":"a12b5ad7-f0ef-4160-a025-2990244d716b","system_id":"levelo_inurba_marseille","lat":43.336134,"lon":5.410341,"is_reserved":false,"is_disabled":false,"rental_uris":{"android":"levelo://app?vid=a12b5ad7-f0ef-4160-a025-2990244d716b","ios":"levelo://app?vid=a12b5ad7-f0ef-4160-a025-2990244d716b"},"vehicle_type_id":"4","last_reported":1692558236,"current_range_meters":4800,"station_id":"ce4bhqh2rcd13ifvqhmg","pricing_plan_id":"free"},{"bike_id":"51c59042-d024-40df-bc9a-cd0f96c57a6c","system_id":"levelo_inurba_marseille","lat":43.336134,"lon":5.410341,"is_reserved":false,"is_disabled":false,"rental_uris":{"android":"levelo://app?vid=51c59042-d024-40df-bc9a-cd0f96c57a6c","ios":"levelo://app?vid=51c59042-d024-40df-bc9a-cd0f96c57a6c"},"vehicle_type_id":"4","last_reported":1692558236,"current_range_meters":6800,"station_id":"ce4bhqh2rcd13ifvqhmg","pricing_plan_id":"free"},{"bike_id":"2c002134-e4d2-41d1-b436-28e8e2ea24ca","system_id":"levelo_inurba_marseille","lat":43.276771,"lon":5.388799,"is_reserved":false,"is_disabled":false,"rental_uris":{"android":"levelo://app?vid=2c002134-e4d2-41d1-b436-28e8e2ea24ca","ios":"levelo://app?vid=2c002134-e4d2-41d1-b436-28e8e2ea24ca"},"vehicle_type_id":"4","last_reported":1692558236,"current_range_meters":29600,"station_id":"ce4bhi12rcd13ifvqfo0","pricing_plan_id":"free"},{"bike_id":"83d15515-e803-4385-8191-b0e90955240d","system_id":"levelo_inurba_marseille","lat":43.341443,"lon":5.409037,"is_reserved":false,"is_disabled":false,"rental_uris":{"android":"levelo://app?vid=83d15515-e803-4385-8191-b0e90955240d","ios":"levelo://app?vid=83d15515-e803-4385-8191-b0e90955240d"},"vehicle_type_id":"4","last_reported":1692558236,"current_range_meters":22400,"station_id":"ce4bhqh2rcd13ifvqhlg","pricing_plan_id":"free"},{"bike_id":"2229015e-48e8-461b-b7db-08c9984d5650","system_id":"levelo_inurba_marseille","lat":43.29561,"lon":5.42271,"is_reserved":false,"is_disabled":false,"rental_uris":{"android":"levelo://app?vid=2229015e-48e8-461b-b7db-08c9984d5650","ios":"levelo://app?vid=2229015e-48e8-461b-b7db-08c9984d5650"},"vehicle_type_id":"4","last_reported":1692558236,"current_range_meters":0,"station_id":"ce4bhph2rcd13ifvqhdg","pricing_plan_id":"free"},{"bike_id":"7ed64a4c-76ae-407f-882a-2e07c3c48b2e","system_id":"levelo_inurba_marseille","lat":43.295511,"lon":5.422926,"is_reserved":false,"is_disabled":false,"rental_uris":{"android":"levelo://app?vid=7ed64a4c-76ae-407f-882a-2e07c3c48b2e","ios":"levelo://app?vid=7ed64a4c-76ae-407f-882a-2e07c3c48b2e"},"vehicle_type_id":"4","last_reported":1692558236,"current_range_meters":15600,"station_id":"ce4bhph2rcd13ifvqhdg","pricing_plan_id":"free"},{"bike_id":"a1ae3ceb-51dc-445b-a561-60edcf20e286","system_id":"levelo_inurba_marseille","lat":43.278128,"lon":5.407195,"is_reserved":false,"is_disabled":false,"rental_uris":{"android":"levelo://app?vid=a1ae3ceb-51dc-445b-a561-60edcf20e286","ios":"levelo://app?vid=a1ae3ceb-51dc-445b-a561-60edcf20e286"},"vehicle_type_id":"4","last_reported":1692558236,"current_range_meters":28000,"station_id":"ce4bhnh2rcd13ifvqgtg","pricing_plan_id":"free"},{"bike_id":"b7e5591d-1c34-4417-a274-a20e7c77a167","system_id":"levelo_inurba_marseille","lat":43.278128,"lon":5.407195,"is_reserved":false,"is_disabled":false,"rental_uris":{"android":"levelo://app?vid=b7e5591d-1c34-4417-a274-a20e7c77a167","ios":"levelo://app?vid=b7e5591d-1c34-4417-a274-a20e7c77a167"},"vehicle_type_id":"4","last_reported":1692558236,"current_range_meters":21600,"station_id":"ce4bhnh2rcd13ifvqgtg","pricing_plan_id":"free"},{"bike_id":"7809a3bd-68b3-47c8-b37e-0be250dc6a2b","system_id":"levelo_inurba_marseille","lat":43.278128,"lon":5.407195,"is_reserved":false,"is_disabled":false,"rental_uris":{"android":"levelo://app?vid=7809a3bd-68b3-47c8-b37e-0be250dc6a2b","ios":"levelo://app?vid=7809a3bd-68b3-47c8-b37e-0be250dc6a2b"},"vehicle_type_id":"4","last_reported":1692558236,"current_range_meters":9200,"station_id":"ce4bhnh2rcd13ifvqgtg","pricing_plan_id":"free"},{"bike_id":"400ae144-7545-46c1-b443-3082acb79b5e","system_id":"levelo_inurba_marseille","lat":43.278128,"lon":5.407195,"is_reserved":false,"is_disabled":false,"rental_uris":{"android":"levelo://app?vid=400ae144-7545-46c1-b443-3082acb79b5e","ios":"levelo://app?vid=400ae144-7545-46c1-b443-3082acb79b5e"},"vehicle_type_id":"4","last_reported":1692558236,"current_range_meters":10000,"station_id":"ce4bhnh2rcd13ifvqgtg","pricing_plan_id":"free"},{"bike_id":"22c10e3c-0553-4e34-9e88-23e956662d74","system_id":"levelo_inurba_marseille","lat":43.278128,"lon":5.407195,"is_reserved":false,"is_disabled":false,"rental_uris":{"android":"levelo://app?vid=22c10e3c-0553-4e34-9e88-23e956662d74","ios":"levelo://app?vid=22c10e3c-0553-4e34-9e88-23e956662d74"},"vehicle_type_id":"4","last_reported":1692558236,"current_range_meters":11200,"station_id":"ce4bhnh2rcd13ifvqgtg","pricing_plan_id":"free"},{"bike_id":"211edd79-21c6-4a77-b7f7-ffa630b22c4a","system_id":"levelo_inurba_marseille","lat":43.278128,"lon":5.407195,"is_reserved":false,"is_disabled":false,"rental_uris":{"android":"levelo://app?vid=211edd79-21c6-4a77-b7f7-ffa630b22c4a","ios":"levelo://app?vid=211edd79-21c6-4a77-b7f7-ffa630b22c4a"},"vehicle_type_id":"4","last_reported":1692558236,"current_range_meters":18800,"station_id":"ce4bhnh2rcd13ifvqgtg","pricing_plan_id":"free"},{"bike_id":"aec7d00d-0a5d-4a22-8377-9c4cb94f316c","system_id":"levelo_inurba_marseille","lat":43.269467,"lon":5.386439,"is_reserved":false,"is_disabled":false,"rental_uris":{"android":"levelo://app?vid=aec7d00d-0a5d-4a22-8377-9c4cb94f316c","ios":"levelo://app?vid=aec7d00d-0a5d-4a22-8377-9c4cb94f316c"},"vehicle_type_id":"4","last_reported":1692558236,"current_range_meters":9200,"station_id":"ce4bhh92rcd13ifvqfh0","pricing_plan_id":"free"},{"bike_id":"c99c7bff-cbf4-41f1-988c-e46b47f415fd","system_id":"levelo_inurba_marseille","lat":43.269467,"lon":5.386439,"is_reserved":false,"is_disabled":false,"rental_uris":{"android":"levelo://app?vid=c99c7bff-cbf4-41f1-988c-e46b47f415fd","ios":"levelo://app?vid=c99c7bff-cbf4-41f1-988c-e46b47f415fd"},"vehicle_type_id":"4","last_reported":1692558236,"current_range_meters":5600,"station_id":"ce4bhh92rcd13ifvqfh0","pricing_plan_id":"free"},{"bike_id":"5d9cc3da-a983-4248-b3a6-914a6663cb58","system_id":"levelo_inurba_marseille","lat":43.27957,"lon":5.41027,"is_reserved":false,"is_disabled":false,"rental_uris":{"android":"levelo://app?vid=5d9cc3da-a983-4248-b3a6-914a6663cb58","ios":"levelo://app?vid=5d9cc3da-a983-4248-b3a6-914a6663cb58"},"vehicle_type_id":"4","last_reported":1692558236,"current_range_meters":800,"station_id":"ce4bhnp2rcd13ifvqh0g","pricing_plan_id":"free"},{"bike_id":"4ec4ee9f-0632-439f-a431-9ab40d5cb672","system_id":"levelo_inurba_marseille","lat":43.279465,"lon":5.410561,"is_reserved":false,"is_disabled":false,"rental_uris":{"android":"levelo://app?vid=4ec4ee9f-0632-439f-a431-9ab40d5cb672","ios":"levelo://app?vid=4ec4ee9f-0632-439f-a431-9ab40d5cb672"},"vehicle_type_id":"4","last_reported":1692558236,"current_range_meters":22800,"station_id":"ce4bhnp2rcd13ifvqh0g","pricing_plan_id":"free"},{"bike_id":"709e4bb1-14f4-40dc-8f78-74d9f285491a","system_id":"levelo_inurba_marseille","lat":43.279402,"lon":5.410431,"is_reserved":false,"is_disabled":false,"rental_uris":{"android":"levelo://app?vid=709e4bb1-14f4-40dc-8f78-74d9f285491a","ios":"levelo://app?vid=709e4bb1-14f4-40dc-8f78-74d9f285491a"},"vehicle_type_id":"4","last_reported":1692558236,"current_range_meters":12400,"station_id":"ce4bhnp2rcd13ifvqh0g","pricing_plan_id":"free"},{"bike_id":"3288a376-81aa-4704-a71c-45e133cea04f","system_id":"levelo_inurba_marseille","lat":43.279391,"lon":5.410527,"is_reserved":false,"is_disabled":false,"rental_uris":{"android":"levelo://app?vid=3288a376-81aa-4704-a71c-45e133cea04f","ios":"levelo://app?vid=3288a376-81aa-4704-a71c-45e133cea04f"},"vehicle_type_id":"4","last_reported":1692558236,"current_range_meters":2000,"station_id":"","pricing_plan_id":"free"},{"bike_id":"3cd4ae61-da8f-44bd-9889-974b3e729ff0","system_id":"levelo_inurba_marseille","lat":43.267966,"lon":5.393976,"is_reserved":false,"is_disabled":false,"rental_uris":{"android":"levelo://app?vid=3cd4ae61-da8f-44bd-9889-974b3e729ff0","ios":"levelo://app?vid=3cd4ae61-da8f-44bd-9889-974b3e729ff0"},"vehicle_type_id":"4","last_reported":1692558236,"current_range_meters":4400,"station_id":"ce4bhh12rcd13ifvqfg0","pricing_plan_id":"free"},{"bike_id":"180c9060-06e2-429d-999a-39a6ce9d0e22","system_id":"levelo_inurba_marseille","lat":43.308,"lon":5.43521,"is_reserved":false,"is_disabled":false,"rental_uris":{"android":"levelo://app?vid=180c9060-06e2-429d-999a-39a6ce9d0e22","ios":"levelo://app?vid=180c9060-06e2-429d-999a-39a6ce9d0e22"},"vehicle_type_id":"4","last_reported":1692558236,"current_range_meters":28000,"station_id":"ce4bhph2rcd13ifvqheg","pricing_plan_id":"free"},{"bike_id":"f9f10fcb-afe7-4aa9-ab18-978cd300cd88","system_id":"levelo_inurba_marseille","lat":43.265571,"lon":5.390032,"is_reserved":false,"is_disabled":false,"rental_uris":{"android":"levelo://app?vid=f9f10fcb-afe7-4aa9-ab18-978cd300cd88","ios":"levelo://app?vid=f9f10fcb-afe7-4aa9-ab18-978cd300cd88"},"vehicle_type_id":"4","last_reported":1692558236,"current_range_meters":17200,"station_id":"ce4bhe12rcd13ifvqf30","pricing_plan_id":"free"},{"bike_id":"988fd9c6-a1c0-42a6-8864-2f564153e040","system_id":"levelo_inurba_marseille","lat":43.26938,"lon":5.40248,"is_reserved":false,"is_disabled":false,"rental_uris":{"android":"levelo://app?vid=988fd9c6-a1c0-42a6-8864-2f564153e040","ios":"levelo://app?vid=988fd9c6-a1c0-42a6-8864-2f564153e040"},"vehicle_type_id":"4","last_reported":1692558236,"current_range_meters":26800,"station_id":"","pricing_plan_id":"free"},{"bike_id":"ca5040ce-7550-40a9-ae63-18da99ca27e4","system_id":"levelo_inurba_marseille","lat":43.261782,"lon":5.374515,"is_reserved":false,"is_disabled":false,"rental_uris":{"android":"levelo://app?vid=ca5040ce-7550-40a9-ae63-18da99ca27e4","ios":"levelo://app?vid=ca5040ce-7550-40a9-ae63-18da99ca27e4"},"vehicle_type_id":"4","last_reported":1692558236,"current_range_meters":0,"station_id":"ce4bhgp2rcd13ifvqfc0","pricing_plan_id":"free"},{"bike_id":"2bdd66c4-461d-4282-bfa8-0180e5fc01d1","system_id":"levelo_inurba_marseille","lat":43.261782,"lon":5.374515,"is_reserved":false,"is_disabled":false,"rental_uris":{"android":"levelo://app?vid=2bdd66c4-461d-4282-bfa8-0180e5fc01d1","ios":"levelo://app?vid=2bdd66c4-461d-4282-bfa8-0180e5fc01d1"},"vehicle_type_id":"4","last_reported":1692558236,"current_range_meters":0,"station_id":"ce4bhgp2rcd13ifvqfc0","pricing_plan_id":"free"},{"bike_id":"b7425cb7-572c-4ef5-967a-7cd9b31600be","system_id":"levelo_inurba_marseille","lat":43.261861,"lon":5.374431,"is_reserved":false,"is_disabled":false,"rental_uris":{"android":"levelo://app?vid=b7425cb7-572c-4ef5-967a-7cd9b31600be","ios":"levelo://app?vid=b7425cb7-572c-4ef5-967a-7cd9b31600be"},"vehicle_type_id":"4","last_reported":1692558236,"current_range_meters":26400,"station_id":"ce4bhgp2rcd13ifvqfc0","pricing_plan_id":"free"},{"bike_id":"3bd5c171-4b04-43bb-8789-8a95cd1af2c0","system_id":"levelo_inurba_marseille","lat":43.271388,"lon":5.409269,"is_reserved":false,"is_disabled":false,"rental_uris":{"android":"levelo://app?vid=3bd5c171-4b04-43bb-8789-8a95cd1af2c0","ios":"levelo://app?vid=3bd5c171-4b04-43bb-8789-8a95cd1af2c0"},"vehicle_type_id":"4","last_reported":1692558236,"current_range_meters":30400,"station_id":"ce4bhl12rcd13ifvqgf0","pricing_plan_id":"free"},{"bike_id":"2662cb93-75a0-47d9-95e9-517c26cc0025","system_id":"levelo_inurba_marseille","lat":43.271368,"lon":5.40928,"is_reserved":false,"is_disabled":false,"rental_uris":{"android":"levelo://app?vid=2662cb93-75a0-47d9-95e9-517c26cc0025","ios":"levelo://app?vid=2662cb93-75a0-47d9-95e9-517c26cc0025"},"vehicle_type_id":"4","last_reported":1692558236,"current_range_meters":23600,"station_id":"ce4bhl12rcd13ifvqgf0","pricing_plan_id":"free"},{"bike_id":"55eb3e2b-32d0-4999-9f3c-eed8b2369cfd","system_id":"levelo_inurba_marseille","lat":43.271368,"lon":5.40928,"is_reserved":false,"is_disabled":false,"rental_uris":{"android":"levelo://app?vid=55eb3e2b-32d0-4999-9f3c-eed8b2369cfd","ios":"levelo://app?vid=55eb3e2b-32d0-4999-9f3c-eed8b2369cfd"},"vehicle_type_id":"4","last_reported":1692558236,"current_range_meters":19600,"station_id":"ce4bhl12rcd13ifvqgf0","pricing_plan_id":"free"},{"bike_id":"260bb6fb-7701-4750-8697-a48b7687361f","system_id":"levelo_inurba_marseille","lat":43.271368,"lon":5.40928,"is_reserved":false,"is_disabled":false,"rental_uris":{"android":"levelo://app?vid=260bb6fb-7701-4750-8697-a48b7687361f","ios":"levelo://app?vid=260bb6fb-7701-4750-8697-a48b7687361f"},"vehicle_type_id":"4","last_reported":1692558236,"current_range_meters":30000,"station_id":"ce4bhl12rcd13ifvqgf0","pricing_plan_id":"free"},{"bike_id":"16981d99-6f5b-458e-8e74-89249fff7f3b","system_id":"levelo_inurba_marseille","lat":43.271368,"lon":5.40928,"is_reserved":false,"is_disabled":false,"rental_uris":{"android":"levelo://app?vid=16981d99-6f5b-458e-8e74-89249fff7f3b","ios":"levelo://app?vid=16981d99-6f5b-458e-8e74-89249fff7f3b"},"vehicle_type_id":"4","last_reported":1692558236,"current_range_meters":26800,"station_id":"ce4bhl12rcd13ifvqgf0","pricing_plan_id":"free"},{"bike_id":"26d0c4e5-1a04-44da-a1a0-cd57ae1614a1","system_id":"levelo_inurba_marseille","lat":43.271368,"lon":5.40928,"is_reserved":false,"is_disabled":false,"rental_uris":{"android":"levelo://app?vid=26d0c4e5-1a04-44da-a1a0-cd57ae1614a1","ios":"levelo://app?vid=26d0c4e5-1a04-44da-a1a0-cd57ae1614a1"},"vehicle_type_id":"4","last_reported":1692558236,"current_range_meters":20400,"station_id":"ce4bhl12rcd13ifvqgf0","pricing_plan_id":"free"},{"bike_id":"181bbbde-290d-4fe2-a2b9-833fe016bba6","system_id":"levelo_inurba_marseille","lat":43.271368,"lon":5.40928,"is_reserved":false,"is_disabled":false,"rental_uris":{"android":"levelo://app?vid=181bbbde-290d-4fe2-a2b9-833fe016bba6","ios":"levelo://app?vid=181bbbde-290d-4fe2-a2b9-833fe016bba6"},"vehicle_type_id":"4","last_reported":1692558236,"current_range_meters":28400,"station_id":"ce4bhl12rcd13ifvqgf0","pricing_plan_id":"free"},{"bike_id":"85a1a6cd-ea3b-42d4-b655-1c0ffeef71da","system_id":"levelo_inurba_marseille","lat":43.267959,"lon":5.402685,"is_reserved":false,"is_disabled":false,"rental_uris":{"android":"levelo://app?vid=85a1a6cd-ea3b-42d4-b655-1c0ffeef71da","ios":"levelo://app?vid=85a1a6cd-ea3b-42d4-b655-1c0ffeef71da"},"vehicle_type_id":"4","last_reported":1692558236,"current_range_meters":20400,"station_id":"ce501612rcd8frsf0b60","pricing_plan_id":"free"},{"bike_id":"9e3beb6d-8b06-4f44-94fc-15d258adb2a4","system_id":"levelo_inurba_marseille","lat":43.267959,"lon":5.402687,"is_reserved":false,"is_disabled":false,"rental_uris":{"android":"levelo://app?vid=9e3beb6d-8b06-4f44-94fc-15d258adb2a4","ios":"levelo://app?vid=9e3beb6d-8b06-4f44-94fc-15d258adb2a4"},"vehicle_type_id":"4","last_reported":1692558236,"current_range_meters":7200,"station_id":"ce501612rcd8frsf0b60","pricing_plan_id":"free"},{"bike_id":"7ed10754-2fc0-47c7-bbbd-9fc331fc204e","system_id":"levelo_inurba_marseille","lat":43.267959,"lon":5.402685,"is_reserved":false,"is_disabled":false,"rental_uris":{"android":"levelo://app?vid=7ed10754-2fc0-47c7-bbbd-9fc331fc204e","ios":"levelo://app?vid=7ed10754-2fc0-47c7-bbbd-9fc331fc204e"},"vehicle_type_id":"4","last_reported":1692558236,"current_range_meters":26800,"station_id":"ce501612rcd8frsf0b60","pricing_plan_id":"free"},{"bike_id":"41709ac4-c970-4cd8-a277-e11b99ee0f71","system_id":"levelo_inurba_marseille","lat":43.26803,"lon":5.40263,"is_reserved":false,"is_disabled":false,"rental_uris":{"android":"levelo://app?vid=41709ac4-c970-4cd8-a277-e11b99ee0f71","ios":"levelo://app?vid=41709ac4-c970-4cd8-a277-e11b99ee0f71"},"vehicle_type_id":"4","last_reported":1692558236,"current_range_meters":28400,"station_id":"ce501612rcd8frsf0b60","pricing_plan_id":"free"},{"bike_id":"0808b99c-81e6-432a-8457-24c06fb4d77c","system_id":"levelo_inurba_marseille","lat":43.260225,"lon":5.375455,"is_reserved":false,"is_disabled":false,"rental_uris":{"android":"levelo://app?vid=0808b99c-81e6-432a-8457-24c06fb4d77c","ios":"levelo://app?vid=0808b99c-81e6-432a-8457-24c06fb4d77c"},"vehicle_type_id":"4","last_reported":1692558236,"current_range_meters":21600,"station_id":"ce4bhgh2rcd13ifvqfa0","pricing_plan_id":"free"},{"bike_id":"329f2fb5-8f6b-42f7-a0e7-56cdab67ff3d","system_id":"levelo_inurba_marseille","lat":43.260225,"lon":5.375455,"is_reserved":false,"is_disabled":false,"rental_uris":{"android":"levelo://app?vid=329f2fb5-8f6b-42f7-a0e7-56cdab67ff3d","ios":"levelo://app?vid=329f2fb5-8f6b-42f7-a0e7-56cdab67ff3d"},"vehicle_type_id":"4","last_reported":1692558236,"current_range_meters":15600,"station_id":"ce4bhgh2rcd13ifvqfa0","pricing_plan_id":"free"},{"bike_id":"e75cacec-0ad8-4621-88c5-f5a8353d9b5d","system_id":"levelo_inurba_marseille","lat":43.2607,"lon":5.393983,"is_reserved":false,"is_disabled":false,"rental_uris":{"android":"levelo://app?vid=e75cacec-0ad8-4621-88c5-f5a8353d9b5d","ios":"levelo://app?vid=e75cacec-0ad8-4621-88c5-f5a8353d9b5d"},"vehicle_type_id":"4","last_reported":1692558236,"current_range_meters":11200,"station_id":"ce4bhh92rcd13ifvqfj0","pricing_plan_id":"free"},{"bike_id":"92e349a5-712c-4502-a7d4-8475a5327150","system_id":"levelo_inurba_marseille","lat":43.2607,"lon":5.393983,"is_reserved":false,"is_disabled":false,"rental_uris":{"android":"levelo://app?vid=92e349a5-712c-4502-a7d4-8475a5327150","ios":"levelo://app?vid=92e349a5-712c-4502-a7d4-8475a5327150"},"vehicle_type_id":"4","last_reported":1692558236,"current_range_meters":4000,"station_id":"ce4bhh92rcd13ifvqfj0","pricing_plan_id":"free"},{"bike_id":"ee5aad98-2ed1-482c-ab31-0e27a1b28cdd","system_id":"levelo_inurba_marseille","lat":43.275028,"lon":5.424534,"is_reserved":false,"is_disabled":false,"rental_uris":{"android":"levelo://app?vid=ee5aad98-2ed1-482c-ab31-0e27a1b28cdd","ios":"levelo://app?vid=ee5aad98-2ed1-482c-ab31-0e27a1b28cdd"},"vehicle_type_id":"4","last_reported":1692558236,"current_range_meters":24400,"station_id":"ce4bhn92rcd13ifvqgrg","pricing_plan_id":"free"},{"bike_id":"ee88a9e9-4456-4025-9d28-ddd8df65981c","system_id":"levelo_inurba_marseille","lat":43.25966,"lon":5.39861,"is_reserved":false,"is_disabled":false,"rental_uris":{"android":"levelo://app?vid=ee88a9e9-4456-4025-9d28-ddd8df65981c","ios":"levelo://app?vid=ee88a9e9-4456-4025-9d28-ddd8df65981c"},"vehicle_type_id":"4","last_reported":1692558236,"current_range_meters":23600,"station_id":"","pricing_plan_id":"free"},{"bike_id":"76acfc54-d626-4a75-9ee2-95bbfe6a9c96","system_id":"levelo_inurba_marseille","lat":43.255756,"lon":5.382303,"is_reserved":false,"is_disabled":false,"rental_uris":{"android":"levelo://app?vid=76acfc54-d626-4a75-9ee2-95bbfe6a9c96","ios":"levelo://app?vid=76acfc54-d626-4a75-9ee2-95bbfe6a9c96"},"vehicle_type_id":"4","last_reported":1692558236,"current_range_meters":17600,"station_id":"ce4bhih2rcd13ifvqfs0","pricing_plan_id":"free"},{"bike_id":"e6fcb26f-19c1-4438-8065-4f8c3aa9a33a","system_id":"levelo_inurba_marseille","lat":43.254945,"lon":5.376454,"is_reserved":false,"is_disabled":false,"rental_uris":{"android":"levelo://app?vid=e6fcb26f-19c1-4438-8065-4f8c3aa9a33a","ios":"levelo://app?vid=e6fcb26f-19c1-4438-8065-4f8c3aa9a33a"},"vehicle_type_id":"4","last_reported":1692558236,"current_range_meters":6800,"station_id":"ce4bhh12rcd13ifvqff0","pricing_plan_id":"free"},{"bike_id":"d70bb17b-450c-4bdd-9dbf-280107dd9edb","system_id":"levelo_inurba_marseille","lat":43.254975,"lon":5.376489,"is_reserved":false,"is_disabled":false,"rental_uris":{"android":"levelo://app?vid=d70bb17b-450c-4bdd-9dbf-280107dd9edb","ios":"levelo://app?vid=d70bb17b-450c-4bdd-9dbf-280107dd9edb"},"vehicle_type_id":"4","last_reported":1692558236,"current_range_meters":20800,"station_id":"","pricing_plan_id":"free"},{"bike_id":"5aa1f606-ddbd-479d-b0e4-01480c7230db","system_id":"levelo_inurba_marseille","lat":43.254947,"lon":5.376454,"is_reserved":false,"is_disabled":false,"rental_uris":{"android":"levelo://app?vid=5aa1f606-ddbd-479d-b0e4-01480c7230db","ios":"levelo://app?vid=5aa1f606-ddbd-479d-b0e4-01480c7230db"},"vehicle_type_id":"4","last_reported":1692558236,"current_range_meters":7600,"station_id":"ce4bhh12rcd13ifvqff0","pricing_plan_id":"free"},{"bike_id":"36cd2c35-7318-47c9-8bd9-be500cc19de9","system_id":"levelo_inurba_marseille","lat":43.258658,"lon":5.398935,"is_reserved":false,"is_disabled":false,"rental_uris":{"android":"levelo://app?vid=36cd2c35-7318-47c9-8bd9-be500cc19de9","ios":"levelo://app?vid=36cd2c35-7318-47c9-8bd9-be500cc19de9"},"vehicle_type_id":"4","last_reported":1692558236,"current_range_meters":1600,"station_id":"ce4bhl92rcd13ifvqghg","pricing_plan_id":"free"},{"bike_id":"11f71f17-6290-49d3-84bf-7f1cf042b756","system_id":"levelo_inurba_marseille","lat":43.258658,"lon":5.398935,"is_reserved":false,"is_disabled":false,"rental_uris":{"android":"levelo://app?vid=11f71f17-6290-49d3-84bf-7f1cf042b756","ios":"levelo://app?vid=11f71f17-6290-49d3-84bf-7f1cf042b756"},"vehicle_type_id":"4","last_reported":1692558236,"current_range_meters":13600,"station_id":"ce4bhl92rcd13ifvqghg","pricing_plan_id":"free"},{"bike_id":"12ddcfc3-4ad3-4478-839f-6367c5cdfcd2","system_id":"levelo_inurba_marseille","lat":43.259013,"lon":5.409301,"is_reserved":false,"is_disabled":false,"rental_uris":{"android":"levelo://app?vid=12ddcfc3-4ad3-4478-839f-6367c5cdfcd2","ios":"levelo://app?vid=12ddcfc3-4ad3-4478-839f-6367c5cdfcd2"},"vehicle_type_id":"4","last_reported":1692558236,"current_range_meters":31200,"station_id":"ce4bhm92rcd13ifvqglg","pricing_plan_id":"free"},{"bike_id":"7b8d6560-8854-4384-b19f-1050e1853115","system_id":"levelo_inurba_marseille","lat":43.25934,"lon":5.40901,"is_reserved":false,"is_disabled":false,"rental_uris":{"android":"levelo://app?vid=7b8d6560-8854-4384-b19f-1050e1853115","ios":"levelo://app?vid=7b8d6560-8854-4384-b19f-1050e1853115"},"vehicle_type_id":"4","last_reported":1692558236,"current_range_meters":29600,"station_id":"ce4bhm92rcd13ifvqglg","pricing_plan_id":"free"},{"bike_id":"896d4a38-bfef-4e35-8950-182438e29ce4","system_id":"levelo_inurba_marseille","lat":43.25934,"lon":5.40901,"is_reserved":false,"is_disabled":false,"rental_uris":{"android":"levelo://app?vid=896d4a38-bfef-4e35-8950-182438e29ce4","ios":"levelo://app?vid=896d4a38-bfef-4e35-8950-182438e29ce4"},