{"last_updated":1769379095,"ttl":60,"version":"2.2","data":{"bikes":[{"bike_id":"7a4e3005-837e-4425-a268-ddb5f45bb9f3","system_id":"levelo_inurba_marseille","lat":43.24599,"lon":5.43134,"is_reserved":false,"is_disabled":false,"rental_uris":{"android":"levelo://app?vid=7a4e3005-837e-4425-a268-ddb5f45bb9f3","ios":"levelo://app?vid=7a4e3005-837e-4425-a268-ddb5f45bb9f3"},"vehicle_type_id":"4","last_reported":1769379095,"current_range_meters":2800,"station_id":"st_d2m6c4gdas8pm72e190g","pricing_plan_id":"cebpf4jnsgd1na2vs0mg"},{"bike_id":"fd9b2d1b-cdfa-4bcd-a2db-0d90de0d6b64","system_id":"levelo_inurba_marseille","lat":43.23184,"lon":5.43692,"is_reserved":false,"is_disabled":false,"rental_uris":{"android":"levelo://app?vid=fd9b2d1b-cdfa-4bcd-a2db-0d90de0d6b64","ios":"levelo://app?vid=fd9b2d1b-cdfa-4bcd-a2db-0d90de0d6b64"},"vehicle_type_id":"4","last_reported":1769379095,"current_range_meters":2800,"station_id":"ce4bhmp2rcd13ifvqgog","pricing_plan_id":"cebpf4jnsgd1na2vs0mg"},{"bike_id":"ede8bf7b-2967-4c81-a379-1e7179224e02","system_id":"levelo_inurba_marseille","lat":43.26565,"lon":5.39953,"is_reserved":false,"is_disabled":false,"rental_uris":{"android":"levelo://app?vid=ede8bf7b-2967-4c81-a379-1e7179224e02","ios":"levelo://app?vid=ede8bf7b-2967-4c81-a379-1e7179224e02"},"vehicle_type_id":"4","last_reported":1769379095,"current_range_meters":2800,"station_id":"","pricing_plan_id":"cebpf4jnsgd1na2vs0mg"},{"bike_id":"2762ef31-30af-4622-8a7b-f8bc59330d3d","system_id":"levelo_inurba_marseille","lat":43.30207,"lon":5.37458,"is_reserved":false,"is_disabled":false,"rental_uris":{"android":"levelo://app?vid=2762ef31-30af-4622-8a7b-f8bc59330d3d","ios":"levelo://app?vid=2762ef31-30af-4622-8a7b-f8bc59330d3d"},"vehicle_type_id":"4","last_reported":1769379095,"current_range_meters":2800,"station_id":"","pricing_plan_id":"cebpf4jnsgd1na2vs0mg"},{"bike_id":"48f40c82-bbad-4ae0-9613-f836906f3c71","system_id":"levelo_inurba_marseille","lat":43.28099,"lon":5.43187,"is_reserved":false,"is_disabled":false,"rental_uris":{"android":"levelo://app?vid=48f40c82-bbad-4ae0-9613-f836906f3c71","ios":"levelo://app?vid=48f40c82-bbad-4ae0-9613-f836906f3c71"},"vehicle_type_id":"4","last_reported":1769379095,"current_range_meters":2800,"station_id":"","pricing_plan_id":"cebpf4jnsgd1na2vs0mg"},{"bike_id":"60b6fefc-4fad-4e17-b7b7-9a9bb822d822","system_id":"levelo_inurba_marseille","lat":43.31675,"lon":5.42595,"is_reserved":false,"is_disabled":false,"rental_uris":{"android":"levelo://app?vid=60b6fefc-4fad-4e17-b7b7-9a9bb822d822","ios":"levelo://app?vid=60b6fefc-4fad-4e17-b7b7-9a9bb822d822"},"vehicle_type_id":"4","last_reported":1769379095,"current_range_meters":2800,"station_id":"","pricing_plan_id":"cebpf4jnsgd1na2vs0mg"},{"bike_id":"0554af7b-4d97-4b09-bc8a-ccbbde3b5abf","system_id":"levelo_inurba_marseille","lat":43.24061,"lon":5.37749,"is_reserved":false,"is_disabled":false,"rental_uris":{"android":"levelo://app?vid=0554af7b-4d97-4b09-bc8a-ccbbde3b5abf","ios":"levelo://app?vid=0554af7b-4d97-4b09-bc8a-ccbbde3b5abf"},"vehicle_type_id":"4","last_reported":1769379095,"current_range_meters":2800,"station_id":"ce4bhnp2rcd13ifvqgvg","pricing_plan_id":"cebpf4jnsgd1na2vs0mg"},{"bike_id":"b2bf9c8e-00cf-46fe-a5ab-745911538fe2","system_id":"levelo_inurba_marseille","lat":43.24684,"lon":5.38172,"is_reserved":false,"is_disabled":false,"rental_uris":{"android":"levelo://app?vid=b2bf9c8e-00cf-46fe-a5ab-745911538fe2","ios":"levelo://app?vid=b2bf9c8e-00cf-46fe-a5ab-745911538fe2"},"vehicle_type_id":"4","last_reported":1769379095,"current_range_meters":2800,"station_id":"ce4bhih2rcd13ifvqfr0","pricing_plan_id":"cebpf4jnsgd1na2vs0mg"},{"bike_id":"808f4e53-a8b8-4744-be76-00d5bcf647cd","system_id":"levelo_inurba_marseille","lat":43.29798,"lon":5.42765,"is_reserved":false,"is_disabled":false,"rental_uris":{"android":"levelo://app?vid=808f4e53-a8b8-4744-be76-00d5bcf647cd","ios":"levelo://app?vid=808f4e53-a8b8-4744-be76-00d5bcf647cd"},"vehicle_type_id":"4","last_reported":1769379095,"current_range_meters":2800,"station_id":"st_d3md5207bmas73dh9klg","pricing_plan_id":"cebpf4jnsgd1na2vs0mg"},{"bike_id":"d29df1d1-37d2-4810-a67d-1ac252fcb4e8","system_id":"levelo_inurba_marseille","lat":43.2416,"lon":5.36393,"is_reserved":false,"is_disabled":false,"rental_uris":{"android":"levelo://app?vid=d29df1d1-37d2-4810-a67d-1ac252fcb4e8","ios":"levelo://app?vid=d29df1d1-37d2-4810-a67d-1ac252fcb4e8"},"vehicle_type_id":"4","last_reported":1769379095,"current_range_meters":2800,"station_id":"cpo36qri1sfpv3e86is0","pricing_plan_id":"cebpf4jnsgd1na2vs0mg"},{"bike_id":"a02f2e5a-7191-40fa-86c0-b0ed576ef2b0","system_id":"levelo_inurba_marseille","lat":43.26538,"lon":5.37293,"is_reserved":false,"is_disabled":false,"rental_uris":{"android":"levelo://app?vid=a02f2e5a-7191-40fa-86c0-b0ed576ef2b0","ios":"levelo://app?vid=a02f2e5a-7191-40fa-86c0-b0ed576ef2b0"},"vehicle_type_id":"4","last_reported":1769379095,"current_range_meters":2800,"station_id":"ce4bhg12rcd13ifvqf70","pricing_plan_id":"cebpf4jnsgd1na2vs0mg"},{"bike_id":"72a8802b-65bc-4c36-9d2b-f030b6bf5bcb","system_id":"levelo_inurba_marseille","lat":43.28737,"lon":5.38701,"is_reserved":false,"is_disabled":false,"rental_uris":{"android":"levelo://app?vid=72a8802b-65bc-4c36-9d2b-f030b6bf5bcb","ios":"levelo://app?vid=72a8802b-65bc-4c36-9d2b-f030b6bf5bcb"},"vehicle_type_id":"4","last_reported":1769379095,"current_range_meters":3200,"station_id":"","pricing_plan_id":"cebpf4jnsgd1na2vs0mg"},{"bike_id":"2143e1a4-986a-4cdc-8446-303e90396f4e","system_id":"levelo_inurba_marseille","lat":43.297048,"lon":5.366266,"is_reserved":false,"is_disabled":false,"rental_uris":{"android":"levelo://app?vid=2143e1a4-986a-4cdc-8446-303e90396f4e","ios":"levelo://app?vid=2143e1a4-986a-4cdc-8446-303e90396f4e"},"vehicle_type_id":"4","last_reported":1769379095,"current_range_meters":3200,"station_id":"ce4bgn12rcd13ifvqbt0","pricing_plan_id":"cebpf4jnsgd1na2vs0mg"},{"bike_id":"eed94034-a43d-4007-9bec-542daeb81a58","system_id":"levelo_inurba_marseille","lat":43.23783,"lon":5.36634,"is_reserved":false,"is_disabled":false,"rental_uris":{"android":"levelo://app?vid=eed94034-a43d-4007-9bec-542daeb81a58","ios":"levelo://app?vid=eed94034-a43d-4007-9bec-542daeb81a58"},"vehicle_type_id":"4","last_reported":1769379095,"current_range_meters":3200,"station_id":"st_d3nk18o9ro0c73en2l3g","pricing_plan_id":"cebpf4jnsgd1na2vs0mg"},{"bike_id":"dcef78bd-9a89-4c2d-b3de-4aaf2731bfa0","system_id":"levelo_inurba_marseille","lat":43.282636,"lon":5.350703,"is_reserved":false,"is_disabled":false,"rental_uris":{"android":"levelo://app?vid=dcef78bd-9a89-4c2d-b3de-4aaf2731bfa0","ios":"levelo://app?vid=dcef78bd-9a89-4c2d-b3de-4aaf2731bfa0"},"vehicle_type_id":"4","last_reported":1769379095,"current_range_meters":3200,"station_id":"ce4bhbp2rcd13ifvqerg","pricing_plan_id":"cebpf4jnsgd1na2vs0mg"},{"bike_id":"3770c2e9-8904-416b-a171-2857d4f07466","system_id":"levelo_inurba_marseille","lat":43.24399,"lon":5.37078,"is_reserved":false,"is_disabled":false,"rental_uris":{"android":"levelo://app?vid=3770c2e9-8904-416b-a171-2857d4f07466","ios":"levelo://app?vid=3770c2e9-8904-416b-a171-2857d4f07466"},"vehicle_type_id":"4","last_reported":1769379095,"current_range_meters":3200,"station_id":"ce4bhhh2rcd13ifvqfk0","pricing_plan_id":"cebpf4jnsgd1na2vs0mg"},{"bike_id":"63e71ea2-d067-43c9-9f87-92dd832ad4e3","system_id":"levelo_inurba_marseille","lat":43.25573,"lon":5.38255,"is_reserved":false,"is_disabled":false,"rental_uris":{"android":"levelo://app?vid=63e71ea2-d067-43c9-9f87-92dd832ad4e3","ios":"levelo://app?vid=63e71ea2-d067-43c9-9f87-92dd832ad4e3"},"vehicle_type_id":"4","last_reported":1769379095,"current_range_meters":3200,"station_id":"ce4bhih2rcd13ifvqfs0","pricing_plan_id":"cebpf4jnsgd1na2vs0mg"},{"bike_id":"ad0c68ff-1b4b-4539-86bb-575a390e84ff","system_id":"levelo_inurba_marseille","lat":43.22921,"lon":5.35379,"is_reserved":false,"is_disabled":false,"rental_uris":{"android":"levelo://app?vid=ad0c68ff-1b4b-4539-86bb-575a390e84ff","ios":"levelo://app?vid=ad0c68ff-1b4b-4539-86bb-575a390e84ff"},"vehicle_type_id":"4","last_reported":1769379095,"current_range_meters":3200,"station_id":"cpo3532slgdg3j2ikp40","pricing_plan_id":"cebpf4jnsgd1na2vs0mg"},{"bike_id":"9f7221d5-be36-4fa3-8c8c-be7fcbca1599","system_id":"levelo_inurba_marseille","lat":43.2738,"lon":5.36274,"is_reserved":false,"is_disabled":false,"rental_uris":{"android":"levelo://app?vid=9f7221d5-be36-4fa3-8c8c-be7fcbca1599","ios":"levelo://app?vid=9f7221d5-be36-4fa3-8c8c-be7fcbca1599"},"vehicle_type_id":"4","last_reported":1769379095,"current_range_meters":3200,"station_id":"ce4bhbh2rcd13ifvqeo0","pricing_plan_id":"cebpf4jnsgd1na2vs0mg"},{"bike_id":"58d2ae64-d77b-49b0-aa64-83302e76931b","system_id":"levelo_inurba_marseille","lat":43.24404,"lon":5.43179,"is_reserved":false,"is_disabled":false,"rental_uris":{"android":"levelo://app?vid=58d2ae64-d77b-49b0-aa64-83302e76931b","ios":"levelo://app?vid=58d2ae64-d77b-49b0-aa64-83302e76931b"},"vehicle_type_id":"4","last_reported":1769379095,"current_range_meters":3200,"station_id":"st_d2m6c4gdas8pm72e190g","pricing_plan_id":"cebpf4jnsgd1na2vs0mg"},{"bike_id":"262ecccb-dd05-4ff1-b38f-caeafc2621e2","system_id":"levelo_inurba_marseille","lat":43.21769,"lon":5.34593,"is_reserved":false,"is_disabled":false,"rental_uris":{"android":"levelo://app?vid=262ecccb-dd05-4ff1-b38f-caeafc2621e2","ios":"levelo://app?vid=262ecccb-dd05-4ff1-b38f-caeafc2621e2"},"vehicle_type_id":"4","last_reported":1769379095,"current_range_meters":3200,"station_id":"st_cvj6r9ubvosntc0bgbag","pricing_plan_id":"cebpf4jnsgd1na2vs0mg"},{"bike_id":"104053da-3b96-42a0-93f4-03a3bdb1e06f","system_id":"levelo_inurba_marseille","lat":43.23229,"lon":5.35552,"is_reserved":false,"is_disabled":false,"rental_uris":{"android":"levelo://app?vid=104053da-3b96-42a0-93f4-03a3bdb1e06f","ios":"levelo://app?vid=104053da-3b96-42a0-93f4-03a3bdb1e06f"},"vehicle_type_id":"4","last_reported":1769379095,"current_range_meters":3600,"station_id":"ce4bhu92rcd13ifvqi70","pricing_plan_id":"cebpf4jnsgd1na2vs0mg"},{"bike_id":"c95e6f4f-dea5-4c8f-900f-ccf591c989cb","system_id":"levelo_inurba_marseille","lat":43.25821,"lon":5.39449,"is_reserved":false,"is_disabled":false,"rental_uris":{"android":"levelo://app?vid=c95e6f4f-dea5-4c8f-900f-ccf591c989cb","ios":"levelo://app?vid=c95e6f4f-dea5-4c8f-900f-ccf591c989cb"},"vehicle_type_id":"4","last_reported":1769379095,"current_range_meters":3600,"station_id":"ce4bhip2rcd13ifvqft0","pricing_plan_id":"cebpf4jnsgd1na2vs0mg"},{"bike_id":"531078e9-e6ae-426d-a507-48f287cdb17b","system_id":"levelo_inurba_marseille","lat":43.24662,"lon":5.38156,"is_reserved":false,"is_disabled":false,"rental_uris":{"android":"levelo://app?vid=531078e9-e6ae-426d-a507-48f287cdb17b","ios":"levelo://app?vid=531078e9-e6ae-426d-a507-48f287cdb17b"},"vehicle_type_id":"4","last_reported":1769379095,"current_range_meters":3600,"station_id":"ce4bhih2rcd13ifvqfr0","pricing_plan_id":"cebpf4jnsgd1na2vs0mg"},{"bike_id":"c8f043c8-a1cd-4533-8ac5-09a3aac34519","system_id":"levelo_inurba_marseille","lat":43.26573,"lon":5.3733,"is_reserved":false,"is_disabled":false,"rental_uris":{"android":"levelo://app?vid=c8f043c8-a1cd-4533-8ac5-09a3aac34519","ios":"levelo://app?vid=c8f043c8-a1cd-4533-8ac5-09a3aac34519"},"vehicle_type_id":"4","last_reported":1769379095,"current_range_meters":3600,"station_id":"ce4bhg12rcd13ifvqf70","pricing_plan_id":"cebpf4jnsgd1na2vs0mg"},{"bike_id":"3018bd0f-1eb9-47af-8fda-422f2be35d9a","system_id":"levelo_inurba_marseille","lat":43.21197,"lon":5.35078,"is_reserved":false,"is_disabled":false,"rental_uris":{"android":"levelo://app?vid=3018bd0f-1eb9-47af-8fda-422f2be35d9a","ios":"levelo://app?vid=3018bd0f-1eb9-47af-8fda-422f2be35d9a"},"vehicle_type_id":"4","last_reported":1769379095,"current_range_meters":3600,"station_id":"st_cvj6sg6p6f1abm77japg","pricing_plan_id":"cebpf4jnsgd1na2vs0mg"},{"bike_id":"090d68fd-b8f6-42aa-a688-f39ed4d39c2d","system_id":"levelo_inurba_marseille","lat":43.22536,"lon":5.414,"is_reserved":false,"is_disabled":false,"rental_uris":{"android":"levelo://app?vid=090d68fd-b8f6-42aa-a688-f39ed4d39c2d","ios":"levelo://app?vid=090d68fd-b8f6-42aa-a688-f39ed4d39c2d"},"vehicle_type_id":"4","last_reported":1769379095,"current_range_meters":3600,"station_id":"","pricing_plan_id":"cebpf4jnsgd1na2vs0mg"},{"bike_id":"627484a0-96e5-46ea-8b11-4a9f09e54be7","system_id":"levelo_inurba_marseille","lat":43.24435,"lon":5.37151,"is_reserved":false,"is_disabled":false,"rental_uris":{"android":"levelo://app?vid=627484a0-96e5-46ea-8b11-4a9f09e54be7","ios":"levelo://app?vid=627484a0-96e5-46ea-8b11-4a9f09e54be7"},"vehicle_type_id":"4","last_reported":1769379095,"current_range_meters":3600,"station_id":"","pricing_plan_id":"cebpf4jnsgd1na2vs0mg"},{"bike_id":"15c9de5a-1ba7-490e-baaf-bc512d04a459","system_id":"levelo_inurba_marseille","lat":43.27344,"lon":5.38265,"is_reserved":false,"is_disabled":false,"rental_uris":{"android":"levelo://app?vid=15c9de5a-1ba7-490e-baaf-bc512d04a459","ios":"levelo://app?vid=15c9de5a-1ba7-490e-baaf-bc512d04a459"},"vehicle_type_id":"4","last_reported":1769379095,"current_range_meters":3600,"station_id":"","pricing_plan_id":"cebpf4jnsgd1na2vs0mg"},{"bike_id":"ba883ae6-41d0-430b-b2c5-fa8f015c672b","system_id":"levelo_inurba_marseille","lat":43.3048,"lon":5.41043,"is_reserved":false,"is_disabled":false,"rental_uris":{"android":"levelo://app?vid=ba883ae6-41d0-430b-b2c5-fa8f015c672b","ios":"levelo://app?vid=ba883ae6-41d0-430b-b2c5-fa8f015c672b"},"vehicle_type_id":"4","last_reported":1769379095,"current_range_meters":3600,"station_id":"","pricing_plan_id":"cebpf4jnsgd1na2vs0mg"},{"bike_id":"78fcd932-3435-46ed-8a84-9a1dca725b9d","system_id":"levelo_inurba_marseille","lat":43.29312,"lon":5.37163,"is_reserved":false,"is_disabled":false,"rental_uris":{"android":"levelo://app?vid=78fcd932-3435-46ed-8a84-9a1dca725b9d","ios":"levelo://app?vid=78fcd932-3435-46ed-8a84-9a1dca725b9d"},"vehicle_type_id":"4","last_reported":1769379095,"current_range_meters":3600,"station_id":"ce4bgh92rcd13ifvqb40","pricing_plan_id":"cebpf4jnsgd1na2vs0mg"},{"bike_id":"3ac31546-aa7b-41f3-973e-d2564447229a","system_id":"levelo_inurba_marseille","lat":43.296,"lon":5.37724,"is_reserved":false,"is_disabled":false,"rental_uris":{"android":"levelo://app?vid=3ac31546-aa7b-41f3-973e-d2564447229a","ios":"levelo://app?vid=3ac31546-aa7b-41f3-973e-d2564447229a"},"vehicle_type_id":"4","last_reported":1769379095,"current_range_meters":4000,"station_id":"ce4bgi92rcd13ifvqb90","pricing_plan_id":"cebpf4jnsgd1na2vs0mg"},{"bike_id":"7fbd08ac-4873-40ce-8348-00e50d4fd738","system_id":"levelo_inurba_marseille","lat":43.27187,"lon":5.409798,"is_reserved":false,"is_disabled":false,"rental_uris":{"android":"levelo://app?vid=7fbd08ac-4873-40ce-8348-00e50d4fd738","ios":"levelo://app?vid=7fbd08ac-4873-40ce-8348-00e50d4fd738"},"vehicle_type_id":"4","last_reported":1769379095,"current_range_meters":4000,"station_id":"ce4bhl12rcd13ifvqgf0","pricing_plan_id":"cebpf4jnsgd1na2vs0mg"},{"bike_id":"64847666-e9d4-4c40-9d08-035d2efd4c7a","system_id":"levelo_inurba_marseille","lat":43.301411,"lon":5.398646,"is_reserved":false,"is_disabled":false,"rental_uris":{"android":"levelo://app?vid=64847666-e9d4-4c40-9d08-035d2efd4c7a","ios":"levelo://app?vid=64847666-e9d4-4c40-9d08-035d2efd4c7a"},"vehicle_type_id":"4","last_reported":1769379095,"current_range_meters":4000,"station_id":"ce4bh0h2rcd13ifvqd40","pricing_plan_id":"cebpf4jnsgd1na2vs0mg"},{"bike_id":"aef8f813-e899-4c9c-901f-9aa77f8cfdf5","system_id":"levelo_inurba_marseille","lat":43.28672,"lon":5.36351,"is_reserved":false,"is_disabled":false,"rental_uris":{"android":"levelo://app?vid=aef8f813-e899-4c9c-901f-9aa77f8cfdf5","ios":"levelo://app?vid=aef8f813-e899-4c9c-901f-9aa77f8cfdf5"},"vehicle_type_id":"4","last_reported":1769379095,"current_range_meters":4000,"station_id":"ce4bhah2rcd13ifvqej0","pricing_plan_id":"cebpf4jnsgd1na2vs0mg"},{"bike_id":"e46d8a17-af5a-42e0-b036-cb3c86080336","system_id":"levelo_inurba_marseille","lat":43.24472,"lon":5.4255,"is_reserved":false,"is_disabled":false,"rental_uris":{"android":"levelo://app?vid=e46d8a17-af5a-42e0-b036-cb3c86080336","ios":"levelo://app?vid=e46d8a17-af5a-42e0-b036-cb3c86080336"},"vehicle_type_id":"4","last_reported":1769379095,"current_range_meters":4000,"station_id":"st_d4a3vfp97mjs738cd8kg","pricing_plan_id":"cebpf4jnsgd1na2vs0mg"},{"bike_id":"64bf6c9b-f6dd-409f-be13-ebc87d7b16a6","system_id":"levelo_inurba_marseille","lat":43.24464,"lon":5.42541,"is_reserved":false,"is_disabled":false,"rental_uris":{"android":"levelo://app?vid=64bf6c9b-f6dd-409f-be13-ebc87d7b16a6","ios":"levelo://app?vid=64bf6c9b-f6dd-409f-be13-ebc87d7b16a6"},"vehicle_type_id":"4","last_reported":1769379095,"current_range_meters":4000,"station_id":"st_d4a3vfp97mjs738cd8kg","pricing_plan_id":"cebpf4jnsgd1na2vs0mg"},{"bike_id":"2183c868-18bc-43ee-94a6-b4cdb3d84f43","system_id":"levelo_inurba_marseille","lat":43.29005,"lon":5.38134,"is_reserved":false,"is_disabled":true,"rental_uris":{"android":"levelo://app?vid=2183c868-18bc-43ee-94a6-b4cdb3d84f43","ios":"levelo://app?vid=2183c868-18bc-43ee-94a6-b4cdb3d84f43"},"vehicle_type_id":"4","last_reported":1769379095,"current_range_meters":4000,"station_id":"ce4bh4p2rcd13ifvqe1g","pricing_plan_id":"cebpf4jnsgd1na2vs0mg"},{"bike_id":"7629252c-156a-4bf1-863c-32eb0412afe3","system_id":"levelo_inurba_marseille","lat":43.28263,"lon":5.3508,"is_reserved":false,"is_disabled":false,"rental_uris":{"android":"levelo://app?vid=7629252c-156a-4bf1-863c-32eb0412afe3","ios":"levelo://app?vid=7629252c-156a-4bf1-863c-32eb0412afe3"},"vehicle_type_id":"4","last_reported":1769379095,"current_range_meters":4000,"station_id":"ce4bhbp2rcd13ifvqerg","pricing_plan_id":"cebpf4jnsgd1na2vs0mg"},{"bike_id":"4b61dc4d-18dc-4d4f-89ba-f3d6dd7633e1","system_id":"levelo_inurba_marseille","lat":43.23152,"lon":5.43725,"is_reserved":false,"is_disabled":false,"rental_uris":{"android":"levelo://app?vid=4b61dc4d-18dc-4d4f-89ba-f3d6dd7633e1","ios":"levelo://app?vid=4b61dc4d-18dc-4d4f-89ba-f3d6dd7633e1"},"vehicle_type_id":"4","last_reported":1769379095,"current_range_meters":4000,"station_id":"ce4bhmp2rcd13ifvqgog","pricing_plan_id":"cebpf4jnsgd1na2vs0mg"},{"bike_id":"b63362d9-5612-4ee2-9f31-83089fb30059","system_id":"levelo_inurba_marseille","lat":43.29984,"lon":5.371674,"is_reserved":false,"is_disabled":false,"rental_uris":{"android":"levelo://app?vid=b63362d9-5612-4ee2-9f31-83089fb30059","ios":"levelo://app?vid=b63362d9-5612-4ee2-9f31-83089fb30059"},"vehicle_type_id":"4","last_reported":1769379095,"current_range_meters":4000,"station_id":"ce4bgr92rcd13ifvqc7g","pricing_plan_id":"cebpf4jnsgd1na2vs0mg"},{"bike_id":"cbd867d3-a649-4029-8d66-b8461700b299","system_id":"levelo_inurba_marseille","lat":43.29667,"lon":5.37747,"is_reserved":false,"is_disabled":false,"rental_uris":{"android":"levelo://app?vid=cbd867d3-a649-4029-8d66-b8461700b299","ios":"levelo://app?vid=cbd867d3-a649-4029-8d66-b8461700b299"},"vehicle_type_id":"4","last_reported":1769379095,"current_range_meters":4000,"station_id":"","pricing_plan_id":"cebpf4jnsgd1na2vs0mg"},{"bike_id":"df4a0462-e4e4-4ed8-b26b-50628d43d8dd","system_id":"levelo_inurba_marseille","lat":43.31041,"lon":5.37184,"is_reserved":false,"is_disabled":false,"rental_uris":{"android":"levelo://app?vid=df4a0462-e4e4-4ed8-b26b-50628d43d8dd","ios":"levelo://app?vid=df4a0462-e4e4-4ed8-b26b-50628d43d8dd"},"vehicle_type_id":"4","last_reported":1769379095,"current_range_meters":4000,"station_id":"st_d4kl2rp97mjs73e7tdfg","pricing_plan_id":"cebpf4jnsgd1na2vs0mg"},{"bike_id":"6ebd8131-5347-4093-8c87-e0c7d5276e14","system_id":"levelo_inurba_marseille","lat":43.22559,"lon":5.41627,"is_reserved":false,"is_disabled":false,"rental_uris":{"android":"levelo://app?vid=6ebd8131-5347-4093-8c87-e0c7d5276e14","ios":"levelo://app?vid=6ebd8131-5347-4093-8c87-e0c7d5276e14"},"vehicle_type_id":"4","last_reported":1769379095,"current_range_meters":4400,"station_id":"st_d2o4gvlbi1j2169b742g","pricing_plan_id":"cebpf4jnsgd1na2vs0mg"},{"bike_id":"f8d6a6e0-1d68-4650-a94d-f633bf8c4370","system_id":"levelo_inurba_marseille","lat":43.23791,"lon":5.36632,"is_reserved":false,"is_disabled":false,"rental_uris":{"android":"levelo://app?vid=f8d6a6e0-1d68-4650-a94d-f633bf8c4370","ios":"levelo://app?vid=f8d6a6e0-1d68-4650-a94d-f633bf8c4370"},"vehicle_type_id":"4","last_reported":1769379095,"current_range_meters":4400,"station_id":"st_d3nk18o9ro0c73en2l3g","pricing_plan_id":"cebpf4jnsgd1na2vs0mg"},{"bike_id":"d7cb11e5-f31e-45a1-bb82-9cd6edf03bfc","system_id":"levelo_inurba_marseille","lat":43.28264,"lon":5.35042,"is_reserved":false,"is_disabled":false,"rental_uris":{"android":"levelo://app?vid=d7cb11e5-f31e-45a1-bb82-9cd6edf03bfc","ios":"levelo://app?vid=d7cb11e5-f31e-45a1-bb82-9cd6edf03bfc"},"vehicle_type_id":"4","last_reported":1769379095,"current_range_meters":4400,"station_id":"","pricing_plan_id":"cebpf4jnsgd1na2vs0mg"},{"bike_id":"3280b8e4-10d6-4ed2-b323-4ba5cc066069","system_id":"levelo_inurba_marseille","lat":43.26198,"lon":5.37455,"is_reserved":false,"is_disabled":false,"rental_uris":{"android":"levelo://app?vid=3280b8e4-10d6-4ed2-b323-4ba5cc066069","ios":"levelo://app?vid=3280b8e4-10d6-4ed2-b323-4ba5cc066069"},"vehicle_type_id":"4","last_reported":1769379095,"current_range_meters":4400,"station_id":"ce4bhgp2rcd13ifvqfc0","pricing_plan_id":"cebpf4jnsgd1na2vs0mg"},{"bike_id":"cf07d78c-e8c8-4728-bda7-cf372d96cebb","system_id":"levelo_inurba_marseille","lat":43.225324,"lon":5.34835,"is_reserved":false,"is_disabled":false,"rental_uris":{"android":"levelo://app?vid=cf07d78c-e8c8-4728-bda7-cf372d96cebb","ios":"levelo://app?vid=cf07d78c-e8c8-4728-bda7-cf372d96cebb"},"vehicle_type_id":"4","last_reported":1769379095,"current_range_meters":4400,"station_id":"","pricing_plan_id":"cebpf4jnsgd1na2vs0mg"},{"bike_id":"516bc6f5-cefa-49ed-9200-40b0ccd2b2a8","system_id":"levelo_inurba_marseille","lat":43.3147,"lon":5.37272,"is_reserved":false,"is_disabled":false,"rental_uris":{"android":"levelo://app?vid=516bc6f5-cefa-49ed-9200-40b0ccd2b2a8","ios":"levelo://app?vid=516bc6f5-cefa-49ed-9200-40b0ccd2b2a8"},"vehicle_type_id":"4","last_reported":1769379095,"current_range_meters":4400,"station_id":"ce4bgt12rcd13ifvqcd0","pricing_plan_id":"cebpf4jnsgd1na2vs0mg"},{"bike_id":"e336a442-3795-46b7-b3aa-60feff443ec2","system_id":"levelo_inurba_marseille","lat":43.25112,"lon":5.40268,"is_reserved":false,"is_disabled":true,"rental_uris":{"android":"levelo://app?vid=e336a442-3795-46b7-b3aa-60feff443ec2","ios":"levelo://app?vid=e336a442-3795-46b7-b3aa-60feff443ec2"},"vehicle_type_id":"4","last_reported":1769379095,"current_range_meters":4400,"station_id":"ce4bhlh2rcd13ifvqgig","pricing_plan_id":"cebpf4jnsgd1na2vs0mg"},{"bike_id":"dd369fb3-6a29-4c8b-9c32-c4dbeada70f4","system_id":"levelo_inurba_marseille","lat":43.22576,"lon":5.41648,"is_reserved":false,"is_disabled":false,"rental_uris":{"android":"levelo://app?vid=dd369fb3-6a29-4c8b-9c32-c4dbeada70f4","ios":"levelo://app?vid=dd369fb3-6a29-4c8b-9c32-c4dbeada70f4"},"vehicle_type_id":"4","last_reported":1769379095,"current_range_meters":4400,"station_id":"st_d2o4gvlbi1j2169b742g","pricing_plan_id":"cebpf4jnsgd1na2vs0mg"},{"bike_id":"78d0833c-00f3-4da5-b926-a39f1e6d1de1","system_id":"levelo_inurba_marseille","lat":43.27635,"lon":5.36107,"is_reserved":false,"is_disabled":false,"rental_uris":{"android":"levelo://app?vid=78d0833c-00f3-4da5-b926-a39f1e6d1de1","ios":"levelo://app?vid=78d0833c-00f3-4da5-b926-a39f1e6d1de1"},"vehicle_type_id":"4","last_reported":1769379095,"current_range_meters":4800,"station_id":"ce4bgj92rcd13ifvqbe0","pricing_plan_id":"cebpf4jnsgd1na2vs0mg"},{"bike_id":"6c73c3b1-d4d1-4378-9b41-34a8209dcf99","system_id":"levelo_inurba_marseille","lat":43.291013,"lon":5.381423,"is_reserved":false,"is_disabled":false,"rental_uris":{"android":"levelo://app?vid=6c73c3b1-d4d1-4378-9b41-34a8209dcf99","ios":"levelo://app?vid=6c73c3b1-d4d1-4378-9b41-34a8209dcf99"},"vehicle_type_id":"4","last_reported":1769379095,"current_range_meters":4800,"station_id":"ce4bh512rcd13ifvqe2g","pricing_plan_id":"cebpf4jnsgd1na2vs0mg"},{"bike_id":"67a80a29-3730-47f9-a49d-4110e1150c8d","system_id":"levelo_inurba_marseille","lat":43.25099,"lon":5.40347,"is_reserved":false,"is_disabled":false,"rental_uris":{"android":"levelo://app?vid=67a80a29-3730-47f9-a49d-4110e1150c8d","ios":"levelo://app?vid=67a80a29-3730-47f9-a49d-4110e1150c8d"},"vehicle_type_id":"4","last_reported":1769379095,"current_range_meters":4800,"station_id":"ce4bhlh2rcd13ifvqgig","pricing_plan_id":"cebpf4jnsgd1na2vs0mg"},{"bike_id":"d4e5a8bc-56ca-4b1e-9368-1c6ba53f48cb","system_id":"levelo_inurba_marseille","lat":43.28548,"lon":5.3949,"is_reserved":false,"is_disabled":true,"rental_uris":{"android":"levelo://app?vid=d4e5a8bc-56ca-4b1e-9368-1c6ba53f48cb","ios":"levelo://app?vid=d4e5a8bc-56ca-4b1e-9368-1c6ba53f48cb"},"vehicle_type_id":"4","last_reported":1769379095,"current_range_meters":5600,"station_id":"ce4bh292rcd13ifvqdg0","pricing_plan_id":"cebpf4jnsgd1na2vs0mg"},{"bike_id":"07209bfa-cb39-47f8-aa05-b962ff8efecd","system_id":"levelo_inurba_marseille","lat":43.2655,"lon":5.39035,"is_reserved":false,"is_disabled":false,"rental_uris":{"android":"levelo://app?vid=07209bfa-cb39-47f8-aa05-b962ff8efecd","ios":"levelo://app?vid=07209bfa-cb39-47f8-aa05-b962ff8efecd"},"vehicle_type_id":"4","last_reported":1769379095,"current_range_meters":5600,"station_id":"ce4bhe12rcd13ifvqf30","pricing_plan_id":"cebpf4jnsgd1na2vs0mg"},{"bike_id":"5e28a5e5-f567-4c36-b67f-acdca97b38cf","system_id":"levelo_inurba_marseille","lat":43.278104,"lon":5.40712,"is_reserved":false,"is_disabled":false,"rental_uris":{"android":"levelo://app?vid=5e28a5e5-f567-4c36-b67f-acdca97b38cf","ios":"levelo://app?vid=5e28a5e5-f567-4c36-b67f-acdca97b38cf"},"vehicle_type_id":"4","last_reported":1769379095,"current_range_meters":5600,"station_id":"ce4bhnh2rcd13ifvqgtg","pricing_plan_id":"cebpf4jnsgd1na2vs0mg"},{"bike_id":"deee5351-4723-42ee-bd80-9af191803937","system_id":"levelo_inurba_marseille","lat":43.29139,"lon":5.40798,"is_reserved":false,"is_disabled":false,"rental_uris":{"android":"levelo://app?vid=deee5351-4723-42ee-bd80-9af191803937","ios":"levelo://app?vid=deee5351-4723-42ee-bd80-9af191803937"},"vehicle_type_id":"4","last_reported":1769379095,"current_range_meters":5600,"station_id":"","pricing_plan_id":"cebpf4jnsgd1na2vs0mg"},{"bike_id":"363278ad-9862-4928-b650-402f6def6165","system_id":"levelo_inurba_marseille","lat":43.29636,"lon":5.37466,"is_reserved":false,"is_disabled":false,"rental_uris":{"android":"levelo://app?vid=363278ad-9862-4928-b650-402f6def6165","ios":"levelo://app?vid=363278ad-9862-4928-b650-402f6def6165"},"vehicle_type_id":"4","last_reported":1769379095,"current_range_meters":5600,"station_id":"","pricing_plan_id":"cebpf4jnsgd1na2vs0mg"},{"bike_id":"875e4077-5f8f-414d-8e4e-1d309239e541","system_id":"levelo_inurba_marseille","lat":43.23102,"lon":5.35542,"is_reserved":false,"is_disabled":false,"rental_uris":{"android":"levelo://app?vid=875e4077-5f8f-414d-8e4e-1d309239e541","ios":"levelo://app?vid=875e4077-5f8f-414d-8e4e-1d309239e541"},"vehicle_type_id":"4","last_reported":1769379095,"current_range_meters":5600,"station_id":"","pricing_plan_id":"cebpf4jnsgd1na2vs0mg"},{"bike_id":"a0c33308-b90a-484c-a006-c19b20a52375","system_id":"levelo_inurba_marseille","lat":43.26219,"lon":5.40467,"is_reserved":false,"is_disabled":false,"rental_uris":{"android":"levelo://app?vid=a0c33308-b90a-484c-a006-c19b20a52375","ios":"levelo://app?vid=a0c33308-b90a-484c-a006-c19b20a52375"},"vehicle_type_id":"4","last_reported":1769379095,"current_range_meters":5600,"station_id":"ce4bhmh2rcd13ifvqgmg","pricing_plan_id":"cebpf4jnsgd1na2vs0mg"},{"bike_id":"27e4d06b-4fc4-41e8-8090-114b4eec9e10","system_id":"levelo_inurba_marseille","lat":43.30036,"lon":5.39917,"is_reserved":false,"is_disabled":false,"rental_uris":{"android":"levelo://app?vid=27e4d06b-4fc4-41e8-8090-114b4eec9e10","ios":"levelo://app?vid=27e4d06b-4fc4-41e8-8090-114b4eec9e10"},"vehicle_type_id":"4","last_reported":1769379095,"current_range_meters":5600,"station_id":"","pricing_plan_id":"cebpf4jnsgd1na2vs0mg"},{"bike_id":"d7503130-10c8-43b2-8297-d9e107b1270f","system_id":"levelo_inurba_marseille","lat":43.30531,"lon":5.36657,"is_reserved":false,"is_disabled":false,"rental_uris":{"android":"levelo://app?vid=d7503130-10c8-43b2-8297-d9e107b1270f","ios":"levelo://app?vid=d7503130-10c8-43b2-8297-d9e107b1270f"},"vehicle_type_id":"4","last_reported":1769379095,"current_range_meters":5600,"station_id":"ce4bgrp2rcd13ifvqc9g","pricing_plan_id":"cebpf4jnsgd1na2vs0mg"},{"bike_id":"43ace758-19e2-45f5-81d3-4d0e67cb2c4e","system_id":"levelo_inurba_marseille","lat":43.23758,"lon":5.3664,"is_reserved":false,"is_disabled":false,"rental_uris":{"android":"levelo://app?vid=43ace758-19e2-45f5-81d3-4d0e67cb2c4e","ios":"levelo://app?vid=43ace758-19e2-45f5-81d3-4d0e67cb2c4e"},"vehicle_type_id":"4","last_reported":1769379095,"current_range_meters":5600,"station_id":"st_d3nk18o9ro0c73en2l3g","pricing_plan_id":"cebpf4jnsgd1na2vs0mg"},{"bike_id":"db618c29-4051-4521-a454-d046fcb41351","system_id":"levelo_inurba_marseille","lat":43.28377,"lon":5.3588,"is_reserved":false,"is_disabled":false,"rental_uris":{"android":"levelo://app?vid=db618c29-4051-4521-a454-d046fcb41351","ios":"levelo://app?vid=db618c29-4051-4521-a454-d046fcb41351"},"vehicle_type_id":"4","last_reported":1769379095,"current_range_meters":5600,"station_id":"ce4bhah2rcd13ifvqei0","pricing_plan_id":"cebpf4jnsgd1na2vs0mg"},{"bike_id":"414937c3-22ca-4ac8-a6d1-0b2223c3f608","system_id":"levelo_inurba_marseille","lat":43.2581,"lon":5.3943,"is_reserved":false,"is_disabled":false,"rental_uris":{"android":"levelo://app?vid=414937c3-22ca-4ac8-a6d1-0b2223c3f608","ios":"levelo://app?vid=414937c3-22ca-4ac8-a6d1-0b2223c3f608"},"vehicle_type_id":"4","last_reported":1769379095,"current_range_meters":6000,"station_id":"ce4bhip2rcd13ifvqft0","pricing_plan_id":"cebpf4jnsgd1na2vs0mg"},{"bike_id":"677ec20b-f7d8-44df-8a04-d7f0a2daa65b","system_id":"levelo_inurba_marseille","lat":43.28857,"lon":5.42523,"is_reserved":false,"is_disabled":false,"rental_uris":{"android":"levelo://app?vid=677ec20b-f7d8-44df-8a04-d7f0a2daa65b","ios":"levelo://app?vid=677ec20b-f7d8-44df-8a04-d7f0a2daa65b"},"vehicle_type_id":"4","last_reported":1769379095,"current_range_meters":6000,"station_id":"st_d3b462108ojc7389ooeg","pricing_plan_id":"cebpf4jnsgd1na2vs0mg"},{"bike_id":"993c6494-f17c-4ae2-b2c9-33e36265140e","system_id":"levelo_inurba_marseille","lat":43.24395,"lon":5.37065,"is_reserved":false,"is_disabled":false,"rental_uris":{"android":"levelo://app?vid=993c6494-f17c-4ae2-b2c9-33e36265140e","ios":"levelo://app?vid=993c6494-f17c-4ae2-b2c9-33e36265140e"},"vehicle_type_id":"4","last_reported":1769379095,"current_range_meters":6000,"station_id":"ce4bhhh2rcd13ifvqfk0","pricing_plan_id":"cebpf4jnsgd1na2vs0mg"},{"bike_id":"140518cd-8cda-4275-9b25-6bfad2a1fe39","system_id":"levelo_inurba_marseille","lat":43.289364,"lon":5.366399,"is_reserved":false,"is_disabled":false,"rental_uris":{"android":"levelo://app?vid=140518cd-8cda-4275-9b25-6bfad2a1fe39","ios":"levelo://app?vid=140518cd-8cda-4275-9b25-6bfad2a1fe39"},"vehicle_type_id":"4","last_reported":1769379095,"current_range_meters":6000,"station_id":"ce4bhap2rcd13ifvqek0","pricing_plan_id":"cebpf4jnsgd1na2vs0mg"},{"bike_id":"9596f630-a277-4b6a-a9aa-2677d5cc298d","system_id":"levelo_inurba_marseille","lat":43.24361,"lon":5.39947,"is_reserved":false,"is_disabled":false,"rental_uris":{"android":"levelo://app?vid=9596f630-a277-4b6a-a9aa-2677d5cc298d","ios":"levelo://app?vid=9596f630-a277-4b6a-a9aa-2677d5cc298d"},"vehicle_type_id":"4","last_reported":1769379095,"current_range_meters":6000,"station_id":"","pricing_plan_id":"cebpf4jnsgd1na2vs0mg"},{"bike_id":"abc3a781-f3d6-481a-9f61-a5b4b605dfec","system_id":"levelo_inurba_marseille","lat":43.3235,"lon":5.36735,"is_reserved":false,"is_disabled":false,"rental_uris":{"android":"levelo://app?vid=abc3a781-f3d6-481a-9f61-a5b4b605dfec","ios":"levelo://app?vid=abc3a781-f3d6-481a-9f61-a5b4b605dfec"},"vehicle_type_id":"4","last_reported":1769379095,"current_range_meters":6000,"station_id":"ce4bhsh2rcd13ifvqi2g","pricing_plan_id":"cebpf4jnsgd1na2vs0mg"},{"bike_id":"5fa896a8-aba8-4143-b23e-82d35adec35e","system_id":"levelo_inurba_marseille","lat":43.265564,"lon":5.372869,"is_reserved":false,"is_disabled":false,"rental_uris":{"android":"levelo://app?vid=5fa896a8-aba8-4143-b23e-82d35adec35e","ios":"levelo://app?vid=5fa896a8-aba8-4143-b23e-82d35adec35e"},"vehicle_type_id":"4","last_reported":1769379095,"current_range_meters":6000,"station_id":"ce4bhg12rcd13ifvqf70","pricing_plan_id":"cebpf4jnsgd1na2vs0mg"},{"bike_id":"87005f03-fc73-4208-a64b-c273dadff764","system_id":"levelo_inurba_marseille","lat":43.24645,"lon":5.38901,"is_reserved":false,"is_disabled":false,"rental_uris":{"android":"levelo://app?vid=87005f03-fc73-4208-a64b-c273dadff764","ios":"levelo://app?vid=87005f03-fc73-4208-a64b-c273dadff764"},"vehicle_type_id":"4","last_reported":1769379095,"current_range_meters":6000,"station_id":"ce4bhg12rcd13ifvqf60","pricing_plan_id":"cebpf4jnsgd1na2vs0mg"},{"bike_id":"9b3a80f2-39c6-430e-91df-5754ac1825c1","system_id":"levelo_inurba_marseille","lat":43.264814,"lon":5.395649,"is_reserved":false,"is_disabled":false,"rental_uris":{"android":"levelo://app?vid=9b3a80f2-39c6-430e-91df-5754ac1825c1","ios":"levelo://app?vid=9b3a80f2-39c6-430e-91df-5754ac1825c1"},"vehicle_type_id":"4","last_reported":1769379095,"current_range_meters":6000,"station_id":"ce4bhi12rcd13ifvqfq0","pricing_plan_id":"cebpf4jnsgd1na2vs0mg"},{"bike_id":"b9917ecd-02a8-40e9-a0d0-4758759eb040","system_id":"levelo_inurba_marseille","lat":43.245558,"lon":5.373373,"is_reserved":false,"is_disabled":false,"rental_uris":{"android":"levelo://app?vid=b9917ecd-02a8-40e9-a0d0-4758759eb040","ios":"levelo://app?vid=b9917ecd-02a8-40e9-a0d0-4758759eb040"},"vehicle_type_id":"4","last_reported":1769379095,"current_range_meters":6000,"station_id":"","pricing_plan_id":"cebpf4jnsgd1na2vs0mg"},{"bike_id":"f4d5846c-646c-4d8e-923f-075604db61e5","system_id":"levelo_inurba_marseille","lat":43.24671,"lon":5.3816,"is_reserved":false,"is_disabled":false,"rental_uris":{"android":"levelo://app?vid=f4d5846c-646c-4d8e-923f-075604db61e5","ios":"levelo://app?vid=f4d5846c-646c-4d8e-923f-075604db61e5"},"vehicle_type_id":"4","last_reported":1769379095,"current_range_meters":6000,"station_id":"ce4bhih2rcd13ifvqfr0","pricing_plan_id":"cebpf4jnsgd1na2vs0mg"},{"bike_id":"b7b68940-6e50-4a74-9685-2e0e8b628270","system_id":"levelo_inurba_marseille","lat":43.30623,"lon":5.36545,"is_reserved":false,"is_disabled":false,"rental_uris":{"android":"levelo://app?vid=b7b68940-6e50-4a74-9685-2e0e8b628270","ios":"levelo://app?vid=b7b68940-6e50-4a74-9685-2e0e8b628270"},"vehicle_type_id":"4","last_reported":1769379095,"current_range_meters":6000,"station_id":"","pricing_plan_id":"cebpf4jnsgd1na2vs0mg"},{"bike_id":"c101c5e7-a92c-4262-9de4-730cf3520d3e","system_id":"levelo_inurba_marseille","lat":43.243896,"lon":5.370467,"is_reserved":false,"is_disabled":false,"rental_uris":{"android":"levelo://app?vid=c101c5e7-a92c-4262-9de4-730cf3520d3e","ios":"levelo://app?vid=c101c5e7-a92c-4262-9de4-730cf3520d3e"},"vehicle_type_id":"4","last_reported":1769379095,"current_range_meters":6400,"station_id":"ce4bhhh2rcd13ifvqfk0","pricing_plan_id":"cebpf4jnsgd1na2vs0mg"},{"bike_id":"965df6b7-673a-4e5d-9ee5-eda9741e28cb","system_id":"levelo_inurba_marseille","lat":43.30314,"lon":5.36886,"is_reserved":false,"is_disabled":false,"rental_uris":{"android":"levelo://app?vid=965df6b7-673a-4e5d-9ee5-eda9741e28cb","ios":"levelo://app?vid=965df6b7-673a-4e5d-9ee5-eda9741e28cb"},"vehicle_type_id":"4","last_reported":1769379095,"current_range_meters":6400,"station_id":"ce4bgqh2rcd13ifvqc5g","pricing_plan_id":"cebpf4jnsgd1na2vs0mg"},{"bike_id":"a8c7adad-ae27-467b-936e-e5e482408cf3","system_id":"levelo_inurba_marseille","lat":43.31033,"lon":5.39351,"is_reserved":false,"is_disabled":false,"rental_uris":{"android":"levelo://app?vid=a8c7adad-ae27-467b-936e-e5e482408cf3","ios":"levelo://app?vid=a8c7adad-ae27-467b-936e-e5e482408cf3"},"vehicle_type_id":"4","last_reported":1769379095,"current_range_meters":6400,"station_id":"","pricing_plan_id":"cebpf4jnsgd1na2vs0mg"},{"bike_id":"c1aeaa10-dc7f-4501-b461-bb241314d426","system_id":"levelo_inurba_marseille","lat":43.23181,"lon":5.35542,"is_reserved":false,"is_disabled":false,"rental_uris":{"android":"levelo://app?vid=c1aeaa10-dc7f-4501-b461-bb241314d426","ios":"levelo://app?vid=c1aeaa10-dc7f-4501-b461-bb241314d426"},"vehicle_type_id":"4","last_reported":1769379095,"current_range_meters":6400,"station_id":"ce4bhu92rcd13ifvqi70","pricing_plan_id":"cebpf4jnsgd1na2vs0mg"},{"bike_id":"500a807b-2dab-4995-a78d-d98aedb6eb89","system_id":"levelo_inurba_marseille","lat":43.27202,"lon":5.40759,"is_reserved":false,"is_disabled":false,"rental_uris":{"android":"levelo://app?vid=500a807b-2dab-4995-a78d-d98aedb6eb89","ios":"levelo://app?vid=500a807b-2dab-4995-a78d-d98aedb6eb89"},"vehicle_type_id":"4","last_reported":1769379095,"current_range_meters":6400,"station_id":"ce4bhl12rcd13ifvqgf0","pricing_plan_id":"cebpf4jnsgd1na2vs0mg"},{"bike_id":"0c16fd9f-27e4-4df5-a3f5-66328c64053c","system_id":"levelo_inurba_marseille","lat":43.29833,"lon":5.37426,"is_reserved":false,"is_disabled":false,"rental_uris":{"android":"levelo://app?vid=0c16fd9f-27e4-4df5-a3f5-66328c64053c","ios":"levelo://app?vid=0c16fd9f-27e4-4df5-a3f5-66328c64053c"},"vehicle_type_id":"4","last_reported":1769379095,"current_range_meters":6400,"station_id":"ce4bgjh2rcd13ifvqbg0","pricing_plan_id":"cebpf4jnsgd1na2vs0mg"},{"bike_id":"9318c245-7083-4e43-a6d1-a550a3bd01cc","system_id":"levelo_inurba_marseille","lat":43.3112,"lon":5.37777,"is_reserved":false,"is_disabled":false,"rental_uris":{"android":"levelo://app?vid=9318c245-7083-4e43-a6d1-a550a3bd01cc","ios":"levelo://app?vid=9318c245-7083-4e43-a6d1-a550a3bd01cc"},"vehicle_type_id":"4","last_reported":1769379095,"current_range_meters":6400,"station_id":"ce4bgt92rcd13ifvqcg0","pricing_plan_id":"cebpf4jnsgd1na2vs0mg"},{"bike_id":"a1bf54ff-96c0-4d28-8aed-736b60c2d6a9","system_id":"levelo_inurba_marseille","lat":43.29034,"lon":5.35913,"is_reserved":false,"is_disabled":false,"rental_uris":{"android":"levelo://app?vid=a1bf54ff-96c0-4d28-8aed-736b60c2d6a9","ios":"levelo://app?vid=a1bf54ff-96c0-4d28-8aed-736b60c2d6a9"},"vehicle_type_id":"4","last_reported":1769379095,"current_range_meters":6400,"station_id":"ce4bha92rcd13ifvqeg0","pricing_plan_id":"cebpf4jnsgd1na2vs0mg"},{"bike_id":"760fba55-bff9-4a6f-82fd-8945891103a0","system_id":"levelo_inurba_marseille","lat":43.21754,"lon":5.34593,"is_reserved":false,"is_disabled":false,"rental_uris":{"android":"levelo://app?vid=760fba55-bff9-4a6f-82fd-8945891103a0","ios":"levelo://app?vid=760fba55-bff9-4a6f-82fd-8945891103a0"},"vehicle_type_id":"4","last_reported":1769379095,"current_range_meters":6400,"station_id":"st_cvj6r9ubvosntc0bgbag","pricing_plan_id":"cebpf4jnsgd1na2vs0mg"},{"bike_id":"cefc0408-08b4-45e0-8592-a44786197f49","system_id":"levelo_inurba_marseille","lat":43.22563,"lon":5.41631,"is_reserved":false,"is_disabled":false,"rental_uris":{"android":"levelo://app?vid=cefc0408-08b4-45e0-8592-a44786197f49","ios":"levelo://app?vid=cefc0408-08b4-45e0-8592-a44786197f49"},"vehicle_type_id":"4","last_reported":1769379095,"current_range_meters":6400,"station_id":"st_d2o4gvlbi1j2169b742g","pricing_plan_id":"cebpf4jnsgd1na2vs0mg"},{"bike_id":"241471d4-ea22-4707-b9cb-9d7a28477cee","system_id":"levelo_inurba_marseille","lat":43.30589,"lon":5.36526,"is_reserved":false,"is_disabled":false,"rental_uris":{"android":"levelo://app?vid=241471d4-ea22-4707-b9cb-9d7a28477cee","ios":"levelo://app?vid=241471d4-ea22-4707-b9cb-9d7a28477cee"},"vehicle_type_id":"4","last_reported":1769379095,"current_range_meters":6400,"station_id":"ce4bgs12rcd13ifvqcag","pricing_plan_id":"cebpf4jnsgd1na2vs0mg"},{"bike_id":"57b8f182-99de-4b09-9e67-0d7c851972cc","system_id":"levelo_inurba_marseille","lat":43.280923,"lon":5.396576,"is_reserved":false,"is_disabled":false,"rental_uris":{"android":"levelo://app?vid=57b8f182-99de-4b09-9e67-0d7c851972cc","ios":"levelo://app?vid=57b8f182-99de-4b09-9e67-0d7c851972cc"},"vehicle_type_id":"4","last_reported":1769379095,"current_range_meters":6400,"station_id":"ce4bho12rcd13ifvqh2g","pricing_plan_id":"cebpf4jnsgd1na2vs0mg"},{"bike_id":"991b9794-51a8-4365-b75b-9dcfcabb7925","system_id":"levelo_inurba_marseille","lat":43.28155,"lon":5.42641,"is_reserved":false,"is_disabled":false,"rental_uris":{"android":"levelo://app?vid=991b9794-51a8-4365-b75b-9dcfcabb7925","ios":"levelo://app?vid=991b9794-51a8-4365-b75b-9dcfcabb7925"},"vehicle_type_id":"4","last_reported":1769379095,"current_range_meters":6400,"station_id":"ce4bhnh2rcd13ifvqgug","pricing_plan_id":"cebpf4jnsgd1na2vs0mg"},{"bike_id":"a5c23cb4-437e-48b1-b139-2ef4a50607e4","system_id":"levelo_inurba_marseille","lat":43.29574,"lon":5.37504,"is_reserved":false,"is_disabled":false,"rental_uris":{"android":"levelo://app?vid=a5c23cb4-437e-48b1-b139-2ef4a50607e4","ios":"levelo://app?vid=a5c23cb4-437e-48b1-b139-2ef4a50607e4"},"vehicle_type_id":"4","last_reported":1769379095,"current_range_meters":6400,"station_id":"ce4bgh92rcd13ifvqb50","pricing_plan_id":"cebpf4jnsgd1na2vs0mg"},{"bike_id":"876ac817-c1de-4d59-a160-e12114ae46c0","system_id":"levelo_inurba_marseille","lat":43.31292,"lon":5.36724,"is_reserved":false,"is_disabled":false,"rental_uris":{"android":"levelo://app?vid=876ac817-c1de-4d59-a160-e12114ae46c0","ios":"levelo://app?vid=876ac817-c1de-4d59-a160-e12114ae46c0"},"vehicle_type_id":"4","last_reported":1769379095,"current_range_meters":6400,"station_id":"","pricing_plan_id":"cebpf4jnsgd1na2vs0mg"},{"bike_id":"4e8fb272-4881-4fd0-9f58-3796236a95e4","system_id":"levelo_inurba_marseille","lat":43.2958,"lon":5.37512,"is_reserved":false,"is_disabled":false,"rental_uris":{"android":"levelo://app?vid=4e8fb272-4881-4fd0-9f58-3796236a95e4","ios":"levelo://app?vid=4e8fb272-4881-4fd0-9f58-3796236a95e4"},"vehicle_type_id":"4","last_reported":1769379095,"current_range_meters":6400,"station_id":"ce4bgh92rcd13ifvqb50","pricing_plan_id":"cebpf4jnsgd1na2vs0mg"},{"bike_id":"3505f8b1-8fc5-4e81-ad99-9adf10bd1de1","system_id":"levelo_inurba_marseille","lat":43.24614,"lon":5.43163,"is_reserved":false,"is_disabled":false,"rental_uris":{"android":"levelo://app?vid=3505f8b1-8fc5-4e81-ad99-9adf10bd1de1","ios":"levelo://app?vid=3505f8b1-8fc5-4e81-ad99-9adf10bd1de1"},"vehicle_type_id":"4","last_reported":1769379095,"current_range_meters":6400,"station_id":"st_d2m6c4gdas8pm72e190g","pricing_plan_id":"cebpf4jnsgd1na2vs0mg"},{"bike_id":"5fc0beb5-4f31-4401-80db-196c9af2213a","system_id":"levelo_inurba_marseille","lat":43.267816,"lon":5.394198,"is_reserved":false,"is_disabled":true,"rental_uris":{"android":"levelo://app?vid=5fc0beb5-4f31-4401-80db-196c9af2213a","ios":"levelo://app?vid=5fc0beb5-4f31-4401-80db-196c9af2213a"},"vehicle_type_id":"4","last_reported":1769379095,"current_range_meters":6400,"station_id":"ce4bhh12rcd13ifvqfg0","pricing_plan_id":"cebpf4jnsgd1na2vs0mg"},{"bike_id":"1f42ead9-558b-488e-9a30-95f563011506","system_id":"levelo_inurba_marseille","lat":43.285787,"lon":5.371858,"is_reserved":false,"is_disabled":false,"rental_uris":{"android":"levelo://app?vid=1f42ead9-558b-488e-9a30-95f563011506","ios":"levelo://app?vid=1f42ead9-558b-488e-9a30-95f563011506"},"vehicle_type_id":"4","last_reported":1769379095,"current_range_meters":6400,"station_id":"","pricing_plan_id":"cebpf4jnsgd1na2vs0mg"},{"bike_id":"7e036456-a386-4efb-94df-0183fba99584","system_id":"levelo_inurba_marseille","lat":43.2468,"lon":5.38218,"is_reserved":false,"is_disabled":false,"rental_uris":{"android":"levelo://app?vid=7e036456-a386-4efb-94df-0183fba99584","ios":"levelo://app?vid=7e036456-a386-4efb-94df-0183fba99584"},"vehicle_type_id":"4","last_reported":1769379095,"current_range_meters":6400,"station_id":"ce4bhih2rcd13ifvqfr0","pricing_plan_id":"cebpf4jnsgd1na2vs0mg"},{"bike_id":"cc77ab8d-f6fe-4e5f-b2b5-a4170aed5189","system_id":"levelo_inurba_marseille","lat":43.24949,"lon":5.40485,"is_reserved":false,"is_disabled":false,"rental_uris":{"android":"levelo://app?vid=cc77ab8d-f6fe-4e5f-b2b5-a4170aed5189","ios":"levelo://app?vid=cc77ab8d-f6fe-4e5f-b2b5-a4170aed5189"},"vehicle_type_id":"4","last_reported":1769379095,"current_range_meters":6400,"station_id":"st_d2ngiaodas8pm72gd1h0","pricing_plan_id":"cebpf4jnsgd1na2vs0mg"},{"bike_id":"1d74b20c-573d-4f7b-8844-3b1a5fa6f1cf","system_id":"levelo_inurba_marseille","lat":43.27832,"lon":5.37985,"is_reserved":false,"is_disabled":false,"rental_uris":{"android":"levelo://app?vid=1d74b20c-573d-4f7b-8844-3b1a5fa6f1cf","ios":"levelo://app?vid=1d74b20c-573d-4f7b-8844-3b1a5fa6f1cf"},"vehicle_type_id":"4","last_reported":1769379095,"current_range_meters":6400,"station_id":"","pricing_plan_id":"cebpf4jnsgd1na2vs0mg"},{"bike_id":"2e46861b-c9e2-4124-8fb2-9f2e778640d7","system_id":"levelo_inurba_marseille","lat":43.21734,"lon":5.34607,"is_reserved":false,"is_disabled":false,"rental_uris":{"android":"levelo://app?vid=2e46861b-c9e2-4124-8fb2-9f2e778640d7","ios":"levelo://app?vid=2e46861b-c9e2-4124-8fb2-9f2e778640d7"},"vehicle_type_id":"4","last_reported":1769379095,"current_range_meters":6800,"station_id":"st_cvj6r9ubvosntc0bgbag","pricing_plan_id":"cebpf4jnsgd1na2vs0mg"},{"bike_id":"e8d34882-7f70-40bc-9b52-f523df157e01","system_id":"levelo_inurba_marseille","lat":43.23958,"lon":5.36641,"is_reserved":false,"is_disabled":false,"rental_uris":{"android":"levelo://app?vid=e8d34882-7f70-40bc-9b52-f523df157e01","ios":"levelo://app?vid=e8d34882-7f70-40bc-9b52-f523df157e01"},"vehicle_type_id":"4","last_reported":1769379095,"current_range_meters":6800,"station_id":"ce4bhi12rcd13ifvqfp0","pricing_plan_id":"cebpf4jnsgd1na2vs0mg"},{"bike_id":"16ac6a98-72f5-44f8-b1d4-83d2f7e68694","system_id":"levelo_inurba_marseille","lat":43.24107,"lon":5.37773,"is_reserved":false,"is_disabled":false,"rental_uris":{"android":"levelo://app?vid=16ac6a98-72f5-44f8-b1d4-83d2f7e68694","ios":"levelo://app?vid=16ac6a98-72f5-44f8-b1d4-83d2f7e68694"},"vehicle_type_id":"4","last_reported":1769379095,"current_range_meters":6800,"station_id":"ce4bhnp2rcd13ifvqgvg","pricing_plan_id":"cebpf4jnsgd1na2vs0mg"},{"bike_id":"0de5032e-148a-468e-969e-fb644458ceae","system_id":"levelo_inurba_marseille","lat":43.25098,"lon":5.40451,"is_reserved":false,"is_disabled":false,"rental_uris":{"android":"levelo://app?vid=0de5032e-148a-468e-969e-fb644458ceae","ios":"levelo://app?vid=0de5032e-148a-468e-969e-fb644458ceae"},"vehicle_type_id":"4","last_reported":1769379095,"current_range_meters":6800,"station_id":"","pricing_plan_id":"cebpf4jnsgd1na2vs0mg"},{"bike_id":"4ecf6c12-33e8-4135-b4a4-e6c4ddb448fc","system_id":"levelo_inurba_marseille","lat":43.24089,"lon":5.37748,"is_reserved":false,"is_disabled":false,"rental_uris":{"android":"levelo://app?vid=4ecf6c12-33e8-4135-b4a4-e6c4ddb448fc","ios":"levelo://app?vid=4ecf6c12-33e8-4135-b4a4-e6c4ddb448fc"},"vehicle_type_id":"4","last_reported":1769379095,"current_range_meters":6800,"station_id":"ce4bhnp2rcd13ifvqgvg","pricing_plan_id":"cebpf4jnsgd1na2vs0mg"},{"bike_id":"a31d4b1b-7a61-4655-ae18-d5254ed9b3a3","system_id":"levelo_inurba_marseille","lat":43.286,"lon":5.44142,"is_reserved":false,"is_disabled":false,"rental_uris":{"android":"levelo://app?vid=a31d4b1b-7a61-4655-ae18-d5254ed9b3a3","ios":"levelo://app?vid=a31d4b1b-7a61-4655-ae18-d5254ed9b3a3"},"vehicle_type_id":"4","last_reported":1769379095,"current_range_meters":6800,"station_id":"","pricing_plan_id":"cebpf4jnsgd1na2vs0mg"},{"bike_id":"77a8d6f7-8520-4e5a-a0e7-89573d4a6a77","system_id":"levelo_inurba_marseille","lat":43.23798,"lon":5.36666,"is_reserved":false,"is_disabled":false,"rental_uris":{"android":"levelo://app?vid=77a8d6f7-8520-4e5a-a0e7-89573d4a6a77","ios":"levelo://app?vid=77a8d6f7-8520-4e5a-a0e7-89573d4a6a77"},"vehicle_type_id":"4","last_reported":1769379095,"current_range_meters":6800,"station_id":"st_d3nk18o9ro0c73en2l3g","pricing_plan_id":"cebpf4jnsgd1na2vs0mg"},{"bike_id":"5cfd7260-21a3-4346-b554-3744fc7c6072","system_id":"levelo_inurba_marseille","lat":43.29562,"lon":5.42277,"is_reserved":false,"is_disabled":false,"rental_uris":{"android":"levelo://app?vid=5cfd7260-21a3-4346-b554-3744fc7c6072","ios":"levelo://app?vid=5cfd7260-21a3-4346-b554-3744fc7c6072"},"vehicle_type_id":"4","last_reported":1769379095,"current_range_meters":6800,"station_id":"ce4bhph2rcd13ifvqhdg","pricing_plan_id":"cebpf4jnsgd1na2vs0mg"},{"bike_id":"0a9315ef-49dd-4e1c-90ba-9ac1028ca5d9","system_id":"levelo_inurba_marseille","lat":43.321092,"lon":5.36766,"is_reserved":false,"is_disabled":false,"rental_uris":{"android":"levelo://app?vid=0a9315ef-49dd-4e1c-90ba-9ac1028ca5d9","ios":"levelo://app?vid=0a9315ef-49dd-4e1c-90ba-9ac1028ca5d9"},"vehicle_type_id":"4","last_reported":1769379095,"current_range_meters":6800,"station_id":"ce4bhrh2rcd13ifvqhug","pricing_plan_id":"cebpf4jnsgd1na2vs0mg"},{"bike_id":"b1d59cca-e28a-4678-b838-1155b378cd48","system_id":"levelo_inurba_marseille","lat":43.33555,"lon":5.37494,"is_reserved":false,"is_disabled":false,"rental_uris":{"android":"levelo://app?vid=b1d59cca-e28a-4678-b838-1155b378cd48","ios":"levelo://app?vid=b1d59cca-e28a-4678-b838-1155b378cd48"},"vehicle_type_id":"4","last_reported":1769379095,"current_range_meters":6800,"station_id":"st_d46tts09ee8s73dlu43g","pricing_plan_id":"cebpf4jnsgd1na2vs0mg"},{"bike_id":"b075d711-d93d-4120-85f9-64fa0a4a9a99","system_id":"levelo_inurba_marseille","lat":43.22555,"lon":5.41631,"is_reserved":false,"is_disabled":false,"rental_uris":{"android":"levelo://app?vid=b075d711-d93d-4120-85f9-64fa0a4a9a99","ios":"levelo://app?vid=b075d711-d93d-4120-85f9-64fa0a4a9a99"},"vehicle_type_id":"4","last_reported":1769379095,"current_range_meters":6800,"station_id":"st_d2o4gvlbi1j2169b742g","pricing_plan_id":"cebpf4jnsgd1na2vs0mg"},{"bike_id":"bce6909b-6414-4542-8a72-6633241c9b07","system_id":"levelo_inurba_marseille","lat":43.265639,"lon":5.403206,"is_reserved":false,"is_disabled":false,"rental_uris":{"android":"levelo://app?vid=bce6909b-6414-4542-8a72-6633241c9b07","ios":"levelo://app?vid=bce6909b-6414-4542-8a72-6633241c9b07"},"vehicle_type_id":"4","last_reported":1769379095,"current_range_meters":6800,"station_id":"ce4bhmp2rcd13ifvqgng","pricing_plan_id":"cebpf4jnsgd1na2vs0mg"},{"bike_id":"10387f82-2301-4057-96f6-08df2a5bdb3c","system_id":"levelo_inurba_marseille","lat":43.26816,"lon":5.40266,"is_reserved":false,"is_disabled":false,"rental_uris":{"android":"levelo://app?vid=10387f82-2301-4057-96f6-08df2a5bdb3c","ios":"levelo://app?vid=10387f82-2301-4057-96f6-08df2a5bdb3c"},"vehicle_type_id":"4","last_reported":1769379095,"current_range_meters":6800,"station_id":"ce501612rcd8frsf0b60","pricing_plan_id":"cebpf4jnsgd1na2vs0mg"},{"bike_id":"ea53cb96-b018-4a32-8207-3b5118a7a50d","system_id":"levelo_inurba_marseille","lat":43.32123,"lon":5.36807,"is_reserved":false,"is_disabled":false,"rental_uris":{"android":"levelo://app?vid=ea53cb96-b018-4a32-8207-3b5118a7a50d","ios":"levelo://app?vid=ea53cb96-b018-4a32-8207-3b5118a7a50d"},"vehicle_type_id":"4","last_reported":1769379095,"current_range_meters":6800,"station_id":"ce4bhrh2rcd13ifvqhug","pricing_plan_id":"cebpf4jnsgd1na2vs0mg"},{"bike_id":"ca006b1c-64f2-4772-acb4-e94321165aec","system_id":"levelo_inurba_marseille","lat":43.305489,"lon":5.367403,"is_reserved":false,"is_disabled":false,"rental_uris":{"android":"levelo://app?vid=ca006b1c-64f2-4772-acb4-e94321165aec","ios":"levelo://app?vid=ca006b1c-64f2-4772-acb4-e94321165aec"},"vehicle_type_id":"4","last_reported":1769379095,"current_range_meters":6800,"station_id":"ce4bgn92rcd13ifvqbvg","pricing_plan_id":"cebpf4jnsgd1na2vs0mg"},{"bike_id":"94f0e610-db77-4234-9107-d4f7aa303985","system_id":"levelo_inurba_marseille","lat":43.29836,"lon":5.36282,"is_reserved":false,"is_disabled":false,"rental_uris":{"android":"levelo://app?vid=94f0e610-db77-4234-9107-d4f7aa303985","ios":"levelo://app?vid=94f0e610-db77-4234-9107-d4f7aa303985"},"vehicle_type_id":"4","last_reported":1769379095,"current_range_meters":6800,"station_id":"ce4bgpp2rcd13ifvqc3g","pricing_plan_id":"cebpf4jnsgd1na2vs0mg"},{"bike_id":"3ce0fbf9-3853-4b7d-802e-15d45fe9db9a","system_id":"levelo_inurba_marseille","lat":43.26187,"lon":5.37932,"is_reserved":false,"is_disabled":false,"rental_uris":{"android":"levelo://app?vid=3ce0fbf9-3853-4b7d-802e-15d45fe9db9a","ios":"levelo://app?vid=3ce0fbf9-3853-4b7d-802e-15d45fe9db9a"},"vehicle_type_id":"4","last_reported":1769379095,"current_range_meters":6800,"station_id":"ce4bhjp2rcd13ifvqg90","pricing_plan_id":"cebpf4jnsgd1na2vs0mg"},{"bike_id":"0c11bc30-1254-4e35-b530-31f7fd6a4b39","system_id":"levelo_inurba_marseille","lat":43.30008,"lon":5.37354,"is_reserved":false,"is_disabled":false,"rental_uris":{"android":"levelo://app?vid=0c11bc30-1254-4e35-b530-31f7fd6a4b39","ios":"levelo://app?vid=0c11bc30-1254-4e35-b530-31f7fd6a4b39"},"vehicle_type_id":"4","last_reported":1769379095,"current_range_meters":6800,"station_id":"","pricing_plan_id":"cebpf4jnsgd1na2vs0mg"},{"bike_id":"e19418ad-aa76-4b1d-a53d-977a549e82e9","system_id":"levelo_inurba_marseille","lat":43.23195,"lon":5.35584,"is_reserved":false,"is_disabled":false,"rental_uris":{"android":"levelo://app?vid=e19418ad-aa76-4b1d-a53d-977a549e82e9","ios":"levelo://app?vid=e19418ad-aa76-4b1d-a53d-977a549e82e9"},"vehicle_type_id":"4","last_reported":1769379095,"current_range_meters":6800,"station_id":"ce4bhu92rcd13ifvqi70","pricing_plan_id":"cebpf4jnsgd1na2vs0mg"},{"bike_id":"6ca833bc-eb2d-4968-a64f-dee268a3783e","system_id":"levelo_inurba_marseille","lat":43.23143,"lon":5.4371,"is_reserved":false,"is_disabled":false,"rental_uris":{"android":"levelo://app?vid=6ca833bc-eb2d-4968-a64f-dee268a3783e","ios":"levelo://app?vid=6ca833bc-eb2d-4968-a64f-dee268a3783e"},"vehicle_type_id":"4","last_reported":1769379095,"current_range_meters":6800,"station_id":"ce4bhmp2rcd13ifvqgog","pricing_plan_id":"cebpf4jnsgd1na2vs0mg"},{"bike_id":"dbf02342-dd3c-4a35-a4ad-2560cfa2e190","system_id":"levelo_inurba_marseille","lat":43.21714,"lon":5.34665,"is_reserved":false,"is_disabled":false,"rental_uris":{"android":"levelo://app?vid=dbf02342-dd3c-4a35-a4ad-2560cfa2e190","ios":"levelo://app?vid=dbf02342-dd3c-4a35-a4ad-2560cfa2e190"},"vehicle_type_id":"4","last_reported":1769379095,"current_range_meters":6800,"station_id":"st_cvj6r9ubvosntc0bgbag","pricing_plan_id":"cebpf4jnsgd1na2vs0mg"},{"bike_id":"ffb6a194-260f-4933-8da9-320ddd27531e","system_id":"levelo_inurba_marseille","lat":43.25078,"lon":5.3951,"is_reserved":false,"is_disabled":false,"rental_uris":{"android":"levelo://app?vid=ffb6a194-260f-4933-8da9-320ddd27531e","ios":"levelo://app?vid=ffb6a194-260f-4933-8da9-320ddd27531e"},"vehicle_type_id":"4","last_reported":1769379095,"current_range_meters":6800,"station_id":"ce4bhm12rcd13ifvqgkg","pricing_plan_id":"cebpf4jnsgd1na2vs0mg"},{"bike_id":"b48ee151-3ed1-4e10-984a-1bdd1de5d934","system_id":"levelo_inurba_marseille","lat":43.26685,"lon":5.39066,"is_reserved":false,"is_disabled":false,"rental_uris":{"android":"levelo://app?vid=b48ee151-3ed1-4e10-984a-1bdd1de5d934","ios":"levelo://app?vid=b48ee151-3ed1-4e10-984a-1bdd1de5d934"},"vehicle_type_id":"4","last_reported":1769379095,"current_range_meters":6800,"station_id":"","pricing_plan_id":"cebpf4jnsgd1na2vs0mg"},{"bike_id":"3382518f-427b-4467-b8d5-3c3de31edcf3","system_id":"levelo_inurba_marseille","lat":43.22966,"lon":5.35414,"is_reserved":false,"is_disabled":false,"rental_uris":{"android":"levelo://app?vid=3382518f-427b-4467-b8d5-3c3de31edcf3","ios":"levelo://app?vid=3382518f-427b-4467-b8d5-3c3de31edcf3"},"vehicle_type_id":"4","last_reported":1769379095,"current_range_meters":6800,"station_id":"cpo3532slgdg3j2ikp40","pricing_plan_id":"cebpf4jnsgd1na2vs0mg"},{"bike_id":"367a6bfa-022d-4ac7-9a7a-fafdb9ad5966","system_id":"levelo_inurba_marseille","lat":43.23184,"lon":5.39987,"is_reserved":false,"is_disabled":true,"rental_uris":{"android":"levelo://app?vid=367a6bfa-022d-4ac7-9a7a-fafdb9ad5966","ios":"levelo://app?vid=367a6bfa-022d-4ac7-9a7a-fafdb9ad5966"},"vehicle_type_id":"4","last_reported":1769379095,"current_range_meters":7200,"station_id":"ce4bhn12rcd13ifvqgqg","pricing_plan_id":"cebpf4jnsgd1na2vs0mg"},{"bike_id":"fe8f16c0-7c2c-4db5-9830-9c506d68052e","system_id":"levelo_inurba_marseille","lat":43.25119,"lon":5.4033,"is_reserved":false,"is_disabled":false,"rental_uris":{"android":"levelo://app?vid=fe8f16c0-7c2c-4db5-9830-9c506d68052e","ios":"levelo://app?vid=fe8f16c0-7c2c-4db5-9830-9c506d68052e"},"vehicle_type_id":"4","last_reported":1769379095,"current_range_meters":7200,"station_id":"ce4bhlh2rcd13ifvqgig","pricing_plan_id":"cebpf4jnsgd1na2vs0mg"},{"bike_id":"09a5d1ab-035a-4dc3-bfa2-fcc95b884751","system_id":"levelo_inurba_marseille","lat":43.26799,"lon":5.38877,"is_reserved":false,"is_disabled":false,"rental_uris":{"android":"levelo://app?vid=09a5d1ab-035a-4dc3-bfa2-fcc95b884751","ios":"levelo://app?vid=09a5d1ab-035a-4dc3-bfa2-fcc95b884751"},"vehicle_type_id":"4","last_reported":1769379095,"current_range_meters":7200,"station_id":"","pricing_plan_id":"cebpf4jnsgd1na2vs0mg"},{"bike_id":"91d94f8f-bf04-4f53-b0a2-ffd68db2b3e5","system_id":"levelo_inurba_marseille","lat":43.29619,"lon":5.37175,"is_reserved":false,"is_disabled":false,"rental_uris":{"android":"levelo://app?vid=91d94f8f-bf04-4f53-b0a2-ffd68db2b3e5","ios":"levelo://app?vid=91d94f8f-bf04-4f53-b0a2-ffd68db2b3e5"},"vehicle_type_id":"4","last_reported":1769379095,"current_range_meters":7200,"station_id":"ce4bgnh2rcd13ifvqc0g","pricing_plan_id":"cebpf4jnsgd1na2vs0mg"},{"bike_id":"6252b5bc-7f21-4a5c-90b2-fb54de33b122","system_id":"levelo_inurba_marseille","lat":43.243912,"lon":5.370708,"is_reserved":false,"is_disabled":false,"rental_uris":{"android":"levelo://app?vid=6252b5bc-7f21-4a5c-90b2-fb54de33b122","ios":"levelo://app?vid=6252b5bc-7f21-4a5c-90b2-fb54de33b122"},"vehicle_type_id":"4","last_reported":1769379095,"current_range_meters":7200,"station_id":"ce4bhhh2rcd13ifvqfk0","pricing_plan_id":"cebpf4jnsgd1na2vs0mg"},{"bike_id":"a4aafa8d-a01c-4642-9e94-a5564c7bcce4","system_id":"levelo_inurba_marseille","lat":43.31121,"lon":5.37752,"is_reserved":false,"is_disabled":false,"rental_uris":{"android":"levelo://app?vid=a4aafa8d-a01c-4642-9e94-a5564c7bcce4","ios":"levelo://app?vid=a4aafa8d-a01c-4642-9e94-a5564c7bcce4"},"vehicle_type_id":"4","last_reported":1769379095,"current_range_meters":7200,"station_id":"ce4bgt92rcd13ifvqcg0","pricing_plan_id":"cebpf4jnsgd1na2vs0mg"},{"bike_id":"a7d2959e-278b-41d6-9192-a644114b55de","system_id":"levelo_inurba_marseille","lat":43.237944,"lon":5.366344,"is_reserved":false,"is_disabled":false,"rental_uris":{"android":"levelo://app?vid=a7d2959e-278b-41d6-9192-a644114b55de","ios":"levelo://app?vid=a7d2959e-278b-41d6-9192-a644114b55de"},"vehicle_type_id":"4","last_reported":1769379095,"current_range_meters":7200,"station_id":"st_d3nk18o9ro0c73en2l3g","pricing_plan_id":"cebpf4jnsgd1na2vs0mg"},{"bike_id":"5d411b85-7b12-4358-9445-6cfeeebcda1f","system_id":"levelo_inurba_marseille","lat":43.27616,"lon":5.36109,"is_reserved":false,"is_disabled":false,"rental_uris":{"android":"levelo://app?vid=5d411b85-7b12-4358-9445-6cfeeebcda1f","ios":"levelo://app?vid=5d411b85-7b12-4358-9445-6cfeeebcda1f"},"vehicle_type_id":"4","last_reported":1769379095,"current_range_meters":7200,"station_id":"ce4bgj92rcd13ifvqbe0","pricing_plan_id":"cebpf4jnsgd1na2vs0mg"},{"bike_id":"5e529a5d-b2ca-40f2-848b-027e979b3e6d","system_id":"levelo_inurba_marseille","lat":43.31859,"lon":5.4356,"is_reserved":false,"is_disabled":false,"rental_uris":{"android":"levelo://app?vid=5e529a5d-b2ca-40f2-848b-027e979b3e6d","ios":"levelo://app?vid=5e529a5d-b2ca-40f2-848b-027e979b3e6d"},"vehicle_type_id":"4","last_reported":1769379095,"current_range_meters":7200,"station_id":"","pricing_plan_id":"cebpf4jnsgd1na2vs0mg"},{"bike_id":"61165f3e-209e-47fa-857a-de8b3622f669","system_id":"levelo_inurba_marseille","lat":43.29609,"lon":5.37729,"is_reserved":false,"is_disabled":false,"rental_uris":{"android":"levelo://app?vid=61165f3e-209e-47fa-857a-de8b3622f669","ios":"levelo://app?vid=61165f3e-209e-47fa-857a-de8b3622f669"},"vehicle_type_id":"4","last_reported":1769379095,"current_range_meters":7200,"station_id":"ce4bgi92rcd13ifvqb90","pricing_plan_id":"cebpf4jnsgd1na2vs0mg"},{"bike_id":"39febb2d-a402-440c-a637-c5b1307d4b3c","system_id":"levelo_inurba_marseille","lat":43.2993,"lon":5.36539,"is_reserved":false,"is_disabled":false,"rental_uris":{"android":"levelo://app?vid=39febb2d-a402-440c-a637-c5b1307d4b3c","ios":"levelo://app?vid=39febb2d-a402-440c-a637-c5b1307d4b3c"},"vehicle_type_id":"4","last_reported":1769379095,"current_range_meters":7200,"station_id":"ce4bgm92rcd13ifvqbr0","pricing_plan_id":"cebpf4jnsgd1na2vs0mg"},{"bike_id":"5620fd0b-568e-406e-8104-b0555da61e8a","system_id":"levelo_inurba_marseille","lat":43.28483,"lon":5.48406,"is_reserved":false,"is_disabled":false,"rental_uris":{"android":"levelo://app?vid=5620fd0b-568e-406e-8104-b0555da61e8a","ios":"levelo://app?vid=5620fd0b-568e-406e-8104-b0555da61e8a"},"vehicle_type_id":"4","last_reported":1769379095,"current_range_meters":7200,"station_id":"","pricing_plan_id":"cebpf4jnsgd1na2vs0mg"},{"bike_id":"911f0371-0df0-45e8-a323-aedfe8ac7407","system_id":"levelo_inurba_marseille","lat":43.33153,"lon":5.37697,"is_reserved":false,"is_disabled":false,"rental_uris":{"android":"levelo://app?vid=911f0371-0df0-45e8-a323-aedfe8ac7407","ios":"levelo://app?vid=911f0371-0df0-45e8-a323-aedfe8ac7407"},"vehicle_type_id":"4","last_reported":1769379095,"current_range_meters":7200,"station_id":"st_d46cu089ee8s73dldbu0","pricing_plan_id":"cebpf4jnsgd1na2vs0mg"},{"bike_id":"6b03ada9-beb1-4397-aab8-27781ac0b0d3","system_id":"levelo_inurba_marseille","lat":43.25091,"lon":5.40271,"is_reserved":false,"is_disabled":false,"rental_uris":{"android":"levelo://app?vid=6b03ada9-beb1-4397-aab8-27781ac0b0d3","ios":"levelo://app?vid=6b03ada9-beb1-4397-aab8-27781ac0b0d3"},"vehicle_type_id":"4","last_reported":1769379095,"current_range_meters":7200,"station_id":"ce4bhlh2rcd13ifvqgig","pricing_plan_id":"cebpf4jnsgd1na2vs0mg"},{"bike_id":"9536a92a-01ab-4017-8488-26a8fa6880af","system_id":"levelo_inurba_marseille","lat":43.25919,"lon":5.40862,"is_reserved":false,"is_disabled":false,"rental_uris":{"android":"levelo://app?vid=9536a92a-01ab-4017-8488-26a8fa6880af","ios":"levelo://app?vid=9536a92a-01ab-4017-8488-26a8fa6880af"},"vehicle_type_id":"4","last_reported":1769379095,"current_range_meters":7200,"station_id":"ce4bhm92rcd13ifvqglg","pricing_plan_id":"cebpf4jnsgd1na2vs0mg"},{"bike_id":"23e8e2b5-e425-472a-bc08-b0b79ef75ac3","system_id":"levelo_inurba_marseille","lat":43.285288,"lon":5.440996,"is_reserved":false,"is_disabled":false,"rental_uris":{"android":"levelo://app?vid=23e8e2b5-e425-472a-bc08-b0b79ef75ac3","ios":"levelo://app?vid=23e8e2b5-e425-472a-bc08-b0b79ef75ac3"},"vehicle_type_id":"4","last_reported":1769379095,"current_range_meters":7200,"station_id":"st_d3j3df2ikq2c7380ej80","pricing_plan_id":"cebpf4jnsgd1na2vs0mg"},{"bike_id":"6c29796b-91a7-4fca-91ba-1f981077ace9","system_id":"levelo_inurba_marseille","lat":43.23167,"lon":5.43728,"is_reserved":false,"is_disabled":false,"rental_uris":{"android":"levelo://app?vid=6c29796b-91a7-4fca-91ba-1f981077ace9","ios":"levelo://app?vid=6c29796b-91a7-4fca-91ba-1f981077ace9"},"vehicle_type_id":"4","last_reported":1769379095,"current_range_meters":7200,"station_id":"ce4bhmp2rcd13ifvqgog","pricing_plan_id":"cebpf4jnsgd1na2vs0mg"},{"bike_id":"ae4e992a-eb37-4dc7-9aba-00b8edffe743","system_id":"levelo_inurba_marseille","lat":43.24062,"lon":5.37781,"is_reserved":false,"is_disabled":false,"rental_uris":{"android":"levelo://app?vid=ae4e992a-eb37-4dc7-9aba-00b8edffe743","ios":"levelo://app?vid=ae4e992a-eb37-4dc7-9aba-00b8edffe743"},"vehicle_type_id":"4","last_reported":1769379095,"current_range_meters":7200,"station_id":"ce4bhnp2rcd13ifvqgvg","pricing_plan_id":"cebpf4jnsgd1na2vs0mg"},{"bike_id":"e583aa8c-b22b-4d80-84b4-4fd298208578","system_id":"levelo_inurba_marseille","lat":43.30954,"lon":5.39054,"is_reserved":false,"is_disabled":false,"rental_uris":{"android":"levelo://app?vid=e583aa8c-b22b-4d80-84b4-4fd298208578","ios":"levelo://app?vid=e583aa8c-b22b-4d80-84b4-4fd298208578"},"vehicle_type_id":"4","last_reported":1769379095,"current_range_meters":7200,"station_id":"ce4bgup2rcd13ifvqco0","pricing_plan_id":"cebpf4jnsgd1na2vs0mg"},{"bike_id":"202f1104-5acd-4ad3-972a-1bdbd896c535","system_id":"levelo_inurba_marseille","lat":43.32353,"lon":5.36738,"is_reserved":false,"is_disabled":false,"rental_uris":{"android":"levelo://app?vid=202f1104-5acd-4ad3-972a-1bdbd896c535","ios":"levelo://app?vid=202f1104-5acd-4ad3-972a-1bdbd896c535"},"vehicle_type_id":"4","last_reported":1769379095,"current_range_meters":7200,"station_id":"ce4bhsh2rcd13ifvqi2g","pricing_plan_id":"cebpf4jnsgd1na2vs0mg"},{"bike_id":"903314b2-6d31-421e-8b65-d019ed2ae7a0","system_id":"levelo_inurba_marseille","lat":43.29434,"lon":5.36712,"is_reserved":false,"is_disabled":false,"rental_uris":{"android":"levelo://app?vid=903314b2-6d31-421e-8b65-d019ed2ae7a0","ios":"levelo://app?vid=903314b2-6d31-421e-8b65-d019ed2ae7a0"},"vehicle_type_id":"4","last_reported":1769379095,"current_range_meters":7200,"station_id":"","pricing_plan_id":"cebpf4jnsgd1na2vs0mg"},{"bike_id":"76f15ad4-d2a1-4e04-beac-26f7234bdc21","system_id":"levelo_inurba_marseille","lat":43.30285,"lon":5.36765,"is_reserved":false,"is_disabled":false,"rental_uris":{"android":"levelo://app?vid=76f15ad4-d2a1-4e04-beac-26f7234bdc21","ios":"levelo://app?vid=76f15ad4-d2a1-4e04-beac-26f7234bdc21"},"vehicle_type_id":"4","last_reported":1769379095,"current_range_meters":7200,"station_id":"","pricing_plan_id":"cebpf4jnsgd1na2vs0mg"},{"bike_id":"189ff06a-06cf-4790-9507-069db8406816","system_id":"levelo_inurba_marseille","lat":43.29586,"lon":5.39601,"is_reserved":false,"is_disabled":false,"rental_uris":{"android":"levelo://app?vid=189ff06a-06cf-4790-9507-069db8406816","ios":"levelo://app?vid=189ff06a-06cf-4790-9507-069db8406816"},"vehicle_type_id":"4","last_reported":1769379095,"current_range_meters":7200,"station_id":"","pricing_plan_id":"cebpf4jnsgd1na2vs0mg"},{"bike_id":"281c13db-7575-4f01-8cb4-ab2b2ff0bb6c","system_id":"levelo_inurba_marseille","lat":43.23056,"lon":5.35483,"is_reserved":false,"is_disabled":false,"rental_uris":{"android":"levelo://app?vid=281c13db-7575-4f01-8cb4-ab2b2ff0bb6c","ios":"levelo://app?vid=281c13db-7575-4f01-8cb4-ab2b2ff0bb6c"},"vehicle_type_id":"4","last_reported":1769379095,"current_range_meters":7200,"station_id":"cpo3342slgdg3j2ifvpg","pricing_plan_id":"cebpf4jnsgd1na2vs0mg"},{"bike_id":"872ca787-ea41-43ac-9081-3181ff9b1e3b","system_id":"levelo_inurba_marseille","lat":43.27385,"lon":5.36259,"is_reserved":false,"is_disabled":false,"rental_uris":{"android":"levelo://app?vid=872ca787-ea41-43ac-9081-3181ff9b1e3b","ios":"levelo://app?vid=872ca787-ea41-43ac-9081-3181ff9b1e3b"},"vehicle_type_id":"4","last_reported":1769379095,"current_range_meters":7200,"station_id":"ce4bhbh2rcd13ifvqeo0","pricing_plan_id":"cebpf4jnsgd1na2vs0mg"},{"bike_id":"7d6232c1-2c3f-4ac7-80ff-eb6d21c5143b","system_id":"levelo_inurba_marseille","lat":43.25584,"lon":5.37767,"is_reserved":false,"is_disabled":false,"rental_uris":{"android":"levelo://app?vid=7d6232c1-2c3f-4ac7-80ff-eb6d21c5143b","ios":"levelo://app?vid=7d6232c1-2c3f-4ac7-80ff-eb6d21c5143b"},"vehicle_type_id":"4","last_reported":1769379095,"current_range_meters":7200,"station_id":"ce4bhh12rcd13ifvqff0","pricing_plan_id":"cebpf4jnsgd1na2vs0mg"},{"bike_id":"99bc9e46-2a2d-4354-b606-97e38b1b91d7","system_id":"levelo_inurba_marseille","lat":43.23935,"lon":5.37572,"is_reserved":false,"is_disabled":false,"rental_uris":{"android":"levelo://app?vid=99bc9e46-2a2d-4354-b606-97e38b1b91d7","ios":"levelo://app?vid=99bc9e46-2a2d-4354-b606-97e38b1b91d7"},"vehicle_type_id":"4","last_reported":1769379095,"current_range_meters":7200,"station_id":"","pricing_plan_id":"cebpf4jnsgd1na2vs0mg"},{"bike_id":"220c418b-28b6-4540-8ffd-c0aa175c1092","system_id":"levelo_inurba_marseille","lat":43.27974,"lon":5.41661,"is_reserved":false,"is_disabled":false,"rental_uris":{"android":"levelo://app?vid=220c418b-28b6-4540-8ffd-c0aa175c1092","ios":"levelo://app?vid=220c418b-28b6-4540-8ffd-c0aa175c1092"},"vehicle_type_id":"4","last_reported":1769379095,"current_range_meters":8000,"station_id":"ce4bho12rcd13ifvqh1g","pricing_plan_id":"cebpf4jnsgd1na2vs0mg"},{"bike_id":"af1a3621-d057-4ad0-b71e-c2bbcd71736a","system_id":"levelo_inurba_marseille","lat":43.30192,"lon":5.36611,"is_reserved":false,"is_disabled":true,"rental_uris":{"android":"levelo://app?vid=af1a3621-d057-4ad0-b71e-c2bbcd71736a","ios":"levelo://app?vid=af1a3621-d057-4ad0-b71e-c2bbcd71736a"},"vehicle_type_id":"4","last_reported":1769379095,"current_range_meters":8000,"station_id":"ce4bgrh2rcd13ifvqc8g","pricing_plan_id":"cebpf4jnsgd1na2vs0mg"},{"bike_id":"f53ca2da-b1cd-45e9-9879-a5420d58e3a4","system_id":"levelo_inurba_marseille","lat":43.23152,"lon":5.43712,"is_reserved":false,"is_disabled":false,"rental_uris":{"android":"levelo://app?vid=f53ca2da-b1cd-45e9-9879-a5420d58e3a4","ios":"levelo://app?vid=f53ca2da-b1cd-45e9-9879-a5420d58e3a4"},"vehicle_type_id":"4","last_reported":1769379095,"current_range_meters":8000,"station_id":"ce4bhmp2rcd13ifvqgog","pricing_plan_id":"cebpf4jnsgd1na2vs0mg"},{"bike_id":"dea969c0-1e1e-4f04-aa1c-2420f6f01cf2","system_id":"levelo_inurba_marseille","lat":43.2175,"lon":5.34613,"is_reserved":false,"is_disabled":false,"rental_uris":{"android":"levelo://app?vid=dea969c0-1e1e-4f04-aa1c-2420f6f01cf2","ios":"levelo://app?vid=dea969c0-1e1e-4f04-aa1c-2420f6f01cf2"},"vehicle_type_id":"4","last_reported":1769379095,"current_range_meters":8000,"station_id":"st_cvj6r9ubvosntc0bgbag","pricing_plan_id":"cebpf4jnsgd1na2vs0mg"},{"bike_id":"47492743-489d-45ae-8cd5-a690ce98ece0","system_id":"levelo_inurba_marseille","lat":43.25607,"lon":5.38027,"is_reserved":false,"is_disabled":false,"rental_uris":{"android":"levelo://app?vid=47492743-489d-45ae-8cd5-a690ce98ece0","ios":"levelo://app?vid=47492743-489d-45ae-8cd5-a690ce98ece0"},"vehicle_type_id":"4","last_reported":1769379095,"current_range_meters":8000,"station_id":"","pricing_plan_id":"cebpf4jnsgd1na2vs0mg"},{"bike_id":"35de4117-1885-471d-ae81-ebbd7b148d3a","system_id":"levelo_inurba_marseille","lat":43.28149,"lon":5.42635,"is_reserved":false,"is_disabled":false,"rental_uris":{"android":"levelo://app?vid=35de4117-1885-471d-ae81-ebbd7b148d3a","ios":"levelo://app?vid=35de4117-1885-471d-ae81-ebbd7b148d3a"},"vehicle_type_id":"4","last_reported":1769379095,"current_range_meters":8000,"station_id":"ce4bhnh2rcd13ifvqgug","pricing_plan_id":"cebpf4jnsgd1na2vs0mg"},{"bike_id":"a15856db-9ac7-49b1-8876-30be7c45105f","system_id":"levelo_inurba_marseille","lat":43.2501,"lon":5.38969,"is_reserved":false,"is_disabled":false,"rental_uris":{"android":"levelo://app?vid=a15856db-9ac7-49b1-8876-30be7c45105f","ios":"levelo://app?vid=a15856db-9ac7-49b1-8876-30be7c45105f"},"vehicle_type_id":"4","last_reported":1769379095,"current_range_meters":8000,"station_id":"ce4bhgp2rcd13ifvqfd0","pricing_plan_id":"cebpf4jnsgd1na2vs0mg"},{"bike_id":"fdd9efc7-53e9-441d-b99b-586302834715","system_id":"levelo_inurba_marseille","lat":43.29703,"lon":5.37293,"is_reserved":false,"is_disabled":false,"rental_uris":{"android":"levelo://app?vid=fdd9efc7-53e9-441d-b99b-586302834715","ios":"levelo://app?vid=fdd9efc7-53e9-441d-b99b-586302834715"},"vehicle_type_id":"4","last_reported":1769379095,"current_range_meters":8000,"station_id":"ce4bgk12rcd13ifvqbj0","pricing_plan_id":"cebpf4jnsgd1na2vs0mg"},{"bike_id":"c0313abf-12fb-419d-943d-7cc5fd78e7ca","system_id":"levelo_inurba_marseille","lat":43.31253,"lon":5.36676,"is_reserved":false,"is_disabled":false,"rental_uris":{"android":"levelo://app?vid=c0313abf-12fb-419d-943d-7cc5fd78e7ca","ios":"levelo://app?vid=c0313abf-12fb-419d-943d-7cc5fd78e7ca"},"vehicle_type_id":"4","last_reported":1769379095,"current_range_meters":8000,"station_id":"","pricing_plan_id":"cebpf4jnsgd1na2vs0mg"},{"bike_id":"ec792fe7-5df5-4dce-98f7-46f0cece5cff","system_id":"levelo_inurba_marseille","lat":43.253596,"lon":5.42151,"is_reserved":false,"is_disabled":false,"rental_uris":{"android":"levelo://app?vid=ec792fe7-5df5-4dce-98f7-46f0cece5cff","ios":"levelo://app?vid=ec792fe7-5df5-4dce-98f7-46f0cece5cff"},"vehicle_type_id":"4","last_reported":1769379095,"current_range_meters":8000,"station_id":"st_d2m65c5bi1j21697t3ng","pricing_plan_id":"cebpf4jnsgd1na2vs0mg"},{"bike_id":"4e1ea1cf-b58b-46f4-b385-98f553a0e86f","system_id":"levelo_inurba_marseille","lat":43.28147,"lon":5.42651,"is_reserved":false,"is_disabled":false,"rental_uris":{"android":"levelo://app?vid=4e1ea1cf-b58b-46f4-b385-98f553a0e86f","ios":"levelo://app?vid=4e1ea1cf-b58b-46f4-b385-98f553a0e86f"},"vehicle_type_id":"4","last_reported":1769379095,"current_range_meters":8000,"station_id":"ce4bhnh2rcd13ifvqgug","pricing_plan_id":"cebpf4jnsgd1na2vs0mg"},{"bike_id":"89b0b06b-96cd-422e-8d52-1b3e92697b17","system_id":"levelo_inurba_marseille","lat":43.26582,"lon":5.40342,"is_reserved":false,"is_disabled":false,"rental_uris":{"android":"levelo://app?vid=89b0b06b-96cd-422e-8d52-1b3e92697b17","ios":"levelo://app?vid=89b0b06b-96cd-422e-8d52-1b3e92697b17"},"vehicle_type_id":"4","last_reported":1769379095,"current_range_meters":8000,"station_id":"ce4bhmp2rcd13ifvqgng","pricing_plan_id":"cebpf4jnsgd1na2vs0mg"},{"bike_id":"b3068d89-6006-49fd-8f19-f1ab3b5f066c","system_id":"levelo_inurba_marseille","lat":43.33596,"lon":5.41018,"is_reserved":false,"is_disabled":false,"rental_uris":{"android":"levelo://app?vid=b3068d89-6006-49fd-8f19-f1ab3b5f066c","ios":"levelo://app?vid=b3068d89-6006-49fd-8f19-f1ab3b5f066c"},"vehicle_type_id":"4","last_reported":1769379095,"current_range_meters":8000,"station_id":"ce4bhqh2rcd13ifvqhmg","pricing_plan_id":"cebpf4jnsgd1na2vs0mg"},{"bike_id":"3ea01295-c86f-4ded-8762-3937b9af7dea","system_id":"levelo_inurba_marseille","lat":43.31374,"lon":5.38513,"is_reserved":false,"is_disabled":false,"rental_uris":{"android":"levelo://app?vid=3ea01295-c86f-4ded-8762-3937b9af7dea","ios":"levelo://app?vid=3ea01295-c86f-4ded-8762-3937b9af7dea"},"vehicle_type_id":"4","last_reported":1769379095,"current_range_meters":8000,"station_id":"ce4bgt92rcd13ifvqcf0","pricing_plan_id":"cebpf4jnsgd1na2vs0mg"},{"bike_id":"2a90b32b-f550-4685-9b26-0ed6251ae886","system_id":"levelo_inurba_marseille","lat":43.262198,"lon":5.404517,"is_reserved":false,"is_disabled":false,"rental_uris":{"android":"levelo://app?vid=2a90b32b-f550-4685-9b26-0ed6251ae886","ios":"levelo://app?vid=2a90b32b-f550-4685-9b26-0ed6251ae886"},"vehicle_type_id":"4","last_reported":1769379095,"current_range_meters":8400,"station_id":"ce4bhmh2rcd13ifvqgmg","pricing_plan_id":"cebpf4jnsgd1na2vs0mg"},{"bike_id":"5a924aa5-a60a-459f-9ce9-4aee6291d40d","system_id":"levelo_inurba_marseille","lat":43.24173,"lon":5.36395,"is_reserved":false,"is_disabled":false,"rental_uris":{"android":"levelo://app?vid=5a924aa5-a60a-459f-9ce9-4aee6291d40d","ios":"levelo://app?vid=5a924aa5-a60a-459f-9ce9-4aee6291d40d"},"vehicle_type_id":"4","last_reported":1769379095,"current_range_meters":8400,"station_id":"cpo36qri1sfpv3e86is0","pricing_plan_id":"cebpf4jnsgd1na2vs0mg"},{"bike_id":"b0d2c80e-ed15-4930-af0a-5bfc09a11396","system_id":"levelo_inurba_marseille","lat":43.22946,"lon":5.3538,"is_reserved":false,"is_disabled":false,"rental_uris":{"android":"levelo://app?vid=b0d2c80e-ed15-4930-af0a-5bfc09a11396","ios":"levelo://app?vid=b0d2c80e-ed15-4930-af0a-5bfc09a11396"},"vehicle_type_id":"4","last_reported":1769379095,"current_range_meters":8400,"station_id":"cpo3532slgdg3j2ikp40","pricing_plan_id":"cebpf4jnsgd1na2vs0mg"},{"bike_id":"399ac81d-4eef-4dd6-9d3c-75f658e814f0","system_id":"levelo_inurba_marseille","lat":43.23183,"lon":5.35555,"is_reserved":false,"is_disabled":false,"rental_uris":{"android":"levelo://app?vid=399ac81d-4eef-4dd6-9d3c-75f658e814f0","ios":"levelo://app?vid=399ac81d-4eef-4dd6-9d3c-75f658e814f0"},"vehicle_type_id":"4","last_reported":1769379095,"current_range_meters":8400,"station_id":"ce4bhu92rcd13ifvqi70","pricing_plan_id":"cebpf4jnsgd1na2vs0mg"},{"bike_id":"0cb11f49-fd12-4588-8331-049df29e4932","system_id":"levelo_inurba_marseille","lat":43.23804,"lon":5.36644,"is_reserved":false,"is_disabled":false,"rental_uris":{"android":"levelo://app?vid=0cb11f49-fd12-4588-8331-049df29e4932","ios":"levelo://app?vid=0cb11f49-fd12-4588-8331-049df29e4932"},"vehicle_type_id":"4","last_reported":1769379095,"current_range_meters":8400,"station_id":"st_d3nk18o9ro0c73en2l3g","pricing_plan_id":"cebpf4jnsgd1na2vs0mg"},{"bike_id":"76242551-1b05-40ac-a7fd-938c60f142d2","system_id":"levelo_inurba_marseille","lat":43.29956,"lon":5.36541,"is_reserved":false,"is_disabled":true,"rental_uris":{"android":"levelo://app?vid=76242551-1b05-40ac-a7fd-938c60f142d2","ios":"levelo://app?vid=76242551-1b05-40ac-a7fd-938c60f142d2"},"vehicle_type_id":"4","last_reported":1769379095,"current_range_meters":8400,"station_id":"ce4bgm92rcd13ifvqbr0","pricing_plan_id":"cebpf4jnsgd1na2vs0mg"},{"bike_id":"5790f69f-3566-47eb-a22a-5db09c68b579","system_id":"levelo_inurba_marseille","lat":43.28636,"lon":5.35084,"is_reserved":false,"is_disabled":false,"rental_uris":{"android":"levelo://app?vid=5790f69f-3566-47eb-a22a-5db09c68b579","ios":"levelo://app?vid=5790f69f-3566-47eb-a22a-5db09c68b579"},"vehicle_type_id":"4","last_reported":1769379095,"current_range_meters":8400,"station_id":"ce4bhch2rcd13ifvqeug","pricing_plan_id":"cebpf4jnsgd1na2vs0mg"},{"bike_id":"d86d0a6e-08c4-4ac1-8a62-13d22b9dfc39","system_id":"levelo_inurba_marseille","lat":43.299326,"lon":5.365333,"is_reserved":false,"is_disabled":false,"rental_uris":{"android":"levelo://app?vid=d86d0a6e-08c4-4ac1-8a62-13d22b9dfc39","ios":"levelo://app?vid=d86d0a6e-08c4-4ac1-8a62-13d22b9dfc39"},"vehicle_type_id":"4","last_reported":1769379095,"current_range_meters":8400,"station_id":"ce4bgm92rcd13ifvqbr0","pricing_plan_id":"cebpf4jnsgd1na2vs0mg"},{"bike_id":"673b7328-d637-4a0e-85ef-2c2c28db2b3b","system_id":"levelo_inurba_marseille","lat":43.21747,"lon":5.34611,"is_reserved":false,"is_disabled":false,"rental_uris":{"android":"levelo://app?vid=673b7328-d637-4a0e-85ef-2c2c28db2b3b","ios":"levelo://app?vid=673b7328-d637-4a0e-85ef-2c2c28db2b3b"},"vehicle_type_id":"4","last_reported":1769379095,"current_range_meters":8400,"station_id":"st_cvj6r9ubvosntc0bgbag","pricing_plan_id":"cebpf4jnsgd1na2vs0mg"},{"bike_id":"b8b10137-8c02-488c-ac38-a06db031ad26","system_id":"levelo_inurba_marseille","lat":43.28526,"lon":5.44116,"is_reserved":false,"is_disabled":false,"rental_uris":{"android":"levelo://app?vid=b8b10137-8c02-488c-ac38-a06db031ad26","ios":"levelo://app?vid=b8b10137-8c02-488c-ac38-a06db031ad26"},"vehicle_type_id":"4","last_reported":1769379095,"current_range_meters":8400,"station_id":"st_d3j3df2ikq2c7380ej80","pricing_plan_id":"cebpf4jnsgd1na2vs0mg"},{"bike_id":"cdc9682b-4029-4c8f-8fd6-490c87d327bf","system_id":"levelo_inurba_marseille","lat":43.30531,"lon":5.36533,"is_reserved":false,"is_disabled":false,"rental_uris":{"android":"levelo://app?vid=cdc9682b-4029-4c8f-8fd6-490c87d327bf","ios":"levelo://app?vid=cdc9682b-4029-4c8f-8fd6-490c87d327bf"},"vehicle_type_id":"4","last_reported":1769379095,"current_range_meters":8400,"station_id":"ce4bgs12rcd13ifvqcag","pricing_plan_id":"cebpf4jnsgd1na2vs0mg"},{"bike_id":"f713d27d-d071-44cf-9e72-47507b09125c","system_id":"levelo_inurba_marseille","lat":43.2623,"lon":5.40442,"is_reserved":false,"is_disabled":false,"rental_uris":{"android":"levelo://app?vid=f713d27d-d071-44cf-9e72-47507b09125c","ios":"levelo://app?vid=f713d27d-d071-44cf-9e72-47507b09125c"},"vehicle_type_id":"4","last_reported":1769379095,"current_range_meters":8400,"station_id":"ce4bhmh2rcd13ifvqgmg","pricing_plan_id":"cebpf4jnsgd1na2vs0mg"},{"bike_id":"4493373c-f94e-4639-b5cd-651171ec2379","system_id":"levelo_inurba_marseille","lat":43.243879,"lon":5.370556,"is_reserved":false,"is_disabled":false,"rental_uris":{"android":"levelo://app?vid=4493373c-f94e-4639-b5cd-651171ec2379","ios":"levelo://app?vid=4493373c-f94e-4639-b5cd-651171ec2379"},"vehicle_type_id":"4","last_reported":1769379095,"current_range_meters":8400,"station_id":"ce4bhhh2rcd13ifvqfk0","pricing_plan_id":"cebpf4jnsgd1na2vs0mg"},{"bike_id":"7f3e5c0b-c06f-4356-b8cb-68c8424b7076","system_id":"levelo_inurba_marseille","lat":43.33213,"lon":5.41376,"is_reserved":false,"is_disabled":false,"rental_uris":{"android":"levelo://app?vid=7f3e5c0b-c06f-4356-b8cb-68c8424b7076","ios":"levelo://app?vid=7f3e5c0b-c06f-4356-b8cb-68c8424b7076"},"vehicle_type_id":"4","last_reported":1769379095,"current_range_meters":8400,"station_id":"","pricing_plan_id":"cebpf4jnsgd1na2vs0mg"},{"bike_id":"3decdd7d-e100-43e3-a4c4-8a0aea572cf6","system_id":"levelo_inurba_marseille","lat":43.21742,"lon":5.34612,"is_reserved":false,"is_disabled":false,"rental_uris":{"android":"levelo://app?vid=3decdd7d-e100-43e3-a4c4-8a0aea572cf6","ios":"levelo://app?vid=3decdd7d-e100-43e3-a4c4-8a0aea572cf6"},"vehicle_type_id":"4","last_reported":1769379095,"current_range_meters":8800,"station_id":"st_cvj6r9ubvosntc0bgbag","pricing_plan_id":"cebpf4jnsgd1na2vs0mg"},{"bike_id":"79b6158d-49ea-4914-8da1-643529c2d44f","system_id":"levelo_inurba_marseille","lat":43.24651,"lon":5.38881,"is_reserved":false,"is_disabled":false,"rental_uris":{"android":"levelo://app?vid=79b6158d-49ea-4914-8da1-643529c2d44f","ios":"levelo://app?vid=79b6158d-49ea-4914-8da1-643529c2d44f"},"vehicle_type_id":"4","last_reported":1769379095,"current_range_meters":8800,"station_id":"ce4bhg12rcd13ifvqf60","pricing_plan_id":"cebpf4jnsgd1na2vs0mg"},{"bike_id":"dcc795f5-34a5-4b33-89a8-38509adc68cb","system_id":"levelo_inurba_marseille","lat":43.31342,"lon":5.36869,"is_reserved":false,"is_disabled":false,"rental_uris":{"android":"levelo://app?vid=dcc795f5-34a5-4b33-89a8-38509adc68cb","ios":"levelo://app?vid=dcc795f5-34a5-4b33-89a8-38509adc68cb"},"vehicle_type_id":"4","last_reported":1769379095,"current_range_meters":8800,"station_id":"","pricing_plan_id":"cebpf4jnsgd1na2vs0mg"},{"bike_id":"9713f383-b08e-4426-b8eb-983d4865231f","system_id":"levelo_inurba_marseille","lat":43.24407,"lon":5.370653,"is_reserved":false,"is_disabled":false,"rental_uris":{"android":"levelo://app?vid=9713f383-b08e-4426-b8eb-983d4865231f","ios":"levelo://app?vid=9713f383-b08e-4426-b8eb-983d4865231f"},"vehicle_type_id":"4","last_reported":1769379095,"current_range_meters":8800,"station_id":"ce4bhhh2rcd13ifvqfk0","pricing_plan_id":"cebpf4jnsgd1na2vs0mg"},{"bike_id":"afb7daa3-7c02-4a2d-8a68-c7330f4b7a53","system_id":"levelo_inurba_marseille","lat":43.23185,"lon":5.43744,"is_reserved":false,"is_disabled":false,"rental_uris":{"android":"levelo://app?vid=afb7daa3-7c02-4a2d-8a68-c7330f4b7a53","ios":"levelo://app?vid=afb7daa3-7c02-4a2d-8a68-c7330f4b7a53"},"vehicle_type_id":"4","last_reported":1769379095,"current_range_meters":8800,"station_id":"ce4bhmp2rcd13ifvqgog","pricing_plan_id":"cebpf4jnsgd1na2vs0mg"},{"bike_id":"ff306c0b-9a5f-4375-ada9-1aca22037d3d","system_id":"levelo_inurba_marseille","lat":43.23737,"lon":5.36571,"is_reserved":false,"is_disabled":false,"rental_uris":{"android":"levelo://app?vid=ff306c0b-9a5f-4375-ada9-1aca22037d3d","ios":"levelo://app?vid=ff306c0b-9a5f-4375-ada9-1aca22037d3d"},"vehicle_type_id":"4","last_reported":1769379095,"current_range_meters":8800,"station_id":"st_d3nk18o9ro0c73en2l3g","pricing_plan_id":"cebpf4jnsgd1na2vs0mg"},{"bike_id":"860d4648-96bb-41c6-990b-e19b394bde4c","system_id":"levelo_inurba_marseille","lat":43.29422,"lon":5.43364,"is_reserved":false,"is_disabled":false,"rental_uris":{"android":"levelo://app?vid=860d4648-96bb-41c6-990b-e19b394bde4c","ios":"levelo://app?vid=860d4648-96bb-41c6-990b-e19b394bde4c"},"vehicle_type_id":"4","last_reported":1769379095,"current_range_meters":8800,"station_id":"st_d3j5ugp08ojc73fj9d10","pricing_plan_id":"cebpf4jnsgd1na2vs0mg"},{"bike_id":"a412b551-de48-49a2-a43e-b0193ba01773","system_id":"levelo_inurba_marseille","lat":43.29174,"lon":5.39308,"is_reserved":false,"is_disabled":true,"rental_uris":{"android":"levelo://app?vid=a412b551-de48-49a2-a43e-b0193ba01773","ios":"levelo://app?vid=a412b551-de48-49a2-a43e-b0193ba01773"},"vehicle_type_id":"4","last_reported":1769379095,"current_range_meters":8800,"station_id":"ce4bh192rcd13ifvqdd0","pricing_plan_id":"cebpf4jnsgd1na2vs0mg"},{"bike_id":"d7504a6d-9595-4dc3-a2ba-509c3d293f59","system_id":"levelo_inurba_marseille","lat":43.29667,"lon":5.37287,"is_reserved":false,"is_disabled":false,"rental_uris":{"android":"levelo://app?vid=d7504a6d-9595-4dc3-a2ba-509c3d293f59","ios":"levelo://app?vid=d7504a6d-9595-4dc3-a2ba-509c3d293f59"},"vehicle_type_id":"4","last_reported":1769379095,"current_range_meters":8800,"station_id":"ce4bgk12rcd13ifvqbj0","pricing_plan_id":"cebpf4jnsgd1na2vs0mg"},{"bike_id":"4f9646d0-e890-4075-9fb7-8871574ea59d","system_id":"levelo_inurba_marseille","lat":43.24993,"lon":5.38927,"is_reserved":false,"is_disabled":false,"rental_uris":{"android":"levelo://app?vid=4f9646d0-e890-4075-9fb7-8871574ea59d","ios":"levelo://app?vid=4f9646d0-e890-4075-9fb7-8871574ea59d"},"vehicle_type_id":"4","last_reported":1769379095,"current_range_meters":8800,"station_id":"ce4bhgp2rcd13ifvqfd0","pricing_plan_id":"cebpf4jnsgd1na2vs0mg"},{"bike_id":"aeb4cc61-129c-4f69-a2a4-8c1cdbb3353c","system_id":"levelo_inurba_marseille","lat":43.240737,"lon":5.377505,"is_reserved":false,"is_disabled":false,"rental_uris":{"android":"levelo://app?vid=aeb4cc61-129c-4f69-a2a4-8c1cdbb3353c","ios":"levelo://app?vid=aeb4cc61-129c-4f69-a2a4-8c1cdbb3353c"},"vehicle_type_id":"4","last_reported":1769379095,"current_range_meters":8800,"station_id":"ce4bhnp2rcd13ifvqgvg","pricing_plan_id":"cebpf4jnsgd1na2vs0mg"},{"bike_id":"6e26fc8c-448e-43cd-b37f-f4be03989230","system_id":"levelo_inurba_marseille","lat":43.32352,"lon":5.36749,"is_reserved":false,"is_disabled":false,"rental_uris":{"android":"levelo://app?vid=6e26fc8c-448e-43cd-b37f-f4be03989230","ios":"levelo://app?vid=6e26fc8c-448e-43cd-b37f-f4be03989230"},"vehicle_type_id":"4","last_reported":1769379095,"current_range_meters":8800,"station_id":"ce4bhsh2rcd13ifvqi2g","pricing_plan_id":"cebpf4jnsgd1na2vs0mg"},{"bike_id":"3b5a4c25-8fd0-4c8d-9794-315ef613a5a9","system_id":"levelo_inurba_marseille","lat":43.3011,"lon":5.36836,"is_reserved":false,"is_disabled":false,"rental_uris":{"android":"levelo://app?vid=3b5a4c25-8fd0-4c8d-9794-315ef613a5a9","ios":"levelo://app?vid=3b5a4c25-8fd0-4c8d-9794-315ef613a5a9"},"vehicle_type_id":"4","last_reported":1769379095,"current_range_meters":8800,"station_id":"","pricing_plan_id":"cebpf4jnsgd1na2vs0mg"},{"bike_id":"d9f9e2b2-54af-40ae-afc9-4710e408f281","system_id":"levelo_inurba_marseille","lat":43.294883,"lon":5.433027,"is_reserved":false,"is_disabled":false,"rental_uris":{"android":"levelo://app?vid=d9f9e2b2-54af-40ae-afc9-4710e408f281","ios":"levelo://app?vid=d9f9e2b2-54af-40ae-afc9-4710e408f281"},"vehicle_type_id":"4","last_reported":1769379095,"current_range_meters":8800,"station_id":"st_d3j5ugp08ojc73fj9d10","pricing_plan_id":"cebpf4jnsgd1na2vs0mg"},{"bike_id":"0b0c9cc2-6ef2-4761-9f35-aaa3ae8545ac","system_id":"levelo_inurba_marseille","lat":43.27486,"lon":5.42477,"is_reserved":false,"is_disabled":false,"rental_uris":{"android":"levelo://app?vid=0b0c9cc2-6ef2-4761-9f35-aaa3ae8545ac","ios":"levelo://app?vid=0b0c9cc2-6ef2-4761-9f35-aaa3ae8545ac"},"vehicle_type_id":"4","last_reported":1769379095,"current_range_meters":8800,"station_id":"ce4bhn92rcd13ifvqgrg","pricing_plan_id":"cebpf4jnsgd1na2vs0mg"},{"bike_id":"f2aeba42-4813-4d62-a8bd-cf75da90e4bd","system_id":"levelo_inurba_marseille","lat":43.21183,"lon":5.35081,"is_reserved":false,"is_disabled":false,"rental_uris":{"android":"levelo://app?vid=f2aeba42-4813-4d62-a8bd-cf75da90e4bd","ios":"levelo://app?vid=f2aeba42-4813-4d62-a8bd-cf75da90e4bd"},"vehicle_type_id":"4","last_reported":1769379095,"current_range_meters":8800,"station_id":"","pricing_plan_id":"cebpf4jnsgd1na2vs0mg"},{"bike_id":"37c3f561-4ae3-4405-b9d1-0c2e91fbee87","system_id":"levelo_inurba_marseille","lat":43.28481,"lon":5.48395,"is_reserved":false,"is_disabled":false,"rental_uris":{"android":"levelo://app?vid=37c3f561-4ae3-4405-b9d1-0c2e91fbee87","ios":"levelo://app?vid=37c3f561-4ae3-4405-b9d1-0c2e91fbee87"},"vehicle_type_id":"4","last_reported":1769379095,"current_range_meters":8800,"station_id":"st_d3svhcjqgbts73a3dn0g","pricing_plan_id":"cebpf4jnsgd1na2vs0mg"},{"bike_id":"259991bd-8d3c-4b27-9597-d4f9f904c6a0","system_id":"levelo_inurba_marseille","lat":43.28784,"lon":5.35597,"is_reserved":false,"is_disabled":false,"rental_uris":{"android":"levelo://app?vid=259991bd-8d3c-4b27-9597-d4f9f904c6a0","ios":"levelo://app?vid=259991bd-8d3c-4b27-9597-d4f9f904c6a0"},"vehicle_type_id":"4","last_reported":1769379095,"current_range_meters":8800,"station_id":"ce4bhb92rcd13ifvqen0","pricing_plan_id":"cebpf4jnsgd1na2vs0mg"},{"bike_id":"898169fa-29c0-4349-a185-41ab96475b8a","system_id":"levelo_inurba_marseille","lat":43.24982,"lon":5.38878,"is_reserved":false,"is_disabled":false,"rental_uris":{"android":"levelo://app?vid=898169fa-29c0-4349-a185-41ab96475b8a","ios":"levelo://app?vid=898169fa-29c0-4349-a185-41ab96475b8a"},"vehicle_type_id":"4","last_reported":1769379095,"current_range_meters":8800,"station_id":"ce4bhgp2rcd13ifvqfd0","pricing_plan_id":"cebpf4jnsgd1na2vs0mg"},{"bike_id":"2d78c52a-e821-423c-8912-3c0fcf451046","system_id":"levelo_inurba_marseille","lat":43.24166,"lon":5.36418,"is_reserved":false,"is_disabled":false,"rental_uris":{"android":"levelo://app?vid=2d78c52a-e821-423c-8912-3c0fcf451046","ios":"levelo://app?vid=2d78c52a-e821-423c-8912-3c0fcf451046"},"vehicle_type_id":"4","last_reported":1769379095,"current_range_meters":8800,"station_id":"cpo36qri1sfpv3e86is0","pricing_plan_id":"cebpf4jnsgd1na2vs0mg"},{"bike_id":"a814e54a-6272-45ae-a2e5-74e345f3dacb","system_id":"levelo_inurba_marseille","lat":43.29474,"lon":5.4331,"is_reserved":false,"is_disabled":false,"rental_uris":{"android":"levelo://app?vid=a814e54a-6272-45ae-a2e5-74e345f3dacb","ios":"levelo://app?vid=a814e54a-6272-45ae-a2e5-74e345f3dacb"},"vehicle_type_id":"4","last_reported":1769379095,"current_range_meters":8800,"station_id":"st_d3j5ugp08ojc73fj9d10","pricing_plan_id":"cebpf4jnsgd1na2vs0mg"},{"bike_id":"5167432e-1b4d-4c17-b455-23bb5c84bc69","system_id":"levelo_inurba_marseille","lat":43.337444,"lon":5.374475,"is_reserved":false,"is_disabled":false,"rental_uris":{"android":"levelo://app?vid=5167432e-1b4d-4c17-b455-23bb5c84bc69","ios":"levelo://app?vid=5167432e-1b4d-4c17-b455-23bb5c84bc69"},"vehicle_type_id":"4","last_reported":1769379095,"current_range_meters":8800,"station_id":"ce4bhl92rcd13ifvqghg","pricing_plan_id":"cebpf4jnsgd1na2vs0mg"},{"bike_id":"1d64597d-9aab-4864-8716-3d19fa5cdb9d","system_id":"levelo_inurba_marseille","lat":43.298082,"lon":5.440594,"is_reserved":false,"is_disabled":false,"rental_uris":{"android":"levelo://app?vid=1d64597d-9aab-4864-8716-3d19fa5cdb9d","ios":"levelo://app?vid=1d64597d-9aab-4864-8716-3d19fa5cdb9d"},"vehicle_type_id":"4","last_reported":1769379095,"current_range_meters":8800,"station_id":"st_d3jp68qikq2c7381ktn0","pricing_plan_id":"cebpf4jnsgd1na2vs0mg"},{"bike_id":"d49ed176-3bf8-4c35-b155-194dd87f7f2a","system_id":"levelo_inurba_marseille","lat":43.30287,"lon":5.36886,"is_reserved":false,"is_disabled":false,"rental_uris":{"android":"levelo://app?vid=d49ed176-3bf8-4c35-b155-194dd87f7f2a","ios":"levelo://app?vid=d49ed176-3bf8-4c35-b155-194dd87f7f2a"},"vehicle_type_id":"4","last_reported":1769379095,"current_range_meters":8800,"station_id":"ce4bgqh2rcd13ifvqc5g","pricing_plan_id":"cebpf4jnsgd1na2vs0mg"},{"bike_id":"6067e81b-5ea8-457a-ba5d-fb5d13b4c907","system_id":"levelo_inurba_marseille","lat":43.32346,"lon":5.36759,"is_reserved":false,"is_disabled":false,"rental_uris":{"android":"levelo://app?vid=6067e81b-5ea8-457a-ba5d-fb5d13b4c907","ios":"levelo://app?vid=6067e81b-5ea8-457a-ba5d-fb5d13b4c907"},"vehicle_type_id":"4","last_reported":1769379095,"current_range_meters":8800,"station_id":"ce4bhsh2rcd13ifvqi2g","pricing_plan_id":"cebpf4jnsgd1na2vs0mg"},{"bike_id":"d63ed78d-eca7-4700-aaa5-48377a2e3e4e","system_id":"levelo_inurba_marseille","lat":43.26396,"lon":5.41066,"is_reserved":false,"is_disabled":true,"rental_uris":{"android":"levelo://app?vid=d63ed78d-eca7-4700-aaa5-48377a2e3e4e","ios":"levelo://app?vid=d63ed78d-eca7-4700-aaa5-48377a2e3e4e"},"vehicle_type_id":"4","last_reported":1769379095,"current_range_meters":8800,"station_id":"st_d4e5ca6na9uc73bfl5fg","pricing_plan_id":"cebpf4jnsgd1na2vs0mg"},{"bike_id":"5e0fce29-b7fb-4133-9a44-512e9b818a9f","system_id":"levelo_inurba_marseille","lat":43.28259,"lon":5.35084,"is_reserved":false,"is_disabled":false,"rental_uris":{"android":"levelo://app?vid=5e0fce29-b7fb-4133-9a44-512e9b818a9f","ios":"levelo://app?vid=5e0fce29-b7fb-4133-9a44-512e9b818a9f"},"vehicle_type_id":"4","last_reported":1769379095,"current_range_meters":9200,"station_id":"ce4bhbp2rcd13ifvqerg","pricing_plan_id":"cebpf4jnsgd1na2vs0mg"},{"bike_id":"c8b2d423-ddf5-4337-93dd-01f5fa0404f3","system_id":"levelo_inurba_marseille","lat":43.28965,"lon":5.38381,"is_reserved":false,"is_disabled":false,"rental_uris":{"android":"levelo://app?vid=c8b2d423-ddf5-4337-93dd-01f5fa0404f3","ios":"levelo://app?vid=c8b2d423-ddf5-4337-93dd-01f5fa0404f3"},"vehicle_type_id":"4","last_reported":1769379095,"current_range_meters":9200,"station_id":"ce4bh612rcd13ifvqe6g","pricing_plan_id":"cebpf4jnsgd1na2vs0mg"},{"bike_id":"26ca6bf8-7ea7-4428-ad24-9de5dc2ffbd6","system_id":"levelo_inurba_marseille","lat":43.27187,"lon":5.40997,"is_reserved":false,"is_disabled":false,"rental_uris":{"android":"levelo://app?vid=26ca6bf8-7ea7-4428-ad24-9de5dc2ffbd6","ios":"levelo://app?vid=26ca6bf8-7ea7-4428-ad24-9de5dc2ffbd6"},"vehicle_type_id":"4","last_reported":1769379095,"current_range_meters":9200,"station_id":"ce4bhl12rcd13ifvqgf0","pricing_plan_id":"cebpf4jnsgd1na2vs0mg"},{"bike_id":"b633e966-5653-4f4f-933b-143a8d470829","system_id":"levelo_inurba_marseille","lat":43.261,"lon":5.37286,"is_reserved":false,"is_disabled":false,"rental_uris":{"android":"levelo://app?vid=b633e966-5653-4f4f-933b-143a8d470829","ios":"levelo://app?vid=b633e966-5653-4f4f-933b-143a8d470829"},"vehicle_type_id":"4","last_reported":1769379095,"current_range_meters":9200,"station_id":"","pricing_plan_id":"cebpf4jnsgd1na2vs0mg"},{"bike_id":"43fe3bc6-8793-41a7-a6a2-cec6d1cfdc81","system_id":"levelo_inurba_marseille","lat":43.31064,"lon":5.37175,"is_reserved":false,"is_disabled":false,"rental_uris":{"android":"levelo://app?vid=43fe3bc6-8793-41a7-a6a2-cec6d1cfdc81","ios":"levelo://app?vid=43fe3bc6-8793-41a7-a6a2-cec6d1cfdc81"},"vehicle_type_id":"4","last_reported":1769379095,"current_range_meters":9200,"station_id":"st_d4kl2rp97mjs73e7tdfg","pricing_plan_id":"cebpf4jnsgd1na2vs0mg"},{"bike_id":"fd001706-12fa-4e7c-83bf-349bf2fcad2c","system_id":"levelo_inurba_marseille","lat":43.29213,"lon":5.36078,"is_reserved":false,"is_disabled":false,"rental_uris":{"android":"levelo://app?vid=fd001706-12fa-4e7c-83bf-349bf2fcad2c","ios":"levelo://app?vid=fd001706-12fa-4e7c-83bf-349bf2fcad2c"},"vehicle_type_id":"4","last_reported":1769379095,"current_range_meters":9200,"station_id":"ce4bhbh2rcd13ifvqeqg","pricing_plan_id":"cebpf4jnsgd1na2vs0mg"},{"bike_id":"272c2bb9-19f9-4654-942f-f7ede178af8d","system_id":"levelo_inurba_marseille","lat":43.2782,"lon":5.40693,"is_reserved":false,"is_disabled":false,"rental_uris":{"android":"levelo://app?vid=272c2bb9-19f9-4654-942f-f7ede178af8d","ios":"levelo://app?vid=272c2bb9-19f9-4654-942f-f7ede178af8d"},"vehicle_type_id":"4","last_reported":1769379095,"current_range_meters":9200,"station_id":"ce4bhnh2rcd13ifvqgtg","pricing_plan_id":"cebpf4jnsgd1na2vs0mg"},{"bike_id":"8566dbdc-c2e6-4d54-8e15-9cf8e2df6988","system_id":"levelo_inurba_marseille","lat":43.28285,"lon":5.35083,"is_reserved":false,"is_disabled":false,"rental_uris":{"android":"levelo://app?vid=8566dbdc-c2e6-4d54-8e15-9cf8e2df6988","ios":"levelo://app?vid=8566dbdc-c2e6-4d54-8e15-9cf8e2df6988"},"vehicle_type_id":"4","last_reported":1769379095,"current_range_meters":9200,"station_id":"ce4bhbp2rcd13ifvqerg","pricing_plan_id":"cebpf4jnsgd1na2vs0mg"},{"bike_id":"1d825dae-dae9-4109-8795-05229a129ed7","system_id":"levelo_inurba_marseille","lat":43.2818,"lon":5.42644,"is_reserved":false,"is_disabled":false,"rental_uris":{"android":"levelo://app?vid=1d825dae-dae9-4109-8795-05229a129ed7","ios":"levelo://app?vid=1d825dae-dae9-4109-8795-05229a129ed7"},"vehicle_type_id":"4","last_reported":1769379095,"current_range_meters":9200,"station_id":"ce4bhnh2rcd13ifvqgug","pricing_plan_id":"cebpf4jnsgd1na2vs0mg"},{"bike_id":"3ea061e6-3522-4acc-948f-9e8a2f88b026","system_id":"levelo_inurba_marseille","lat":43.231598,"lon":5.436949,"is_reserved":false,"is_disabled":false,"rental_uris":{"android":"levelo://app?vid=3ea061e6-3522-4acc-948f-9e8a2f88b026","ios":"levelo://app?vid=3ea061e6-3522-4acc-948f-9e8a2f88b026"},"vehicle_type_id":"4","last_reported":1769379095,"current_range_meters":9200,"station_id":"ce4bhmp2rcd13ifvqgog","pricing_plan_id":"cebpf4jnsgd1na2vs0mg"},{"bike_id":"d71141cf-6b2b-4705-95de-e5efad96fdab","system_id":"levelo_inurba_marseille","lat":43.24633,"lon":5.43141,"is_reserved":false,"is_disabled":false,"rental_uris":{"android":"levelo://app?vid=d71141cf-6b2b-4705-95de-e5efad96fdab","ios":"levelo://app?vid=d71141cf-6b2b-4705-95de-e5efad96fdab"},"vehicle_type_id":"4","last_reported":1769379095,"current_range_meters":9200,"station_id":"st_d2m6c4gdas8pm72e190g","pricing_plan_id":"cebpf4jnsgd1na2vs0mg"},{"bike_id":"1da1bd55-70d5-45b1-a132-ac31961ed8ff","system_id":"levelo_inurba_marseille","lat":43.29832,"lon":5.392536,"is_reserved":false,"is_disabled":false,"rental_uris":{"android":"levelo://app?vid=1da1bd55-70d5-45b1-a132-ac31961ed8ff","ios":"levelo://app?vid=1da1bd55-70d5-45b1-a132-ac31961ed8ff"},"vehicle_type_id":"4","last_reported":1769379095,"current_range_meters":9200,"station_id":"chh1huq6cuj3fo74tm60","pricing_plan_id":"cebpf4jnsgd1na2vs0mg"},{"bike_id":"61f9b512-dfe2-4c6f-b9eb-0a539aacc6ab","system_id":"levelo_inurba_marseille","lat":43.29889,"lon":5.4364,"is_reserved":false,"is_disabled":false,"rental_uris":{"android":"levelo://app?vid=61f9b512-dfe2-4c6f-b9eb-0a539aacc6ab","ios":"levelo://app?vid=61f9b512-dfe2-4c6f-b9eb-0a539aacc6ab"},"vehicle_type_id":"4","last_reported":1769379095,"current_range_meters":9200,"station_id":"ce4bhpp2rcd13ifvqhfg","pricing_plan_id":"cebpf4jnsgd1na2vs0mg"},{"bike_id":"cda4b2d5-ca0b-4724-88d8-89deb6f02a1e","system_id":"levelo_inurba_marseille","lat":43.217432,"lon":5.346032,"is_reserved":false,"is_disabled":false,"rental_uris":{"android":"levelo://app?vid=cda4b2d5-ca0b-4724-88d8-89deb6f02a1e","ios":"levelo://app?vid=cda4b2d5-ca0b-4724-88d8-89deb6f02a1e"},"vehicle_type_id":"4","last_reported":1769379095,"current_range_meters":9200,"station_id":"st_cvj6r9ubvosntc0bgbag","pricing_plan_id":"cebpf4jnsgd1na2vs0mg"},{"bike_id":"78e326c8-dc8c-42c9-84ea-d490b68071ed","system_id":"levelo_inurba_marseille","lat":43.23819,"lon":5.36638,"is_reserved":false,"is_disabled":false,"rental_uris":{"android":"levelo://app?vid=78e326c8-dc8c-42c9-84ea-d490b68071ed","ios":"levelo://app?vid=78e326c8-dc8c-42c9-84ea-d490b68071ed"},"vehicle_type_id":"4","last_reported":1769379095,"current_range_meters":9200,"station_id":"st_d3nk18o9ro0c73en2l3g","pricing_plan_id":"cebpf4jnsgd1na2vs0mg"},{"bike_id":"ccf326ac-ae0a-4ffb-a071-520b4c6f402c","system_id":"levelo_inurba_marseille","lat":43.33149,"lon":5.37646,"is_reserved":false,"is_disabled":false,"rental_uris":{"android":"levelo://app?vid=ccf326ac-ae0a-4ffb-a071-520b4c6f402c","ios":"levelo://app?vid=ccf326ac-ae0a-4ffb-a071-520b4c6f402c"},"vehicle_type_id":"4","last_reported":1769379095,"current_range_meters":9200,"station_id":"st_d46cu089ee8s73dldbu0","pricing_plan_id":"cebpf4jnsgd1na2vs0mg"},