{"last_updated":1703973957,"ttl":30,"version":"2.2","data":{"bikes":[{"bike_id":"2bf732d1-cd8c-466f-a8a7-9bd69662d50f","system_id":"levelo_inurba_marseille","lat":43.313391,"lon":5.36706,"is_reserved":false,"is_disabled":false,"rental_uris":{"android":"levelo://app?vid=2bf732d1-cd8c-466f-a8a7-9bd69662d50f","ios":"levelo://app?vid=2bf732d1-cd8c-466f-a8a7-9bd69662d50f"},"vehicle_type_id":"4","last_reported":1703973958,"current_range_meters":25600,"station_id":"ce4bgr92rcd13ifvqc6g","pricing_plan_id":"free"},{"bike_id":"c6229971-0d0f-4047-b420-e99cb423e4a2","system_id":"levelo_inurba_marseille","lat":43.312239,"lon":5.368562,"is_reserved":false,"is_disabled":false,"rental_uris":{"android":"levelo://app?vid=c6229971-0d0f-4047-b420-e99cb423e4a2","ios":"levelo://app?vid=c6229971-0d0f-4047-b420-e99cb423e4a2"},"vehicle_type_id":"4","last_reported":1703973958,"current_range_meters":19600,"station_id":"ce4bgl92rcd13ifvqbq0","pricing_plan_id":"free"},{"bike_id":"76c539cf-40a5-44d1-840b-701f4f49f579","system_id":"levelo_inurba_marseille","lat":43.312239,"lon":5.368562,"is_reserved":false,"is_disabled":false,"rental_uris":{"android":"levelo://app?vid=76c539cf-40a5-44d1-840b-701f4f49f579","ios":"levelo://app?vid=76c539cf-40a5-44d1-840b-701f4f49f579"},"vehicle_type_id":"4","last_reported":1703973958,"current_range_meters":23600,"station_id":"ce4bgl92rcd13ifvqbq0","pricing_plan_id":"free"},{"bike_id":"eba050a7-04a6-47eb-94d0-9f4ea3deb385","system_id":"levelo_inurba_marseille","lat":43.312239,"lon":5.368562,"is_reserved":false,"is_disabled":false,"rental_uris":{"android":"levelo://app?vid=eba050a7-04a6-47eb-94d0-9f4ea3deb385","ios":"levelo://app?vid=eba050a7-04a6-47eb-94d0-9f4ea3deb385"},"vehicle_type_id":"4","last_reported":1703973958,"current_range_meters":10400,"station_id":"ce4bgl92rcd13ifvqbq0","pricing_plan_id":"free"},{"bike_id":"ecb1758b-40c1-4b0a-aa6f-9a0ffb71632a","system_id":"levelo_inurba_marseille","lat":43.312239,"lon":5.368562,"is_reserved":false,"is_disabled":false,"rental_uris":{"android":"levelo://app?vid=ecb1758b-40c1-4b0a-aa6f-9a0ffb71632a","ios":"levelo://app?vid=ecb1758b-40c1-4b0a-aa6f-9a0ffb71632a"},"vehicle_type_id":"4","last_reported":1703973958,"current_range_meters":0,"station_id":"ce4bgl92rcd13ifvqbq0","pricing_plan_id":"free"},{"bike_id":"ed337f42-0bfc-4c55-838c-c071afdc6e3e","system_id":"levelo_inurba_marseille","lat":43.312239,"lon":5.368562,"is_reserved":false,"is_disabled":false,"rental_uris":{"android":"levelo://app?vid=ed337f42-0bfc-4c55-838c-c071afdc6e3e","ios":"levelo://app?vid=ed337f42-0bfc-4c55-838c-c071afdc6e3e"},"vehicle_type_id":"4","last_reported":1703973958,"current_range_meters":31200,"station_id":"ce4bgl92rcd13ifvqbq0","pricing_plan_id":"free"},{"bike_id":"7180308b-443d-4039-8862-ed4addd16119","system_id":"levelo_inurba_marseille","lat":43.309076,"lon":5.368465,"is_reserved":false,"is_disabled":false,"rental_uris":{"android":"levelo://app?vid=7180308b-443d-4039-8862-ed4addd16119","ios":"levelo://app?vid=7180308b-443d-4039-8862-ed4addd16119"},"vehicle_type_id":"4","last_reported":1703973958,"current_range_meters":25200,"station_id":"ce4bgn92rcd13ifvqbvg","pricing_plan_id":"free"},{"bike_id":"8f1c7bb8-21e7-4fb1-996c-2dc13ac5a0d1","system_id":"levelo_inurba_marseille","lat":43.309076,"lon":5.368465,"is_reserved":false,"is_disabled":false,"rental_uris":{"android":"levelo://app?vid=8f1c7bb8-21e7-4fb1-996c-2dc13ac5a0d1","ios":"levelo://app?vid=8f1c7bb8-21e7-4fb1-996c-2dc13ac5a0d1"},"vehicle_type_id":"4","last_reported":1703973958,"current_range_meters":4800,"station_id":"ce4bgn92rcd13ifvqbvg","pricing_plan_id":"free"},{"bike_id":"c1792a81-afad-46e7-9530-06374cc0d7d3","system_id":"levelo_inurba_marseille","lat":43.309076,"lon":5.368465,"is_reserved":false,"is_disabled":false,"rental_uris":{"android":"levelo://app?vid=c1792a81-afad-46e7-9530-06374cc0d7d3","ios":"levelo://app?vid=c1792a81-afad-46e7-9530-06374cc0d7d3"},"vehicle_type_id":"4","last_reported":1703973958,"current_range_meters":31200,"station_id":"ce4bgn92rcd13ifvqbvg","pricing_plan_id":"free"},{"bike_id":"63749c65-a3ae-4dda-b16a-f3f884850e3c","system_id":"levelo_inurba_marseille","lat":43.314811,"lon":5.373103,"is_reserved":false,"is_disabled":false,"rental_uris":{"android":"levelo://app?vid=63749c65-a3ae-4dda-b16a-f3f884850e3c","ios":"levelo://app?vid=63749c65-a3ae-4dda-b16a-f3f884850e3c"},"vehicle_type_id":"4","last_reported":1703973958,"current_range_meters":7600,"station_id":"ce4bgt12rcd13ifvqcd0","pricing_plan_id":"free"},{"bike_id":"f1a67bb1-abc2-4d44-8454-6d34d4d091a9","system_id":"levelo_inurba_marseille","lat":43.314811,"lon":5.373103,"is_reserved":false,"is_disabled":false,"rental_uris":{"android":"levelo://app?vid=f1a67bb1-abc2-4d44-8454-6d34d4d091a9","ios":"levelo://app?vid=f1a67bb1-abc2-4d44-8454-6d34d4d091a9"},"vehicle_type_id":"4","last_reported":1703973958,"current_range_meters":24000,"station_id":"ce4bgt12rcd13ifvqcd0","pricing_plan_id":"free"},{"bike_id":"86dccc5a-5afc-4603-9358-ef3efd6f7a2d","system_id":"levelo_inurba_marseille","lat":43.314811,"lon":5.373103,"is_reserved":false,"is_disabled":false,"rental_uris":{"android":"levelo://app?vid=86dccc5a-5afc-4603-9358-ef3efd6f7a2d","ios":"levelo://app?vid=86dccc5a-5afc-4603-9358-ef3efd6f7a2d"},"vehicle_type_id":"4","last_reported":1703973958,"current_range_meters":17200,"station_id":"ce4bgt12rcd13ifvqcd0","pricing_plan_id":"free"},{"bike_id":"dd708c2c-a6d5-4133-a48a-a6744156db71","system_id":"levelo_inurba_marseille","lat":43.314811,"lon":5.373103,"is_reserved":false,"is_disabled":false,"rental_uris":{"android":"levelo://app?vid=dd708c2c-a6d5-4133-a48a-a6744156db71","ios":"levelo://app?vid=dd708c2c-a6d5-4133-a48a-a6744156db71"},"vehicle_type_id":"4","last_reported":1703973958,"current_range_meters":17200,"station_id":"ce4bgt12rcd13ifvqcd0","pricing_plan_id":"free"},{"bike_id":"393d281c-fc34-40cb-9e7a-49bf22cd7cc0","system_id":"levelo_inurba_marseille","lat":43.309039,"lon":5.371797,"is_reserved":false,"is_disabled":false,"rental_uris":{"android":"levelo://app?vid=393d281c-fc34-40cb-9e7a-49bf22cd7cc0","ios":"levelo://app?vid=393d281c-fc34-40cb-9e7a-49bf22cd7cc0"},"vehicle_type_id":"4","last_reported":1703973958,"current_range_meters":18400,"station_id":"ce4bguh2rcd13ifvqckg","pricing_plan_id":"free"},{"bike_id":"2bf1159c-4b34-4bc3-a8b5-156be571c011","system_id":"levelo_inurba_marseille","lat":43.307843,"lon":5.373431,"is_reserved":false,"is_disabled":false,"rental_uris":{"android":"levelo://app?vid=2bf1159c-4b34-4bc3-a8b5-156be571c011","ios":"levelo://app?vid=2bf1159c-4b34-4bc3-a8b5-156be571c011"},"vehicle_type_id":"4","last_reported":1703973958,"current_range_meters":26400,"station_id":"","pricing_plan_id":"free"},{"bike_id":"a3c8d623-a85c-45ca-8fac-8710ce7491da","system_id":"levelo_inurba_marseille","lat":43.30647,"lon":5.37187,"is_reserved":false,"is_disabled":false,"rental_uris":{"android":"levelo://app?vid=a3c8d623-a85c-45ca-8fac-8710ce7491da","ios":"levelo://app?vid=a3c8d623-a85c-45ca-8fac-8710ce7491da"},"vehicle_type_id":"4","last_reported":1703973958,"current_range_meters":7200,"station_id":"","pricing_plan_id":"free"},{"bike_id":"ed8d2401-58d4-4308-af8b-a9de9b5d5f8b","system_id":"levelo_inurba_marseille","lat":43.305368,"lon":5.367343,"is_reserved":false,"is_disabled":false,"rental_uris":{"android":"levelo://app?vid=ed8d2401-58d4-4308-af8b-a9de9b5d5f8b","ios":"levelo://app?vid=ed8d2401-58d4-4308-af8b-a9de9b5d5f8b"},"vehicle_type_id":"4","last_reported":1703973958,"current_range_meters":0,"station_id":"ce4bgrp2rcd13ifvqc9g","pricing_plan_id":"free"},{"bike_id":"40cf38c6-ba02-458f-bf55-63ed8aa659d9","system_id":"levelo_inurba_marseille","lat":43.305368,"lon":5.367343,"is_reserved":false,"is_disabled":false,"rental_uris":{"android":"levelo://app?vid=40cf38c6-ba02-458f-bf55-63ed8aa659d9","ios":"levelo://app?vid=40cf38c6-ba02-458f-bf55-63ed8aa659d9"},"vehicle_type_id":"4","last_reported":1703973958,"current_range_meters":26000,"station_id":"ce4bgrp2rcd13ifvqc9g","pricing_plan_id":"free"},{"bike_id":"64a93320-b6f7-4f00-82e1-5c71938933c4","system_id":"levelo_inurba_marseille","lat":43.31386,"lon":5.37696,"is_reserved":false,"is_disabled":false,"rental_uris":{"android":"levelo://app?vid=64a93320-b6f7-4f00-82e1-5c71938933c4","ios":"levelo://app?vid=64a93320-b6f7-4f00-82e1-5c71938933c4"},"vehicle_type_id":"4","last_reported":1703973958,"current_range_meters":22400,"station_id":"","pricing_plan_id":"free"},{"bike_id":"c2c614e5-fcc3-45b2-a4e1-586100e2cfcf","system_id":"levelo_inurba_marseille","lat":43.305368,"lon":5.367343,"is_reserved":false,"is_disabled":false,"rental_uris":{"android":"levelo://app?vid=c2c614e5-fcc3-45b2-a4e1-586100e2cfcf","ios":"levelo://app?vid=c2c614e5-fcc3-45b2-a4e1-586100e2cfcf"},"vehicle_type_id":"4","last_reported":1703973958,"current_range_meters":23600,"station_id":"ce4bgrp2rcd13ifvqc9g","pricing_plan_id":"free"},{"bike_id":"93d7d131-eb70-4119-8ad5-a93fbd9e9c60","system_id":"levelo_inurba_marseille","lat":43.305989,"lon":5.37225,"is_reserved":false,"is_disabled":false,"rental_uris":{"android":"levelo://app?vid=93d7d131-eb70-4119-8ad5-a93fbd9e9c60","ios":"levelo://app?vid=93d7d131-eb70-4119-8ad5-a93fbd9e9c60"},"vehicle_type_id":"4","last_reported":1703973958,"current_range_meters":24400,"station_id":"ce4bgqh2rcd13ifvqc4g","pricing_plan_id":"free"},{"bike_id":"e8fa1057-27ce-4e49-ba4b-40a8f8a74095","system_id":"levelo_inurba_marseille","lat":43.30597,"lon":5.3722,"is_reserved":false,"is_disabled":false,"rental_uris":{"android":"levelo://app?vid=e8fa1057-27ce-4e49-ba4b-40a8f8a74095","ios":"levelo://app?vid=e8fa1057-27ce-4e49-ba4b-40a8f8a74095"},"vehicle_type_id":"4","last_reported":1703973958,"current_range_meters":14800,"station_id":"ce4bgqh2rcd13ifvqc4g","pricing_plan_id":"free"},{"bike_id":"9b8181e0-de5b-403b-9c0c-0bbb2501e513","system_id":"levelo_inurba_marseille","lat":43.30593,"lon":5.37226,"is_reserved":false,"is_disabled":false,"rental_uris":{"android":"levelo://app?vid=9b8181e0-de5b-403b-9c0c-0bbb2501e513","ios":"levelo://app?vid=9b8181e0-de5b-403b-9c0c-0bbb2501e513"},"vehicle_type_id":"4","last_reported":1703973958,"current_range_meters":19600,"station_id":"ce4bgqh2rcd13ifvqc4g","pricing_plan_id":"free"},{"bike_id":"25af9e1c-886c-4f64-92f2-5ca68e46ae4a","system_id":"levelo_inurba_marseille","lat":43.31722,"lon":5.37668,"is_reserved":false,"is_disabled":false,"rental_uris":{"android":"levelo://app?vid=25af9e1c-886c-4f64-92f2-5ca68e46ae4a","ios":"levelo://app?vid=25af9e1c-886c-4f64-92f2-5ca68e46ae4a"},"vehicle_type_id":"4","last_reported":1703973958,"current_range_meters":24400,"station_id":"","pricing_plan_id":"free"},{"bike_id":"26b59f2e-d1fc-4bb8-beee-a3e44eb19d29","system_id":"levelo_inurba_marseille","lat":43.307945,"lon":5.376487,"is_reserved":false,"is_disabled":false,"rental_uris":{"android":"levelo://app?vid=26b59f2e-d1fc-4bb8-beee-a3e44eb19d29","ios":"levelo://app?vid=26b59f2e-d1fc-4bb8-beee-a3e44eb19d29"},"vehicle_type_id":"4","last_reported":1703973958,"current_range_meters":17600,"station_id":"ce4bgv92rcd13ifvqcq0","pricing_plan_id":"free"},{"bike_id":"9253fe3f-455b-4aa6-bab9-e1fac26cc6b9","system_id":"levelo_inurba_marseille","lat":43.307945,"lon":5.376487,"is_reserved":false,"is_disabled":false,"rental_uris":{"android":"levelo://app?vid=9253fe3f-455b-4aa6-bab9-e1fac26cc6b9","ios":"levelo://app?vid=9253fe3f-455b-4aa6-bab9-e1fac26cc6b9"},"vehicle_type_id":"4","last_reported":1703973958,"current_range_meters":24400,"station_id":"ce4bgv92rcd13ifvqcq0","pricing_plan_id":"free"},{"bike_id":"43ca8f0e-45c8-46db-88a7-88fa1ac98477","system_id":"levelo_inurba_marseille","lat":43.317075,"lon":5.377367,"is_reserved":false,"is_disabled":false,"rental_uris":{"android":"levelo://app?vid=43ca8f0e-45c8-46db-88a7-88fa1ac98477","ios":"levelo://app?vid=43ca8f0e-45c8-46db-88a7-88fa1ac98477"},"vehicle_type_id":"4","last_reported":1703973958,"current_range_meters":26400,"station_id":"ce4bgth2rcd13ifvqch0","pricing_plan_id":"free"},{"bike_id":"e5cdb6f6-1300-406e-9303-c0f03d781d71","system_id":"levelo_inurba_marseille","lat":43.317075,"lon":5.377367,"is_reserved":false,"is_disabled":false,"rental_uris":{"android":"levelo://app?vid=e5cdb6f6-1300-406e-9303-c0f03d781d71","ios":"levelo://app?vid=e5cdb6f6-1300-406e-9303-c0f03d781d71"},"vehicle_type_id":"4","last_reported":1703973958,"current_range_meters":31200,"station_id":"ce4bgth2rcd13ifvqch0","pricing_plan_id":"free"},{"bike_id":"d2a50887-7fae-4919-a646-1c2f42822421","system_id":"levelo_inurba_marseille","lat":43.30313,"lon":5.36896,"is_reserved":false,"is_disabled":false,"rental_uris":{"android":"levelo://app?vid=d2a50887-7fae-4919-a646-1c2f42822421","ios":"levelo://app?vid=d2a50887-7fae-4919-a646-1c2f42822421"},"vehicle_type_id":"4","last_reported":1703973958,"current_range_meters":2400,"station_id":"ce4bgqh2rcd13ifvqc5g","pricing_plan_id":"free"},{"bike_id":"fa42125a-2b48-4e78-9b49-e4925096e263","system_id":"levelo_inurba_marseille","lat":43.315293,"lon":5.380349,"is_reserved":false,"is_disabled":false,"rental_uris":{"android":"levelo://app?vid=fa42125a-2b48-4e78-9b49-e4925096e263","ios":"levelo://app?vid=fa42125a-2b48-4e78-9b49-e4925096e263"},"vehicle_type_id":"4","last_reported":1703973958,"current_range_meters":10400,"station_id":"ce4bhsp2rcd13ifvqi50","pricing_plan_id":"free"},{"bike_id":"61dd09e8-6a2b-47a2-b828-925d650fad59","system_id":"levelo_inurba_marseille","lat":43.315258,"lon":5.380464,"is_reserved":false,"is_disabled":false,"rental_uris":{"android":"levelo://app?vid=61dd09e8-6a2b-47a2-b828-925d650fad59","ios":"levelo://app?vid=61dd09e8-6a2b-47a2-b828-925d650fad59"},"vehicle_type_id":"4","last_reported":1703973958,"current_range_meters":5200,"station_id":"ce4bhsp2rcd13ifvqi50","pricing_plan_id":"free"},{"bike_id":"ae301f64-08e0-43bc-a494-66085f8df053","system_id":"levelo_inurba_marseille","lat":43.308012,"lon":5.381511,"is_reserved":false,"is_disabled":false,"rental_uris":{"android":"levelo://app?vid=ae301f64-08e0-43bc-a494-66085f8df053","ios":"levelo://app?vid=ae301f64-08e0-43bc-a494-66085f8df053"},"vehicle_type_id":"4","last_reported":1703973958,"current_range_meters":28000,"station_id":"ce4bgt12rcd13ifvqce0","pricing_plan_id":"free"},{"bike_id":"e4dcb29d-6179-427e-822d-8621bcd08456","system_id":"levelo_inurba_marseille","lat":43.304708,"lon":5.379039,"is_reserved":false,"is_disabled":false,"rental_uris":{"android":"levelo://app?vid=e4dcb29d-6179-427e-822d-8621bcd08456","ios":"levelo://app?vid=e4dcb29d-6179-427e-822d-8621bcd08456"},"vehicle_type_id":"4","last_reported":1703973958,"current_range_meters":21200,"station_id":"","pricing_plan_id":"free"},{"bike_id":"43ac2794-2987-40ee-80e0-356544b81fcf","system_id":"levelo_inurba_marseille","lat":43.304606,"lon":5.379026,"is_reserved":false,"is_disabled":false,"rental_uris":{"android":"levelo://app?vid=43ac2794-2987-40ee-80e0-356544b81fcf","ios":"levelo://app?vid=43ac2794-2987-40ee-80e0-356544b81fcf"},"vehicle_type_id":"4","last_reported":1703973958,"current_range_meters":15200,"station_id":"ce4bgup2rcd13ifvqcn0","pricing_plan_id":"free"},{"bike_id":"cf7de832-7671-448c-8926-8c4cffc145a8","system_id":"levelo_inurba_marseille","lat":43.319935,"lon":5.381699,"is_reserved":false,"is_disabled":false,"rental_uris":{"android":"levelo://app?vid=cf7de832-7671-448c-8926-8c4cffc145a8","ios":"levelo://app?vid=cf7de832-7671-448c-8926-8c4cffc145a8"},"vehicle_type_id":"4","last_reported":1703973958,"current_range_meters":7600,"station_id":"ce4bhr12rcd13ifvqhpg","pricing_plan_id":"free"},{"bike_id":"7500c97d-9bf7-42bd-9502-7d8248cf6a90","system_id":"levelo_inurba_marseille","lat":43.313571,"lon":5.384829,"is_reserved":false,"is_disabled":false,"rental_uris":{"android":"levelo://app?vid=7500c97d-9bf7-42bd-9502-7d8248cf6a90","ios":"levelo://app?vid=7500c97d-9bf7-42bd-9502-7d8248cf6a90"},"vehicle_type_id":"4","last_reported":1703973958,"current_range_meters":23200,"station_id":"ce4bgt92rcd13ifvqcf0","pricing_plan_id":"free"},{"bike_id":"a38004ee-721c-4ebf-9263-150d7ec6133c","system_id":"levelo_inurba_marseille","lat":43.313571,"lon":5.384829,"is_reserved":false,"is_disabled":false,"rental_uris":{"android":"levelo://app?vid=a38004ee-721c-4ebf-9263-150d7ec6133c","ios":"levelo://app?vid=a38004ee-721c-4ebf-9263-150d7ec6133c"},"vehicle_type_id":"4","last_reported":1703973958,"current_range_meters":24400,"station_id":"ce4bgt92rcd13ifvqcf0","pricing_plan_id":"free"},{"bike_id":"c05d138a-9eaa-4578-84f8-5eb99c852b0c","system_id":"levelo_inurba_marseille","lat":43.29997,"lon":5.37439,"is_reserved":false,"is_disabled":false,"rental_uris":{"android":"levelo://app?vid=c05d138a-9eaa-4578-84f8-5eb99c852b0c","ios":"levelo://app?vid=c05d138a-9eaa-4578-84f8-5eb99c852b0c"},"vehicle_type_id":"4","last_reported":1703973958,"current_range_meters":6400,"station_id":"","pricing_plan_id":"free"},{"bike_id":"c0bba9cb-4ce0-4c34-aee3-db471da5bb16","system_id":"levelo_inurba_marseille","lat":43.305364,"lon":5.384119,"is_reserved":false,"is_disabled":false,"rental_uris":{"android":"levelo://app?vid=c0bba9cb-4ce0-4c34-aee3-db471da5bb16","ios":"levelo://app?vid=c0bba9cb-4ce0-4c34-aee3-db471da5bb16"},"vehicle_type_id":"4","last_reported":1703973958,"current_range_meters":9600,"station_id":"ce4bgg92rcd13ifvqb30","pricing_plan_id":"free"},{"bike_id":"1b055bef-3706-4463-aeff-0c99e2b48564","system_id":"levelo_inurba_marseille","lat":43.305364,"lon":5.384119,"is_reserved":false,"is_disabled":false,"rental_uris":{"android":"levelo://app?vid=1b055bef-3706-4463-aeff-0c99e2b48564","ios":"levelo://app?vid=1b055bef-3706-4463-aeff-0c99e2b48564"},"vehicle_type_id":"4","last_reported":1703973958,"current_range_meters":22800,"station_id":"ce4bgg92rcd13ifvqb30","pricing_plan_id":"free"},{"bike_id":"3efc8b70-2bea-4ab5-a88e-58851c4f8fed","system_id":"levelo_inurba_marseille","lat":43.298433,"lon":5.362774,"is_reserved":false,"is_disabled":false,"rental_uris":{"android":"levelo://app?vid=3efc8b70-2bea-4ab5-a88e-58851c4f8fed","ios":"levelo://app?vid=3efc8b70-2bea-4ab5-a88e-58851c4f8fed"},"vehicle_type_id":"4","last_reported":1703973958,"current_range_meters":3600,"station_id":"ce4bgpp2rcd13ifvqc3g","pricing_plan_id":"free"},{"bike_id":"fdc0b565-20a1-493e-9668-b0fcc5598c2d","system_id":"levelo_inurba_marseille","lat":43.311722,"lon":5.387247,"is_reserved":false,"is_disabled":false,"rental_uris":{"android":"levelo://app?vid=fdc0b565-20a1-493e-9668-b0fcc5598c2d","ios":"levelo://app?vid=fdc0b565-20a1-493e-9668-b0fcc5598c2d"},"vehicle_type_id":"4","last_reported":1703973958,"current_range_meters":19600,"station_id":"ce4bgv12rcd13ifvqcp0","pricing_plan_id":"free"},{"bike_id":"4911eca9-9de5-440b-99c2-f0b5109ca9e7","system_id":"levelo_inurba_marseille","lat":43.311722,"lon":5.387247,"is_reserved":false,"is_disabled":false,"rental_uris":{"android":"levelo://app?vid=4911eca9-9de5-440b-99c2-f0b5109ca9e7","ios":"levelo://app?vid=4911eca9-9de5-440b-99c2-f0b5109ca9e7"},"vehicle_type_id":"4","last_reported":1703973958,"current_range_meters":24000,"station_id":"ce4bgv12rcd13ifvqcp0","pricing_plan_id":"free"},{"bike_id":"c8810852-277f-44f2-a712-d1c79f44e282","system_id":"levelo_inurba_marseille","lat":43.297794,"lon":5.370888,"is_reserved":false,"is_disabled":false,"rental_uris":{"android":"levelo://app?vid=c8810852-277f-44f2-a712-d1c79f44e282","ios":"levelo://app?vid=c8810852-277f-44f2-a712-d1c79f44e282"},"vehicle_type_id":"4","last_reported":1703973958,"current_range_meters":0,"station_id":"ce4bgop2rcd13ifvqc1g","pricing_plan_id":"free"},{"bike_id":"2154e13a-10ef-4d79-b4f3-a92c055765e5","system_id":"levelo_inurba_marseille","lat":43.322872,"lon":5.382756,"is_reserved":false,"is_disabled":false,"rental_uris":{"android":"levelo://app?vid=2154e13a-10ef-4d79-b4f3-a92c055765e5","ios":"levelo://app?vid=2154e13a-10ef-4d79-b4f3-a92c055765e5"},"vehicle_type_id":"4","last_reported":1703973958,"current_range_meters":31600,"station_id":"ce4bhr12rcd13ifvqhqg","pricing_plan_id":"free"},{"bike_id":"78b2282b-b46b-4494-bc4d-0783d9b9b106","system_id":"levelo_inurba_marseille","lat":43.322872,"lon":5.382756,"is_reserved":false,"is_disabled":false,"rental_uris":{"android":"levelo://app?vid=78b2282b-b46b-4494-bc4d-0783d9b9b106","ios":"levelo://app?vid=78b2282b-b46b-4494-bc4d-0783d9b9b106"},"vehicle_type_id":"4","last_reported":1703973958,"current_range_meters":18400,"station_id":"ce4bhr12rcd13ifvqhqg","pricing_plan_id":"free"},{"bike_id":"51714c4a-3132-4951-88ec-80e85fa125e8","system_id":"levelo_inurba_marseille","lat":43.328225,"lon":5.366839,"is_reserved":false,"is_disabled":false,"rental_uris":{"android":"levelo://app?vid=51714c4a-3132-4951-88ec-80e85fa125e8","ios":"levelo://app?vid=51714c4a-3132-4951-88ec-80e85fa125e8"},"vehicle_type_id":"4","last_reported":1703973958,"current_range_meters":8400,"station_id":"ce4bhs92rcd13ifvqi0g","pricing_plan_id":"free"},{"bike_id":"3406ac08-144e-419c-8a8c-9c89910b5b78","system_id":"levelo_inurba_marseille","lat":43.328233,"lon":5.366829,"is_reserved":false,"is_disabled":false,"rental_uris":{"android":"levelo://app?vid=3406ac08-144e-419c-8a8c-9c89910b5b78","ios":"levelo://app?vid=3406ac08-144e-419c-8a8c-9c89910b5b78"},"vehicle_type_id":"4","last_reported":1703973958,"current_range_meters":8800,"station_id":"ce4bhs92rcd13ifvqi0g","pricing_plan_id":"free"},{"bike_id":"43517afb-7930-42e8-a305-e900a3000a28","system_id":"levelo_inurba_marseille","lat":43.32824,"lon":5.36678,"is_reserved":false,"is_disabled":false,"rental_uris":{"android":"levelo://app?vid=43517afb-7930-42e8-a305-e900a3000a28","ios":"levelo://app?vid=43517afb-7930-42e8-a305-e900a3000a28"},"vehicle_type_id":"4","last_reported":1703973958,"current_range_meters":18800,"station_id":"ce4bhs92rcd13ifvqi0g","pricing_plan_id":"free"},{"bike_id":"b30b3d1b-ef61-4776-bd7b-61c34fd8cc81","system_id":"levelo_inurba_marseille","lat":43.32825,"lon":5.36687,"is_reserved":false,"is_disabled":false,"rental_uris":{"android":"levelo://app?vid=b30b3d1b-ef61-4776-bd7b-61c34fd8cc81","ios":"levelo://app?vid=b30b3d1b-ef61-4776-bd7b-61c34fd8cc81"},"vehicle_type_id":"4","last_reported":1703973958,"current_range_meters":5200,"station_id":"ce4bhs92rcd13ifvqi0g","pricing_plan_id":"free"},{"bike_id":"7aa6a530-3ac6-4ec6-a447-a7bf4c489e07","system_id":"levelo_inurba_marseille","lat":43.32825,"lon":5.36687,"is_reserved":false,"is_disabled":false,"rental_uris":{"android":"levelo://app?vid=7aa6a530-3ac6-4ec6-a447-a7bf4c489e07","ios":"levelo://app?vid=7aa6a530-3ac6-4ec6-a447-a7bf4c489e07"},"vehicle_type_id":"4","last_reported":1703973958,"current_range_meters":18400,"station_id":"ce4bhs92rcd13ifvqi0g","pricing_plan_id":"free"},{"bike_id":"74ff96ff-c851-4d57-8883-0d7347bd471f","system_id":"levelo_inurba_marseille","lat":43.32826,"lon":5.36682,"is_reserved":false,"is_disabled":false,"rental_uris":{"android":"levelo://app?vid=74ff96ff-c851-4d57-8883-0d7347bd471f","ios":"levelo://app?vid=74ff96ff-c851-4d57-8883-0d7347bd471f"},"vehicle_type_id":"4","last_reported":1703973958,"current_range_meters":29600,"station_id":"ce4bhs92rcd13ifvqi0g","pricing_plan_id":"free"},{"bike_id":"a677cd10-a09b-4b2e-bffd-45b05d2c9229","system_id":"levelo_inurba_marseille","lat":43.328268,"lon":5.366779,"is_reserved":false,"is_disabled":false,"rental_uris":{"android":"levelo://app?vid=a677cd10-a09b-4b2e-bffd-45b05d2c9229","ios":"levelo://app?vid=a677cd10-a09b-4b2e-bffd-45b05d2c9229"},"vehicle_type_id":"4","last_reported":1703973958,"current_range_meters":16800,"station_id":"ce4bhs92rcd13ifvqi0g","pricing_plan_id":"free"},{"bike_id":"ea7074d7-b7c9-4941-82c2-dff391bae9cb","system_id":"levelo_inurba_marseille","lat":43.328371,"lon":5.366909,"is_reserved":false,"is_disabled":false,"rental_uris":{"android":"levelo://app?vid=ea7074d7-b7c9-4941-82c2-dff391bae9cb","ios":"levelo://app?vid=ea7074d7-b7c9-4941-82c2-dff391bae9cb"},"vehicle_type_id":"4","last_reported":1703973958,"current_range_meters":27600,"station_id":"ce4bhs92rcd13ifvqi0g","pricing_plan_id":"free"},{"bike_id":"c99c1421-6c70-45e1-a99f-19afba82ca69","system_id":"levelo_inurba_marseille","lat":43.328371,"lon":5.366909,"is_reserved":false,"is_disabled":false,"rental_uris":{"android":"levelo://app?vid=c99c1421-6c70-45e1-a99f-19afba82ca69","ios":"levelo://app?vid=c99c1421-6c70-45e1-a99f-19afba82ca69"},"vehicle_type_id":"4","last_reported":1703973958,"current_range_meters":24800,"station_id":"ce4bhs92rcd13ifvqi0g","pricing_plan_id":"free"},{"bike_id":"5c89eee7-6e83-42b4-bd81-efdcf68f6666","system_id":"levelo_inurba_marseille","lat":43.328272,"lon":5.366822,"is_reserved":false,"is_disabled":false,"rental_uris":{"android":"levelo://app?vid=5c89eee7-6e83-42b4-bd81-efdcf68f6666","ios":"levelo://app?vid=5c89eee7-6e83-42b4-bd81-efdcf68f6666"},"vehicle_type_id":"4","last_reported":1703973958,"current_range_meters":4800,"station_id":"ce4bhs92rcd13ifvqi0g","pricing_plan_id":"free"},{"bike_id":"9d832f49-b330-492c-bca5-26b211dfab4e","system_id":"levelo_inurba_marseille","lat":43.328299,"lon":5.366838,"is_reserved":false,"is_disabled":false,"rental_uris":{"android":"levelo://app?vid=9d832f49-b330-492c-bca5-26b211dfab4e","ios":"levelo://app?vid=9d832f49-b330-492c-bca5-26b211dfab4e"},"vehicle_type_id":"4","last_reported":1703973958,"current_range_meters":18800,"station_id":"ce4bhs92rcd13ifvqi0g","pricing_plan_id":"free"},{"bike_id":"70017d6e-6f1a-4af6-baf6-320a119b5691","system_id":"levelo_inurba_marseille","lat":43.328371,"lon":5.366909,"is_reserved":false,"is_disabled":false,"rental_uris":{"android":"levelo://app?vid=70017d6e-6f1a-4af6-baf6-320a119b5691","ios":"levelo://app?vid=70017d6e-6f1a-4af6-baf6-320a119b5691"},"vehicle_type_id":"4","last_reported":1703973958,"current_range_meters":27200,"station_id":"ce4bhs92rcd13ifvqi0g","pricing_plan_id":"free"},{"bike_id":"a448ca86-2b35-41e1-89c4-32a99bab0563","system_id":"levelo_inurba_marseille","lat":43.328371,"lon":5.366912,"is_reserved":false,"is_disabled":false,"rental_uris":{"android":"levelo://app?vid=a448ca86-2b35-41e1-89c4-32a99bab0563","ios":"levelo://app?vid=a448ca86-2b35-41e1-89c4-32a99bab0563"},"vehicle_type_id":"4","last_reported":1703973958,"current_range_meters":13600,"station_id":"ce4bhs92rcd13ifvqi0g","pricing_plan_id":"free"},{"bike_id":"537ad82d-fe09-4a7c-a860-bfa3199eb24c","system_id":"levelo_inurba_marseille","lat":43.297163,"lon":5.365866,"is_reserved":false,"is_disabled":false,"rental_uris":{"android":"levelo://app?vid=537ad82d-fe09-4a7c-a860-bfa3199eb24c","ios":"levelo://app?vid=537ad82d-fe09-4a7c-a860-bfa3199eb24c"},"vehicle_type_id":"4","last_reported":1703973958,"current_range_meters":12800,"station_id":"ce4bgn12rcd13ifvqbt0","pricing_plan_id":"free"},{"bike_id":"904f83aa-e9ab-401d-84c1-9edfed82b884","system_id":"levelo_inurba_marseille","lat":43.328371,"lon":5.366909,"is_reserved":false,"is_disabled":false,"rental_uris":{"android":"levelo://app?vid=904f83aa-e9ab-401d-84c1-9edfed82b884","ios":"levelo://app?vid=904f83aa-e9ab-401d-84c1-9edfed82b884"},"vehicle_type_id":"4","last_reported":1703973958,"current_range_meters":24400,"station_id":"ce4bhs92rcd13ifvqi0g","pricing_plan_id":"free"},{"bike_id":"5f628256-6b8a-462d-bc50-6979c994c9a6","system_id":"levelo_inurba_marseille","lat":43.311722,"lon":5.387247,"is_reserved":false,"is_disabled":false,"rental_uris":{"android":"levelo://app?vid=5f628256-6b8a-462d-bc50-6979c994c9a6","ios":"levelo://app?vid=5f628256-6b8a-462d-bc50-6979c994c9a6"},"vehicle_type_id":"4","last_reported":1703973958,"current_range_meters":14400,"station_id":"ce4bgv12rcd13ifvqcp0","pricing_plan_id":"free"},{"bike_id":"370cccf7-c9ba-46c2-819b-c8e8cacc4c21","system_id":"levelo_inurba_marseille","lat":43.3277,"lon":5.37458,"is_reserved":false,"is_disabled":false,"rental_uris":{"android":"levelo://app?vid=370cccf7-c9ba-46c2-819b-c8e8cacc4c21","ios":"levelo://app?vid=370cccf7-c9ba-46c2-819b-c8e8cacc4c21"},"vehicle_type_id":"4","last_reported":1703973958,"current_range_meters":12800,"station_id":"","pricing_plan_id":"free"},{"bike_id":"921b424d-ad0d-4c7a-9d74-66e3a49bfa19","system_id":"levelo_inurba_marseille","lat":43.32934,"lon":5.36612,"is_reserved":false,"is_disabled":false,"rental_uris":{"android":"levelo://app?vid=921b424d-ad0d-4c7a-9d74-66e3a49bfa19","ios":"levelo://app?vid=921b424d-ad0d-4c7a-9d74-66e3a49bfa19"},"vehicle_type_id":"4","last_reported":1703973958,"current_range_meters":4400,"station_id":"","pricing_plan_id":"free"},{"bike_id":"073c1353-3ce4-4247-89de-53195e55cfc4","system_id":"levelo_inurba_marseille","lat":43.296131,"lon":5.370773,"is_reserved":false,"is_disabled":false,"rental_uris":{"android":"levelo://app?vid=073c1353-3ce4-4247-89de-53195e55cfc4","ios":"levelo://app?vid=073c1353-3ce4-4247-89de-53195e55cfc4"},"vehicle_type_id":"4","last_reported":1703973958,"current_range_meters":14400,"station_id":"ce4bgnh2rcd13ifvqc0g","pricing_plan_id":"free"},{"bike_id":"760f7aef-1f96-4ffc-97fc-33e4c9c6845f","system_id":"levelo_inurba_marseille","lat":43.296131,"lon":5.370791,"is_reserved":false,"is_disabled":false,"rental_uris":{"android":"levelo://app?vid=760f7aef-1f96-4ffc-97fc-33e4c9c6845f","ios":"levelo://app?vid=760f7aef-1f96-4ffc-97fc-33e4c9c6845f"},"vehicle_type_id":"4","last_reported":1703973958,"current_range_meters":19600,"station_id":"ce4bgnh2rcd13ifvqc0g","pricing_plan_id":"free"},{"bike_id":"805ea9cb-00a1-4e15-afb0-c8d2a751faf7","system_id":"levelo_inurba_marseille","lat":43.299028,"lon":5.381509,"is_reserved":false,"is_disabled":false,"rental_uris":{"android":"levelo://app?vid=805ea9cb-00a1-4e15-afb0-c8d2a751faf7","ios":"levelo://app?vid=805ea9cb-00a1-4e15-afb0-c8d2a751faf7"},"vehicle_type_id":"4","last_reported":1703973958,"current_range_meters":26000,"station_id":"ce4bgj12rcd13ifvqbc0","pricing_plan_id":"free"},{"bike_id":"b4191d40-ee19-4f55-bb71-71954e731e1c","system_id":"levelo_inurba_marseille","lat":43.309589,"lon":5.390258,"is_reserved":false,"is_disabled":false,"rental_uris":{"android":"levelo://app?vid=b4191d40-ee19-4f55-bb71-71954e731e1c","ios":"levelo://app?vid=b4191d40-ee19-4f55-bb71-71954e731e1c"},"vehicle_type_id":"4","last_reported":1703973958,"current_range_meters":26000,"station_id":"ce4bgup2rcd13ifvqco0","pricing_plan_id":"free"},{"bike_id":"776fd869-f7c2-4fc9-b795-82bacf0a478c","system_id":"levelo_inurba_marseille","lat":43.317557,"lon":5.390173,"is_reserved":false,"is_disabled":false,"rental_uris":{"android":"levelo://app?vid=776fd869-f7c2-4fc9-b795-82bacf0a478c","ios":"levelo://app?vid=776fd869-f7c2-4fc9-b795-82bacf0a478c"},"vehicle_type_id":"4","last_reported":1703973958,"current_range_meters":23600,"station_id":"ce4bhqp2rcd13ifvqhng","pricing_plan_id":"free"},{"bike_id":"99908e46-37a9-41cf-99cb-dba921b44ce3","system_id":"levelo_inurba_marseille","lat":43.317557,"lon":5.390173,"is_reserved":false,"is_disabled":false,"rental_uris":{"android":"levelo://app?vid=99908e46-37a9-41cf-99cb-dba921b44ce3","ios":"levelo://app?vid=99908e46-37a9-41cf-99cb-dba921b44ce3"},"vehicle_type_id":"4","last_reported":1703973958,"current_range_meters":29200,"station_id":"ce4bhqp2rcd13ifvqhng","pricing_plan_id":"free"},{"bike_id":"b6f6f444-165b-4190-86d8-511f2ff8edaa","system_id":"levelo_inurba_marseille","lat":43.298037,"lon":5.381066,"is_reserved":false,"is_disabled":false,"rental_uris":{"android":"levelo://app?vid=b6f6f444-165b-4190-86d8-511f2ff8edaa","ios":"levelo://app?vid=b6f6f444-165b-4190-86d8-511f2ff8edaa"},"vehicle_type_id":"4","last_reported":1703973958,"current_range_meters":10400,"station_id":"ce4bgip2rcd13ifvqbb0","pricing_plan_id":"free"},{"bike_id":"febadaf6-aa30-482f-96d6-b4a7ca5d8817","system_id":"levelo_inurba_marseille","lat":43.298037,"lon":5.381066,"is_reserved":false,"is_disabled":false,"rental_uris":{"android":"levelo://app?vid=febadaf6-aa30-482f-96d6-b4a7ca5d8817","ios":"levelo://app?vid=febadaf6-aa30-482f-96d6-b4a7ca5d8817"},"vehicle_type_id":"4","last_reported":1703973958,"current_range_meters":16400,"station_id":"ce4bgip2rcd13ifvqbb0","pricing_plan_id":"free"},{"bike_id":"d60802d6-4f47-444a-b234-883690eec05b","system_id":"levelo_inurba_marseille","lat":43.33062,"lon":5.3627,"is_reserved":false,"is_disabled":false,"rental_uris":{"android":"levelo://app?vid=d60802d6-4f47-444a-b234-883690eec05b","ios":"levelo://app?vid=d60802d6-4f47-444a-b234-883690eec05b"},"vehicle_type_id":"4","last_reported":1703973958,"current_range_meters":25600,"station_id":"","pricing_plan_id":"free"},{"bike_id":"cd2ecf70-f2c7-406f-b139-86138bfed016","system_id":"levelo_inurba_marseille","lat":43.298037,"lon":5.381066,"is_reserved":false,"is_disabled":false,"rental_uris":{"android":"levelo://app?vid=cd2ecf70-f2c7-406f-b139-86138bfed016","ios":"levelo://app?vid=cd2ecf70-f2c7-406f-b139-86138bfed016"},"vehicle_type_id":"4","last_reported":1703973958,"current_range_meters":14000,"station_id":"ce4bgip2rcd13ifvqbb0","pricing_plan_id":"free"},{"bike_id":"7119845d-00aa-4d9f-be8c-fc97d41f1380","system_id":"levelo_inurba_marseille","lat":43.297594,"lon":5.381134,"is_reserved":false,"is_disabled":false,"rental_uris":{"android":"levelo://app?vid=7119845d-00aa-4d9f-be8c-fc97d41f1380","ios":"levelo://app?vid=7119845d-00aa-4d9f-be8c-fc97d41f1380"},"vehicle_type_id":"4","last_reported":1703973958,"current_range_meters":14400,"station_id":"ce4bgip2rcd13ifvqbb0","pricing_plan_id":"free"},{"bike_id":"86070025-2d26-4d88-86a8-ae0cb13b50a8","system_id":"levelo_inurba_marseille","lat":43.299724,"lon":5.384848,"is_reserved":false,"is_disabled":false,"rental_uris":{"android":"levelo://app?vid=86070025-2d26-4d88-86a8-ae0cb13b50a8","ios":"levelo://app?vid=86070025-2d26-4d88-86a8-ae0cb13b50a8"},"vehicle_type_id":"4","last_reported":1703973958,"current_range_meters":29600,"station_id":"ce4bgj92rcd13ifvqbd0","pricing_plan_id":"free"},{"bike_id":"e34cfb02-01d5-4ca8-b2c9-a41eb04e0d8e","system_id":"levelo_inurba_marseille","lat":43.299717,"lon":5.384845,"is_reserved":false,"is_disabled":false,"rental_uris":{"android":"levelo://app?vid=e34cfb02-01d5-4ca8-b2c9-a41eb04e0d8e","ios":"levelo://app?vid=e34cfb02-01d5-4ca8-b2c9-a41eb04e0d8e"},"vehicle_type_id":"4","last_reported":1703973958,"current_range_meters":27200,"station_id":"ce4bgj92rcd13ifvqbd0","pricing_plan_id":"free"},{"bike_id":"a289b9b6-8215-428c-a2bc-4d60bd6ab21c","system_id":"levelo_inurba_marseille","lat":43.299717,"lon":5.384845,"is_reserved":false,"is_disabled":false,"rental_uris":{"android":"levelo://app?vid=a289b9b6-8215-428c-a2bc-4d60bd6ab21c","ios":"levelo://app?vid=a289b9b6-8215-428c-a2bc-4d60bd6ab21c"},"vehicle_type_id":"4","last_reported":1703973958,"current_range_meters":1600,"station_id":"ce4bgj92rcd13ifvqbd0","pricing_plan_id":"free"},{"bike_id":"c472997c-8921-4240-9407-9bbb195b44d8","system_id":"levelo_inurba_marseille","lat":43.32367,"lon":5.388836,"is_reserved":false,"is_disabled":false,"rental_uris":{"android":"levelo://app?vid=c472997c-8921-4240-9407-9bbb195b44d8","ios":"levelo://app?vid=c472997c-8921-4240-9407-9bbb195b44d8"},"vehicle_type_id":"4","last_reported":1703973958,"current_range_meters":0,"station_id":"ce4bhqp2rcd13ifvqhog","pricing_plan_id":"free"},{"bike_id":"122ea523-742e-4de1-aad4-693e2611c6b8","system_id":"levelo_inurba_marseille","lat":43.32367,"lon":5.388836,"is_reserved":false,"is_disabled":false,"rental_uris":{"android":"levelo://app?vid=122ea523-742e-4de1-aad4-693e2611c6b8","ios":"levelo://app?vid=122ea523-742e-4de1-aad4-693e2611c6b8"},"vehicle_type_id":"4","last_reported":1703973958,"current_range_meters":5600,"station_id":"ce4bhqp2rcd13ifvqhog","pricing_plan_id":"free"},{"bike_id":"21c35184-2cff-45c5-a579-0cd18467e694","system_id":"levelo_inurba_marseille","lat":43.32367,"lon":5.388836,"is_reserved":false,"is_disabled":false,"rental_uris":{"android":"levelo://app?vid=21c35184-2cff-45c5-a579-0cd18467e694","ios":"levelo://app?vid=21c35184-2cff-45c5-a579-0cd18467e694"},"vehicle_type_id":"4","last_reported":1703973958,"current_range_meters":8000,"station_id":"ce4bhqp2rcd13ifvqhog","pricing_plan_id":"free"},{"bike_id":"fdba10d6-6c0f-4aa0-aa2d-a60cd34dc728","system_id":"levelo_inurba_marseille","lat":43.32367,"lon":5.388836,"is_reserved":false,"is_disabled":false,"rental_uris":{"android":"levelo://app?vid=fdba10d6-6c0f-4aa0-aa2d-a60cd34dc728","ios":"levelo://app?vid=fdba10d6-6c0f-4aa0-aa2d-a60cd34dc728"},"vehicle_type_id":"4","last_reported":1703973958,"current_range_meters":13600,"station_id":"ce4bhqp2rcd13ifvqhog","pricing_plan_id":"free"},{"bike_id":"6dc8b67f-7677-4649-90b5-6c004787a94e","system_id":"levelo_inurba_marseille","lat":43.32367,"lon":5.388836,"is_reserved":false,"is_disabled":false,"rental_uris":{"android":"levelo://app?vid=6dc8b67f-7677-4649-90b5-6c004787a94e","ios":"levelo://app?vid=6dc8b67f-7677-4649-90b5-6c004787a94e"},"vehicle_type_id":"4","last_reported":1703973958,"current_range_meters":14400,"station_id":"ce4bhqp2rcd13ifvqhog","pricing_plan_id":"free"},{"bike_id":"367da607-bdc5-4f59-8330-48c1bf85a8f1","system_id":"levelo_inurba_marseille","lat":43.293259,"lon":5.371586,"is_reserved":false,"is_disabled":false,"rental_uris":{"android":"levelo://app?vid=367da607-bdc5-4f59-8330-48c1bf85a8f1","ios":"levelo://app?vid=367da607-bdc5-4f59-8330-48c1bf85a8f1"},"vehicle_type_id":"4","last_reported":1703973958,"current_range_meters":12800,"station_id":"ce4bgh92rcd13ifvqb40","pricing_plan_id":"free"},{"bike_id":"5a954d20-e612-42f4-a316-ed009a66fe21","system_id":"levelo_inurba_marseille","lat":43.293259,"lon":5.371586,"is_reserved":false,"is_disabled":false,"rental_uris":{"android":"levelo://app?vid=5a954d20-e612-42f4-a316-ed009a66fe21","ios":"levelo://app?vid=5a954d20-e612-42f4-a316-ed009a66fe21"},"vehicle_type_id":"4","last_reported":1703973958,"current_range_meters":2400,"station_id":"ce4bgh92rcd13ifvqb40","pricing_plan_id":"free"},{"bike_id":"275adc65-bf77-425e-bb8c-4d9b36f32425","system_id":"levelo_inurba_marseille","lat":43.303081,"lon":5.392185,"is_reserved":false,"is_disabled":false,"rental_uris":{"android":"levelo://app?vid=275adc65-bf77-425e-bb8c-4d9b36f32425","ios":"levelo://app?vid=275adc65-bf77-425e-bb8c-4d9b36f32425"},"vehicle_type_id":"4","last_reported":1703973958,"current_range_meters":0,"station_id":"","pricing_plan_id":"free"},{"bike_id":"4104b516-4451-43b7-be57-1d7cf737e222","system_id":"levelo_inurba_marseille","lat":43.291671,"lon":5.371575,"is_reserved":false,"is_disabled":false,"rental_uris":{"android":"levelo://app?vid=4104b516-4451-43b7-be57-1d7cf737e222","ios":"levelo://app?vid=4104b516-4451-43b7-be57-1d7cf737e222"},"vehicle_type_id":"4","last_reported":1703973958,"current_range_meters":18800,"station_id":"ce4bha92rcd13ifvqeh0","pricing_plan_id":"free"},{"bike_id":"2da1ed21-bb39-467e-b66c-5d6bf4465df8","system_id":"levelo_inurba_marseille","lat":43.298665,"lon":5.389153,"is_reserved":false,"is_disabled":false,"rental_uris":{"android":"levelo://app?vid=2da1ed21-bb39-467e-b66c-5d6bf4465df8","ios":"levelo://app?vid=2da1ed21-bb39-467e-b66c-5d6bf4465df8"},"vehicle_type_id":"4","last_reported":1703973958,"current_range_meters":23200,"station_id":"","pricing_plan_id":"free"},{"bike_id":"5cf30968-0f7d-4d59-becc-64e3e994078f","system_id":"levelo_inurba_marseille","lat":43.313291,"lon":5.396838,"is_reserved":false,"is_disabled":false,"rental_uris":{"android":"levelo://app?vid=5cf30968-0f7d-4d59-becc-64e3e994078f","ios":"levelo://app?vid=5cf30968-0f7d-4d59-becc-64e3e994078f"},"vehicle_type_id":"4","last_reported":1703973958,"current_range_meters":28000,"station_id":"ce4bgvp2rcd13ifvqcu0","pricing_plan_id":"free"},{"bike_id":"a08d5d7e-1bce-4b74-8609-02c4624afbd1","system_id":"levelo_inurba_marseille","lat":43.313291,"lon":5.396838,"is_reserved":false,"is_disabled":false,"rental_uris":{"android":"levelo://app?vid=a08d5d7e-1bce-4b74-8609-02c4624afbd1","ios":"levelo://app?vid=a08d5d7e-1bce-4b74-8609-02c4624afbd1"},"vehicle_type_id":"4","last_reported":1703973958,"current_range_meters":26400,"station_id":"ce4bgvp2rcd13ifvqcu0","pricing_plan_id":"free"},{"bike_id":"8998fe39-5e42-4288-b877-553da6e7af1e","system_id":"levelo_inurba_marseille","lat":43.29529,"lon":5.385581,"is_reserved":false,"is_disabled":false,"rental_uris":{"android":"levelo://app?vid=8998fe39-5e42-4288-b877-553da6e7af1e","ios":"levelo://app?vid=8998fe39-5e42-4288-b877-553da6e7af1e"},"vehicle_type_id":"4","last_reported":1703973958,"current_range_meters":20000,"station_id":"ce4bgih2rcd13ifvqba0","pricing_plan_id":"free"},{"bike_id":"059c650e-95d0-48c2-b26d-9d18b8178cc1","system_id":"levelo_inurba_marseille","lat":43.294162,"lon":5.386292,"is_reserved":false,"is_disabled":false,"rental_uris":{"android":"levelo://app?vid=059c650e-95d0-48c2-b26d-9d18b8178cc1","ios":"levelo://app?vid=059c650e-95d0-48c2-b26d-9d18b8178cc1"},"vehicle_type_id":"4","last_reported":1703973958,"current_range_meters":12000,"station_id":"ce4bh2h2rcd13ifvqdh0","pricing_plan_id":"free"},{"bike_id":"248c49ca-c488-46cf-be38-9f5afb446a62","system_id":"levelo_inurba_marseille","lat":43.294162,"lon":5.386292,"is_reserved":false,"is_disabled":false,"rental_uris":{"android":"levelo://app?vid=248c49ca-c488-46cf-be38-9f5afb446a62","ios":"levelo://app?vid=248c49ca-c488-46cf-be38-9f5afb446a62"},"vehicle_type_id":"4","last_reported":1703973958,"current_range_meters":5600,"station_id":"ce4bh2h2rcd13ifvqdh0","pricing_plan_id":"free"},{"bike_id":"4ffb64f0-0fe7-4458-a75b-25194827e059","system_id":"levelo_inurba_marseille","lat":43.294162,"lon":5.386292,"is_reserved":false,"is_disabled":false,"rental_uris":{"android":"levelo://app?vid=4ffb64f0-0fe7-4458-a75b-25194827e059","ios":"levelo://app?vid=4ffb64f0-0fe7-4458-a75b-25194827e059"},"vehicle_type_id":"4","last_reported":1703973958,"current_range_meters":17200,"station_id":"ce4bh2h2rcd13ifvqdh0","pricing_plan_id":"free"},{"bike_id":"8d32155d-c205-48e5-af66-f691c3c98029","system_id":"levelo_inurba_marseille","lat":43.289184,"lon":5.366408,"is_reserved":false,"is_disabled":false,"rental_uris":{"android":"levelo://app?vid=8d32155d-c205-48e5-af66-f691c3c98029","ios":"levelo://app?vid=8d32155d-c205-48e5-af66-f691c3c98029"},"vehicle_type_id":"4","last_reported":1703973958,"current_range_meters":16800,"station_id":"ce4bhap2rcd13ifvqek0","pricing_plan_id":"free"},{"bike_id":"567be46f-5584-400f-bdf7-655785596383","system_id":"levelo_inurba_marseille","lat":43.289468,"lon":5.363719,"is_reserved":false,"is_disabled":false,"rental_uris":{"android":"levelo://app?vid=567be46f-5584-400f-bdf7-655785596383","ios":"levelo://app?vid=567be46f-5584-400f-bdf7-655785596383"},"vehicle_type_id":"4","last_reported":1703973958,"current_range_meters":26800,"station_id":"ce4bhc92rcd13ifvqetg","pricing_plan_id":"free"},{"bike_id":"2cd6395e-a4db-4986-ae52-889cf9446be4","system_id":"levelo_inurba_marseille","lat":43.289184,"lon":5.366408,"is_reserved":false,"is_disabled":false,"rental_uris":{"android":"levelo://app?vid=2cd6395e-a4db-4986-ae52-889cf9446be4","ios":"levelo://app?vid=2cd6395e-a4db-4986-ae52-889cf9446be4"},"vehicle_type_id":"4","last_reported":1703973958,"current_range_meters":10400,"station_id":"ce4bhap2rcd13ifvqek0","pricing_plan_id":"free"},{"bike_id":"28a57ae6-1e09-4314-bdaa-f3191af6744e","system_id":"levelo_inurba_marseille","lat":43.289468,"lon":5.363719,"is_reserved":false,"is_disabled":false,"rental_uris":{"android":"levelo://app?vid=28a57ae6-1e09-4314-bdaa-f3191af6744e","ios":"levelo://app?vid=28a57ae6-1e09-4314-bdaa-f3191af6744e"},"vehicle_type_id":"4","last_reported":1703973958,"current_range_meters":8400,"station_id":"ce4bhc92rcd13ifvqetg","pricing_plan_id":"free"},{"bike_id":"4e734624-d024-418b-9696-ed210dd4cd80","system_id":"levelo_inurba_marseille","lat":43.292644,"lon":5.384257,"is_reserved":false,"is_disabled":false,"rental_uris":{"android":"levelo://app?vid=4e734624-d024-418b-9696-ed210dd4cd80","ios":"levelo://app?vid=4e734624-d024-418b-9696-ed210dd4cd80"},"vehicle_type_id":"4","last_reported":1703973958,"current_range_meters":21200,"station_id":"ce4bh692rcd13ifvqea0","pricing_plan_id":"free"},{"bike_id":"3fa6ddd1-be66-4cfe-8c14-8eb95d1311c5","system_id":"levelo_inurba_marseille","lat":43.292644,"lon":5.384257,"is_reserved":false,"is_disabled":false,"rental_uris":{"android":"levelo://app?vid=3fa6ddd1-be66-4cfe-8c14-8eb95d1311c5","ios":"levelo://app?vid=3fa6ddd1-be66-4cfe-8c14-8eb95d1311c5"},"vehicle_type_id":"4","last_reported":1703973958,"current_range_meters":3200,"station_id":"ce4bh692rcd13ifvqea0","pricing_plan_id":"free"},{"bike_id":"b27783b4-5a1d-4754-8c84-3d13c7c28127","system_id":"levelo_inurba_marseille","lat":43.292644,"lon":5.384257,"is_reserved":false,"is_disabled":false,"rental_uris":{"android":"levelo://app?vid=b27783b4-5a1d-4754-8c84-3d13c7c28127","ios":"levelo://app?vid=b27783b4-5a1d-4754-8c84-3d13c7c28127"},"vehicle_type_id":"4","last_reported":1703973958,"current_range_meters":18800,"station_id":"ce4bh692rcd13ifvqea0","pricing_plan_id":"free"},{"bike_id":"339187c8-7183-4607-a782-86357e320563","system_id":"levelo_inurba_marseille","lat":43.292642,"lon":5.384254,"is_reserved":false,"is_disabled":false,"rental_uris":{"android":"levelo://app?vid=339187c8-7183-4607-a782-86357e320563","ios":"levelo://app?vid=339187c8-7183-4607-a782-86357e320563"},"vehicle_type_id":"4","last_reported":1703973958,"current_range_meters":20400,"station_id":"ce4bh692rcd13ifvqea0","pricing_plan_id":"free"},{"bike_id":"4c4620ba-3577-4922-8963-b87fb58a8df7","system_id":"levelo_inurba_marseille","lat":43.292642,"lon":5.384254,"is_reserved":false,"is_disabled":false,"rental_uris":{"android":"levelo://app?vid=4c4620ba-3577-4922-8963-b87fb58a8df7","ios":"levelo://app?vid=4c4620ba-3577-4922-8963-b87fb58a8df7"},"vehicle_type_id":"4","last_reported":1703973958,"current_range_meters":19600,"station_id":"ce4bh692rcd13ifvqea0","pricing_plan_id":"free"},{"bike_id":"2f3719b2-393b-4de2-97d6-dc6fcf4a5cda","system_id":"levelo_inurba_marseille","lat":43.290995,"lon":5.381361,"is_reserved":false,"is_disabled":false,"rental_uris":{"android":"levelo://app?vid=2f3719b2-393b-4de2-97d6-dc6fcf4a5cda","ios":"levelo://app?vid=2f3719b2-393b-4de2-97d6-dc6fcf4a5cda"},"vehicle_type_id":"4","last_reported":1703973958,"current_range_meters":28800,"station_id":"ce4bh512rcd13ifvqe2g","pricing_plan_id":"free"},{"bike_id":"9358a698-2dab-4180-8bde-5bc4da82498f","system_id":"levelo_inurba_marseille","lat":43.290995,"lon":5.381361,"is_reserved":false,"is_disabled":false,"rental_uris":{"android":"levelo://app?vid=9358a698-2dab-4180-8bde-5bc4da82498f","ios":"levelo://app?vid=9358a698-2dab-4180-8bde-5bc4da82498f"},"vehicle_type_id":"4","last_reported":1703973958,"current_range_meters":4400,"station_id":"ce4bh512rcd13ifvqe2g","pricing_plan_id":"free"},{"bike_id":"f0ea59ca-937b-4192-afdb-9566dce831c6","system_id":"levelo_inurba_marseille","lat":43.295169,"lon":5.390426,"is_reserved":false,"is_disabled":false,"rental_uris":{"android":"levelo://app?vid=f0ea59ca-937b-4192-afdb-9566dce831c6","ios":"levelo://app?vid=f0ea59ca-937b-4192-afdb-9566dce831c6"},"vehicle_type_id":"4","last_reported":1703973958,"current_range_meters":19600,"station_id":"ce4bh3p2rcd13ifvqdp0","pricing_plan_id":"free"},{"bike_id":"495faf64-a935-4c6e-b77f-2b296d14493a","system_id":"levelo_inurba_marseille","lat":43.331017,"lon":5.389194,"is_reserved":false,"is_disabled":false,"rental_uris":{"android":"levelo://app?vid=495faf64-a935-4c6e-b77f-2b296d14493a","ios":"levelo://app?vid=495faf64-a935-4c6e-b77f-2b296d14493a"},"vehicle_type_id":"4","last_reported":1703973958,"current_range_meters":1200,"station_id":"","pricing_plan_id":"free"},{"bike_id":"139bb083-3316-4723-b403-d0edcde8edb8","system_id":"levelo_inurba_marseille","lat":43.312609,"lon":5.401662,"is_reserved":false,"is_disabled":false,"rental_uris":{"android":"levelo://app?vid=139bb083-3316-4723-b403-d0edcde8edb8","ios":"levelo://app?vid=139bb083-3316-4723-b403-d0edcde8edb8"},"vehicle_type_id":"4","last_reported":1703973958,"current_range_meters":16800,"station_id":"ce4bh092rcd13ifvqd30","pricing_plan_id":"free"},{"bike_id":"cababbbd-bdea-44dd-a30c-3bd5cdef8812","system_id":"levelo_inurba_marseille","lat":43.312609,"lon":5.401662,"is_reserved":false,"is_disabled":false,"rental_uris":{"android":"levelo://app?vid=cababbbd-bdea-44dd-a30c-3bd5cdef8812","ios":"levelo://app?vid=cababbbd-bdea-44dd-a30c-3bd5cdef8812"},"vehicle_type_id":"4","last_reported":1703973958,"current_range_meters":10400,"station_id":"ce4bh092rcd13ifvqd30","pricing_plan_id":"free"},{"bike_id":"3913fc9c-1c8d-419a-af8b-4b4564ea7ec0","system_id":"levelo_inurba_marseille","lat":43.312609,"lon":5.401662,"is_reserved":false,"is_disabled":false,"rental_uris":{"android":"levelo://app?vid=3913fc9c-1c8d-419a-af8b-4b4564ea7ec0","ios":"levelo://app?vid=3913fc9c-1c8d-419a-af8b-4b4564ea7ec0"},"vehicle_type_id":"4","last_reported":1703973958,"current_range_meters":6000,"station_id":"ce4bh092rcd13ifvqd30","pricing_plan_id":"free"},{"bike_id":"d29f7a6c-6eff-46b1-9d51-bbf08faabfa1","system_id":"levelo_inurba_marseille","lat":43.337477,"lon":5.374431,"is_reserved":false,"is_disabled":false,"rental_uris":{"android":"levelo://app?vid=d29f7a6c-6eff-46b1-9d51-bbf08faabfa1","ios":"levelo://app?vid=d29f7a6c-6eff-46b1-9d51-bbf08faabfa1"},"vehicle_type_id":"4","last_reported":1703973958,"current_range_meters":0,"station_id":"","pricing_plan_id":"free"},{"bike_id":"edf4253a-c105-4b98-ace4-2261934fd4d3","system_id":"levelo_inurba_marseille","lat":43.306412,"lon":5.401035,"is_reserved":false,"is_disabled":false,"rental_uris":{"android":"levelo://app?vid=edf4253a-c105-4b98-ace4-2261934fd4d3","ios":"levelo://app?vid=edf4253a-c105-4b98-ace4-2261934fd4d3"},"vehicle_type_id":"4","last_reported":1703973958,"current_range_meters":18000,"station_id":"ce4bh112rcd13ifvqda0","pricing_plan_id":"free"},{"bike_id":"64e9545d-fc4f-40e5-b705-c0d9610d79bb","system_id":"levelo_inurba_marseille","lat":43.306412,"lon":5.401035,"is_reserved":false,"is_disabled":false,"rental_uris":{"android":"levelo://app?vid=64e9545d-fc4f-40e5-b705-c0d9610d79bb","ios":"levelo://app?vid=64e9545d-fc4f-40e5-b705-c0d9610d79bb"},"vehicle_type_id":"4","last_reported":1703973958,"current_range_meters":12800,"station_id":"ce4bh112rcd13ifvqda0","pricing_plan_id":"free"},{"bike_id":"49683cbc-fc5d-48cd-8fc3-e3861a5c6ee5","system_id":"levelo_inurba_marseille","lat":43.30642,"lon":5.401031,"is_reserved":false,"is_disabled":false,"rental_uris":{"android":"levelo://app?vid=49683cbc-fc5d-48cd-8fc3-e3861a5c6ee5","ios":"levelo://app?vid=49683cbc-fc5d-48cd-8fc3-e3861a5c6ee5"},"vehicle_type_id":"4","last_reported":1703973958,"current_range_meters":5600,"station_id":"ce4bh112rcd13ifvqda0","pricing_plan_id":"free"},{"bike_id":"c301fb8c-cfe6-441c-8d68-c52db0e2a128","system_id":"levelo_inurba_marseille","lat":43.28727,"lon":5.36078,"is_reserved":false,"is_disabled":false,"rental_uris":{"android":"levelo://app?vid=c301fb8c-cfe6-441c-8d68-c52db0e2a128","ios":"levelo://app?vid=c301fb8c-cfe6-441c-8d68-c52db0e2a128"},"vehicle_type_id":"4","last_reported":1703973958,"current_range_meters":28400,"station_id":"cki0cbj6b192h4jlfktg","pricing_plan_id":"free"},{"bike_id":"b262299b-df41-4c0e-acea-7d1f4a3c6a3b","system_id":"levelo_inurba_marseille","lat":43.28727,"lon":5.36078,"is_reserved":false,"is_disabled":false,"rental_uris":{"android":"levelo://app?vid=b262299b-df41-4c0e-acea-7d1f4a3c6a3b","ios":"levelo://app?vid=b262299b-df41-4c0e-acea-7d1f4a3c6a3b"},"vehicle_type_id":"4","last_reported":1703973958,"current_range_meters":22800,"station_id":"cki0cbj6b192h4jlfktg","pricing_plan_id":"free"},{"bike_id":"c810458d-a663-4ae6-a45a-279868d73133","system_id":"levelo_inurba_marseille","lat":43.28727,"lon":5.36078,"is_reserved":false,"is_disabled":false,"rental_uris":{"android":"levelo://app?vid=c810458d-a663-4ae6-a45a-279868d73133","ios":"levelo://app?vid=c810458d-a663-4ae6-a45a-279868d73133"},"vehicle_type_id":"4","last_reported":1703973958,"current_range_meters":21600,"station_id":"cki0cbj6b192h4jlfktg","pricing_plan_id":"free"},{"bike_id":"d4fe8f65-8122-4378-966c-34cf788d5c8a","system_id":"levelo_inurba_marseille","lat":43.286591,"lon":5.363346,"is_reserved":false,"is_disabled":false,"rental_uris":{"android":"levelo://app?vid=d4fe8f65-8122-4378-966c-34cf788d5c8a","ios":"levelo://app?vid=d4fe8f65-8122-4378-966c-34cf788d5c8a"},"vehicle_type_id":"4","last_reported":1703973958,"current_range_meters":8400,"station_id":"ce4bhah2rcd13ifvqej0","pricing_plan_id":"free"},{"bike_id":"fa6ac9f3-bd46-495a-ab45-a0bb9d0a1b12","system_id":"levelo_inurba_marseille","lat":43.286591,"lon":5.363346,"is_reserved":false,"is_disabled":false,"rental_uris":{"android":"levelo://app?vid=fa6ac9f3-bd46-495a-ab45-a0bb9d0a1b12","ios":"levelo://app?vid=fa6ac9f3-bd46-495a-ab45-a0bb9d0a1b12"},"vehicle_type_id":"4","last_reported":1703973958,"current_range_meters":8000,"station_id":"ce4bhah2rcd13ifvqej0","pricing_plan_id":"free"},{"bike_id":"615bcdea-ecc6-4c9a-8905-845f099d9973","system_id":"levelo_inurba_marseille","lat":43.286961,"lon":5.373785,"is_reserved":false,"is_disabled":false,"rental_uris":{"android":"levelo://app?vid=615bcdea-ecc6-4c9a-8905-845f099d9973","ios":"levelo://app?vid=615bcdea-ecc6-4c9a-8905-845f099d9973"},"vehicle_type_id":"4","last_reported":1703973958,"current_range_meters":0,"station_id":"ce4bh3p2rcd13ifvqdq0","pricing_plan_id":"free"},{"bike_id":"ce867626-ed83-4aa0-958a-7975b1fe6eaa","system_id":"levelo_inurba_marseille","lat":43.286591,"lon":5.363346,"is_reserved":false,"is_disabled":false,"rental_uris":{"android":"levelo://app?vid=ce867626-ed83-4aa0-958a-7975b1fe6eaa","ios":"levelo://app?vid=ce867626-ed83-4aa0-958a-7975b1fe6eaa"},"vehicle_type_id":"4","last_reported":1703973958,"current_range_meters":30000,"station_id":"ce4bhah2rcd13ifvqej0","pricing_plan_id":"free"},{"bike_id":"50db9aeb-ed1a-4f58-9946-a0d25640c60b","system_id":"levelo_inurba_marseille","lat":43.286961,"lon":5.373785,"is_reserved":false,"is_disabled":false,"rental_uris":{"android":"levelo://app?vid=50db9aeb-ed1a-4f58-9946-a0d25640c60b","ios":"levelo://app?vid=50db9aeb-ed1a-4f58-9946-a0d25640c60b"},"vehicle_type_id":"4","last_reported":1703973958,"current_range_meters":6400,"station_id":"ce4bh3p2rcd13ifvqdq0","pricing_plan_id":"free"},{"bike_id":"f6058d4d-201a-446d-84ba-071699c74475","system_id":"levelo_inurba_marseille","lat":43.295194,"lon":5.39397,"is_reserved":false,"is_disabled":false,"rental_uris":{"android":"levelo://app?vid=f6058d4d-201a-446d-84ba-071699c74475","ios":"levelo://app?vid=f6058d4d-201a-446d-84ba-071699c74475"},"vehicle_type_id":"4","last_reported":1703973958,"current_range_meters":0,"station_id":"ce4bh292rcd13ifvqdf0","pricing_plan_id":"free"},{"bike_id":"faca1ba2-4daa-443d-ad32-4c8229f60438","system_id":"levelo_inurba_marseille","lat":43.302759,"lon":5.400793,"is_reserved":false,"is_disabled":false,"rental_uris":{"android":"levelo://app?vid=faca1ba2-4daa-443d-ad32-4c8229f60438","ios":"levelo://app?vid=faca1ba2-4daa-443d-ad32-4c8229f60438"},"vehicle_type_id":"4","last_reported":1703973958,"current_range_meters":28400,"station_id":"ce4bgvh2rcd13ifvqcs0","pricing_plan_id":"free"},{"bike_id":"2e052d3f-46e1-47a6-8817-a9e3a05682f9","system_id":"levelo_inurba_marseille","lat":43.30254,"lon":5.40062,"is_reserved":false,"is_disabled":false,"rental_uris":{"android":"levelo://app?vid=2e052d3f-46e1-47a6-8817-a9e3a05682f9","ios":"levelo://app?vid=2e052d3f-46e1-47a6-8817-a9e3a05682f9"},"vehicle_type_id":"4","last_reported":1703973958,"current_range_meters":0,"station_id":"ce4bgvh2rcd13ifvqcs0","pricing_plan_id":"free"},{"bike_id":"2712d5af-620d-4049-90da-dcca1a82f1d8","system_id":"levelo_inurba_marseille","lat":43.302759,"lon":5.400793,"is_reserved":false,"is_disabled":false,"rental_uris":{"android":"levelo://app?vid=2712d5af-620d-4049-90da-dcca1a82f1d8","ios":"levelo://app?vid=2712d5af-620d-4049-90da-dcca1a82f1d8"},"vehicle_type_id":"4","last_reported":1703973958,"current_range_meters":0,"station_id":"ce4bgvh2rcd13ifvqcs0","pricing_plan_id":"free"},{"bike_id":"53b23dd4-5f9a-4ea8-b336-df1551ac4b29","system_id":"levelo_inurba_marseille","lat":43.30254,"lon":5.4007,"is_reserved":false,"is_disabled":false,"rental_uris":{"android":"levelo://app?vid=53b23dd4-5f9a-4ea8-b336-df1551ac4b29","ios":"levelo://app?vid=53b23dd4-5f9a-4ea8-b336-df1551ac4b29"},"vehicle_type_id":"4","last_reported":1703973958,"current_range_meters":6400,"station_id":"ce4bgvh2rcd13ifvqcs0","pricing_plan_id":"free"},{"bike_id":"78726dc6-88b5-44e2-97b8-ecd83141baae","system_id":"levelo_inurba_marseille","lat":43.290336,"lon":5.386425,"is_reserved":false,"is_disabled":false,"rental_uris":{"android":"levelo://app?vid=78726dc6-88b5-44e2-97b8-ecd83141baae","ios":"levelo://app?vid=78726dc6-88b5-44e2-97b8-ecd83141baae"},"vehicle_type_id":"4","last_reported":1703973958,"current_range_meters":6400,"station_id":"ce4bh4p2rcd13ifvqe0g","pricing_plan_id":"free"},{"bike_id":"4dc03683-ca87-4926-84bf-754bfc2259db","system_id":"levelo_inurba_marseille","lat":43.302759,"lon":5.400793,"is_reserved":false,"is_disabled":false,"rental_uris":{"android":"levelo://app?vid=4dc03683-ca87-4926-84bf-754bfc2259db","ios":"levelo://app?vid=4dc03683-ca87-4926-84bf-754bfc2259db"},"vehicle_type_id":"4","last_reported":1703973958,"current_range_meters":14000,"station_id":"ce4bgvh2rcd13ifvqcs0","pricing_plan_id":"free"},{"bike_id":"5c28e87b-40b8-4984-9240-4ac6a465ad25","system_id":"levelo_inurba_marseille","lat":43.286039,"lon":5.370679,"is_reserved":false,"is_disabled":false,"rental_uris":{"android":"levelo://app?vid=5c28e87b-40b8-4984-9240-4ac6a465ad25","ios":"levelo://app?vid=5c28e87b-40b8-4984-9240-4ac6a465ad25"},"vehicle_type_id":"4","last_reported":1703973958,"current_range_meters":26000,"station_id":"ce4bht12rcd13ifvqi60","pricing_plan_id":"free"},{"bike_id":"203cd100-0d9b-455c-9f67-418c2e4291cd","system_id":"levelo_inurba_marseille","lat":43.29875,"lon":5.39953,"is_reserved":false,"is_disabled":false,"rental_uris":{"android":"levelo://app?vid=203cd100-0d9b-455c-9f67-418c2e4291cd","ios":"levelo://app?vid=203cd100-0d9b-455c-9f67-418c2e4291cd"},"vehicle_type_id":"4","last_reported":1703973958,"current_range_meters":1600,"station_id":"","pricing_plan_id":"free"},{"bike_id":"b6759fa3-933c-498c-bd74-724402406415","system_id":"levelo_inurba_marseille","lat":43.316828,"lon":5.404723,"is_reserved":false,"is_disabled":false,"rental_uris":{"android":"levelo://app?vid=b6759fa3-933c-498c-bd74-724402406415","ios":"levelo://app?vid=b6759fa3-933c-498c-bd74-724402406415"},"vehicle_type_id":"4","last_reported":1703973958,"current_range_meters":19200,"station_id":"ce4bh012rcd13ifvqd00","pricing_plan_id":"free"},{"bike_id":"8e50646a-409a-4128-8ddf-d6478a7db536","system_id":"levelo_inurba_marseille","lat":43.291994,"lon":5.392907,"is_reserved":false,"is_disabled":false,"rental_uris":{"android":"levelo://app?vid=8e50646a-409a-4128-8ddf-d6478a7db536","ios":"levelo://app?vid=8e50646a-409a-4128-8ddf-d6478a7db536"},"vehicle_type_id":"4","last_reported":1703973958,"current_range_meters":24400,"station_id":"ce4bh192rcd13ifvqdd0","pricing_plan_id":"free"},{"bike_id":"4b70cf11-7ec8-4aea-b02b-4be8c85afbef","system_id":"levelo_inurba_marseille","lat":43.291994,"lon":5.392907,"is_reserved":false,"is_disabled":false,"rental_uris":{"android":"levelo://app?vid=4b70cf11-7ec8-4aea-b02b-4be8c85afbef","ios":"levelo://app?vid=4b70cf11-7ec8-4aea-b02b-4be8c85afbef"},"vehicle_type_id":"4","last_reported":1703973958,"current_range_meters":31200,"station_id":"ce4bh192rcd13ifvqdd0","pricing_plan_id":"free"},{"bike_id":"8215b084-66ed-406f-a5a3-8c8b3ee2446d","system_id":"levelo_inurba_marseille","lat":43.284534,"lon":5.358662,"is_reserved":false,"is_disabled":false,"rental_uris":{"android":"levelo://app?vid=8215b084-66ed-406f-a5a3-8c8b3ee2446d","ios":"levelo://app?vid=8215b084-66ed-406f-a5a3-8c8b3ee2446d"},"vehicle_type_id":"4","last_reported":1703973958,"current_range_meters":13200,"station_id":"ce4bhah2rcd13ifvqei0","pricing_plan_id":"free"},{"bike_id":"100b89c5-5a3f-4338-862a-d20f66ecd1bd","system_id":"levelo_inurba_marseille","lat":43.294314,"lon":5.397498,"is_reserved":false,"is_disabled":false,"rental_uris":{"android":"levelo://app?vid=100b89c5-5a3f-4338-862a-d20f66ecd1bd","ios":"levelo://app?vid=100b89c5-5a3f-4338-862a-d20f66ecd1bd"},"vehicle_type_id":"4","last_reported":1703973958,"current_range_meters":6000,"station_id":"ce4bh3h2rcd13ifvqdo0","pricing_plan_id":"free"},{"bike_id":"aa615a5f-261b-48d7-b06b-a6d8051df684","system_id":"levelo_inurba_marseille","lat":43.284534,"lon":5.358662,"is_reserved":false,"is_disabled":false,"rental_uris":{"android":"levelo://app?vid=aa615a5f-261b-48d7-b06b-a6d8051df684","ios":"levelo://app?vid=aa615a5f-261b-48d7-b06b-a6d8051df684"},"vehicle_type_id":"4","last_reported":1703973958,"current_range_meters":8800,"station_id":"ce4bhah2rcd13ifvqei0","pricing_plan_id":"free"},{"bike_id":"ddc3d933-be84-450b-845d-35a7ea264f1f","system_id":"levelo_inurba_marseille","lat":43.28454,"lon":5.35892,"is_reserved":false,"is_disabled":false,"rental_uris":{"android":"levelo://app?vid=ddc3d933-be84-450b-845d-35a7ea264f1f","ios":"levelo://app?vid=ddc3d933-be84-450b-845d-35a7ea264f1f"},"vehicle_type_id":"4","last_reported":1703973958,"current_range_meters":0,"station_id":"ce4bhah2rcd13ifvqei0","pricing_plan_id":"free"},{"bike_id":"3914a3c4-cf74-42f1-99e5-166b8adc0408","system_id":"levelo_inurba_marseille","lat":43.294314,"lon":5.397498,"is_reserved":false,"is_disabled":false,"rental_uris":{"android":"levelo://app?vid=3914a3c4-cf74-42f1-99e5-166b8adc0408","ios":"levelo://app?vid=3914a3c4-cf74-42f1-99e5-166b8adc0408"},"vehicle_type_id":"4","last_reported":1703973958,"current_range_meters":14000,"station_id":"ce4bh3h2rcd13ifvqdo0","pricing_plan_id":"free"},{"bike_id":"f7745052-1e4a-4f9a-9f34-c552ca41e459","system_id":"levelo_inurba_marseille","lat":43.294314,"lon":5.397498,"is_reserved":false,"is_disabled":false,"rental_uris":{"android":"levelo://app?vid=f7745052-1e4a-4f9a-9f34-c552ca41e459","ios":"levelo://app?vid=f7745052-1e4a-4f9a-9f34-c552ca41e459"},"vehicle_type_id":"4","last_reported":1703973958,"current_range_meters":16800,"station_id":"ce4bh3h2rcd13ifvqdo0","pricing_plan_id":"free"},{"bike_id":"e493e287-154d-447c-bc8b-57c25fab77de","system_id":"levelo_inurba_marseille","lat":43.294314,"lon":5.397498,"is_reserved":false,"is_disabled":false,"rental_uris":{"android":"levelo://app?vid=e493e287-154d-447c-bc8b-57c25fab77de","ios":"levelo://app?vid=e493e287-154d-447c-bc8b-57c25fab77de"},"vehicle_type_id":"4","last_reported":1703973958,"current_range_meters":4800,"station_id":"ce4bh3h2rcd13ifvqdo0","pricing_plan_id":"free"},{"bike_id":"f8b820db-7536-4948-8ad4-819129681b79","system_id":"levelo_inurba_marseille","lat":43.283998,"lon":5.375062,"is_reserved":false,"is_disabled":false,"rental_uris":{"android":"levelo://app?vid=f8b820db-7536-4948-8ad4-819129681b79","ios":"levelo://app?vid=f8b820db-7536-4948-8ad4-819129681b79"},"vehicle_type_id":"4","last_reported":1703973958,"current_range_meters":5200,"station_id":"ce4bh412rcd13ifvqds0","pricing_plan_id":"free"},{"bike_id":"63d6aee6-a03a-412d-b223-c6d3b28b510f","system_id":"levelo_inurba_marseille","lat":43.283998,"lon":5.375062,"is_reserved":false,"is_disabled":false,"rental_uris":{"android":"levelo://app?vid=63d6aee6-a03a-412d-b223-c6d3b28b510f","ios":"levelo://app?vid=63d6aee6-a03a-412d-b223-c6d3b28b510f"},"vehicle_type_id":"4","last_reported":1703973958,"current_range_meters":7200,"station_id":"ce4bh412rcd13ifvqds0","pricing_plan_id":"free"},{"bike_id":"72488151-34fd-436c-a4df-517689f03c40","system_id":"levelo_inurba_marseille","lat":43.283998,"lon":5.375062,"is_reserved":false,"is_disabled":false,"rental_uris":{"android":"levelo://app?vid=72488151-34fd-436c-a4df-517689f03c40","ios":"levelo://app?vid=72488151-34fd-436c-a4df-517689f03c40"},"vehicle_type_id":"4","last_reported":1703973958,"current_range_meters":3200,"station_id":"ce4bh412rcd13ifvqds0","pricing_plan_id":"free"},{"bike_id":"f2617aeb-410e-4d02-b54f-99e225d92359","system_id":"levelo_inurba_marseille","lat":43.28684,"lon":5.38668,"is_reserved":false,"is_disabled":false,"rental_uris":{"android":"levelo://app?vid=f2617aeb-410e-4d02-b54f-99e225d92359","ios":"levelo://app?vid=f2617aeb-410e-4d02-b54f-99e225d92359"},"vehicle_type_id":"4","last_reported":1703973958,"current_range_meters":22400,"station_id":"ce4bh492rcd13ifvqdug","pricing_plan_id":"free"},{"bike_id":"1a0bf041-78c3-4fb0-b111-9190bebdecf2","system_id":"levelo_inurba_marseille","lat":43.286595,"lon":5.386795,"is_reserved":false,"is_disabled":false,"rental_uris":{"android":"levelo://app?vid=1a0bf041-78c3-4fb0-b111-9190bebdecf2","ios":"levelo://app?vid=1a0bf041-78c3-4fb0-b111-9190bebdecf2"},"vehicle_type_id":"4","last_reported":1703973958,"current_range_meters":0,"station_id":"ce4bh492rcd13ifvqdug","pricing_plan_id":"free"},{"bike_id":"4ad566ac-35d2-45f1-93b8-aa3abd61c433","system_id":"levelo_inurba_marseille","lat":43.300992,"lon":5.404715,"is_reserved":false,"is_disabled":false,"rental_uris":{"android":"levelo://app?vid=4ad566ac-35d2-45f1-93b8-aa3abd61c433","ios":"levelo://app?vid=4ad566ac-35d2-45f1-93b8-aa3abd61c433"},"vehicle_type_id":"4","last_reported":1703973958,"current_range_meters":0,"station_id":"","pricing_plan_id":"free"},{"bike_id":"2a34418a-68fc-4df0-a58c-b424089bf812","system_id":"levelo_inurba_marseille","lat":43.33717,"lon":5.391857,"is_reserved":false,"is_disabled":false,"rental_uris":{"android":"levelo://app?vid=2a34418a-68fc-4df0-a58c-b424089bf812","ios":"levelo://app?vid=2a34418a-68fc-4df0-a58c-b424089bf812"},"vehicle_type_id":"4","last_reported":1703973958,"current_range_meters":30800,"station_id":"ce4bhr92rcd13ifvqhsg","pricing_plan_id":"free"},{"bike_id":"6f88c66c-95cb-43e7-9ffe-5f0278c685b8","system_id":"levelo_inurba_marseille","lat":43.337168,"lon":5.391825,"is_reserved":false,"is_disabled":false,"rental_uris":{"android":"levelo://app?vid=6f88c66c-95cb-43e7-9ffe-5f0278c685b8","ios":"levelo://app?vid=6f88c66c-95cb-43e7-9ffe-5f0278c685b8"},"vehicle_type_id":"4","last_reported":1703973958,"current_range_meters":29200,"station_id":"ce4bhr92rcd13ifvqhsg","pricing_plan_id":"free"},{"bike_id":"81e98546-48f6-4e53-9a96-d12ea8cec360","system_id":"levelo_inurba_marseille","lat":43.323464,"lon":5.406297,"is_reserved":false,"is_disabled":false,"rental_uris":{"android":"levelo://app?vid=81e98546-48f6-4e53-9a96-d12ea8cec360","ios":"levelo://app?vid=81e98546-48f6-4e53-9a96-d12ea8cec360"},"vehicle_type_id":"4","last_reported":1703973958,"current_range_meters":28000,"station_id":"ce4bhq92rcd13ifvqhjg","pricing_plan_id":"free"},{"bike_id":"bd6d09de-be04-400f-9fa7-5220916378f9","system_id":"levelo_inurba_marseille","lat":43.337168,"lon":5.391825,"is_reserved":false,"is_disabled":false,"rental_uris":{"android":"levelo://app?vid=bd6d09de-be04-400f-9fa7-5220916378f9","ios":"levelo://app?vid=bd6d09de-be04-400f-9fa7-5220916378f9"},"vehicle_type_id":"4","last_reported":1703973958,"current_range_meters":8800,"station_id":"ce4bhr92rcd13ifvqhsg","pricing_plan_id":"free"},{"bike_id":"ca8cc347-d5bd-40d2-8cba-775c99edb6ed","system_id":"levelo_inurba_marseille","lat":43.33717,"lon":5.391857,"is_reserved":false,"is_disabled":false,"rental_uris":{"android":"levelo://app?vid=ca8cc347-d5bd-40d2-8cba-775c99edb6ed","ios":"levelo://app?vid=ca8cc347-d5bd-40d2-8cba-775c99edb6ed"},"vehicle_type_id":"4","last_reported":1703973958,"current_range_meters":24400,"station_id":"ce4bhr92rcd13ifvqhsg","pricing_plan_id":"free"},{"bike_id":"f49df42b-e9a9-478d-aefc-743bee48b998","system_id":"levelo_inurba_marseille","lat":43.288501,"lon":5.393087,"is_reserved":false,"is_disabled":false,"rental_uris":{"android":"levelo://app?vid=f49df42b-e9a9-478d-aefc-743bee48b998","ios":"levelo://app?vid=f49df42b-e9a9-478d-aefc-743bee48b998"},"vehicle_type_id":"4","last_reported":1703973958,"current_range_meters":21200,"station_id":"ce4bh2p2rcd13ifvqdi0","pricing_plan_id":"free"},{"bike_id":"43e2d2ed-a541-4c87-9b76-1c786fa0ac26","system_id":"levelo_inurba_marseille","lat":43.288501,"lon":5.393087,"is_reserved":false,"is_disabled":false,"rental_uris":{"android":"levelo://app?vid=43e2d2ed-a541-4c87-9b76-1c786fa0ac26","ios":"levelo://app?vid=43e2d2ed-a541-4c87-9b76-1c786fa0ac26"},"vehicle_type_id":"4","last_reported":1703973958,"current_range_meters":23600,"station_id":"ce4bh2p2rcd13ifvqdi0","pricing_plan_id":"free"},{"bike_id":"a58a22c3-6c3d-47cc-8ff6-c7093f3e1815","system_id":"levelo_inurba_marseille","lat":43.288501,"lon":5.393087,"is_reserved":false,"is_disabled":false,"rental_uris":{"android":"levelo://app?vid=a58a22c3-6c3d-47cc-8ff6-c7093f3e1815","ios":"levelo://app?vid=a58a22c3-6c3d-47cc-8ff6-c7093f3e1815"},"vehicle_type_id":"4","last_reported":1703973958,"current_range_meters":24800,"station_id":"ce4bh2p2rcd13ifvqdi0","pricing_plan_id":"free"},{"bike_id":"7658bd4a-bf5c-4e59-a9e4-57ec9d12dba0","system_id":"levelo_inurba_marseille","lat":43.288501,"lon":5.393087,"is_reserved":false,"is_disabled":false,"rental_uris":{"android":"levelo://app?vid=7658bd4a-bf5c-4e59-a9e4-57ec9d12dba0","ios":"levelo://app?vid=7658bd4a-bf5c-4e59-a9e4-57ec9d12dba0"},"vehicle_type_id":"4","last_reported":1703973958,"current_range_meters":14400,"station_id":"ce4bh2p2rcd13ifvqdi0","pricing_plan_id":"free"},{"bike_id":"ff548aa3-08f2-4092-9b6a-1ca529179ae9","system_id":"levelo_inurba_marseille","lat":43.28477,"lon":5.38479,"is_reserved":false,"is_disabled":false,"rental_uris":{"android":"levelo://app?vid=ff548aa3-08f2-4092-9b6a-1ca529179ae9","ios":"levelo://app?vid=ff548aa3-08f2-4092-9b6a-1ca529179ae9"},"vehicle_type_id":"4","last_reported":1703973958,"current_range_meters":17600,"station_id":"","pricing_plan_id":"free"},{"bike_id":"4088bd45-ff4c-49a2-bea1-7b7e103acdb4","system_id":"levelo_inurba_marseille","lat":43.288501,"lon":5.393087,"is_reserved":false,"is_disabled":false,"rental_uris":{"android":"levelo://app?vid=4088bd45-ff4c-49a2-bea1-7b7e103acdb4","ios":"levelo://app?vid=4088bd45-ff4c-49a2-bea1-7b7e103acdb4"},"vehicle_type_id":"4","last_reported":1703973958,"current_range_meters":14000,"station_id":"ce4bh2p2rcd13ifvqdi0","pricing_plan_id":"free"},{"bike_id":"015475af-6c17-4fcb-8071-25eab9ed80a9","system_id":"levelo_inurba_marseille","lat":43.288501,"lon":5.393087,"is_reserved":false,"is_disabled":false,"rental_uris":{"android":"levelo://app?vid=015475af-6c17-4fcb-8071-25eab9ed80a9","ios":"levelo://app?vid=015475af-6c17-4fcb-8071-25eab9ed80a9"},"vehicle_type_id":"4","last_reported":1703973958,"current_range_meters":20000,"station_id":"ce4bh2p2rcd13ifvqdi0","pricing_plan_id":"free"},{"bike_id":"e485450b-2736-4f4c-b94b-0da5a69b88aa","system_id":"levelo_inurba_marseille","lat":43.33385,"lon":5.39822,"is_reserved":false,"is_disabled":false,"rental_uris":{"android":"levelo://app?vid=e485450b-2736-4f4c-b94b-0da5a69b88aa","ios":"levelo://app?vid=e485450b-2736-4f4c-b94b-0da5a69b88aa"},"vehicle_type_id":"4","last_reported":1703973958,"current_range_meters":5600,"station_id":"","pricing_plan_id":"free"},{"bike_id":"041af8db-46e1-4b08-be93-ddac96a527c0","system_id":"levelo_inurba_marseille","lat":43.28345,"lon":5.38113,"is_reserved":false,"is_disabled":false,"rental_uris":{"android":"levelo://app?vid=041af8db-46e1-4b08-be93-ddac96a527c0","ios":"levelo://app?vid=041af8db-46e1-4b08-be93-ddac96a527c0"},"vehicle_type_id":"4","last_reported":1703973958,"current_range_meters":25600,"station_id":"ce4bh412rcd13ifvqdr0","pricing_plan_id":"free"},{"bike_id":"1f07371d-bacf-44be-a18b-84f0b02614bc","system_id":"levelo_inurba_marseille","lat":43.289363,"lon":5.396322,"is_reserved":false,"is_disabled":false,"rental_uris":{"android":"levelo://app?vid=1f07371d-bacf-44be-a18b-84f0b02614bc","ios":"levelo://app?vid=1f07371d-bacf-44be-a18b-84f0b02614bc"},"vehicle_type_id":"4","last_reported":1703973958,"current_range_meters":28400,"station_id":"ce4bh3h2rcd13ifvqdn0","pricing_plan_id":"free"},{"bike_id":"7db49108-9a26-43ce-9f14-d85b6fcc8e06","system_id":"levelo_inurba_marseille","lat":43.289363,"lon":5.396322,"is_reserved":false,"is_disabled":false,"rental_uris":{"android":"levelo://app?vid=7db49108-9a26-43ce-9f14-d85b6fcc8e06","ios":"levelo://app?vid=7db49108-9a26-43ce-9f14-d85b6fcc8e06"},"vehicle_type_id":"4","last_reported":1703973958,"current_range_meters":30400,"station_id":"ce4bh3h2rcd13ifvqdn0","pricing_plan_id":"free"},{"bike_id":"76a1ec55-09c7-4dd3-820f-b0a36b1f5982","system_id":"levelo_inurba_marseille","lat":43.289363,"lon":5.396322,"is_reserved":false,"is_disabled":false,"rental_uris":{"android":"levelo://app?vid=76a1ec55-09c7-4dd3-820f-b0a36b1f5982","ios":"levelo://app?vid=76a1ec55-09c7-4dd3-820f-b0a36b1f5982"},"vehicle_type_id":"4","last_reported":1703973958,"current_range_meters":20000,"station_id":"ce4bh3h2rcd13ifvqdn0","pricing_plan_id":"free"},{"bike_id":"c383add2-a2e2-4537-a226-e0b5778b93b7","system_id":"levelo_inurba_marseille","lat":43.282754,"lon":5.350519,"is_reserved":false,"is_disabled":false,"rental_uris":{"android":"levelo://app?vid=c383add2-a2e2-4537-a226-e0b5778b93b7","ios":"levelo://app?vid=c383add2-a2e2-4537-a226-e0b5778b93b7"},"vehicle_type_id":"4","last_reported":1703973958,"current_range_meters":23200,"station_id":"ce4bhbp2rcd13ifvqerg","pricing_plan_id":"free"},{"bike_id":"d19ed478-0a0e-4941-8074-bdd72dda4ac9","system_id":"levelo_inurba_marseille","lat":43.28039,"lon":5.369297,"is_reserved":false,"is_disabled":false,"rental_uris":{"android":"levelo://app?vid=d19ed478-0a0e-4941-8074-bdd72dda4ac9","ios":"levelo://app?vid=d19ed478-0a0e-4941-8074-bdd72dda4ac9"},"vehicle_type_id":"4","last_reported":1703973958,"current_range_meters":29200,"station_id":"ce4bha12rcd13ifvqef0","pricing_plan_id":"free"},{"bike_id":"5c626aba-21a0-477e-9bbd-70f25b311c21","system_id":"levelo_inurba_marseille","lat":43.284462,"lon":5.392121,"is_reserved":false,"is_disabled":false,"rental_uris":{"android":"levelo://app?vid=5c626aba-21a0-477e-9bbd-70f25b311c21","ios":"levelo://app?vid=5c626aba-21a0-477e-9bbd-70f25b311c21"},"vehicle_type_id":"4","last_reported":1703973958,"current_range_meters":5200,"station_id":"ce4bhoh2rcd13ifvqh5g","pricing_plan_id":"free"},{"bike_id":"e1f1c9c3-a1f0-423f-b5f5-fed132db45b0","system_id":"levelo_inurba_marseille","lat":43.284462,"lon":5.392121,"is_reserved":false,"is_disabled":false,"rental_uris":{"android":"levelo://app?vid=e1f1c9c3-a1f0-423f-b5f5-fed132db45b0","ios":"levelo://app?vid=e1f1c9c3-a1f0-423f-b5f5-fed132db45b0"},"vehicle_type_id":"4","last_reported":1703973958,"current_range_meters":30000,"station_id":"ce4bhoh2rcd13ifvqh5g","pricing_plan_id":"free"},{"bike_id":"3601048f-6ef8-4d35-8f38-1d29df4b7308","system_id":"levelo_inurba_marseille","lat":43.284462,"lon":5.392121,"is_reserved":false,"is_disabled":false,"rental_uris":{"android":"levelo://app?vid=3601048f-6ef8-4d35-8f38-1d29df4b7308","ios":"levelo://app?vid=3601048f-6ef8-4d35-8f38-1d29df4b7308"},"vehicle_type_id":"4","last_reported":1703973958,"current_range_meters":25200,"station_id":"ce4bhoh2rcd13ifvqh5g","pricing_plan_id":"free"},{"bike_id":"28568076-0351-4a09-9292-aebf4744976b","system_id":"levelo_inurba_marseille","lat":43.2857,"lon":5.3949,"is_reserved":false,"is_disabled":false,"rental_uris":{"android":"levelo://app?vid=28568076-0351-4a09-9292-aebf4744976b","ios":"levelo://app?vid=28568076-0351-4a09-9292-aebf4744976b"},"vehicle_type_id":"4","last_reported":1703973958,"current_range_meters":31200,"station_id":"ce4bh292rcd13ifvqdg0","pricing_plan_id":"free"},{"bike_id":"ac4a2c54-054c-45c7-bc29-432a2e94ebc6","system_id":"levelo_inurba_marseille","lat":43.326099,"lon":5.410685,"is_reserved":false,"is_disabled":false,"rental_uris":{"android":"levelo://app?vid=ac4a2c54-054c-45c7-bc29-432a2e94ebc6","ios":"levelo://app?vid=ac4a2c54-054c-45c7-bc29-432a2e94ebc6"},"vehicle_type_id":"4","last_reported":1703973958,"current_range_meters":29200,"station_id":"","pricing_plan_id":"free"},{"bike_id":"cfe8d5f0-8a12-4e7c-87a1-f7276043a595","system_id":"levelo_inurba_marseille","lat":43.32654,"lon":5.41061,"is_reserved":false,"is_disabled":false,"rental_uris":{"android":"levelo://app?vid=cfe8d5f0-8a12-4e7c-87a1-f7276043a595","ios":"levelo://app?vid=cfe8d5f0-8a12-4e7c-87a1-f7276043a595"},"vehicle_type_id":"4","last_reported":1703973958,"current_range_meters":24400,"station_id":"","pricing_plan_id":"free"},{"bike_id":"fa5c458a-b4cc-4de2-8913-82a42cb13005","system_id":"levelo_inurba_marseille","lat":43.292571,"lon":5.409107,"is_reserved":false,"is_disabled":false,"rental_uris":{"android":"levelo://app?vid=fa5c458a-b4cc-4de2-8913-82a42cb13005","ios":"levelo://app?vid=fa5c458a-b4cc-4de2-8913-82a42cb13005"},"vehicle_type_id":"4","last_reported":1703973958,"current_range_meters":5200,"station_id":"ce4bh192rcd13ifvqdc0","pricing_plan_id":"free"},{"bike_id":"6a90b722-c955-46c8-8d01-736c640ef038","system_id":"levelo_inurba_marseille","lat":43.27618,"lon":5.361009,"is_reserved":false,"is_disabled":false,"rental_uris":{"android":"levelo://app?vid=6a90b722-c955-46c8-8d01-736c640ef038","ios":"levelo://app?vid=6a90b722-c955-46c8-8d01-736c640ef038"},"vehicle_type_id":"4","last_reported":1703973958,"current_range_meters":800,"station_id":"ce4bgj92rcd13ifvqbe0","pricing_plan_id":"free"},{"bike_id":"e2116b2e-3a5f-4bd8-a1c8-2607f2cb6d00","system_id":"levelo_inurba_marseille","lat":43.325497,"lon":5.414323,"is_reserved":false,"is_disabled":false,"rental_uris":{"android":"levelo://app?vid=e2116b2e-3a5f-4bd8-a1c8-2607f2cb6d00","ios":"levelo://app?vid=e2116b2e-3a5f-4bd8-a1c8-2607f2cb6d00"},"vehicle_type_id":"4","last_reported":1703973958,"current_range_meters":9600,"station_id":"ce4bhq12rcd13ifvqhhg","pricing_plan_id":"free"},{"bike_id":"442e34b6-92de-4f95-a8c2-8af72ec09669","system_id":"levelo_inurba_marseille","lat":43.280784,"lon":5.396622,"is_reserved":false,"is_disabled":false,"rental_uris":{"android":"levelo://app?vid=442e34b6-92de-4f95-a8c2-8af72ec09669","ios":"levelo://app?vid=442e34b6-92de-4f95-a8c2-8af72ec09669"},"vehicle_type_id":"4","last_reported":1703973958,"current_range_meters":31200,"station_id":"ce4bho12rcd13ifvqh2g","pricing_plan_id":"free"},{"bike_id":"dcfb783e-4af4-4a2c-8b14-23597359d6a5","system_id":"levelo_inurba_marseille","lat":43.303837,"lon":5.418724,"is_reserved":false,"is_disabled":false,"rental_uris":{"android":"levelo://app?vid=dcfb783e-4af4-4a2c-8b14-23597359d6a5","ios":"levelo://app?vid=dcfb783e-4af4-4a2c-8b14-23597359d6a5"},"vehicle_type_id":"4","last_reported":1703973958,"current_range_meters":28800,"station_id":"ce4bhop2rcd13ifvqh7g","pricing_plan_id":"free"},{"bike_id":"4d3d0c8b-6b41-41e4-87c5-57930c62e9fb","system_id":"levelo_inurba_marseille","lat":43.278401,"lon":5.392152,"is_reserved":false,"is_disabled":false,"rental_uris":{"android":"levelo://app?vid=4d3d0c8b-6b41-41e4-87c5-57930c62e9fb","ios":"levelo://app?vid=4d3d0c8b-6b41-41e4-87c5-57930c62e9fb"},"vehicle_type_id":"4","last_reported":1703973958,"current_range_meters":28400,"station_id":"ce4bhjp2rcd13ifvqga0","pricing_plan_id":"free"},{"bike_id":"cbb66c40-c103-4fe1-b15c-e2526bef0177","system_id":"levelo_inurba_marseille","lat":43.27377,"lon":5.36252,"is_reserved":false,"is_disabled":false,"rental_uris":{"android":"levelo://app?vid=cbb66c40-c103-4fe1-b15c-e2526bef0177","ios":"levelo://app?vid=cbb66c40-c103-4fe1-b15c-e2526bef0177"},"vehicle_type_id":"4","last_reported":1703973958,"current_range_meters":0,"station_id":"ce4bhbh2rcd13ifvqeo0","pricing_plan_id":"free"},{"bike_id":"60e3cf50-115a-4056-b489-3fea9c373562","system_id":"levelo_inurba_marseille","lat":43.27376,"lon":5.36256,"is_reserved":false,"is_disabled":false,"rental_uris":{"android":"levelo://app?vid=60e3cf50-115a-4056-b489-3fea9c373562","ios":"levelo://app?vid=60e3cf50-115a-4056-b489-3fea9c373562"},"vehicle_type_id":"4","last_reported":1703973958,"current_range_meters":22000,"station_id":"ce4bhbh2rcd13ifvqeo0","pricing_plan_id":"free"},{"bike_id":"f82e073d-ca81-4fdc-a938-414ada943e92","system_id":"levelo_inurba_marseille","lat":43.273609,"lon":5.362708,"is_reserved":false,"is_disabled":false,"rental_uris":{"android":"levelo://app?vid=f82e073d-ca81-4fdc-a938-414ada943e92","ios":"levelo://app?vid=f82e073d-ca81-4fdc-a938-414ada943e92"},"vehicle_type_id":"4","last_reported":1703973958,"current_range_meters":21600,"station_id":"ce4bhbh2rcd13ifvqeo0","pricing_plan_id":"free"},{"bike_id":"99106b63-21f1-4b49-9691-bc110c59fe67","system_id":"levelo_inurba_marseille","lat":43.275625,"lon":5.384392,"is_reserved":false,"is_disabled":false,"rental_uris":{"android":"levelo://app?vid=99106b63-21f1-4b49-9691-bc110c59fe67","ios":"levelo://app?vid=99106b63-21f1-4b49-9691-bc110c59fe67"},"vehicle_type_id":"4","last_reported":1703973958,"current_range_meters":30000,"station_id":"ce4bhh92rcd13ifvqfi0","pricing_plan_id":"free"},{"bike_id":"a69f4ca0-c247-4c77-885f-494b2985032d","system_id":"levelo_inurba_marseille","lat":43.33633,"lon":5.41031,"is_reserved":false,"is_disabled":false,"rental_uris":{"android":"levelo://app?vid=a69f4ca0-c247-4c77-885f-494b2985032d","ios":"levelo://app?vid=a69f4ca0-c247-4c77-885f-494b2985032d"},"vehicle_type_id":"4","last_reported":1703973958,"current_range_meters":29200,"station_id":"ce4bhqh2rcd13ifvqhmg","pricing_plan_id":"free"},{"bike_id":"d9c8318c-3031-4f68-9885-19375abd858f","system_id":"levelo_inurba_marseille","lat":43.31464,"lon":5.42616,"is_reserved":false,"is_disabled":false,"rental_uris":{"android":"levelo://app?vid=d9c8318c-3031-4f68-9885-19375abd858f","ios":"levelo://app?vid=d9c8318c-3031-4f68-9885-19375abd858f"},"vehicle_type_id":"4","last_reported":1703973958,"current_range_meters":5200,"station_id":"","pricing_plan_id":"free"},{"bike_id":"061bb09e-908a-4f76-afb2-44bcfcb6aa80","system_id":"levelo_inurba_marseille","lat":43.295511,"lon":5.422926,"is_reserved":false,"is_disabled":false,"rental_uris":{"android":"levelo://app?vid=061bb09e-908a-4f76-afb2-44bcfcb6aa80","ios":"levelo://app?vid=061bb09e-908a-4f76-afb2-44bcfcb6aa80"},"vehicle_type_id":"4","last_reported":1703973958,"current_range_meters":30400,"station_id":"ce4bhph2rcd13ifvqhdg","pricing_plan_id":"free"},{"bike_id":"f469bb82-d41e-4cf7-88b8-44b7c61170d9","system_id":"levelo_inurba_marseille","lat":43.295511,"lon":5.422926,"is_reserved":false,"is_disabled":false,"rental_uris":{"android":"levelo://app?vid=f469bb82-d41e-4cf7-88b8-44b7c61170d9","ios":"levelo://app?vid=f469bb82-d41e-4cf7-88b8-44b7c61170d9"},"vehicle_type_id":"4","last_reported":1703973958,"current_range_meters":17600,"station_id":"ce4bhph2rcd13ifvqhdg","pricing_plan_id":"free"},{"bike_id":"1215a881-8c5c-4a50-8eb2-6fc7039f28ce","system_id":"levelo_inurba_marseille","lat":43.295523,"lon":5.422926,"is_reserved":false,"is_disabled":false,"rental_uris":{"android":"levelo://app?vid=1215a881-8c5c-4a50-8eb2-6fc7039f28ce","ios":"levelo://app?vid=1215a881-8c5c-4a50-8eb2-6fc7039f28ce"},"vehicle_type_id":"4","last_reported":1703973958,"current_range_meters":22000,"station_id":"ce4bhph2rcd13ifvqhdg","pricing_plan_id":"free"},{"bike_id":"5e8328de-e376-4c91-8bdb-956a883a5950","system_id":"levelo_inurba_marseille","lat":43.295511,"lon":5.422926,"is_reserved":false,"is_disabled":false,"rental_uris":{"android":"levelo://app?vid=5e8328de-e376-4c91-8bdb-956a883a5950","ios":"levelo://app?vid=5e8328de-e376-4c91-8bdb-956a883a5950"},"vehicle_type_id":"4","last_reported":1703973958,"current_range_meters":6800,"station_id":"ce4bhph2rcd13ifvqhdg","pricing_plan_id":"free"},{"bike_id":"6876aea3-bcae-4465-9248-ec0980fc3939","system_id":"levelo_inurba_marseille","lat":43.295511,"lon":5.422926,"is_reserved":false,"is_disabled":false,"rental_uris":{"android":"levelo://app?vid=6876aea3-bcae-4465-9248-ec0980fc3939","ios":"levelo://app?vid=6876aea3-bcae-4465-9248-ec0980fc3939"},"vehicle_type_id":"4","last_reported":1703973958,"current_range_meters":17200,"station_id":"ce4bhph2rcd13ifvqhdg","pricing_plan_id":"free"},{"bike_id":"beb93061-85bf-4e20-99aa-79c67497ba42","system_id":"levelo_inurba_marseille","lat":43.295511,"lon":5.422926,"is_reserved":false,"is_disabled":false,"rental_uris":{"android":"levelo://app?vid=beb93061-85bf-4e20-99aa-79c67497ba42","ios":"levelo://app?vid=beb93061-85bf-4e20-99aa-79c67497ba42"},"vehicle_type_id":"4","last_reported":1703973958,"current_range_meters":18000,"station_id":"ce4bhph2rcd13ifvqhdg","pricing_plan_id":"free"},{"bike_id":"d060ee75-2d43-419a-ab7d-06748f433214","system_id":"levelo_inurba_marseille","lat":43.278128,"lon":5.407195,"is_reserved":false,"is_disabled":false,"rental_uris":{"android":"levelo://app?vid=d060ee75-2d43-419a-ab7d-06748f433214","ios":"levelo://app?vid=d060ee75-2d43-419a-ab7d-06748f433214"},"vehicle_type_id":"4","last_reported":1703973958,"current_range_meters":31200,"station_id":"ce4bhnh2rcd13ifvqgtg","pricing_plan_id":"free"},{"bike_id":"a651a69e-ab76-4599-8c57-6bb3630f7058","system_id":"levelo_inurba_marseille","lat":43.269319,"lon":5.389397,"is_reserved":false,"is_disabled":false,"rental_uris":{"android":"levelo://app?vid=a651a69e-ab76-4599-8c57-6bb3630f7058","ios":"levelo://app?vid=a651a69e-ab76-4599-8c57-6bb3630f7058"},"vehicle_type_id":"4","last_reported":1703973958,"current_range_meters":26400,"station_id":"ce4bhhh2rcd13ifvqfl0","pricing_plan_id":"free"},{"bike_id":"915d94a5-285f-4920-b9f1-782b255c72d3","system_id":"levelo_inurba_marseille","lat":43.317104,"lon":5.436818,"is_reserved":false,"is_disabled":false,"rental_uris":{"android":"levelo://app?vid=915d94a5-285f-4920-b9f1-782b255c72d3","ios":"levelo://app?vid=915d94a5-285f-4920-b9f1-782b255c72d3"},"vehicle_type_id":"4","last_reported":1703973958,"current_range_meters":12000,"station_id":"ce4bhp92rcd13ifvqhcg","pricing_plan_id":"free"},{"bike_id":"4ace0143-54eb-450f-874b-0d5359e906a6","system_id":"levelo_inurba_marseille","lat":43.31299,"lon":5.4309,"is_reserved":false,"is_disabled":false,"rental_uris":{"android":"levelo://app?vid=4ace0143-54eb-450f-874b-0d5359e906a6","ios":"levelo://app?vid=4ace0143-54eb-450f-874b-0d5359e906a6"},"vehicle_type_id":"4","last_reported":1703973958,"current_range_meters":29600,"station_id":"","pricing_plan_id":"free"},{"bike_id":"2569f04e-45a6-4ae1-8672-b39d66a61ea8","system_id":"levelo_inurba_marseille","lat":43.27996,"lon":5.416624,"is_reserved":false,"is_disabled":false,"rental_uris":{"android":"levelo://app?vid=2569f04e-45a6-4ae1-8672-b39d66a61ea8","ios":"levelo://app?vid=2569f04e-45a6-4ae1-8672-b39d66a61ea8"},"vehicle_type_id":"4","last_reported":1703973958,"current_range_meters":16000,"station_id":"ce4bho12rcd13ifvqh1g","pricing_plan_id":"free"},{"bike_id":"40c945d6-0276-4a48-b299-960f10ed7965","system_id":"levelo_inurba_marseille","lat":43.27996,"lon":5.416624,"is_reserved":false,"is_disabled":false,"rental_uris":{"android":"levelo://app?vid=40c945d6-0276-4a48-b299-960f10ed7965","ios":"levelo://app?vid=40c945d6-0276-4a48-b299-960f10ed7965"},"vehicle_type_id":"4","last_reported":1703973958,"current_range_meters":14000,"station_id":"ce4bho12rcd13ifvqh1g","pricing_plan_id":"free"},{"bike_id":"b13eed8c-1a94-4423-b5d6-ede7d4833ea0","system_id":"levelo_inurba_marseille","lat":43.27996,"lon":5.416624,"is_reserved":false,"is_disabled":false,"rental_uris":{"android":"levelo://app?vid=b13eed8c-1a94-4423-b5d6-ede7d4833ea0","ios":"levelo://app?vid=b13eed8c-1a94-4423-b5d6-ede7d4833ea0"},"vehicle_type_id":"4","last_reported":1703973958,"current_range_meters":20800,"station_id":"ce4bho12rcd13ifvqh1g","pricing_plan_id":"free"},{"bike_id":"1c7b2420-34e7-4cda-9b8d-e5551d4017de","system_id":"levelo_inurba_marseille","lat":43.27996,"lon":5.416624,"is_reserved":false,"is_disabled":false,"rental_uris":{"android":"levelo://app?vid=1c7b2420-34e7-4cda-9b8d-e5551d4017de","ios":"levelo://app?vid=1c7b2420-34e7-4cda-9b8d-e5551d4017de"},"vehicle_type_id":"4","last_reported":1703973958,"current_range_meters":20800,"station_id":"ce4bho12rcd13ifvqh1g","pricing_plan_id":"free"},{"bike_id":"267606f5-650f-4b88-939b-5a7bc7045522","system_id":"levelo_inurba_marseille","lat":43.27996,"lon":5.416624,"is_reserved":false,"is_disabled":false,"rental_uris":{"android":"levelo://app?vid=267606f5-650f-4b88-939b-5a7bc7045522","ios":"levelo://app?vid=267606f5-650f-4b88-939b-5a7bc7045522"},"vehicle_type_id":"4","last_reported":1703973958,"current_range_meters":25200,"station_id":"ce4bho12rcd13ifvqh1g","pricing_plan_id":"free"},{"bike_id":"6360d5f3-4af1-46b3-b9af-6b80a26ce6ca","system_id":"levelo_inurba_marseille","lat":43.27996,"lon":5.416624,"is_reserved":false,"is_disabled":false,"rental_uris":{"android":"levelo://app?vid=6360d5f3-4af1-46b3-b9af-6b80a26ce6ca","ios":"levelo://app?vid=6360d5f3-4af1-46b3-b9af-6b80a26ce6ca"},"vehicle_type_id":"4","last_reported":1703973958,"current_range_meters":28800,"station_id":"ce4bho12rcd13ifvqh1g","pricing_plan_id":"free"},{"bike_id":"a2a75f5b-74ff-4e31-a9ef-f4f63c80277c","system_id":"levelo_inurba_marseille","lat":43.267966,"lon":5.393976,"is_reserved":false,"is_disabled":false,"rental_uris":{"android":"levelo://app?vid=a2a75f5b-74ff-4e31-a9ef-f4f63c80277c","ios":"levelo://app?vid=a2a75f5b-74ff-4e31-a9ef-f4f63c80277c"},"vehicle_type_id":"4","last_reported":1703973958,"current_range_meters":21600,"station_id":"ce4bhh12rcd13ifvqfg0","pricing_plan_id":"free"},{"bike_id":"109313f9-71f8-49b1-a95b-7c7e1a73f29b","system_id":"levelo_inurba_marseille","lat":43.308051,"lon":5.43527,"is_reserved":false,"is_disabled":false,"rental_uris":{"android":"levelo://app?vid=109313f9-71f8-49b1-a95b-7c7e1a73f29b","ios":"levelo://app?vid=109313f9-71f8-49b1-a95b-7c7e1a73f29b"},"vehicle_type_id":"4","last_reported":1703973958,"current_range_meters":24400,"station_id":"ce4bhph2rcd13ifvqheg","pricing_plan_id":"free"},{"bike_id":"9e15925c-33ab-47bd-a788-cbec8b9fb708","system_id":"levelo_inurba_marseille","lat":43.308051,"lon":5.43527,"is_reserved":false,"is_disabled":false,"rental_uris":{"android":"levelo://app?vid=9e15925c-33ab-47bd-a788-cbec8b9fb708","ios":"levelo://app?vid=9e15925c-33ab-47bd-a788-cbec8b9fb708"},"vehicle_type_id":"4","last_reported":1703973958,"current_range_meters":21200,"station_id":"ce4bhph2rcd13ifvqheg","pricing_plan_id":"free"},{"bike_id":"3d6f9101-849e-46ac-aab7-d2b230d90650","system_id":"levelo_inurba_marseille","lat":43.26949,"lon":5.40262,"is_reserved":false,"is_disabled":false,"rental_uris":{"android":"levelo://app?vid=3d6f9101-849e-46ac-aab7-d2b230d90650","ios":"levelo://app?vid=3d6f9101-849e-46ac-aab7-d2b230d90650"},"vehicle_type_id":"4","last_reported":1703973958,"current_range_meters":14000,"station_id":"cjm6bp8fraef2m0cb0m0","pricing_plan_id":"free"},{"bike_id":"6cd72819-1ac4-46a4-80bd-934a8d6b7ffe","system_id":"levelo_inurba_marseille","lat":43.26949,"lon":5.40262,"is_reserved":false,"is_disabled":false,"rental_uris":{"android":"levelo://app?vid=6cd72819-1ac4-46a4-80bd-934a8d6b7ffe","ios":"levelo://app?vid=6cd72819-1ac4-46a4-80bd-934a8d6b7ffe"},"vehicle_type_id":"4","last_reported":1703973958,"current_range_meters":10000,"station_id":"cjm6bp8fraef2m0cb0m0","pricing_plan_id":"free"},{"bike_id":"d56e49d0-e02c-49d8-a760-917d3d63019f","system_id":"levelo_inurba_marseille","lat":43.26949,"lon":5.40262,"is_reserved":false,"is_disabled":false,"rental_uris":{"android":"levelo://app?vid=d56e49d0-e02c-49d8-a760-917d3d63019f","ios":"levelo://app?vid=d56e49d0-e02c-49d8-a760-917d3d63019f"},"vehicle_type_id":"4","last_reported":1703973958,"current_range_meters":9600,"station_id":"cjm6bp8fraef2m0cb0m0","pricing_plan_id":"free"},{"bike_id":"dac5ea74-92f7-462e-b536-31f322bb01c0","system_id":"levelo_inurba_marseille","lat":43.331893,"lon":5.431791,"is_reserved":false,"is_disabled":false,"rental_uris":{"android":"levelo://app?vid=dac5ea74-92f7-462e-b536-31f322bb01c0","ios":"levelo://app?vid=dac5ea74-92f7-462e-b536-31f322bb01c0"},"vehicle_type_id":"4","last_reported":1703973958,"current_range_meters":13600,"station_id":"","pricing_plan_id":"free"},{"bike_id":"fe8b4f3d-85b9-44b6-af42-2a5b3cbec98c","system_id":"levelo_inurba_marseille","lat":43.317104,"lon":5.436818,"is_reserved":false,"is_disabled":false,"rental_uris":{"android":"levelo://app?vid=fe8b4f3d-85b9-44b6-af42-2a5b3cbec98c","ios":"levelo://app?vid=fe8b4f3d-85b9-44b6-af42-2a5b3cbec98c"},"vehicle_type_id":"4","last_reported":1703973958,"current_range_meters":26800,"station_id":"ce4bhp92rcd13ifvqhcg","pricing_plan_id":"free"},{"bike_id":"8b46248b-ee76-4399-b020-1926290994f4","system_id":"levelo_inurba_marseille","lat":43.26202,"lon":5.379299,"is_reserved":false,"is_disabled":false,"rental_uris":{"android":"levelo://app?vid=8b46248b-ee76-4399-b020-1926290994f4","ios":"levelo://app?vid=8b46248b-ee76-4399-b020-1926290994f4"},"vehicle_type_id":"4","last_reported":1703973958,"current_range_meters":0,"station_id":"ce4bhjp2rcd13ifvqg90","pricing_plan_id":"free"},{"bike_id":"794ab64e-1955-4766-b844-628f1c76e2d8","system_id":"levelo_inurba_marseille","lat":43.27175,"lon":5.4099,"is_reserved":false,"is_disabled":false,"rental_uris":{"android":"levelo://app?vid=794ab64e-1955-4766-b844-628f1c76e2d8","ios":"levelo://app?vid=794ab64e-1955-4766-b844-628f1c76e2d8"},"vehicle_type_id":"4","last_reported":1703973958,"current_range_meters":24400,"station_id":"ce4bhl12rcd13ifvqgf0","pricing_plan_id":"free"},{"bike_id":"67d5e534-bb56-4ed3-96f2-1608e8f50594","system_id":"levelo_inurba_marseille","lat":43.267959,"lon":5.402685,"is_reserved":false,"is_disabled":false,"rental_uris":{"android":"levelo://app?vid=67d5e534-bb56-4ed3-96f2-1608e8f50594","ios":"levelo://app?vid=67d5e534-bb56-4ed3-96f2-1608e8f50594"},"vehicle_type_id":"4","last_reported":1703973958,"current_range_meters":19600,"station_id":"ce501612rcd8frsf0b60","pricing_plan_id":"free"},{"bike_id":"b85dcc16-ffcb-4df1-a788-3e6dccec2256","system_id":"levelo_inurba_marseille","lat":43.2651,"lon":5.39469,"is_reserved":false,"is_disabled":false,"rental_uris":{"android":"levelo://app?vid=b85dcc16-ffcb-4df1-a788-3e6dccec2256","ios":"levelo://app?vid=b85dcc16-ffcb-4df1-a788-3e6dccec2256"},"vehicle_type_id":"4","last_reported":1703973958,"current_range_meters":7600,"station_id":"ce4bhi12rcd13ifvqfq0","pricing_plan_id":"free"},{"bike_id":"048306d8-69df-4d21-99c9-8745e525e8de","system_id":"levelo_inurba_marseille","lat":43.29896,"lon":5.43657,"is_reserved":false,"is_disabled":false,"rental_uris":{"android":"levelo://app?vid=048306d8-69df-4d21-99c9-8745e525e8de","ios":"levelo://app?vid=048306d8-69df-4d21-99c9-8745e525e8de"},"vehicle_type_id":"4","last_reported":1703973958,"current_range_meters":6000,"station_id":"ce4bhpp2rcd13ifvqhfg","pricing_plan_id":"free"},{"bike_id":"812614fc-f43d-42cd-8379-6bce06a75358","system_id":"levelo_inurba_marseille","lat":43.298768,"lon":5.43643,"is_reserved":false,"is_disabled":false,"rental_uris":{"android":"levelo://app?vid=812614fc-f43d-42cd-8379-6bce06a75358","ios":"levelo://app?vid=812614fc-f43d-42cd-8379-6bce06a75358"},"vehicle_type_id":"4","last_reported":1703973958,"current_range_meters":31200,"station_id":"ce4bhpp2rcd13ifvqhfg","pricing_plan_id":"free"},{"bike_id":"4e011c37-f126-433b-a488-7ed2749557ae","system_id":"levelo_inurba_marseille","lat":43.298768,"lon":5.43643,"is_reserved":false,"is_disabled":false,"rental_uris":{"android":"levelo://app?vid=4e011c37-f126-433b-a488-7ed2749557ae","ios":"levelo://app?vid=4e011c37-f126-433b-a488-7ed2749557ae"},"vehicle_type_id":"4","last_reported":1703973958,"current_range_meters":21200,"station_id":"ce4bhpp2rcd13ifvqhfg","pricing_plan_id":"free"},{"bike_id":"313ca482-e16f-4fa1-aefb-866c09e75d1f","system_id":"levelo_inurba_marseille","lat":43.26035,"lon":5.37555,"is_reserved":false,"is_disabled":false,"rental_uris":{"android":"levelo://app?vid=313ca482-e16f-4fa1-aefb-866c09e75d1f","ios":"levelo://app?vid=313ca482-e16f-4fa1-aefb-866c09e75d1f"},"vehicle_type_id":"4","last_reported":1703973958,"current_range_meters":21600,"station_id":"ce4bhgh2rcd13ifvqfa0","pricing_plan_id":"free"},{"bike_id":"0d574b27-0544-48a4-bf39-ede07ecbf8c3","system_id":"levelo_inurba_marseille","lat":43.281548,"lon":5.42643,"is_reserved":false,"is_disabled":false,"rental_uris":{"android":"levelo://app?vid=0d574b27-0544-48a4-bf39-ede07ecbf8c3","ios":"levelo://app?vid=0d574b27-0544-48a4-bf39-ede07ecbf8c3"},"vehicle_type_id":"4","last_reported":1703973958,"current_range_meters":10800,"station_id":"ce4bhnh2rcd13ifvqgug","pricing_plan_id":"free"},{"bike_id":"be10eabf-bd30-4d18-a41f-8d748a3064b1","system_id":"levelo_inurba_marseille","lat":43.281548,"lon":5.42643,"is_reserved":false,"is_disabled":false,"rental_uris":{"android":"levelo://app?vid=be10eabf-bd30-4d18-a41f-8d748a3064b1","ios":"levelo://app?vid=be10eabf-bd30-4d18-a41f-8d748a3064b1"},"vehicle_type_id":"4","last_reported":1703973958,"current_range_meters":18800,"station_id":"ce4bhnh2rcd13ifvqgug","pricing_plan_id":"free"},{"bike_id":"554274c1-29da-4e13-9454-6cf149455d56","system_id":"levelo_inurba_marseille","lat":43.281548,"lon":5.42643,"is_reserved":false,"is_disabled":false,"rental_uris":{"android":"levelo://app?vid=554274c1-29da-4e13-9454-6cf149455d56","ios":"levelo://app?vid=554274c1-29da-4e13-9454-6cf149455d56"},"vehicle_type_id":"4","last_reported":1703973958,"current_range_meters":29600,"station_id":"ce4bhnh2rcd13ifvqgug","pricing_plan_id":"free"},{"bike_id":"0c5cb810-16ed-4b8f-9df0-3ac1374db3bf","system_id":"levelo_inurba_marseille","lat":43.28155,"lon":5.42648,"is_reserved":false,"is_disabled":false,"rental_uris":{"android":"levelo://app?vid=0c5cb810-16ed-4b8f-9df0-3ac1374db3bf","ios":"levelo://app?vid=0c5cb810-16ed-4b8f-9df0-3ac1374db3bf"},"vehicle_type_id":"4","last_reported":1703973958,"current_range_meters":26800,"station_id":"ce4bhnh2rcd13ifvqgug","pricing_plan_id":"free"},{"bike_id":"dba94adf-8631-4e52-b14e-ab5df234ae8e","system_id":"levelo_inurba_marseille","lat":43.281548,"lon":5.42643,"is_reserved":false,"is_disabled":false,"rental_uris":{"android":"levelo://app?vid=dba94adf-8631-4e52-b14e-ab5df234ae8e","ios":"levelo://app?vid=dba94adf-8631-4e52-b14e-ab5df234ae8e"},"vehicle_type_id":"4","last_reported":1703973958,"current_range_meters":30000,"station_id":"ce4bhnh2rcd13ifvqgug","pricing_plan_id":"free"},{"bike_id":"fb602b6f-f729-41cf-8a05-eadad2ef5bc8","system_id":"levelo_inurba_marseille","lat":43.2558,"lon":5.382267,"is_reserved":false,"is_disabled":false,"rental_uris":{"android":"levelo://app?vid=fb602b6f-f729-41cf-8a05-eadad2ef5bc8","ios":"levelo://app?vid=fb602b6f-f729-41cf-8a05-eadad2ef5bc8"},"vehicle_type_id":"4","last_reported":1703973958,"current_range_meters":800,"station_id":"ce4bhih2rcd13ifvqfs0","pricing_plan_id":"free"},{"bike_id":"ca9c4ad1-1f51-4205-ae09-010309350867","system_id":"levelo_inurba_marseille","lat":43.254947,"lon":5.376454,"is_reserved":false,"is_disabled":false,"rental_uris":{"android":"levelo://app?vid=ca9c4ad1-1f51-4205-ae09-010309350867","ios":"levelo://app?vid=ca9c4ad1-1f51-4205-ae09-010309350867"},"vehicle_type_id":"4","last_reported":1703973958,"current_range_meters":24000,"station_id":"ce4bhh12rcd13ifvqff0","pricing_plan_id":"free"},{"bike_id":"0a4a8fce-c9c8-44f0-98da-62e6c75907a8","system_id":"levelo_inurba_marseille","lat":43.254947,"lon":5.376454,"is_reserved":false,"is_disabled":false,"rental_uris":{"android":"levelo://app?vid=0a4a8fce-c9c8-44f0-98da-62e6c75907a8","ios":"levelo://app?vid=0a4a8fce-c9c8-44f0-98da-62e6c75907a8"},"vehicle_type_id":"4","last_reported":1703973958,"current_range_meters":30000,"station_id":"ce4bhh12rcd13ifvqff0","pricing_plan_id":"free"},{"bike_id":"b5c0d518-fe08-4e57-b4da-6a19597bb3df","system_id":"levelo_inurba_marseille","lat":43.254945,"lon":5.376454,"is_reserved":false,"is_disabled":false,"rental_uris":{"android":"levelo://app?vid=b5c0d518-fe08-4e57-b4da-6a19597bb3df","ios":"levelo://app?vid=b5c0d518-fe08-4e57-b4da-6a19597bb3df"},"vehicle_type_id":"4","last_reported":1703973958,"current_range_meters":28400,"station_id":"ce4bhh12rcd13ifvqff0","pricing_plan_id":"free"},{"bike_id":"d1cda8d7-d86f-4140-be6e-b829c0223e99","system_id":"levelo_inurba_marseille","lat":43.270721,"lon":5.422764,"is_reserved":false,"is_disabled":false,"rental_uris":{"android":"levelo://app?vid=d1cda8d7-d86f-4140-be6e-b829c0223e99","ios":"levelo://app?vid=d1cda8d7-d86f-4140-be6e-b829c0223e99"},"vehicle_type_id":"4","last_reported":1703973958,"current_range_meters":30400,"station_id":"ce4bhk92rcd13ifvqgb0","pricing_plan_id":"free"},{"bike_id":"21ae7c98-7365-4125-968e-a5650bc4aa78","system_id":"levelo_inurba_marseille","lat":43.259013,"lon":5.409301,"is_reserved":false,"is_disabled":false,"rental_uris":{"android":"levelo://app?vid=21ae7c98-7365-4125-968e-a5650bc4aa78","ios":"levelo://app?vid=21ae7c98-7365-4125-968e-a5650bc4aa78"},"vehicle_type_id":"4","last_reported":1703973958,"current_range_meters":16000,"station_id":"ce4bhm92rcd13ifvqglg","pricing_plan_id":"free"},