{"last_updated":1699553341,"ttl":30,"version":"2.2","data":{"bikes":[{"bike_id":"46f57156-c6ee-4cc7-9361-a2b01d4ca3a0","system_id":"levelo_inurba_marseille","lat":43.309076,"lon":5.368465,"is_reserved":false,"is_disabled":false,"rental_uris":{"android":"levelo://app?vid=46f57156-c6ee-4cc7-9361-a2b01d4ca3a0","ios":"levelo://app?vid=46f57156-c6ee-4cc7-9361-a2b01d4ca3a0"},"vehicle_type_id":"4","last_reported":1699553341,"current_range_meters":13200,"station_id":"ce4bgn92rcd13ifvqbvg","pricing_plan_id":"free"},{"bike_id":"c18ab67b-c324-4908-a7d1-1ab4ba1db225","system_id":"levelo_inurba_marseille","lat":43.314811,"lon":5.373103,"is_reserved":false,"is_disabled":false,"rental_uris":{"android":"levelo://app?vid=c18ab67b-c324-4908-a7d1-1ab4ba1db225","ios":"levelo://app?vid=c18ab67b-c324-4908-a7d1-1ab4ba1db225"},"vehicle_type_id":"4","last_reported":1699553341,"current_range_meters":16800,"station_id":"ce4bgt12rcd13ifvqcd0","pricing_plan_id":"free"},{"bike_id":"cc5c5e23-97a3-4f4a-8b0d-72d9ead71b23","system_id":"levelo_inurba_marseille","lat":43.314811,"lon":5.373103,"is_reserved":false,"is_disabled":false,"rental_uris":{"android":"levelo://app?vid=cc5c5e23-97a3-4f4a-8b0d-72d9ead71b23","ios":"levelo://app?vid=cc5c5e23-97a3-4f4a-8b0d-72d9ead71b23"},"vehicle_type_id":"4","last_reported":1699553341,"current_range_meters":30000,"station_id":"ce4bgt12rcd13ifvqcd0","pricing_plan_id":"free"},{"bike_id":"2f222026-c000-4c84-9103-e6d44a0ff880","system_id":"levelo_inurba_marseille","lat":43.30885,"lon":5.372,"is_reserved":false,"is_disabled":false,"rental_uris":{"android":"levelo://app?vid=2f222026-c000-4c84-9103-e6d44a0ff880","ios":"levelo://app?vid=2f222026-c000-4c84-9103-e6d44a0ff880"},"vehicle_type_id":"4","last_reported":1699553341,"current_range_meters":28400,"station_id":"ce4bguh2rcd13ifvqckg","pricing_plan_id":"free"},{"bike_id":"b312994f-1a76-4037-92fa-620030ac4a5c","system_id":"levelo_inurba_marseille","lat":43.30548,"lon":5.36554,"is_reserved":false,"is_disabled":false,"rental_uris":{"android":"levelo://app?vid=b312994f-1a76-4037-92fa-620030ac4a5c","ios":"levelo://app?vid=b312994f-1a76-4037-92fa-620030ac4a5c"},"vehicle_type_id":"4","last_reported":1699553341,"current_range_meters":0,"station_id":"ce4bgs12rcd13ifvqcag","pricing_plan_id":"free"},{"bike_id":"76b359af-c20b-45d0-a1df-78f4c9a6553a","system_id":"levelo_inurba_marseille","lat":43.30531,"lon":5.36552,"is_reserved":false,"is_disabled":false,"rental_uris":{"android":"levelo://app?vid=76b359af-c20b-45d0-a1df-78f4c9a6553a","ios":"levelo://app?vid=76b359af-c20b-45d0-a1df-78f4c9a6553a"},"vehicle_type_id":"4","last_reported":1699553341,"current_range_meters":26800,"station_id":"ce4bgs12rcd13ifvqcag","pricing_plan_id":"free"},{"bike_id":"500d3e53-40a5-4de8-8724-002adf446bcc","system_id":"levelo_inurba_marseille","lat":43.305989,"lon":5.37225,"is_reserved":false,"is_disabled":false,"rental_uris":{"android":"levelo://app?vid=500d3e53-40a5-4de8-8724-002adf446bcc","ios":"levelo://app?vid=500d3e53-40a5-4de8-8724-002adf446bcc"},"vehicle_type_id":"4","last_reported":1699553341,"current_range_meters":8800,"station_id":"ce4bgqh2rcd13ifvqc4g","pricing_plan_id":"free"},{"bike_id":"ab185017-0290-4c41-bace-5d5bb8a61f52","system_id":"levelo_inurba_marseille","lat":43.311131,"lon":5.377651,"is_reserved":false,"is_disabled":false,"rental_uris":{"android":"levelo://app?vid=ab185017-0290-4c41-bace-5d5bb8a61f52","ios":"levelo://app?vid=ab185017-0290-4c41-bace-5d5bb8a61f52"},"vehicle_type_id":"4","last_reported":1699553341,"current_range_meters":26800,"station_id":"ce4bgt92rcd13ifvqcg0","pricing_plan_id":"free"},{"bike_id":"e6e69856-8e03-48c3-ad98-981c39062ff2","system_id":"levelo_inurba_marseille","lat":43.311153,"lon":5.377666,"is_reserved":false,"is_disabled":false,"rental_uris":{"android":"levelo://app?vid=e6e69856-8e03-48c3-ad98-981c39062ff2","ios":"levelo://app?vid=e6e69856-8e03-48c3-ad98-981c39062ff2"},"vehicle_type_id":"4","last_reported":1699553341,"current_range_meters":15600,"station_id":"","pricing_plan_id":"free"},{"bike_id":"154f8e2a-022e-4954-b26a-0ff3f1878862","system_id":"levelo_inurba_marseille","lat":43.311131,"lon":5.377651,"is_reserved":false,"is_disabled":false,"rental_uris":{"android":"levelo://app?vid=154f8e2a-022e-4954-b26a-0ff3f1878862","ios":"levelo://app?vid=154f8e2a-022e-4954-b26a-0ff3f1878862"},"vehicle_type_id":"4","last_reported":1699553341,"current_range_meters":5600,"station_id":"ce4bgt92rcd13ifvqcg0","pricing_plan_id":"free"},{"bike_id":"87609399-9919-437b-ad67-af815862c48e","system_id":"levelo_inurba_marseille","lat":43.31131,"lon":5.37781,"is_reserved":false,"is_disabled":false,"rental_uris":{"android":"levelo://app?vid=87609399-9919-437b-ad67-af815862c48e","ios":"levelo://app?vid=87609399-9919-437b-ad67-af815862c48e"},"vehicle_type_id":"4","last_reported":1699553341,"current_range_meters":20800,"station_id":"ce4bgt92rcd13ifvqcg0","pricing_plan_id":"free"},{"bike_id":"dd7638b1-5a8a-465f-8883-a03434f7c3df","system_id":"levelo_inurba_marseille","lat":43.311125,"lon":5.377624,"is_reserved":false,"is_disabled":false,"rental_uris":{"android":"levelo://app?vid=dd7638b1-5a8a-465f-8883-a03434f7c3df","ios":"levelo://app?vid=dd7638b1-5a8a-465f-8883-a03434f7c3df"},"vehicle_type_id":"4","last_reported":1699553341,"current_range_meters":11200,"station_id":"ce4bgt92rcd13ifvqcg0","pricing_plan_id":"free"},{"bike_id":"3318721e-f269-4fb0-a4a9-969b79b92b9d","system_id":"levelo_inurba_marseille","lat":43.307917,"lon":5.37653,"is_reserved":false,"is_disabled":false,"rental_uris":{"android":"levelo://app?vid=3318721e-f269-4fb0-a4a9-969b79b92b9d","ios":"levelo://app?vid=3318721e-f269-4fb0-a4a9-969b79b92b9d"},"vehicle_type_id":"4","last_reported":1699553341,"current_range_meters":13200,"station_id":"ce4bgv92rcd13ifvqcq0","pricing_plan_id":"free"},{"bike_id":"d0a22528-d8ea-431f-a33e-d8cce9bf32c2","system_id":"levelo_inurba_marseille","lat":43.30785,"lon":5.37647,"is_reserved":false,"is_disabled":false,"rental_uris":{"android":"levelo://app?vid=d0a22528-d8ea-431f-a33e-d8cce9bf32c2","ios":"levelo://app?vid=d0a22528-d8ea-431f-a33e-d8cce9bf32c2"},"vehicle_type_id":"4","last_reported":1699553341,"current_range_meters":5600,"station_id":"ce4bgv92rcd13ifvqcq0","pricing_plan_id":"free"},{"bike_id":"57053367-5328-4d78-8951-737f56b37ed9","system_id":"levelo_inurba_marseille","lat":43.319924,"lon":5.373389,"is_reserved":false,"is_disabled":false,"rental_uris":{"android":"levelo://app?vid=57053367-5328-4d78-8951-737f56b37ed9","ios":"levelo://app?vid=57053367-5328-4d78-8951-737f56b37ed9"},"vehicle_type_id":"4","last_reported":1699553341,"current_range_meters":25600,"station_id":"","pricing_plan_id":"free"},{"bike_id":"b1330c22-c43e-4898-8237-421af3fc60e6","system_id":"levelo_inurba_marseille","lat":43.307744,"lon":5.376531,"is_reserved":false,"is_disabled":false,"rental_uris":{"android":"levelo://app?vid=b1330c22-c43e-4898-8237-421af3fc60e6","ios":"levelo://app?vid=b1330c22-c43e-4898-8237-421af3fc60e6"},"vehicle_type_id":"4","last_reported":1699553341,"current_range_meters":0,"station_id":"ce4bgv92rcd13ifvqcq0","pricing_plan_id":"free"},{"bike_id":"8313b0d0-ed1e-4bea-861a-e3c500473a8b","system_id":"levelo_inurba_marseille","lat":43.31529,"lon":5.38036,"is_reserved":false,"is_disabled":false,"rental_uris":{"android":"levelo://app?vid=8313b0d0-ed1e-4bea-861a-e3c500473a8b","ios":"levelo://app?vid=8313b0d0-ed1e-4bea-861a-e3c500473a8b"},"vehicle_type_id":"4","last_reported":1699553341,"current_range_meters":10400,"station_id":"ce4bhsp2rcd13ifvqi50","pricing_plan_id":"free"},{"bike_id":"5abb28a9-3de8-486b-838d-43fed5e8898c","system_id":"levelo_inurba_marseille","lat":43.31524,"lon":5.38043,"is_reserved":false,"is_disabled":false,"rental_uris":{"android":"levelo://app?vid=5abb28a9-3de8-486b-838d-43fed5e8898c","ios":"levelo://app?vid=5abb28a9-3de8-486b-838d-43fed5e8898c"},"vehicle_type_id":"4","last_reported":1699553341,"current_range_meters":25600,"station_id":"ce4bhsp2rcd13ifvqi50","pricing_plan_id":"free"},{"bike_id":"52e43f3d-cb2f-437b-8c87-91792bb0e7db","system_id":"levelo_inurba_marseille","lat":43.322323,"lon":5.375713,"is_reserved":false,"is_disabled":false,"rental_uris":{"android":"levelo://app?vid=52e43f3d-cb2f-437b-8c87-91792bb0e7db","ios":"levelo://app?vid=52e43f3d-cb2f-437b-8c87-91792bb0e7db"},"vehicle_type_id":"4","last_reported":1699553341,"current_range_meters":12800,"station_id":"","pricing_plan_id":"free"},{"bike_id":"e37217fa-8de7-4af5-9942-7a036cad4790","system_id":"levelo_inurba_marseille","lat":43.308012,"lon":5.381511,"is_reserved":false,"is_disabled":false,"rental_uris":{"android":"levelo://app?vid=e37217fa-8de7-4af5-9942-7a036cad4790","ios":"levelo://app?vid=e37217fa-8de7-4af5-9942-7a036cad4790"},"vehicle_type_id":"4","last_reported":1699553341,"current_range_meters":19600,"station_id":"ce4bgt12rcd13ifvqce0","pricing_plan_id":"free"},{"bike_id":"a4cfbf65-00f3-4661-96bb-d3da1c1a1ffe","system_id":"levelo_inurba_marseille","lat":43.30796,"lon":5.3816,"is_reserved":false,"is_disabled":false,"rental_uris":{"android":"levelo://app?vid=a4cfbf65-00f3-4661-96bb-d3da1c1a1ffe","ios":"levelo://app?vid=a4cfbf65-00f3-4661-96bb-d3da1c1a1ffe"},"vehicle_type_id":"4","last_reported":1699553341,"current_range_meters":30800,"station_id":"ce4bgt12rcd13ifvqce0","pricing_plan_id":"free"},{"bike_id":"02117655-9cc4-439b-be8c-5ab26cf416ef","system_id":"levelo_inurba_marseille","lat":43.308012,"lon":5.381511,"is_reserved":false,"is_disabled":false,"rental_uris":{"android":"levelo://app?vid=02117655-9cc4-439b-be8c-5ab26cf416ef","ios":"levelo://app?vid=02117655-9cc4-439b-be8c-5ab26cf416ef"},"vehicle_type_id":"4","last_reported":1699553341,"current_range_meters":22400,"station_id":"ce4bgt12rcd13ifvqce0","pricing_plan_id":"free"},{"bike_id":"17953bb8-7245-4a8e-a51a-bd6c65380d42","system_id":"levelo_inurba_marseille","lat":43.30143,"lon":5.37413,"is_reserved":false,"is_disabled":false,"rental_uris":{"android":"levelo://app?vid=17953bb8-7245-4a8e-a51a-bd6c65380d42","ios":"levelo://app?vid=17953bb8-7245-4a8e-a51a-bd6c65380d42"},"vehicle_type_id":"4","last_reported":1699553341,"current_range_meters":10000,"station_id":"ce4bgs92rcd13ifvqcc0","pricing_plan_id":"free"},{"bike_id":"29ef7d5c-cf94-4bc3-b73f-ad375ce1d015","system_id":"levelo_inurba_marseille","lat":43.303586,"lon":5.377754,"is_reserved":false,"is_disabled":false,"rental_uris":{"android":"levelo://app?vid=29ef7d5c-cf94-4bc3-b73f-ad375ce1d015","ios":"levelo://app?vid=29ef7d5c-cf94-4bc3-b73f-ad375ce1d015"},"vehicle_type_id":"4","last_reported":1699553341,"current_range_meters":4800,"station_id":"","pricing_plan_id":"free"},{"bike_id":"f3a8518b-ced4-4776-841b-17ab285765db","system_id":"levelo_inurba_marseille","lat":43.324771,"lon":5.36557,"is_reserved":false,"is_disabled":false,"rental_uris":{"android":"levelo://app?vid=f3a8518b-ced4-4776-841b-17ab285765db","ios":"levelo://app?vid=f3a8518b-ced4-4776-841b-17ab285765db"},"vehicle_type_id":"4","last_reported":1699553341,"current_range_meters":26400,"station_id":"ce4bhs12rcd13ifvqhvg","pricing_plan_id":"free"},{"bike_id":"635678bd-5650-4adf-b3da-0ae230355bf8","system_id":"levelo_inurba_marseille","lat":43.301429,"lon":5.37413,"is_reserved":false,"is_disabled":false,"rental_uris":{"android":"levelo://app?vid=635678bd-5650-4adf-b3da-0ae230355bf8","ios":"levelo://app?vid=635678bd-5650-4adf-b3da-0ae230355bf8"},"vehicle_type_id":"4","last_reported":1699553341,"current_range_meters":14400,"station_id":"ce4bgs92rcd13ifvqcc0","pricing_plan_id":"free"},{"bike_id":"69166d53-ec8e-4a0a-864c-7a29f7650dd8","system_id":"levelo_inurba_marseille","lat":43.32103,"lon":5.38007,"is_reserved":false,"is_disabled":false,"rental_uris":{"android":"levelo://app?vid=69166d53-ec8e-4a0a-864c-7a29f7650dd8","ios":"levelo://app?vid=69166d53-ec8e-4a0a-864c-7a29f7650dd8"},"vehicle_type_id":"4","last_reported":1699553341,"current_range_meters":28000,"station_id":"","pricing_plan_id":"free"},{"bike_id":"9c6597f2-0977-41c3-a07b-0c83971a008f","system_id":"levelo_inurba_marseille","lat":43.31541,"lon":5.38404,"is_reserved":false,"is_disabled":false,"rental_uris":{"android":"levelo://app?vid=9c6597f2-0977-41c3-a07b-0c83971a008f","ios":"levelo://app?vid=9c6597f2-0977-41c3-a07b-0c83971a008f"},"vehicle_type_id":"4","last_reported":1699553341,"current_range_meters":0,"station_id":"","pricing_plan_id":"free"},{"bike_id":"13d78257-2559-4a10-97b8-aaa7032179bc","system_id":"levelo_inurba_marseille","lat":43.319975,"lon":5.381519,"is_reserved":false,"is_disabled":false,"rental_uris":{"android":"levelo://app?vid=13d78257-2559-4a10-97b8-aaa7032179bc","ios":"levelo://app?vid=13d78257-2559-4a10-97b8-aaa7032179bc"},"vehicle_type_id":"4","last_reported":1699553341,"current_range_meters":11200,"station_id":"","pricing_plan_id":"free"},{"bike_id":"1482bc32-7a23-4109-885f-2d119a1e3cec","system_id":"levelo_inurba_marseille","lat":43.31992,"lon":5.38159,"is_reserved":false,"is_disabled":false,"rental_uris":{"android":"levelo://app?vid=1482bc32-7a23-4109-885f-2d119a1e3cec","ios":"levelo://app?vid=1482bc32-7a23-4109-885f-2d119a1e3cec"},"vehicle_type_id":"4","last_reported":1699553341,"current_range_meters":17200,"station_id":"ce4bhr12rcd13ifvqhpg","pricing_plan_id":"free"},{"bike_id":"d98ef63b-3279-44c8-ac44-bc93896579ca","system_id":"levelo_inurba_marseille","lat":43.31994,"lon":5.381741,"is_reserved":false,"is_disabled":false,"rental_uris":{"android":"levelo://app?vid=d98ef63b-3279-44c8-ac44-bc93896579ca","ios":"levelo://app?vid=d98ef63b-3279-44c8-ac44-bc93896579ca"},"vehicle_type_id":"4","last_reported":1699553341,"current_range_meters":24800,"station_id":"ce4bhr12rcd13ifvqhpg","pricing_plan_id":"free"},{"bike_id":"f0e0fac1-61fc-4545-80df-e429e55c1818","system_id":"levelo_inurba_marseille","lat":43.32006,"lon":5.38163,"is_reserved":false,"is_disabled":false,"rental_uris":{"android":"levelo://app?vid=f0e0fac1-61fc-4545-80df-e429e55c1818","ios":"levelo://app?vid=f0e0fac1-61fc-4545-80df-e429e55c1818"},"vehicle_type_id":"4","last_reported":1699553341,"current_range_meters":1600,"station_id":"ce4bhr12rcd13ifvqhpg","pricing_plan_id":"free"},{"bike_id":"e5a93592-76f3-45c9-bd4f-d44589eb863b","system_id":"levelo_inurba_marseille","lat":43.313571,"lon":5.384829,"is_reserved":false,"is_disabled":false,"rental_uris":{"android":"levelo://app?vid=e5a93592-76f3-45c9-bd4f-d44589eb863b","ios":"levelo://app?vid=e5a93592-76f3-45c9-bd4f-d44589eb863b"},"vehicle_type_id":"4","last_reported":1699553341,"current_range_meters":10000,"station_id":"ce4bgt92rcd13ifvqcf0","pricing_plan_id":"free"},{"bike_id":"878bfce6-d60c-4495-aeac-e0688fe278dc","system_id":"levelo_inurba_marseille","lat":43.299724,"lon":5.371829,"is_reserved":false,"is_disabled":false,"rental_uris":{"android":"levelo://app?vid=878bfce6-d60c-4495-aeac-e0688fe278dc","ios":"levelo://app?vid=878bfce6-d60c-4495-aeac-e0688fe278dc"},"vehicle_type_id":"4","last_reported":1699553341,"current_range_meters":5200,"station_id":"ce4bgr92rcd13ifvqc7g","pricing_plan_id":"free"},{"bike_id":"2aa07dbd-abc3-43b6-a1fa-b3b25d3cf066","system_id":"levelo_inurba_marseille","lat":43.32148,"lon":5.38202,"is_reserved":false,"is_disabled":false,"rental_uris":{"android":"levelo://app?vid=2aa07dbd-abc3-43b6-a1fa-b3b25d3cf066","ios":"levelo://app?vid=2aa07dbd-abc3-43b6-a1fa-b3b25d3cf066"},"vehicle_type_id":"4","last_reported":1699553341,"current_range_meters":1200,"station_id":"","pricing_plan_id":"free"},{"bike_id":"ef62aeec-79d2-4d46-bba9-6a30d260cb8f","system_id":"levelo_inurba_marseille","lat":43.298538,"lon":5.362896,"is_reserved":false,"is_disabled":false,"rental_uris":{"android":"levelo://app?vid=ef62aeec-79d2-4d46-bba9-6a30d260cb8f","ios":"levelo://app?vid=ef62aeec-79d2-4d46-bba9-6a30d260cb8f"},"vehicle_type_id":"4","last_reported":1699553341,"current_range_meters":30400,"station_id":"ce4bgpp2rcd13ifvqc3g","pricing_plan_id":"free"},{"bike_id":"8950f55a-e75d-4fac-9a7c-f529bc0580a5","system_id":"levelo_inurba_marseille","lat":43.320464,"lon":5.384144,"is_reserved":false,"is_disabled":false,"rental_uris":{"android":"levelo://app?vid=8950f55a-e75d-4fac-9a7c-f529bc0580a5","ios":"levelo://app?vid=8950f55a-e75d-4fac-9a7c-f529bc0580a5"},"vehicle_type_id":"4","last_reported":1699553341,"current_range_meters":20000,"station_id":"","pricing_plan_id":"free"},{"bike_id":"439a4bfc-a46d-4df6-8db1-21736cf27d72","system_id":"levelo_inurba_marseille","lat":43.299243,"lon":5.37481,"is_reserved":false,"is_disabled":false,"rental_uris":{"android":"levelo://app?vid=439a4bfc-a46d-4df6-8db1-21736cf27d72","ios":"levelo://app?vid=439a4bfc-a46d-4df6-8db1-21736cf27d72"},"vehicle_type_id":"4","last_reported":1699553341,"current_range_meters":16400,"station_id":"ce4bgjh2rcd13ifvqbg0","pricing_plan_id":"free"},{"bike_id":"cfbdc70f-7d17-45d6-b9ec-f06e72f0fcdf","system_id":"levelo_inurba_marseille","lat":43.311722,"lon":5.387247,"is_reserved":false,"is_disabled":false,"rental_uris":{"android":"levelo://app?vid=cfbdc70f-7d17-45d6-b9ec-f06e72f0fcdf","ios":"levelo://app?vid=cfbdc70f-7d17-45d6-b9ec-f06e72f0fcdf"},"vehicle_type_id":"4","last_reported":1699553341,"current_range_meters":4800,"station_id":"ce4bgv12rcd13ifvqcp0","pricing_plan_id":"free"},{"bike_id":"221a6428-9c2b-4945-9fb3-0bb926bfc05b","system_id":"levelo_inurba_marseille","lat":43.322872,"lon":5.382756,"is_reserved":false,"is_disabled":false,"rental_uris":{"android":"levelo://app?vid=221a6428-9c2b-4945-9fb3-0bb926bfc05b","ios":"levelo://app?vid=221a6428-9c2b-4945-9fb3-0bb926bfc05b"},"vehicle_type_id":"4","last_reported":1699553341,"current_range_meters":18000,"station_id":"ce4bhr12rcd13ifvqhqg","pricing_plan_id":"free"},{"bike_id":"e4a895a8-c6d1-4804-993c-b111541ae28a","system_id":"levelo_inurba_marseille","lat":43.322872,"lon":5.382756,"is_reserved":false,"is_disabled":false,"rental_uris":{"android":"levelo://app?vid=e4a895a8-c6d1-4804-993c-b111541ae28a","ios":"levelo://app?vid=e4a895a8-c6d1-4804-993c-b111541ae28a"},"vehicle_type_id":"4","last_reported":1699553341,"current_range_meters":14000,"station_id":"ce4bhr12rcd13ifvqhqg","pricing_plan_id":"free"},{"bike_id":"91286602-dac0-4a76-8927-6c8664893e7b","system_id":"levelo_inurba_marseille","lat":43.322872,"lon":5.382756,"is_reserved":false,"is_disabled":false,"rental_uris":{"android":"levelo://app?vid=91286602-dac0-4a76-8927-6c8664893e7b","ios":"levelo://app?vid=91286602-dac0-4a76-8927-6c8664893e7b"},"vehicle_type_id":"4","last_reported":1699553341,"current_range_meters":9200,"station_id":"ce4bhr12rcd13ifvqhqg","pricing_plan_id":"free"},{"bike_id":"adec3add-adaa-4c07-9d6b-d29fb6c4f19c","system_id":"levelo_inurba_marseille","lat":43.322872,"lon":5.382756,"is_reserved":false,"is_disabled":false,"rental_uris":{"android":"levelo://app?vid=adec3add-adaa-4c07-9d6b-d29fb6c4f19c","ios":"levelo://app?vid=adec3add-adaa-4c07-9d6b-d29fb6c4f19c"},"vehicle_type_id":"4","last_reported":1699553341,"current_range_meters":6800,"station_id":"ce4bhr12rcd13ifvqhqg","pricing_plan_id":"free"},{"bike_id":"6abc6ed3-7ee5-474c-b332-4aeb367ba6b7","system_id":"levelo_inurba_marseille","lat":43.322872,"lon":5.382756,"is_reserved":false,"is_disabled":false,"rental_uris":{"android":"levelo://app?vid=6abc6ed3-7ee5-474c-b332-4aeb367ba6b7","ios":"levelo://app?vid=6abc6ed3-7ee5-474c-b332-4aeb367ba6b7"},"vehicle_type_id":"4","last_reported":1699553341,"current_range_meters":26800,"station_id":"ce4bhr12rcd13ifvqhqg","pricing_plan_id":"free"},{"bike_id":"3107b7f8-ab0e-4ce9-87df-bf5ce8e59681","system_id":"levelo_inurba_marseille","lat":43.32291,"lon":5.38277,"is_reserved":false,"is_disabled":false,"rental_uris":{"android":"levelo://app?vid=3107b7f8-ab0e-4ce9-87df-bf5ce8e59681","ios":"levelo://app?vid=3107b7f8-ab0e-4ce9-87df-bf5ce8e59681"},"vehicle_type_id":"4","last_reported":1699553341,"current_range_meters":18800,"station_id":"ce4bhr12rcd13ifvqhqg","pricing_plan_id":"free"},{"bike_id":"f8a9d85b-cdee-4b6e-b526-2c4c73f062a1","system_id":"levelo_inurba_marseille","lat":43.297163,"lon":5.365866,"is_reserved":false,"is_disabled":false,"rental_uris":{"android":"levelo://app?vid=f8a9d85b-cdee-4b6e-b526-2c4c73f062a1","ios":"levelo://app?vid=f8a9d85b-cdee-4b6e-b526-2c4c73f062a1"},"vehicle_type_id":"4","last_reported":1699553341,"current_range_meters":18800,"station_id":"ce4bgn12rcd13ifvqbt0","pricing_plan_id":"free"},{"bike_id":"20800446-f9b3-42da-9c65-81c69e9fda2e","system_id":"levelo_inurba_marseille","lat":43.2968,"lon":5.37291,"is_reserved":false,"is_disabled":false,"rental_uris":{"android":"levelo://app?vid=20800446-f9b3-42da-9c65-81c69e9fda2e","ios":"levelo://app?vid=20800446-f9b3-42da-9c65-81c69e9fda2e"},"vehicle_type_id":"4","last_reported":1699553341,"current_range_meters":29200,"station_id":"ce4bgk12rcd13ifvqbj0","pricing_plan_id":"free"},{"bike_id":"547558d2-d8a3-47c3-8381-a4377ae77cfa","system_id":"levelo_inurba_marseille","lat":43.296,"lon":5.36802,"is_reserved":false,"is_disabled":false,"rental_uris":{"android":"levelo://app?vid=547558d2-d8a3-47c3-8381-a4377ae77cfa","ios":"levelo://app?vid=547558d2-d8a3-47c3-8381-a4377ae77cfa"},"vehicle_type_id":"4","last_reported":1699553341,"current_range_meters":28000,"station_id":"","pricing_plan_id":"free"},{"bike_id":"42345d17-c4b4-47e1-91d7-2e69f9824407","system_id":"levelo_inurba_marseille","lat":43.32215,"lon":5.38613,"is_reserved":false,"is_disabled":false,"rental_uris":{"android":"levelo://app?vid=42345d17-c4b4-47e1-91d7-2e69f9824407","ios":"levelo://app?vid=42345d17-c4b4-47e1-91d7-2e69f9824407"},"vehicle_type_id":"4","last_reported":1699553341,"current_range_meters":27600,"station_id":"","pricing_plan_id":"free"},{"bike_id":"d2e40174-c359-464c-be3e-50406e35ab48","system_id":"levelo_inurba_marseille","lat":43.29573,"lon":5.367355,"is_reserved":false,"is_disabled":false,"rental_uris":{"android":"levelo://app?vid=d2e40174-c359-464c-be3e-50406e35ab48","ios":"levelo://app?vid=d2e40174-c359-464c-be3e-50406e35ab48"},"vehicle_type_id":"4","last_reported":1699553341,"current_range_meters":26800,"station_id":"ce4bgph2rcd13ifvqc2g","pricing_plan_id":"free"},{"bike_id":"7c5b2ce2-e80d-4552-ad49-1bc8cd5d92c3","system_id":"levelo_inurba_marseille","lat":43.318413,"lon":5.388785,"is_reserved":false,"is_disabled":false,"rental_uris":{"android":"levelo://app?vid=7c5b2ce2-e80d-4552-ad49-1bc8cd5d92c3","ios":"levelo://app?vid=7c5b2ce2-e80d-4552-ad49-1bc8cd5d92c3"},"vehicle_type_id":"4","last_reported":1699553341,"current_range_meters":12400,"station_id":"","pricing_plan_id":"free"},{"bike_id":"ba31b4bf-cd86-453e-8964-442fa6ccaa3c","system_id":"levelo_inurba_marseille","lat":43.298037,"lon":5.381066,"is_reserved":false,"is_disabled":false,"rental_uris":{"android":"levelo://app?vid=ba31b4bf-cd86-453e-8964-442fa6ccaa3c","ios":"levelo://app?vid=ba31b4bf-cd86-453e-8964-442fa6ccaa3c"},"vehicle_type_id":"4","last_reported":1699553341,"current_range_meters":0,"station_id":"ce4bgip2rcd13ifvqbb0","pricing_plan_id":"free"},{"bike_id":"e1e30d64-a2f8-4b9e-add4-2684ec0ff6b5","system_id":"levelo_inurba_marseille","lat":43.304278,"lon":5.388868,"is_reserved":false,"is_disabled":false,"rental_uris":{"android":"levelo://app?vid=e1e30d64-a2f8-4b9e-add4-2684ec0ff6b5","ios":"levelo://app?vid=e1e30d64-a2f8-4b9e-add4-2684ec0ff6b5"},"vehicle_type_id":"4","last_reported":1699553341,"current_range_meters":12000,"station_id":"ce4bgk12rcd13ifvqbi0","pricing_plan_id":"free"},{"bike_id":"018425b1-deae-4f48-b602-3bb8922bb8f3","system_id":"levelo_inurba_marseille","lat":43.304274,"lon":5.388873,"is_reserved":false,"is_disabled":false,"rental_uris":{"android":"levelo://app?vid=018425b1-deae-4f48-b602-3bb8922bb8f3","ios":"levelo://app?vid=018425b1-deae-4f48-b602-3bb8922bb8f3"},"vehicle_type_id":"4","last_reported":1699553341,"current_range_meters":19200,"station_id":"ce4bgk12rcd13ifvqbi0","pricing_plan_id":"free"},{"bike_id":"1ecb8232-6e65-45b8-90ee-0eb1305be192","system_id":"levelo_inurba_marseille","lat":43.304274,"lon":5.388873,"is_reserved":false,"is_disabled":false,"rental_uris":{"android":"levelo://app?vid=1ecb8232-6e65-45b8-90ee-0eb1305be192","ios":"levelo://app?vid=1ecb8232-6e65-45b8-90ee-0eb1305be192"},"vehicle_type_id":"4","last_reported":1699553341,"current_range_meters":2400,"station_id":"ce4bgk12rcd13ifvqbi0","pricing_plan_id":"free"},{"bike_id":"b280f712-0855-40e8-93d2-1c4637716c3c","system_id":"levelo_inurba_marseille","lat":43.295748,"lon":5.37522,"is_reserved":false,"is_disabled":false,"rental_uris":{"android":"levelo://app?vid=b280f712-0855-40e8-93d2-1c4637716c3c","ios":"levelo://app?vid=b280f712-0855-40e8-93d2-1c4637716c3c"},"vehicle_type_id":"4","last_reported":1699553341,"current_range_meters":0,"station_id":"ce4bgh92rcd13ifvqb50","pricing_plan_id":"free"},{"bike_id":"b3fc7def-3d82-4bf4-b108-04005cca32fa","system_id":"levelo_inurba_marseille","lat":43.29561,"lon":5.375284,"is_reserved":false,"is_disabled":false,"rental_uris":{"android":"levelo://app?vid=b3fc7def-3d82-4bf4-b108-04005cca32fa","ios":"levelo://app?vid=b3fc7def-3d82-4bf4-b108-04005cca32fa"},"vehicle_type_id":"4","last_reported":1699553341,"current_range_meters":3600,"station_id":"","pricing_plan_id":"free"},{"bike_id":"4de822b3-6421-4003-a011-566743e7326f","system_id":"levelo_inurba_marseille","lat":43.29613,"lon":5.37738,"is_reserved":false,"is_disabled":false,"rental_uris":{"android":"levelo://app?vid=4de822b3-6421-4003-a011-566743e7326f","ios":"levelo://app?vid=4de822b3-6421-4003-a011-566743e7326f"},"vehicle_type_id":"4","last_reported":1699553341,"current_range_meters":0,"station_id":"ce4bgi92rcd13ifvqb90","pricing_plan_id":"free"},{"bike_id":"7b729e22-eeee-4da6-9d2c-aa955c24fd3f","system_id":"levelo_inurba_marseille","lat":43.295279,"lon":5.375048,"is_reserved":false,"is_disabled":false,"rental_uris":{"android":"levelo://app?vid=7b729e22-eeee-4da6-9d2c-aa955c24fd3f","ios":"levelo://app?vid=7b729e22-eeee-4da6-9d2c-aa955c24fd3f"},"vehicle_type_id":"4","last_reported":1699553341,"current_range_meters":12800,"station_id":"ce4bgkp2rcd13ifvqbmg","pricing_plan_id":"free"},{"bike_id":"a26a672c-8f86-40f5-9e8e-9856cf399a24","system_id":"levelo_inurba_marseille","lat":43.299707,"lon":5.384859,"is_reserved":false,"is_disabled":false,"rental_uris":{"android":"levelo://app?vid=a26a672c-8f86-40f5-9e8e-9856cf399a24","ios":"levelo://app?vid=a26a672c-8f86-40f5-9e8e-9856cf399a24"},"vehicle_type_id":"4","last_reported":1699553341,"current_range_meters":31200,"station_id":"ce4bgj92rcd13ifvqbd0","pricing_plan_id":"free"},{"bike_id":"fe8b192b-e674-440a-907b-83acdfe529f7","system_id":"levelo_inurba_marseille","lat":43.299724,"lon":5.384848,"is_reserved":false,"is_disabled":false,"rental_uris":{"android":"levelo://app?vid=fe8b192b-e674-440a-907b-83acdfe529f7","ios":"levelo://app?vid=fe8b192b-e674-440a-907b-83acdfe529f7"},"vehicle_type_id":"4","last_reported":1699553341,"current_range_meters":3200,"station_id":"ce4bgj92rcd13ifvqbd0","pricing_plan_id":"free"},{"bike_id":"27d76f5e-7bef-4e5e-b4e6-dcefa8529520","system_id":"levelo_inurba_marseille","lat":43.299717,"lon":5.384845,"is_reserved":false,"is_disabled":false,"rental_uris":{"android":"levelo://app?vid=27d76f5e-7bef-4e5e-b4e6-dcefa8529520","ios":"levelo://app?vid=27d76f5e-7bef-4e5e-b4e6-dcefa8529520"},"vehicle_type_id":"4","last_reported":1699553341,"current_range_meters":21200,"station_id":"ce4bgj92rcd13ifvqbd0","pricing_plan_id":"free"},{"bike_id":"dba2c1a2-e6a9-451b-9545-95869c02b46f","system_id":"levelo_inurba_marseille","lat":43.329065,"lon":5.379814,"is_reserved":false,"is_disabled":false,"rental_uris":{"android":"levelo://app?vid=dba2c1a2-e6a9-451b-9545-95869c02b46f","ios":"levelo://app?vid=dba2c1a2-e6a9-451b-9545-95869c02b46f"},"vehicle_type_id":"4","last_reported":1699553341,"current_range_meters":0,"station_id":"","pricing_plan_id":"free"},{"bike_id":"f5008c8b-61ec-4ba4-8d57-7ff1a54f00f2","system_id":"levelo_inurba_marseille","lat":43.299304,"lon":5.386145,"is_reserved":false,"is_disabled":false,"rental_uris":{"android":"levelo://app?vid=f5008c8b-61ec-4ba4-8d57-7ff1a54f00f2","ios":"levelo://app?vid=f5008c8b-61ec-4ba4-8d57-7ff1a54f00f2"},"vehicle_type_id":"4","last_reported":1699553341,"current_range_meters":9200,"station_id":"","pricing_plan_id":"free"},{"bike_id":"5be27f1c-b5c9-464d-ac33-6afa4ea1d64b","system_id":"levelo_inurba_marseille","lat":43.314173,"lon":5.393787,"is_reserved":false,"is_disabled":false,"rental_uris":{"android":"levelo://app?vid=5be27f1c-b5c9-464d-ac33-6afa4ea1d64b","ios":"levelo://app?vid=5be27f1c-b5c9-464d-ac33-6afa4ea1d64b"},"vehicle_type_id":"4","last_reported":1699553341,"current_range_meters":17600,"station_id":"","pricing_plan_id":"free"},{"bike_id":"da76f428-8323-45fa-b583-0d2fb22909bb","system_id":"levelo_inurba_marseille","lat":43.29286,"lon":5.36847,"is_reserved":false,"is_disabled":false,"rental_uris":{"android":"levelo://app?vid=da76f428-8323-45fa-b583-0d2fb22909bb","ios":"levelo://app?vid=da76f428-8323-45fa-b583-0d2fb22909bb"},"vehicle_type_id":"4","last_reported":1699553341,"current_range_meters":2400,"station_id":"ce4bhbp2rcd13ifvqesg","pricing_plan_id":"free"},{"bike_id":"440533b7-4cc8-4d8f-87f7-8cacf595f008","system_id":"levelo_inurba_marseille","lat":43.303002,"lon":5.392142,"is_reserved":false,"is_disabled":false,"rental_uris":{"android":"levelo://app?vid=440533b7-4cc8-4d8f-87f7-8cacf595f008","ios":"levelo://app?vid=440533b7-4cc8-4d8f-87f7-8cacf595f008"},"vehicle_type_id":"4","last_reported":1699553341,"current_range_meters":2400,"station_id":"ce4bgkh2rcd13ifvqbk0","pricing_plan_id":"free"},{"bike_id":"269460d0-4ac6-44dc-a3ec-0bc9e20efc24","system_id":"levelo_inurba_marseille","lat":43.300852,"lon":5.390859,"is_reserved":false,"is_disabled":false,"rental_uris":{"android":"levelo://app?vid=269460d0-4ac6-44dc-a3ec-0bc9e20efc24","ios":"levelo://app?vid=269460d0-4ac6-44dc-a3ec-0bc9e20efc24"},"vehicle_type_id":"4","last_reported":1699553341,"current_range_meters":20800,"station_id":"ce4bh192rcd13ifvqdb0","pricing_plan_id":"free"},{"bike_id":"729e1b1e-cf16-4627-86d3-1c8a8f454370","system_id":"levelo_inurba_marseille","lat":43.300852,"lon":5.390859,"is_reserved":false,"is_disabled":false,"rental_uris":{"android":"levelo://app?vid=729e1b1e-cf16-4627-86d3-1c8a8f454370","ios":"levelo://app?vid=729e1b1e-cf16-4627-86d3-1c8a8f454370"},"vehicle_type_id":"4","last_reported":1699553341,"current_range_meters":4000,"station_id":"ce4bh192rcd13ifvqdb0","pricing_plan_id":"free"},{"bike_id":"810e6469-af24-4b4d-8a17-f6ec2fbb37d1","system_id":"levelo_inurba_marseille","lat":43.3331,"lon":5.35949,"is_reserved":false,"is_disabled":false,"rental_uris":{"android":"levelo://app?vid=810e6469-af24-4b4d-8a17-f6ec2fbb37d1","ios":"levelo://app?vid=810e6469-af24-4b4d-8a17-f6ec2fbb37d1"},"vehicle_type_id":"4","last_reported":1699553341,"current_range_meters":0,"station_id":"","pricing_plan_id":"free"},{"bike_id":"fdc28502-fc3f-4291-914c-9e50eb5f2ab9","system_id":"levelo_inurba_marseille","lat":43.298764,"lon":5.388973,"is_reserved":false,"is_disabled":false,"rental_uris":{"android":"levelo://app?vid=fdc28502-fc3f-4291-914c-9e50eb5f2ab9","ios":"levelo://app?vid=fdc28502-fc3f-4291-914c-9e50eb5f2ab9"},"vehicle_type_id":"4","last_reported":1699553341,"current_range_meters":15200,"station_id":"ce4bh392rcd13ifvqdl0","pricing_plan_id":"free"},{"bike_id":"53d33eb6-2855-4ce9-85f0-ebbaf728cec4","system_id":"levelo_inurba_marseille","lat":43.33217,"lon":5.3788,"is_reserved":false,"is_disabled":false,"rental_uris":{"android":"levelo://app?vid=53d33eb6-2855-4ce9-85f0-ebbaf728cec4","ios":"levelo://app?vid=53d33eb6-2855-4ce9-85f0-ebbaf728cec4"},"vehicle_type_id":"4","last_reported":1699553341,"current_range_meters":0,"station_id":"","pricing_plan_id":"free"},{"bike_id":"9c60c656-0b7f-4572-8484-acb08600ef9b","system_id":"levelo_inurba_marseille","lat":43.291671,"lon":5.371575,"is_reserved":false,"is_disabled":false,"rental_uris":{"android":"levelo://app?vid=9c60c656-0b7f-4572-8484-acb08600ef9b","ios":"levelo://app?vid=9c60c656-0b7f-4572-8484-acb08600ef9b"},"vehicle_type_id":"4","last_reported":1699553341,"current_range_meters":27200,"station_id":"ce4bha92rcd13ifvqeh0","pricing_plan_id":"free"},{"bike_id":"6673023c-08ca-4d93-95fe-bfa9bcdf0d78","system_id":"levelo_inurba_marseille","lat":43.298764,"lon":5.388973,"is_reserved":false,"is_disabled":false,"rental_uris":{"android":"levelo://app?vid=6673023c-08ca-4d93-95fe-bfa9bcdf0d78","ios":"levelo://app?vid=6673023c-08ca-4d93-95fe-bfa9bcdf0d78"},"vehicle_type_id":"4","last_reported":1699553341,"current_range_meters":0,"station_id":"ce4bh392rcd13ifvqdl0","pricing_plan_id":"free"},{"bike_id":"9c57a004-01ed-44f4-a622-7f9a4c0eb678","system_id":"levelo_inurba_marseille","lat":43.292663,"lon":5.376389,"is_reserved":false,"is_disabled":false,"rental_uris":{"android":"levelo://app?vid=9c57a004-01ed-44f4-a622-7f9a4c0eb678","ios":"levelo://app?vid=9c57a004-01ed-44f4-a622-7f9a4c0eb678"},"vehicle_type_id":"4","last_reported":1699553341,"current_range_meters":10800,"station_id":"ce4bgi12rcd13ifvqb80","pricing_plan_id":"free"},{"bike_id":"e7595d92-89dc-46a3-accf-567c13343323","system_id":"levelo_inurba_marseille","lat":43.303837,"lon":5.418724,"is_reserved":false,"is_disabled":false,"rental_uris":{"android":"levelo://app?vid=e7595d92-89dc-46a3-accf-567c13343323","ios":"levelo://app?vid=e7595d92-89dc-46a3-accf-567c13343323"},"vehicle_type_id":"4","last_reported":1699553341,"current_range_meters":20000,"station_id":"ce4bhop2rcd13ifvqh7g","pricing_plan_id":"free"},{"bike_id":"815c5a82-ce60-4952-b795-f3502cdb9f2a","system_id":"levelo_inurba_marseille","lat":43.291994,"lon":5.357886,"is_reserved":false,"is_disabled":false,"rental_uris":{"android":"levelo://app?vid=815c5a82-ce60-4952-b795-f3502cdb9f2a","ios":"levelo://app?vid=815c5a82-ce60-4952-b795-f3502cdb9f2a"},"vehicle_type_id":"4","last_reported":1699553341,"current_range_meters":20800,"station_id":"ce4bhb12rcd13ifvqel0","pricing_plan_id":"free"},{"bike_id":"9b4e6f26-2c0f-4306-8402-1651a578494c","system_id":"levelo_inurba_marseille","lat":43.31334,"lon":5.39691,"is_reserved":false,"is_disabled":false,"rental_uris":{"android":"levelo://app?vid=9b4e6f26-2c0f-4306-8402-1651a578494c","ios":"levelo://app?vid=9b4e6f26-2c0f-4306-8402-1651a578494c"},"vehicle_type_id":"4","last_reported":1699553341,"current_range_meters":26800,"station_id":"ce4bgvp2rcd13ifvqcu0","pricing_plan_id":"free"},{"bike_id":"13c82cf5-7768-4285-bce6-60c545395176","system_id":"levelo_inurba_marseille","lat":43.31327,"lon":5.39692,"is_reserved":false,"is_disabled":false,"rental_uris":{"android":"levelo://app?vid=13c82cf5-7768-4285-bce6-60c545395176","ios":"levelo://app?vid=13c82cf5-7768-4285-bce6-60c545395176"},"vehicle_type_id":"4","last_reported":1699553341,"current_range_meters":19200,"station_id":"ce4bgvp2rcd13ifvqcu0","pricing_plan_id":"free"},{"bike_id":"16bc5867-2112-4ee3-95ad-98dc75bc032d","system_id":"levelo_inurba_marseille","lat":43.31322,"lon":5.39694,"is_reserved":false,"is_disabled":false,"rental_uris":{"android":"levelo://app?vid=16bc5867-2112-4ee3-95ad-98dc75bc032d","ios":"levelo://app?vid=16bc5867-2112-4ee3-95ad-98dc75bc032d"},"vehicle_type_id":"4","last_reported":1699553341,"current_range_meters":9200,"station_id":"ce4bgvp2rcd13ifvqcu0","pricing_plan_id":"free"},{"bike_id":"600d8311-3e59-4589-8144-7ba37d671815","system_id":"levelo_inurba_marseille","lat":43.313228,"lon":5.397003,"is_reserved":false,"is_disabled":false,"rental_uris":{"android":"levelo://app?vid=600d8311-3e59-4589-8144-7ba37d671815","ios":"levelo://app?vid=600d8311-3e59-4589-8144-7ba37d671815"},"vehicle_type_id":"4","last_reported":1699553341,"current_range_meters":12800,"station_id":"ce4bgvp2rcd13ifvqcu0","pricing_plan_id":"free"},{"bike_id":"dae12094-abcb-4b76-91bb-3d44d5e924b7","system_id":"levelo_inurba_marseille","lat":43.313289,"lon":5.397031,"is_reserved":false,"is_disabled":false,"rental_uris":{"android":"levelo://app?vid=dae12094-abcb-4b76-91bb-3d44d5e924b7","ios":"levelo://app?vid=dae12094-abcb-4b76-91bb-3d44d5e924b7"},"vehicle_type_id":"4","last_reported":1699553341,"current_range_meters":7200,"station_id":"ce4bgvp2rcd13ifvqcu0","pricing_plan_id":"free"},{"bike_id":"04ce808c-21a6-4eaf-b1ab-7d5a42de58c7","system_id":"levelo_inurba_marseille","lat":43.29235,"lon":5.37919,"is_reserved":false,"is_disabled":false,"rental_uris":{"android":"levelo://app?vid=04ce808c-21a6-4eaf-b1ab-7d5a42de58c7","ios":"levelo://app?vid=04ce808c-21a6-4eaf-b1ab-7d5a42de58c7"},"vehicle_type_id":"4","last_reported":1699553341,"current_range_meters":7200,"station_id":"ce4bha12rcd13ifvqef0","pricing_plan_id":"free"},{"bike_id":"164d97e0-1d57-4438-a96b-1a21dbaab621","system_id":"levelo_inurba_marseille","lat":43.302008,"lon":5.394694,"is_reserved":false,"is_disabled":false,"rental_uris":{"android":"levelo://app?vid=164d97e0-1d57-4438-a96b-1a21dbaab621","ios":"levelo://app?vid=164d97e0-1d57-4438-a96b-1a21dbaab621"},"vehicle_type_id":"4","last_reported":1699553341,"current_range_meters":21200,"station_id":"ce4bh0p2rcd13ifvqd70","pricing_plan_id":"free"},{"bike_id":"28721b64-63c3-4b59-9919-74890f7a3250","system_id":"levelo_inurba_marseille","lat":43.30215,"lon":5.39471,"is_reserved":false,"is_disabled":false,"rental_uris":{"android":"levelo://app?vid=28721b64-63c3-4b59-9919-74890f7a3250","ios":"levelo://app?vid=28721b64-63c3-4b59-9919-74890f7a3250"},"vehicle_type_id":"4","last_reported":1699553341,"current_range_meters":0,"station_id":"ce4bh0p2rcd13ifvqd70","pricing_plan_id":"free"},{"bike_id":"a183d64d-03d8-45e9-a556-8df822616fce","system_id":"levelo_inurba_marseille","lat":43.290631,"lon":5.359244,"is_reserved":false,"is_disabled":false,"rental_uris":{"android":"levelo://app?vid=a183d64d-03d8-45e9-a556-8df822616fce","ios":"levelo://app?vid=a183d64d-03d8-45e9-a556-8df822616fce"},"vehicle_type_id":"4","last_reported":1699553341,"current_range_meters":14400,"station_id":"ce4bha92rcd13ifvqeg0","pricing_plan_id":"free"},{"bike_id":"8882ea3c-38bc-4df5-a7da-5b440e869462","system_id":"levelo_inurba_marseille","lat":43.290631,"lon":5.359244,"is_reserved":false,"is_disabled":false,"rental_uris":{"android":"levelo://app?vid=8882ea3c-38bc-4df5-a7da-5b440e869462","ios":"levelo://app?vid=8882ea3c-38bc-4df5-a7da-5b440e869462"},"vehicle_type_id":"4","last_reported":1699553341,"current_range_meters":23600,"station_id":"ce4bha92rcd13ifvqeg0","pricing_plan_id":"free"},{"bike_id":"86f1f26d-7168-467f-94a3-519fc2443be5","system_id":"levelo_inurba_marseille","lat":43.290624,"lon":5.359245,"is_reserved":false,"is_disabled":false,"rental_uris":{"android":"levelo://app?vid=86f1f26d-7168-467f-94a3-519fc2443be5","ios":"levelo://app?vid=86f1f26d-7168-467f-94a3-519fc2443be5"},"vehicle_type_id":"4","last_reported":1699553341,"current_range_meters":24000,"station_id":"ce4bha92rcd13ifvqeg0","pricing_plan_id":"free"},{"bike_id":"a71823a0-5666-4c7e-a714-4f06ddc762d4","system_id":"levelo_inurba_marseille","lat":43.294153,"lon":5.386305,"is_reserved":false,"is_disabled":false,"rental_uris":{"android":"levelo://app?vid=a71823a0-5666-4c7e-a714-4f06ddc762d4","ios":"levelo://app?vid=a71823a0-5666-4c7e-a714-4f06ddc762d4"},"vehicle_type_id":"4","last_reported":1699553341,"current_range_meters":14800,"station_id":"ce4bh2h2rcd13ifvqdh0","pricing_plan_id":"free"},{"bike_id":"3eb6a8f0-66d6-49d7-9c7d-eaa8931f4c9d","system_id":"levelo_inurba_marseille","lat":43.294162,"lon":5.386292,"is_reserved":false,"is_disabled":false,"rental_uris":{"android":"levelo://app?vid=3eb6a8f0-66d6-49d7-9c7d-eaa8931f4c9d","ios":"levelo://app?vid=3eb6a8f0-66d6-49d7-9c7d-eaa8931f4c9d"},"vehicle_type_id":"4","last_reported":1699553341,"current_range_meters":15200,"station_id":"ce4bh2h2rcd13ifvqdh0","pricing_plan_id":"free"},{"bike_id":"f2d29fdf-809e-45c9-a331-62243d25b529","system_id":"levelo_inurba_marseille","lat":43.294447,"lon":5.386634,"is_reserved":false,"is_disabled":false,"rental_uris":{"android":"levelo://app?vid=f2d29fdf-809e-45c9-a331-62243d25b529","ios":"levelo://app?vid=f2d29fdf-809e-45c9-a331-62243d25b529"},"vehicle_type_id":"4","last_reported":1699553341,"current_range_meters":7200,"station_id":"","pricing_plan_id":"free"},{"bike_id":"5dd9c5b2-1025-411a-bbdb-f5702bc251ba","system_id":"levelo_inurba_marseille","lat":43.294153,"lon":5.386305,"is_reserved":false,"is_disabled":false,"rental_uris":{"android":"levelo://app?vid=5dd9c5b2-1025-411a-bbdb-f5702bc251ba","ios":"levelo://app?vid=5dd9c5b2-1025-411a-bbdb-f5702bc251ba"},"vehicle_type_id":"4","last_reported":1699553341,"current_range_meters":14400,"station_id":"ce4bh2h2rcd13ifvqdh0","pricing_plan_id":"free"},{"bike_id":"f1894ad0-8128-4a2a-b05a-f5404dbef689","system_id":"levelo_inurba_marseille","lat":43.294153,"lon":5.386305,"is_reserved":false,"is_disabled":false,"rental_uris":{"android":"levelo://app?vid=f1894ad0-8128-4a2a-b05a-f5404dbef689","ios":"levelo://app?vid=f1894ad0-8128-4a2a-b05a-f5404dbef689"},"vehicle_type_id":"4","last_reported":1699553341,"current_range_meters":12400,"station_id":"ce4bh2h2rcd13ifvqdh0","pricing_plan_id":"free"},{"bike_id":"92505384-c487-47b4-8cd0-9ea0baf3e1b5","system_id":"levelo_inurba_marseille","lat":43.294153,"lon":5.386305,"is_reserved":false,"is_disabled":false,"rental_uris":{"android":"levelo://app?vid=92505384-c487-47b4-8cd0-9ea0baf3e1b5","ios":"levelo://app?vid=92505384-c487-47b4-8cd0-9ea0baf3e1b5"},"vehicle_type_id":"4","last_reported":1699553341,"current_range_meters":30000,"station_id":"ce4bh2h2rcd13ifvqdh0","pricing_plan_id":"free"},{"bike_id":"a9540f6d-5675-4963-8337-6d5f908e4e0a","system_id":"levelo_inurba_marseille","lat":43.289468,"lon":5.363719,"is_reserved":false,"is_disabled":false,"rental_uris":{"android":"levelo://app?vid=a9540f6d-5675-4963-8337-6d5f908e4e0a","ios":"levelo://app?vid=a9540f6d-5675-4963-8337-6d5f908e4e0a"},"vehicle_type_id":"4","last_reported":1699553341,"current_range_meters":24800,"station_id":"ce4bhc92rcd13ifvqetg","pricing_plan_id":"free"},{"bike_id":"41db2eea-d3f0-4139-a888-9888754c886d","system_id":"levelo_inurba_marseille","lat":43.292642,"lon":5.384254,"is_reserved":false,"is_disabled":false,"rental_uris":{"android":"levelo://app?vid=41db2eea-d3f0-4139-a888-9888754c886d","ios":"levelo://app?vid=41db2eea-d3f0-4139-a888-9888754c886d"},"vehicle_type_id":"4","last_reported":1699553341,"current_range_meters":24400,"station_id":"ce4bh692rcd13ifvqea0","pricing_plan_id":"free"},{"bike_id":"b663d858-b416-4061-96c0-0b6af8a6d28a","system_id":"levelo_inurba_marseille","lat":43.304274,"lon":5.397513,"is_reserved":false,"is_disabled":false,"rental_uris":{"android":"levelo://app?vid=b663d858-b416-4061-96c0-0b6af8a6d28a","ios":"levelo://app?vid=b663d858-b416-4061-96c0-0b6af8a6d28a"},"vehicle_type_id":"4","last_reported":1699553341,"current_range_meters":10400,"station_id":"ce4bh092rcd13ifvqd20","pricing_plan_id":"free"},{"bike_id":"04500c25-2e73-4e3b-b7b8-c61238cf1664","system_id":"levelo_inurba_marseille","lat":43.304274,"lon":5.397513,"is_reserved":false,"is_disabled":false,"rental_uris":{"android":"levelo://app?vid=04500c25-2e73-4e3b-b7b8-c61238cf1664","ios":"levelo://app?vid=04500c25-2e73-4e3b-b7b8-c61238cf1664"},"vehicle_type_id":"4","last_reported":1699553341,"current_range_meters":5600,"station_id":"ce4bh092rcd13ifvqd20","pricing_plan_id":"free"},{"bike_id":"0752a0f2-cd10-4edc-9844-998c8f2a6c43","system_id":"levelo_inurba_marseille","lat":43.304274,"lon":5.397513,"is_reserved":false,"is_disabled":false,"rental_uris":{"android":"levelo://app?vid=0752a0f2-cd10-4edc-9844-998c8f2a6c43","ios":"levelo://app?vid=0752a0f2-cd10-4edc-9844-998c8f2a6c43"},"vehicle_type_id":"4","last_reported":1699553341,"current_range_meters":14800,"station_id":"ce4bh092rcd13ifvqd20","pricing_plan_id":"free"},{"bike_id":"2655656f-6a1d-4c4f-a78d-be767d092a03","system_id":"levelo_inurba_marseille","lat":43.330442,"lon":5.389148,"is_reserved":false,"is_disabled":false,"rental_uris":{"android":"levelo://app?vid=2655656f-6a1d-4c4f-a78d-be767d092a03","ios":"levelo://app?vid=2655656f-6a1d-4c4f-a78d-be767d092a03"},"vehicle_type_id":"4","last_reported":1699553341,"current_range_meters":3600,"station_id":"ce4bhr92rcd13ifvqhrg","pricing_plan_id":"free"},{"bike_id":"6b6c12bf-5bc6-4532-baf4-623f7b17f732","system_id":"levelo_inurba_marseille","lat":43.330442,"lon":5.389148,"is_reserved":false,"is_disabled":false,"rental_uris":{"android":"levelo://app?vid=6b6c12bf-5bc6-4532-baf4-623f7b17f732","ios":"levelo://app?vid=6b6c12bf-5bc6-4532-baf4-623f7b17f732"},"vehicle_type_id":"4","last_reported":1699553341,"current_range_meters":5200,"station_id":"ce4bhr92rcd13ifvqhrg","pricing_plan_id":"free"},{"bike_id":"ae087d49-6790-4e2b-b13b-08d3abf5b7c8","system_id":"levelo_inurba_marseille","lat":43.289741,"lon":5.378306,"is_reserved":false,"is_disabled":false,"rental_uris":{"android":"levelo://app?vid=ae087d49-6790-4e2b-b13b-08d3abf5b7c8","ios":"levelo://app?vid=ae087d49-6790-4e2b-b13b-08d3abf5b7c8"},"vehicle_type_id":"4","last_reported":1699553341,"current_range_meters":1200,"station_id":"ce4bh9p2rcd13ifvqed0","pricing_plan_id":"free"},{"bike_id":"2a3705f5-b53c-40c5-b883-2dff8e5e3355","system_id":"levelo_inurba_marseille","lat":43.29786,"lon":5.39332,"is_reserved":false,"is_disabled":false,"rental_uris":{"android":"levelo://app?vid=2a3705f5-b53c-40c5-b883-2dff8e5e3355","ios":"levelo://app?vid=2a3705f5-b53c-40c5-b883-2dff8e5e3355"},"vehicle_type_id":"4","last_reported":1699553341,"current_range_meters":16800,"station_id":"chh1huq6cuj3fo74tm60","pricing_plan_id":"free"},{"bike_id":"d2c7168c-6441-4561-bb4c-5b134ef86324","system_id":"levelo_inurba_marseille","lat":43.29791,"lon":5.39339,"is_reserved":false,"is_disabled":false,"rental_uris":{"android":"levelo://app?vid=d2c7168c-6441-4561-bb4c-5b134ef86324","ios":"levelo://app?vid=d2c7168c-6441-4561-bb4c-5b134ef86324"},"vehicle_type_id":"4","last_reported":1699553341,"current_range_meters":19600,"station_id":"chh1huq6cuj3fo74tm60","pricing_plan_id":"free"},{"bike_id":"d264f86a-5ec1-46bd-8cac-d5add23327bf","system_id":"levelo_inurba_marseille","lat":43.29788,"lon":5.39336,"is_reserved":false,"is_disabled":false,"rental_uris":{"android":"levelo://app?vid=d264f86a-5ec1-46bd-8cac-d5add23327bf","ios":"levelo://app?vid=d264f86a-5ec1-46bd-8cac-d5add23327bf"},"vehicle_type_id":"4","last_reported":1699553341,"current_range_meters":24400,"station_id":"chh1huq6cuj3fo74tm60","pricing_plan_id":"free"},{"bike_id":"286dff29-61e7-44b2-bf22-a33710337a89","system_id":"levelo_inurba_marseille","lat":43.29515,"lon":5.39051,"is_reserved":false,"is_disabled":false,"rental_uris":{"android":"levelo://app?vid=286dff29-61e7-44b2-bf22-a33710337a89","ios":"levelo://app?vid=286dff29-61e7-44b2-bf22-a33710337a89"},"vehicle_type_id":"4","last_reported":1699553341,"current_range_meters":11600,"station_id":"ce4bh3p2rcd13ifvqdp0","pricing_plan_id":"free"},{"bike_id":"71bbce38-f8b2-4b49-b5b3-4bb3f20e7519","system_id":"levelo_inurba_marseille","lat":43.295119,"lon":5.390549,"is_reserved":false,"is_disabled":false,"rental_uris":{"android":"levelo://app?vid=71bbce38-f8b2-4b49-b5b3-4bb3f20e7519","ios":"levelo://app?vid=71bbce38-f8b2-4b49-b5b3-4bb3f20e7519"},"vehicle_type_id":"4","last_reported":1699553341,"current_range_meters":8800,"station_id":"","pricing_plan_id":"free"},{"bike_id":"3b0b138f-fb8a-464f-be4c-51a2d19a493f","system_id":"levelo_inurba_marseille","lat":43.326523,"lon":5.395113,"is_reserved":false,"is_disabled":false,"rental_uris":{"android":"levelo://app?vid=3b0b138f-fb8a-464f-be4c-51a2d19a493f","ios":"levelo://app?vid=3b0b138f-fb8a-464f-be4c-51a2d19a493f"},"vehicle_type_id":"4","last_reported":1699553341,"current_range_meters":30800,"station_id":"","pricing_plan_id":"free"},{"bike_id":"5b9dba80-0dcd-4596-b1ad-b25b0dacff84","system_id":"levelo_inurba_marseille","lat":43.28856,"lon":5.358371,"is_reserved":false,"is_disabled":false,"rental_uris":{"android":"levelo://app?vid=5b9dba80-0dcd-4596-b1ad-b25b0dacff84","ios":"levelo://app?vid=5b9dba80-0dcd-4596-b1ad-b25b0dacff84"},"vehicle_type_id":"4","last_reported":1699553341,"current_range_meters":12400,"station_id":"ce4bhb12rcd13ifvqem0","pricing_plan_id":"free"},{"bike_id":"a378a789-4720-416d-be69-f501cc705172","system_id":"levelo_inurba_marseille","lat":43.312752,"lon":5.401693,"is_reserved":false,"is_disabled":false,"rental_uris":{"android":"levelo://app?vid=a378a789-4720-416d-be69-f501cc705172","ios":"levelo://app?vid=a378a789-4720-416d-be69-f501cc705172"},"vehicle_type_id":"4","last_reported":1699553341,"current_range_meters":31200,"station_id":"ce4bh092rcd13ifvqd30","pricing_plan_id":"free"},{"bike_id":"7daa38db-3d34-4fff-893e-b78a9366b22d","system_id":"levelo_inurba_marseille","lat":43.30939,"lon":5.40147,"is_reserved":false,"is_disabled":false,"rental_uris":{"android":"levelo://app?vid=7daa38db-3d34-4fff-893e-b78a9366b22d","ios":"levelo://app?vid=7daa38db-3d34-4fff-893e-b78a9366b22d"},"vehicle_type_id":"4","last_reported":1699553341,"current_range_meters":21600,"station_id":"ce4bgvp2rcd13ifvqct0","pricing_plan_id":"free"},{"bike_id":"0a5c5f53-aff0-4492-975d-8659a635da66","system_id":"levelo_inurba_marseille","lat":43.30942,"lon":5.40149,"is_reserved":false,"is_disabled":false,"rental_uris":{"android":"levelo://app?vid=0a5c5f53-aff0-4492-975d-8659a635da66","ios":"levelo://app?vid=0a5c5f53-aff0-4492-975d-8659a635da66"},"vehicle_type_id":"4","last_reported":1699553341,"current_range_meters":24800,"station_id":"ce4bgvp2rcd13ifvqct0","pricing_plan_id":"free"},{"bike_id":"9eccead8-7cf0-47b4-ac1f-99479b80897e","system_id":"levelo_inurba_marseille","lat":43.3375,"lon":5.37455,"is_reserved":false,"is_disabled":false,"rental_uris":{"android":"levelo://app?vid=9eccead8-7cf0-47b4-ac1f-99479b80897e","ios":"levelo://app?vid=9eccead8-7cf0-47b4-ac1f-99479b80897e"},"vehicle_type_id":"4","last_reported":1699553341,"current_range_meters":27200,"station_id":"","pricing_plan_id":"free"},{"bike_id":"bd09714f-edb2-4ebc-891c-b6d72498369c","system_id":"levelo_inurba_marseille","lat":43.31283,"lon":5.40187,"is_reserved":false,"is_disabled":false,"rental_uris":{"android":"levelo://app?vid=bd09714f-edb2-4ebc-891c-b6d72498369c","ios":"levelo://app?vid=bd09714f-edb2-4ebc-891c-b6d72498369c"},"vehicle_type_id":"4","last_reported":1699553341,"current_range_meters":0,"station_id":"ce4bh092rcd13ifvqd30","pricing_plan_id":"free"},{"bike_id":"c338663b-717c-4912-b42c-05d607d37cea","system_id":"levelo_inurba_marseille","lat":43.33761,"lon":5.374335,"is_reserved":false,"is_disabled":false,"rental_uris":{"android":"levelo://app?vid=c338663b-717c-4912-b42c-05d607d37cea","ios":"levelo://app?vid=c338663b-717c-4912-b42c-05d607d37cea"},"vehicle_type_id":"4","last_reported":1699553341,"current_range_meters":20800,"station_id":"","pricing_plan_id":"free"},{"bike_id":"34b8e982-61ce-4d96-9fd9-c827ffe3a48b","system_id":"levelo_inurba_marseille","lat":43.33763,"lon":5.37446,"is_reserved":false,"is_disabled":false,"rental_uris":{"android":"levelo://app?vid=34b8e982-61ce-4d96-9fd9-c827ffe3a48b","ios":"levelo://app?vid=34b8e982-61ce-4d96-9fd9-c827ffe3a48b"},"vehicle_type_id":"4","last_reported":1699553341,"current_range_meters":31200,"station_id":"","pricing_plan_id":"free"},{"bike_id":"61c9606b-5e0c-419f-a3b5-4fe4d535e889","system_id":"levelo_inurba_marseille","lat":43.33037,"lon":5.392367,"is_reserved":false,"is_disabled":false,"rental_uris":{"android":"levelo://app?vid=61c9606b-5e0c-419f-a3b5-4fe4d535e889","ios":"levelo://app?vid=61c9606b-5e0c-419f-a3b5-4fe4d535e889"},"vehicle_type_id":"4","last_reported":1699553341,"current_range_meters":17200,"station_id":"","pricing_plan_id":"free"},{"bike_id":"412f22af-f5a1-4a8d-bff3-e959de16bc38","system_id":"levelo_inurba_marseille","lat":43.301117,"lon":5.398795,"is_reserved":false,"is_disabled":false,"rental_uris":{"android":"levelo://app?vid=412f22af-f5a1-4a8d-bff3-e959de16bc38","ios":"levelo://app?vid=412f22af-f5a1-4a8d-bff3-e959de16bc38"},"vehicle_type_id":"4","last_reported":1699553341,"current_range_meters":2400,"station_id":"ce4bh0h2rcd13ifvqd40","pricing_plan_id":"free"},{"bike_id":"97f8ec8a-7ad4-402b-ad50-a63b0b6c1a68","system_id":"levelo_inurba_marseille","lat":43.301117,"lon":5.398795,"is_reserved":false,"is_disabled":false,"rental_uris":{"android":"levelo://app?vid=97f8ec8a-7ad4-402b-ad50-a63b0b6c1a68","ios":"levelo://app?vid=97f8ec8a-7ad4-402b-ad50-a63b0b6c1a68"},"vehicle_type_id":"4","last_reported":1699553341,"current_range_meters":8000,"station_id":"ce4bh0h2rcd13ifvqd40","pricing_plan_id":"free"},{"bike_id":"bcd99a52-027c-4a5f-bd84-9fb7878e963a","system_id":"levelo_inurba_marseille","lat":43.309277,"lon":5.401937,"is_reserved":false,"is_disabled":false,"rental_uris":{"android":"levelo://app?vid=bcd99a52-027c-4a5f-bd84-9fb7878e963a","ios":"levelo://app?vid=bcd99a52-027c-4a5f-bd84-9fb7878e963a"},"vehicle_type_id":"4","last_reported":1699553341,"current_range_meters":6800,"station_id":"ce4bgvp2rcd13ifvqct0","pricing_plan_id":"free"},{"bike_id":"5a83d4b7-5506-4ad4-9a50-f0208810e123","system_id":"levelo_inurba_marseille","lat":43.301117,"lon":5.398795,"is_reserved":false,"is_disabled":false,"rental_uris":{"android":"levelo://app?vid=5a83d4b7-5506-4ad4-9a50-f0208810e123","ios":"levelo://app?vid=5a83d4b7-5506-4ad4-9a50-f0208810e123"},"vehicle_type_id":"4","last_reported":1699553341,"current_range_meters":15200,"station_id":"ce4bh0h2rcd13ifvqd40","pricing_plan_id":"free"},{"bike_id":"e6834b5c-c231-4eb7-9f89-f8d36a4ce44c","system_id":"levelo_inurba_marseille","lat":43.301117,"lon":5.398795,"is_reserved":false,"is_disabled":false,"rental_uris":{"android":"levelo://app?vid=e6834b5c-c231-4eb7-9f89-f8d36a4ce44c","ios":"levelo://app?vid=e6834b5c-c231-4eb7-9f89-f8d36a4ce44c"},"vehicle_type_id":"4","last_reported":1699553341,"current_range_meters":22800,"station_id":"ce4bh0h2rcd13ifvqd40","pricing_plan_id":"free"},{"bike_id":"4d109214-d440-45ff-b118-f6a5a9ed1861","system_id":"levelo_inurba_marseille","lat":43.301117,"lon":5.398795,"is_reserved":false,"is_disabled":false,"rental_uris":{"android":"levelo://app?vid=4d109214-d440-45ff-b118-f6a5a9ed1861","ios":"levelo://app?vid=4d109214-d440-45ff-b118-f6a5a9ed1861"},"vehicle_type_id":"4","last_reported":1699553341,"current_range_meters":22800,"station_id":"ce4bh0h2rcd13ifvqd40","pricing_plan_id":"free"},{"bike_id":"3f62065f-401c-473d-bc1c-173e1ffae26d","system_id":"levelo_inurba_marseille","lat":43.287187,"lon":5.360691,"is_reserved":false,"is_disabled":false,"rental_uris":{"android":"levelo://app?vid=3f62065f-401c-473d-bc1c-173e1ffae26d","ios":"levelo://app?vid=3f62065f-401c-473d-bc1c-173e1ffae26d"},"vehicle_type_id":"4","last_reported":1699553341,"current_range_meters":20000,"station_id":"","pricing_plan_id":"free"},{"bike_id":"086e5b93-6ba5-43f8-92f8-cf11d417aaab","system_id":"levelo_inurba_marseille","lat":43.295196,"lon":5.39397,"is_reserved":false,"is_disabled":false,"rental_uris":{"android":"levelo://app?vid=086e5b93-6ba5-43f8-92f8-cf11d417aaab","ios":"levelo://app?vid=086e5b93-6ba5-43f8-92f8-cf11d417aaab"},"vehicle_type_id":"4","last_reported":1699553341,"current_range_meters":22800,"station_id":"ce4bh292rcd13ifvqdf0","pricing_plan_id":"free"},{"bike_id":"83d406bf-2d0a-4df6-b7dd-e310e20904f8","system_id":"levelo_inurba_marseille","lat":43.298681,"lon":5.397225,"is_reserved":false,"is_disabled":false,"rental_uris":{"android":"levelo://app?vid=83d406bf-2d0a-4df6-b7dd-e310e20904f8","ios":"levelo://app?vid=83d406bf-2d0a-4df6-b7dd-e310e20904f8"},"vehicle_type_id":"4","last_reported":1699553341,"current_range_meters":25600,"station_id":"ce4bh0h2rcd13ifvqd50","pricing_plan_id":"free"},{"bike_id":"258df88b-16f7-487d-92e1-410a2c4e668c","system_id":"levelo_inurba_marseille","lat":43.286591,"lon":5.363346,"is_reserved":false,"is_disabled":false,"rental_uris":{"android":"levelo://app?vid=258df88b-16f7-487d-92e1-410a2c4e668c","ios":"levelo://app?vid=258df88b-16f7-487d-92e1-410a2c4e668c"},"vehicle_type_id":"4","last_reported":1699553341,"current_range_meters":12400,"station_id":"ce4bhah2rcd13ifvqej0","pricing_plan_id":"free"},{"bike_id":"9759e9b4-0175-449d-93ee-6aab1322035e","system_id":"levelo_inurba_marseille","lat":43.286593,"lon":5.363346,"is_reserved":false,"is_disabled":false,"rental_uris":{"android":"levelo://app?vid=9759e9b4-0175-449d-93ee-6aab1322035e","ios":"levelo://app?vid=9759e9b4-0175-449d-93ee-6aab1322035e"},"vehicle_type_id":"4","last_reported":1699553341,"current_range_meters":14400,"station_id":"ce4bhah2rcd13ifvqej0","pricing_plan_id":"free"},{"bike_id":"e1fcf523-25a4-4769-8686-45855c372211","system_id":"levelo_inurba_marseille","lat":43.298681,"lon":5.397225,"is_reserved":false,"is_disabled":false,"rental_uris":{"android":"levelo://app?vid=e1fcf523-25a4-4769-8686-45855c372211","ios":"levelo://app?vid=e1fcf523-25a4-4769-8686-45855c372211"},"vehicle_type_id":"4","last_reported":1699553341,"current_range_meters":24400,"station_id":"ce4bh0h2rcd13ifvqd50","pricing_plan_id":"free"},{"bike_id":"93269703-9607-43d3-a9c8-9c040bf66747","system_id":"levelo_inurba_marseille","lat":43.286961,"lon":5.373785,"is_reserved":false,"is_disabled":false,"rental_uris":{"android":"levelo://app?vid=93269703-9607-43d3-a9c8-9c040bf66747","ios":"levelo://app?vid=93269703-9607-43d3-a9c8-9c040bf66747"},"vehicle_type_id":"4","last_reported":1699553341,"current_range_meters":2000,"station_id":"ce4bh3p2rcd13ifvqdq0","pricing_plan_id":"free"},{"bike_id":"c6617bd5-3c7c-465e-b6d0-b327491d7a94","system_id":"levelo_inurba_marseille","lat":43.295194,"lon":5.39397,"is_reserved":false,"is_disabled":false,"rental_uris":{"android":"levelo://app?vid=c6617bd5-3c7c-465e-b6d0-b327491d7a94","ios":"levelo://app?vid=c6617bd5-3c7c-465e-b6d0-b327491d7a94"},"vehicle_type_id":"4","last_reported":1699553341,"current_range_meters":24800,"station_id":"ce4bh292rcd13ifvqdf0","pricing_plan_id":"free"},{"bike_id":"76d613ef-a066-4392-8f21-90822d830073","system_id":"levelo_inurba_marseille","lat":43.295194,"lon":5.39397,"is_reserved":false,"is_disabled":false,"rental_uris":{"android":"levelo://app?vid=76d613ef-a066-4392-8f21-90822d830073","ios":"levelo://app?vid=76d613ef-a066-4392-8f21-90822d830073"},"vehicle_type_id":"4","last_reported":1699553341,"current_range_meters":0,"station_id":"ce4bh292rcd13ifvqdf0","pricing_plan_id":"free"},{"bike_id":"a6223c0f-f435-4e55-b118-caf53cff6a49","system_id":"levelo_inurba_marseille","lat":43.295194,"lon":5.39397,"is_reserved":false,"is_disabled":false,"rental_uris":{"android":"levelo://app?vid=a6223c0f-f435-4e55-b118-caf53cff6a49","ios":"levelo://app?vid=a6223c0f-f435-4e55-b118-caf53cff6a49"},"vehicle_type_id":"4","last_reported":1699553341,"current_range_meters":12800,"station_id":"ce4bh292rcd13ifvqdf0","pricing_plan_id":"free"},{"bike_id":"6c5c6854-2a37-42f6-bb29-ed6c154b98ce","system_id":"levelo_inurba_marseille","lat":43.29039,"lon":5.38644,"is_reserved":false,"is_disabled":false,"rental_uris":{"android":"levelo://app?vid=6c5c6854-2a37-42f6-bb29-ed6c154b98ce","ios":"levelo://app?vid=6c5c6854-2a37-42f6-bb29-ed6c154b98ce"},"vehicle_type_id":"4","last_reported":1699553341,"current_range_meters":16800,"station_id":"","pricing_plan_id":"free"},{"bike_id":"4864e48c-b7da-4e9d-a0d4-3e89763ce2e1","system_id":"levelo_inurba_marseille","lat":43.29034,"lon":5.38641,"is_reserved":false,"is_disabled":false,"rental_uris":{"android":"levelo://app?vid=4864e48c-b7da-4e9d-a0d4-3e89763ce2e1","ios":"levelo://app?vid=4864e48c-b7da-4e9d-a0d4-3e89763ce2e1"},"vehicle_type_id":"4","last_reported":1699553341,"current_range_meters":20400,"station_id":"","pricing_plan_id":"free"},{"bike_id":"a5851598-7b7d-4592-b082-8b2bd93e681f","system_id":"levelo_inurba_marseille","lat":43.289289,"lon":5.383972,"is_reserved":false,"is_disabled":false,"rental_uris":{"android":"levelo://app?vid=a5851598-7b7d-4592-b082-8b2bd93e681f","ios":"levelo://app?vid=a5851598-7b7d-4592-b082-8b2bd93e681f"},"vehicle_type_id":"4","last_reported":1699553341,"current_range_meters":8400,"station_id":"ce4bh612rcd13ifvqe6g","pricing_plan_id":"free"},{"bike_id":"6efde94d-0414-4607-ba12-c9805ca6860a","system_id":"levelo_inurba_marseille","lat":43.29032,"lon":5.38643,"is_reserved":false,"is_disabled":false,"rental_uris":{"android":"levelo://app?vid=6efde94d-0414-4607-ba12-c9805ca6860a","ios":"levelo://app?vid=6efde94d-0414-4607-ba12-c9805ca6860a"},"vehicle_type_id":"4","last_reported":1699553341,"current_range_meters":12000,"station_id":"","pricing_plan_id":"free"},{"bike_id":"be0e90bb-fccc-48b8-adb6-ac5501cfd6c2","system_id":"levelo_inurba_marseille","lat":43.2903,"lon":5.38645,"is_reserved":false,"is_disabled":false,"rental_uris":{"android":"levelo://app?vid=be0e90bb-fccc-48b8-adb6-ac5501cfd6c2","ios":"levelo://app?vid=be0e90bb-fccc-48b8-adb6-ac5501cfd6c2"},"vehicle_type_id":"4","last_reported":1699553341,"current_range_meters":27200,"station_id":"","pricing_plan_id":"free"},{"bike_id":"2b92f077-d3c9-4232-bbea-4f0eb0532ae2","system_id":"levelo_inurba_marseille","lat":43.295194,"lon":5.39397,"is_reserved":false,"is_disabled":false,"rental_uris":{"android":"levelo://app?vid=2b92f077-d3c9-4232-bbea-4f0eb0532ae2","ios":"levelo://app?vid=2b92f077-d3c9-4232-bbea-4f0eb0532ae2"},"vehicle_type_id":"4","last_reported":1699553341,"current_range_meters":16800,"station_id":"ce4bh292rcd13ifvqdf0","pricing_plan_id":"free"},{"bike_id":"f18c3be6-db25-4053-942c-53f77d015bc4","system_id":"levelo_inurba_marseille","lat":43.290223,"lon":5.386387,"is_reserved":false,"is_disabled":false,"rental_uris":{"android":"levelo://app?vid=f18c3be6-db25-4053-942c-53f77d015bc4","ios":"levelo://app?vid=f18c3be6-db25-4053-942c-53f77d015bc4"},"vehicle_type_id":"4","last_reported":1699553341,"current_range_meters":0,"station_id":"","pricing_plan_id":"free"},{"bike_id":"dc749483-87e0-43f0-b12a-77104d5d1540","system_id":"levelo_inurba_marseille","lat":43.302759,"lon":5.400793,"is_reserved":false,"is_disabled":false,"rental_uris":{"android":"levelo://app?vid=dc749483-87e0-43f0-b12a-77104d5d1540","ios":"levelo://app?vid=dc749483-87e0-43f0-b12a-77104d5d1540"},"vehicle_type_id":"4","last_reported":1699553341,"current_range_meters":6000,"station_id":"ce4bgvh2rcd13ifvqcs0","pricing_plan_id":"free"},{"bike_id":"702f880a-ac93-4279-b633-822f19bf67c4","system_id":"levelo_inurba_marseille","lat":43.302759,"lon":5.400793,"is_reserved":false,"is_disabled":false,"rental_uris":{"android":"levelo://app?vid=702f880a-ac93-4279-b633-822f19bf67c4","ios":"levelo://app?vid=702f880a-ac93-4279-b633-822f19bf67c4"},"vehicle_type_id":"4","last_reported":1699553341,"current_range_meters":4400,"station_id":"ce4bgvh2rcd13ifvqcs0","pricing_plan_id":"free"},{"bike_id":"bf483d88-5c26-41f1-9f76-27102664c3eb","system_id":"levelo_inurba_marseille","lat":43.2874,"lon":5.37939,"is_reserved":false,"is_disabled":false,"rental_uris":{"android":"levelo://app?vid=bf483d88-5c26-41f1-9f76-27102664c3eb","ios":"levelo://app?vid=bf483d88-5c26-41f1-9f76-27102664c3eb"},"vehicle_type_id":"4","last_reported":1699553341,"current_range_meters":13600,"station_id":"ce4bh9p2rcd13ifvqec0","pricing_plan_id":"free"},{"bike_id":"547fb764-da3e-4b09-874a-d4f7b0f91bc7","system_id":"levelo_inurba_marseille","lat":43.287184,"lon":5.37937,"is_reserved":false,"is_disabled":false,"rental_uris":{"android":"levelo://app?vid=547fb764-da3e-4b09-874a-d4f7b0f91bc7","ios":"levelo://app?vid=547fb764-da3e-4b09-874a-d4f7b0f91bc7"},"vehicle_type_id":"4","last_reported":1699553341,"current_range_meters":20000,"station_id":"ce4bh9p2rcd13ifvqec0","pricing_plan_id":"free"},{"bike_id":"21bf5949-9758-4901-81f9-2dafa9dc78a9","system_id":"levelo_inurba_marseille","lat":43.289927,"lon":5.38793,"is_reserved":false,"is_disabled":false,"rental_uris":{"android":"levelo://app?vid=21bf5949-9758-4901-81f9-2dafa9dc78a9","ios":"levelo://app?vid=21bf5949-9758-4901-81f9-2dafa9dc78a9"},"vehicle_type_id":"4","last_reported":1699553341,"current_range_meters":7200,"station_id":"","pricing_plan_id":"free"},{"bike_id":"e57449c2-d088-47cf-8bf2-271593713c89","system_id":"levelo_inurba_marseille","lat":43.328576,"lon":5.398841,"is_reserved":false,"is_disabled":false,"rental_uris":{"android":"levelo://app?vid=e57449c2-d088-47cf-8bf2-271593713c89","ios":"levelo://app?vid=e57449c2-d088-47cf-8bf2-271593713c89"},"vehicle_type_id":"4","last_reported":1699553341,"current_range_meters":15200,"station_id":"","pricing_plan_id":"free"},{"bike_id":"94af14a7-e47d-4982-bbf0-3c1d6f6d5cbd","system_id":"levelo_inurba_marseille","lat":43.2847,"lon":5.35894,"is_reserved":false,"is_disabled":false,"rental_uris":{"android":"levelo://app?vid=94af14a7-e47d-4982-bbf0-3c1d6f6d5cbd","ios":"levelo://app?vid=94af14a7-e47d-4982-bbf0-3c1d6f6d5cbd"},"vehicle_type_id":"4","last_reported":1699553341,"current_range_meters":31200,"station_id":"ce4bhah2rcd13ifvqei0","pricing_plan_id":"free"},{"bike_id":"aca7b1ee-543a-4c7d-9ad9-2c5022b8b84a","system_id":"levelo_inurba_marseille","lat":43.28467,"lon":5.35896,"is_reserved":false,"is_disabled":false,"rental_uris":{"android":"levelo://app?vid=aca7b1ee-543a-4c7d-9ad9-2c5022b8b84a","ios":"levelo://app?vid=aca7b1ee-543a-4c7d-9ad9-2c5022b8b84a"},"vehicle_type_id":"4","last_reported":1699553341,"current_range_meters":2800,"station_id":"ce4bhah2rcd13ifvqei0","pricing_plan_id":"free"},{"bike_id":"6e399355-2404-4904-926a-86205acf12c2","system_id":"levelo_inurba_marseille","lat":43.28467,"lon":5.35889,"is_reserved":false,"is_disabled":false,"rental_uris":{"android":"levelo://app?vid=6e399355-2404-4904-926a-86205acf12c2","ios":"levelo://app?vid=6e399355-2404-4904-926a-86205acf12c2"},"vehicle_type_id":"4","last_reported":1699553341,"current_range_meters":30400,"station_id":"ce4bhah2rcd13ifvqei0","pricing_plan_id":"free"},{"bike_id":"9bb217ca-3551-4a57-84ab-20784a907507","system_id":"levelo_inurba_marseille","lat":43.28465,"lon":5.35897,"is_reserved":false,"is_disabled":false,"rental_uris":{"android":"levelo://app?vid=9bb217ca-3551-4a57-84ab-20784a907507","ios":"levelo://app?vid=9bb217ca-3551-4a57-84ab-20784a907507"},"vehicle_type_id":"4","last_reported":1699553341,"current_range_meters":31200,"station_id":"ce4bhah2rcd13ifvqei0","pricing_plan_id":"free"},{"bike_id":"eba83380-ac45-4544-a1af-82b3fd23252b","system_id":"levelo_inurba_marseille","lat":43.284534,"lon":5.358662,"is_reserved":false,"is_disabled":false,"rental_uris":{"android":"levelo://app?vid=eba83380-ac45-4544-a1af-82b3fd23252b","ios":"levelo://app?vid=eba83380-ac45-4544-a1af-82b3fd23252b"},"vehicle_type_id":"4","last_reported":1699553341,"current_range_meters":0,"station_id":"ce4bhah2rcd13ifvqei0","pricing_plan_id":"free"},{"bike_id":"4458e2fc-b8b8-430b-b764-d4441a5a2c3d","system_id":"levelo_inurba_marseille","lat":43.284534,"lon":5.358662,"is_reserved":false,"is_disabled":false,"rental_uris":{"android":"levelo://app?vid=4458e2fc-b8b8-430b-b764-d4441a5a2c3d","ios":"levelo://app?vid=4458e2fc-b8b8-430b-b764-d4441a5a2c3d"},"vehicle_type_id":"4","last_reported":1699553341,"current_range_meters":10400,"station_id":"ce4bhah2rcd13ifvqei0","pricing_plan_id":"free"},{"bike_id":"f082430a-f2a0-46af-a8b8-e164bcb5dd18","system_id":"levelo_inurba_marseille","lat":43.284534,"lon":5.358662,"is_reserved":false,"is_disabled":false,"rental_uris":{"android":"levelo://app?vid=f082430a-f2a0-46af-a8b8-e164bcb5dd18","ios":"levelo://app?vid=f082430a-f2a0-46af-a8b8-e164bcb5dd18"},"vehicle_type_id":"4","last_reported":1699553341,"current_range_meters":16800,"station_id":"ce4bhah2rcd13ifvqei0","pricing_plan_id":"free"},{"bike_id":"f64f60a8-efcf-4b49-8740-0076accff48b","system_id":"levelo_inurba_marseille","lat":43.28457,"lon":5.35892,"is_reserved":false,"is_disabled":false,"rental_uris":{"android":"levelo://app?vid=f64f60a8-efcf-4b49-8740-0076accff48b","ios":"levelo://app?vid=f64f60a8-efcf-4b49-8740-0076accff48b"},"vehicle_type_id":"4","last_reported":1699553341,"current_range_meters":27600,"station_id":"ce4bhah2rcd13ifvqei0","pricing_plan_id":"free"},{"bike_id":"08fb3be1-f273-4703-8da7-a1f394ea0df5","system_id":"levelo_inurba_marseille","lat":43.284534,"lon":5.358662,"is_reserved":false,"is_disabled":false,"rental_uris":{"android":"levelo://app?vid=08fb3be1-f273-4703-8da7-a1f394ea0df5","ios":"levelo://app?vid=08fb3be1-f273-4703-8da7-a1f394ea0df5"},"vehicle_type_id":"4","last_reported":1699553341,"current_range_meters":19600,"station_id":"ce4bhah2rcd13ifvqei0","pricing_plan_id":"free"},{"bike_id":"1ca452a7-c44f-4699-a1d9-4abe7d053869","system_id":"levelo_inurba_marseille","lat":43.284534,"lon":5.358662,"is_reserved":false,"is_disabled":false,"rental_uris":{"android":"levelo://app?vid=1ca452a7-c44f-4699-a1d9-4abe7d053869","ios":"levelo://app?vid=1ca452a7-c44f-4699-a1d9-4abe7d053869"},"vehicle_type_id":"4","last_reported":1699553341,"current_range_meters":29200,"station_id":"ce4bhah2rcd13ifvqei0","pricing_plan_id":"free"},{"bike_id":"f1a5d00b-bd6f-4dc5-981a-d34af25438b9","system_id":"levelo_inurba_marseille","lat":43.284534,"lon":5.358662,"is_reserved":false,"is_disabled":false,"rental_uris":{"android":"levelo://app?vid=f1a5d00b-bd6f-4dc5-981a-d34af25438b9","ios":"levelo://app?vid=f1a5d00b-bd6f-4dc5-981a-d34af25438b9"},"vehicle_type_id":"4","last_reported":1699553341,"current_range_meters":24000,"station_id":"ce4bhah2rcd13ifvqei0","pricing_plan_id":"free"},{"bike_id":"9565cfc8-b37d-4444-b5a2-f8d4f08c8cb0","system_id":"levelo_inurba_marseille","lat":43.284534,"lon":5.358662,"is_reserved":false,"is_disabled":false,"rental_uris":{"android":"levelo://app?vid=9565cfc8-b37d-4444-b5a2-f8d4f08c8cb0","ios":"levelo://app?vid=9565cfc8-b37d-4444-b5a2-f8d4f08c8cb0"},"vehicle_type_id":"4","last_reported":1699553341,"current_range_meters":14400,"station_id":"ce4bhah2rcd13ifvqei0","pricing_plan_id":"free"},{"bike_id":"36613931-04c4-45ee-88fc-bc5dada129a7","system_id":"levelo_inurba_marseille","lat":43.284534,"lon":5.358662,"is_reserved":false,"is_disabled":false,"rental_uris":{"android":"levelo://app?vid=36613931-04c4-45ee-88fc-bc5dada129a7","ios":"levelo://app?vid=36613931-04c4-45ee-88fc-bc5dada129a7"},"vehicle_type_id":"4","last_reported":1699553341,"current_range_meters":19600,"station_id":"ce4bhah2rcd13ifvqei0","pricing_plan_id":"free"},{"bike_id":"897f18cd-b6cd-4003-bbf3-8e7e9b0615ce","system_id":"levelo_inurba_marseille","lat":43.284534,"lon":5.358662,"is_reserved":false,"is_disabled":false,"rental_uris":{"android":"levelo://app?vid=897f18cd-b6cd-4003-bbf3-8e7e9b0615ce","ios":"levelo://app?vid=897f18cd-b6cd-4003-bbf3-8e7e9b0615ce"},"vehicle_type_id":"4","last_reported":1699553341,"current_range_meters":18400,"station_id":"ce4bhah2rcd13ifvqei0","pricing_plan_id":"free"},{"bike_id":"5183c6e4-fa58-40ac-8863-b6b72ff08fb7","system_id":"levelo_inurba_marseille","lat":43.28455,"lon":5.35877,"is_reserved":false,"is_disabled":false,"rental_uris":{"android":"levelo://app?vid=5183c6e4-fa58-40ac-8863-b6b72ff08fb7","ios":"levelo://app?vid=5183c6e4-fa58-40ac-8863-b6b72ff08fb7"},"vehicle_type_id":"4","last_reported":1699553341,"current_range_meters":31200,"station_id":"ce4bhah2rcd13ifvqei0","pricing_plan_id":"free"},{"bike_id":"541ce9a2-5d06-4b63-8afd-8383b361cf22","system_id":"levelo_inurba_marseille","lat":43.28449,"lon":5.35893,"is_reserved":false,"is_disabled":false,"rental_uris":{"android":"levelo://app?vid=541ce9a2-5d06-4b63-8afd-8383b361cf22","ios":"levelo://app?vid=541ce9a2-5d06-4b63-8afd-8383b361cf22"},"vehicle_type_id":"4","last_reported":1699553341,"current_range_meters":31200,"station_id":"ce4bhah2rcd13ifvqei0","pricing_plan_id":"free"},{"bike_id":"6adb1855-2ebc-4f9b-a747-7b5f3fa1ac3c","system_id":"levelo_inurba_marseille","lat":43.294314,"lon":5.397498,"is_reserved":false,"is_disabled":false,"rental_uris":{"android":"levelo://app?vid=6adb1855-2ebc-4f9b-a747-7b5f3fa1ac3c","ios":"levelo://app?vid=6adb1855-2ebc-4f9b-a747-7b5f3fa1ac3c"},"vehicle_type_id":"4","last_reported":1699553341,"current_range_meters":21600,"station_id":"ce4bh3h2rcd13ifvqdo0","pricing_plan_id":"free"},{"bike_id":"898a71c4-75b8-4509-aa28-b51fe84fc2d1","system_id":"levelo_inurba_marseille","lat":43.285856,"lon":5.350771,"is_reserved":false,"is_disabled":false,"rental_uris":{"android":"levelo://app?vid=898a71c4-75b8-4509-aa28-b51fe84fc2d1","ios":"levelo://app?vid=898a71c4-75b8-4509-aa28-b51fe84fc2d1"},"vehicle_type_id":"4","last_reported":1699553341,"current_range_meters":24400,"station_id":"ce4bhch2rcd13ifvqeug","pricing_plan_id":"free"},{"bike_id":"e0f424c4-0768-4ab8-9a70-1c013780ba9f","system_id":"levelo_inurba_marseille","lat":43.283998,"lon":5.375062,"is_reserved":false,"is_disabled":false,"rental_uris":{"android":"levelo://app?vid=e0f424c4-0768-4ab8-9a70-1c013780ba9f","ios":"levelo://app?vid=e0f424c4-0768-4ab8-9a70-1c013780ba9f"},"vehicle_type_id":"4","last_reported":1699553341,"current_range_meters":16800,"station_id":"ce4bh412rcd13ifvqds0","pricing_plan_id":"free"},{"bike_id":"ac59dec6-8af5-4279-a7cb-2260d7712b7b","system_id":"levelo_inurba_marseille","lat":43.283998,"lon":5.375062,"is_reserved":false,"is_disabled":false,"rental_uris":{"android":"levelo://app?vid=ac59dec6-8af5-4279-a7cb-2260d7712b7b","ios":"levelo://app?vid=ac59dec6-8af5-4279-a7cb-2260d7712b7b"},"vehicle_type_id":"4","last_reported":1699553341,"current_range_meters":13600,"station_id":"ce4bh412rcd13ifvqds0","pricing_plan_id":"free"},{"bike_id":"8c192401-0a7f-417f-94e0-fb2b8965ffe6","system_id":"levelo_inurba_marseille","lat":43.29558,"lon":5.39946,"is_reserved":false,"is_disabled":false,"rental_uris":{"android":"levelo://app?vid=8c192401-0a7f-417f-94e0-fb2b8965ffe6","ios":"levelo://app?vid=8c192401-0a7f-417f-94e0-fb2b8965ffe6"},"vehicle_type_id":"4","last_reported":1699553341,"current_range_meters":4000,"station_id":"ce4bh312rcd13ifvqdj0","pricing_plan_id":"free"},{"bike_id":"e5e5886b-65dd-4eea-b1ee-181bd260373a","system_id":"levelo_inurba_marseille","lat":43.28411,"lon":5.37515,"is_reserved":false,"is_disabled":false,"rental_uris":{"android":"levelo://app?vid=e5e5886b-65dd-4eea-b1ee-181bd260373a","ios":"levelo://app?vid=e5e5886b-65dd-4eea-b1ee-181bd260373a"},"vehicle_type_id":"4","last_reported":1699553341,"current_range_meters":16000,"station_id":"ce4bh412rcd13ifvqds0","pricing_plan_id":"free"},{"bike_id":"570b3379-3dd5-416d-9f28-092c5e19d27b","system_id":"levelo_inurba_marseille","lat":43.283998,"lon":5.375062,"is_reserved":false,"is_disabled":false,"rental_uris":{"android":"levelo://app?vid=570b3379-3dd5-416d-9f28-092c5e19d27b","ios":"levelo://app?vid=570b3379-3dd5-416d-9f28-092c5e19d27b"},"vehicle_type_id":"4","last_reported":1699553341,"current_range_meters":17600,"station_id":"ce4bh412rcd13ifvqds0","pricing_plan_id":"free"},{"bike_id":"312c69da-9a01-4f47-a7a9-0d656e5444e1","system_id":"levelo_inurba_marseille","lat":43.283998,"lon":5.375062,"is_reserved":false,"is_disabled":false,"rental_uris":{"android":"levelo://app?vid=312c69da-9a01-4f47-a7a9-0d656e5444e1","ios":"levelo://app?vid=312c69da-9a01-4f47-a7a9-0d656e5444e1"},"vehicle_type_id":"4","last_reported":1699553341,"current_range_meters":17200,"station_id":"ce4bh412rcd13ifvqds0","pricing_plan_id":"free"},{"bike_id":"c5236006-5466-405a-af85-5face9114d79","system_id":"levelo_inurba_marseille","lat":43.295713,"lon":5.399639,"is_reserved":false,"is_disabled":false,"rental_uris":{"android":"levelo://app?vid=c5236006-5466-405a-af85-5face9114d79","ios":"levelo://app?vid=c5236006-5466-405a-af85-5face9114d79"},"vehicle_type_id":"4","last_reported":1699553341,"current_range_meters":20800,"station_id":"ce4bh312rcd13ifvqdj0","pricing_plan_id":"free"},{"bike_id":"030625bd-f8ba-4389-9944-df2973894a22","system_id":"levelo_inurba_marseille","lat":43.325746,"lon":5.404204,"is_reserved":false,"is_disabled":false,"rental_uris":{"android":"levelo://app?vid=030625bd-f8ba-4389-9944-df2973894a22","ios":"levelo://app?vid=030625bd-f8ba-4389-9944-df2973894a22"},"vehicle_type_id":"4","last_reported":1699553341,"current_range_meters":8400,"station_id":"","pricing_plan_id":"free"},{"bike_id":"2831ca33-360a-4c1d-bc70-f750b7011f0a","system_id":"levelo_inurba_marseille","lat":43.33717,"lon":5.391857,"is_reserved":false,"is_disabled":false,"rental_uris":{"android":"levelo://app?vid=2831ca33-360a-4c1d-bc70-f750b7011f0a","ios":"levelo://app?vid=2831ca33-360a-4c1d-bc70-f750b7011f0a"},"vehicle_type_id":"4","last_reported":1699553341,"current_range_meters":19600,"station_id":"ce4bhr92rcd13ifvqhsg","pricing_plan_id":"free"},{"bike_id":"c62a31fe-26d8-480d-83d1-44db580000e3","system_id":"levelo_inurba_marseille","lat":43.323464,"lon":5.406297,"is_reserved":false,"is_disabled":false,"rental_uris":{"android":"levelo://app?vid=c62a31fe-26d8-480d-83d1-44db580000e3","ios":"levelo://app?vid=c62a31fe-26d8-480d-83d1-44db580000e3"},"vehicle_type_id":"4","last_reported":1699553341,"current_range_meters":24800,"station_id":"ce4bhq92rcd13ifvqhjg","pricing_plan_id":"free"},{"bike_id":"b2d468ec-c7c2-44f2-b73c-df8949054ecb","system_id":"levelo_inurba_marseille","lat":43.28406,"lon":5.34986,"is_reserved":false,"is_disabled":false,"rental_uris":{"android":"levelo://app?vid=b2d468ec-c7c2-44f2-b73c-df8949054ecb","ios":"levelo://app?vid=b2d468ec-c7c2-44f2-b73c-df8949054ecb"},"vehicle_type_id":"4","last_reported":1699553341,"current_range_meters":15200,"station_id":"ce4bhbh2rcd13ifvqepg","pricing_plan_id":"free"},{"bike_id":"694cc18d-6823-481a-9d09-67d990c2d197","system_id":"levelo_inurba_marseille","lat":43.324289,"lon":5.407562,"is_reserved":false,"is_disabled":false,"rental_uris":{"android":"levelo://app?vid=694cc18d-6823-481a-9d09-67d990c2d197","ios":"levelo://app?vid=694cc18d-6823-481a-9d09-67d990c2d197"},"vehicle_type_id":"4","last_reported":1699553341,"current_range_meters":5200,"station_id":"","pricing_plan_id":"free"},{"bike_id":"a96b8c4c-c907-4f7a-a8fb-88363e53b38b","system_id":"levelo_inurba_marseille","lat":43.28267,"lon":5.35068,"is_reserved":false,"is_disabled":false,"rental_uris":{"android":"levelo://app?vid=a96b8c4c-c907-4f7a-a8fb-88363e53b38b","ios":"levelo://app?vid=a96b8c4c-c907-4f7a-a8fb-88363e53b38b"},"vehicle_type_id":"4","last_reported":1699553341,"current_range_meters":15200,"station_id":"ce4bhbp2rcd13ifvqerg","pricing_plan_id":"free"},{"bike_id":"68b95d7c-fd59-4836-899d-b51fc8504ec1","system_id":"levelo_inurba_marseille","lat":43.282744,"lon":5.350533,"is_reserved":false,"is_disabled":false,"rental_uris":{"android":"levelo://app?vid=68b95d7c-fd59-4836-899d-b51fc8504ec1","ios":"levelo://app?vid=68b95d7c-fd59-4836-899d-b51fc8504ec1"},"vehicle_type_id":"4","last_reported":1699553341,"current_range_meters":22400,"station_id":"ce4bhbp2rcd13ifvqerg","pricing_plan_id":"free"},{"bike_id":"127fab5f-d08b-4b84-b2a6-33091f62848b","system_id":"levelo_inurba_marseille","lat":43.28036,"lon":5.36944,"is_reserved":false,"is_disabled":false,"rental_uris":{"android":"levelo://app?vid=127fab5f-d08b-4b84-b2a6-33091f62848b","ios":"levelo://app?vid=127fab5f-d08b-4b84-b2a6-33091f62848b"},"vehicle_type_id":"4","last_reported":1699553341,"current_range_meters":13600,"station_id":"ce4bha12rcd13ifvqef0","pricing_plan_id":"free"},{"bike_id":"6ce14d11-5c0b-40be-8dc1-99e20a1711f6","system_id":"levelo_inurba_marseille","lat":43.280342,"lon":5.369449,"is_reserved":false,"is_disabled":false,"rental_uris":{"android":"levelo://app?vid=6ce14d11-5c0b-40be-8dc1-99e20a1711f6","ios":"levelo://app?vid=6ce14d11-5c0b-40be-8dc1-99e20a1711f6"},"vehicle_type_id":"4","last_reported":1699553341,"current_range_meters":31200,"station_id":"ce4bha12rcd13ifvqef0","pricing_plan_id":"free"},{"bike_id":"fff8dde6-893b-41e8-a346-955e784dc423","system_id":"levelo_inurba_marseille","lat":43.296263,"lon":5.40601,"is_reserved":false,"is_disabled":false,"rental_uris":{"android":"levelo://app?vid=fff8dde6-893b-41e8-a346-955e784dc423","ios":"levelo://app?vid=fff8dde6-893b-41e8-a346-955e784dc423"},"vehicle_type_id":"4","last_reported":1699553341,"current_range_meters":20000,"station_id":"ce4bh0h2rcd13ifvqd60","pricing_plan_id":"free"},{"bike_id":"1e9b4eab-4785-497e-be1e-4b9d39b6aca2","system_id":"levelo_inurba_marseille","lat":43.29639,"lon":5.40595,"is_reserved":false,"is_disabled":false,"rental_uris":{"android":"levelo://app?vid=1e9b4eab-4785-497e-be1e-4b9d39b6aca2","ios":"levelo://app?vid=1e9b4eab-4785-497e-be1e-4b9d39b6aca2"},"vehicle_type_id":"4","last_reported":1699553341,"current_range_meters":19600,"station_id":"ce4bh0h2rcd13ifvqd60","pricing_plan_id":"free"},{"bike_id":"0eca1d00-5069-4a15-98af-d74e4fb5633f","system_id":"levelo_inurba_marseille","lat":43.303561,"lon":5.410181,"is_reserved":false,"is_disabled":false,"rental_uris":{"android":"levelo://app?vid=0eca1d00-5069-4a15-98af-d74e4fb5633f","ios":"levelo://app?vid=0eca1d00-5069-4a15-98af-d74e4fb5633f"},"vehicle_type_id":"4","last_reported":1699553341,"current_range_meters":22000,"station_id":"","pricing_plan_id":"free"},{"bike_id":"c4bdf0e2-10a6-4480-9bc1-e9ba8b9e58e3","system_id":"levelo_inurba_marseille","lat":43.281044,"lon":5.378308,"is_reserved":false,"is_disabled":false,"rental_uris":{"android":"levelo://app?vid=c4bdf0e2-10a6-4480-9bc1-e9ba8b9e58e3","ios":"levelo://app?vid=c4bdf0e2-10a6-4480-9bc1-e9ba8b9e58e3"},"vehicle_type_id":"4","last_reported":1699553341,"current_range_meters":12400,"station_id":"ce4bha12rcd13ifvqee0","pricing_plan_id":"free"},{"bike_id":"c72aba45-7e49-47f0-b3bf-b7e079d1e215","system_id":"levelo_inurba_marseille","lat":43.281044,"lon":5.378308,"is_reserved":false,"is_disabled":false,"rental_uris":{"android":"levelo://app?vid=c72aba45-7e49-47f0-b3bf-b7e079d1e215","ios":"levelo://app?vid=c72aba45-7e49-47f0-b3bf-b7e079d1e215"},"vehicle_type_id":"4","last_reported":1699553341,"current_range_meters":10800,"station_id":"ce4bha12rcd13ifvqee0","pricing_plan_id":"free"},{"bike_id":"9aad5011-22b0-40a9-bd80-134da98abe83","system_id":"levelo_inurba_marseille","lat":43.281044,"lon":5.378308,"is_reserved":false,"is_disabled":false,"rental_uris":{"android":"levelo://app?vid=9aad5011-22b0-40a9-bd80-134da98abe83","ios":"levelo://app?vid=9aad5011-22b0-40a9-bd80-134da98abe83"},"vehicle_type_id":"4","last_reported":1699553341,"current_range_meters":8800,"station_id":"ce4bha12rcd13ifvqee0","pricing_plan_id":"free"},{"bike_id":"c5269fde-c094-4163-a2ac-a6350e774e3c","system_id":"levelo_inurba_marseille","lat":43.323447,"lon":5.41003,"is_reserved":false,"is_disabled":false,"rental_uris":{"android":"levelo://app?vid=c5269fde-c094-4163-a2ac-a6350e774e3c","ios":"levelo://app?vid=c5269fde-c094-4163-a2ac-a6350e774e3c"},"vehicle_type_id":"4","last_reported":1699553341,"current_range_meters":12400,"station_id":"","pricing_plan_id":"free"},{"bike_id":"bd780957-a21d-4b7a-8e06-839a231a3131","system_id":"levelo_inurba_marseille","lat":43.284462,"lon":5.392121,"is_reserved":false,"is_disabled":false,"rental_uris":{"android":"levelo://app?vid=bd780957-a21d-4b7a-8e06-839a231a3131","ios":"levelo://app?vid=bd780957-a21d-4b7a-8e06-839a231a3131"},"vehicle_type_id":"4","last_reported":1699553341,"current_range_meters":2400,"station_id":"ce4bhoh2rcd13ifvqh5g","pricing_plan_id":"free"},{"bike_id":"583ee048-3674-4ae3-b461-5f3ada9bac14","system_id":"levelo_inurba_marseille","lat":43.284462,"lon":5.392121,"is_reserved":false,"is_disabled":false,"rental_uris":{"android":"levelo://app?vid=583ee048-3674-4ae3-b461-5f3ada9bac14","ios":"levelo://app?vid=583ee048-3674-4ae3-b461-5f3ada9bac14"},"vehicle_type_id":"4","last_reported":1699553341,"current_range_meters":1600,"station_id":"ce4bhoh2rcd13ifvqh5g","pricing_plan_id":"free"},{"bike_id":"8315482e-ac0d-4d55-b6b0-b404be1d8833","system_id":"levelo_inurba_marseille","lat":43.284462,"lon":5.392121,"is_reserved":false,"is_disabled":false,"rental_uris":{"android":"levelo://app?vid=8315482e-ac0d-4d55-b6b0-b404be1d8833","ios":"levelo://app?vid=8315482e-ac0d-4d55-b6b0-b404be1d8833"},"vehicle_type_id":"4","last_reported":1699553341,"current_range_meters":12000,"station_id":"ce4bhoh2rcd13ifvqh5g","pricing_plan_id":"free"},{"bike_id":"ee7f6d15-276d-4db3-997d-c817ba18b172","system_id":"levelo_inurba_marseille","lat":43.284462,"lon":5.392121,"is_reserved":false,"is_disabled":false,"rental_uris":{"android":"levelo://app?vid=ee7f6d15-276d-4db3-997d-c817ba18b172","ios":"levelo://app?vid=ee7f6d15-276d-4db3-997d-c817ba18b172"},"vehicle_type_id":"4","last_reported":1699553341,"current_range_meters":17200,"station_id":"ce4bhoh2rcd13ifvqh5g","pricing_plan_id":"free"},{"bike_id":"510944e7-4003-463a-8008-dbb47fce63a8","system_id":"levelo_inurba_marseille","lat":43.284462,"lon":5.392121,"is_reserved":false,"is_disabled":false,"rental_uris":{"android":"levelo://app?vid=510944e7-4003-463a-8008-dbb47fce63a8","ios":"levelo://app?vid=510944e7-4003-463a-8008-dbb47fce63a8"},"vehicle_type_id":"4","last_reported":1699553341,"current_range_meters":2400,"station_id":"ce4bhoh2rcd13ifvqh5g","pricing_plan_id":"free"},{"bike_id":"0ca7aed1-96ca-4dc8-a493-ad8ee97a56e1","system_id":"levelo_inurba_marseille","lat":43.29729,"lon":5.40812,"is_reserved":false,"is_disabled":false,"rental_uris":{"android":"levelo://app?vid=0ca7aed1-96ca-4dc8-a493-ad8ee97a56e1","ios":"levelo://app?vid=0ca7aed1-96ca-4dc8-a493-ad8ee97a56e1"},"vehicle_type_id":"4","last_reported":1699553341,"current_range_meters":16400,"station_id":"","pricing_plan_id":"free"},{"bike_id":"5117a021-3772-42f2-b0b5-b7ee167d4edf","system_id":"levelo_inurba_marseille","lat":43.284462,"lon":5.392121,"is_reserved":false,"is_disabled":false,"rental_uris":{"android":"levelo://app?vid=5117a021-3772-42f2-b0b5-b7ee167d4edf","ios":"levelo://app?vid=5117a021-3772-42f2-b0b5-b7ee167d4edf"},"vehicle_type_id":"4","last_reported":1699553341,"current_range_meters":14400,"station_id":"ce4bhoh2rcd13ifvqh5g","pricing_plan_id":"free"},{"bike_id":"41d8359c-0b99-4e39-87c1-35bc1d1de094","system_id":"levelo_inurba_marseille","lat":43.28573,"lon":5.394992,"is_reserved":false,"is_disabled":false,"rental_uris":{"android":"levelo://app?vid=41d8359c-0b99-4e39-87c1-35bc1d1de094","ios":"levelo://app?vid=41d8359c-0b99-4e39-87c1-35bc1d1de094"},"vehicle_type_id":"4","last_reported":1699553341,"current_range_meters":10800,"station_id":"ce4bh292rcd13ifvqdg0","pricing_plan_id":"free"},{"bike_id":"faf09b53-e562-4ae9-ae94-323bf3cb9ce0","system_id":"levelo_inurba_marseille","lat":43.304188,"lon":5.412904,"is_reserved":false,"is_disabled":false,"rental_uris":{"android":"levelo://app?vid=faf09b53-e562-4ae9-ae94-323bf3cb9ce0","ios":"levelo://app?vid=faf09b53-e562-4ae9-ae94-323bf3cb9ce0"},"vehicle_type_id":"4","last_reported":1699553341,"current_range_meters":25200,"station_id":"ce4bhop2rcd13ifvqh8g","pricing_plan_id":"free"},{"bike_id":"e8918fc3-4771-4c5d-86f3-8b6f6e21e0f7","system_id":"levelo_inurba_marseille","lat":43.304188,"lon":5.412904,"is_reserved":false,"is_disabled":false,"rental_uris":{"android":"levelo://app?vid=e8918fc3-4771-4c5d-86f3-8b6f6e21e0f7","ios":"levelo://app?vid=e8918fc3-4771-4c5d-86f3-8b6f6e21e0f7"},"vehicle_type_id":"4","last_reported":1699553341,"current_range_meters":26800,"station_id":"ce4bhop2rcd13ifvqh8g","pricing_plan_id":"free"},{"bike_id":"22d3ef47-f0b0-42f5-a62d-28da5192f337","system_id":"levelo_inurba_marseille","lat":43.304188,"lon":5.412904,"is_reserved":false,"is_disabled":false,"rental_uris":{"android":"levelo://app?vid=22d3ef47-f0b0-42f5-a62d-28da5192f337","ios":"levelo://app?vid=22d3ef47-f0b0-42f5-a62d-28da5192f337"},"vehicle_type_id":"4","last_reported":1699553341,"current_range_meters":18000,"station_id":"ce4bhop2rcd13ifvqh8g","pricing_plan_id":"free"},{"bike_id":"d35fd685-a972-46c8-9325-fa8e082ffe24","system_id":"levelo_inurba_marseille","lat":43.304188,"lon":5.412904,"is_reserved":false,"is_disabled":false,"rental_uris":{"android":"levelo://app?vid=d35fd685-a972-46c8-9325-fa8e082ffe24","ios":"levelo://app?vid=d35fd685-a972-46c8-9325-fa8e082ffe24"},"vehicle_type_id":"4","last_reported":1699553341,"current_range_meters":26000,"station_id":"ce4bhop2rcd13ifvqh8g","pricing_plan_id":"free"},{"bike_id":"6f0bcf82-21bf-4669-b241-eaee42ec6c90","system_id":"levelo_inurba_marseille","lat":43.27906,"lon":5.38018,"is_reserved":false,"is_disabled":false,"rental_uris":{"android":"levelo://app?vid=6f0bcf82-21bf-4669-b241-eaee42ec6c90","ios":"levelo://app?vid=6f0bcf82-21bf-4669-b241-eaee42ec6c90"},"vehicle_type_id":"4","last_reported":1699553341,"current_range_meters":22000,"station_id":"ce4bhf92rcd13ifvqf50","pricing_plan_id":"free"},{"bike_id":"51cc9160-e7b0-41ef-9406-7ede4c295e59","system_id":"levelo_inurba_marseille","lat":43.27903,"lon":5.38004,"is_reserved":false,"is_disabled":false,"rental_uris":{"android":"levelo://app?vid=51cc9160-e7b0-41ef-9406-7ede4c295e59","ios":"levelo://app?vid=51cc9160-e7b0-41ef-9406-7ede4c295e59"},"vehicle_type_id":"4","last_reported":1699553341,"current_range_meters":28400,"station_id":"ce4bhf92rcd13ifvqf50","pricing_plan_id":"free"},{"bike_id":"ed8fcb6d-ee1f-4c23-819c-b59abdafd18a","system_id":"levelo_inurba_marseille","lat":43.287154,"lon":5.399979,"is_reserved":false,"is_disabled":false,"rental_uris":{"android":"levelo://app?vid=ed8fcb6d-ee1f-4c23-819c-b59abdafd18a","ios":"levelo://app?vid=ed8fcb6d-ee1f-4c23-819c-b59abdafd18a"},"vehicle_type_id":"4","last_reported":1699553341,"current_range_meters":400,"station_id":"ce4bho92rcd13ifvqh3g","pricing_plan_id":"free"},{"bike_id":"477b090a-0af2-4c07-8b19-66ebc1a825fb","system_id":"levelo_inurba_marseille","lat":43.287154,"lon":5.399979,"is_reserved":false,"is_disabled":false,"rental_uris":{"android":"levelo://app?vid=477b090a-0af2-4c07-8b19-66ebc1a825fb","ios":"levelo://app?vid=477b090a-0af2-4c07-8b19-66ebc1a825fb"},"vehicle_type_id":"4","last_reported":1699553341,"current_range_meters":14800,"station_id":"ce4bho92rcd13ifvqh3g","pricing_plan_id":"free"},{"bike_id":"feca28d2-7019-4e39-96be-d7938cc29597","system_id":"levelo_inurba_marseille","lat":43.32435,"lon":5.4137,"is_reserved":false,"is_disabled":false,"rental_uris":{"android":"levelo://app?vid=feca28d2-7019-4e39-96be-d7938cc29597","ios":"levelo://app?vid=feca28d2-7019-4e39-96be-d7938cc29597"},"vehicle_type_id":"4","last_reported":1699553341,"current_range_meters":28400,"station_id":"","pricing_plan_id":"free"},{"bike_id":"e6c5adff-0bc9-4a02-bb19-2c786d9e3182","system_id":"levelo_inurba_marseille","lat":43.299577,"lon":5.413277,"is_reserved":false,"is_disabled":false,"rental_uris":{"android":"levelo://app?vid=e6c5adff-0bc9-4a02-bb19-2c786d9e3182","ios":"levelo://app?vid=e6c5adff-0bc9-4a02-bb19-2c786d9e3182"},"vehicle_type_id":"4","last_reported":1699553341,"current_range_meters":31200,"station_id":"ce4bhp12rcd13ifvqh9g","pricing_plan_id":"free"},{"bike_id":"142e7430-4d40-4efc-b015-f8f732036a63","system_id":"levelo_inurba_marseille","lat":43.320045,"lon":5.415048,"is_reserved":false,"is_disabled":false,"rental_uris":{"android":"levelo://app?vid=142e7430-4d40-4efc-b015-f8f732036a63","ios":"levelo://app?vid=142e7430-4d40-4efc-b015-f8f732036a63"},"vehicle_type_id":"4","last_reported":1699553341,"current_range_meters":6800,"station_id":"ce4bhq92rcd13ifvqhkg","pricing_plan_id":"free"},{"bike_id":"fca9dd44-5c95-4638-a671-789d44f662e0","system_id":"levelo_inurba_marseille","lat":43.279742,"lon":5.38744,"is_reserved":false,"is_disabled":false,"rental_uris":{"android":"levelo://app?vid=fca9dd44-5c95-4638-a671-789d44f662e0","ios":"levelo://app?vid=fca9dd44-5c95-4638-a671-789d44f662e0"},"vehicle_type_id":"4","last_reported":1699553341,"current_range_meters":18800,"station_id":"ce4bhg12rcd13ifvqf80","pricing_plan_id":"free"},{"bike_id":"bbd0c6fa-e73b-4aa5-9f2f-e31d9a878e22","system_id":"levelo_inurba_marseille","lat":43.27968,"lon":5.38734,"is_reserved":false,"is_disabled":false,"rental_uris":{"android":"levelo://app?vid=bbd0c6fa-e73b-4aa5-9f2f-e31d9a878e22","ios":"levelo://app?vid=bbd0c6fa-e73b-4aa5-9f2f-e31d9a878e22"},"vehicle_type_id":"4","last_reported":1699553341,"current_range_meters":19600,"station_id":"ce4bhg12rcd13ifvqf80","pricing_plan_id":"free"},{"bike_id":"2fa99b31-dfe0-4c2b-a66a-1dc3901f5398","system_id":"levelo_inurba_marseille","lat":43.27967,"lon":5.387511,"is_reserved":false,"is_disabled":false,"rental_uris":{"android":"levelo://app?vid=2fa99b31-dfe0-4c2b-a66a-1dc3901f5398","ios":"levelo://app?vid=2fa99b31-dfe0-4c2b-a66a-1dc3901f5398"},"vehicle_type_id":"4","last_reported":1699553341,"current_range_meters":8400,"station_id":"ce4bhg12rcd13ifvqf80","pricing_plan_id":"free"},{"bike_id":"fd2679e8-8b63-4155-84ea-07b51df709d4","system_id":"levelo_inurba_marseille","lat":43.27621,"lon":5.36103,"is_reserved":false,"is_disabled":false,"rental_uris":{"android":"levelo://app?vid=fd2679e8-8b63-4155-84ea-07b51df709d4","ios":"levelo://app?vid=fd2679e8-8b63-4155-84ea-07b51df709d4"},"vehicle_type_id":"4","last_reported":1699553341,"current_range_meters":6400,"station_id":"ce4bgj92rcd13ifvqbe0","pricing_plan_id":"free"},{"bike_id":"8ef4c078-c706-46bb-b69b-6760b0126930","system_id":"levelo_inurba_marseille","lat":43.27609,"lon":5.36115,"is_reserved":false,"is_disabled":false,"rental_uris":{"android":"levelo://app?vid=8ef4c078-c706-46bb-b69b-6760b0126930","ios":"levelo://app?vid=8ef4c078-c706-46bb-b69b-6760b0126930"},"vehicle_type_id":"4","last_reported":1699553341,"current_range_meters":20400,"station_id":"ce4bgj92rcd13ifvqbe0","pricing_plan_id":"free"},{"bike_id":"95298c78-7550-44fb-88c4-5465944915ab","system_id":"levelo_inurba_marseille","lat":43.280784,"lon":5.396622,"is_reserved":false,"is_disabled":false,"rental_uris":{"android":"levelo://app?vid=95298c78-7550-44fb-88c4-5465944915ab","ios":"levelo://app?vid=95298c78-7550-44fb-88c4-5465944915ab"},"vehicle_type_id":"4","last_reported":1699553341,"current_range_meters":13200,"station_id":"ce4bho12rcd13ifvqh2g","pricing_plan_id":"free"},{"bike_id":"7ac161bf-681a-4524-9549-996bb7d6634b","system_id":"levelo_inurba_marseille","lat":43.303837,"lon":5.418724,"is_reserved":false,"is_disabled":false,"rental_uris":{"android":"levelo://app?vid=7ac161bf-681a-4524-9549-996bb7d6634b","ios":"levelo://app?vid=7ac161bf-681a-4524-9549-996bb7d6634b"},"vehicle_type_id":"4","last_reported":1699553341,"current_range_meters":4400,"station_id":"ce4bhop2rcd13ifvqh7g","pricing_plan_id":"free"},{"bike_id":"97598cd6-ed42-481a-bdee-ee5504d2ed94","system_id":"levelo_inurba_marseille","lat":43.303837,"lon":5.418724,"is_reserved":false,"is_disabled":false,"rental_uris":{"android":"levelo://app?vid=97598cd6-ed42-481a-bdee-ee5504d2ed94","ios":"levelo://app?vid=97598cd6-ed42-481a-bdee-ee5504d2ed94"},"vehicle_type_id":"4","last_reported":1699553341,"current_range_meters":10000,"station_id":"ce4bhop2rcd13ifvqh7g","pricing_plan_id":"free"},{"bike_id":"dd3b5139-20d2-4954-9300-648e01acdad1","system_id":"levelo_inurba_marseille","lat":43.278401,"lon":5.392152,"is_reserved":false,"is_disabled":false,"rental_uris":{"android":"levelo://app?vid=dd3b5139-20d2-4954-9300-648e01acdad1","ios":"levelo://app?vid=dd3b5139-20d2-4954-9300-648e01acdad1"},"vehicle_type_id":"4","last_reported":1699553341,"current_range_meters":14800,"station_id":"ce4bhjp2rcd13ifvqga0","pricing_plan_id":"free"},{"bike_id":"71e8327c-d863-4739-9a62-848f075201cc","system_id":"levelo_inurba_marseille","lat":43.303837,"lon":5.418724,"is_reserved":false,"is_disabled":false,"rental_uris":{"android":"levelo://app?vid=71e8327c-d863-4739-9a62-848f075201cc","ios":"levelo://app?vid=71e8327c-d863-4739-9a62-848f075201cc"},"vehicle_type_id":"4","last_reported":1699553341,"current_range_meters":9600,"station_id":"ce4bhop2rcd13ifvqh7g","pricing_plan_id":"free"},{"bike_id":"6266de1b-9a04-4f16-90e6-4c5d7b6f3f86","system_id":"levelo_inurba_marseille","lat":43.278401,"lon":5.392152,"is_reserved":false,"is_disabled":false,"rental_uris":{"android":"levelo://app?vid=6266de1b-9a04-4f16-90e6-4c5d7b6f3f86","ios":"levelo://app?vid=6266de1b-9a04-4f16-90e6-4c5d7b6f3f86"},"vehicle_type_id":"4","last_reported":1699553341,"current_range_meters":3200,"station_id":"ce4bhjp2rcd13ifvqga0","pricing_plan_id":"free"},{"bike_id":"5c0a8fec-1c57-4ce1-8ad2-6d2b6c79a838","system_id":"levelo_inurba_marseille","lat":43.278399,"lon":5.392139,"is_reserved":false,"is_disabled":false,"rental_uris":{"android":"levelo://app?vid=5c0a8fec-1c57-4ce1-8ad2-6d2b6c79a838","ios":"levelo://app?vid=5c0a8fec-1c57-4ce1-8ad2-6d2b6c79a838"},"vehicle_type_id":"4","last_reported":1699553341,"current_range_meters":18800,"station_id":"ce4bhjp2rcd13ifvqga0","pricing_plan_id":"free"},{"bike_id":"3b4be9b6-eba4-41ae-9599-58c6e10804ab","system_id":"levelo_inurba_marseille","lat":43.273613,"lon":5.362705,"is_reserved":false,"is_disabled":false,"rental_uris":{"android":"levelo://app?vid=3b4be9b6-eba4-41ae-9599-58c6e10804ab","ios":"levelo://app?vid=3b4be9b6-eba4-41ae-9599-58c6e10804ab"},"vehicle_type_id":"4","last_reported":1699553341,"current_range_meters":2400,"station_id":"ce4bhbh2rcd13ifvqeo0","pricing_plan_id":"free"},{"bike_id":"0f224741-7d64-4aa7-b486-da97b5a87a11","system_id":"levelo_inurba_marseille","lat":43.273613,"lon":5.362705,"is_reserved":false,"is_disabled":false,"rental_uris":{"android":"levelo://app?vid=0f224741-7d64-4aa7-b486-da97b5a87a11","ios":"levelo://app?vid=0f224741-7d64-4aa7-b486-da97b5a87a11"},"vehicle_type_id":"4","last_reported":1699553341,"current_range_meters":31200,"station_id":"ce4bhbh2rcd13ifvqeo0","pricing_plan_id":"free"},{"bike_id":"2253f419-3f3b-483f-878d-61f38ea5f5ad","system_id":"levelo_inurba_marseille","lat":43.273613,"lon":5.362705,"is_reserved":false,"is_disabled":false,"rental_uris":{"android":"levelo://app?vid=2253f419-3f3b-483f-878d-61f38ea5f5ad","ios":"levelo://app?vid=2253f419-3f3b-483f-878d-61f38ea5f5ad"},"vehicle_type_id":"4","last_reported":1699553341,"current_range_meters":16000,"station_id":"ce4bhbh2rcd13ifvqeo0","pricing_plan_id":"free"},{"bike_id":"81e918fb-0f57-4844-a90a-5b1815db3f85","system_id":"levelo_inurba_marseille","lat":43.275625,"lon":5.384392,"is_reserved":false,"is_disabled":false,"rental_uris":{"android":"levelo://app?vid=81e918fb-0f57-4844-a90a-5b1815db3f85","ios":"levelo://app?vid=81e918fb-0f57-4844-a90a-5b1815db3f85"},"vehicle_type_id":"4","last_reported":1699553341,"current_range_meters":15200,"station_id":"ce4bhh92rcd13ifvqfi0","pricing_plan_id":"free"},{"bike_id":"e6471ae2-a50e-42e9-ba26-e1efc6818b50","system_id":"levelo_inurba_marseille","lat":43.275463,"lon":5.384267,"is_reserved":false,"is_disabled":false,"rental_uris":{"android":"levelo://app?vid=e6471ae2-a50e-42e9-ba26-e1efc6818b50","ios":"levelo://app?vid=e6471ae2-a50e-42e9-ba26-e1efc6818b50"},"vehicle_type_id":"4","last_reported":1699553341,"current_range_meters":0,"station_id":"ce4bhh92rcd13ifvqfi0","pricing_plan_id":"free"},{"bike_id":"72d8abaa-ca2f-42b1-bc80-c55951b73c76","system_id":"levelo_inurba_marseille","lat":43.279952,"lon":5.400085,"is_reserved":false,"is_disabled":false,"rental_uris":{"android":"levelo://app?vid=72d8abaa-ca2f-42b1-bc80-c55951b73c76","ios":"levelo://app?vid=72d8abaa-ca2f-42b1-bc80-c55951b73c76"},"vehicle_type_id":"4","last_reported":1699553341,"current_range_meters":4000,"station_id":"ce4bho92rcd13ifvqh4g","pricing_plan_id":"free"},{"bike_id":"2ea5f13d-a3b6-4a6e-9db3-4ccdcbfd4a38","system_id":"levelo_inurba_marseille","lat":43.27996,"lon":5.4001,"is_reserved":false,"is_disabled":false,"rental_uris":{"android":"levelo://app?vid=2ea5f13d-a3b6-4a6e-9db3-4ccdcbfd4a38","ios":"levelo://app?vid=2ea5f13d-a3b6-4a6e-9db3-4ccdcbfd4a38"},"vehicle_type_id":"4","last_reported":1699553341,"current_range_meters":30000,"station_id":"ce4bho92rcd13ifvqh4g","pricing_plan_id":"free"},{"bike_id":"f27d42d5-669f-447c-b0ca-e63693bf68ee","system_id":"levelo_inurba_marseille","lat":43.28001,"lon":5.40021,"is_reserved":false,"is_disabled":false,"rental_uris":{"android":"levelo://app?vid=f27d42d5-669f-447c-b0ca-e63693bf68ee","ios":"levelo://app?vid=f27d42d5-669f-447c-b0ca-e63693bf68ee"},"vehicle_type_id":"4","last_reported":1699553341,"current_range_meters":27600,"station_id":"ce4bho92rcd13ifvqh4g","pricing_plan_id":"free"},{"bike_id":"fe56b5cc-99df-4a31-9488-24eba0f17beb","system_id":"levelo_inurba_marseille","lat":43.31085,"lon":5.4243,"is_reserved":false,"is_disabled":false,"rental_uris":{"android":"levelo://app?vid=fe56b5cc-99df-4a31-9488-24eba0f17beb","ios":"levelo://app?vid=fe56b5cc-99df-4a31-9488-24eba0f17beb"},"vehicle_type_id":"4","last_reported":1699553341,"current_range_meters":15200,"station_id":"ce4bhp92rcd13ifvqhag","pricing_plan_id":"free"},{"bike_id":"ce6abdd7-bb8c-4682-aa70-e3b35d329eb1","system_id":"levelo_inurba_marseille","lat":43.310785,"lon":5.424305,"is_reserved":false,"is_disabled":false,"rental_uris":{"android":"levelo://app?vid=ce6abdd7-bb8c-4682-aa70-e3b35d329eb1","ios":"levelo://app?vid=ce6abdd7-bb8c-4682-aa70-e3b35d329eb1"},