{"last_updated":1691089484,"ttl":30,"version":"2.2","data":{"bikes":[{"bike_id":"16871687-e459-479c-aff9-f26964973e6e","system_id":"levelo_inurba_marseille","lat":43.30906,"lon":5.36854,"is_reserved":false,"is_disabled":false,"rental_uris":{"android":"levelo://app?vid=16871687-e459-479c-aff9-f26964973e6e","ios":"levelo://app?vid=16871687-e459-479c-aff9-f26964973e6e"},"vehicle_type_id":"4","last_reported":1691089484,"current_range_meters":18000,"station_id":"ce4bgn92rcd13ifvqbvg","pricing_plan_id":"free"},{"bike_id":"9d97aa94-e692-4512-b44e-7fc86d0a9818","system_id":"levelo_inurba_marseille","lat":43.314811,"lon":5.373103,"is_reserved":false,"is_disabled":false,"rental_uris":{"android":"levelo://app?vid=9d97aa94-e692-4512-b44e-7fc86d0a9818","ios":"levelo://app?vid=9d97aa94-e692-4512-b44e-7fc86d0a9818"},"vehicle_type_id":"4","last_reported":1691089484,"current_range_meters":18000,"station_id":"ce4bgt12rcd13ifvqcd0","pricing_plan_id":"free"},{"bike_id":"caa0c2c8-e47b-405c-8957-788436d6398f","system_id":"levelo_inurba_marseille","lat":43.314811,"lon":5.373103,"is_reserved":false,"is_disabled":false,"rental_uris":{"android":"levelo://app?vid=caa0c2c8-e47b-405c-8957-788436d6398f","ios":"levelo://app?vid=caa0c2c8-e47b-405c-8957-788436d6398f"},"vehicle_type_id":"4","last_reported":1691089484,"current_range_meters":22800,"station_id":"ce4bgt12rcd13ifvqcd0","pricing_plan_id":"free"},{"bike_id":"a446dfe3-da0a-4b4a-800c-e1d13b1051ff","system_id":"levelo_inurba_marseille","lat":43.314811,"lon":5.373103,"is_reserved":false,"is_disabled":false,"rental_uris":{"android":"levelo://app?vid=a446dfe3-da0a-4b4a-800c-e1d13b1051ff","ios":"levelo://app?vid=a446dfe3-da0a-4b4a-800c-e1d13b1051ff"},"vehicle_type_id":"4","last_reported":1691089484,"current_range_meters":7200,"station_id":"ce4bgt12rcd13ifvqcd0","pricing_plan_id":"free"},{"bike_id":"6fd05439-eec5-4c60-861e-ff81b9fabcf7","system_id":"levelo_inurba_marseille","lat":43.30912,"lon":5.37197,"is_reserved":false,"is_disabled":false,"rental_uris":{"android":"levelo://app?vid=6fd05439-eec5-4c60-861e-ff81b9fabcf7","ios":"levelo://app?vid=6fd05439-eec5-4c60-861e-ff81b9fabcf7"},"vehicle_type_id":"4","last_reported":1691089484,"current_range_meters":4400,"station_id":"ce4bguh2rcd13ifvqckg","pricing_plan_id":"free"},{"bike_id":"9e20f0d8-4beb-4836-aad4-7ca5d8c45a9a","system_id":"levelo_inurba_marseille","lat":43.309039,"lon":5.371797,"is_reserved":false,"is_disabled":false,"rental_uris":{"android":"levelo://app?vid=9e20f0d8-4beb-4836-aad4-7ca5d8c45a9a","ios":"levelo://app?vid=9e20f0d8-4beb-4836-aad4-7ca5d8c45a9a"},"vehicle_type_id":"4","last_reported":1691089484,"current_range_meters":8800,"station_id":"ce4bguh2rcd13ifvqckg","pricing_plan_id":"free"},{"bike_id":"7cfb81a3-fd7f-41d1-987d-c1037b7c6b4a","system_id":"levelo_inurba_marseille","lat":43.31463,"lon":5.37492,"is_reserved":false,"is_disabled":false,"rental_uris":{"android":"levelo://app?vid=7cfb81a3-fd7f-41d1-987d-c1037b7c6b4a","ios":"levelo://app?vid=7cfb81a3-fd7f-41d1-987d-c1037b7c6b4a"},"vehicle_type_id":"4","last_reported":1691089484,"current_range_meters":21200,"station_id":"","pricing_plan_id":"free"},{"bike_id":"77b4001a-0586-4a10-8d53-fdb810144308","system_id":"levelo_inurba_marseille","lat":43.305989,"lon":5.37225,"is_reserved":false,"is_disabled":false,"rental_uris":{"android":"levelo://app?vid=77b4001a-0586-4a10-8d53-fdb810144308","ios":"levelo://app?vid=77b4001a-0586-4a10-8d53-fdb810144308"},"vehicle_type_id":"4","last_reported":1691089484,"current_range_meters":30000,"station_id":"ce4bgqh2rcd13ifvqc4g","pricing_plan_id":"free"},{"bike_id":"272b8031-866b-4796-9d5a-49c2d328adb7","system_id":"levelo_inurba_marseille","lat":43.305989,"lon":5.37225,"is_reserved":false,"is_disabled":false,"rental_uris":{"android":"levelo://app?vid=272b8031-866b-4796-9d5a-49c2d328adb7","ios":"levelo://app?vid=272b8031-866b-4796-9d5a-49c2d328adb7"},"vehicle_type_id":"4","last_reported":1691089484,"current_range_meters":27200,"station_id":"ce4bgqh2rcd13ifvqc4g","pricing_plan_id":"free"},{"bike_id":"c2acfad2-d850-43c6-b823-4ca247d31c6a","system_id":"levelo_inurba_marseille","lat":43.305989,"lon":5.37225,"is_reserved":false,"is_disabled":false,"rental_uris":{"android":"levelo://app?vid=c2acfad2-d850-43c6-b823-4ca247d31c6a","ios":"levelo://app?vid=c2acfad2-d850-43c6-b823-4ca247d31c6a"},"vehicle_type_id":"4","last_reported":1691089484,"current_range_meters":17200,"station_id":"ce4bgqh2rcd13ifvqc4g","pricing_plan_id":"free"},{"bike_id":"d854ef27-5dbd-4bab-9429-1c329b7ad794","system_id":"levelo_inurba_marseille","lat":43.30595,"lon":5.37215,"is_reserved":false,"is_disabled":false,"rental_uris":{"android":"levelo://app?vid=d854ef27-5dbd-4bab-9429-1c329b7ad794","ios":"levelo://app?vid=d854ef27-5dbd-4bab-9429-1c329b7ad794"},"vehicle_type_id":"4","last_reported":1691089484,"current_range_meters":30000,"station_id":"ce4bgqh2rcd13ifvqc4g","pricing_plan_id":"free"},{"bike_id":"f20ea888-8740-440b-bfeb-8eb2a7c1f652","system_id":"levelo_inurba_marseille","lat":43.30588,"lon":5.37209,"is_reserved":false,"is_disabled":false,"rental_uris":{"android":"levelo://app?vid=f20ea888-8740-440b-bfeb-8eb2a7c1f652","ios":"levelo://app?vid=f20ea888-8740-440b-bfeb-8eb2a7c1f652"},"vehicle_type_id":"4","last_reported":1691089484,"current_range_meters":31200,"station_id":"ce4bgqh2rcd13ifvqc4g","pricing_plan_id":"free"},{"bike_id":"92c586dd-066e-4d65-ab27-ddbfdf09346f","system_id":"levelo_inurba_marseille","lat":43.311131,"lon":5.377651,"is_reserved":false,"is_disabled":false,"rental_uris":{"android":"levelo://app?vid=92c586dd-066e-4d65-ab27-ddbfdf09346f","ios":"levelo://app?vid=92c586dd-066e-4d65-ab27-ddbfdf09346f"},"vehicle_type_id":"4","last_reported":1691089484,"current_range_meters":8400,"station_id":"ce4bgt92rcd13ifvqcg0","pricing_plan_id":"free"},{"bike_id":"b45878f5-c5d2-4151-a76f-15651d2e255f","system_id":"levelo_inurba_marseille","lat":43.311131,"lon":5.377651,"is_reserved":false,"is_disabled":false,"rental_uris":{"android":"levelo://app?vid=b45878f5-c5d2-4151-a76f-15651d2e255f","ios":"levelo://app?vid=b45878f5-c5d2-4151-a76f-15651d2e255f"},"vehicle_type_id":"4","last_reported":1691089484,"current_range_meters":6400,"station_id":"ce4bgt92rcd13ifvqcg0","pricing_plan_id":"free"},{"bike_id":"6ec4bb7e-8606-49b4-a556-2cb681532bba","system_id":"levelo_inurba_marseille","lat":43.317075,"lon":5.377367,"is_reserved":false,"is_disabled":false,"rental_uris":{"android":"levelo://app?vid=6ec4bb7e-8606-49b4-a556-2cb681532bba","ios":"levelo://app?vid=6ec4bb7e-8606-49b4-a556-2cb681532bba"},"vehicle_type_id":"4","last_reported":1691089484,"current_range_meters":31600,"station_id":"ce4bgth2rcd13ifvqch0","pricing_plan_id":"free"},{"bike_id":"0f2902ef-403c-458f-92a9-dfbe4b28e1b1","system_id":"levelo_inurba_marseille","lat":43.317075,"lon":5.377367,"is_reserved":false,"is_disabled":false,"rental_uris":{"android":"levelo://app?vid=0f2902ef-403c-458f-92a9-dfbe4b28e1b1","ios":"levelo://app?vid=0f2902ef-403c-458f-92a9-dfbe4b28e1b1"},"vehicle_type_id":"4","last_reported":1691089484,"current_range_meters":9200,"station_id":"ce4bgth2rcd13ifvqch0","pricing_plan_id":"free"},{"bike_id":"0d86ecd0-f797-4f36-9af8-8004a6bd96ec","system_id":"levelo_inurba_marseille","lat":43.303046,"lon":5.368981,"is_reserved":false,"is_disabled":false,"rental_uris":{"android":"levelo://app?vid=0d86ecd0-f797-4f36-9af8-8004a6bd96ec","ios":"levelo://app?vid=0d86ecd0-f797-4f36-9af8-8004a6bd96ec"},"vehicle_type_id":"4","last_reported":1691089484,"current_range_meters":0,"station_id":"ce4bgqh2rcd13ifvqc5g","pricing_plan_id":"free"},{"bike_id":"00892e19-ff2f-49f5-94f5-0dc2f6ff1faf","system_id":"levelo_inurba_marseille","lat":43.31531,"lon":5.38024,"is_reserved":false,"is_disabled":false,"rental_uris":{"android":"levelo://app?vid=00892e19-ff2f-49f5-94f5-0dc2f6ff1faf","ios":"levelo://app?vid=00892e19-ff2f-49f5-94f5-0dc2f6ff1faf"},"vehicle_type_id":"4","last_reported":1691089484,"current_range_meters":25600,"station_id":"ce4bhsp2rcd13ifvqi50","pricing_plan_id":"free"},{"bike_id":"ca03c504-734e-402b-8597-fb77a9549039","system_id":"levelo_inurba_marseille","lat":43.31527,"lon":5.38032,"is_reserved":false,"is_disabled":false,"rental_uris":{"android":"levelo://app?vid=ca03c504-734e-402b-8597-fb77a9549039","ios":"levelo://app?vid=ca03c504-734e-402b-8597-fb77a9549039"},"vehicle_type_id":"4","last_reported":1691089484,"current_range_meters":30800,"station_id":"ce4bhsp2rcd13ifvqi50","pricing_plan_id":"free"},{"bike_id":"fbcd4f43-8f23-445d-8d64-548c36cb1d34","system_id":"levelo_inurba_marseille","lat":43.301939,"lon":5.366286,"is_reserved":false,"is_disabled":false,"rental_uris":{"android":"levelo://app?vid=fbcd4f43-8f23-445d-8d64-548c36cb1d34","ios":"levelo://app?vid=fbcd4f43-8f23-445d-8d64-548c36cb1d34"},"vehicle_type_id":"4","last_reported":1691089484,"current_range_meters":0,"station_id":"ce4bgrh2rcd13ifvqc8g","pricing_plan_id":"free"},{"bike_id":"69efd253-fbbb-4a73-9ba0-16d8244fa080","system_id":"levelo_inurba_marseille","lat":43.3045,"lon":5.37898,"is_reserved":false,"is_disabled":false,"rental_uris":{"android":"levelo://app?vid=69efd253-fbbb-4a73-9ba0-16d8244fa080","ios":"levelo://app?vid=69efd253-fbbb-4a73-9ba0-16d8244fa080"},"vehicle_type_id":"4","last_reported":1691089484,"current_range_meters":31200,"station_id":"ce4bgup2rcd13ifvqcn0","pricing_plan_id":"free"},{"bike_id":"791aecf0-48e6-4775-bc04-3b9f8a573be3","system_id":"levelo_inurba_marseille","lat":43.31983,"lon":5.38145,"is_reserved":false,"is_disabled":false,"rental_uris":{"android":"levelo://app?vid=791aecf0-48e6-4775-bc04-3b9f8a573be3","ios":"levelo://app?vid=791aecf0-48e6-4775-bc04-3b9f8a573be3"},"vehicle_type_id":"4","last_reported":1691089484,"current_range_meters":10400,"station_id":"ce4bhr12rcd13ifvqhpg","pricing_plan_id":"free"},{"bike_id":"3097454c-215b-480d-9356-8d3755cad264","system_id":"levelo_inurba_marseille","lat":43.313571,"lon":5.384829,"is_reserved":false,"is_disabled":false,"rental_uris":{"android":"levelo://app?vid=3097454c-215b-480d-9356-8d3755cad264","ios":"levelo://app?vid=3097454c-215b-480d-9356-8d3755cad264"},"vehicle_type_id":"4","last_reported":1691089484,"current_range_meters":22000,"station_id":"ce4bgt92rcd13ifvqcf0","pricing_plan_id":"free"},{"bike_id":"d92e79c6-8caa-430c-90be-6141442e45a4","system_id":"levelo_inurba_marseille","lat":43.31366,"lon":5.38488,"is_reserved":false,"is_disabled":false,"rental_uris":{"android":"levelo://app?vid=d92e79c6-8caa-430c-90be-6141442e45a4","ios":"levelo://app?vid=d92e79c6-8caa-430c-90be-6141442e45a4"},"vehicle_type_id":"4","last_reported":1691089484,"current_range_meters":16000,"station_id":"ce4bgt92rcd13ifvqcf0","pricing_plan_id":"free"},{"bike_id":"884d4a1c-ed7f-422a-b112-03b5a16a1286","system_id":"levelo_inurba_marseille","lat":43.313571,"lon":5.384829,"is_reserved":false,"is_disabled":false,"rental_uris":{"android":"levelo://app?vid=884d4a1c-ed7f-422a-b112-03b5a16a1286","ios":"levelo://app?vid=884d4a1c-ed7f-422a-b112-03b5a16a1286"},"vehicle_type_id":"4","last_reported":1691089484,"current_range_meters":29600,"station_id":"ce4bgt92rcd13ifvqcf0","pricing_plan_id":"free"},{"bike_id":"63fd33e7-28a8-4a2a-bf2d-314093194f81","system_id":"levelo_inurba_marseille","lat":43.313571,"lon":5.384829,"is_reserved":false,"is_disabled":false,"rental_uris":{"android":"levelo://app?vid=63fd33e7-28a8-4a2a-bf2d-314093194f81","ios":"levelo://app?vid=63fd33e7-28a8-4a2a-bf2d-314093194f81"},"vehicle_type_id":"4","last_reported":1691089484,"current_range_meters":9200,"station_id":"ce4bgt92rcd13ifvqcf0","pricing_plan_id":"free"},{"bike_id":"7ce5d17d-5040-4f4f-82f9-2a811b57edb1","system_id":"levelo_inurba_marseille","lat":43.299724,"lon":5.371829,"is_reserved":false,"is_disabled":false,"rental_uris":{"android":"levelo://app?vid=7ce5d17d-5040-4f4f-82f9-2a811b57edb1","ios":"levelo://app?vid=7ce5d17d-5040-4f4f-82f9-2a811b57edb1"},"vehicle_type_id":"4","last_reported":1691089484,"current_range_meters":8800,"station_id":"ce4bgr92rcd13ifvqc7g","pricing_plan_id":"free"},{"bike_id":"3cb7fd70-121e-4eb5-9a01-ecc8718aa1bb","system_id":"levelo_inurba_marseille","lat":43.299222,"lon":5.365554,"is_reserved":false,"is_disabled":false,"rental_uris":{"android":"levelo://app?vid=3cb7fd70-121e-4eb5-9a01-ecc8718aa1bb","ios":"levelo://app?vid=3cb7fd70-121e-4eb5-9a01-ecc8718aa1bb"},"vehicle_type_id":"4","last_reported":1691089484,"current_range_meters":31200,"station_id":"ce4bgm92rcd13ifvqbr0","pricing_plan_id":"free"},{"bike_id":"1d57a077-b9eb-4fcb-a8c0-f77d0357c7de","system_id":"levelo_inurba_marseille","lat":43.299222,"lon":5.365554,"is_reserved":false,"is_disabled":false,"rental_uris":{"android":"levelo://app?vid=1d57a077-b9eb-4fcb-a8c0-f77d0357c7de","ios":"levelo://app?vid=1d57a077-b9eb-4fcb-a8c0-f77d0357c7de"},"vehicle_type_id":"4","last_reported":1691089484,"current_range_meters":0,"station_id":"ce4bgm92rcd13ifvqbr0","pricing_plan_id":"free"},{"bike_id":"8ce1cba5-d423-438b-a2cf-eaf135b2463d","system_id":"levelo_inurba_marseille","lat":43.299724,"lon":5.371829,"is_reserved":false,"is_disabled":false,"rental_uris":{"android":"levelo://app?vid=8ce1cba5-d423-438b-a2cf-eaf135b2463d","ios":"levelo://app?vid=8ce1cba5-d423-438b-a2cf-eaf135b2463d"},"vehicle_type_id":"4","last_reported":1691089484,"current_range_meters":10400,"station_id":"ce4bgr92rcd13ifvqc7g","pricing_plan_id":"free"},{"bike_id":"c5b11aa6-aed8-4b86-9090-25de1aa8caf2","system_id":"levelo_inurba_marseille","lat":43.29853,"lon":5.36289,"is_reserved":false,"is_disabled":false,"rental_uris":{"android":"levelo://app?vid=c5b11aa6-aed8-4b86-9090-25de1aa8caf2","ios":"levelo://app?vid=c5b11aa6-aed8-4b86-9090-25de1aa8caf2"},"vehicle_type_id":"4","last_reported":1691089484,"current_range_meters":24400,"station_id":"ce4bgpp2rcd13ifvqc3g","pricing_plan_id":"free"},{"bike_id":"2af1a7e1-c7a3-4871-b210-ed23f32f53db","system_id":"levelo_inurba_marseille","lat":43.305364,"lon":5.384119,"is_reserved":false,"is_disabled":false,"rental_uris":{"android":"levelo://app?vid=2af1a7e1-c7a3-4871-b210-ed23f32f53db","ios":"levelo://app?vid=2af1a7e1-c7a3-4871-b210-ed23f32f53db"},"vehicle_type_id":"4","last_reported":1691089484,"current_range_meters":20000,"station_id":"ce4bgg92rcd13ifvqb30","pricing_plan_id":"free"},{"bike_id":"0a5daae0-680a-4499-9c79-0023ad562d4c","system_id":"levelo_inurba_marseille","lat":43.305364,"lon":5.384119,"is_reserved":false,"is_disabled":false,"rental_uris":{"android":"levelo://app?vid=0a5daae0-680a-4499-9c79-0023ad562d4c","ios":"levelo://app?vid=0a5daae0-680a-4499-9c79-0023ad562d4c"},"vehicle_type_id":"4","last_reported":1691089484,"current_range_meters":8400,"station_id":"ce4bgg92rcd13ifvqb30","pricing_plan_id":"free"},{"bike_id":"30537d43-af02-4a10-b928-7b9b8cf633d2","system_id":"levelo_inurba_marseille","lat":43.30534,"lon":5.38422,"is_reserved":false,"is_disabled":false,"rental_uris":{"android":"levelo://app?vid=30537d43-af02-4a10-b928-7b9b8cf633d2","ios":"levelo://app?vid=30537d43-af02-4a10-b928-7b9b8cf633d2"},"vehicle_type_id":"4","last_reported":1691089484,"current_range_meters":28800,"station_id":"ce4bgg92rcd13ifvqb30","pricing_plan_id":"free"},{"bike_id":"f7b2ccc3-d33f-44b3-8d29-07661a535be8","system_id":"levelo_inurba_marseille","lat":43.298433,"lon":5.362774,"is_reserved":false,"is_disabled":false,"rental_uris":{"android":"levelo://app?vid=f7b2ccc3-d33f-44b3-8d29-07661a535be8","ios":"levelo://app?vid=f7b2ccc3-d33f-44b3-8d29-07661a535be8"},"vehicle_type_id":"4","last_reported":1691089484,"current_range_meters":0,"station_id":"ce4bgpp2rcd13ifvqc3g","pricing_plan_id":"free"},{"bike_id":"e3041c7e-125d-4595-b231-60bb0c656f65","system_id":"levelo_inurba_marseille","lat":43.30531,"lon":5.38424,"is_reserved":false,"is_disabled":false,"rental_uris":{"android":"levelo://app?vid=e3041c7e-125d-4595-b231-60bb0c656f65","ios":"levelo://app?vid=e3041c7e-125d-4595-b231-60bb0c656f65"},"vehicle_type_id":"4","last_reported":1691089484,"current_range_meters":30400,"station_id":"ce4bgg92rcd13ifvqb30","pricing_plan_id":"free"},{"bike_id":"b18279c5-4d28-4f77-8075-48befb8a025f","system_id":"levelo_inurba_marseille","lat":43.311722,"lon":5.387247,"is_reserved":false,"is_disabled":false,"rental_uris":{"android":"levelo://app?vid=b18279c5-4d28-4f77-8075-48befb8a025f","ios":"levelo://app?vid=b18279c5-4d28-4f77-8075-48befb8a025f"},"vehicle_type_id":"4","last_reported":1691089484,"current_range_meters":15200,"station_id":"ce4bgv12rcd13ifvqcp0","pricing_plan_id":"free"},{"bike_id":"366c27d0-5a75-40cb-bfc3-2df3aab1b510","system_id":"levelo_inurba_marseille","lat":43.299243,"lon":5.374807,"is_reserved":false,"is_disabled":false,"rental_uris":{"android":"levelo://app?vid=366c27d0-5a75-40cb-bfc3-2df3aab1b510","ios":"levelo://app?vid=366c27d0-5a75-40cb-bfc3-2df3aab1b510"},"vehicle_type_id":"4","last_reported":1691089484,"current_range_meters":11600,"station_id":"ce4bgjh2rcd13ifvqbg0","pricing_plan_id":"free"},{"bike_id":"6eb6ead0-d563-434e-9d56-3823b1758e32","system_id":"levelo_inurba_marseille","lat":43.311722,"lon":5.387247,"is_reserved":false,"is_disabled":false,"rental_uris":{"android":"levelo://app?vid=6eb6ead0-d563-434e-9d56-3823b1758e32","ios":"levelo://app?vid=6eb6ead0-d563-434e-9d56-3823b1758e32"},"vehicle_type_id":"4","last_reported":1691089484,"current_range_meters":22400,"station_id":"ce4bgv12rcd13ifvqcp0","pricing_plan_id":"free"},{"bike_id":"5ea8fe18-80eb-4b61-9c7a-2ae58a74e788","system_id":"levelo_inurba_marseille","lat":43.299243,"lon":5.37481,"is_reserved":false,"is_disabled":false,"rental_uris":{"android":"levelo://app?vid=5ea8fe18-80eb-4b61-9c7a-2ae58a74e788","ios":"levelo://app?vid=5ea8fe18-80eb-4b61-9c7a-2ae58a74e788"},"vehicle_type_id":"4","last_reported":1691089484,"current_range_meters":8400,"station_id":"ce4bgjh2rcd13ifvqbg0","pricing_plan_id":"free"},{"bike_id":"e4cbc37f-a936-4a1a-a335-658aff8c6052","system_id":"levelo_inurba_marseille","lat":43.311722,"lon":5.387247,"is_reserved":false,"is_disabled":false,"rental_uris":{"android":"levelo://app?vid=e4cbc37f-a936-4a1a-a335-658aff8c6052","ios":"levelo://app?vid=e4cbc37f-a936-4a1a-a335-658aff8c6052"},"vehicle_type_id":"4","last_reported":1691089484,"current_range_meters":6800,"station_id":"ce4bgv12rcd13ifvqcp0","pricing_plan_id":"free"},{"bike_id":"84fc0bee-67f3-491d-8545-58ab9c825c25","system_id":"levelo_inurba_marseille","lat":43.311722,"lon":5.387247,"is_reserved":false,"is_disabled":false,"rental_uris":{"android":"levelo://app?vid=84fc0bee-67f3-491d-8545-58ab9c825c25","ios":"levelo://app?vid=84fc0bee-67f3-491d-8545-58ab9c825c25"},"vehicle_type_id":"4","last_reported":1691089484,"current_range_meters":7600,"station_id":"ce4bgv12rcd13ifvqcp0","pricing_plan_id":"free"},{"bike_id":"d1abd3b0-09d4-47e6-a5bb-148149e76581","system_id":"levelo_inurba_marseille","lat":43.311722,"lon":5.387247,"is_reserved":false,"is_disabled":false,"rental_uris":{"android":"levelo://app?vid=d1abd3b0-09d4-47e6-a5bb-148149e76581","ios":"levelo://app?vid=d1abd3b0-09d4-47e6-a5bb-148149e76581"},"vehicle_type_id":"4","last_reported":1691089484,"current_range_meters":7200,"station_id":"ce4bgv12rcd13ifvqcp0","pricing_plan_id":"free"},{"bike_id":"dbe3c59e-0b4a-4702-8d9b-d4b9769d9d6a","system_id":"levelo_inurba_marseille","lat":43.311722,"lon":5.387247,"is_reserved":false,"is_disabled":false,"rental_uris":{"android":"levelo://app?vid=dbe3c59e-0b4a-4702-8d9b-d4b9769d9d6a","ios":"levelo://app?vid=dbe3c59e-0b4a-4702-8d9b-d4b9769d9d6a"},"vehicle_type_id":"4","last_reported":1691089484,"current_range_meters":400,"station_id":"ce4bgv12rcd13ifvqcp0","pricing_plan_id":"free"},{"bike_id":"403db595-77c4-46a4-ae65-2b5bac7936b1","system_id":"levelo_inurba_marseille","lat":43.311722,"lon":5.387247,"is_reserved":false,"is_disabled":false,"rental_uris":{"android":"levelo://app?vid=403db595-77c4-46a4-ae65-2b5bac7936b1","ios":"levelo://app?vid=403db595-77c4-46a4-ae65-2b5bac7936b1"},"vehicle_type_id":"4","last_reported":1691089484,"current_range_meters":0,"station_id":"ce4bgv12rcd13ifvqcp0","pricing_plan_id":"free"},{"bike_id":"ca077a0c-51b1-4506-952f-8d2cba610b52","system_id":"levelo_inurba_marseille","lat":43.297774,"lon":5.370875,"is_reserved":false,"is_disabled":false,"rental_uris":{"android":"levelo://app?vid=ca077a0c-51b1-4506-952f-8d2cba610b52","ios":"levelo://app?vid=ca077a0c-51b1-4506-952f-8d2cba610b52"},"vehicle_type_id":"4","last_reported":1691089484,"current_range_meters":31600,"station_id":"ce4bgop2rcd13ifvqc1g","pricing_plan_id":"free"},{"bike_id":"7cf1aab8-38a1-47db-af16-2123c0ca6e97","system_id":"levelo_inurba_marseille","lat":43.32288,"lon":5.38263,"is_reserved":false,"is_disabled":false,"rental_uris":{"android":"levelo://app?vid=7cf1aab8-38a1-47db-af16-2123c0ca6e97","ios":"levelo://app?vid=7cf1aab8-38a1-47db-af16-2123c0ca6e97"},"vehicle_type_id":"4","last_reported":1691089484,"current_range_meters":20000,"station_id":"ce4bhr12rcd13ifvqhqg","pricing_plan_id":"free"},{"bike_id":"86365567-6f47-4347-a1d2-24938a64149a","system_id":"levelo_inurba_marseille","lat":43.32824,"lon":5.36673,"is_reserved":false,"is_disabled":false,"rental_uris":{"android":"levelo://app?vid=86365567-6f47-4347-a1d2-24938a64149a","ios":"levelo://app?vid=86365567-6f47-4347-a1d2-24938a64149a"},"vehicle_type_id":"4","last_reported":1691089484,"current_range_meters":2000,"station_id":"ce4bhs92rcd13ifvqi0g","pricing_plan_id":"free"},{"bike_id":"81467de6-2847-473e-9e69-32a4899f3166","system_id":"levelo_inurba_marseille","lat":43.32832,"lon":5.36683,"is_reserved":false,"is_disabled":false,"rental_uris":{"android":"levelo://app?vid=81467de6-2847-473e-9e69-32a4899f3166","ios":"levelo://app?vid=81467de6-2847-473e-9e69-32a4899f3166"},"vehicle_type_id":"4","last_reported":1691089484,"current_range_meters":12000,"station_id":"ce4bhs92rcd13ifvqi0g","pricing_plan_id":"free"},{"bike_id":"2123168f-9beb-4442-b271-fc4b5a235269","system_id":"levelo_inurba_marseille","lat":43.297163,"lon":5.365866,"is_reserved":false,"is_disabled":false,"rental_uris":{"android":"levelo://app?vid=2123168f-9beb-4442-b271-fc4b5a235269","ios":"levelo://app?vid=2123168f-9beb-4442-b271-fc4b5a235269"},"vehicle_type_id":"4","last_reported":1691089484,"current_range_meters":20800,"station_id":"ce4bgn12rcd13ifvqbt0","pricing_plan_id":"free"},{"bike_id":"dd789220-e7b5-42c1-b9dc-dc4243148021","system_id":"levelo_inurba_marseille","lat":43.297163,"lon":5.365866,"is_reserved":false,"is_disabled":false,"rental_uris":{"android":"levelo://app?vid=dd789220-e7b5-42c1-b9dc-dc4243148021","ios":"levelo://app?vid=dd789220-e7b5-42c1-b9dc-dc4243148021"},"vehicle_type_id":"4","last_reported":1691089484,"current_range_meters":31600,"station_id":"ce4bgn12rcd13ifvqbt0","pricing_plan_id":"free"},{"bike_id":"b137f449-519e-4a56-8127-cc6d79e2fc13","system_id":"levelo_inurba_marseille","lat":43.2968,"lon":5.37291,"is_reserved":false,"is_disabled":false,"rental_uris":{"android":"levelo://app?vid=b137f449-519e-4a56-8127-cc6d79e2fc13","ios":"levelo://app?vid=b137f449-519e-4a56-8127-cc6d79e2fc13"},"vehicle_type_id":"4","last_reported":1691089484,"current_range_meters":15600,"station_id":"ce4bgk12rcd13ifvqbj0","pricing_plan_id":"free"},{"bike_id":"f5d5175a-aff8-4a38-b359-8f25f16a199f","system_id":"levelo_inurba_marseille","lat":43.29678,"lon":5.3729,"is_reserved":false,"is_disabled":false,"rental_uris":{"android":"levelo://app?vid=f5d5175a-aff8-4a38-b359-8f25f16a199f","ios":"levelo://app?vid=f5d5175a-aff8-4a38-b359-8f25f16a199f"},"vehicle_type_id":"4","last_reported":1691089484,"current_range_meters":5600,"station_id":"","pricing_plan_id":"free"},{"bike_id":"2810e954-5f94-4125-a436-1d0cfc3b5ff2","system_id":"levelo_inurba_marseille","lat":43.29573,"lon":5.367355,"is_reserved":false,"is_disabled":false,"rental_uris":{"android":"levelo://app?vid=2810e954-5f94-4125-a436-1d0cfc3b5ff2","ios":"levelo://app?vid=2810e954-5f94-4125-a436-1d0cfc3b5ff2"},"vehicle_type_id":"4","last_reported":1691089484,"current_range_meters":2000,"station_id":"ce4bgph2rcd13ifvqc2g","pricing_plan_id":"free"},{"bike_id":"dc2f2aa9-6374-4373-ba0f-d3db4346d3ab","system_id":"levelo_inurba_marseille","lat":43.29573,"lon":5.367355,"is_reserved":false,"is_disabled":false,"rental_uris":{"android":"levelo://app?vid=dc2f2aa9-6374-4373-ba0f-d3db4346d3ab","ios":"levelo://app?vid=dc2f2aa9-6374-4373-ba0f-d3db4346d3ab"},"vehicle_type_id":"4","last_reported":1691089484,"current_range_meters":13200,"station_id":"ce4bgph2rcd13ifvqc2g","pricing_plan_id":"free"},{"bike_id":"eb13c10f-963d-4e6a-86a4-bda341a3c241","system_id":"levelo_inurba_marseille","lat":43.30953,"lon":5.39033,"is_reserved":false,"is_disabled":false,"rental_uris":{"android":"levelo://app?vid=eb13c10f-963d-4e6a-86a4-bda341a3c241","ios":"levelo://app?vid=eb13c10f-963d-4e6a-86a4-bda341a3c241"},"vehicle_type_id":"4","last_reported":1691089484,"current_range_meters":20000,"station_id":"ce4bgup2rcd13ifvqco0","pricing_plan_id":"free"},{"bike_id":"0100a760-a385-410b-bab6-5e8ca4176928","system_id":"levelo_inurba_marseille","lat":43.309589,"lon":5.390258,"is_reserved":false,"is_disabled":false,"rental_uris":{"android":"levelo://app?vid=0100a760-a385-410b-bab6-5e8ca4176928","ios":"levelo://app?vid=0100a760-a385-410b-bab6-5e8ca4176928"},"vehicle_type_id":"4","last_reported":1691089484,"current_range_meters":9600,"station_id":"ce4bgup2rcd13ifvqco0","pricing_plan_id":"free"},{"bike_id":"f0b1921d-8fc5-42f6-8214-26455e772ce5","system_id":"levelo_inurba_marseille","lat":43.309589,"lon":5.390258,"is_reserved":false,"is_disabled":false,"rental_uris":{"android":"levelo://app?vid=f0b1921d-8fc5-42f6-8214-26455e772ce5","ios":"levelo://app?vid=f0b1921d-8fc5-42f6-8214-26455e772ce5"},"vehicle_type_id":"4","last_reported":1691089484,"current_range_meters":26800,"station_id":"ce4bgup2rcd13ifvqco0","pricing_plan_id":"free"},{"bike_id":"c1066db3-31fa-407b-a45f-eec66168b11e","system_id":"levelo_inurba_marseille","lat":43.31759,"lon":5.39011,"is_reserved":false,"is_disabled":false,"rental_uris":{"android":"levelo://app?vid=c1066db3-31fa-407b-a45f-eec66168b11e","ios":"levelo://app?vid=c1066db3-31fa-407b-a45f-eec66168b11e"},"vehicle_type_id":"4","last_reported":1691089484,"current_range_meters":4400,"station_id":"ce4bhqp2rcd13ifvqhng","pricing_plan_id":"free"},{"bike_id":"33e2c390-800e-493e-b560-bc238e79e704","system_id":"levelo_inurba_marseille","lat":43.317557,"lon":5.390173,"is_reserved":false,"is_disabled":false,"rental_uris":{"android":"levelo://app?vid=33e2c390-800e-493e-b560-bc238e79e704","ios":"levelo://app?vid=33e2c390-800e-493e-b560-bc238e79e704"},"vehicle_type_id":"4","last_reported":1691089484,"current_range_meters":11600,"station_id":"ce4bhqp2rcd13ifvqhng","pricing_plan_id":"free"},{"bike_id":"a2732b9d-f669-48a3-9640-a486c2759fce","system_id":"levelo_inurba_marseille","lat":43.317557,"lon":5.390173,"is_reserved":false,"is_disabled":false,"rental_uris":{"android":"levelo://app?vid=a2732b9d-f669-48a3-9640-a486c2759fce","ios":"levelo://app?vid=a2732b9d-f669-48a3-9640-a486c2759fce"},"vehicle_type_id":"4","last_reported":1691089484,"current_range_meters":27600,"station_id":"ce4bhqp2rcd13ifvqhng","pricing_plan_id":"free"},{"bike_id":"59585ab3-ab81-4ac9-b75f-8c42b3af0eb9","system_id":"levelo_inurba_marseille","lat":43.317557,"lon":5.390173,"is_reserved":false,"is_disabled":false,"rental_uris":{"android":"levelo://app?vid=59585ab3-ab81-4ac9-b75f-8c42b3af0eb9","ios":"levelo://app?vid=59585ab3-ab81-4ac9-b75f-8c42b3af0eb9"},"vehicle_type_id":"4","last_reported":1691089484,"current_range_meters":9200,"station_id":"ce4bhqp2rcd13ifvqhng","pricing_plan_id":"free"},{"bike_id":"2cbe5346-bb3c-4645-9a03-ecbb2f5e9292","system_id":"levelo_inurba_marseille","lat":43.298037,"lon":5.381066,"is_reserved":false,"is_disabled":false,"rental_uris":{"android":"levelo://app?vid=2cbe5346-bb3c-4645-9a03-ecbb2f5e9292","ios":"levelo://app?vid=2cbe5346-bb3c-4645-9a03-ecbb2f5e9292"},"vehicle_type_id":"4","last_reported":1691089484,"current_range_meters":4400,"station_id":"ce4bgip2rcd13ifvqbb0","pricing_plan_id":"free"},{"bike_id":"34f2561b-2625-445e-b6d7-d27c3650481b","system_id":"levelo_inurba_marseille","lat":43.298037,"lon":5.381066,"is_reserved":false,"is_disabled":false,"rental_uris":{"android":"levelo://app?vid=34f2561b-2625-445e-b6d7-d27c3650481b","ios":"levelo://app?vid=34f2561b-2625-445e-b6d7-d27c3650481b"},"vehicle_type_id":"4","last_reported":1691089484,"current_range_meters":0,"station_id":"ce4bgip2rcd13ifvqbb0","pricing_plan_id":"free"},{"bike_id":"96b37b59-b85b-48cd-9acf-13454f4601da","system_id":"levelo_inurba_marseille","lat":43.29576,"lon":5.37518,"is_reserved":false,"is_disabled":false,"rental_uris":{"android":"levelo://app?vid=96b37b59-b85b-48cd-9acf-13454f4601da","ios":"levelo://app?vid=96b37b59-b85b-48cd-9acf-13454f4601da"},"vehicle_type_id":"4","last_reported":1691089484,"current_range_meters":16000,"station_id":"ce4bgh92rcd13ifvqb50","pricing_plan_id":"free"},{"bike_id":"0eb6b156-0e34-40ad-8bf5-14bfa99efff8","system_id":"levelo_inurba_marseille","lat":43.304278,"lon":5.388868,"is_reserved":false,"is_disabled":false,"rental_uris":{"android":"levelo://app?vid=0eb6b156-0e34-40ad-8bf5-14bfa99efff8","ios":"levelo://app?vid=0eb6b156-0e34-40ad-8bf5-14bfa99efff8"},"vehicle_type_id":"4","last_reported":1691089484,"current_range_meters":20400,"station_id":"ce4bgk12rcd13ifvqbi0","pricing_plan_id":"free"},{"bike_id":"5e91cff0-ba15-48d0-ad0f-b423cccf1348","system_id":"levelo_inurba_marseille","lat":43.30443,"lon":5.38892,"is_reserved":false,"is_disabled":false,"rental_uris":{"android":"levelo://app?vid=5e91cff0-ba15-48d0-ad0f-b423cccf1348","ios":"levelo://app?vid=5e91cff0-ba15-48d0-ad0f-b423cccf1348"},"vehicle_type_id":"4","last_reported":1691089484,"current_range_meters":0,"station_id":"ce4bgk12rcd13ifvqbi0","pricing_plan_id":"free"},{"bike_id":"f4f02849-33f4-4496-864e-7e135dcf9327","system_id":"levelo_inurba_marseille","lat":43.296277,"lon":5.377108,"is_reserved":false,"is_disabled":false,"rental_uris":{"android":"levelo://app?vid=f4f02849-33f4-4496-864e-7e135dcf9327","ios":"levelo://app?vid=f4f02849-33f4-4496-864e-7e135dcf9327"},"vehicle_type_id":"4","last_reported":1691089484,"current_range_meters":13600,"station_id":"ce4bgi92rcd13ifvqb90","pricing_plan_id":"free"},{"bike_id":"231911b2-a39f-4c08-8c04-4e77bde8f03c","system_id":"levelo_inurba_marseille","lat":43.304278,"lon":5.388868,"is_reserved":false,"is_disabled":false,"rental_uris":{"android":"levelo://app?vid=231911b2-a39f-4c08-8c04-4e77bde8f03c","ios":"levelo://app?vid=231911b2-a39f-4c08-8c04-4e77bde8f03c"},"vehicle_type_id":"4","last_reported":1691089484,"current_range_meters":1600,"station_id":"ce4bgk12rcd13ifvqbi0","pricing_plan_id":"free"},{"bike_id":"f1baea44-8b55-42d8-9218-b9f8f104de11","system_id":"levelo_inurba_marseille","lat":43.296263,"lon":5.377094,"is_reserved":false,"is_disabled":false,"rental_uris":{"android":"levelo://app?vid=f1baea44-8b55-42d8-9218-b9f8f104de11","ios":"levelo://app?vid=f1baea44-8b55-42d8-9218-b9f8f104de11"},"vehicle_type_id":"4","last_reported":1691089484,"current_range_meters":29600,"station_id":"ce4bgi92rcd13ifvqb90","pricing_plan_id":"free"},{"bike_id":"62e3b235-8f3a-48dd-9eea-e5d335d81579","system_id":"levelo_inurba_marseille","lat":43.296277,"lon":5.377108,"is_reserved":false,"is_disabled":false,"rental_uris":{"android":"levelo://app?vid=62e3b235-8f3a-48dd-9eea-e5d335d81579","ios":"levelo://app?vid=62e3b235-8f3a-48dd-9eea-e5d335d81579"},"vehicle_type_id":"4","last_reported":1691089484,"current_range_meters":7600,"station_id":"ce4bgi92rcd13ifvqb90","pricing_plan_id":"free"},{"bike_id":"9951d687-7fac-490e-bdf1-3ffa523e2be7","system_id":"levelo_inurba_marseille","lat":43.296277,"lon":5.377108,"is_reserved":false,"is_disabled":false,"rental_uris":{"android":"levelo://app?vid=9951d687-7fac-490e-bdf1-3ffa523e2be7","ios":"levelo://app?vid=9951d687-7fac-490e-bdf1-3ffa523e2be7"},"vehicle_type_id":"4","last_reported":1691089484,"current_range_meters":15200,"station_id":"ce4bgi92rcd13ifvqb90","pricing_plan_id":"free"},{"bike_id":"bb45f418-8c45-4a6e-80ef-f70ed8838880","system_id":"levelo_inurba_marseille","lat":43.29599,"lon":5.37716,"is_reserved":false,"is_disabled":false,"rental_uris":{"android":"levelo://app?vid=bb45f418-8c45-4a6e-80ef-f70ed8838880","ios":"levelo://app?vid=bb45f418-8c45-4a6e-80ef-f70ed8838880"},"vehicle_type_id":"4","last_reported":1691089484,"current_range_meters":7600,"station_id":"ce4bgi92rcd13ifvqb90","pricing_plan_id":"free"},{"bike_id":"3e0259da-894b-40a3-bd90-a8a17f81f8ae","system_id":"levelo_inurba_marseille","lat":43.29526,"lon":5.37495,"is_reserved":false,"is_disabled":false,"rental_uris":{"android":"levelo://app?vid=3e0259da-894b-40a3-bd90-a8a17f81f8ae","ios":"levelo://app?vid=3e0259da-894b-40a3-bd90-a8a17f81f8ae"},"vehicle_type_id":"4","last_reported":1691089484,"current_range_meters":0,"station_id":"ce4bgkp2rcd13ifvqbmg","pricing_plan_id":"free"},{"bike_id":"8e7bf030-af18-4d54-94d4-a8510c6961b9","system_id":"levelo_inurba_marseille","lat":43.299717,"lon":5.384845,"is_reserved":false,"is_disabled":false,"rental_uris":{"android":"levelo://app?vid=8e7bf030-af18-4d54-94d4-a8510c6961b9","ios":"levelo://app?vid=8e7bf030-af18-4d54-94d4-a8510c6961b9"},"vehicle_type_id":"4","last_reported":1691089484,"current_range_meters":9200,"station_id":"ce4bgj92rcd13ifvqbd0","pricing_plan_id":"free"},{"bike_id":"a9a78024-f4fd-4c1a-9dc7-825d4e8ef20b","system_id":"levelo_inurba_marseille","lat":43.299724,"lon":5.384848,"is_reserved":false,"is_disabled":false,"rental_uris":{"android":"levelo://app?vid=a9a78024-f4fd-4c1a-9dc7-825d4e8ef20b","ios":"levelo://app?vid=a9a78024-f4fd-4c1a-9dc7-825d4e8ef20b"},"vehicle_type_id":"4","last_reported":1691089484,"current_range_meters":7200,"station_id":"ce4bgj92rcd13ifvqbd0","pricing_plan_id":"free"},{"bike_id":"d407fc4c-0d6c-4325-8963-4e3f1e64273f","system_id":"levelo_inurba_marseille","lat":43.299724,"lon":5.384848,"is_reserved":false,"is_disabled":false,"rental_uris":{"android":"levelo://app?vid=d407fc4c-0d6c-4325-8963-4e3f1e64273f","ios":"levelo://app?vid=d407fc4c-0d6c-4325-8963-4e3f1e64273f"},"vehicle_type_id":"4","last_reported":1691089484,"current_range_meters":12000,"station_id":"ce4bgj92rcd13ifvqbd0","pricing_plan_id":"free"},{"bike_id":"51fb9891-86c5-4d0b-8b1f-fa446de6a5a5","system_id":"levelo_inurba_marseille","lat":43.29441,"lon":5.37453,"is_reserved":false,"is_disabled":false,"rental_uris":{"android":"levelo://app?vid=51fb9891-86c5-4d0b-8b1f-fa446de6a5a5","ios":"levelo://app?vid=51fb9891-86c5-4d0b-8b1f-fa446de6a5a5"},"vehicle_type_id":"4","last_reported":1691089484,"current_range_meters":27600,"station_id":"","pricing_plan_id":"free"},{"bike_id":"f6198eea-596f-43bd-8d44-fe02429ed013","system_id":"levelo_inurba_marseille","lat":43.29432,"lon":5.37451,"is_reserved":false,"is_disabled":false,"rental_uris":{"android":"levelo://app?vid=f6198eea-596f-43bd-8d44-fe02429ed013","ios":"levelo://app?vid=f6198eea-596f-43bd-8d44-fe02429ed013"},"vehicle_type_id":"4","last_reported":1691089484,"current_range_meters":13600,"station_id":"","pricing_plan_id":"free"},{"bike_id":"6be534a9-96c6-4989-b3bb-e9dea76376c4","system_id":"levelo_inurba_marseille","lat":43.32372,"lon":5.38875,"is_reserved":false,"is_disabled":false,"rental_uris":{"android":"levelo://app?vid=6be534a9-96c6-4989-b3bb-e9dea76376c4","ios":"levelo://app?vid=6be534a9-96c6-4989-b3bb-e9dea76376c4"},"vehicle_type_id":"4","last_reported":1691089484,"current_range_meters":15200,"station_id":"ce4bhqp2rcd13ifvqhog","pricing_plan_id":"free"},{"bike_id":"83e40035-5ae5-4bb2-89ae-adf2ef147026","system_id":"levelo_inurba_marseille","lat":43.323676,"lon":5.388816,"is_reserved":false,"is_disabled":false,"rental_uris":{"android":"levelo://app?vid=83e40035-5ae5-4bb2-89ae-adf2ef147026","ios":"levelo://app?vid=83e40035-5ae5-4bb2-89ae-adf2ef147026"},"vehicle_type_id":"4","last_reported":1691089484,"current_range_meters":14000,"station_id":"","pricing_plan_id":"free"},{"bike_id":"660de016-7b00-4735-9d75-3ae99d5de62d","system_id":"levelo_inurba_marseille","lat":43.32369,"lon":5.38881,"is_reserved":false,"is_disabled":false,"rental_uris":{"android":"levelo://app?vid=660de016-7b00-4735-9d75-3ae99d5de62d","ios":"levelo://app?vid=660de016-7b00-4735-9d75-3ae99d5de62d"},"vehicle_type_id":"4","last_reported":1691089484,"current_range_meters":30400,"station_id":"ce4bhqp2rcd13ifvqhog","pricing_plan_id":"free"},{"bike_id":"ad06ea0d-be2a-4329-afe2-047472e9aae6","system_id":"levelo_inurba_marseille","lat":43.30688,"lon":5.39263,"is_reserved":false,"is_disabled":false,"rental_uris":{"android":"levelo://app?vid=ad06ea0d-be2a-4329-afe2-047472e9aae6","ios":"levelo://app?vid=ad06ea0d-be2a-4329-afe2-047472e9aae6"},"vehicle_type_id":"4","last_reported":1691089484,"current_range_meters":17600,"station_id":"","pricing_plan_id":"free"},{"bike_id":"98288bec-fb60-4997-ad65-c1c2848ced51","system_id":"levelo_inurba_marseille","lat":43.292749,"lon":5.368398,"is_reserved":false,"is_disabled":false,"rental_uris":{"android":"levelo://app?vid=98288bec-fb60-4997-ad65-c1c2848ced51","ios":"levelo://app?vid=98288bec-fb60-4997-ad65-c1c2848ced51"},"vehicle_type_id":"4","last_reported":1691089484,"current_range_meters":10800,"station_id":"ce4bhbp2rcd13ifvqesg","pricing_plan_id":"free"},{"bike_id":"dedef24d-e63e-4527-bc89-3ae0e6953e76","system_id":"levelo_inurba_marseille","lat":43.293249,"lon":5.371578,"is_reserved":false,"is_disabled":false,"rental_uris":{"android":"levelo://app?vid=dedef24d-e63e-4527-bc89-3ae0e6953e76","ios":"levelo://app?vid=dedef24d-e63e-4527-bc89-3ae0e6953e76"},"vehicle_type_id":"4","last_reported":1691089484,"current_range_meters":30400,"station_id":"ce4bgh92rcd13ifvqb40","pricing_plan_id":"free"},{"bike_id":"5df38b53-8926-48fb-abc8-c7db1567f153","system_id":"levelo_inurba_marseille","lat":43.292749,"lon":5.368398,"is_reserved":false,"is_disabled":false,"rental_uris":{"android":"levelo://app?vid=5df38b53-8926-48fb-abc8-c7db1567f153","ios":"levelo://app?vid=5df38b53-8926-48fb-abc8-c7db1567f153"},"vehicle_type_id":"4","last_reported":1691089484,"current_range_meters":20000,"station_id":"ce4bhbp2rcd13ifvqesg","pricing_plan_id":"free"},{"bike_id":"fd23527a-57bc-4180-a612-e94b6a1844be","system_id":"levelo_inurba_marseille","lat":43.29291,"lon":5.37151,"is_reserved":false,"is_disabled":false,"rental_uris":{"android":"levelo://app?vid=fd23527a-57bc-4180-a612-e94b6a1844be","ios":"levelo://app?vid=fd23527a-57bc-4180-a612-e94b6a1844be"},"vehicle_type_id":"4","last_reported":1691089484,"current_range_meters":14400,"station_id":"ce4bgh92rcd13ifvqb40","pricing_plan_id":"free"},{"bike_id":"bb3867d8-c37d-42d9-9a05-159b7eab148b","system_id":"levelo_inurba_marseille","lat":43.293009,"lon":5.374584,"is_reserved":false,"is_disabled":false,"rental_uris":{"android":"levelo://app?vid=bb3867d8-c37d-42d9-9a05-159b7eab148b","ios":"levelo://app?vid=bb3867d8-c37d-42d9-9a05-159b7eab148b"},"vehicle_type_id":"4","last_reported":1691089484,"current_range_meters":3200,"station_id":"ce4bgi12rcd13ifvqb70","pricing_plan_id":"free"},{"bike_id":"f7dd9437-55ae-43a3-9f18-28948a1959c4","system_id":"levelo_inurba_marseille","lat":43.305994,"lon":5.393687,"is_reserved":false,"is_disabled":false,"rental_uris":{"android":"levelo://app?vid=f7dd9437-55ae-43a3-9f18-28948a1959c4","ios":"levelo://app?vid=f7dd9437-55ae-43a3-9f18-28948a1959c4"},"vehicle_type_id":"4","last_reported":1691089484,"current_range_meters":22000,"station_id":"ce4bh0p2rcd13ifvqd80","pricing_plan_id":"free"},{"bike_id":"162431f0-02a4-4acb-a6e8-4b82bad4ece3","system_id":"levelo_inurba_marseille","lat":43.305994,"lon":5.393687,"is_reserved":false,"is_disabled":false,"rental_uris":{"android":"levelo://app?vid=162431f0-02a4-4acb-a6e8-4b82bad4ece3","ios":"levelo://app?vid=162431f0-02a4-4acb-a6e8-4b82bad4ece3"},"vehicle_type_id":"4","last_reported":1691089484,"current_range_meters":22400,"station_id":"ce4bh0p2rcd13ifvqd80","pricing_plan_id":"free"},{"bike_id":"2bc5b46b-7d37-4b35-89d2-b032db7fb58e","system_id":"levelo_inurba_marseille","lat":43.305994,"lon":5.393687,"is_reserved":false,"is_disabled":false,"rental_uris":{"android":"levelo://app?vid=2bc5b46b-7d37-4b35-89d2-b032db7fb58e","ios":"levelo://app?vid=2bc5b46b-7d37-4b35-89d2-b032db7fb58e"},"vehicle_type_id":"4","last_reported":1691089484,"current_range_meters":5200,"station_id":"ce4bh0p2rcd13ifvqd80","pricing_plan_id":"free"},{"bike_id":"a8c1e776-dc40-4eae-8d18-0559e4ab25d2","system_id":"levelo_inurba_marseille","lat":43.305994,"lon":5.393687,"is_reserved":false,"is_disabled":false,"rental_uris":{"android":"levelo://app?vid=a8c1e776-dc40-4eae-8d18-0559e4ab25d2","ios":"levelo://app?vid=a8c1e776-dc40-4eae-8d18-0559e4ab25d2"},"vehicle_type_id":"4","last_reported":1691089484,"current_range_meters":6000,"station_id":"ce4bh0p2rcd13ifvqd80","pricing_plan_id":"free"},{"bike_id":"012f39bd-1cf8-4fb6-a308-37a5b381674e","system_id":"levelo_inurba_marseille","lat":43.29287,"lon":5.37444,"is_reserved":false,"is_disabled":false,"rental_uris":{"android":"levelo://app?vid=012f39bd-1cf8-4fb6-a308-37a5b381674e","ios":"levelo://app?vid=012f39bd-1cf8-4fb6-a308-37a5b381674e"},"vehicle_type_id":"4","last_reported":1691089484,"current_range_meters":27600,"station_id":"ce4bgi12rcd13ifvqb70","pricing_plan_id":"free"},{"bike_id":"ca4bd4e4-7026-405e-bd91-71f444df8756","system_id":"levelo_inurba_marseille","lat":43.305994,"lon":5.393687,"is_reserved":false,"is_disabled":false,"rental_uris":{"android":"levelo://app?vid=ca4bd4e4-7026-405e-bd91-71f444df8756","ios":"levelo://app?vid=ca4bd4e4-7026-405e-bd91-71f444df8756"},"vehicle_type_id":"4","last_reported":1691089484,"current_range_meters":4000,"station_id":"ce4bh0p2rcd13ifvqd80","pricing_plan_id":"free"},{"bike_id":"3b863120-9a1e-45d1-ac1f-4c42503c1132","system_id":"levelo_inurba_marseille","lat":43.302992,"lon":5.392136,"is_reserved":false,"is_disabled":false,"rental_uris":{"android":"levelo://app?vid=3b863120-9a1e-45d1-ac1f-4c42503c1132","ios":"levelo://app?vid=3b863120-9a1e-45d1-ac1f-4c42503c1132"},"vehicle_type_id":"4","last_reported":1691089484,"current_range_meters":22800,"station_id":"ce4bgkh2rcd13ifvqbk0","pricing_plan_id":"free"},{"bike_id":"69b7700b-70e2-43b1-a6bf-f61573b97004","system_id":"levelo_inurba_marseille","lat":43.2936,"lon":5.37835,"is_reserved":false,"is_disabled":false,"rental_uris":{"android":"levelo://app?vid=69b7700b-70e2-43b1-a6bf-f61573b97004","ios":"levelo://app?vid=69b7700b-70e2-43b1-a6bf-f61573b97004"},"vehicle_type_id":"4","last_reported":1691089484,"current_range_meters":6800,"station_id":"ce4bgjh2rcd13ifvqbf0","pricing_plan_id":"free"},{"bike_id":"185858cf-7bf4-4ef7-9855-48c6cccf2c2d","system_id":"levelo_inurba_marseille","lat":43.302992,"lon":5.392136,"is_reserved":false,"is_disabled":false,"rental_uris":{"android":"levelo://app?vid=185858cf-7bf4-4ef7-9855-48c6cccf2c2d","ios":"levelo://app?vid=185858cf-7bf4-4ef7-9855-48c6cccf2c2d"},"vehicle_type_id":"4","last_reported":1691089484,"current_range_meters":3200,"station_id":"ce4bgkh2rcd13ifvqbk0","pricing_plan_id":"free"},{"bike_id":"0766b1e4-c20c-4640-bfae-50a95851ecd9","system_id":"levelo_inurba_marseille","lat":43.2936,"lon":5.37835,"is_reserved":false,"is_disabled":false,"rental_uris":{"android":"levelo://app?vid=0766b1e4-c20c-4640-bfae-50a95851ecd9","ios":"levelo://app?vid=0766b1e4-c20c-4640-bfae-50a95851ecd9"},"vehicle_type_id":"4","last_reported":1691089484,"current_range_meters":12000,"station_id":"ce4bgjh2rcd13ifvqbf0","pricing_plan_id":"free"},{"bike_id":"635491eb-d296-47bb-bb47-3fe31291cb35","system_id":"levelo_inurba_marseille","lat":43.2936,"lon":5.37835,"is_reserved":false,"is_disabled":false,"rental_uris":{"android":"levelo://app?vid=635491eb-d296-47bb-bb47-3fe31291cb35","ios":"levelo://app?vid=635491eb-d296-47bb-bb47-3fe31291cb35"},"vehicle_type_id":"4","last_reported":1691089484,"current_range_meters":1200,"station_id":"ce4bgjh2rcd13ifvqbf0","pricing_plan_id":"free"},{"bike_id":"32fda799-4d18-481b-adab-af168b3bf6a3","system_id":"levelo_inurba_marseille","lat":43.29889,"lon":5.38899,"is_reserved":false,"is_disabled":false,"rental_uris":{"android":"levelo://app?vid=32fda799-4d18-481b-adab-af168b3bf6a3","ios":"levelo://app?vid=32fda799-4d18-481b-adab-af168b3bf6a3"},"vehicle_type_id":"4","last_reported":1691089484,"current_range_meters":0,"station_id":"ce4bh392rcd13ifvqdl0","pricing_plan_id":"free"},{"bike_id":"e8bb7ace-0082-457c-b874-d4ab69fd94a3","system_id":"levelo_inurba_marseille","lat":43.298764,"lon":5.388973,"is_reserved":false,"is_disabled":false,"rental_uris":{"android":"levelo://app?vid=e8bb7ace-0082-457c-b874-d4ab69fd94a3","ios":"levelo://app?vid=e8bb7ace-0082-457c-b874-d4ab69fd94a3"},"vehicle_type_id":"4","last_reported":1691089484,"current_range_meters":12800,"station_id":"ce4bh392rcd13ifvqdl0","pricing_plan_id":"free"},{"bike_id":"710de319-f58c-4c6d-a5b6-52ab1d9d9564","system_id":"levelo_inurba_marseille","lat":43.298764,"lon":5.388973,"is_reserved":false,"is_disabled":false,"rental_uris":{"android":"levelo://app?vid=710de319-f58c-4c6d-a5b6-52ab1d9d9564","ios":"levelo://app?vid=710de319-f58c-4c6d-a5b6-52ab1d9d9564"},"vehicle_type_id":"4","last_reported":1691089484,"current_range_meters":800,"station_id":"ce4bh392rcd13ifvqdl0","pricing_plan_id":"free"},{"bike_id":"e63e2c8a-1391-4506-b0d8-8eb7b80832fe","system_id":"levelo_inurba_marseille","lat":43.291671,"lon":5.371575,"is_reserved":false,"is_disabled":false,"rental_uris":{"android":"levelo://app?vid=e63e2c8a-1391-4506-b0d8-8eb7b80832fe","ios":"levelo://app?vid=e63e2c8a-1391-4506-b0d8-8eb7b80832fe"},"vehicle_type_id":"4","last_reported":1691089484,"current_range_meters":10800,"station_id":"ce4bha92rcd13ifvqeh0","pricing_plan_id":"free"},{"bike_id":"313530bc-186f-4fda-acb6-b8e1bd539f49","system_id":"levelo_inurba_marseille","lat":43.30878,"lon":5.3964,"is_reserved":false,"is_disabled":false,"rental_uris":{"android":"levelo://app?vid=313530bc-186f-4fda-acb6-b8e1bd539f49","ios":"levelo://app?vid=313530bc-186f-4fda-acb6-b8e1bd539f49"},"vehicle_type_id":"4","last_reported":1691089484,"current_range_meters":0,"station_id":"ce4bh012rcd13ifvqcv0","pricing_plan_id":"free"},{"bike_id":"6d622c54-2b5c-4444-9919-773a018027d2","system_id":"levelo_inurba_marseille","lat":43.30875,"lon":5.3964,"is_reserved":false,"is_disabled":false,"rental_uris":{"android":"levelo://app?vid=6d622c54-2b5c-4444-9919-773a018027d2","ios":"levelo://app?vid=6d622c54-2b5c-4444-9919-773a018027d2"},"vehicle_type_id":"4","last_reported":1691089484,"current_range_meters":8000,"station_id":"ce4bh012rcd13ifvqcv0","pricing_plan_id":"free"},{"bike_id":"c6d51ee1-15e1-46de-8313-32d3220fe0bb","system_id":"levelo_inurba_marseille","lat":43.31325,"lon":5.39691,"is_reserved":false,"is_disabled":false,"rental_uris":{"android":"levelo://app?vid=c6d51ee1-15e1-46de-8313-32d3220fe0bb","ios":"levelo://app?vid=c6d51ee1-15e1-46de-8313-32d3220fe0bb"},"vehicle_type_id":"4","last_reported":1691089484,"current_range_meters":14400,"station_id":"ce4bgvp2rcd13ifvqcu0","pricing_plan_id":"free"},{"bike_id":"6892b0b6-a11f-494e-89c9-02e8f6fb3c65","system_id":"levelo_inurba_marseille","lat":43.31321,"lon":5.39695,"is_reserved":false,"is_disabled":false,"rental_uris":{"android":"levelo://app?vid=6892b0b6-a11f-494e-89c9-02e8f6fb3c65","ios":"levelo://app?vid=6892b0b6-a11f-494e-89c9-02e8f6fb3c65"},"vehicle_type_id":"4","last_reported":1691089484,"current_range_meters":15600,"station_id":"ce4bgvp2rcd13ifvqcu0","pricing_plan_id":"free"},{"bike_id":"ff8ec4df-c8ea-4544-acaf-feb14e2ffe04","system_id":"levelo_inurba_marseille","lat":43.3089,"lon":5.39655,"is_reserved":false,"is_disabled":false,"rental_uris":{"android":"levelo://app?vid=ff8ec4df-c8ea-4544-acaf-feb14e2ffe04","ios":"levelo://app?vid=ff8ec4df-c8ea-4544-acaf-feb14e2ffe04"},"vehicle_type_id":"4","last_reported":1691089484,"current_range_meters":7200,"station_id":"ce4bh012rcd13ifvqcv0","pricing_plan_id":"free"},{"bike_id":"5e4f7d5a-bd13-4f0c-a33d-d9cc51ab83da","system_id":"levelo_inurba_marseille","lat":43.30889,"lon":5.39656,"is_reserved":false,"is_disabled":false,"rental_uris":{"android":"levelo://app?vid=5e4f7d5a-bd13-4f0c-a33d-d9cc51ab83da","ios":"levelo://app?vid=5e4f7d5a-bd13-4f0c-a33d-d9cc51ab83da"},"vehicle_type_id":"4","last_reported":1691089484,"current_range_meters":18000,"station_id":"ce4bh012rcd13ifvqcv0","pricing_plan_id":"free"},{"bike_id":"251ca25d-5976-49db-8628-bfef27d46a12","system_id":"levelo_inurba_marseille","lat":43.30887,"lon":5.39657,"is_reserved":false,"is_disabled":false,"rental_uris":{"android":"levelo://app?vid=251ca25d-5976-49db-8628-bfef27d46a12","ios":"levelo://app?vid=251ca25d-5976-49db-8628-bfef27d46a12"},"vehicle_type_id":"4","last_reported":1691089484,"current_range_meters":12000,"station_id":"ce4bh012rcd13ifvqcv0","pricing_plan_id":"free"},{"bike_id":"79bed0a4-91b2-4596-9253-5c1e19af0e54","system_id":"levelo_inurba_marseille","lat":43.29529,"lon":5.385581,"is_reserved":false,"is_disabled":false,"rental_uris":{"android":"levelo://app?vid=79bed0a4-91b2-4596-9253-5c1e19af0e54","ios":"levelo://app?vid=79bed0a4-91b2-4596-9253-5c1e19af0e54"},"vehicle_type_id":"4","last_reported":1691089484,"current_range_meters":24000,"station_id":"ce4bgih2rcd13ifvqba0","pricing_plan_id":"free"},{"bike_id":"8d3e5792-fd4d-4e89-b662-f9be671c96ad","system_id":"levelo_inurba_marseille","lat":43.29529,"lon":5.385581,"is_reserved":false,"is_disabled":false,"rental_uris":{"android":"levelo://app?vid=8d3e5792-fd4d-4e89-b662-f9be671c96ad","ios":"levelo://app?vid=8d3e5792-fd4d-4e89-b662-f9be671c96ad"},"vehicle_type_id":"4","last_reported":1691089484,"current_range_meters":3600,"station_id":"ce4bgih2rcd13ifvqba0","pricing_plan_id":"free"},{"bike_id":"597a6575-a390-464d-85df-524ac39db09a","system_id":"levelo_inurba_marseille","lat":43.29529,"lon":5.385581,"is_reserved":false,"is_disabled":false,"rental_uris":{"android":"levelo://app?vid=597a6575-a390-464d-85df-524ac39db09a","ios":"levelo://app?vid=597a6575-a390-464d-85df-524ac39db09a"},"vehicle_type_id":"4","last_reported":1691089484,"current_range_meters":19200,"station_id":"ce4bgih2rcd13ifvqba0","pricing_plan_id":"free"},{"bike_id":"74283971-371e-4925-91e3-0dcf8316883b","system_id":"levelo_inurba_marseille","lat":43.29529,"lon":5.385581,"is_reserved":false,"is_disabled":false,"rental_uris":{"android":"levelo://app?vid=74283971-371e-4925-91e3-0dcf8316883b","ios":"levelo://app?vid=74283971-371e-4925-91e3-0dcf8316883b"},"vehicle_type_id":"4","last_reported":1691089484,"current_range_meters":31600,"station_id":"ce4bgih2rcd13ifvqba0","pricing_plan_id":"free"},{"bike_id":"02ac20eb-a4fe-47d8-a4b9-2bf13574753a","system_id":"levelo_inurba_marseille","lat":43.29529,"lon":5.385581,"is_reserved":false,"is_disabled":false,"rental_uris":{"android":"levelo://app?vid=02ac20eb-a4fe-47d8-a4b9-2bf13574753a","ios":"levelo://app?vid=02ac20eb-a4fe-47d8-a4b9-2bf13574753a"},"vehicle_type_id":"4","last_reported":1691089484,"current_range_meters":23600,"station_id":"ce4bgih2rcd13ifvqba0","pricing_plan_id":"free"},{"bike_id":"75572e86-5189-43c7-997e-92abe495174e","system_id":"levelo_inurba_marseille","lat":43.29529,"lon":5.385581,"is_reserved":false,"is_disabled":false,"rental_uris":{"android":"levelo://app?vid=75572e86-5189-43c7-997e-92abe495174e","ios":"levelo://app?vid=75572e86-5189-43c7-997e-92abe495174e"},"vehicle_type_id":"4","last_reported":1691089484,"current_range_meters":1600,"station_id":"ce4bgih2rcd13ifvqba0","pricing_plan_id":"free"},{"bike_id":"fef5adf6-3b7c-4da5-a8a2-4305890fe5e1","system_id":"levelo_inurba_marseille","lat":43.29416,"lon":5.38624,"is_reserved":false,"is_disabled":false,"rental_uris":{"android":"levelo://app?vid=fef5adf6-3b7c-4da5-a8a2-4305890fe5e1","ios":"levelo://app?vid=fef5adf6-3b7c-4da5-a8a2-4305890fe5e1"},"vehicle_type_id":"4","last_reported":1691089484,"current_range_meters":1200,"station_id":"ce4bh2h2rcd13ifvqdh0","pricing_plan_id":"free"},{"bike_id":"6995968e-d6b6-4f09-8c37-2d58fb9d31ee","system_id":"levelo_inurba_marseille","lat":43.29417,"lon":5.38631,"is_reserved":false,"is_disabled":false,"rental_uris":{"android":"levelo://app?vid=6995968e-d6b6-4f09-8c37-2d58fb9d31ee","ios":"levelo://app?vid=6995968e-d6b6-4f09-8c37-2d58fb9d31ee"},"vehicle_type_id":"4","last_reported":1691089484,"current_range_meters":18400,"station_id":"ce4bh2h2rcd13ifvqdh0","pricing_plan_id":"free"},{"bike_id":"dcb5103a-169c-42d1-a6b9-73277159cd3a","system_id":"levelo_inurba_marseille","lat":43.28941,"lon":5.36636,"is_reserved":false,"is_disabled":false,"rental_uris":{"android":"levelo://app?vid=dcb5103a-169c-42d1-a6b9-73277159cd3a","ios":"levelo://app?vid=dcb5103a-169c-42d1-a6b9-73277159cd3a"},"vehicle_type_id":"4","last_reported":1691089484,"current_range_meters":4800,"station_id":"ce4bhap2rcd13ifvqek0","pricing_plan_id":"free"},{"bike_id":"3c892f9d-f742-4747-b2a0-451495b0939c","system_id":"levelo_inurba_marseille","lat":43.29028,"lon":5.37563,"is_reserved":false,"is_disabled":false,"rental_uris":{"android":"levelo://app?vid=3c892f9d-f742-4747-b2a0-451495b0939c","ios":"levelo://app?vid=3c892f9d-f742-4747-b2a0-451495b0939c"},"vehicle_type_id":"4","last_reported":1691089484,"current_range_meters":11200,"station_id":"ce4bh692rcd13ifvqe90","pricing_plan_id":"free"},{"bike_id":"2c6addae-bef3-417a-9544-a21752da4d32","system_id":"levelo_inurba_marseille","lat":43.289184,"lon":5.366408,"is_reserved":false,"is_disabled":false,"rental_uris":{"android":"levelo://app?vid=2c6addae-bef3-417a-9544-a21752da4d32","ios":"levelo://app?vid=2c6addae-bef3-417a-9544-a21752da4d32"},"vehicle_type_id":"4","last_reported":1691089484,"current_range_meters":9200,"station_id":"ce4bhap2rcd13ifvqek0","pricing_plan_id":"free"},{"bike_id":"fe81016e-e13a-4794-9512-b5cb39f0e6b9","system_id":"levelo_inurba_marseille","lat":43.28938,"lon":5.36628,"is_reserved":false,"is_disabled":false,"rental_uris":{"android":"levelo://app?vid=fe81016e-e13a-4794-9512-b5cb39f0e6b9","ios":"levelo://app?vid=fe81016e-e13a-4794-9512-b5cb39f0e6b9"},"vehicle_type_id":"4","last_reported":1691089484,"current_range_meters":31200,"station_id":"ce4bhap2rcd13ifvqek0","pricing_plan_id":"free"},{"bike_id":"f1e456a3-0ba3-47a5-af23-8f28caf17dc1","system_id":"levelo_inurba_marseille","lat":43.289184,"lon":5.366408,"is_reserved":false,"is_disabled":false,"rental_uris":{"android":"levelo://app?vid=f1e456a3-0ba3-47a5-af23-8f28caf17dc1","ios":"levelo://app?vid=f1e456a3-0ba3-47a5-af23-8f28caf17dc1"},"vehicle_type_id":"4","last_reported":1691089484,"current_range_meters":8400,"station_id":"ce4bhap2rcd13ifvqek0","pricing_plan_id":"free"},{"bike_id":"d517aeb0-a40f-41cd-98c7-7bf9231c5315","system_id":"levelo_inurba_marseille","lat":43.28931,"lon":5.36628,"is_reserved":false,"is_disabled":false,"rental_uris":{"android":"levelo://app?vid=d517aeb0-a40f-41cd-98c7-7bf9231c5315","ios":"levelo://app?vid=d517aeb0-a40f-41cd-98c7-7bf9231c5315"},"vehicle_type_id":"4","last_reported":1691089484,"current_range_meters":31200,"station_id":"ce4bhap2rcd13ifvqek0","pricing_plan_id":"free"},{"bike_id":"75a92dbe-4a91-4c23-839f-b728cce21bd1","system_id":"levelo_inurba_marseille","lat":43.289468,"lon":5.363719,"is_reserved":false,"is_disabled":false,"rental_uris":{"android":"levelo://app?vid=75a92dbe-4a91-4c23-839f-b728cce21bd1","ios":"levelo://app?vid=75a92dbe-4a91-4c23-839f-b728cce21bd1"},"vehicle_type_id":"4","last_reported":1691089484,"current_range_meters":2400,"station_id":"ce4bhc92rcd13ifvqetg","pricing_plan_id":"free"},{"bike_id":"e0ac4ef2-8a49-4897-9ddf-8ee23c37014e","system_id":"levelo_inurba_marseille","lat":43.28927,"lon":5.36628,"is_reserved":false,"is_disabled":false,"rental_uris":{"android":"levelo://app?vid=e0ac4ef2-8a49-4897-9ddf-8ee23c37014e","ios":"levelo://app?vid=e0ac4ef2-8a49-4897-9ddf-8ee23c37014e"},"vehicle_type_id":"4","last_reported":1691089484,"current_range_meters":0,"station_id":"","pricing_plan_id":"free"},{"bike_id":"fef5b4ff-666e-4cdf-b3d3-a9a97dcb5d77","system_id":"levelo_inurba_marseille","lat":43.292644,"lon":5.384257,"is_reserved":false,"is_disabled":false,"rental_uris":{"android":"levelo://app?vid=fef5b4ff-666e-4cdf-b3d3-a9a97dcb5d77","ios":"levelo://app?vid=fef5b4ff-666e-4cdf-b3d3-a9a97dcb5d77"},"vehicle_type_id":"4","last_reported":1691089484,"current_range_meters":1600,"station_id":"ce4bh692rcd13ifvqea0","pricing_plan_id":"free"},{"bike_id":"1222c2a3-6946-4e10-b69b-328e01e52993","system_id":"levelo_inurba_marseille","lat":43.304274,"lon":5.397513,"is_reserved":false,"is_disabled":false,"rental_uris":{"android":"levelo://app?vid=1222c2a3-6946-4e10-b69b-328e01e52993","ios":"levelo://app?vid=1222c2a3-6946-4e10-b69b-328e01e52993"},"vehicle_type_id":"4","last_reported":1691089484,"current_range_meters":31600,"station_id":"ce4bh092rcd13ifvqd20","pricing_plan_id":"free"},{"bike_id":"976f718a-bfdb-4480-a757-e5b9a5d1a5d6","system_id":"levelo_inurba_marseille","lat":43.33036,"lon":5.38914,"is_reserved":false,"is_disabled":false,"rental_uris":{"android":"levelo://app?vid=976f718a-bfdb-4480-a757-e5b9a5d1a5d6","ios":"levelo://app?vid=976f718a-bfdb-4480-a757-e5b9a5d1a5d6"},"vehicle_type_id":"4","last_reported":1691089484,"current_range_meters":17200,"station_id":"ce4bhr92rcd13ifvqhrg","pricing_plan_id":"free"},{"bike_id":"20cf3f6d-acf4-4653-bf24-baa04253f77a","system_id":"levelo_inurba_marseille","lat":43.33034,"lon":5.38918,"is_reserved":false,"is_disabled":false,"rental_uris":{"android":"levelo://app?vid=20cf3f6d-acf4-4653-bf24-baa04253f77a","ios":"levelo://app?vid=20cf3f6d-acf4-4653-bf24-baa04253f77a"},"vehicle_type_id":"4","last_reported":1691089484,"current_range_meters":22800,"station_id":"ce4bhr92rcd13ifvqhrg","pricing_plan_id":"free"},{"bike_id":"afb9ad20-54ce-47aa-b696-725d28502e40","system_id":"levelo_inurba_marseille","lat":43.304296,"lon":5.397513,"is_reserved":false,"is_disabled":false,"rental_uris":{"android":"levelo://app?vid=afb9ad20-54ce-47aa-b696-725d28502e40","ios":"levelo://app?vid=afb9ad20-54ce-47aa-b696-725d28502e40"},"vehicle_type_id":"4","last_reported":1691089484,"current_range_meters":28400,"station_id":"ce4bh092rcd13ifvqd20","pricing_plan_id":"free"},{"bike_id":"00b2dcdc-2882-40a1-9132-89c3ec15cf18","system_id":"levelo_inurba_marseille","lat":43.33039,"lon":5.38916,"is_reserved":false,"is_disabled":false,"rental_uris":{"android":"levelo://app?vid=00b2dcdc-2882-40a1-9132-89c3ec15cf18","ios":"levelo://app?vid=00b2dcdc-2882-40a1-9132-89c3ec15cf18"},"vehicle_type_id":"4","last_reported":1691089484,"current_range_meters":22800,"station_id":"ce4bhr92rcd13ifvqhrg","pricing_plan_id":"free"},{"bike_id":"f67edc25-bcc7-41fb-8431-1add679b0933","system_id":"levelo_inurba_marseille","lat":43.33043,"lon":5.38914,"is_reserved":false,"is_disabled":false,"rental_uris":{"android":"levelo://app?vid=f67edc25-bcc7-41fb-8431-1add679b0933","ios":"levelo://app?vid=f67edc25-bcc7-41fb-8431-1add679b0933"},"vehicle_type_id":"4","last_reported":1691089484,"current_range_meters":24000,"station_id":"ce4bhr92rcd13ifvqhrg","pricing_plan_id":"free"},{"bike_id":"2f2d42a2-8de0-405f-9429-d3eae654394c","system_id":"levelo_inurba_marseille","lat":43.33047,"lon":5.3891,"is_reserved":false,"is_disabled":false,"rental_uris":{"android":"levelo://app?vid=2f2d42a2-8de0-405f-9429-d3eae654394c","ios":"levelo://app?vid=2f2d42a2-8de0-405f-9429-d3eae654394c"},"vehicle_type_id":"4","last_reported":1691089484,"current_range_meters":25200,"station_id":"ce4bhr92rcd13ifvqhrg","pricing_plan_id":"free"},{"bike_id":"6345c1a8-c269-413e-9532-35e13af5b7e7","system_id":"levelo_inurba_marseille","lat":43.33045,"lon":5.38914,"is_reserved":false,"is_disabled":false,"rental_uris":{"android":"levelo://app?vid=6345c1a8-c269-413e-9532-35e13af5b7e7","ios":"levelo://app?vid=6345c1a8-c269-413e-9532-35e13af5b7e7"},"vehicle_type_id":"4","last_reported":1691089484,"current_range_meters":16800,"station_id":"ce4bhr92rcd13ifvqhrg","pricing_plan_id":"free"},{"bike_id":"32d586c5-a384-4343-a726-2578fe0c0f0a","system_id":"levelo_inurba_marseille","lat":43.29006,"lon":5.35622,"is_reserved":false,"is_disabled":false,"rental_uris":{"android":"levelo://app?vid=32d586c5-a384-4343-a726-2578fe0c0f0a","ios":"levelo://app?vid=32d586c5-a384-4343-a726-2578fe0c0f0a"},"vehicle_type_id":"4","last_reported":1691089484,"current_range_meters":12800,"station_id":"ce4bhb92rcd13ifvqen0","pricing_plan_id":"free"},{"bike_id":"aa6bfe00-71a4-4eb8-ad80-da3f1bbe3ce6","system_id":"levelo_inurba_marseille","lat":43.290995,"lon":5.381361,"is_reserved":false,"is_disabled":false,"rental_uris":{"android":"levelo://app?vid=aa6bfe00-71a4-4eb8-ad80-da3f1bbe3ce6","ios":"levelo://app?vid=aa6bfe00-71a4-4eb8-ad80-da3f1bbe3ce6"},"vehicle_type_id":"4","last_reported":1691089484,"current_range_meters":5200,"station_id":"ce4bh512rcd13ifvqe2g","pricing_plan_id":"free"},{"bike_id":"05bf2cc0-c80b-4d3b-9303-5cea93148e89","system_id":"levelo_inurba_marseille","lat":43.290995,"lon":5.381361,"is_reserved":false,"is_disabled":false,"rental_uris":{"android":"levelo://app?vid=05bf2cc0-c80b-4d3b-9303-5cea93148e89","ios":"levelo://app?vid=05bf2cc0-c80b-4d3b-9303-5cea93148e89"},"vehicle_type_id":"4","last_reported":1691089484,"current_range_meters":31600,"station_id":"ce4bh512rcd13ifvqe2g","pricing_plan_id":"free"},{"bike_id":"3d95142f-cf86-4e09-ab77-db34099028e3","system_id":"levelo_inurba_marseille","lat":43.295169,"lon":5.390426,"is_reserved":false,"is_disabled":false,"rental_uris":{"android":"levelo://app?vid=3d95142f-cf86-4e09-ab77-db34099028e3","ios":"levelo://app?vid=3d95142f-cf86-4e09-ab77-db34099028e3"},"vehicle_type_id":"4","last_reported":1691089484,"current_range_meters":17200,"station_id":"ce4bh3p2rcd13ifvqdp0","pricing_plan_id":"free"},{"bike_id":"8a252503-b4d1-4b40-93c0-8126218275d8","system_id":"levelo_inurba_marseille","lat":43.28829,"lon":5.37135,"is_reserved":false,"is_disabled":false,"rental_uris":{"android":"levelo://app?vid=8a252503-b4d1-4b40-93c0-8126218275d8","ios":"levelo://app?vid=8a252503-b4d1-4b40-93c0-8126218275d8"},"vehicle_type_id":"4","last_reported":1691089484,"current_range_meters":16400,"station_id":"","pricing_plan_id":"free"},{"bike_id":"a64f602f-e1be-44a0-9d79-7959fc105741","system_id":"levelo_inurba_marseille","lat":43.29192,"lon":5.38521,"is_reserved":false,"is_disabled":false,"rental_uris":{"android":"levelo://app?vid=a64f602f-e1be-44a0-9d79-7959fc105741","ios":"levelo://app?vid=a64f602f-e1be-44a0-9d79-7959fc105741"},"vehicle_type_id":"4","last_reported":1691089484,"current_range_meters":8800,"station_id":"","pricing_plan_id":"free"},{"bike_id":"322ed6b8-4230-4587-8ba5-5c05356ee443","system_id":"levelo_inurba_marseille","lat":43.28856,"lon":5.358371,"is_reserved":false,"is_disabled":false,"rental_uris":{"android":"levelo://app?vid=322ed6b8-4230-4587-8ba5-5c05356ee443","ios":"levelo://app?vid=322ed6b8-4230-4587-8ba5-5c05356ee443"},"vehicle_type_id":"4","last_reported":1691089484,"current_range_meters":30800,"station_id":"ce4bhb12rcd13ifvqem0","pricing_plan_id":"free"},{"bike_id":"e64887cb-341d-4c03-912c-afb11b241e53","system_id":"levelo_inurba_marseille","lat":43.309371,"lon":5.401449,"is_reserved":false,"is_disabled":false,"rental_uris":{"android":"levelo://app?vid=e64887cb-341d-4c03-912c-afb11b241e53","ios":"levelo://app?vid=e64887cb-341d-4c03-912c-afb11b241e53"},"vehicle_type_id":"4","last_reported":1691089484,"current_range_meters":4000,"station_id":"ce4bgvp2rcd13ifvqct0","pricing_plan_id":"free"},{"bike_id":"9c99dd70-7ac1-46b8-aa41-e8323ba61f9c","system_id":"levelo_inurba_marseille","lat":43.31275,"lon":5.40173,"is_reserved":false,"is_disabled":false,"rental_uris":{"android":"levelo://app?vid=9c99dd70-7ac1-46b8-aa41-e8323ba61f9c","ios":"levelo://app?vid=9c99dd70-7ac1-46b8-aa41-e8323ba61f9c"},"vehicle_type_id":"4","last_reported":1691089484,"current_range_meters":30000,"station_id":"ce4bh092rcd13ifvqd30","pricing_plan_id":"free"},{"bike_id":"e56c28c8-abaf-414d-b76f-bc3dd3a2e23c","system_id":"levelo_inurba_marseille","lat":43.30634,"lon":5.40075,"is_reserved":false,"is_disabled":false,"rental_uris":{"android":"levelo://app?vid=e56c28c8-abaf-414d-b76f-bc3dd3a2e23c","ios":"levelo://app?vid=e56c28c8-abaf-414d-b76f-bc3dd3a2e23c"},"vehicle_type_id":"4","last_reported":1691089484,"current_range_meters":4400,"station_id":"ce4bh112rcd13ifvqda0","pricing_plan_id":"free"},{"bike_id":"ae3aa10d-4e99-4779-b279-595b2dcc80e5","system_id":"levelo_inurba_marseille","lat":43.30632,"lon":5.40078,"is_reserved":false,"is_disabled":false,"rental_uris":{"android":"levelo://app?vid=ae3aa10d-4e99-4779-b279-595b2dcc80e5","ios":"levelo://app?vid=ae3aa10d-4e99-4779-b279-595b2dcc80e5"},"vehicle_type_id":"4","last_reported":1691089484,"current_range_meters":0,"station_id":"ce4bh112rcd13ifvqda0","pricing_plan_id":"free"},{"bike_id":"c362f180-c83b-4db0-a71e-a921d98d45a3","system_id":"levelo_inurba_marseille","lat":43.33758,"lon":5.37487,"is_reserved":false,"is_disabled":false,"rental_uris":{"android":"levelo://app?vid=c362f180-c83b-4db0-a71e-a921d98d45a3","ios":"levelo://app?vid=c362f180-c83b-4db0-a71e-a921d98d45a3"},"vehicle_type_id":"4","last_reported":1691089484,"current_range_meters":27200,"station_id":"","pricing_plan_id":"free"},{"bike_id":"755a5232-9f39-430d-b8d7-ceb5345e90cb","system_id":"levelo_inurba_marseille","lat":43.306458,"lon":5.400935,"is_reserved":false,"is_disabled":false,"rental_uris":{"android":"levelo://app?vid=755a5232-9f39-430d-b8d7-ceb5345e90cb","ios":"levelo://app?vid=755a5232-9f39-430d-b8d7-ceb5345e90cb"},"vehicle_type_id":"4","last_reported":1691089484,"current_range_meters":14400,"station_id":"ce4bh112rcd13ifvqda0","pricing_plan_id":"free"},{"bike_id":"37787b66-60b0-4400-b457-14ab43978686","system_id":"levelo_inurba_marseille","lat":43.298681,"lon":5.397225,"is_reserved":false,"is_disabled":false,"rental_uris":{"android":"levelo://app?vid=37787b66-60b0-4400-b457-14ab43978686","ios":"levelo://app?vid=37787b66-60b0-4400-b457-14ab43978686"},"vehicle_type_id":"4","last_reported":1691089484,"current_range_meters":23200,"station_id":"ce4bh0h2rcd13ifvqd50","pricing_plan_id":"free"},{"bike_id":"2d911d47-a9b7-4025-b874-8c336537c1f8","system_id":"levelo_inurba_marseille","lat":43.28672,"lon":5.36335,"is_reserved":false,"is_disabled":false,"rental_uris":{"android":"levelo://app?vid=2d911d47-a9b7-4025-b874-8c336537c1f8","ios":"levelo://app?vid=2d911d47-a9b7-4025-b874-8c336537c1f8"},"vehicle_type_id":"4","last_reported":1691089484,"current_range_meters":15200,"station_id":"ce4bhah2rcd13ifvqej0","pricing_plan_id":"free"},{"bike_id":"893d59a8-596a-4617-a72c-23874817ec33","system_id":"levelo_inurba_marseille","lat":43.286961,"lon":5.373785,"is_reserved":false,"is_disabled":false,"rental_uris":{"android":"levelo://app?vid=893d59a8-596a-4617-a72c-23874817ec33","ios":"levelo://app?vid=893d59a8-596a-4617-a72c-23874817ec33"},"vehicle_type_id":"4","last_reported":1691089484,"current_range_meters":26000,"station_id":"ce4bh3p2rcd13ifvqdq0","pricing_plan_id":"free"},{"bike_id":"dcd60235-d22e-40f6-8d2c-12e63c683e85","system_id":"levelo_inurba_marseille","lat":43.298681,"lon":5.397225,"is_reserved":false,"is_disabled":false,"rental_uris":{"android":"levelo://app?vid=dcd60235-d22e-40f6-8d2c-12e63c683e85","ios":"levelo://app?vid=dcd60235-d22e-40f6-8d2c-12e63c683e85"},"vehicle_type_id":"4","last_reported":1691089484,"current_range_meters":400,"station_id":"ce4bh0h2rcd13ifvqd50","pricing_plan_id":"free"},{"bike_id":"75199276-b705-4ad7-b6a9-49aeaa84628a","system_id":"levelo_inurba_marseille","lat":43.286591,"lon":5.363346,"is_reserved":false,"is_disabled":false,"rental_uris":{"android":"levelo://app?vid=75199276-b705-4ad7-b6a9-49aeaa84628a","ios":"levelo://app?vid=75199276-b705-4ad7-b6a9-49aeaa84628a"},"vehicle_type_id":"4","last_reported":1691089484,"current_range_meters":31600,"station_id":"ce4bhah2rcd13ifvqej0","pricing_plan_id":"free"},{"bike_id":"c24862ea-08eb-4b81-88bb-8562eca222b3","system_id":"levelo_inurba_marseille","lat":43.298681,"lon":5.397225,"is_reserved":false,"is_disabled":false,"rental_uris":{"android":"levelo://app?vid=c24862ea-08eb-4b81-88bb-8562eca222b3","ios":"levelo://app?vid=c24862ea-08eb-4b81-88bb-8562eca222b3"},"vehicle_type_id":"4","last_reported":1691089484,"current_range_meters":22000,"station_id":"ce4bh0h2rcd13ifvqd50","pricing_plan_id":"free"},{"bike_id":"9f19e2f6-f9a3-4019-887e-1ccdf3131496","system_id":"levelo_inurba_marseille","lat":43.298681,"lon":5.397225,"is_reserved":false,"is_disabled":false,"rental_uris":{"android":"levelo://app?vid=9f19e2f6-f9a3-4019-887e-1ccdf3131496","ios":"levelo://app?vid=9f19e2f6-f9a3-4019-887e-1ccdf3131496"},"vehicle_type_id":"4","last_reported":1691089484,"current_range_meters":1200,"station_id":"ce4bh0h2rcd13ifvqd50","pricing_plan_id":"free"},{"bike_id":"cbcbd585-e4f7-4572-abb0-6ff33efc2f91","system_id":"levelo_inurba_marseille","lat":43.286961,"lon":5.373785,"is_reserved":false,"is_disabled":false,"rental_uris":{"android":"levelo://app?vid=cbcbd585-e4f7-4572-abb0-6ff33efc2f91","ios":"levelo://app?vid=cbcbd585-e4f7-4572-abb0-6ff33efc2f91"},"vehicle_type_id":"4","last_reported":1691089484,"current_range_meters":2800,"station_id":"ce4bh3p2rcd13ifvqdq0","pricing_plan_id":"free"},{"bike_id":"5f09d22e-696d-479c-a258-50293c9e8215","system_id":"levelo_inurba_marseille","lat":43.28662,"lon":5.36348,"is_reserved":false,"is_disabled":false,"rental_uris":{"android":"levelo://app?vid=5f09d22e-696d-479c-a258-50293c9e8215","ios":"levelo://app?vid=5f09d22e-696d-479c-a258-50293c9e8215"},"vehicle_type_id":"4","last_reported":1691089484,"current_range_meters":16400,"station_id":"ce4bhah2rcd13ifvqej0","pricing_plan_id":"free"},{"bike_id":"7385bc46-b9f7-4e0f-8315-92f0fbf35b2f","system_id":"levelo_inurba_marseille","lat":43.2866,"lon":5.36355,"is_reserved":false,"is_disabled":false,"rental_uris":{"android":"levelo://app?vid=7385bc46-b9f7-4e0f-8315-92f0fbf35b2f","ios":"levelo://app?vid=7385bc46-b9f7-4e0f-8315-92f0fbf35b2f"},"vehicle_type_id":"4","last_reported":1691089484,"current_range_meters":2800,"station_id":"ce4bhah2rcd13ifvqej0","pricing_plan_id":"free"},{"bike_id":"e512daf6-ca25-4c1d-b741-f785bb3d4f90","system_id":"levelo_inurba_marseille","lat":43.286961,"lon":5.373785,"is_reserved":false,"is_disabled":false,"rental_uris":{"android":"levelo://app?vid=e512daf6-ca25-4c1d-b741-f785bb3d4f90","ios":"levelo://app?vid=e512daf6-ca25-4c1d-b741-f785bb3d4f90"},"vehicle_type_id":"4","last_reported":1691089484,"current_range_meters":21600,"station_id":"ce4bh3p2rcd13ifvqdq0","pricing_plan_id":"free"},{"bike_id":"d2b34251-1570-455e-ad38-6012593869e5","system_id":"levelo_inurba_marseille","lat":43.298681,"lon":5.397225,"is_reserved":false,"is_disabled":false,"rental_uris":{"android":"levelo://app?vid=d2b34251-1570-455e-ad38-6012593869e5","ios":"levelo://app?vid=d2b34251-1570-455e-ad38-6012593869e5"},"vehicle_type_id":"4","last_reported":1691089484,"current_range_meters":6400,"station_id":"ce4bh0h2rcd13ifvqd50","pricing_plan_id":"free"},{"bike_id":"dc17eaeb-9dbd-4e7c-b657-0cd9f5f9eba3","system_id":"levelo_inurba_marseille","lat":43.295196,"lon":5.39397,"is_reserved":false,"is_disabled":false,"rental_uris":{"android":"levelo://app?vid=dc17eaeb-9dbd-4e7c-b657-0cd9f5f9eba3","ios":"levelo://app?vid=dc17eaeb-9dbd-4e7c-b657-0cd9f5f9eba3"},"vehicle_type_id":"4","last_reported":1691089484,"current_range_meters":21600,"station_id":"ce4bh292rcd13ifvqdf0","pricing_plan_id":"free"},{"bike_id":"7b9e2d57-7c2f-4652-8ec0-ee4d147afe24","system_id":"levelo_inurba_marseille","lat":43.302548,"lon":5.400568,"is_reserved":false,"is_disabled":false,"rental_uris":{"android":"levelo://app?vid=7b9e2d57-7c2f-4652-8ec0-ee4d147afe24","ios":"levelo://app?vid=7b9e2d57-7c2f-4652-8ec0-ee4d147afe24"},"vehicle_type_id":"4","last_reported":1691089484,"current_range_meters":17600,"station_id":"","pricing_plan_id":"free"},{"bike_id":"215563af-78d5-4857-b280-a9747e127e34","system_id":"levelo_inurba_marseille","lat":43.290345,"lon":5.38646,"is_reserved":false,"is_disabled":false,"rental_uris":{"android":"levelo://app?vid=215563af-78d5-4857-b280-a9747e127e34","ios":"levelo://app?vid=215563af-78d5-4857-b280-a9747e127e34"},"vehicle_type_id":"4","last_reported":1691089484,"current_range_meters":8000,"station_id":"ce4bh4p2rcd13ifvqe0g","pricing_plan_id":"free"},{"bike_id":"320dd370-cfea-4eea-b153-1fb880c35345","system_id":"levelo_inurba_marseille","lat":43.290345,"lon":5.38646,"is_reserved":false,"is_disabled":false,"rental_uris":{"android":"levelo://app?vid=320dd370-cfea-4eea-b153-1fb880c35345","ios":"levelo://app?vid=320dd370-cfea-4eea-b153-1fb880c35345"},"vehicle_type_id":"4","last_reported":1691089484,"current_range_meters":6000,"station_id":"ce4bh4p2rcd13ifvqe0g","pricing_plan_id":"free"},{"bike_id":"2fe187ec-3250-409f-901b-c40434a2335c","system_id":"levelo_inurba_marseille","lat":43.286039,"lon":5.370679,"is_reserved":false,"is_disabled":false,"rental_uris":{"android":"levelo://app?vid=2fe187ec-3250-409f-901b-c40434a2335c","ios":"levelo://app?vid=2fe187ec-3250-409f-901b-c40434a2335c"},"vehicle_type_id":"4","last_reported":1691089484,"current_range_meters":13600,"station_id":"ce4bht12rcd13ifvqi60","pricing_plan_id":"free"},{"bike_id":"f208948b-073c-49f3-8bbf-87464f0db531","system_id":"levelo_inurba_marseille","lat":43.286039,"lon":5.370681,"is_reserved":false,"is_disabled":false,"rental_uris":{"android":"levelo://app?vid=f208948b-073c-49f3-8bbf-87464f0db531","ios":"levelo://app?vid=f208948b-073c-49f3-8bbf-87464f0db531"},"vehicle_type_id":"4","last_reported":1691089484,"current_range_meters":31600,"station_id":"ce4bht12rcd13ifvqi60","pricing_plan_id":"free"},{"bike_id":"30ba5ac3-3ed2-42e5-8633-06bef007636a","system_id":"levelo_inurba_marseille","lat":43.286039,"lon":5.370681,"is_reserved":false,"is_disabled":false,"rental_uris":{"android":"levelo://app?vid=30ba5ac3-3ed2-42e5-8633-06bef007636a","ios":"levelo://app?vid=30ba5ac3-3ed2-42e5-8633-06bef007636a"},"vehicle_type_id":"4","last_reported":1691089484,"current_range_meters":31600,"station_id":"ce4bht12rcd13ifvqi60","pricing_plan_id":"free"},{"bike_id":"6e170837-50a1-4bbd-9dd8-bc4441441bc4","system_id":"levelo_inurba_marseille","lat":43.286039,"lon":5.370679,"is_reserved":false,"is_disabled":false,"rental_uris":{"android":"levelo://app?vid=6e170837-50a1-4bbd-9dd8-bc4441441bc4","ios":"levelo://app?vid=6e170837-50a1-4bbd-9dd8-bc4441441bc4"},"vehicle_type_id":"4","last_reported":1691089484,"current_range_meters":24800,"station_id":"ce4bht12rcd13ifvqi60","pricing_plan_id":"free"},{"bike_id":"7fbc7daf-926d-4f81-b0c1-1ccaea78f90a","system_id":"levelo_inurba_marseille","lat":43.286039,"lon":5.370681,"is_reserved":false,"is_disabled":false,"rental_uris":{"android":"levelo://app?vid=7fbc7daf-926d-4f81-b0c1-1ccaea78f90a","ios":"levelo://app?vid=7fbc7daf-926d-4f81-b0c1-1ccaea78f90a"},"vehicle_type_id":"4","last_reported":1691089484,"current_range_meters":31600,"station_id":"ce4bht12rcd13ifvqi60","pricing_plan_id":"free"},{"bike_id":"48ad477d-1b86-462a-a335-912be81d5676","system_id":"levelo_inurba_marseille","lat":43.31642,"lon":5.40433,"is_reserved":false,"is_disabled":false,"rental_uris":{"android":"levelo://app?vid=48ad477d-1b86-462a-a335-912be81d5676","ios":"levelo://app?vid=48ad477d-1b86-462a-a335-912be81d5676"},"vehicle_type_id":"4","last_reported":1691089484,"current_range_meters":24000,"station_id":"ce4bh012rcd13ifvqd00","pricing_plan_id":"free"},{"bike_id":"505579c6-72ba-4c58-83d0-fb23fcb3bfdd","system_id":"levelo_inurba_marseille","lat":43.31643,"lon":5.40436,"is_reserved":false,"is_disabled":false,"rental_uris":{"android":"levelo://app?vid=505579c6-72ba-4c58-83d0-fb23fcb3bfdd","ios":"levelo://app?vid=505579c6-72ba-4c58-83d0-fb23fcb3bfdd"},"vehicle_type_id":"4","last_reported":1691089484,"current_range_meters":27600,"station_id":"ce4bh012rcd13ifvqd00","pricing_plan_id":"free"},{"bike_id":"3fd745cf-8b70-41a7-9eff-084e35fd99cb","system_id":"levelo_inurba_marseille","lat":43.279087,"lon":5.380114,"is_reserved":false,"is_disabled":false,"rental_uris":{"android":"levelo://app?vid=3fd745cf-8b70-41a7-9eff-084e35fd99cb","ios":"levelo://app?vid=3fd745cf-8b70-41a7-9eff-084e35fd99cb"},"vehicle_type_id":"4","last_reported":1691089484,"current_range_meters":19600,"station_id":"ce4bhf92rcd13ifvqf50","pricing_plan_id":"free"},{"bike_id":"e3895465-a2f0-45e8-9325-d3afc4e497d4","system_id":"levelo_inurba_marseille","lat":43.29201,"lon":5.3932,"is_reserved":false,"is_disabled":false,"rental_uris":{"android":"levelo://app?vid=e3895465-a2f0-45e8-9325-d3afc4e497d4","ios":"levelo://app?vid=e3895465-a2f0-45e8-9325-d3afc4e497d4"},"vehicle_type_id":"4","last_reported":1691089484,"current_range_meters":0,"station_id":"ce4bh192rcd13ifvqdd0","pricing_plan_id":"free"},{"bike_id":"f8cf0200-fc72-4c1b-b7ad-5b3782656313","system_id":"levelo_inurba_marseille","lat":43.291994,"lon":5.392907,"is_reserved":false,"is_disabled":false,"rental_uris":{"android":"levelo://app?vid=f8cf0200-fc72-4c1b-b7ad-5b3782656313","ios":"levelo://app?vid=f8cf0200-fc72-4c1b-b7ad-5b3782656313"},"vehicle_type_id":"4","last_reported":1691089484,"current_range_meters":5200,"station_id":"ce4bh192rcd13ifvqdd0","pricing_plan_id":"free"},{"bike_id":"99ef77c8-5f24-48f8-b499-d5f3fc911ee4","system_id":"levelo_inurba_marseille","lat":43.29249,"lon":5.39412,"is_reserved":false,"is_disabled":false,"rental_uris":{"android":"levelo://app?vid=99ef77c8-5f24-48f8-b499-d5f3fc911ee4","ios":"levelo://app?vid=99ef77c8-5f24-48f8-b499-d5f3fc911ee4"},"vehicle_type_id":"4","last_reported":1691089484,"current_range_meters":18000,"station_id":"","pricing_plan_id":"free"},{"bike_id":"8da6143c-fb68-4e12-9da5-ed5030f8c067","system_id":"levelo_inurba_marseille","lat":43.28462,"lon":5.35897,"is_reserved":false,"is_disabled":false,"rental_uris":{"android":"levelo://app?vid=8da6143c-fb68-4e12-9da5-ed5030f8c067","ios":"levelo://app?vid=8da6143c-fb68-4e12-9da5-ed5030f8c067"},"vehicle_type_id":"4","last_reported":1691089484,"current_range_meters":14400,"station_id":"ce4bhah2rcd13ifvqei0","pricing_plan_id":"free"},{"bike_id":"0fad56f5-1e54-4911-bffb-4fd9d9294521","system_id":"levelo_inurba_marseille","lat":43.29189,"lon":5.3941,"is_reserved":false,"is_disabled":false,"rental_uris":{"android":"levelo://app?vid=0fad56f5-1e54-4911-bffb-4fd9d9294521","ios":"levelo://app?vid=0fad56f5-1e54-4911-bffb-4fd9d9294521"},"vehicle_type_id":"4","last_reported":1691089484,"current_range_meters":7600,"station_id":"","pricing_plan_id":"free"},{"bike_id":"caeb8411-2901-4a99-a433-1e2dd45a0668","system_id":"levelo_inurba_marseille","lat":43.294314,"lon":5.397498,"is_reserved":false,"is_disabled":false,"rental_uris":{"android":"levelo://app?vid=caeb8411-2901-4a99-a433-1e2dd45a0668","ios":"levelo://app?vid=caeb8411-2901-4a99-a433-1e2dd45a0668"},"vehicle_type_id":"4","last_reported":1691089484,"current_range_meters":1600,"station_id":"ce4bh3h2rcd13ifvqdo0","pricing_plan_id":"free"},{"bike_id":"aea62c68-a825-41c5-8df1-1b4a68f2c1bd","system_id":"levelo_inurba_marseille","lat":43.283998,"lon":5.375062,"is_reserved":false,"is_disabled":false,"rental_uris":{"android":"levelo://app?vid=aea62c68-a825-41c5-8df1-1b4a68f2c1bd","ios":"levelo://app?vid=aea62c68-a825-41c5-8df1-1b4a68f2c1bd"},"vehicle_type_id":"4","last_reported":1691089484,"current_range_meters":0,"station_id":"ce4bh412rcd13ifvqds0","pricing_plan_id":"free"},{"bike_id":"0cf5144c-ee00-427a-93d7-cec20dcb46c0","system_id":"levelo_inurba_marseille","lat":43.283998,"lon":5.375062,"is_reserved":false,"is_disabled":false,"rental_uris":{"android":"levelo://app?vid=0cf5144c-ee00-427a-93d7-cec20dcb46c0","ios":"levelo://app?vid=0cf5144c-ee00-427a-93d7-cec20dcb46c0"},"vehicle_type_id":"4","last_reported":1691089484,"current_range_meters":13200,"station_id":"ce4bh412rcd13ifvqds0","pricing_plan_id":"free"},{"bike_id":"808634aa-6961-4773-920f-a845b434aeb0","system_id":"levelo_inurba_marseille","lat":43.283998,"lon":5.375062,"is_reserved":false,"is_disabled":false,"rental_uris":{"android":"levelo://app?vid=808634aa-6961-4773-920f-a845b434aeb0","ios":"levelo://app?vid=808634aa-6961-4773-920f-a845b434aeb0"},"vehicle_type_id":"4","last_reported":1691089484,"current_range_meters":8000,"station_id":"ce4bh412rcd13ifvqds0","pricing_plan_id":"free"},{"bike_id":"8acdbe64-3306-4539-9227-595f7abfea40","system_id":"levelo_inurba_marseille","lat":43.28573,"lon":5.35068,"is_reserved":false,"is_disabled":false,"rental_uris":{"android":"levelo://app?vid=8acdbe64-3306-4539-9227-595f7abfea40","ios":"levelo://app?vid=8acdbe64-3306-4539-9227-595f7abfea40"},"vehicle_type_id":"4","last_reported":1691089484,"current_range_meters":6800,"station_id":"","pricing_plan_id":"free"},{"bike_id":"cdad6065-ba5a-4037-bdc7-54a889e44568","system_id":"levelo_inurba_marseille","lat":43.286595,"lon":5.386795,"is_reserved":false,"is_disabled":false,"rental_uris":{"android":"levelo://app?vid=cdad6065-ba5a-4037-bdc7-54a889e44568","ios":"levelo://app?vid=cdad6065-ba5a-4037-bdc7-54a889e44568"},"vehicle_type_id":"4","last_reported":1691089484,"current_range_meters":12000,"station_id":"ce4bh492rcd13ifvqdug","pricing_plan_id":"free"},{"bike_id":"9ed5c8cd-5716-467d-9a0b-e5002dcb5a2c","system_id":"levelo_inurba_marseille","lat":43.3371,"lon":5.39186,"is_reserved":false,"is_disabled":false,"rental_uris":{"android":"levelo://app?vid=9ed5c8cd-5716-467d-9a0b-e5002dcb5a2c","ios":"levelo://app?vid=9ed5c8cd-5716-467d-9a0b-e5002dcb5a2c"},"vehicle_type_id":"4","last_reported":1691089484,"current_range_meters":4800,"station_id":"ce4bhr92rcd13ifvqhsg","pricing_plan_id":"free"},{"bike_id":"65e7209e-43de-4472-85bf-edccad84c81f","system_id":"levelo_inurba_marseille","lat":43.337168,"lon":5.391825,"is_reserved":false,"is_disabled":false,"rental_uris":{"android":"levelo://app?vid=65e7209e-43de-4472-85bf-edccad84c81f","ios":"levelo://app?vid=65e7209e-43de-4472-85bf-edccad84c81f"},"vehicle_type_id":"4","last_reported":1691089484,"current_range_meters":30400,"station_id":"ce4bhr92rcd13ifvqhsg","pricing_plan_id":"free"},{"bike_id":"939edbe6-adcc-4f97-ad69-99748df4073d","system_id":"levelo_inurba_marseille","lat":43.33718,"lon":5.3918,"is_reserved":false,"is_disabled":false,"rental_uris":{"android":"levelo://app?vid=939edbe6-adcc-4f97-ad69-99748df4073d","ios":"levelo://app?vid=939edbe6-adcc-4f97-ad69-99748df4073d"},"vehicle_type_id":"4","last_reported":1691089484,"current_range_meters":29600,"station_id":"ce4bhr92rcd13ifvqhsg","pricing_plan_id":"free"},{"bike_id":"9d8dc018-8295-487e-aae9-79ce0f469cdf","system_id":"levelo_inurba_marseille","lat":43.33717,"lon":5.39182,"is_reserved":false,"is_disabled":false,"rental_uris":{"android":"levelo://app?vid=9d8dc018-8295-487e-aae9-79ce0f469cdf","ios":"levelo://app?vid=9d8dc018-8295-487e-aae9-79ce0f469cdf"},"vehicle_type_id":"4","last_reported":1691089484,"current_range_meters":29600,"station_id":"ce4bhr92rcd13ifvqhsg","pricing_plan_id":"free"},{"bike_id":"c59f30af-b7c9-4762-b544-56156d6a8a97","system_id":"levelo_inurba_marseille","lat":43.33717,"lon":5.39183,"is_reserved":false,"is_disabled":false,"rental_uris":{"android":"levelo://app?vid=c59f30af-b7c9-4762-b544-56156d6a8a97","ios":"levelo://app?vid=c59f30af-b7c9-4762-b544-56156d6a8a97"},"vehicle_type_id":"4","last_reported":1691089484,"current_range_meters":22800,"station_id":"ce4bhr92rcd13ifvqhsg","pricing_plan_id":"free"},{"bike_id":"1f5722b0-5667-43f6-9dad-3a3b818c5a69","system_id":"levelo_inurba_marseille","lat":43.33717,"lon":5.391857,"is_reserved":false,"is_disabled":false,"rental_uris":{"android":"levelo://app?vid=1f5722b0-5667-43f6-9dad-3a3b818c5a69","ios":"levelo://app?vid=1f5722b0-5667-43f6-9dad-3a3b818c5a69"},"vehicle_type_id":"4","last_reported":1691089484,"current_range_meters":7200,"station_id":"ce4bhr92rcd13ifvqhsg","pricing_plan_id":"free"},{"bike_id":"3e563380-a985-451c-801d-2783d7714294","system_id":"levelo_inurba_marseille","lat":43.33727,"lon":5.39187,"is_reserved":false,"is_disabled":false,"rental_uris":{"android":"levelo://app?vid=3e563380-a985-451c-801d-2783d7714294","ios":"levelo://app?vid=3e563380-a985-451c-801d-2783d7714294"},"vehicle_type_id":"4","last_reported":1691089484,"current_range_meters":20000,"station_id":"ce4bhr92rcd13ifvqhsg","pricing_plan_id":"free"},{"bike_id":"df82d2f9-f688-4670-ac84-3e543122cedb","system_id":"levelo_inurba_marseille","lat":43.337168,"lon":5.391825,"is_reserved":false,"is_disabled":false,"rental_uris":{"android":"levelo://app?vid=df82d2f9-f688-4670-ac84-3e543122cedb","ios":"levelo://app?vid=df82d2f9-f688-4670-ac84-3e543122cedb"},"vehicle_type_id":"4","last_reported":1691089484,"current_range_meters":18000,"station_id":"ce4bhr92rcd13ifvqhsg","pricing_plan_id":"free"},{"bike_id":"5fd6a347-0a02-4efa-ab4a-06802493ed56","system_id":"levelo_inurba_marseille","lat":43.3373,"lon":5.39187,"is_reserved":false,"is_disabled":false,"rental_uris":{"android":"levelo://app?vid=5fd6a347-0a02-4efa-ab4a-06802493ed56","ios":"levelo://app?vid=5fd6a347-0a02-4efa-ab4a-06802493ed56"},"vehicle_type_id":"4","last_reported":1691089484,"current_range_meters":19600,"station_id":"ce4bhr92rcd13ifvqhsg","pricing_plan_id":"free"},{"bike_id":"d402257e-12ca-4fed-8ec0-0a425d1f3149","system_id":"levelo_inurba_marseille","lat":43.284793,"lon":5.384113,"is_reserved":false,"is_disabled":false,"rental_uris":{"android":"levelo://app?vid=d402257e-12ca-4fed-8ec0-0a425d1f3149","ios":"levelo://app?vid=d402257e-12ca-4fed-8ec0-0a425d1f3149"},"vehicle_type_id":"4","last_reported":1691089484,"current_range_meters":31600,"station_id":"ce4bh512rcd13ifvqe3g","pricing_plan_id":"free"},{"bike_id":"5bc45bef-00e7-46e8-ab20-15fe21945de6","system_id":"levelo_inurba_marseille","lat":43.288501,"lon":5.393087,"is_reserved":false,"is_disabled":false,"rental_uris":{"android":"levelo://app?vid=5bc45bef-00e7-46e8-ab20-15fe21945de6","ios":"levelo://app?vid=5bc45bef-00e7-46e8-ab20-15fe21945de6"},"vehicle_type_id":"4","last_reported":1691089484,"current_range_meters":12000,"station_id":"ce4bh2p2rcd13ifvqdi0","pricing_plan_id":"free"},{"bike_id":"bbe7a1aa-42a5-47aa-bbae-3ff68e2cc2b3","system_id":"levelo_inurba_marseille","lat":43.284793,"lon":5.384119,"is_reserved":false,"is_disabled":false,"rental_uris":{"android":"levelo://app?vid=bbe7a1aa-42a5-47aa-bbae-3ff68e2cc2b3","ios":"levelo://app?vid=bbe7a1aa-42a5-47aa-bbae-3ff68e2cc2b3"},"vehicle_type_id":"4","last_reported":1691089484,"current_range_meters":22800,"station_id":"ce4bh512rcd13ifvqe3g","pricing_plan_id":"free"},{"bike_id":"dbada9f9-e33c-4a7d-ab43-1cac4e571e70","system_id":"levelo_inurba_marseille","lat":43.284787,"lon":5.384116,"is_reserved":false,"is_disabled":false,"rental_uris":{"android":"levelo://app?vid=dbada9f9-e33c-4a7d-ab43-1cac4e571e70","ios":"levelo://app?vid=dbada9f9-e33c-4a7d-ab43-1cac4e571e70"},"vehicle_type_id":"4","last_reported":1691089484,"current_range_meters":30000,"station_id":"ce4bh512rcd13ifvqe3g","pricing_plan_id":"free"},{"bike_id":"b9c9f344-6a29-40ff-abdd-c29fdba8ff8d","system_id":"levelo_inurba_marseille","lat":43.28848,"lon":5.39323,"is_reserved":false,"is_disabled":false,"rental_uris":{"android":"levelo://app?vid=b9c9f344-6a29-40ff-abdd-c29fdba8ff8d","ios":"levelo://app?vid=b9c9f344-6a29-40ff-abdd-c29fdba8ff8d"},"vehicle_type_id":"4","last_reported":1691089484,"current_range_meters":17200,"station_id":"ce4bh2p2rcd13ifvqdi0","pricing_plan_id":"free"},{"bike_id":"bb123308-c521-4b14-8e8a-bcf7b5fdae0d","system_id":"levelo_inurba_marseille","lat":43.28418,"lon":5.34991,"is_reserved":false,"is_disabled":false,"rental_uris":{"android":"levelo://app?vid=bb123308-c521-4b14-8e8a-bcf7b5fdae0d","ios":"levelo://app?vid=bb123308-c521-4b14-8e8a-bcf7b5fdae0d"},"vehicle_type_id":"4","last_reported":1691089484,"current_range_meters":13200,"station_id":"ce4bhbh2rcd13ifvqepg","pricing_plan_id":"free"},{"bike_id":"0c9ddb8a-2ee6-460c-904c-746f40b31da2","system_id":"levelo_inurba_marseille","lat":43.29295,"lon":5.40013,"is_reserved":false,"is_disabled":false,"rental_uris":{"android":"levelo://app?vid=0c9ddb8a-2ee6-460c-904c-746f40b31da2","ios":"levelo://app?vid=0c9ddb8a-2ee6-460c-904c-746f40b31da2"},"vehicle_type_id":"4","last_reported":1691089484,"current_range_meters":0,"station_id":"","pricing_plan_id":"free"},{"bike_id":"b8a6fc16-aa4f-4da2-8c96-abe2a1b05d0b","system_id":"levelo_inurba_marseille","lat":43.289377,"lon":5.396135,"is_reserved":false,"is_disabled":false,"rental_uris":{"android":"levelo://app?vid=b8a6fc16-aa4f-4da2-8c96-abe2a1b05d0b","ios":"levelo://app?vid=b8a6fc16-aa4f-4da2-8c96-abe2a1b05d0b"},"vehicle_type_id":"4","last_reported":1691089484,"current_range_meters":30400,"station_id":"ce4bh3h2rcd13ifvqdn0","pricing_plan_id":"free"},{"bike_id":"2fbcaefc-064c-4a14-bc84-822da5d4ac44","system_id":"levelo_inurba_marseille","lat":43.289363,"lon":5.396322,"is_reserved":false,"is_disabled":false,"rental_uris":{"android":"levelo://app?vid=2fbcaefc-064c-4a14-bc84-822da5d4ac44","ios":"levelo://app?vid=2fbcaefc-064c-4a14-bc84-822da5d4ac44"},"vehicle_type_id":"4","last_reported":1691089484,"current_range_meters":13200,"station_id":"ce4bh3h2rcd13ifvqdn0","pricing_plan_id":"free"},{"bike_id":"f7f5768e-b80f-4da0-8864-86696a8877fb","system_id":"levelo_inurba_marseille","lat":43.32456,"lon":5.40727,"is_reserved":false,"is_disabled":false,"rental_uris":{"android":"levelo://app?vid=f7f5768e-b80f-4da0-8864-86696a8877fb","ios":"levelo://app?vid=f7f5768e-b80f-4da0-8864-86696a8877fb"},"vehicle_type_id":"4","last_reported":1691089484,"current_range_meters":0,"station_id":"","pricing_plan_id":"free"},{"bike_id":"3088da10-8d9f-4d62-85c7-e8f47a196b9a","system_id":"levelo_inurba_marseille","lat":43.28936,"lon":5.39624,"is_reserved":false,"is_disabled":false,"rental_uris":{"android":"levelo://app?vid=3088da10-8d9f-4d62-85c7-e8f47a196b9a","ios":"levelo://app?vid=3088da10-8d9f-4d62-85c7-e8f47a196b9a"},"vehicle_type_id":"4","last_reported":1691089484,"current_range_meters":31200,"station_id":"ce4bh3h2rcd13ifvqdn0","pricing_plan_id":"free"},{"bike_id":"73b770ce-0874-4cf7-b5e0-67fe05d6a5a7","system_id":"levelo_inurba_marseille","lat":43.289363,"lon":5.396322,"is_reserved":false,"is_disabled":false,"rental_uris":{"android":"levelo://app?vid=73b770ce-0874-4cf7-b5e0-67fe05d6a5a7","ios":"levelo://app?vid=73b770ce-0874-4cf7-b5e0-67fe05d6a5a7"},"vehicle_type_id":"4","last_reported":1691089484,"current_range_meters":30000,"station_id":"ce4bh3h2rcd13ifvqdn0","pricing_plan_id":"free"},{"bike_id":"1299bad9-28f0-4de7-9a9e-3d9887177e3f","system_id":"levelo_inurba_marseille","lat":43.28936,"lon":5.39629,"is_reserved":false,"is_disabled":false,"rental_uris":{"android":"levelo://app?vid=1299bad9-28f0-4de7-9a9e-3d9887177e3f","ios":"levelo://app?vid=1299bad9-28f0-4de7-9a9e-3d9887177e3f"},"vehicle_type_id":"4","last_reported":1691089484,"current_range_meters":17200,"station_id":"ce4bh3h2rcd13ifvqdn0","pricing_plan_id":"free"},{"bike_id":"bdee9d04-223e-4ca1-905a-fc4f6c4ae8f9","system_id":"levelo_inurba_marseille","lat":43.289363,"lon":5.396322,"is_reserved":false,"is_disabled":false,"rental_uris":{"android":"levelo://app?vid=bdee9d04-223e-4ca1-905a-fc4f6c4ae8f9","ios":"levelo://app?vid=bdee9d04-223e-4ca1-905a-fc4f6c4ae8f9"},"vehicle_type_id":"4","last_reported":1691089484,"current_range_meters":30800,"station_id":"ce4bh3h2rcd13ifvqdn0","pricing_plan_id":"free"},{"bike_id":"b265f10d-5f8c-44ef-9344-5aae857d448d","system_id":"levelo_inurba_marseille","lat":43.289363,"lon":5.396322,"is_reserved":false,"is_disabled":false,"rental_uris":{"android":"levelo://app?vid=b265f10d-5f8c-44ef-9344-5aae857d448d","ios":"levelo://app?vid=b265f10d-5f8c-44ef-9344-5aae857d448d"},"vehicle_type_id":"4","last_reported":1691089484,"current_range_meters":31200,"station_id":"ce4bh3h2rcd13ifvqdn0","pricing_plan_id":"free"},{"bike_id":"50da8593-06dc-4e34-bdec-87c1afe0ad08","system_id":"levelo_inurba_marseille","lat":43.292724,"lon":5.401131,"is_reserved":false,"is_disabled":false,"rental_uris":{"android":"levelo://app?vid=50da8593-06dc-4e34-bdec-87c1afe0ad08","ios":"levelo://app?vid=50da8593-06dc-4e34-bdec-87c1afe0ad08"},"vehicle_type_id":"4","last_reported":1691089484,"current_range_meters":400,"station_id":"ce4bh312rcd13ifvqdk0","pricing_plan_id":"free"},{"bike_id":"89ca39a8-cfd9-47d3-885b-0af220096784","system_id":"levelo_inurba_marseille","lat":43.280382,"lon":5.369291,"is_reserved":false,"is_disabled":false,"rental_uris":{"android":"levelo://app?vid=89ca39a8-cfd9-47d3-885b-0af220096784","ios":"levelo://app?vid=89ca39a8-cfd9-47d3-885b-0af220096784"},"vehicle_type_id":"4","last_reported":1691089484,"current_range_meters":7600,"station_id":"ce4bha12rcd13ifvqef0","pricing_plan_id":"free"},{"bike_id":"61bbe938-91bf-4729-9eb3-a5869c01d18c","system_id":"levelo_inurba_marseille","lat":43.282744,"lon":5.350533,"is_reserved":false,"is_disabled":false,"rental_uris":{"android":"levelo://app?vid=61bbe938-91bf-4729-9eb3-a5869c01d18c","ios":"levelo://app?vid=61bbe938-91bf-4729-9eb3-a5869c01d18c"},"vehicle_type_id":"4","last_reported":1691089484,"current_range_meters":4000,"station_id":"ce4bhbp2rcd13ifvqerg","pricing_plan_id":"free"},{"bike_id":"57ab10d6-a563-4a2e-bbea-a1b32078ebf3","system_id":"levelo_inurba_marseille","lat":43.280382,"lon":5.369291,"is_reserved":false,"is_disabled":false,"rental_uris":{"android":"levelo://app?vid=57ab10d6-a563-4a2e-bbea-a1b32078ebf3","ios":"levelo://app?vid=57ab10d6-a563-4a2e-bbea-a1b32078ebf3"},"vehicle_type_id":"4","last_reported":1691089484,"current_range_meters":22800,"station_id":"ce4bha12rcd13ifvqef0","pricing_plan_id":"free"},{"bike_id":"0949fb74-309c-4aa9-8937-ee78b656749b","system_id":"levelo_inurba_marseille","lat":43.28107,"lon":5.37843,"is_reserved":false,"is_disabled":false,"rental_uris":{"android":"levelo://app?vid=0949fb74-309c-4aa9-8937-ee78b656749b","ios":"levelo://app?vid=0949fb74-309c-4aa9-8937-ee78b656749b"},"vehicle_type_id":"4","last_reported":1691089484,"current_range_meters":0,"station_id":"ce4bha12rcd13ifvqee0","pricing_plan_id":"free"},{"bike_id":"140fcfab-1ee9-41f0-b17d-deeb30fd710c","system_id":"levelo_inurba_marseille","lat":43.28103,"lon":5.37838,"is_reserved":false,"is_disabled":false,"rental_uris":{"android":"levelo://app?vid=140fcfab-1ee9-41f0-b17d-deeb30fd710c","ios":"levelo://app?vid=140fcfab-1ee9-41f0-b17d-deeb30fd710c"},"vehicle_type_id":"4","last_reported":1691089484,"current_range_meters":18000,"station_id":"ce4bha12rcd13ifvqee0","pricing_plan_id":"free"},{"bike_id":"31022f32-f1a5-4bc9-a493-363ce5bf7499","system_id":"levelo_inurba_marseille","lat":43.281044,"lon":5.378308,"is_reserved":false,"is_disabled":false,"rental_uris":{"android":"levelo://app?vid=31022f32-f1a5-4bc9-a493-363ce5bf7499","ios":"levelo://app?vid=31022f32-f1a5-4bc9-a493-363ce5bf7499"},"vehicle_type_id":"4","last_reported":1691089484,"current_range_meters":1600,"station_id":"ce4bha12rcd13ifvqee0","pricing_plan_id":"free"},{"bike_id":"1a55238a-f92c-4e3a-ac79-d22bb12a689b","system_id":"levelo_inurba_marseille","lat":43.296263,"lon":5.40601,"is_reserved":false,"is_disabled":false,"rental_uris":{"android":"levelo://app?vid=1a55238a-f92c-4e3a-ac79-d22bb12a689b","ios":"levelo://app?vid=1a55238a-f92c-4e3a-ac79-d22bb12a689b"},"vehicle_type_id":"4","last_reported":1691089484,"current_range_meters":25600,"station_id":"ce4bh0h2rcd13ifvqd60","pricing_plan_id":"free"},{"bike_id":"1f6db63e-eec5-4bfe-822c-920a4a0738fd","system_id":"levelo_inurba_marseille","lat":43.28099,"lon":5.37839,"is_reserved":false,"is_disabled":false,"rental_uris":{"android":"levelo://app?vid=1f6db63e-eec5-4bfe-822c-920a4a0738fd","ios":"levelo://app?vid=1f6db63e-eec5-4bfe-822c-920a4a0738fd"},"vehicle_type_id":"4","last_reported":1691089484,"current_range_meters":20400,"station_id":"ce4bha12rcd13ifvqee0","pricing_plan_id":"free"},{"bike_id":"d7562bfa-0166-41cf-8a4b-a4c163c1aeb6","system_id":"levelo_inurba_marseille","lat":43.284462,"lon":5.392121,"is_reserved":false,"is_disabled":false,"rental_uris":{"android":"levelo://app?vid=d7562bfa-0166-41cf-8a4b-a4c163c1aeb6","ios":"levelo://app?vid=d7562bfa-0166-41cf-8a4b-a4c163c1aeb6"},"vehicle_type_id":"4","last_reported":1691089484,"current_range_meters":27200,"station_id":"ce4bhoh2rcd13ifvqh5g","pricing_plan_id":"free"},{"bike_id":"6d2268eb-b0a7-411e-babe-ae56e74e78d2","system_id":"levelo_inurba_marseille","lat":43.284462,"lon":5.392121,"is_reserved":false,"is_disabled":false,"rental_uris":{"android":"levelo://app?vid=6d2268eb-b0a7-411e-babe-ae56e74e78d2","ios":"levelo://app?vid=6d2268eb-b0a7-411e-babe-ae56e74e78d2"},"vehicle_type_id":"4","last_reported":1691089484,"current_range_meters":27200,"station_id":"ce4bhoh2rcd13ifvqh5g","pricing_plan_id":"free"},{"bike_id":"483bb16b-3292-4482-9f52-c4ce9fb5e5aa","system_id":"levelo_inurba_marseille","lat":43.32648,"lon":5.40987,"is_reserved":false,"is_disabled":false,"rental_uris":{"android":"levelo://app?vid=483bb16b-3292-4482-9f52-c4ce9fb5e5aa","ios":"levelo://app?vid=483bb16b-3292-4482-9f52-c4ce9fb5e5aa"},"vehicle_type_id":"4","last_reported":1691089484,"current_range_meters":18400,"station_id":"ce4bhpp2rcd13ifvqhgg","pricing_plan_id":"free"},{"bike_id":"bea9524d-02ec-4526-b922-f8f292ac8394","system_id":"levelo_inurba_marseille","lat":43.326605,"lon":5.409903,"is_reserved":false,"is_disabled":false,"rental_uris":{"android":"levelo://app?vid=bea9524d-02ec-4526-b922-f8f292ac8394","ios":"levelo://app?vid=bea9524d-02ec-4526-b922-f8f292ac8394"},"vehicle_type_id":"4","last_reported":1691089484,"current_range_meters":22000,"station_id":"ce4bhpp2rcd13ifvqhgg","pricing_plan_id":"free"},{"bike_id":"94aea6b3-292e-4179-b9df-b84dcc10f405","system_id":"levelo_inurba_marseille","lat":43.326605,"lon":5.409903,"is_reserved":false,"is_disabled":false,"rental_uris":{"android":"levelo://app?vid=94aea6b3-292e-4179-b9df-b84dcc10f405","ios":"levelo://app?vid=94aea6b3-292e-4179-b9df-b84dcc10f405"},"vehicle_type_id":"4","last_reported":1691089484,"current_range_meters":19200,"station_id":"ce4bhpp2rcd13ifvqhgg","pricing_plan_id":"free"},{"bike_id":"4bea7dbd-1e1e-49f6-94c2-1b0edc11fda3","system_id":"levelo_inurba_marseille","lat":43.32657,"lon":5.40993,"is_reserved":false,"is_disabled":false,"rental_uris":{"android":"levelo://app?vid=4bea7dbd-1e1e-49f6-94c2-1b0edc11fda3","ios":"levelo://app?vid=4bea7dbd-1e1e-49f6-94c2-1b0edc11fda3"},"vehicle_type_id":"4","last_reported":1691089484,"current_range_meters":24800,"station_id":"ce4bhpp2rcd13ifvqhgg","pricing_plan_id":"free"},{"bike_id":"0bf750e9-7698-4f1b-a63d-450ecdc6fe32","system_id":"levelo_inurba_marseille","lat":43.32654,"lon":5.40996,"is_reserved":false,"is_disabled":false,"rental_uris":{"android":"levelo://app?vid=0bf750e9-7698-4f1b-a63d-450ecdc6fe32","ios":"levelo://app?vid=0bf750e9-7698-4f1b-a63d-450ecdc6fe32"},"vehicle_type_id":"4","last_reported":1691089484,"current_range_meters":20000,"station_id":"ce4bhpp2rcd13ifvqhgg","pricing_plan_id":"free"},{"bike_id":"c4ff6eea-c693-4218-9bae-3820f7f4611f","system_id":"levelo_inurba_marseille","lat":43.326605,"lon":5.409903,"is_reserved":false,"is_disabled":false,"rental_uris":{"android":"levelo://app?vid=c4ff6eea-c693-4218-9bae-3820f7f4611f","ios":"levelo://app?vid=c4ff6eea-c693-4218-9bae-3820f7f4611f"},"vehicle_type_id":"4","last_reported":1691089484,"current_range_meters":18400,"station_id":"ce4bhpp2rcd13ifvqhgg","pricing_plan_id":"free"},{"bike_id":"7f37f2b5-2d34-4e7e-956f-ae11e73be634","system_id":"levelo_inurba_marseille","lat":43.3266,"lon":5.40995,"is_reserved":false,"is_disabled":false,"rental_uris":{"android":"levelo://app?vid=7f37f2b5-2d34-4e7e-956f-ae11e73be634","ios":"levelo://app?vid=7f37f2b5-2d34-4e7e-956f-ae11e73be634"},"vehicle_type_id":"4","last_reported":1691089484,"current_range_meters":12800,"station_id":"ce4bhpp2rcd13ifvqhgg","pricing_plan_id":"free"},{"bike_id":"ae30d6a0-bb64-481f-80f1-45a484d7c528","system_id":"levelo_inurba_marseille","lat":43.304188,"lon":5.412904,"is_reserved":false,"is_disabled":false,"rental_uris":{"android":"levelo://app?vid=ae30d6a0-bb64-481f-80f1-45a484d7c528","ios":"levelo://app?vid=ae30d6a0-bb64-481f-80f1-45a484d7c528"},"vehicle_type_id":"4","last_reported":1691089484,"current_range_meters":17600,"station_id":"ce4bhop2rcd13ifvqh8g","pricing_plan_id":"free"},{"bike_id":"b7418f0b-d312-4817-9a37-73f1612c1676","system_id":"levelo_inurba_marseille","lat":43.30418,"lon":5.41293,"is_reserved":false,"is_disabled":false,"rental_uris":{"android":"levelo://app?vid=b7418f0b-d312-4817-9a37-73f1612c1676","ios":"levelo://app?vid=b7418f0b-d312-4817-9a37-73f1612c1676"},"vehicle_type_id":"4","last_reported":1691089484,"current_range_meters":26800,"station_id":"ce4bhop2rcd13ifvqh8g","pricing_plan_id":"free"},