{"last_updated":1732093842,"ttl":60,"version":"2.2","data":{"bikes":[{"bike_id":"cacde89c-5086-4b87-8bcd-a2b586b3345d","system_id":"levelo_inurba_marseille","lat":43.30147,"lon":5.38101,"is_reserved":false,"is_disabled":true,"rental_uris":{"android":"levelo://app?vid=cacde89c-5086-4b87-8bcd-a2b586b3345d","ios":"levelo://app?vid=cacde89c-5086-4b87-8bcd-a2b586b3345d"},"vehicle_type_id":"4","last_reported":1732093842,"current_range_meters":36800,"station_id":"ce4bgjp2rcd13ifvqbh0","pricing_plan_id":"cebpf4jnsgd1na2vs0mg"},{"bike_id":"69bc41dd-8c27-411f-977d-6976b6646e45","system_id":"levelo_inurba_marseille","lat":43.29104,"lon":5.38133,"is_reserved":false,"is_disabled":false,"rental_uris":{"android":"levelo://app?vid=69bc41dd-8c27-411f-977d-6976b6646e45","ios":"levelo://app?vid=69bc41dd-8c27-411f-977d-6976b6646e45"},"vehicle_type_id":"4","last_reported":1732093842,"current_range_meters":4800,"station_id":"ce4bh512rcd13ifvqe2g","pricing_plan_id":"cebpf4jnsgd1na2vs0mg"},{"bike_id":"b21da081-9879-40dd-84c5-23f42e6f5e53","system_id":"levelo_inurba_marseille","lat":43.27948,"lon":5.41051,"is_reserved":false,"is_disabled":true,"rental_uris":{"android":"levelo://app?vid=b21da081-9879-40dd-84c5-23f42e6f5e53","ios":"levelo://app?vid=b21da081-9879-40dd-84c5-23f42e6f5e53"},"vehicle_type_id":"4","last_reported":1732093842,"current_range_meters":14000,"station_id":"ce4bhnp2rcd13ifvqh0g","pricing_plan_id":"cebpf4jnsgd1na2vs0mg"},{"bike_id":"c9c0886d-6933-4753-9864-998e063335cf","system_id":"levelo_inurba_marseille","lat":43.25012,"lon":5.38915,"is_reserved":false,"is_disabled":true,"rental_uris":{"android":"levelo://app?vid=c9c0886d-6933-4753-9864-998e063335cf","ios":"levelo://app?vid=c9c0886d-6933-4753-9864-998e063335cf"},"vehicle_type_id":"4","last_reported":1732093842,"current_range_meters":38400,"station_id":"ce4bhgp2rcd13ifvqfd0","pricing_plan_id":"cebpf4jnsgd1na2vs0mg"},{"bike_id":"740ae0f4-690e-4909-a4ab-8443a16c90b8","system_id":"levelo_inurba_marseille","lat":43.280376,"lon":5.369458,"is_reserved":false,"is_disabled":false,"rental_uris":{"android":"levelo://app?vid=740ae0f4-690e-4909-a4ab-8443a16c90b8","ios":"levelo://app?vid=740ae0f4-690e-4909-a4ab-8443a16c90b8"},"vehicle_type_id":"4","last_reported":1732093842,"current_range_meters":36800,"station_id":"ce4bha12rcd13ifvqef0","pricing_plan_id":"cebpf4jnsgd1na2vs0mg"},{"bike_id":"35287b6f-5229-4071-966e-4bfca0ae7163","system_id":"levelo_inurba_marseille","lat":43.27888,"lon":5.38016,"is_reserved":false,"is_disabled":false,"rental_uris":{"android":"levelo://app?vid=35287b6f-5229-4071-966e-4bfca0ae7163","ios":"levelo://app?vid=35287b6f-5229-4071-966e-4bfca0ae7163"},"vehicle_type_id":"4","last_reported":1732093842,"current_range_meters":37600,"station_id":"ce4bhf92rcd13ifvqf50","pricing_plan_id":"cebpf4jnsgd1na2vs0mg"},{"bike_id":"81d34042-a037-42c7-9436-1187b5706698","system_id":"levelo_inurba_marseille","lat":43.31011,"lon":5.40298,"is_reserved":false,"is_disabled":false,"rental_uris":{"android":"levelo://app?vid=81d34042-a037-42c7-9436-1187b5706698","ios":"levelo://app?vid=81d34042-a037-42c7-9436-1187b5706698"},"vehicle_type_id":"4","last_reported":1732093842,"current_range_meters":18000,"station_id":"","pricing_plan_id":"cebpf4jnsgd1na2vs0mg"},{"bike_id":"beab6fbf-c410-445e-ac19-e4db447e6dba","system_id":"levelo_inurba_marseille","lat":43.25028,"lon":5.38055,"is_reserved":false,"is_disabled":true,"rental_uris":{"android":"levelo://app?vid=beab6fbf-c410-445e-ac19-e4db447e6dba","ios":"levelo://app?vid=beab6fbf-c410-445e-ac19-e4db447e6dba"},"vehicle_type_id":"4","last_reported":1732093842,"current_range_meters":28800,"station_id":"","pricing_plan_id":"cebpf4jnsgd1na2vs0mg"},{"bike_id":"d7018306-07a2-4bd9-b075-51ea140350df","system_id":"levelo_inurba_marseille","lat":43.29807,"lon":5.38096,"is_reserved":false,"is_disabled":false,"rental_uris":{"android":"levelo://app?vid=d7018306-07a2-4bd9-b075-51ea140350df","ios":"levelo://app?vid=d7018306-07a2-4bd9-b075-51ea140350df"},"vehicle_type_id":"4","last_reported":1732093842,"current_range_meters":18800,"station_id":"ce4bgip2rcd13ifvqbb0","pricing_plan_id":"cebpf4jnsgd1na2vs0mg"},{"bike_id":"3e0f220a-e14b-4604-b030-61aa96f0886d","system_id":"levelo_inurba_marseille","lat":43.29938,"lon":5.36555,"is_reserved":false,"is_disabled":false,"rental_uris":{"android":"levelo://app?vid=3e0f220a-e14b-4604-b030-61aa96f0886d","ios":"levelo://app?vid=3e0f220a-e14b-4604-b030-61aa96f0886d"},"vehicle_type_id":"4","last_reported":1732093842,"current_range_meters":30000,"station_id":"ce4bgm92rcd13ifvqbr0","pricing_plan_id":"cebpf4jnsgd1na2vs0mg"},{"bike_id":"df89f28d-09ef-4d95-998a-b310ab3afea0","system_id":"levelo_inurba_marseille","lat":43.33025,"lon":5.39047,"is_reserved":false,"is_disabled":true,"rental_uris":{"android":"levelo://app?vid=df89f28d-09ef-4d95-998a-b310ab3afea0","ios":"levelo://app?vid=df89f28d-09ef-4d95-998a-b310ab3afea0"},"vehicle_type_id":"4","last_reported":1732093842,"current_range_meters":8400,"station_id":"ce4bhr92rcd13ifvqhrg","pricing_plan_id":"cebpf4jnsgd1na2vs0mg"},{"bike_id":"cd98ff06-7dbe-4eb4-a506-4d608a6f1598","system_id":"levelo_inurba_marseille","lat":43.29312,"lon":5.37459,"is_reserved":false,"is_disabled":false,"rental_uris":{"android":"levelo://app?vid=cd98ff06-7dbe-4eb4-a506-4d608a6f1598","ios":"levelo://app?vid=cd98ff06-7dbe-4eb4-a506-4d608a6f1598"},"vehicle_type_id":"4","last_reported":1732093842,"current_range_meters":16400,"station_id":"ce4bgi12rcd13ifvqb70","pricing_plan_id":"cebpf4jnsgd1na2vs0mg"},{"bike_id":"84d4df27-2b97-423b-bf7d-6029ee544425","system_id":"levelo_inurba_marseille","lat":43.32478,"lon":5.36577,"is_reserved":false,"is_disabled":false,"rental_uris":{"android":"levelo://app?vid=84d4df27-2b97-423b-bf7d-6029ee544425","ios":"levelo://app?vid=84d4df27-2b97-423b-bf7d-6029ee544425"},"vehicle_type_id":"4","last_reported":1732093842,"current_range_meters":36800,"station_id":"ce4bhs12rcd13ifvqhvg","pricing_plan_id":"cebpf4jnsgd1na2vs0mg"},{"bike_id":"fed94823-67f3-4adc-962b-1350a7a918b6","system_id":"levelo_inurba_marseille","lat":43.3123,"lon":5.36855,"is_reserved":false,"is_disabled":false,"rental_uris":{"android":"levelo://app?vid=fed94823-67f3-4adc-962b-1350a7a918b6","ios":"levelo://app?vid=fed94823-67f3-4adc-962b-1350a7a918b6"},"vehicle_type_id":"4","last_reported":1732093842,"current_range_meters":7200,"station_id":"ce4bgl92rcd13ifvqbq0","pricing_plan_id":"cebpf4jnsgd1na2vs0mg"},{"bike_id":"c927b74d-29b7-42c1-8253-95810c18b6dc","system_id":"levelo_inurba_marseille","lat":43.25936,"lon":5.40911,"is_reserved":false,"is_disabled":true,"rental_uris":{"android":"levelo://app?vid=c927b74d-29b7-42c1-8253-95810c18b6dc","ios":"levelo://app?vid=c927b74d-29b7-42c1-8253-95810c18b6dc"},"vehicle_type_id":"4","last_reported":1732093842,"current_range_meters":34000,"station_id":"ce4bhm92rcd13ifvqglg","pricing_plan_id":"cebpf4jnsgd1na2vs0mg"},{"bike_id":"122b8c9f-821b-4320-8f89-f1c7267f8d64","system_id":"levelo_inurba_marseille","lat":43.3254,"lon":5.41443,"is_reserved":false,"is_disabled":false,"rental_uris":{"android":"levelo://app?vid=122b8c9f-821b-4320-8f89-f1c7267f8d64","ios":"levelo://app?vid=122b8c9f-821b-4320-8f89-f1c7267f8d64"},"vehicle_type_id":"4","last_reported":1732093842,"current_range_meters":38800,"station_id":"ce4bhq12rcd13ifvqhhg","pricing_plan_id":"cebpf4jnsgd1na2vs0mg"},{"bike_id":"b525f8b0-6e23-4d38-850f-e46fdef91654","system_id":"levelo_inurba_marseille","lat":43.31355,"lon":5.38497,"is_reserved":false,"is_disabled":false,"rental_uris":{"android":"levelo://app?vid=b525f8b0-6e23-4d38-850f-e46fdef91654","ios":"levelo://app?vid=b525f8b0-6e23-4d38-850f-e46fdef91654"},"vehicle_type_id":"4","last_reported":1732093842,"current_range_meters":10800,"station_id":"ce4bgt92rcd13ifvqcf0","pricing_plan_id":"cebpf4jnsgd1na2vs0mg"},{"bike_id":"0ea93326-5034-4b5e-97b8-0a33b4d38611","system_id":"levelo_inurba_marseille","lat":43.30156,"lon":5.38097,"is_reserved":false,"is_disabled":true,"rental_uris":{"android":"levelo://app?vid=0ea93326-5034-4b5e-97b8-0a33b4d38611","ios":"levelo://app?vid=0ea93326-5034-4b5e-97b8-0a33b4d38611"},"vehicle_type_id":"4","last_reported":1732093842,"current_range_meters":0,"station_id":"ce4bgjp2rcd13ifvqbh0","pricing_plan_id":"cebpf4jnsgd1na2vs0mg"},{"bike_id":"eb79e839-9bdc-43aa-bbaf-ba57391ce098","system_id":"levelo_inurba_marseille","lat":43.28074,"lon":5.39651,"is_reserved":false,"is_disabled":false,"rental_uris":{"android":"levelo://app?vid=eb79e839-9bdc-43aa-bbaf-ba57391ce098","ios":"levelo://app?vid=eb79e839-9bdc-43aa-bbaf-ba57391ce098"},"vehicle_type_id":"4","last_reported":1732093842,"current_range_meters":30800,"station_id":"ce4bho12rcd13ifvqh2g","pricing_plan_id":"cebpf4jnsgd1na2vs0mg"},{"bike_id":"2da8bcf0-ee38-442d-9bb1-46fc3346436e","system_id":"levelo_inurba_marseille","lat":43.29809,"lon":5.38098,"is_reserved":false,"is_disabled":false,"rental_uris":{"android":"levelo://app?vid=2da8bcf0-ee38-442d-9bb1-46fc3346436e","ios":"levelo://app?vid=2da8bcf0-ee38-442d-9bb1-46fc3346436e"},"vehicle_type_id":"4","last_reported":1732093842,"current_range_meters":38400,"station_id":"ce4bgip2rcd13ifvqbb0","pricing_plan_id":"cebpf4jnsgd1na2vs0mg"},{"bike_id":"2ebc184b-6538-4e73-a732-c7d5673d9b3c","system_id":"levelo_inurba_marseille","lat":43.240782,"lon":5.377592,"is_reserved":false,"is_disabled":false,"rental_uris":{"android":"levelo://app?vid=2ebc184b-6538-4e73-a732-c7d5673d9b3c","ios":"levelo://app?vid=2ebc184b-6538-4e73-a732-c7d5673d9b3c"},"vehicle_type_id":"4","last_reported":1732093842,"current_range_meters":2800,"station_id":"ce4bhnp2rcd13ifvqgvg","pricing_plan_id":"cebpf4jnsgd1na2vs0mg"},{"bike_id":"acfddb80-3a0b-4852-af08-2a13b834b82b","system_id":"levelo_inurba_marseille","lat":43.31354,"lon":5.3671,"is_reserved":false,"is_disabled":false,"rental_uris":{"android":"levelo://app?vid=acfddb80-3a0b-4852-af08-2a13b834b82b","ios":"levelo://app?vid=acfddb80-3a0b-4852-af08-2a13b834b82b"},"vehicle_type_id":"4","last_reported":1732093842,"current_range_meters":21600,"station_id":"ce4bgr92rcd13ifvqc6g","pricing_plan_id":"cebpf4jnsgd1na2vs0mg"},{"bike_id":"1139b44c-141f-4492-8578-07982e493cef","system_id":"levelo_inurba_marseille","lat":43.30145,"lon":5.38087,"is_reserved":false,"is_disabled":false,"rental_uris":{"android":"levelo://app?vid=1139b44c-141f-4492-8578-07982e493cef","ios":"levelo://app?vid=1139b44c-141f-4492-8578-07982e493cef"},"vehicle_type_id":"4","last_reported":1732093842,"current_range_meters":38400,"station_id":"ce4bgjp2rcd13ifvqbh0","pricing_plan_id":"cebpf4jnsgd1na2vs0mg"},{"bike_id":"cfb10342-63b1-4773-818d-39a1742aa961","system_id":"levelo_inurba_marseille","lat":43.30599,"lon":5.39356,"is_reserved":false,"is_disabled":false,"rental_uris":{"android":"levelo://app?vid=cfb10342-63b1-4773-818d-39a1742aa961","ios":"levelo://app?vid=cfb10342-63b1-4773-818d-39a1742aa961"},"vehicle_type_id":"4","last_reported":1732093842,"current_range_meters":26000,"station_id":"ce4bh0p2rcd13ifvqd80","pricing_plan_id":"cebpf4jnsgd1na2vs0mg"},{"bike_id":"1f2d22f9-e67b-4261-9fcb-13b75b99f310","system_id":"levelo_inurba_marseille","lat":43.30434,"lon":5.39747,"is_reserved":false,"is_disabled":false,"rental_uris":{"android":"levelo://app?vid=1f2d22f9-e67b-4261-9fcb-13b75b99f310","ios":"levelo://app?vid=1f2d22f9-e67b-4261-9fcb-13b75b99f310"},"vehicle_type_id":"4","last_reported":1732093842,"current_range_meters":38800,"station_id":"ce4bh092rcd13ifvqd20","pricing_plan_id":"cebpf4jnsgd1na2vs0mg"},{"bike_id":"dbe74249-58cd-403e-a63d-5e0a1c17b552","system_id":"levelo_inurba_marseille","lat":43.24093,"lon":5.37745,"is_reserved":false,"is_disabled":true,"rental_uris":{"android":"levelo://app?vid=dbe74249-58cd-403e-a63d-5e0a1c17b552","ios":"levelo://app?vid=dbe74249-58cd-403e-a63d-5e0a1c17b552"},"vehicle_type_id":"4","last_reported":1732093842,"current_range_meters":0,"station_id":"","pricing_plan_id":"cebpf4jnsgd1na2vs0mg"},{"bike_id":"e4624f32-fae1-428f-a986-44f323453b9a","system_id":"levelo_inurba_marseille","lat":43.29563,"lon":5.42272,"is_reserved":false,"is_disabled":true,"rental_uris":{"android":"levelo://app?vid=e4624f32-fae1-428f-a986-44f323453b9a","ios":"levelo://app?vid=e4624f32-fae1-428f-a986-44f323453b9a"},"vehicle_type_id":"4","last_reported":1732093842,"current_range_meters":1600,"station_id":"ce4bhph2rcd13ifvqhdg","pricing_plan_id":"cebpf4jnsgd1na2vs0mg"},{"bike_id":"dfb656ce-a952-4232-be58-58af15a24d97","system_id":"levelo_inurba_marseille","lat":43.23155,"lon":5.4371,"is_reserved":false,"is_disabled":false,"rental_uris":{"android":"levelo://app?vid=dfb656ce-a952-4232-be58-58af15a24d97","ios":"levelo://app?vid=dfb656ce-a952-4232-be58-58af15a24d97"},"vehicle_type_id":"4","last_reported":1732093842,"current_range_meters":21600,"station_id":"ce4bhmp2rcd13ifvqgog","pricing_plan_id":"cebpf4jnsgd1na2vs0mg"},{"bike_id":"5c3000a0-a190-4007-a723-aa2707fd1ce3","system_id":"levelo_inurba_marseille","lat":43.22914,"lon":5.35396,"is_reserved":false,"is_disabled":true,"rental_uris":{"android":"levelo://app?vid=5c3000a0-a190-4007-a723-aa2707fd1ce3","ios":"levelo://app?vid=5c3000a0-a190-4007-a723-aa2707fd1ce3"},"vehicle_type_id":"4","last_reported":1732093842,"current_range_meters":38800,"station_id":"cpo3532slgdg3j2ikp40","pricing_plan_id":"cebpf4jnsgd1na2vs0mg"},{"bike_id":"07dfa307-72b1-4fd3-aaec-cc158bba164b","system_id":"levelo_inurba_marseille","lat":43.3091,"lon":5.36848,"is_reserved":false,"is_disabled":false,"rental_uris":{"android":"levelo://app?vid=07dfa307-72b1-4fd3-aaec-cc158bba164b","ios":"levelo://app?vid=07dfa307-72b1-4fd3-aaec-cc158bba164b"},"vehicle_type_id":"4","last_reported":1732093842,"current_range_meters":39200,"station_id":"ce4bgn92rcd13ifvqbvg","pricing_plan_id":"cebpf4jnsgd1na2vs0mg"},{"bike_id":"d59e6935-9e63-4ce1-ad51-92e88ad6eb3e","system_id":"levelo_inurba_marseille","lat":43.24077,"lon":5.37745,"is_reserved":false,"is_disabled":false,"rental_uris":{"android":"levelo://app?vid=d59e6935-9e63-4ce1-ad51-92e88ad6eb3e","ios":"levelo://app?vid=d59e6935-9e63-4ce1-ad51-92e88ad6eb3e"},"vehicle_type_id":"4","last_reported":1732093842,"current_range_meters":39200,"station_id":"ce4bhnp2rcd13ifvqgvg","pricing_plan_id":"cebpf4jnsgd1na2vs0mg"},{"bike_id":"8a4add61-0dbd-424f-92e3-cca38f3d6fad","system_id":"levelo_inurba_marseille","lat":43.29939,"lon":5.36538,"is_reserved":false,"is_disabled":true,"rental_uris":{"android":"levelo://app?vid=8a4add61-0dbd-424f-92e3-cca38f3d6fad","ios":"levelo://app?vid=8a4add61-0dbd-424f-92e3-cca38f3d6fad"},"vehicle_type_id":"4","last_reported":1732093842,"current_range_meters":28000,"station_id":"ce4bgm92rcd13ifvqbr0","pricing_plan_id":"cebpf4jnsgd1na2vs0mg"},{"bike_id":"80c97958-4d55-4d04-b0ef-a5b1a09d0125","system_id":"levelo_inurba_marseille","lat":43.31339,"lon":5.36702,"is_reserved":false,"is_disabled":false,"rental_uris":{"android":"levelo://app?vid=80c97958-4d55-4d04-b0ef-a5b1a09d0125","ios":"levelo://app?vid=80c97958-4d55-4d04-b0ef-a5b1a09d0125"},"vehicle_type_id":"4","last_reported":1732093842,"current_range_meters":26000,"station_id":"ce4bgr92rcd13ifvqc6g","pricing_plan_id":"cebpf4jnsgd1na2vs0mg"},{"bike_id":"dc9cb95a-a0c4-401a-a3b9-c9cf0159f669","system_id":"levelo_inurba_marseille","lat":43.29574,"lon":5.39972,"is_reserved":false,"is_disabled":true,"rental_uris":{"android":"levelo://app?vid=dc9cb95a-a0c4-401a-a3b9-c9cf0159f669","ios":"levelo://app?vid=dc9cb95a-a0c4-401a-a3b9-c9cf0159f669"},"vehicle_type_id":"4","last_reported":1732093842,"current_range_meters":0,"station_id":"ce4bh312rcd13ifvqdj0","pricing_plan_id":"cebpf4jnsgd1na2vs0mg"},{"bike_id":"54ead66e-c9d3-4dfc-9a71-ab59be0b8251","system_id":"levelo_inurba_marseille","lat":43.27689,"lon":5.38917,"is_reserved":false,"is_disabled":false,"rental_uris":{"android":"levelo://app?vid=54ead66e-c9d3-4dfc-9a71-ab59be0b8251","ios":"levelo://app?vid=54ead66e-c9d3-4dfc-9a71-ab59be0b8251"},"vehicle_type_id":"4","last_reported":1732093842,"current_range_meters":37600,"station_id":"ce4bhi12rcd13ifvqfo0","pricing_plan_id":"cebpf4jnsgd1na2vs0mg"},{"bike_id":"a1268cd6-3fef-4d8d-a3c3-f2c3e15b42cc","system_id":"levelo_inurba_marseille","lat":43.29841,"lon":5.36269,"is_reserved":false,"is_disabled":false,"rental_uris":{"android":"levelo://app?vid=a1268cd6-3fef-4d8d-a3c3-f2c3e15b42cc","ios":"levelo://app?vid=a1268cd6-3fef-4d8d-a3c3-f2c3e15b42cc"},"vehicle_type_id":"4","last_reported":1732093842,"current_range_meters":24400,"station_id":"ce4bgpp2rcd13ifvqc3g","pricing_plan_id":"cebpf4jnsgd1na2vs0mg"},{"bike_id":"c50b0d31-0abf-49a2-895c-02c04566b83d","system_id":"levelo_inurba_marseille","lat":43.28034,"lon":5.369554,"is_reserved":false,"is_disabled":false,"rental_uris":{"android":"levelo://app?vid=c50b0d31-0abf-49a2-895c-02c04566b83d","ios":"levelo://app?vid=c50b0d31-0abf-49a2-895c-02c04566b83d"},"vehicle_type_id":"4","last_reported":1732093842,"current_range_meters":34000,"station_id":"ce4bha12rcd13ifvqef0","pricing_plan_id":"cebpf4jnsgd1na2vs0mg"},{"bike_id":"9d92ef61-54b1-4e3a-8897-da3c35fe81fd","system_id":"levelo_inurba_marseille","lat":43.32474,"lon":5.36595,"is_reserved":false,"is_disabled":false,"rental_uris":{"android":"levelo://app?vid=9d92ef61-54b1-4e3a-8897-da3c35fe81fd","ios":"levelo://app?vid=9d92ef61-54b1-4e3a-8897-da3c35fe81fd"},"vehicle_type_id":"4","last_reported":1732093842,"current_range_meters":28000,"station_id":"ce4bhs12rcd13ifvqhvg","pricing_plan_id":"cebpf4jnsgd1na2vs0mg"},{"bike_id":"de208543-9b1f-469d-95ed-a601b777cb16","system_id":"levelo_inurba_marseille","lat":43.24176,"lon":5.39724,"is_reserved":false,"is_disabled":true,"rental_uris":{"android":"levelo://app?vid=de208543-9b1f-469d-95ed-a601b777cb16","ios":"levelo://app?vid=de208543-9b1f-469d-95ed-a601b777cb16"},"vehicle_type_id":"4","last_reported":1732093842,"current_range_meters":0,"station_id":"ce4bhn12rcd13ifvqgpg","pricing_plan_id":"cebpf4jnsgd1na2vs0mg"},{"bike_id":"323f8ada-1479-4782-9eeb-af80cb01ce8c","system_id":"levelo_inurba_marseille","lat":43.3199,"lon":5.38164,"is_reserved":false,"is_disabled":false,"rental_uris":{"android":"levelo://app?vid=323f8ada-1479-4782-9eeb-af80cb01ce8c","ios":"levelo://app?vid=323f8ada-1479-4782-9eeb-af80cb01ce8c"},"vehicle_type_id":"4","last_reported":1732093842,"current_range_meters":22000,"station_id":"ce4bhr12rcd13ifvqhpg","pricing_plan_id":"cebpf4jnsgd1na2vs0mg"},{"bike_id":"772ce743-8958-4198-b3ba-b6e0d96fa296","system_id":"levelo_inurba_marseille","lat":43.2417,"lon":5.36392,"is_reserved":false,"is_disabled":false,"rental_uris":{"android":"levelo://app?vid=772ce743-8958-4198-b3ba-b6e0d96fa296","ios":"levelo://app?vid=772ce743-8958-4198-b3ba-b6e0d96fa296"},"vehicle_type_id":"4","last_reported":1732093842,"current_range_meters":11200,"station_id":"cpo36qri1sfpv3e86is0","pricing_plan_id":"cebpf4jnsgd1na2vs0mg"},{"bike_id":"07550232-1db2-4823-a03f-2afa410b67ca","system_id":"levelo_inurba_marseille","lat":43.26951,"lon":5.38637,"is_reserved":false,"is_disabled":false,"rental_uris":{"android":"levelo://app?vid=07550232-1db2-4823-a03f-2afa410b67ca","ios":"levelo://app?vid=07550232-1db2-4823-a03f-2afa410b67ca"},"vehicle_type_id":"4","last_reported":1732093842,"current_range_meters":16400,"station_id":"ce4bhh92rcd13ifvqfh0","pricing_plan_id":"cebpf4jnsgd1na2vs0mg"},{"bike_id":"2b5d7a4d-5b25-4b80-84d9-e10589e3033b","system_id":"levelo_inurba_marseille","lat":43.23972,"lon":5.36617,"is_reserved":false,"is_disabled":true,"rental_uris":{"android":"levelo://app?vid=2b5d7a4d-5b25-4b80-84d9-e10589e3033b","ios":"levelo://app?vid=2b5d7a4d-5b25-4b80-84d9-e10589e3033b"},"vehicle_type_id":"4","last_reported":1732093842,"current_range_meters":28000,"station_id":"ce4bhi12rcd13ifvqfp0","pricing_plan_id":"cebpf4jnsgd1na2vs0mg"},{"bike_id":"9736c004-9e3c-424e-8358-2d6291d4fd83","system_id":"levelo_inurba_marseille","lat":43.30438,"lon":5.3975,"is_reserved":false,"is_disabled":false,"rental_uris":{"android":"levelo://app?vid=9736c004-9e3c-424e-8358-2d6291d4fd83","ios":"levelo://app?vid=9736c004-9e3c-424e-8358-2d6291d4fd83"},"vehicle_type_id":"4","last_reported":1732093842,"current_range_meters":22800,"station_id":"ce4bh092rcd13ifvqd20","pricing_plan_id":"cebpf4jnsgd1na2vs0mg"},{"bike_id":"3b1d62f8-a2e9-40bf-864e-d3ff5d8aeef2","system_id":"levelo_inurba_marseille","lat":43.2707,"lon":5.4228,"is_reserved":false,"is_disabled":false,"rental_uris":{"android":"levelo://app?vid=3b1d62f8-a2e9-40bf-864e-d3ff5d8aeef2","ios":"levelo://app?vid=3b1d62f8-a2e9-40bf-864e-d3ff5d8aeef2"},"vehicle_type_id":"4","last_reported":1732093842,"current_range_meters":32000,"station_id":"ce4bhk92rcd13ifvqgb0","pricing_plan_id":"cebpf4jnsgd1na2vs0mg"},{"bike_id":"34f9d597-134c-429f-81ff-a035518634d5","system_id":"levelo_inurba_marseille","lat":43.29305,"lon":5.3718,"is_reserved":false,"is_disabled":false,"rental_uris":{"android":"levelo://app?vid=34f9d597-134c-429f-81ff-a035518634d5","ios":"levelo://app?vid=34f9d597-134c-429f-81ff-a035518634d5"},"vehicle_type_id":"4","last_reported":1732093842,"current_range_meters":35600,"station_id":"ce4bgh92rcd13ifvqb40","pricing_plan_id":"cebpf4jnsgd1na2vs0mg"},{"bike_id":"e3511c0c-eb2b-4100-bb2d-c5ebcd644bea","system_id":"levelo_inurba_marseille","lat":43.23961,"lon":5.36627,"is_reserved":false,"is_disabled":true,"rental_uris":{"android":"levelo://app?vid=e3511c0c-eb2b-4100-bb2d-c5ebcd644bea","ios":"levelo://app?vid=e3511c0c-eb2b-4100-bb2d-c5ebcd644bea"},"vehicle_type_id":"4","last_reported":1732093842,"current_range_meters":30800,"station_id":"ce4bhi12rcd13ifvqfp0","pricing_plan_id":"cebpf4jnsgd1na2vs0mg"},{"bike_id":"1749b623-ec61-41de-a246-964a5f4407eb","system_id":"levelo_inurba_marseille","lat":43.3133,"lon":5.39695,"is_reserved":false,"is_disabled":false,"rental_uris":{"android":"levelo://app?vid=1749b623-ec61-41de-a246-964a5f4407eb","ios":"levelo://app?vid=1749b623-ec61-41de-a246-964a5f4407eb"},"vehicle_type_id":"4","last_reported":1732093842,"current_range_meters":32800,"station_id":"ce4bgvp2rcd13ifvqcu0","pricing_plan_id":"cebpf4jnsgd1na2vs0mg"},{"bike_id":"f73f0531-61ad-4376-a662-e4dc98c37327","system_id":"levelo_inurba_marseille","lat":43.30941,"lon":5.39041,"is_reserved":false,"is_disabled":false,"rental_uris":{"android":"levelo://app?vid=f73f0531-61ad-4376-a662-e4dc98c37327","ios":"levelo://app?vid=f73f0531-61ad-4376-a662-e4dc98c37327"},"vehicle_type_id":"4","last_reported":1732093842,"current_range_meters":34000,"station_id":"ce4bgup2rcd13ifvqco0","pricing_plan_id":"cebpf4jnsgd1na2vs0mg"},{"bike_id":"5917a06d-1a89-42ee-9c96-70b3e49f2520","system_id":"levelo_inurba_marseille","lat":43.31689,"lon":5.40464,"is_reserved":false,"is_disabled":false,"rental_uris":{"android":"levelo://app?vid=5917a06d-1a89-42ee-9c96-70b3e49f2520","ios":"levelo://app?vid=5917a06d-1a89-42ee-9c96-70b3e49f2520"},"vehicle_type_id":"4","last_reported":1732093842,"current_range_meters":8000,"station_id":"ce4bh012rcd13ifvqd00","pricing_plan_id":"cebpf4jnsgd1na2vs0mg"},{"bike_id":"60249be1-9e95-41ab-a8e7-54792e3b8932","system_id":"levelo_inurba_marseille","lat":43.28834,"lon":5.39349,"is_reserved":false,"is_disabled":false,"rental_uris":{"android":"levelo://app?vid=60249be1-9e95-41ab-a8e7-54792e3b8932","ios":"levelo://app?vid=60249be1-9e95-41ab-a8e7-54792e3b8932"},"vehicle_type_id":"4","last_reported":1732093842,"current_range_meters":38800,"station_id":"ce4bh2p2rcd13ifvqdi0","pricing_plan_id":"cebpf4jnsgd1na2vs0mg"},{"bike_id":"497454ce-e4eb-4dce-94e8-18190e4c429b","system_id":"levelo_inurba_marseille","lat":43.27811,"lon":5.40712,"is_reserved":false,"is_disabled":true,"rental_uris":{"android":"levelo://app?vid=497454ce-e4eb-4dce-94e8-18190e4c429b","ios":"levelo://app?vid=497454ce-e4eb-4dce-94e8-18190e4c429b"},"vehicle_type_id":"4","last_reported":1732093842,"current_range_meters":0,"station_id":"ce4bhnh2rcd13ifvqgtg","pricing_plan_id":"cebpf4jnsgd1na2vs0mg"},{"bike_id":"bc66347c-bb17-4d9e-be5b-0b1064c72c9a","system_id":"levelo_inurba_marseille","lat":43.29582,"lon":5.36737,"is_reserved":false,"is_disabled":false,"rental_uris":{"android":"levelo://app?vid=bc66347c-bb17-4d9e-be5b-0b1064c72c9a","ios":"levelo://app?vid=bc66347c-bb17-4d9e-be5b-0b1064c72c9a"},"vehicle_type_id":"4","last_reported":1732093842,"current_range_meters":32800,"station_id":"ce4bgph2rcd13ifvqc2g","pricing_plan_id":"cebpf4jnsgd1na2vs0mg"},{"bike_id":"33e4c791-af81-4159-9acb-9a5ba3c67096","system_id":"levelo_inurba_marseille","lat":43.30911,"lon":5.36846,"is_reserved":false,"is_disabled":false,"rental_uris":{"android":"levelo://app?vid=33e4c791-af81-4159-9acb-9a5ba3c67096","ios":"levelo://app?vid=33e4c791-af81-4159-9acb-9a5ba3c67096"},"vehicle_type_id":"4","last_reported":1732093842,"current_range_meters":28800,"station_id":"ce4bgn92rcd13ifvqbvg","pricing_plan_id":"cebpf4jnsgd1na2vs0mg"},{"bike_id":"c02ed135-9fe7-4ae1-9e31-5793ff6798fd","system_id":"levelo_inurba_marseille","lat":43.30462,"lon":5.37905,"is_reserved":false,"is_disabled":false,"rental_uris":{"android":"levelo://app?vid=c02ed135-9fe7-4ae1-9e31-5793ff6798fd","ios":"levelo://app?vid=c02ed135-9fe7-4ae1-9e31-5793ff6798fd"},"vehicle_type_id":"4","last_reported":1732093842,"current_range_meters":14800,"station_id":"ce4bgup2rcd13ifvqcn0","pricing_plan_id":"cebpf4jnsgd1na2vs0mg"},{"bike_id":"c6dcb907-392f-4f8c-acb9-d0c818892ebe","system_id":"levelo_inurba_marseille","lat":43.31081,"lon":5.42432,"is_reserved":false,"is_disabled":false,"rental_uris":{"android":"levelo://app?vid=c6dcb907-392f-4f8c-acb9-d0c818892ebe","ios":"levelo://app?vid=c6dcb907-392f-4f8c-acb9-d0c818892ebe"},"vehicle_type_id":"4","last_reported":1732093842,"current_range_meters":19200,"station_id":"ce4bhp92rcd13ifvqhag","pricing_plan_id":"cebpf4jnsgd1na2vs0mg"},{"bike_id":"6f8f04de-3e05-4285-a0e0-af375843c0cc","system_id":"levelo_inurba_marseille","lat":43.30552,"lon":5.36533,"is_reserved":false,"is_disabled":false,"rental_uris":{"android":"levelo://app?vid=6f8f04de-3e05-4285-a0e0-af375843c0cc","ios":"levelo://app?vid=6f8f04de-3e05-4285-a0e0-af375843c0cc"},"vehicle_type_id":"4","last_reported":1732093842,"current_range_meters":32800,"station_id":"ce4bgs12rcd13ifvqcag","pricing_plan_id":"cebpf4jnsgd1na2vs0mg"},{"bike_id":"aaa01dc7-36a5-45b0-a5da-0e2ef9990f4e","system_id":"levelo_inurba_marseille","lat":43.24081,"lon":5.37747,"is_reserved":false,"is_disabled":false,"rental_uris":{"android":"levelo://app?vid=aaa01dc7-36a5-45b0-a5da-0e2ef9990f4e","ios":"levelo://app?vid=aaa01dc7-36a5-45b0-a5da-0e2ef9990f4e"},"vehicle_type_id":"4","last_reported":1732093842,"current_range_meters":36000,"station_id":"ce4bhnp2rcd13ifvqgvg","pricing_plan_id":"cebpf4jnsgd1na2vs0mg"},{"bike_id":"be283900-e45f-4f16-820c-6dd3961989b9","system_id":"levelo_inurba_marseille","lat":43.30291,"lon":5.37795,"is_reserved":false,"is_disabled":false,"rental_uris":{"android":"levelo://app?vid=be283900-e45f-4f16-820c-6dd3961989b9","ios":"levelo://app?vid=be283900-e45f-4f16-820c-6dd3961989b9"},"vehicle_type_id":"4","last_reported":1732093842,"current_range_meters":8800,"station_id":"","pricing_plan_id":"cebpf4jnsgd1na2vs0mg"},{"bike_id":"25073dac-1c4b-4235-88f2-ba7b09ca22ac","system_id":"levelo_inurba_marseille","lat":43.3229,"lon":5.38265,"is_reserved":false,"is_disabled":false,"rental_uris":{"android":"levelo://app?vid=25073dac-1c4b-4235-88f2-ba7b09ca22ac","ios":"levelo://app?vid=25073dac-1c4b-4235-88f2-ba7b09ca22ac"},"vehicle_type_id":"4","last_reported":1732093842,"current_range_meters":17600,"station_id":"ce4bhr12rcd13ifvqhqg","pricing_plan_id":"cebpf4jnsgd1na2vs0mg"},{"bike_id":"0dc4a3bf-2fba-424f-bfdf-6329c2972485","system_id":"levelo_inurba_marseille","lat":43.26689,"lon":5.38282,"is_reserved":false,"is_disabled":false,"rental_uris":{"android":"levelo://app?vid=0dc4a3bf-2fba-424f-bfdf-6329c2972485","ios":"levelo://app?vid=0dc4a3bf-2fba-424f-bfdf-6329c2972485"},"vehicle_type_id":"4","last_reported":1732093842,"current_range_meters":26000,"station_id":"ce4bhg92rcd13ifvqf90","pricing_plan_id":"cebpf4jnsgd1na2vs0mg"},{"bike_id":"37f14134-d611-451c-9aaa-25a59bd49fe3","system_id":"levelo_inurba_marseille","lat":43.29867,"lon":5.39745,"is_reserved":false,"is_disabled":true,"rental_uris":{"android":"levelo://app?vid=37f14134-d611-451c-9aaa-25a59bd49fe3","ios":"levelo://app?vid=37f14134-d611-451c-9aaa-25a59bd49fe3"},"vehicle_type_id":"4","last_reported":1732093842,"current_range_meters":37600,"station_id":"ce4bh0h2rcd13ifvqd50","pricing_plan_id":"cebpf4jnsgd1na2vs0mg"},{"bike_id":"cb9d2c93-f096-413d-aa97-c1617d8598e0","system_id":"levelo_inurba_marseille","lat":43.2467,"lon":5.3816,"is_reserved":false,"is_disabled":true,"rental_uris":{"android":"levelo://app?vid=cb9d2c93-f096-413d-aa97-c1617d8598e0","ios":"levelo://app?vid=cb9d2c93-f096-413d-aa97-c1617d8598e0"},"vehicle_type_id":"4","last_reported":1732093842,"current_range_meters":22800,"station_id":"ce4bhih2rcd13ifvqfr0","pricing_plan_id":"cebpf4jnsgd1na2vs0mg"},{"bike_id":"9413c5ef-45e9-4f82-a619-c718d7789f0e","system_id":"levelo_inurba_marseille","lat":43.30461,"lon":5.37914,"is_reserved":false,"is_disabled":false,"rental_uris":{"android":"levelo://app?vid=9413c5ef-45e9-4f82-a619-c718d7789f0e","ios":"levelo://app?vid=9413c5ef-45e9-4f82-a619-c718d7789f0e"},"vehicle_type_id":"4","last_reported":1732093842,"current_range_meters":20000,"station_id":"ce4bgup2rcd13ifvqcn0","pricing_plan_id":"cebpf4jnsgd1na2vs0mg"},{"bike_id":"111163ee-ef9b-4fdf-a727-a62ed3ba6b98","system_id":"levelo_inurba_marseille","lat":43.27826,"lon":5.40725,"is_reserved":false,"is_disabled":true,"rental_uris":{"android":"levelo://app?vid=111163ee-ef9b-4fdf-a727-a62ed3ba6b98","ios":"levelo://app?vid=111163ee-ef9b-4fdf-a727-a62ed3ba6b98"},"vehicle_type_id":"4","last_reported":1732093842,"current_range_meters":38800,"station_id":"ce4bhnh2rcd13ifvqgtg","pricing_plan_id":"cebpf4jnsgd1na2vs0mg"},{"bike_id":"d674a550-723f-4e20-a0c2-89aa344c2ade","system_id":"levelo_inurba_marseille","lat":43.28203,"lon":5.4438,"is_reserved":false,"is_disabled":true,"rental_uris":{"android":"levelo://app?vid=d674a550-723f-4e20-a0c2-89aa344c2ade","ios":"levelo://app?vid=d674a550-723f-4e20-a0c2-89aa344c2ade"},"vehicle_type_id":"4","last_reported":1732093842,"current_range_meters":0,"station_id":"","pricing_plan_id":"cebpf4jnsgd1na2vs0mg"},{"bike_id":"675720b2-7990-45a4-9637-93c894b9ac8b","system_id":"levelo_inurba_marseille","lat":43.30153,"lon":5.38079,"is_reserved":false,"is_disabled":false,"rental_uris":{"android":"levelo://app?vid=675720b2-7990-45a4-9637-93c894b9ac8b","ios":"levelo://app?vid=675720b2-7990-45a4-9637-93c894b9ac8b"},"vehicle_type_id":"4","last_reported":1732093842,"current_range_meters":16000,"station_id":"ce4bgjp2rcd13ifvqbh0","pricing_plan_id":"cebpf4jnsgd1na2vs0mg"},{"bike_id":"f6e3a69c-1ce2-40ac-adae-39d4cef78cc6","system_id":"levelo_inurba_marseille","lat":43.30547,"lon":5.36706,"is_reserved":false,"is_disabled":true,"rental_uris":{"android":"levelo://app?vid=f6e3a69c-1ce2-40ac-adae-39d4cef78cc6","ios":"levelo://app?vid=f6e3a69c-1ce2-40ac-adae-39d4cef78cc6"},"vehicle_type_id":"4","last_reported":1732093842,"current_range_meters":12000,"station_id":"ce4bgrp2rcd13ifvqc9g","pricing_plan_id":"cebpf4jnsgd1na2vs0mg"},{"bike_id":"6ff2b797-23e9-4a9c-8cd0-6471cc01eec6","system_id":"levelo_inurba_marseille","lat":43.25723,"lon":5.41109,"is_reserved":false,"is_disabled":true,"rental_uris":{"android":"levelo://app?vid=6ff2b797-23e9-4a9c-8cd0-6471cc01eec6","ios":"levelo://app?vid=6ff2b797-23e9-4a9c-8cd0-6471cc01eec6"},"vehicle_type_id":"4","last_reported":1732093842,"current_range_meters":32000,"station_id":"ce4bhkp2rcd13ifvqgd0","pricing_plan_id":"cebpf4jnsgd1na2vs0mg"},{"bike_id":"f5cf085e-8694-4c6f-ba9c-aa6e0d3c58c6","system_id":"levelo_inurba_marseille","lat":43.33665,"lon":5.35578,"is_reserved":false,"is_disabled":true,"rental_uris":{"android":"levelo://app?vid=f5cf085e-8694-4c6f-ba9c-aa6e0d3c58c6","ios":"levelo://app?vid=f5cf085e-8694-4c6f-ba9c-aa6e0d3c58c6"},"vehicle_type_id":"4","last_reported":1732093842,"current_range_meters":12800,"station_id":"","pricing_plan_id":"cebpf4jnsgd1na2vs0mg"},{"bike_id":"3d2beca7-eef0-4bae-98e1-8b3de347272c","system_id":"levelo_inurba_marseille","lat":43.23192,"lon":5.35551,"is_reserved":false,"is_disabled":false,"rental_uris":{"android":"levelo://app?vid=3d2beca7-eef0-4bae-98e1-8b3de347272c","ios":"levelo://app?vid=3d2beca7-eef0-4bae-98e1-8b3de347272c"},"vehicle_type_id":"4","last_reported":1732093842,"current_range_meters":38000,"station_id":"ce4bhu92rcd13ifvqi70","pricing_plan_id":"cebpf4jnsgd1na2vs0mg"},{"bike_id":"ca8d65b2-e9c0-4793-9cb6-d04a9d19a1d5","system_id":"levelo_inurba_marseille","lat":43.25923,"lon":5.40891,"is_reserved":false,"is_disabled":false,"rental_uris":{"android":"levelo://app?vid=ca8d65b2-e9c0-4793-9cb6-d04a9d19a1d5","ios":"levelo://app?vid=ca8d65b2-e9c0-4793-9cb6-d04a9d19a1d5"},"vehicle_type_id":"4","last_reported":1732093842,"current_range_meters":24800,"station_id":"ce4bhm92rcd13ifvqglg","pricing_plan_id":"cebpf4jnsgd1na2vs0mg"},{"bike_id":"afadbd90-4ea9-4e99-ae1e-98e25bda988a","system_id":"levelo_inurba_marseille","lat":43.30472,"lon":5.37912,"is_reserved":false,"is_disabled":false,"rental_uris":{"android":"levelo://app?vid=afadbd90-4ea9-4e99-ae1e-98e25bda988a","ios":"levelo://app?vid=afadbd90-4ea9-4e99-ae1e-98e25bda988a"},"vehicle_type_id":"4","last_reported":1732093842,"current_range_meters":28400,"station_id":"ce4bgup2rcd13ifvqcn0","pricing_plan_id":"cebpf4jnsgd1na2vs0mg"},{"bike_id":"e008ea5b-9c85-47a4-8557-75f660f9a13d","system_id":"levelo_inurba_marseille","lat":43.24389,"lon":5.37053,"is_reserved":false,"is_disabled":true,"rental_uris":{"android":"levelo://app?vid=e008ea5b-9c85-47a4-8557-75f660f9a13d","ios":"levelo://app?vid=e008ea5b-9c85-47a4-8557-75f660f9a13d"},"vehicle_type_id":"4","last_reported":1732093842,"current_range_meters":38800,"station_id":"ce4bhhh2rcd13ifvqfk0","pricing_plan_id":"cebpf4jnsgd1na2vs0mg"},{"bike_id":"40ff58ba-e76e-4158-85d8-58ddf02dec86","system_id":"levelo_inurba_marseille","lat":43.26682,"lon":5.38269,"is_reserved":false,"is_disabled":false,"rental_uris":{"android":"levelo://app?vid=40ff58ba-e76e-4158-85d8-58ddf02dec86","ios":"levelo://app?vid=40ff58ba-e76e-4158-85d8-58ddf02dec86"},"vehicle_type_id":"4","last_reported":1732093842,"current_range_meters":6400,"station_id":"ce4bhg92rcd13ifvqf90","pricing_plan_id":"cebpf4jnsgd1na2vs0mg"},{"bike_id":"f327ad99-a507-4865-ac80-317fae91b821","system_id":"levelo_inurba_marseille","lat":43.2827,"lon":5.35081,"is_reserved":false,"is_disabled":false,"rental_uris":{"android":"levelo://app?vid=f327ad99-a507-4865-ac80-317fae91b821","ios":"levelo://app?vid=f327ad99-a507-4865-ac80-317fae91b821"},"vehicle_type_id":"4","last_reported":1732093842,"current_range_meters":16800,"station_id":"ce4bhbp2rcd13ifvqerg","pricing_plan_id":"cebpf4jnsgd1na2vs0mg"},{"bike_id":"2ba1b5cb-f9ca-4b58-b038-efb81c3df548","system_id":"levelo_inurba_marseille","lat":43.25938,"lon":5.40907,"is_reserved":false,"is_disabled":false,"rental_uris":{"android":"levelo://app?vid=2ba1b5cb-f9ca-4b58-b038-efb81c3df548","ios":"levelo://app?vid=2ba1b5cb-f9ca-4b58-b038-efb81c3df548"},"vehicle_type_id":"4","last_reported":1732093842,"current_range_meters":17600,"station_id":"ce4bhm92rcd13ifvqglg","pricing_plan_id":"cebpf4jnsgd1na2vs0mg"},{"bike_id":"87856d37-44e1-4792-a6bd-4b0b40937f29","system_id":"levelo_inurba_marseille","lat":43.30433,"lon":5.39746,"is_reserved":false,"is_disabled":false,"rental_uris":{"android":"levelo://app?vid=87856d37-44e1-4792-a6bd-4b0b40937f29","ios":"levelo://app?vid=87856d37-44e1-4792-a6bd-4b0b40937f29"},"vehicle_type_id":"4","last_reported":1732093842,"current_range_meters":25600,"station_id":"ce4bh092rcd13ifvqd20","pricing_plan_id":"cebpf4jnsgd1na2vs0mg"},{"bike_id":"cb2368b1-ef14-482f-a61e-040a606cde11","system_id":"levelo_inurba_marseille","lat":43.30598,"lon":5.39371,"is_reserved":false,"is_disabled":false,"rental_uris":{"android":"levelo://app?vid=cb2368b1-ef14-482f-a61e-040a606cde11","ios":"levelo://app?vid=cb2368b1-ef14-482f-a61e-040a606cde11"},"vehicle_type_id":"4","last_reported":1732093842,"current_range_meters":28400,"station_id":"ce4bh0p2rcd13ifvqd80","pricing_plan_id":"cebpf4jnsgd1na2vs0mg"},{"bike_id":"d19acfe3-f5a8-400e-9e60-a27c99e54c52","system_id":"levelo_inurba_marseille","lat":43.29291,"lon":5.37463,"is_reserved":false,"is_disabled":false,"rental_uris":{"android":"levelo://app?vid=d19acfe3-f5a8-400e-9e60-a27c99e54c52","ios":"levelo://app?vid=d19acfe3-f5a8-400e-9e60-a27c99e54c52"},"vehicle_type_id":"4","last_reported":1732093842,"current_range_meters":34000,"station_id":"ce4bgi12rcd13ifvqb70","pricing_plan_id":"cebpf4jnsgd1na2vs0mg"},{"bike_id":"2ec2f615-93b0-4324-9194-ce628a408991","system_id":"levelo_inurba_marseille","lat":43.2844,"lon":5.3921,"is_reserved":false,"is_disabled":false,"rental_uris":{"android":"levelo://app?vid=2ec2f615-93b0-4324-9194-ce628a408991","ios":"levelo://app?vid=2ec2f615-93b0-4324-9194-ce628a408991"},"vehicle_type_id":"4","last_reported":1732093842,"current_range_meters":35600,"station_id":"ce4bhoh2rcd13ifvqh5g","pricing_plan_id":"cebpf4jnsgd1na2vs0mg"},{"bike_id":"241d784b-4d0c-4875-b884-dc2576b22a9d","system_id":"levelo_inurba_marseille","lat":43.33608,"lon":5.41025,"is_reserved":false,"is_disabled":false,"rental_uris":{"android":"levelo://app?vid=241d784b-4d0c-4875-b884-dc2576b22a9d","ios":"levelo://app?vid=241d784b-4d0c-4875-b884-dc2576b22a9d"},"vehicle_type_id":"4","last_reported":1732093842,"current_range_meters":38800,"station_id":"ce4bhqh2rcd13ifvqhmg","pricing_plan_id":"cebpf4jnsgd1na2vs0mg"},{"bike_id":"c11869a7-e118-4bcf-a08c-3dd335dbf862","system_id":"levelo_inurba_marseille","lat":43.30304,"lon":5.36893,"is_reserved":false,"is_disabled":false,"rental_uris":{"android":"levelo://app?vid=c11869a7-e118-4bcf-a08c-3dd335dbf862","ios":"levelo://app?vid=c11869a7-e118-4bcf-a08c-3dd335dbf862"},"vehicle_type_id":"4","last_reported":1732093842,"current_range_meters":16000,"station_id":"ce4bgqh2rcd13ifvqc5g","pricing_plan_id":"cebpf4jnsgd1na2vs0mg"},{"bike_id":"a53d5179-303f-4b0c-b63c-286f519ba35d","system_id":"levelo_inurba_marseille","lat":43.26953,"lon":5.38631,"is_reserved":false,"is_disabled":false,"rental_uris":{"android":"levelo://app?vid=a53d5179-303f-4b0c-b63c-286f519ba35d","ios":"levelo://app?vid=a53d5179-303f-4b0c-b63c-286f519ba35d"},"vehicle_type_id":"4","last_reported":1732093842,"current_range_meters":3600,"station_id":"ce4bhh92rcd13ifvqfh0","pricing_plan_id":"cebpf4jnsgd1na2vs0mg"},{"bike_id":"bc249293-6395-4334-b84a-652f70f197fc","system_id":"levelo_inurba_marseille","lat":43.2763,"lon":5.42649,"is_reserved":false,"is_disabled":true,"rental_uris":{"android":"levelo://app?vid=bc249293-6395-4334-b84a-652f70f197fc","ios":"levelo://app?vid=bc249293-6395-4334-b84a-652f70f197fc"},"vehicle_type_id":"4","last_reported":1732093842,"current_range_meters":0,"station_id":"","pricing_plan_id":"cebpf4jnsgd1na2vs0mg"},{"bike_id":"ad1b7e0e-87d9-4a77-9287-12319b2d321e","system_id":"levelo_inurba_marseille","lat":43.30532,"lon":5.36697,"is_reserved":false,"is_disabled":false,"rental_uris":{"android":"levelo://app?vid=ad1b7e0e-87d9-4a77-9287-12319b2d321e","ios":"levelo://app?vid=ad1b7e0e-87d9-4a77-9287-12319b2d321e"},"vehicle_type_id":"4","last_reported":1732093842,"current_range_meters":18000,"station_id":"ce4bgrp2rcd13ifvqc9g","pricing_plan_id":"cebpf4jnsgd1na2vs0mg"},{"bike_id":"be1dd5f8-91fc-4786-8461-76cd869dae13","system_id":"levelo_inurba_marseille","lat":43.31982,"lon":5.41584,"is_reserved":false,"is_disabled":true,"rental_uris":{"android":"levelo://app?vid=be1dd5f8-91fc-4786-8461-76cd869dae13","ios":"levelo://app?vid=be1dd5f8-91fc-4786-8461-76cd869dae13"},"vehicle_type_id":"4","last_reported":1732093842,"current_range_meters":22400,"station_id":"","pricing_plan_id":"cebpf4jnsgd1na2vs0mg"},{"bike_id":"8efa2e19-22cc-44e7-9d04-f0b9b25d7392","system_id":"levelo_inurba_marseille","lat":43.240788,"lon":5.377594,"is_reserved":false,"is_disabled":false,"rental_uris":{"android":"levelo://app?vid=8efa2e19-22cc-44e7-9d04-f0b9b25d7392","ios":"levelo://app?vid=8efa2e19-22cc-44e7-9d04-f0b9b25d7392"},"vehicle_type_id":"4","last_reported":1732093842,"current_range_meters":36000,"station_id":"ce4bhnp2rcd13ifvqgvg","pricing_plan_id":"cebpf4jnsgd1na2vs0mg"},{"bike_id":"cdaafd2d-0da1-4fac-9881-15c66a7cd7c0","system_id":"levelo_inurba_marseille","lat":43.2315,"lon":5.43707,"is_reserved":false,"is_disabled":true,"rental_uris":{"android":"levelo://app?vid=cdaafd2d-0da1-4fac-9881-15c66a7cd7c0","ios":"levelo://app?vid=cdaafd2d-0da1-4fac-9881-15c66a7cd7c0"},"vehicle_type_id":"4","last_reported":1732093842,"current_range_meters":0,"station_id":"ce4bhmp2rcd13ifvqgog","pricing_plan_id":"cebpf4jnsgd1na2vs0mg"},{"bike_id":"80ed2145-0455-4da8-ae4a-e36065982ce3","system_id":"levelo_inurba_marseille","lat":43.32357,"lon":5.38877,"is_reserved":false,"is_disabled":false,"rental_uris":{"android":"levelo://app?vid=80ed2145-0455-4da8-ae4a-e36065982ce3","ios":"levelo://app?vid=80ed2145-0455-4da8-ae4a-e36065982ce3"},"vehicle_type_id":"4","last_reported":1732093842,"current_range_meters":9200,"station_id":"ce4bhqp2rcd13ifvqhog","pricing_plan_id":"cebpf4jnsgd1na2vs0mg"},{"bike_id":"780504c4-b8dc-4a4d-aae5-239c0ff895e3","system_id":"levelo_inurba_marseille","lat":43.31354,"lon":5.38494,"is_reserved":false,"is_disabled":false,"rental_uris":{"android":"levelo://app?vid=780504c4-b8dc-4a4d-aae5-239c0ff895e3","ios":"levelo://app?vid=780504c4-b8dc-4a4d-aae5-239c0ff895e3"},"vehicle_type_id":"4","last_reported":1732093842,"current_range_meters":10000,"station_id":"ce4bgt92rcd13ifvqcf0","pricing_plan_id":"cebpf4jnsgd1na2vs0mg"},{"bike_id":"8d5ad0a8-268e-4afd-be61-7919f93826c7","system_id":"levelo_inurba_marseille","lat":43.2991,"lon":5.37471,"is_reserved":false,"is_disabled":true,"rental_uris":{"android":"levelo://app?vid=8d5ad0a8-268e-4afd-be61-7919f93826c7","ios":"levelo://app?vid=8d5ad0a8-268e-4afd-be61-7919f93826c7"},"vehicle_type_id":"4","last_reported":1732093842,"current_range_meters":32000,"station_id":"ce4bgjh2rcd13ifvqbg0","pricing_plan_id":"cebpf4jnsgd1na2vs0mg"},{"bike_id":"f198b97b-88d4-49aa-b205-4610520421a6","system_id":"levelo_inurba_marseille","lat":43.33026,"lon":5.39039,"is_reserved":false,"is_disabled":false,"rental_uris":{"android":"levelo://app?vid=f198b97b-88d4-49aa-b205-4610520421a6","ios":"levelo://app?vid=f198b97b-88d4-49aa-b205-4610520421a6"},"vehicle_type_id":"4","last_reported":1732093842,"current_range_meters":30000,"station_id":"ce4bhr92rcd13ifvqhrg","pricing_plan_id":"cebpf4jnsgd1na2vs0mg"},{"bike_id":"85a0f1a9-64c6-4d00-b024-9cb898d0cf69","system_id":"levelo_inurba_marseille","lat":43.28442,"lon":5.39185,"is_reserved":false,"is_disabled":true,"rental_uris":{"android":"levelo://app?vid=85a0f1a9-64c6-4d00-b024-9cb898d0cf69","ios":"levelo://app?vid=85a0f1a9-64c6-4d00-b024-9cb898d0cf69"},"vehicle_type_id":"4","last_reported":1732093842,"current_range_meters":38800,"station_id":"ce4bhoh2rcd13ifvqh5g","pricing_plan_id":"cebpf4jnsgd1na2vs0mg"},{"bike_id":"b3c32c43-e29a-41bf-9a5d-65e6bdd4410e","system_id":"levelo_inurba_marseille","lat":43.27206,"lon":5.39187,"is_reserved":false,"is_disabled":false,"rental_uris":{"android":"levelo://app?vid=b3c32c43-e29a-41bf-9a5d-65e6bdd4410e","ios":"levelo://app?vid=b3c32c43-e29a-41bf-9a5d-65e6bdd4410e"},"vehicle_type_id":"4","last_reported":1732093842,"current_range_meters":28400,"station_id":"ce4bhhp2rcd13ifvqfm0","pricing_plan_id":"cebpf4jnsgd1na2vs0mg"},{"bike_id":"4a9a7800-13f1-427a-9c81-000b981e4c98","system_id":"levelo_inurba_marseille","lat":43.27371,"lon":5.36263,"is_reserved":false,"is_disabled":true,"rental_uris":{"android":"levelo://app?vid=4a9a7800-13f1-427a-9c81-000b981e4c98","ios":"levelo://app?vid=4a9a7800-13f1-427a-9c81-000b981e4c98"},"vehicle_type_id":"4","last_reported":1732093842,"current_range_meters":0,"station_id":"ce4bhbh2rcd13ifvqeo0","pricing_plan_id":"cebpf4jnsgd1na2vs0mg"},{"bike_id":"80f5374f-d71c-49c0-bff2-ba689fdaae85","system_id":"levelo_inurba_marseille","lat":43.23152,"lon":5.43713,"is_reserved":false,"is_disabled":true,"rental_uris":{"android":"levelo://app?vid=80f5374f-d71c-49c0-bff2-ba689fdaae85","ios":"levelo://app?vid=80f5374f-d71c-49c0-bff2-ba689fdaae85"},"vehicle_type_id":"4","last_reported":1732093842,"current_range_meters":0,"station_id":"ce4bhmp2rcd13ifvqgog","pricing_plan_id":"cebpf4jnsgd1na2vs0mg"},{"bike_id":"5fe20d58-65ac-4c8a-b149-a2e6de20044d","system_id":"levelo_inurba_marseille","lat":43.2938,"lon":5.37855,"is_reserved":false,"is_disabled":false,"rental_uris":{"android":"levelo://app?vid=5fe20d58-65ac-4c8a-b149-a2e6de20044d","ios":"levelo://app?vid=5fe20d58-65ac-4c8a-b149-a2e6de20044d"},"vehicle_type_id":"4","last_reported":1732093842,"current_range_meters":28000,"station_id":"ce4bgjh2rcd13ifvqbf0","pricing_plan_id":"cebpf4jnsgd1na2vs0mg"},{"bike_id":"6a9c3b42-bbed-4a17-9d21-9d400d11f331","system_id":"levelo_inurba_marseille","lat":43.32486,"lon":5.36553,"is_reserved":false,"is_disabled":false,"rental_uris":{"android":"levelo://app?vid=6a9c3b42-bbed-4a17-9d21-9d400d11f331","ios":"levelo://app?vid=6a9c3b42-bbed-4a17-9d21-9d400d11f331"},"vehicle_type_id":"4","last_reported":1732093842,"current_range_meters":38400,"station_id":"ce4bhs12rcd13ifvqhvg","pricing_plan_id":"cebpf4jnsgd1na2vs0mg"},{"bike_id":"d2c643bf-7624-49f9-ac83-ea432bbe727a","system_id":"levelo_inurba_marseille","lat":43.24079,"lon":5.37751,"is_reserved":false,"is_disabled":false,"rental_uris":{"android":"levelo://app?vid=d2c643bf-7624-49f9-ac83-ea432bbe727a","ios":"levelo://app?vid=d2c643bf-7624-49f9-ac83-ea432bbe727a"},"vehicle_type_id":"4","last_reported":1732093842,"current_range_meters":34000,"station_id":"ce4bhnp2rcd13ifvqgvg","pricing_plan_id":"cebpf4jnsgd1na2vs0mg"},{"bike_id":"32957938-8a92-4610-9f6d-510ad8640b66","system_id":"levelo_inurba_marseille","lat":43.28671,"lon":5.38656,"is_reserved":false,"is_disabled":false,"rental_uris":{"android":"levelo://app?vid=32957938-8a92-4610-9f6d-510ad8640b66","ios":"levelo://app?vid=32957938-8a92-4610-9f6d-510ad8640b66"},"vehicle_type_id":"4","last_reported":1732093842,"current_range_meters":22400,"station_id":"ce4bh492rcd13ifvqdug","pricing_plan_id":"cebpf4jnsgd1na2vs0mg"},{"bike_id":"64486476-b306-47e0-9aa4-65994e58597f","system_id":"levelo_inurba_marseille","lat":43.30605,"lon":5.39362,"is_reserved":false,"is_disabled":false,"rental_uris":{"android":"levelo://app?vid=64486476-b306-47e0-9aa4-65994e58597f","ios":"levelo://app?vid=64486476-b306-47e0-9aa4-65994e58597f"},"vehicle_type_id":"4","last_reported":1732093842,"current_range_meters":39200,"station_id":"ce4bh0p2rcd13ifvqd80","pricing_plan_id":"cebpf4jnsgd1na2vs0mg"},{"bike_id":"6502a037-f0ae-4bd0-a3ca-69b9a77dc367","system_id":"levelo_inurba_marseille","lat":43.24085,"lon":5.3775,"is_reserved":false,"is_disabled":true,"rental_uris":{"android":"levelo://app?vid=6502a037-f0ae-4bd0-a3ca-69b9a77dc367","ios":"levelo://app?vid=6502a037-f0ae-4bd0-a3ca-69b9a77dc367"},"vehicle_type_id":"4","last_reported":1732093842,"current_range_meters":0,"station_id":"ce4bhnp2rcd13ifvqgvg","pricing_plan_id":"cebpf4jnsgd1na2vs0mg"},{"bike_id":"cbfc9a20-d05e-4b2a-bc9d-c388d98c9f06","system_id":"levelo_inurba_marseille","lat":43.26685,"lon":5.38272,"is_reserved":false,"is_disabled":false,"rental_uris":{"android":"levelo://app?vid=cbfc9a20-d05e-4b2a-bc9d-c388d98c9f06","ios":"levelo://app?vid=cbfc9a20-d05e-4b2a-bc9d-c388d98c9f06"},"vehicle_type_id":"4","last_reported":1732093842,"current_range_meters":30000,"station_id":"ce4bhg92rcd13ifvqf90","pricing_plan_id":"cebpf4jnsgd1na2vs0mg"},{"bike_id":"f264b414-f319-4c68-87b9-7d532c5987b6","system_id":"levelo_inurba_marseille","lat":43.30549,"lon":5.38424,"is_reserved":false,"is_disabled":false,"rental_uris":{"android":"levelo://app?vid=f264b414-f319-4c68-87b9-7d532c5987b6","ios":"levelo://app?vid=f264b414-f319-4c68-87b9-7d532c5987b6"},"vehicle_type_id":"4","last_reported":1732093842,"current_range_meters":38400,"station_id":"ce4bgg92rcd13ifvqb30","pricing_plan_id":"cebpf4jnsgd1na2vs0mg"},{"bike_id":"658c3afe-23a6-48fe-8ba4-7f0cfed06312","system_id":"levelo_inurba_marseille","lat":43.24081,"lon":5.37754,"is_reserved":false,"is_disabled":false,"rental_uris":{"android":"levelo://app?vid=658c3afe-23a6-48fe-8ba4-7f0cfed06312","ios":"levelo://app?vid=658c3afe-23a6-48fe-8ba4-7f0cfed06312"},"vehicle_type_id":"4","last_reported":1732093842,"current_range_meters":22400,"station_id":"ce4bhnp2rcd13ifvqgvg","pricing_plan_id":"cebpf4jnsgd1na2vs0mg"},{"bike_id":"fc8f2f3f-f4da-45f9-9030-978fb706c0e1","system_id":"levelo_inurba_marseille","lat":43.31367,"lon":5.36737,"is_reserved":false,"is_disabled":false,"rental_uris":{"android":"levelo://app?vid=fc8f2f3f-f4da-45f9-9030-978fb706c0e1","ios":"levelo://app?vid=fc8f2f3f-f4da-45f9-9030-978fb706c0e1"},"vehicle_type_id":"4","last_reported":1732093842,"current_range_meters":32000,"station_id":"ce4bgr92rcd13ifvqc6g","pricing_plan_id":"cebpf4jnsgd1na2vs0mg"},{"bike_id":"4bd268f3-b708-480d-b1f5-141d19aa9947","system_id":"levelo_inurba_marseille","lat":43.2447,"lon":5.37788,"is_reserved":false,"is_disabled":true,"rental_uris":{"android":"levelo://app?vid=4bd268f3-b708-480d-b1f5-141d19aa9947","ios":"levelo://app?vid=4bd268f3-b708-480d-b1f5-141d19aa9947"},"vehicle_type_id":"4","last_reported":1732093842,"current_range_meters":0,"station_id":"","pricing_plan_id":"cebpf4jnsgd1na2vs0mg"},{"bike_id":"a78bc1fa-f508-4cab-a5e8-89111600fa30","system_id":"levelo_inurba_marseille","lat":43.34136,"lon":5.40907,"is_reserved":false,"is_disabled":false,"rental_uris":{"android":"levelo://app?vid=a78bc1fa-f508-4cab-a5e8-89111600fa30","ios":"levelo://app?vid=a78bc1fa-f508-4cab-a5e8-89111600fa30"},"vehicle_type_id":"4","last_reported":1732093842,"current_range_meters":38800,"station_id":"ce4bhqh2rcd13ifvqhlg","pricing_plan_id":"cebpf4jnsgd1na2vs0mg"},{"bike_id":"9b4d52a8-a22b-418c-a556-65afaca3a235","system_id":"levelo_inurba_marseille","lat":43.33753,"lon":5.37445,"is_reserved":false,"is_disabled":false,"rental_uris":{"android":"levelo://app?vid=9b4d52a8-a22b-418c-a556-65afaca3a235","ios":"levelo://app?vid=9b4d52a8-a22b-418c-a556-65afaca3a235"},"vehicle_type_id":"4","last_reported":1732093842,"current_range_meters":17200,"station_id":"","pricing_plan_id":"cebpf4jnsgd1na2vs0mg"},{"bike_id":"4a480100-024d-48c9-89da-2b1b4df99533","system_id":"levelo_inurba_marseille","lat":43.30146,"lon":5.37422,"is_reserved":false,"is_disabled":false,"rental_uris":{"android":"levelo://app?vid=4a480100-024d-48c9-89da-2b1b4df99533","ios":"levelo://app?vid=4a480100-024d-48c9-89da-2b1b4df99533"},"vehicle_type_id":"4","last_reported":1732093842,"current_range_meters":20400,"station_id":"ce4bgs92rcd13ifvqcc0","pricing_plan_id":"cebpf4jnsgd1na2vs0mg"},{"bike_id":"ad207ff9-e382-46aa-9ab6-5f4153d9e47e","system_id":"levelo_inurba_marseille","lat":43.32533,"lon":5.41432,"is_reserved":false,"is_disabled":false,"rental_uris":{"android":"levelo://app?vid=ad207ff9-e382-46aa-9ab6-5f4153d9e47e","ios":"levelo://app?vid=ad207ff9-e382-46aa-9ab6-5f4153d9e47e"},"vehicle_type_id":"4","last_reported":1732093842,"current_range_meters":8000,"station_id":"ce4bhq12rcd13ifvqhhg","pricing_plan_id":"cebpf4jnsgd1na2vs0mg"},{"bike_id":"2c279613-f2ba-4de7-9d6c-c8e02c4eca90","system_id":"levelo_inurba_marseille","lat":43.28975,"lon":5.37842,"is_reserved":false,"is_disabled":false,"rental_uris":{"android":"levelo://app?vid=2c279613-f2ba-4de7-9d6c-c8e02c4eca90","ios":"levelo://app?vid=2c279613-f2ba-4de7-9d6c-c8e02c4eca90"},"vehicle_type_id":"4","last_reported":1732093842,"current_range_meters":32400,"station_id":"ce4bh9p2rcd13ifvqed0","pricing_plan_id":"cebpf4jnsgd1na2vs0mg"},{"bike_id":"cca66d0a-6d22-4a92-ad73-4ac5d609d7e0","system_id":"levelo_inurba_marseille","lat":43.30954,"lon":5.39043,"is_reserved":false,"is_disabled":false,"rental_uris":{"android":"levelo://app?vid=cca66d0a-6d22-4a92-ad73-4ac5d609d7e0","ios":"levelo://app?vid=cca66d0a-6d22-4a92-ad73-4ac5d609d7e0"},"vehicle_type_id":"4","last_reported":1732093842,"current_range_meters":31200,"station_id":"ce4bgup2rcd13ifvqco0","pricing_plan_id":"cebpf4jnsgd1na2vs0mg"},{"bike_id":"9683e212-0188-4d1a-a99f-3d0af56226ff","system_id":"levelo_inurba_marseille","lat":43.24078,"lon":5.37754,"is_reserved":false,"is_disabled":false,"rental_uris":{"android":"levelo://app?vid=9683e212-0188-4d1a-a99f-3d0af56226ff","ios":"levelo://app?vid=9683e212-0188-4d1a-a99f-3d0af56226ff"},"vehicle_type_id":"4","last_reported":1732093842,"current_range_meters":36800,"station_id":"ce4bhnp2rcd13ifvqgvg","pricing_plan_id":"cebpf4jnsgd1na2vs0mg"},{"bike_id":"e74e8692-56b5-455e-b107-3674a73c30f0","system_id":"levelo_inurba_marseille","lat":43.29269,"lon":5.36839,"is_reserved":false,"is_disabled":true,"rental_uris":{"android":"levelo://app?vid=e74e8692-56b5-455e-b107-3674a73c30f0","ios":"levelo://app?vid=e74e8692-56b5-455e-b107-3674a73c30f0"},"vehicle_type_id":"4","last_reported":1732093842,"current_range_meters":0,"station_id":"ce4bhbp2rcd13ifvqesg","pricing_plan_id":"cebpf4jnsgd1na2vs0mg"},{"bike_id":"d914726d-cb54-4c9c-8990-0c1f00249186","system_id":"levelo_inurba_marseille","lat":43.30278,"lon":5.37701,"is_reserved":false,"is_disabled":false,"rental_uris":{"android":"levelo://app?vid=d914726d-cb54-4c9c-8990-0c1f00249186","ios":"levelo://app?vid=d914726d-cb54-4c9c-8990-0c1f00249186"},"vehicle_type_id":"4","last_reported":1732093842,"current_range_meters":36000,"station_id":"ce4bguh2rcd13ifvqcj0","pricing_plan_id":"cebpf4jnsgd1na2vs0mg"},{"bike_id":"b8e0ff19-cfbf-49c3-a9f8-f8dcefd4b613","system_id":"levelo_inurba_marseille","lat":43.27678,"lon":5.38905,"is_reserved":false,"is_disabled":true,"rental_uris":{"android":"levelo://app?vid=b8e0ff19-cfbf-49c3-a9f8-f8dcefd4b613","ios":"levelo://app?vid=b8e0ff19-cfbf-49c3-a9f8-f8dcefd4b613"},"vehicle_type_id":"4","last_reported":1732093842,"current_range_meters":33600,"station_id":"ce4bhi12rcd13ifvqfo0","pricing_plan_id":"cebpf4jnsgd1na2vs0mg"},{"bike_id":"6062c814-b29e-4547-857c-6b4aba6ee686","system_id":"levelo_inurba_marseille","lat":43.31354,"lon":5.36705,"is_reserved":false,"is_disabled":false,"rental_uris":{"android":"levelo://app?vid=6062c814-b29e-4547-857c-6b4aba6ee686","ios":"levelo://app?vid=6062c814-b29e-4547-857c-6b4aba6ee686"},"vehicle_type_id":"4","last_reported":1732093842,"current_range_meters":32800,"station_id":"ce4bgr92rcd13ifvqc6g","pricing_plan_id":"cebpf4jnsgd1na2vs0mg"},{"bike_id":"13fee9f6-04c9-46f2-a51e-49fcdeee2ab9","system_id":"levelo_inurba_marseille","lat":43.30535,"lon":5.38408,"is_reserved":false,"is_disabled":false,"rental_uris":{"android":"levelo://app?vid=13fee9f6-04c9-46f2-a51e-49fcdeee2ab9","ios":"levelo://app?vid=13fee9f6-04c9-46f2-a51e-49fcdeee2ab9"},"vehicle_type_id":"4","last_reported":1732093842,"current_range_meters":26000,"station_id":"ce4bgg92rcd13ifvqb30","pricing_plan_id":"cebpf4jnsgd1na2vs0mg"},{"bike_id":"93df6ddb-116b-49af-8d27-10fad5b24377","system_id":"levelo_inurba_marseille","lat":43.29721,"lon":5.37689,"is_reserved":false,"is_disabled":false,"rental_uris":{"android":"levelo://app?vid=93df6ddb-116b-49af-8d27-10fad5b24377","ios":"levelo://app?vid=93df6ddb-116b-49af-8d27-10fad5b24377"},"vehicle_type_id":"4","last_reported":1732093842,"current_range_meters":27200,"station_id":"ce4bgkh2rcd13ifvqbl0","pricing_plan_id":"cebpf4jnsgd1na2vs0mg"},{"bike_id":"29bf4663-a932-44eb-84f4-3530c99daddd","system_id":"levelo_inurba_marseille","lat":43.30302,"lon":5.37871,"is_reserved":false,"is_disabled":false,"rental_uris":{"android":"levelo://app?vid=29bf4663-a932-44eb-84f4-3530c99daddd","ios":"levelo://app?vid=29bf4663-a932-44eb-84f4-3530c99daddd"},"vehicle_type_id":"4","last_reported":1732093842,"current_range_meters":28000,"station_id":"","pricing_plan_id":"cebpf4jnsgd1na2vs0mg"},{"bike_id":"1462f68e-113f-431d-9d5b-f4d7f987f2b8","system_id":"levelo_inurba_marseille","lat":43.28487,"lon":5.38431,"is_reserved":false,"is_disabled":true,"rental_uris":{"android":"levelo://app?vid=1462f68e-113f-431d-9d5b-f4d7f987f2b8","ios":"levelo://app?vid=1462f68e-113f-431d-9d5b-f4d7f987f2b8"},"vehicle_type_id":"4","last_reported":1732093842,"current_range_meters":0,"station_id":"ce4bh512rcd13ifvqe3g","pricing_plan_id":"cebpf4jnsgd1na2vs0mg"},{"bike_id":"270c5586-8f9b-4bce-8727-3cf2154b0f5a","system_id":"levelo_inurba_marseille","lat":43.26951,"lon":5.38618,"is_reserved":false,"is_disabled":false,"rental_uris":{"android":"levelo://app?vid=270c5586-8f9b-4bce-8727-3cf2154b0f5a","ios":"levelo://app?vid=270c5586-8f9b-4bce-8727-3cf2154b0f5a"},"vehicle_type_id":"4","last_reported":1732093842,"current_range_meters":18000,"station_id":"ce4bhh92rcd13ifvqfh0","pricing_plan_id":"cebpf4jnsgd1na2vs0mg"},{"bike_id":"0b733133-03c9-4766-961e-92b775b50bbc","system_id":"levelo_inurba_marseille","lat":43.28222,"lon":5.4429,"is_reserved":false,"is_disabled":true,"rental_uris":{"android":"levelo://app?vid=0b733133-03c9-4766-961e-92b775b50bbc","ios":"levelo://app?vid=0b733133-03c9-4766-961e-92b775b50bbc"},"vehicle_type_id":"4","last_reported":1732093842,"current_range_meters":0,"station_id":"","pricing_plan_id":"cebpf4jnsgd1na2vs0mg"},{"bike_id":"c4a2acc5-36ba-4604-b10e-db16ef9cebaf","system_id":"levelo_inurba_marseille","lat":43.28946,"lon":5.36638,"is_reserved":false,"is_disabled":false,"rental_uris":{"android":"levelo://app?vid=c4a2acc5-36ba-4604-b10e-db16ef9cebaf","ios":"levelo://app?vid=c4a2acc5-36ba-4604-b10e-db16ef9cebaf"},"vehicle_type_id":"4","last_reported":1732093842,"current_range_meters":7200,"station_id":"","pricing_plan_id":"cebpf4jnsgd1na2vs0mg"},{"bike_id":"bd3abe87-38c1-4c3f-a9de-0d2b4cda7d87","system_id":"levelo_inurba_marseille","lat":43.28478,"lon":5.38406,"is_reserved":false,"is_disabled":false,"rental_uris":{"android":"levelo://app?vid=bd3abe87-38c1-4c3f-a9de-0d2b4cda7d87","ios":"levelo://app?vid=bd3abe87-38c1-4c3f-a9de-0d2b4cda7d87"},"vehicle_type_id":"4","last_reported":1732093842,"current_range_meters":38400,"station_id":"ce4bh512rcd13ifvqe3g","pricing_plan_id":"cebpf4jnsgd1na2vs0mg"},{"bike_id":"e4c11769-2c19-46a4-a622-9a2180bb2646","system_id":"levelo_inurba_marseille","lat":43.23154,"lon":5.43712,"is_reserved":false,"is_disabled":false,"rental_uris":{"android":"levelo://app?vid=e4c11769-2c19-46a4-a622-9a2180bb2646","ios":"levelo://app?vid=e4c11769-2c19-46a4-a622-9a2180bb2646"},"vehicle_type_id":"4","last_reported":1732093842,"current_range_meters":39200,"station_id":"ce4bhmp2rcd13ifvqgog","pricing_plan_id":"cebpf4jnsgd1na2vs0mg"},{"bike_id":"ec5599da-c22b-4771-a15a-f07f55bc39c9","system_id":"levelo_inurba_marseille","lat":43.29709,"lon":5.37702,"is_reserved":false,"is_disabled":false,"rental_uris":{"android":"levelo://app?vid=ec5599da-c22b-4771-a15a-f07f55bc39c9","ios":"levelo://app?vid=ec5599da-c22b-4771-a15a-f07f55bc39c9"},"vehicle_type_id":"4","last_reported":1732093842,"current_range_meters":8000,"station_id":"ce4bgkh2rcd13ifvqbl0","pricing_plan_id":"cebpf4jnsgd1na2vs0mg"},{"bike_id":"5336a5b5-c183-420b-aff7-591cf3ddcaab","system_id":"levelo_inurba_marseille","lat":43.30466,"lon":5.37899,"is_reserved":false,"is_disabled":true,"rental_uris":{"android":"levelo://app?vid=5336a5b5-c183-420b-aff7-591cf3ddcaab","ios":"levelo://app?vid=5336a5b5-c183-420b-aff7-591cf3ddcaab"},"vehicle_type_id":"4","last_reported":1732093842,"current_range_meters":35600,"station_id":"ce4bgup2rcd13ifvqcn0","pricing_plan_id":"cebpf4jnsgd1na2vs0mg"},{"bike_id":"f9a7c24d-fb35-4027-a8c1-115c4703f22f","system_id":"levelo_inurba_marseille","lat":43.29705,"lon":5.36604,"is_reserved":false,"is_disabled":false,"rental_uris":{"android":"levelo://app?vid=f9a7c24d-fb35-4027-a8c1-115c4703f22f","ios":"levelo://app?vid=f9a7c24d-fb35-4027-a8c1-115c4703f22f"},"vehicle_type_id":"4","last_reported":1732093842,"current_range_meters":32400,"station_id":"","pricing_plan_id":"cebpf4jnsgd1na2vs0mg"},{"bike_id":"3b44a047-a630-4d9c-981a-93fd3a434f1d","system_id":"levelo_inurba_marseille","lat":43.29224,"lon":5.3607,"is_reserved":false,"is_disabled":false,"rental_uris":{"android":"levelo://app?vid=3b44a047-a630-4d9c-981a-93fd3a434f1d","ios":"levelo://app?vid=3b44a047-a630-4d9c-981a-93fd3a434f1d"},"vehicle_type_id":"4","last_reported":1732093842,"current_range_meters":5600,"station_id":"ce4bhbh2rcd13ifvqeqg","pricing_plan_id":"cebpf4jnsgd1na2vs0mg"},{"bike_id":"62e73b5a-9160-4545-9da4-715b86e1f5c2","system_id":"levelo_inurba_marseille","lat":43.30466,"lon":5.37904,"is_reserved":false,"is_disabled":false,"rental_uris":{"android":"levelo://app?vid=62e73b5a-9160-4545-9da4-715b86e1f5c2","ios":"levelo://app?vid=62e73b5a-9160-4545-9da4-715b86e1f5c2"},"vehicle_type_id":"4","last_reported":1732093842,"current_range_meters":38800,"station_id":"ce4bgup2rcd13ifvqcn0","pricing_plan_id":"cebpf4jnsgd1na2vs0mg"},{"bike_id":"4010b9c7-df6e-473a-81ee-30f0aa89e4d9","system_id":"levelo_inurba_marseille","lat":43.2962,"lon":5.37172,"is_reserved":false,"is_disabled":false,"rental_uris":{"android":"levelo://app?vid=4010b9c7-df6e-473a-81ee-30f0aa89e4d9","ios":"levelo://app?vid=4010b9c7-df6e-473a-81ee-30f0aa89e4d9"},"vehicle_type_id":"4","last_reported":1732093842,"current_range_meters":36400,"station_id":"ce4bgnh2rcd13ifvqc0g","pricing_plan_id":"cebpf4jnsgd1na2vs0mg"},{"bike_id":"1904e4d6-e1e0-456f-9800-8b0e0e7107b4","system_id":"levelo_inurba_marseille","lat":43.23153,"lon":5.43703,"is_reserved":false,"is_disabled":true,"rental_uris":{"android":"levelo://app?vid=1904e4d6-e1e0-456f-9800-8b0e0e7107b4","ios":"levelo://app?vid=1904e4d6-e1e0-456f-9800-8b0e0e7107b4"},"vehicle_type_id":"4","last_reported":1732093842,"current_range_meters":0,"station_id":"ce4bhmp2rcd13ifvqgog","pricing_plan_id":"cebpf4jnsgd1na2vs0mg"},{"bike_id":"2bb4d3df-ce00-4b9f-88b5-817fd0bd8861","system_id":"levelo_inurba_marseille","lat":43.30144,"lon":5.37416,"is_reserved":false,"is_disabled":false,"rental_uris":{"android":"levelo://app?vid=2bb4d3df-ce00-4b9f-88b5-817fd0bd8861","ios":"levelo://app?vid=2bb4d3df-ce00-4b9f-88b5-817fd0bd8861"},"vehicle_type_id":"4","last_reported":1732093842,"current_range_meters":30000,"station_id":"ce4bgs92rcd13ifvqcc0","pricing_plan_id":"cebpf4jnsgd1na2vs0mg"},{"bike_id":"35ae0824-f6a1-494d-ad0e-71e2a1b9e68e","system_id":"levelo_inurba_marseille","lat":43.25498,"lon":5.37652,"is_reserved":false,"is_disabled":false,"rental_uris":{"android":"levelo://app?vid=35ae0824-f6a1-494d-ad0e-71e2a1b9e68e","ios":"levelo://app?vid=35ae0824-f6a1-494d-ad0e-71e2a1b9e68e"},"vehicle_type_id":"4","last_reported":1732093842,"current_range_meters":38000,"station_id":"ce4bhh12rcd13ifvqff0","pricing_plan_id":"cebpf4jnsgd1na2vs0mg"},{"bike_id":"ae11e008-6d1b-40d3-b8ae-f0a7e32b61fd","system_id":"levelo_inurba_marseille","lat":43.32545,"lon":5.4145,"is_reserved":false,"is_disabled":false,"rental_uris":{"android":"levelo://app?vid=ae11e008-6d1b-40d3-b8ae-f0a7e32b61fd","ios":"levelo://app?vid=ae11e008-6d1b-40d3-b8ae-f0a7e32b61fd"},"vehicle_type_id":"4","last_reported":1732093842,"current_range_meters":8000,"station_id":"ce4bhq12rcd13ifvqhhg","pricing_plan_id":"cebpf4jnsgd1na2vs0mg"},{"bike_id":"3a4fa403-18c4-4c28-bf14-b7b166e74ddb","system_id":"levelo_inurba_marseille","lat":43.32111,"lon":5.36767,"is_reserved":false,"is_disabled":false,"rental_uris":{"android":"levelo://app?vid=3a4fa403-18c4-4c28-bf14-b7b166e74ddb","ios":"levelo://app?vid=3a4fa403-18c4-4c28-bf14-b7b166e74ddb"},"vehicle_type_id":"4","last_reported":1732093842,"current_range_meters":28000,"station_id":"ce4bhrh2rcd13ifvqhug","pricing_plan_id":"cebpf4jnsgd1na2vs0mg"},{"bike_id":"1eff5ce5-2d56-4465-a12c-60db9ec2175a","system_id":"levelo_inurba_marseille","lat":43.22928,"lon":5.35375,"is_reserved":false,"is_disabled":false,"rental_uris":{"android":"levelo://app?vid=1eff5ce5-2d56-4465-a12c-60db9ec2175a","ios":"levelo://app?vid=1eff5ce5-2d56-4465-a12c-60db9ec2175a"},"vehicle_type_id":"4","last_reported":1732093842,"current_range_meters":16800,"station_id":"cpo3532slgdg3j2ikp40","pricing_plan_id":"cebpf4jnsgd1na2vs0mg"},{"bike_id":"6ac38c08-263b-4dbc-9230-678d7993bb91","system_id":"levelo_inurba_marseille","lat":43.29309,"lon":5.37183,"is_reserved":false,"is_disabled":false,"rental_uris":{"android":"levelo://app?vid=6ac38c08-263b-4dbc-9230-678d7993bb91","ios":"levelo://app?vid=6ac38c08-263b-4dbc-9230-678d7993bb91"},"vehicle_type_id":"4","last_reported":1732093842,"current_range_meters":24800,"station_id":"ce4bgh92rcd13ifvqb40","pricing_plan_id":"cebpf4jnsgd1na2vs0mg"},{"bike_id":"03c70f13-2d6f-426a-9552-7093ee42e50e","system_id":"levelo_inurba_marseille","lat":43.26956,"lon":5.38633,"is_reserved":false,"is_disabled":false,"rental_uris":{"android":"levelo://app?vid=03c70f13-2d6f-426a-9552-7093ee42e50e","ios":"levelo://app?vid=03c70f13-2d6f-426a-9552-7093ee42e50e"},"vehicle_type_id":"4","last_reported":1732093842,"current_range_meters":30000,"station_id":"ce4bhh92rcd13ifvqfh0","pricing_plan_id":"cebpf4jnsgd1na2vs0mg"},{"bike_id":"c9d6dd6c-63a3-4507-bbb5-a70e100b08d2","system_id":"levelo_inurba_marseille","lat":43.33721,"lon":5.39195,"is_reserved":false,"is_disabled":false,"rental_uris":{"android":"levelo://app?vid=c9d6dd6c-63a3-4507-bbb5-a70e100b08d2","ios":"levelo://app?vid=c9d6dd6c-63a3-4507-bbb5-a70e100b08d2"},"vehicle_type_id":"4","last_reported":1732093842,"current_range_meters":17200,"station_id":"ce4bhr92rcd13ifvqhsg","pricing_plan_id":"cebpf4jnsgd1na2vs0mg"},{"bike_id":"9f3572b0-c0a7-43aa-8c1e-c100148af63b","system_id":"levelo_inurba_marseille","lat":43.291953,"lon":5.357876,"is_reserved":false,"is_disabled":true,"rental_uris":{"android":"levelo://app?vid=9f3572b0-c0a7-43aa-8c1e-c100148af63b","ios":"levelo://app?vid=9f3572b0-c0a7-43aa-8c1e-c100148af63b"},"vehicle_type_id":"4","last_reported":1732093842,"current_range_meters":38000,"station_id":"ce4bhb12rcd13ifvqel0","pricing_plan_id":"cebpf4jnsgd1na2vs0mg"},{"bike_id":"954054ad-77ac-46c3-a1b5-c8fc266a522b","system_id":"levelo_inurba_marseille","lat":43.31723,"lon":5.42394,"is_reserved":false,"is_disabled":false,"rental_uris":{"android":"levelo://app?vid=954054ad-77ac-46c3-a1b5-c8fc266a522b","ios":"levelo://app?vid=954054ad-77ac-46c3-a1b5-c8fc266a522b"},"vehicle_type_id":"4","last_reported":1732093842,"current_range_meters":38800,"station_id":"ce4bhp92rcd13ifvqhbg","pricing_plan_id":"cebpf4jnsgd1na2vs0mg"},{"bike_id":"dde8cce2-2ed1-4fdd-81ed-cfda3582f0ae","system_id":"levelo_inurba_marseille","lat":43.2927,"lon":5.36846,"is_reserved":false,"is_disabled":false,"rental_uris":{"android":"levelo://app?vid=dde8cce2-2ed1-4fdd-81ed-cfda3582f0ae","ios":"levelo://app?vid=dde8cce2-2ed1-4fdd-81ed-cfda3582f0ae"},"vehicle_type_id":"4","last_reported":1732093842,"current_range_meters":31200,"station_id":"ce4bhbp2rcd13ifvqesg","pricing_plan_id":"cebpf4jnsgd1na2vs0mg"},{"bike_id":"9c4a655e-2680-4a60-a844-6a2ea62fb4b1","system_id":"levelo_inurba_marseille","lat":43.26063,"lon":5.39395,"is_reserved":false,"is_disabled":false,"rental_uris":{"android":"levelo://app?vid=9c4a655e-2680-4a60-a844-6a2ea62fb4b1","ios":"levelo://app?vid=9c4a655e-2680-4a60-a844-6a2ea62fb4b1"},"vehicle_type_id":"4","last_reported":1732093842,"current_range_meters":25200,"station_id":"ce4bhh92rcd13ifvqfj0","pricing_plan_id":"cebpf4jnsgd1na2vs0mg"},{"bike_id":"2d983866-913c-4390-ae48-1873d10c9730","system_id":"levelo_inurba_marseille","lat":43.24806,"lon":5.37462,"is_reserved":false,"is_disabled":true,"rental_uris":{"android":"levelo://app?vid=2d983866-913c-4390-ae48-1873d10c9730","ios":"levelo://app?vid=2d983866-913c-4390-ae48-1873d10c9730"},"vehicle_type_id":"4","last_reported":1732093842,"current_range_meters":9600,"station_id":"ce4bhgh2rcd13ifvqfb0","pricing_plan_id":"cebpf4jnsgd1na2vs0mg"},{"bike_id":"f4314a8a-82cc-4e28-9519-7b232ac298b7","system_id":"levelo_inurba_marseille","lat":43.29922,"lon":5.37461,"is_reserved":false,"is_disabled":false,"rental_uris":{"android":"levelo://app?vid=f4314a8a-82cc-4e28-9519-7b232ac298b7","ios":"levelo://app?vid=f4314a8a-82cc-4e28-9519-7b232ac298b7"},"vehicle_type_id":"4","last_reported":1732093842,"current_range_meters":38800,"station_id":"ce4bgjh2rcd13ifvqbg0","pricing_plan_id":"cebpf4jnsgd1na2vs0mg"},{"bike_id":"d99cb8e9-3750-4fd5-97e4-a29fae9021d9","system_id":"levelo_inurba_marseille","lat":43.26944,"lon":5.40245,"is_reserved":false,"is_disabled":false,"rental_uris":{"android":"levelo://app?vid=d99cb8e9-3750-4fd5-97e4-a29fae9021d9","ios":"levelo://app?vid=d99cb8e9-3750-4fd5-97e4-a29fae9021d9"},"vehicle_type_id":"4","last_reported":1732093842,"current_range_meters":14400,"station_id":"cjm6bp8fraef2m0cb0m0","pricing_plan_id":"cebpf4jnsgd1na2vs0mg"},{"bike_id":"e840fe4f-47a0-4d31-8133-7c332a3d517a","system_id":"levelo_inurba_marseille","lat":43.31078,"lon":5.42432,"is_reserved":false,"is_disabled":true,"rental_uris":{"android":"levelo://app?vid=e840fe4f-47a0-4d31-8133-7c332a3d517a","ios":"levelo://app?vid=e840fe4f-47a0-4d31-8133-7c332a3d517a"},"vehicle_type_id":"4","last_reported":1732093842,"current_range_meters":12000,"station_id":"ce4bhp92rcd13ifvqhag","pricing_plan_id":"cebpf4jnsgd1na2vs0mg"},{"bike_id":"dc9b1c9c-97df-4998-a95a-6ab3dbfb98c8","system_id":"levelo_inurba_marseille","lat":43.313554,"lon":5.367103,"is_reserved":false,"is_disabled":false,"rental_uris":{"android":"levelo://app?vid=dc9b1c9c-97df-4998-a95a-6ab3dbfb98c8","ios":"levelo://app?vid=dc9b1c9c-97df-4998-a95a-6ab3dbfb98c8"},"vehicle_type_id":"4","last_reported":1732093842,"current_range_meters":8800,"station_id":"ce4bgr92rcd13ifvqc6g","pricing_plan_id":"cebpf4jnsgd1na2vs0mg"},{"bike_id":"5f8f20d1-c2e5-4e7e-bb4c-f3964fd12f98","system_id":"levelo_inurba_marseille","lat":43.31361,"lon":5.38491,"is_reserved":false,"is_disabled":false,"rental_uris":{"android":"levelo://app?vid=5f8f20d1-c2e5-4e7e-bb4c-f3964fd12f98","ios":"levelo://app?vid=5f8f20d1-c2e5-4e7e-bb4c-f3964fd12f98"},"vehicle_type_id":"4","last_reported":1732093842,"current_range_meters":30000,"station_id":"ce4bgt92rcd13ifvqcf0","pricing_plan_id":"cebpf4jnsgd1na2vs0mg"},{"bike_id":"d1a3cb73-f6e6-4f9a-8f38-9c42be68e4c5","system_id":"levelo_inurba_marseille","lat":43.30956,"lon":5.39047,"is_reserved":false,"is_disabled":false,"rental_uris":{"android":"levelo://app?vid=d1a3cb73-f6e6-4f9a-8f38-9c42be68e4c5","ios":"levelo://app?vid=d1a3cb73-f6e6-4f9a-8f38-9c42be68e4c5"},"vehicle_type_id":"4","last_reported":1732093842,"current_range_meters":38800,"station_id":"ce4bgup2rcd13ifvqco0","pricing_plan_id":"cebpf4jnsgd1na2vs0mg"},{"bike_id":"940ca4a8-9380-4c27-87bf-81b3f76f7ff1","system_id":"levelo_inurba_marseille","lat":43.29025,"lon":5.38142,"is_reserved":false,"is_disabled":false,"rental_uris":{"android":"levelo://app?vid=940ca4a8-9380-4c27-87bf-81b3f76f7ff1","ios":"levelo://app?vid=940ca4a8-9380-4c27-87bf-81b3f76f7ff1"},"vehicle_type_id":"4","last_reported":1732093842,"current_range_meters":36400,"station_id":"ce4bh4p2rcd13ifvqe1g","pricing_plan_id":"cebpf4jnsgd1na2vs0mg"},{"bike_id":"a1cf6f06-44aa-4bc8-9eb2-8055a5e207a9","system_id":"levelo_inurba_marseille","lat":43.32484,"lon":5.36564,"is_reserved":false,"is_disabled":false,"rental_uris":{"android":"levelo://app?vid=a1cf6f06-44aa-4bc8-9eb2-8055a5e207a9","ios":"levelo://app?vid=a1cf6f06-44aa-4bc8-9eb2-8055a5e207a9"},"vehicle_type_id":"4","last_reported":1732093842,"current_range_meters":39200,"station_id":"ce4bhs12rcd13ifvqhvg","pricing_plan_id":"cebpf4jnsgd1na2vs0mg"},{"bike_id":"bf3789b5-b7bc-4c69-9986-514083be126a","system_id":"levelo_inurba_marseille","lat":43.28105,"lon":5.37837,"is_reserved":false,"is_disabled":false,"rental_uris":{"android":"levelo://app?vid=bf3789b5-b7bc-4c69-9986-514083be126a","ios":"levelo://app?vid=bf3789b5-b7bc-4c69-9986-514083be126a"},"vehicle_type_id":"4","last_reported":1732093842,"current_range_meters":36800,"station_id":"ce4bha12rcd13ifvqee0","pricing_plan_id":"cebpf4jnsgd1na2vs0mg"},{"bike_id":"7bec47bd-edd4-4415-924c-dbdf57e3d376","system_id":"levelo_inurba_marseille","lat":43.31349,"lon":5.36696,"is_reserved":false,"is_disabled":false,"rental_uris":{"android":"levelo://app?vid=7bec47bd-edd4-4415-924c-dbdf57e3d376","ios":"levelo://app?vid=7bec47bd-edd4-4415-924c-dbdf57e3d376"},"vehicle_type_id":"4","last_reported":1732093842,"current_range_meters":38800,"station_id":"ce4bgr92rcd13ifvqc6g","pricing_plan_id":"cebpf4jnsgd1na2vs0mg"},{"bike_id":"bd3d0ea8-7d56-4858-8e5d-b32a9764d3b4","system_id":"levelo_inurba_marseille","lat":43.30148,"lon":5.38077,"is_reserved":false,"is_disabled":true,"rental_uris":{"android":"levelo://app?vid=bd3d0ea8-7d56-4858-8e5d-b32a9764d3b4","ios":"levelo://app?vid=bd3d0ea8-7d56-4858-8e5d-b32a9764d3b4"},"vehicle_type_id":"4","last_reported":1732093842,"current_range_meters":24400,"station_id":"ce4bgjp2rcd13ifvqbh0","pricing_plan_id":"cebpf4jnsgd1na2vs0mg"},{"bike_id":"2a527e39-3526-4d79-adec-fe1e770d1765","system_id":"levelo_inurba_marseille","lat":43.2603,"lon":5.37545,"is_reserved":false,"is_disabled":false,"rental_uris":{"android":"levelo://app?vid=2a527e39-3526-4d79-adec-fe1e770d1765","ios":"levelo://app?vid=2a527e39-3526-4d79-adec-fe1e770d1765"},"vehicle_type_id":"4","last_reported":1732093842,"current_range_meters":38800,"station_id":"ce4bhgh2rcd13ifvqfa0","pricing_plan_id":"cebpf4jnsgd1na2vs0mg"},{"bike_id":"123862ba-68e2-48f6-a477-31ab9dae8bd5","system_id":"levelo_inurba_marseille","lat":43.33747,"lon":5.37471,"is_reserved":false,"is_disabled":true,"rental_uris":{"android":"levelo://app?vid=123862ba-68e2-48f6-a477-31ab9dae8bd5","ios":"levelo://app?vid=123862ba-68e2-48f6-a477-31ab9dae8bd5"},"vehicle_type_id":"4","last_reported":1732093842,"current_range_meters":38800,"station_id":"","pricing_plan_id":"cebpf4jnsgd1na2vs0mg"},{"bike_id":"a57e1d53-2136-4179-a533-047787b1374e","system_id":"levelo_inurba_marseille","lat":43.2799,"lon":5.40007,"is_reserved":false,"is_disabled":true,"rental_uris":{"android":"levelo://app?vid=a57e1d53-2136-4179-a533-047787b1374e","ios":"levelo://app?vid=a57e1d53-2136-4179-a533-047787b1374e"},"vehicle_type_id":"4","last_reported":1732093842,"current_range_meters":36800,"station_id":"ce4bho92rcd13ifvqh4g","pricing_plan_id":"cebpf4jnsgd1na2vs0mg"},{"bike_id":"05725ad4-e1a4-4023-9f02-37bc3fcd6926","system_id":"levelo_inurba_marseille","lat":43.2315,"lon":5.43703,"is_reserved":false,"is_disabled":false,"rental_uris":{"android":"levelo://app?vid=05725ad4-e1a4-4023-9f02-37bc3fcd6926","ios":"levelo://app?vid=05725ad4-e1a4-4023-9f02-37bc3fcd6926"},"vehicle_type_id":"4","last_reported":1732093842,"current_range_meters":39200,"station_id":"ce4bhmp2rcd13ifvqgog","pricing_plan_id":"cebpf4jnsgd1na2vs0mg"},{"bike_id":"6a689696-313c-4569-b4cf-4b6fa7d2017f","system_id":"levelo_inurba_marseille","lat":43.3414,"lon":5.409,"is_reserved":false,"is_disabled":false,"rental_uris":{"android":"levelo://app?vid=6a689696-313c-4569-b4cf-4b6fa7d2017f","ios":"levelo://app?vid=6a689696-313c-4569-b4cf-4b6fa7d2017f"},"vehicle_type_id":"4","last_reported":1732093842,"current_range_meters":38800,"station_id":"ce4bhqh2rcd13ifvqhlg","pricing_plan_id":"cebpf4jnsgd1na2vs0mg"},{"bike_id":"68e75b2a-f3a4-4561-af3e-5bd813268268","system_id":"levelo_inurba_marseille","lat":43.29803,"lon":5.38126,"is_reserved":false,"is_disabled":false,"rental_uris":{"android":"levelo://app?vid=68e75b2a-f3a4-4561-af3e-5bd813268268","ios":"levelo://app?vid=68e75b2a-f3a4-4561-af3e-5bd813268268"},"vehicle_type_id":"4","last_reported":1732093842,"current_range_meters":25200,"station_id":"ce4bgip2rcd13ifvqbb0","pricing_plan_id":"cebpf4jnsgd1na2vs0mg"},{"bike_id":"07aefd15-a845-40e1-b682-f0d6059f2cb6","system_id":"levelo_inurba_marseille","lat":43.319913,"lon":5.381483,"is_reserved":false,"is_disabled":false,"rental_uris":{"android":"levelo://app?vid=07aefd15-a845-40e1-b682-f0d6059f2cb6","ios":"levelo://app?vid=07aefd15-a845-40e1-b682-f0d6059f2cb6"},"vehicle_type_id":"4","last_reported":1732093842,"current_range_meters":39200,"station_id":"ce4bhr12rcd13ifvqhpg","pricing_plan_id":"cebpf4jnsgd1na2vs0mg"},{"bike_id":"f37974f3-d73d-4fbf-9d7f-6ab29c4abc3c","system_id":"levelo_inurba_marseille","lat":43.29728,"lon":5.36594,"is_reserved":false,"is_disabled":false,"rental_uris":{"android":"levelo://app?vid=f37974f3-d73d-4fbf-9d7f-6ab29c4abc3c","ios":"levelo://app?vid=f37974f3-d73d-4fbf-9d7f-6ab29c4abc3c"},"vehicle_type_id":"4","last_reported":1732093842,"current_range_meters":16000,"station_id":"ce4bgn12rcd13ifvqbt0","pricing_plan_id":"cebpf4jnsgd1na2vs0mg"},{"bike_id":"5b5f4604-3a82-4584-a08b-4bc79bf3d12b","system_id":"levelo_inurba_marseille","lat":43.30281,"lon":5.36873,"is_reserved":false,"is_disabled":false,"rental_uris":{"android":"levelo://app?vid=5b5f4604-3a82-4584-a08b-4bc79bf3d12b","ios":"levelo://app?vid=5b5f4604-3a82-4584-a08b-4bc79bf3d12b"},"vehicle_type_id":"4","last_reported":1732093842,"current_range_meters":24000,"station_id":"ce4bgn92rcd13ifvqbvg","pricing_plan_id":"cebpf4jnsgd1na2vs0mg"},{"bike_id":"647c7698-344c-4abe-9be6-34d3cc5921db","system_id":"levelo_inurba_marseille","lat":43.280333,"lon":5.369508,"is_reserved":false,"is_disabled":false,"rental_uris":{"android":"levelo://app?vid=647c7698-344c-4abe-9be6-34d3cc5921db","ios":"levelo://app?vid=647c7698-344c-4abe-9be6-34d3cc5921db"},"vehicle_type_id":"4","last_reported":1732093842,"current_range_meters":33600,"station_id":"ce4bha12rcd13ifvqef0","pricing_plan_id":"cebpf4jnsgd1na2vs0mg"},{"bike_id":"ef6290a1-de22-4564-bc2f-8d9d091e5915","system_id":"levelo_inurba_marseille","lat":43.29981,"lon":5.37148,"is_reserved":false,"is_disabled":false,"rental_uris":{"android":"levelo://app?vid=ef6290a1-de22-4564-bc2f-8d9d091e5915","ios":"levelo://app?vid=ef6290a1-de22-4564-bc2f-8d9d091e5915"},"vehicle_type_id":"4","last_reported":1732093842,"current_range_meters":20000,"station_id":"ce4bgr92rcd13ifvqc7g","pricing_plan_id":"cebpf4jnsgd1na2vs0mg"},{"bike_id":"88b9d238-9c4f-4602-8f32-4f543d43ab52","system_id":"levelo_inurba_marseille","lat":43.24076,"lon":5.37757,"is_reserved":false,"is_disabled":false,"rental_uris":{"android":"levelo://app?vid=88b9d238-9c4f-4602-8f32-4f543d43ab52","ios":"levelo://app?vid=88b9d238-9c4f-4602-8f32-4f543d43ab52"},"vehicle_type_id":"4","last_reported":1732093842,"current_range_meters":9200,"station_id":"ce4bhnp2rcd13ifvqgvg","pricing_plan_id":"cebpf4jnsgd1na2vs0mg"},{"bike_id":"392cf7cd-9024-40f6-b624-36b5ec0412f9","system_id":"levelo_inurba_marseille","lat":43.31362,"lon":5.36712,"is_reserved":false,"is_disabled":false,"rental_uris":{"android":"levelo://app?vid=392cf7cd-9024-40f6-b624-36b5ec0412f9","ios":"levelo://app?vid=392cf7cd-9024-40f6-b624-36b5ec0412f9"},"vehicle_type_id":"4","last_reported":1732093842,"current_range_meters":14000,"station_id":"ce4bgr92rcd13ifvqc6g","pricing_plan_id":"cebpf4jnsgd1na2vs0mg"},{"bike_id":"0009ec07-8c49-43d0-9918-78167d6a99be","system_id":"levelo_inurba_marseille","lat":43.2467,"lon":5.38157,"is_reserved":false,"is_disabled":false,"rental_uris":{"android":"levelo://app?vid=0009ec07-8c49-43d0-9918-78167d6a99be","ios":"levelo://app?vid=0009ec07-8c49-43d0-9918-78167d6a99be"},"vehicle_type_id":"4","last_reported":1732093842,"current_range_meters":37600,"station_id":"ce4bhih2rcd13ifvqfr0","pricing_plan_id":"cebpf4jnsgd1na2vs0mg"},{"bike_id":"efaa20f7-d2fb-4778-9ca3-b17e9193d440","system_id":"levelo_inurba_marseille","lat":43.33722,"lon":5.39174,"is_reserved":false,"is_disabled":false,"rental_uris":{"android":"levelo://app?vid=efaa20f7-d2fb-4778-9ca3-b17e9193d440","ios":"levelo://app?vid=efaa20f7-d2fb-4778-9ca3-b17e9193d440"},"vehicle_type_id":"4","last_reported":1732093842,"current_range_meters":35600,"station_id":"ce4bhr92rcd13ifvqhsg","pricing_plan_id":"cebpf4jnsgd1na2vs0mg"},{"bike_id":"cbb19e09-aa20-4763-8e71-dc123172ec07","system_id":"levelo_inurba_marseille","lat":43.23152,"lon":5.4371,"is_reserved":false,"is_disabled":true,"rental_uris":{"android":"levelo://app?vid=cbb19e09-aa20-4763-8e71-dc123172ec07","ios":"levelo://app?vid=cbb19e09-aa20-4763-8e71-dc123172ec07"},"vehicle_type_id":"4","last_reported":1732093842,"current_range_meters":38800,"station_id":"ce4bhmp2rcd13ifvqgog","pricing_plan_id":"cebpf4jnsgd1na2vs0mg"},{"bike_id":"66864d75-2346-429f-8d44-6391ce3744a8","system_id":"levelo_inurba_marseille","lat":43.34145,"lon":5.40897,"is_reserved":false,"is_disabled":false,"rental_uris":{"android":"levelo://app?vid=66864d75-2346-429f-8d44-6391ce3744a8","ios":"levelo://app?vid=66864d75-2346-429f-8d44-6391ce3744a8"},"vehicle_type_id":"4","last_reported":1732093842,"current_range_meters":39200,"station_id":"ce4bhqh2rcd13ifvqhlg","pricing_plan_id":"cebpf4jnsgd1na2vs0mg"},{"bike_id":"028e5427-36e2-49e1-b3db-260058fffb58","system_id":"levelo_inurba_marseille","lat":43.25575,"lon":5.38236,"is_reserved":false,"is_disabled":false,"rental_uris":{"android":"levelo://app?vid=028e5427-36e2-49e1-b3db-260058fffb58","ios":"levelo://app?vid=028e5427-36e2-49e1-b3db-260058fffb58"},"vehicle_type_id":"4","last_reported":1732093842,"current_range_meters":28400,"station_id":"ce4bhih2rcd13ifvqfs0","pricing_plan_id":"cebpf4jnsgd1na2vs0mg"},{"bike_id":"87ab87c3-b0c0-433f-bc72-370f3dff3d3b","system_id":"levelo_inurba_marseille","lat":43.29727,"lon":5.37695,"is_reserved":false,"is_disabled":false,"rental_uris":{"android":"levelo://app?vid=87ab87c3-b0c0-433f-bc72-370f3dff3d3b","ios":"levelo://app?vid=87ab87c3-b0c0-433f-bc72-370f3dff3d3b"},"vehicle_type_id":"4","last_reported":1732093842,"current_range_meters":33600,"station_id":"ce4bgkh2rcd13ifvqbl0","pricing_plan_id":"cebpf4jnsgd1na2vs0mg"},{"bike_id":"779ad617-f322-40cf-8d0f-54456d050087","system_id":"levelo_inurba_marseille","lat":43.29712,"lon":5.36611,"is_reserved":false,"is_disabled":false,"rental_uris":{"android":"levelo://app?vid=779ad617-f322-40cf-8d0f-54456d050087","ios":"levelo://app?vid=779ad617-f322-40cf-8d0f-54456d050087"},"vehicle_type_id":"4","last_reported":1732093842,"current_range_meters":10000,"station_id":"ce4bgn12rcd13ifvqbt0","pricing_plan_id":"cebpf4jnsgd1na2vs0mg"},{"bike_id":"c9ff81c5-baef-454a-8e76-82609d16ae76","system_id":"levelo_inurba_marseille","lat":43.30593,"lon":5.39357,"is_reserved":false,"is_disabled":false,"rental_uris":{"android":"levelo://app?vid=c9ff81c5-baef-454a-8e76-82609d16ae76","ios":"levelo://app?vid=c9ff81c5-baef-454a-8e76-82609d16ae76"},"vehicle_type_id":"4","last_reported":1732093842,"current_range_meters":38800,"station_id":"ce4bh0p2rcd13ifvqd80","pricing_plan_id":"cebpf4jnsgd1na2vs0mg"},{"bike_id":"9e5155cc-9158-47b5-bb3f-3254ca5454c2","system_id":"levelo_inurba_marseille","lat":43.31341,"lon":5.36705,"is_reserved":false,"is_disabled":false,"rental_uris":{"android":"levelo://app?vid=9e5155cc-9158-47b5-bb3f-3254ca5454c2","ios":"levelo://app?vid=9e5155cc-9158-47b5-bb3f-3254ca5454c2"},"vehicle_type_id":"4","last_reported":1732093842,"current_range_meters":39200,"station_id":"ce4bgr92rcd13ifvqc6g","pricing_plan_id":"cebpf4jnsgd1na2vs0mg"},{"bike_id":"401c2a19-8b43-4a12-92ed-f8e71f230e4b","system_id":"levelo_inurba_marseille","lat":43.30151,"lon":5.38092,"is_reserved":false,"is_disabled":false,"rental_uris":{"android":"levelo://app?vid=401c2a19-8b43-4a12-92ed-f8e71f230e4b","ios":"levelo://app?vid=401c2a19-8b43-4a12-92ed-f8e71f230e4b"},"vehicle_type_id":"4","last_reported":1732093842,"current_range_meters":31200,"station_id":"ce4bgjp2rcd13ifvqbh0","pricing_plan_id":"cebpf4jnsgd1na2vs0mg"},{"bike_id":"d844fd78-dab2-432a-a1c7-259ceea58301","system_id":"levelo_inurba_marseille","lat":43.29202,"lon":5.35824,"is_reserved":false,"is_disabled":true,"rental_uris":{"android":"levelo://app?vid=d844fd78-dab2-432a-a1c7-259ceea58301","ios":"levelo://app?vid=d844fd78-dab2-432a-a1c7-259ceea58301"},"vehicle_type_id":"4","last_reported":1732093842,"current_range_meters":38000,"station_id":"ce4bhb12rcd13ifvqel0","pricing_plan_id":"cebpf4jnsgd1na2vs0mg"},{"bike_id":"e9de223a-d241-4576-9cda-956fec6d0035","system_id":"levelo_inurba_marseille","lat":43.2926,"lon":5.40895,"is_reserved":false,"is_disabled":false,"rental_uris":{"android":"levelo://app?vid=e9de223a-d241-4576-9cda-956fec6d0035","ios":"levelo://app?vid=e9de223a-d241-4576-9cda-956fec6d0035"},"vehicle_type_id":"4","last_reported":1732093842,"current_range_meters":17600,"station_id":"ce4bh192rcd13ifvqdc0","pricing_plan_id":"cebpf4jnsgd1na2vs0mg"},{"bike_id":"eb31963b-4b61-411c-a88a-07e8f7439c2a","system_id":"levelo_inurba_marseille","lat":43.3361,"lon":5.4103,"is_reserved":false,"is_disabled":false,"rental_uris":{"android":"levelo://app?vid=eb31963b-4b61-411c-a88a-07e8f7439c2a","ios":"levelo://app?vid=eb31963b-4b61-411c-a88a-07e8f7439c2a"},"vehicle_type_id":"4","last_reported":1732093842,"current_range_meters":12800,"station_id":"ce4bhqh2rcd13ifvqhmg","pricing_plan_id":"cebpf4jnsgd1na2vs0mg"},{"bike_id":"b6a5dd45-3299-4794-bb3d-6c5c2b5a78a1","system_id":"levelo_inurba_marseille","lat":43.33023,"lon":5.39041,"is_reserved":false,"is_disabled":false,"rental_uris":{"android":"levelo://app?vid=b6a5dd45-3299-4794-bb3d-6c5c2b5a78a1","ios":"levelo://app?vid=b6a5dd45-3299-4794-bb3d-6c5c2b5a78a1"},"vehicle_type_id":"4","last_reported":1732093842,"current_range_meters":38400,"station_id":"ce4bhr92rcd13ifvqhrg","pricing_plan_id":"cebpf4jnsgd1na2vs0mg"},{"bike_id":"ea3698ba-4aa8-4712-b521-18ff56838777","system_id":"levelo_inurba_marseille","lat":43.25495,"lon":5.37644,"is_reserved":false,"is_disabled":false,"rental_uris":{"android":"levelo://app?vid=ea3698ba-4aa8-4712-b521-18ff56838777","ios":"levelo://app?vid=ea3698ba-4aa8-4712-b521-18ff56838777"},"vehicle_type_id":"4","last_reported":1732093842,"current_range_meters":38000,"station_id":"ce4bhh12rcd13ifvqff0","pricing_plan_id":"cebpf4jnsgd1na2vs0mg"},{"bike_id":"97a35da9-3917-40ad-b9e7-9f7cbd6aff5c","system_id":"levelo_inurba_marseille","lat":43.30134,"lon":5.39875,"is_reserved":false,"is_disabled":true,"rental_uris":{"android":"levelo://app?vid=97a35da9-3917-40ad-b9e7-9f7cbd6aff5c","ios":"levelo://app?vid=97a35da9-3917-40ad-b9e7-9f7cbd6aff5c"},"vehicle_type_id":"4","last_reported":1732093842,"current_range_meters":28800,"station_id":"ce4bh0h2rcd13ifvqd40","pricing_plan_id":"cebpf4jnsgd1na2vs0mg"},{"bike_id":"c0cdb1f4-74ef-4bce-823b-0c40657ceac5","system_id":"levelo_inurba_marseille","lat":43.30947,"lon":5.39049,"is_reserved":false,"is_disabled":false,"rental_uris":{"android":"levelo://app?vid=c0cdb1f4-74ef-4bce-823b-0c40657ceac5","ios":"levelo://app?vid=c0cdb1f4-74ef-4bce-823b-0c40657ceac5"},"vehicle_type_id":"4","last_reported":1732093842,"current_range_meters":36800,"station_id":"ce4bgup2rcd13ifvqco0","pricing_plan_id":"cebpf4jnsgd1na2vs0mg"},{"bike_id":"104cfcf1-8a2a-4f4b-9142-ed1b8d36ab45","system_id":"levelo_inurba_marseille","lat":43.30535,"lon":5.36539,"is_reserved":false,"is_disabled":false,"rental_uris":{"android":"levelo://app?vid=104cfcf1-8a2a-4f4b-9142-ed1b8d36ab45","ios":"levelo://app?vid=104cfcf1-8a2a-4f4b-9142-ed1b8d36ab45"},"vehicle_type_id":"4","last_reported":1732093842,"current_range_meters":25200,"station_id":"ce4bgs12rcd13ifvqcag","pricing_plan_id":"cebpf4jnsgd1na2vs0mg"},{"bike_id":"e5951ee3-4a5a-4ebb-b469-096c5188dfa3","system_id":"levelo_inurba_marseille","lat":43.23191,"lon":5.35549,"is_reserved":false,"is_disabled":true,"rental_uris":{"android":"levelo://app?vid=e5951ee3-4a5a-4ebb-b469-096c5188dfa3","ios":"levelo://app?vid=e5951ee3-4a5a-4ebb-b469-096c5188dfa3"},"vehicle_type_id":"4","last_reported":1732093842,"current_range_meters":0,"station_id":"ce4bhu92rcd13ifvqi70","pricing_plan_id":"cebpf4jnsgd1na2vs0mg"},{"bike_id":"e117b164-6fd5-43d7-a16c-8f121c6b7276","system_id":"levelo_inurba_marseille","lat":43.2961,"lon":5.37729,"is_reserved":false,"is_disabled":false,"rental_uris":{"android":"levelo://app?vid=e117b164-6fd5-43d7-a16c-8f121c6b7276","ios":"levelo://app?vid=e117b164-6fd5-43d7-a16c-8f121c6b7276"},"vehicle_type_id":"4","last_reported":1732093842,"current_range_meters":21600,"station_id":"ce4bgi92rcd13ifvqb90","pricing_plan_id":"cebpf4jnsgd1na2vs0mg"},{"bike_id":"064e2c77-8646-40bf-8659-76cd91a65f3a","system_id":"levelo_inurba_marseille","lat":43.29266,"lon":5.36847,"is_reserved":false,"is_disabled":false,"rental_uris":{"android":"levelo://app?vid=064e2c77-8646-40bf-8659-76cd91a65f3a","ios":"levelo://app?vid=064e2c77-8646-40bf-8659-76cd91a65f3a"},"vehicle_type_id":"4","last_reported":1732093842,"current_range_meters":38400,"station_id":"ce4bhbp2rcd13ifvqesg","pricing_plan_id":"cebpf4jnsgd1na2vs0mg"},{"bike_id":"b2f6b9cf-69db-40ab-8230-689c41a2c16c","system_id":"levelo_inurba_marseille","lat":43.24166,"lon":5.36393,"is_reserved":false,"is_disabled":false,"rental_uris":{"android":"levelo://app?vid=b2f6b9cf-69db-40ab-8230-689c41a2c16c","ios":"levelo://app?vid=b2f6b9cf-69db-40ab-8230-689c41a2c16c"},"vehicle_type_id":"4","last_reported":1732093842,"current_range_meters":38000,"station_id":"cpo36qri1sfpv3e86is0","pricing_plan_id":"cebpf4jnsgd1na2vs0mg"},{"bike_id":"b8ccf5c1-5ac6-47e7-b7ff-56c39cc2dd57","system_id":"levelo_inurba_marseille","lat":43.33609,"lon":5.41026,"is_reserved":false,"is_disabled":false,"rental_uris":{"android":"levelo://app?vid=b8ccf5c1-5ac6-47e7-b7ff-56c39cc2dd57","ios":"levelo://app?vid=b8ccf5c1-5ac6-47e7-b7ff-56c39cc2dd57"},"vehicle_type_id":"4","last_reported":1732093842,"current_range_meters":14000,"station_id":"ce4bhqh2rcd13ifvqhmg","pricing_plan_id":"cebpf4jnsgd1na2vs0mg"},{"bike_id":"f777def7-ddd3-4c94-87cc-91a908e8be9a","system_id":"levelo_inurba_marseille","lat":43.25113,"lon":5.40323,"is_reserved":false,"is_disabled":true,"rental_uris":{"android":"levelo://app?vid=f777def7-ddd3-4c94-87cc-91a908e8be9a","ios":"levelo://app?vid=f777def7-ddd3-4c94-87cc-91a908e8be9a"},"vehicle_type_id":"4","last_reported":1732093842,"current_range_meters":34800,"station_id":"ce4bhlh2rcd13ifvqgig","pricing_plan_id":"cebpf4jnsgd1na2vs0mg"},{"bike_id":"2910f69a-6dac-4d69-a60d-e4f1b8cce200","system_id":"levelo_inurba_marseille","lat":43.27819,"lon":5.40714,"is_reserved":false,"is_disabled":true,"rental_uris":{"android":"levelo://app?vid=2910f69a-6dac-4d69-a60d-e4f1b8cce200","ios":"levelo://app?vid=2910f69a-6dac-4d69-a60d-e4f1b8cce200"},"vehicle_type_id":"4","last_reported":1732093842,"current_range_meters":14400,"station_id":"ce4bhnh2rcd13ifvqgtg","pricing_plan_id":"cebpf4jnsgd1na2vs0mg"},{"bike_id":"9fdbb52a-b13d-4e99-b7b7-5d7f8b46a590","system_id":"levelo_inurba_marseille","lat":43.26683,"lon":5.38267,"is_reserved":false,"is_disabled":false,"rental_uris":{"android":"levelo://app?vid=9fdbb52a-b13d-4e99-b7b7-5d7f8b46a590","ios":"levelo://app?vid=9fdbb52a-b13d-4e99-b7b7-5d7f8b46a590"},"vehicle_type_id":"4","last_reported":1732093842,"current_range_meters":33600,"station_id":"ce4bhg92rcd13ifvqf90","pricing_plan_id":"cebpf4jnsgd1na2vs0mg"},{"bike_id":"e23db1ea-4484-42c7-a39b-c5d9d4a03283","system_id":"levelo_inurba_marseille","lat":43.29715,"lon":5.36605,"is_reserved":false,"is_disabled":false,"rental_uris":{"android":"levelo://app?vid=e23db1ea-4484-42c7-a39b-c5d9d4a03283","ios":"levelo://app?vid=e23db1ea-4484-42c7-a39b-c5d9d4a03283"},"vehicle_type_id":"4","last_reported":1732093842,"current_range_meters":38800,"station_id":"ce4bgn12rcd13ifvqbt0","pricing_plan_id":"cebpf4jnsgd1na2vs0mg"},{"bike_id":"27e4d867-66b8-4960-b3b5-4e376bf9a450","system_id":"levelo_inurba_marseille","lat":43.30949,"lon":5.39051,"is_reserved":false,"is_disabled":false,"rental_uris":{"android":"levelo://app?vid=27e4d867-66b8-4960-b3b5-4e376bf9a450","ios":"levelo://app?vid=27e4d867-66b8-4960-b3b5-4e376bf9a450"},"vehicle_type_id":"4","last_reported":1732093842,"current_range_meters":30000,"station_id":"ce4bgup2rcd13ifvqco0","pricing_plan_id":"cebpf4jnsgd1na2vs0mg"},{"bike_id":"f26c64c7-a30b-4139-ab92-b3145760d2de","system_id":"levelo_inurba_marseille","lat":43.29569,"lon":5.37522,"is_reserved":false,"is_disabled":false,"rental_uris":{"android":"levelo://app?vid=f26c64c7-a30b-4139-ab92-b3145760d2de","ios":"levelo://app?vid=f26c64c7-a30b-4139-ab92-b3145760d2de"},"vehicle_type_id":"4","last_reported":1732093842,"current_range_meters":32800,"station_id":"ce4bgh92rcd13ifvqb50","pricing_plan_id":"cebpf4jnsgd1na2vs0mg"},{"bike_id":"da118503-6ab7-4c94-98bc-2b63accd50d2","system_id":"levelo_inurba_marseille","lat":43.31083,"lon":5.42433,"is_reserved":false,"is_disabled":false,"rental_uris":{"android":"levelo://app?vid=da118503-6ab7-4c94-98bc-2b63accd50d2","ios":"levelo://app?vid=da118503-6ab7-4c94-98bc-2b63accd50d2"},"vehicle_type_id":"4","last_reported":1732093842,"current_range_meters":39200,"station_id":"ce4bhp92rcd13ifvqhag","pricing_plan_id":"cebpf4jnsgd1na2vs0mg"},{"bike_id":"072b8360-2b5d-4912-b1ce-facf5a8eb95c","system_id":"levelo_inurba_marseille","lat":43.2408,"lon":5.37749,"is_reserved":false,"is_disabled":false,"rental_uris":{"android":"levelo://app?vid=072b8360-2b5d-4912-b1ce-facf5a8eb95c","ios":"levelo://app?vid=072b8360-2b5d-4912-b1ce-facf5a8eb95c"},"vehicle_type_id":"4","last_reported":1732093842,"current_range_meters":31200,"station_id":"ce4bhnp2rcd13ifvqgvg","pricing_plan_id":"cebpf4jnsgd1na2vs0mg"},{"bike_id":"f55181d4-2053-40e2-9cda-06227a4b9bdf","system_id":"levelo_inurba_marseille","lat":43.32484,"lon":5.36551,"is_reserved":false,"is_disabled":false,"rental_uris":{"android":"levelo://app?vid=f55181d4-2053-40e2-9cda-06227a4b9bdf","ios":"levelo://app?vid=f55181d4-2053-40e2-9cda-06227a4b9bdf"},"vehicle_type_id":"4","last_reported":1732093842,"current_range_meters":38800,"station_id":"ce4bhs12rcd13ifvqhvg","pricing_plan_id":"cebpf4jnsgd1na2vs0mg"},{"bike_id":"12b42d95-e8f6-4485-9615-5f916bb8ab6b","system_id":"levelo_inurba_marseille","lat":43.34143,"lon":5.40902,"is_reserved":false,"is_disabled":false,"rental_uris":{"android":"levelo://app?vid=12b42d95-e8f6-4485-9615-5f916bb8ab6b","ios":"levelo://app?vid=12b42d95-e8f6-4485-9615-5f916bb8ab6b"},"vehicle_type_id":"4","last_reported":1732093842,"current_range_meters":39200,"station_id":"ce4bhqh2rcd13ifvqhlg","pricing_plan_id":"cebpf4jnsgd1na2vs0mg"},{"bike_id":"7ccf2f24-0143-407d-973b-322d37cb2794","system_id":"levelo_inurba_marseille","lat":43.321061,"lon":5.36771,"is_reserved":false,"is_disabled":false,"rental_uris":{"android":"levelo://app?vid=7ccf2f24-0143-407d-973b-322d37cb2794","ios":"levelo://app?vid=7ccf2f24-0143-407d-973b-322d37cb2794"},"vehicle_type_id":"4","last_reported":1732093842,"current_range_meters":26800,"station_id":"ce4bhrh2rcd13ifvqhug","pricing_plan_id":"cebpf4jnsgd1na2vs0mg"},{"bike_id":"1f58a098-e7ea-4ea8-8ed7-a4f95f7c3a27","system_id":"levelo_inurba_marseille","lat":43.27074,"lon":5.42283,"is_reserved":false,"is_disabled":false,"rental_uris":{"android":"levelo://app?vid=1f58a098-e7ea-4ea8-8ed7-a4f95f7c3a27","ios":"levelo://app?vid=1f58a098-e7ea-4ea8-8ed7-a4f95f7c3a27"},"vehicle_type_id":"4","last_reported":1732093842,"current_range_meters":4400,"station_id":"ce4bhk92rcd13ifvqgb0","pricing_plan_id":"cebpf4jnsgd1na2vs0mg"},{"bike_id":"e964d0cb-a3e4-4759-bb1f-dbaf63c61dd1","system_id":"levelo_inurba_marseille","lat":43.28858,"lon":5.35847,"is_reserved":false,"is_disabled":true,"rental_uris":{"android":"levelo://app?vid=e964d0cb-a3e4-4759-bb1f-dbaf63c61dd1","ios":"levelo://app?vid=e964d0cb-a3e4-4759-bb1f-dbaf63c61dd1"},"vehicle_type_id":"4","last_reported":1732093842,"current_range_meters":18000,"station_id":"ce4bhb12rcd13ifvqem0","pricing_plan_id":"cebpf4jnsgd1na2vs0mg"},{"bike_id":"18375270-5c96-4148-9480-b075066f6b66","system_id":"levelo_inurba_marseille","lat":43.30536,"lon":5.3654,"is_reserved":false,"is_disabled":true,"rental_uris":{"android":"levelo://app?vid=18375270-5c96-4148-9480-b075066f6b66","ios":"levelo://app?vid=18375270-5c96-4148-9480-b075066f6b66"},"vehicle_type_id":"4","last_reported":1732093842,"current_range_meters":24000,"station_id":"ce4bgs12rcd13ifvqcag","pricing_plan_id":"cebpf4jnsgd1na2vs0mg"},{"bike_id":"95087545-ad0c-4e34-a373-cac3bfebdd25","system_id":"levelo_inurba_marseille","lat":43.24078,"lon":5.37756,"is_reserved":false,"is_disabled":false,"rental_uris":{"android":"levelo://app?vid=95087545-ad0c-4e34-a373-cac3bfebdd25","ios":"levelo://app?vid=95087545-ad0c-4e34-a373-cac3bfebdd25"},"vehicle_type_id":"4","last_reported":1732093842,"current_range_meters":14000,"station_id":"ce4bhnp2rcd13ifvqgvg","pricing_plan_id":"cebpf4jnsgd1na2vs0mg"},{"bike_id":"503e0edc-cea9-4f2f-a1d8-f46fa575f488","system_id":"levelo_inurba_marseille","lat":43.3254,"lon":5.41449,"is_reserved":false,"is_disabled":false,"rental_uris":{"android":"levelo://app?vid=503e0edc-cea9-4f2f-a1d8-f46fa575f488","ios":"levelo://app?vid=503e0edc-cea9-4f2f-a1d8-f46fa575f488"},"vehicle_type_id":"4","last_reported":1732093842,"current_range_meters":38800,"station_id":"ce4bhq12rcd13ifvqhhg","pricing_plan_id":"cebpf4jnsgd1na2vs0mg"},{"bike_id":"d1885728-06b7-41eb-a757-d100baed048a","system_id":"levelo_inurba_marseille","lat":43.24081,"lon":5.37748,"is_reserved":false,"is_disabled":false,"rental_uris":{"android":"levelo://app?vid=d1885728-06b7-41eb-a757-d100baed048a","ios":"levelo://app?vid=d1885728-06b7-41eb-a757-d100baed048a"},"vehicle_type_id":"4","last_reported":1732093842,"current_range_meters":36000,"station_id":"ce4bhnp2rcd13ifvqgvg","pricing_plan_id":"cebpf4jnsgd1na2vs0mg"},{"bike_id":"cde5eb04-35f5-4971-aec4-8004f9b2dcd9","system_id":"levelo_inurba_marseille","lat":43.28296,"lon":5.35077,"is_reserved":false,"is_disabled":true,"rental_uris":{"android":"levelo://app?vid=cde5eb04-35f5-4971-aec4-8004f9b2dcd9","ios":"levelo://app?vid=cde5eb04-35f5-4971-aec4-8004f9b2dcd9"},"vehicle_type_id":"4","last_reported":1732093842,"current_range_meters":0,"station_id":"ce4bhbp2rcd13ifvqerg","pricing_plan_id":"cebpf4jnsgd1na2vs0mg"},{"bike_id":"ac18588f-fcb0-4025-89f4-d505674750da","system_id":"levelo_inurba_marseille","lat":43.240805,"lon":5.37761,"is_reserved":false,"is_disabled":false,"rental_uris":{"android":"levelo://app?vid=ac18588f-fcb0-4025-89f4-d505674750da","ios":"levelo://app?vid=ac18588f-fcb0-4025-89f4-d505674750da"},"vehicle_type_id":"4","last_reported":1732093842,"current_range_meters":26000,"station_id":"ce4bhnp2rcd13ifvqgvg","pricing_plan_id":"cebpf4jnsgd1na2vs0mg"},{"bike_id":"145576fb-594f-4967-9357-eb6b2e04a0c6","system_id":"levelo_inurba_marseille","lat":43.27977,"lon":5.38753,"is_reserved":false,"is_disabled":true,"rental_uris":{"android":"levelo://app?vid=145576fb-594f-4967-9357-eb6b2e04a0c6","ios":"levelo://app?vid=145576fb-594f-4967-9357-eb6b2e04a0c6"},"vehicle_type_id":"4","last_reported":1732093842,"current_range_meters":1200,"station_id":"ce4bhg12rcd13ifvqf80","pricing_plan_id":"cebpf4jnsgd1na2vs0mg"},{"bike_id":"1e32d089-9836-4b1d-b09a-6f77cbbbcbf2","system_id":"levelo_inurba_marseille","lat":43.30919,"lon":5.36848,"is_reserved":false,"is_disabled":false,"rental_uris":{"android":"levelo://app?vid=1e32d089-9836-4b1d-b09a-6f77cbbbcbf2","ios":"levelo://app?vid=1e32d089-9836-4b1d-b09a-6f77cbbbcbf2"},"vehicle_type_id":"4","last_reported":1732093842,"current_range_meters":36000,"station_id":"ce4bgn92rcd13ifvqbvg","pricing_plan_id":"cebpf4jnsgd1na2vs0mg"},{"bike_id":"7a8edbd2-ae70-4226-b611-e275688847c9","system_id":"levelo_inurba_marseille","lat":43.29794,"lon":5.40392,"is_reserved":false,"is_disabled":false,"rental_uris":{"android":"levelo://app?vid=7a8edbd2-ae70-4226-b611-e275688847c9","ios":"levelo://app?vid=7a8edbd2-ae70-4226-b611-e275688847c9"},"vehicle_type_id":"4","last_reported":1732093842,"current_range_meters":29600,"station_id":"ce4bh112rcd13ifvqd90","pricing_plan_id":"cebpf4jnsgd1na2vs0mg"},{"bike_id":"70a6da6f-de32-4f19-92c6-1d2942f844c0","system_id":"levelo_inurba_marseille","lat":43.33605,"lon":5.4103,"is_reserved":false,"is_disabled":false,"rental_uris":{"android":"levelo://app?vid=70a6da6f-de32-4f19-92c6-1d2942f844c0","ios":"levelo://app?vid=70a6da6f-de32-4f19-92c6-1d2942f844c0"},"vehicle_type_id":"4","last_reported":1732093842,"current_range_meters":27200,"station_id":"ce4bhqh2rcd13ifvqhmg","pricing_plan_id":"cebpf4jnsgd1na2vs0mg"},{"bike_id":"f4caa0ae-f8ad-4a11-b0f5-7fc4ef01ec09","system_id":"levelo_inurba_marseille","lat":43.30185,"lon":5.36641,"is_reserved":false,"is_disabled":false,"rental_uris":{"android":"levelo://app?vid=f4caa0ae-f8ad-4a11-b0f5-7fc4ef01ec09","ios":"levelo://app?vid=f4caa0ae-f8ad-4a11-b0f5-7fc4ef01ec09"},"vehicle_type_id":"4","last_reported":1732093842,"current_range_meters":38800,"station_id":"ce4bgrh2rcd13ifvqc8g","pricing_plan_id":"cebpf4jnsgd1na2vs0mg"},{"bike_id":"cc45f913-e418-458e-bfc7-e7263140b856","system_id":"levelo_inurba_marseille","lat":43.279,"lon":5.38006,"is_reserved":false,"is_disabled":false,"rental_uris":{"android":"levelo://app?vid=cc45f913-e418-458e-bfc7-e7263140b856","ios":"levelo://app?vid=cc45f913-e418-458e-bfc7-e7263140b856"},