{"last_updated":1741345659,"ttl":60,"version":"2.2","data":{"bikes":[{"bike_id":"2a1ce091-7bee-4628-8aad-097286f618fa","system_id":"levelo_inurba_marseille","lat":43.26219,"lon":5.37442,"is_reserved":false,"is_disabled":false,"rental_uris":{"android":"levelo://app?vid=2a1ce091-7bee-4628-8aad-097286f618fa","ios":"levelo://app?vid=2a1ce091-7bee-4628-8aad-097286f618fa"},"vehicle_type_id":"4","last_reported":1741345659,"current_range_meters":2800,"station_id":"ce4bhgp2rcd13ifvqfc0","pricing_plan_id":"cebpf4jnsgd1na2vs0mg"},{"bike_id":"31a32369-bf23-49e4-a00f-5a9a59432989","system_id":"levelo_inurba_marseille","lat":43.30594,"lon":5.39361,"is_reserved":false,"is_disabled":false,"rental_uris":{"android":"levelo://app?vid=31a32369-bf23-49e4-a00f-5a9a59432989","ios":"levelo://app?vid=31a32369-bf23-49e4-a00f-5a9a59432989"},"vehicle_type_id":"4","last_reported":1741345659,"current_range_meters":2800,"station_id":"ce4bh0p2rcd13ifvqd80","pricing_plan_id":"cebpf4jnsgd1na2vs0mg"},{"bike_id":"1896a03e-72a5-4d79-93ff-3b842d66bb1b","system_id":"levelo_inurba_marseille","lat":43.3133,"lon":5.39729,"is_reserved":false,"is_disabled":false,"rental_uris":{"android":"levelo://app?vid=1896a03e-72a5-4d79-93ff-3b842d66bb1b","ios":"levelo://app?vid=1896a03e-72a5-4d79-93ff-3b842d66bb1b"},"vehicle_type_id":"4","last_reported":1741345659,"current_range_meters":2000,"station_id":"ce4bgvp2rcd13ifvqcu0","pricing_plan_id":"cebpf4jnsgd1na2vs0mg"},{"bike_id":"6f0dd1ee-e36b-4398-a6b8-82b1a2995d32","system_id":"levelo_inurba_marseille","lat":43.23182,"lon":5.39996,"is_reserved":false,"is_disabled":false,"rental_uris":{"android":"levelo://app?vid=6f0dd1ee-e36b-4398-a6b8-82b1a2995d32","ios":"levelo://app?vid=6f0dd1ee-e36b-4398-a6b8-82b1a2995d32"},"vehicle_type_id":"4","last_reported":1741345659,"current_range_meters":2800,"station_id":"ce4bhn12rcd13ifvqgqg","pricing_plan_id":"cebpf4jnsgd1na2vs0mg"},{"bike_id":"09ce9210-4d35-4310-98fa-4de1c26e3db4","system_id":"levelo_inurba_marseille","lat":43.28837,"lon":5.40038,"is_reserved":false,"is_disabled":true,"rental_uris":{"android":"levelo://app?vid=09ce9210-4d35-4310-98fa-4de1c26e3db4","ios":"levelo://app?vid=09ce9210-4d35-4310-98fa-4de1c26e3db4"},"vehicle_type_id":"4","last_reported":1741345659,"current_range_meters":3200,"station_id":"","pricing_plan_id":"cebpf4jnsgd1na2vs0mg"},{"bike_id":"3fffc9cd-f418-41de-9fba-0cc23722d684","system_id":"levelo_inurba_marseille","lat":43.230666,"lon":5.354955,"is_reserved":false,"is_disabled":false,"rental_uris":{"android":"levelo://app?vid=3fffc9cd-f418-41de-9fba-0cc23722d684","ios":"levelo://app?vid=3fffc9cd-f418-41de-9fba-0cc23722d684"},"vehicle_type_id":"4","last_reported":1741345659,"current_range_meters":3200,"station_id":"cpo3342slgdg3j2ifvpg","pricing_plan_id":"cebpf4jnsgd1na2vs0mg"},{"bike_id":"505f0559-c58e-46d9-8664-66f7bb4c6eb8","system_id":"levelo_inurba_marseille","lat":43.31372,"lon":5.38488,"is_reserved":false,"is_disabled":false,"rental_uris":{"android":"levelo://app?vid=505f0559-c58e-46d9-8664-66f7bb4c6eb8","ios":"levelo://app?vid=505f0559-c58e-46d9-8664-66f7bb4c6eb8"},"vehicle_type_id":"4","last_reported":1741345659,"current_range_meters":3200,"station_id":"ce4bgt92rcd13ifvqcf0","pricing_plan_id":"cebpf4jnsgd1na2vs0mg"},{"bike_id":"5e2a7c49-ce3c-4fd6-8ee4-35572445cd82","system_id":"levelo_inurba_marseille","lat":43.28192,"lon":5.42698,"is_reserved":false,"is_disabled":false,"rental_uris":{"android":"levelo://app?vid=5e2a7c49-ce3c-4fd6-8ee4-35572445cd82","ios":"levelo://app?vid=5e2a7c49-ce3c-4fd6-8ee4-35572445cd82"},"vehicle_type_id":"4","last_reported":1741345659,"current_range_meters":3600,"station_id":"","pricing_plan_id":"cebpf4jnsgd1na2vs0mg"},{"bike_id":"de754493-593d-484d-850a-eaba979f3d3f","system_id":"levelo_inurba_marseille","lat":43.27929,"lon":5.41039,"is_reserved":false,"is_disabled":true,"rental_uris":{"android":"levelo://app?vid=de754493-593d-484d-850a-eaba979f3d3f","ios":"levelo://app?vid=de754493-593d-484d-850a-eaba979f3d3f"},"vehicle_type_id":"4","last_reported":1741345659,"current_range_meters":4000,"station_id":"ce4bhnp2rcd13ifvqh0g","pricing_plan_id":"cebpf4jnsgd1na2vs0mg"},{"bike_id":"74ded51b-a310-4efd-aa60-cbab43395fa4","system_id":"levelo_inurba_marseille","lat":43.29368,"lon":5.37826,"is_reserved":false,"is_disabled":false,"rental_uris":{"android":"levelo://app?vid=74ded51b-a310-4efd-aa60-cbab43395fa4","ios":"levelo://app?vid=74ded51b-a310-4efd-aa60-cbab43395fa4"},"vehicle_type_id":"4","last_reported":1741345659,"current_range_meters":4000,"station_id":"ce4bgjh2rcd13ifvqbf0","pricing_plan_id":"cebpf4jnsgd1na2vs0mg"},{"bike_id":"14829976-69b1-45fa-bf17-55d2e8e82951","system_id":"levelo_inurba_marseille","lat":43.28423,"lon":5.34979,"is_reserved":false,"is_disabled":true,"rental_uris":{"android":"levelo://app?vid=14829976-69b1-45fa-bf17-55d2e8e82951","ios":"levelo://app?vid=14829976-69b1-45fa-bf17-55d2e8e82951"},"vehicle_type_id":"4","last_reported":1741345659,"current_range_meters":4000,"station_id":"ce4bhbh2rcd13ifvqepg","pricing_plan_id":"cebpf4jnsgd1na2vs0mg"},{"bike_id":"fb310371-f352-49b8-bd49-287819a32f83","system_id":"levelo_inurba_marseille","lat":43.26184,"lon":5.37458,"is_reserved":false,"is_disabled":false,"rental_uris":{"android":"levelo://app?vid=fb310371-f352-49b8-bd49-287819a32f83","ios":"levelo://app?vid=fb310371-f352-49b8-bd49-287819a32f83"},"vehicle_type_id":"4","last_reported":1741345659,"current_range_meters":4800,"station_id":"ce4bhgp2rcd13ifvqfc0","pricing_plan_id":"cebpf4jnsgd1na2vs0mg"},{"bike_id":"b6e18a32-1cad-4a90-abf9-8a37d0bbdcaa","system_id":"levelo_inurba_marseille","lat":43.29196,"lon":5.35803,"is_reserved":false,"is_disabled":false,"rental_uris":{"android":"levelo://app?vid=b6e18a32-1cad-4a90-abf9-8a37d0bbdcaa","ios":"levelo://app?vid=b6e18a32-1cad-4a90-abf9-8a37d0bbdcaa"},"vehicle_type_id":"4","last_reported":1741345659,"current_range_meters":4800,"station_id":"ce4bhb12rcd13ifvqel0","pricing_plan_id":"cebpf4jnsgd1na2vs0mg"},{"bike_id":"da486377-b8f0-4fbb-93a1-8fb18a437f75","system_id":"levelo_inurba_marseille","lat":43.29094,"lon":5.38144,"is_reserved":false,"is_disabled":true,"rental_uris":{"android":"levelo://app?vid=da486377-b8f0-4fbb-93a1-8fb18a437f75","ios":"levelo://app?vid=da486377-b8f0-4fbb-93a1-8fb18a437f75"},"vehicle_type_id":"4","last_reported":1741345659,"current_range_meters":4800,"station_id":"ce4bh512rcd13ifvqe2g","pricing_plan_id":"cebpf4jnsgd1na2vs0mg"},{"bike_id":"4b1a0817-51a5-46d1-bf5e-f600fffacf77","system_id":"levelo_inurba_marseille","lat":43.28414,"lon":5.37509,"is_reserved":false,"is_disabled":false,"rental_uris":{"android":"levelo://app?vid=4b1a0817-51a5-46d1-bf5e-f600fffacf77","ios":"levelo://app?vid=4b1a0817-51a5-46d1-bf5e-f600fffacf77"},"vehicle_type_id":"4","last_reported":1741345659,"current_range_meters":4800,"station_id":"ce4bh412rcd13ifvqds0","pricing_plan_id":"cebpf4jnsgd1na2vs0mg"},{"bike_id":"e0c0bec3-454a-410d-a60f-3aed516ec149","system_id":"levelo_inurba_marseille","lat":43.23203,"lon":5.35547,"is_reserved":false,"is_disabled":false,"rental_uris":{"android":"levelo://app?vid=e0c0bec3-454a-410d-a60f-3aed516ec149","ios":"levelo://app?vid=e0c0bec3-454a-410d-a60f-3aed516ec149"},"vehicle_type_id":"4","last_reported":1741345659,"current_range_meters":5600,"station_id":"ce4bhu92rcd13ifvqi70","pricing_plan_id":"cebpf4jnsgd1na2vs0mg"},{"bike_id":"7f5f2b8b-b085-4a31-bcc4-4ead0d93b6e5","system_id":"levelo_inurba_marseille","lat":43.31691,"lon":5.40473,"is_reserved":false,"is_disabled":false,"rental_uris":{"android":"levelo://app?vid=7f5f2b8b-b085-4a31-bcc4-4ead0d93b6e5","ios":"levelo://app?vid=7f5f2b8b-b085-4a31-bcc4-4ead0d93b6e5"},"vehicle_type_id":"4","last_reported":1741345659,"current_range_meters":5600,"station_id":"ce4bh012rcd13ifvqd00","pricing_plan_id":"cebpf4jnsgd1na2vs0mg"},{"bike_id":"60ca2d11-e6af-45ee-8186-84d398205c2c","system_id":"levelo_inurba_marseille","lat":43.26187,"lon":5.37908,"is_reserved":false,"is_disabled":false,"rental_uris":{"android":"levelo://app?vid=60ca2d11-e6af-45ee-8186-84d398205c2c","ios":"levelo://app?vid=60ca2d11-e6af-45ee-8186-84d398205c2c"},"vehicle_type_id":"4","last_reported":1741345659,"current_range_meters":5600,"station_id":"","pricing_plan_id":"cebpf4jnsgd1na2vs0mg"},{"bike_id":"de10dad3-cc48-400a-922c-cca5bf1a3a20","system_id":"levelo_inurba_marseille","lat":43.29938,"lon":5.38831,"is_reserved":false,"is_disabled":true,"rental_uris":{"android":"levelo://app?vid=de10dad3-cc48-400a-922c-cca5bf1a3a20","ios":"levelo://app?vid=de10dad3-cc48-400a-922c-cca5bf1a3a20"},"vehicle_type_id":"4","last_reported":1741345659,"current_range_meters":6000,"station_id":"","pricing_plan_id":"cebpf4jnsgd1na2vs0mg"},{"bike_id":"d572b633-d5af-4df0-87b8-0a5b1819b02b","system_id":"levelo_inurba_marseille","lat":43.24175,"lon":5.39734,"is_reserved":false,"is_disabled":true,"rental_uris":{"android":"levelo://app?vid=d572b633-d5af-4df0-87b8-0a5b1819b02b","ios":"levelo://app?vid=d572b633-d5af-4df0-87b8-0a5b1819b02b"},"vehicle_type_id":"4","last_reported":1741345659,"current_range_meters":6000,"station_id":"ce4bhn12rcd13ifvqgpg","pricing_plan_id":"cebpf4jnsgd1na2vs0mg"},{"bike_id":"3ce01115-3d07-46d2-a9af-59698c630d32","system_id":"levelo_inurba_marseille","lat":43.26104,"lon":5.3976,"is_reserved":false,"is_disabled":false,"rental_uris":{"android":"levelo://app?vid=3ce01115-3d07-46d2-a9af-59698c630d32","ios":"levelo://app?vid=3ce01115-3d07-46d2-a9af-59698c630d32"},"vehicle_type_id":"4","last_reported":1741345659,"current_range_meters":6000,"station_id":"","pricing_plan_id":"cebpf4jnsgd1na2vs0mg"},{"bike_id":"ccf841be-e93c-4af9-9657-c72eba5eaeda","system_id":"levelo_inurba_marseille","lat":43.29914,"lon":5.37481,"is_reserved":false,"is_disabled":false,"rental_uris":{"android":"levelo://app?vid=ccf841be-e93c-4af9-9657-c72eba5eaeda","ios":"levelo://app?vid=ccf841be-e93c-4af9-9657-c72eba5eaeda"},"vehicle_type_id":"4","last_reported":1741345659,"current_range_meters":6000,"station_id":"ce4bgjh2rcd13ifvqbg0","pricing_plan_id":"cebpf4jnsgd1na2vs0mg"},{"bike_id":"b014ccbe-9e16-4127-a45e-9c9e622e79bf","system_id":"levelo_inurba_marseille","lat":43.27081,"lon":5.42271,"is_reserved":false,"is_disabled":false,"rental_uris":{"android":"levelo://app?vid=b014ccbe-9e16-4127-a45e-9c9e622e79bf","ios":"levelo://app?vid=b014ccbe-9e16-4127-a45e-9c9e622e79bf"},"vehicle_type_id":"4","last_reported":1741345659,"current_range_meters":6400,"station_id":"ce4bhk92rcd13ifvqgb0","pricing_plan_id":"cebpf4jnsgd1na2vs0mg"},{"bike_id":"0e44ea0d-7ceb-4c90-809f-bff2bb2c1d5d","system_id":"levelo_inurba_marseille","lat":43.29257,"lon":5.37611,"is_reserved":false,"is_disabled":false,"rental_uris":{"android":"levelo://app?vid=0e44ea0d-7ceb-4c90-809f-bff2bb2c1d5d","ios":"levelo://app?vid=0e44ea0d-7ceb-4c90-809f-bff2bb2c1d5d"},"vehicle_type_id":"4","last_reported":1741345659,"current_range_meters":6400,"station_id":"ce4bgi12rcd13ifvqb80","pricing_plan_id":"cebpf4jnsgd1na2vs0mg"},{"bike_id":"b6eb5b76-609c-46ef-9e93-36ed60bec7ba","system_id":"levelo_inurba_marseille","lat":43.302444,"lon":5.400744,"is_reserved":false,"is_disabled":false,"rental_uris":{"android":"levelo://app?vid=b6eb5b76-609c-46ef-9e93-36ed60bec7ba","ios":"levelo://app?vid=b6eb5b76-609c-46ef-9e93-36ed60bec7ba"},"vehicle_type_id":"4","last_reported":1741345659,"current_range_meters":6400,"station_id":"ce4bh312rcd13ifvqdj0","pricing_plan_id":"cebpf4jnsgd1na2vs0mg"},{"bike_id":"f927a9c8-5d84-472f-b8fd-88f2fc3bc3e6","system_id":"levelo_inurba_marseille","lat":43.29898,"lon":5.43681,"is_reserved":false,"is_disabled":false,"rental_uris":{"android":"levelo://app?vid=f927a9c8-5d84-472f-b8fd-88f2fc3bc3e6","ios":"levelo://app?vid=f927a9c8-5d84-472f-b8fd-88f2fc3bc3e6"},"vehicle_type_id":"4","last_reported":1741345659,"current_range_meters":6800,"station_id":"ce4bhpp2rcd13ifvqhfg","pricing_plan_id":"cebpf4jnsgd1na2vs0mg"},{"bike_id":"7f1905bf-da4d-4f13-af14-c5d46804e585","system_id":"levelo_inurba_marseille","lat":43.23192,"lon":5.35555,"is_reserved":false,"is_disabled":false,"rental_uris":{"android":"levelo://app?vid=7f1905bf-da4d-4f13-af14-c5d46804e585","ios":"levelo://app?vid=7f1905bf-da4d-4f13-af14-c5d46804e585"},"vehicle_type_id":"4","last_reported":1741345659,"current_range_meters":6800,"station_id":"ce4bhu92rcd13ifvqi70","pricing_plan_id":"cebpf4jnsgd1na2vs0mg"},{"bike_id":"2da197ac-57ed-4f4f-b0f6-cc89ef5c1c68","system_id":"levelo_inurba_marseille","lat":43.26191,"lon":5.3794,"is_reserved":false,"is_disabled":false,"rental_uris":{"android":"levelo://app?vid=2da197ac-57ed-4f4f-b0f6-cc89ef5c1c68","ios":"levelo://app?vid=2da197ac-57ed-4f4f-b0f6-cc89ef5c1c68"},"vehicle_type_id":"4","last_reported":1741345659,"current_range_meters":6800,"station_id":"","pricing_plan_id":"cebpf4jnsgd1na2vs0mg"},{"bike_id":"2860da57-3e4a-4079-8e9b-e79c52a22a2e","system_id":"levelo_inurba_marseille","lat":43.27856,"lon":5.40769,"is_reserved":false,"is_disabled":false,"rental_uris":{"android":"levelo://app?vid=2860da57-3e4a-4079-8e9b-e79c52a22a2e","ios":"levelo://app?vid=2860da57-3e4a-4079-8e9b-e79c52a22a2e"},"vehicle_type_id":"4","last_reported":1741345659,"current_range_meters":6800,"station_id":"","pricing_plan_id":"cebpf4jnsgd1na2vs0mg"},{"bike_id":"abdc7a6f-de4f-4b3b-b537-5a723ca3b154","system_id":"levelo_inurba_marseille","lat":43.26955,"lon":5.3863,"is_reserved":false,"is_disabled":false,"rental_uris":{"android":"levelo://app?vid=abdc7a6f-de4f-4b3b-b537-5a723ca3b154","ios":"levelo://app?vid=abdc7a6f-de4f-4b3b-b537-5a723ca3b154"},"vehicle_type_id":"4","last_reported":1741345659,"current_range_meters":6800,"station_id":"ce4bhh92rcd13ifvqfh0","pricing_plan_id":"cebpf4jnsgd1na2vs0mg"},{"bike_id":"97543fbc-36f8-4c28-82aa-2f1ac2a7df7d","system_id":"levelo_inurba_marseille","lat":43.24167,"lon":5.36393,"is_reserved":false,"is_disabled":false,"rental_uris":{"android":"levelo://app?vid=97543fbc-36f8-4c28-82aa-2f1ac2a7df7d","ios":"levelo://app?vid=97543fbc-36f8-4c28-82aa-2f1ac2a7df7d"},"vehicle_type_id":"4","last_reported":1741345659,"current_range_meters":7200,"station_id":"cpo36qri1sfpv3e86is0","pricing_plan_id":"cebpf4jnsgd1na2vs0mg"},{"bike_id":"373181b1-e21f-4b56-97a2-669a5770348f","system_id":"levelo_inurba_marseille","lat":43.27376,"lon":5.36247,"is_reserved":false,"is_disabled":false,"rental_uris":{"android":"levelo://app?vid=373181b1-e21f-4b56-97a2-669a5770348f","ios":"levelo://app?vid=373181b1-e21f-4b56-97a2-669a5770348f"},"vehicle_type_id":"4","last_reported":1741345659,"current_range_meters":7200,"station_id":"ce4bhbh2rcd13ifvqeo0","pricing_plan_id":"cebpf4jnsgd1na2vs0mg"},{"bike_id":"3c5e0350-07a6-4d3d-b526-00ffb41b6d3e","system_id":"levelo_inurba_marseille","lat":43.279441,"lon":5.410508,"is_reserved":false,"is_disabled":false,"rental_uris":{"android":"levelo://app?vid=3c5e0350-07a6-4d3d-b526-00ffb41b6d3e","ios":"levelo://app?vid=3c5e0350-07a6-4d3d-b526-00ffb41b6d3e"},"vehicle_type_id":"4","last_reported":1741345659,"current_range_meters":7200,"station_id":"ce4bhnp2rcd13ifvqh0g","pricing_plan_id":"cebpf4jnsgd1na2vs0mg"},{"bike_id":"465f52e1-7913-485e-9568-2affdbe453c7","system_id":"levelo_inurba_marseille","lat":43.27818,"lon":5.40721,"is_reserved":false,"is_disabled":true,"rental_uris":{"android":"levelo://app?vid=465f52e1-7913-485e-9568-2affdbe453c7","ios":"levelo://app?vid=465f52e1-7913-485e-9568-2affdbe453c7"},"vehicle_type_id":"4","last_reported":1741345659,"current_range_meters":7200,"station_id":"ce4bhnh2rcd13ifvqgtg","pricing_plan_id":"cebpf4jnsgd1na2vs0mg"},{"bike_id":"915b7735-4cab-40c5-9411-3076bdbf4c7d","system_id":"levelo_inurba_marseille","lat":43.29904,"lon":5.436465,"is_reserved":false,"is_disabled":true,"rental_uris":{"android":"levelo://app?vid=915b7735-4cab-40c5-9411-3076bdbf4c7d","ios":"levelo://app?vid=915b7735-4cab-40c5-9411-3076bdbf4c7d"},"vehicle_type_id":"4","last_reported":1741345659,"current_range_meters":7200,"station_id":"ce4bhpp2rcd13ifvqhfg","pricing_plan_id":"cebpf4jnsgd1na2vs0mg"},{"bike_id":"c5d9a748-fb84-4751-9008-dc4467d9ed9a","system_id":"levelo_inurba_marseille","lat":43.23203,"lon":5.35563,"is_reserved":false,"is_disabled":false,"rental_uris":{"android":"levelo://app?vid=c5d9a748-fb84-4751-9008-dc4467d9ed9a","ios":"levelo://app?vid=c5d9a748-fb84-4751-9008-dc4467d9ed9a"},"vehicle_type_id":"4","last_reported":1741345659,"current_range_meters":7200,"station_id":"ce4bhu92rcd13ifvqi70","pricing_plan_id":"cebpf4jnsgd1na2vs0mg"},{"bike_id":"d6be8912-1266-4cbf-849d-29b4eb95b03a","system_id":"levelo_inurba_marseille","lat":43.28888,"lon":5.35405,"is_reserved":false,"is_disabled":true,"rental_uris":{"android":"levelo://app?vid=d6be8912-1266-4cbf-849d-29b4eb95b03a","ios":"levelo://app?vid=d6be8912-1266-4cbf-849d-29b4eb95b03a"},"vehicle_type_id":"4","last_reported":1741345659,"current_range_meters":7200,"station_id":"","pricing_plan_id":"cebpf4jnsgd1na2vs0mg"},{"bike_id":"d97b34a5-4a9d-4d9c-b55f-b72c9be6ca47","system_id":"levelo_inurba_marseille","lat":43.25118,"lon":5.40353,"is_reserved":false,"is_disabled":true,"rental_uris":{"android":"levelo://app?vid=d97b34a5-4a9d-4d9c-b55f-b72c9be6ca47","ios":"levelo://app?vid=d97b34a5-4a9d-4d9c-b55f-b72c9be6ca47"},"vehicle_type_id":"4","last_reported":1741345659,"current_range_meters":7200,"station_id":"ce4bhlh2rcd13ifvqgig","pricing_plan_id":"cebpf4jnsgd1na2vs0mg"},{"bike_id":"81220ab9-fb8e-4638-a084-692a6595df85","system_id":"levelo_inurba_marseille","lat":43.26187,"lon":5.42065,"is_reserved":false,"is_disabled":false,"rental_uris":{"android":"levelo://app?vid=81220ab9-fb8e-4638-a084-692a6595df85","ios":"levelo://app?vid=81220ab9-fb8e-4638-a084-692a6595df85"},"vehicle_type_id":"4","last_reported":1741345659,"current_range_meters":7200,"station_id":"","pricing_plan_id":"cebpf4jnsgd1na2vs0mg"},{"bike_id":"9bfe4e82-241b-4620-b471-d226beb88b23","system_id":"levelo_inurba_marseille","lat":43.22938,"lon":5.35373,"is_reserved":false,"is_disabled":false,"rental_uris":{"android":"levelo://app?vid=9bfe4e82-241b-4620-b471-d226beb88b23","ios":"levelo://app?vid=9bfe4e82-241b-4620-b471-d226beb88b23"},"vehicle_type_id":"4","last_reported":1741345659,"current_range_meters":7200,"station_id":"cpo3532slgdg3j2ikp40","pricing_plan_id":"cebpf4jnsgd1na2vs0mg"},{"bike_id":"32d1f900-0344-4b56-aaa5-564d19ec802c","system_id":"levelo_inurba_marseille","lat":43.27948,"lon":5.41044,"is_reserved":false,"is_disabled":false,"rental_uris":{"android":"levelo://app?vid=32d1f900-0344-4b56-aaa5-564d19ec802c","ios":"levelo://app?vid=32d1f900-0344-4b56-aaa5-564d19ec802c"},"vehicle_type_id":"4","last_reported":1741345659,"current_range_meters":7200,"station_id":"ce4bhnp2rcd13ifvqh0g","pricing_plan_id":"cebpf4jnsgd1na2vs0mg"},{"bike_id":"8817142b-6943-47ef-955d-8d2427a8955d","system_id":"levelo_inurba_marseille","lat":43.31323,"lon":5.39696,"is_reserved":false,"is_disabled":false,"rental_uris":{"android":"levelo://app?vid=8817142b-6943-47ef-955d-8d2427a8955d","ios":"levelo://app?vid=8817142b-6943-47ef-955d-8d2427a8955d"},"vehicle_type_id":"4","last_reported":1741345659,"current_range_meters":7200,"station_id":"ce4bgvp2rcd13ifvqcu0","pricing_plan_id":"cebpf4jnsgd1na2vs0mg"},{"bike_id":"5487e4c1-499e-460a-9df1-016e88b5ed82","system_id":"levelo_inurba_marseille","lat":43.29892,"lon":5.43658,"is_reserved":false,"is_disabled":false,"rental_uris":{"android":"levelo://app?vid=5487e4c1-499e-460a-9df1-016e88b5ed82","ios":"levelo://app?vid=5487e4c1-499e-460a-9df1-016e88b5ed82"},"vehicle_type_id":"4","last_reported":1741345659,"current_range_meters":8000,"station_id":"ce4bhpp2rcd13ifvqhfg","pricing_plan_id":"cebpf4jnsgd1na2vs0mg"},{"bike_id":"9a95a560-5413-48f1-8625-b30eb8fa3c35","system_id":"levelo_inurba_marseille","lat":43.32659,"lon":5.40991,"is_reserved":false,"is_disabled":false,"rental_uris":{"android":"levelo://app?vid=9a95a560-5413-48f1-8625-b30eb8fa3c35","ios":"levelo://app?vid=9a95a560-5413-48f1-8625-b30eb8fa3c35"},"vehicle_type_id":"4","last_reported":1741345659,"current_range_meters":8400,"station_id":"ce4bhpp2rcd13ifvqhgg","pricing_plan_id":"cebpf4jnsgd1na2vs0mg"},{"bike_id":"c262f8cf-6400-4efd-af91-c8aabadab203","system_id":"levelo_inurba_marseille","lat":43.23199,"lon":5.39963,"is_reserved":false,"is_disabled":false,"rental_uris":{"android":"levelo://app?vid=c262f8cf-6400-4efd-af91-c8aabadab203","ios":"levelo://app?vid=c262f8cf-6400-4efd-af91-c8aabadab203"},"vehicle_type_id":"4","last_reported":1741345659,"current_range_meters":8000,"station_id":"ce4bhn12rcd13ifvqgqg","pricing_plan_id":"cebpf4jnsgd1na2vs0mg"},{"bike_id":"1b34c58c-f011-43f3-baac-47c6cf7523c0","system_id":"levelo_inurba_marseille","lat":43.29895,"lon":5.43645,"is_reserved":false,"is_disabled":false,"rental_uris":{"android":"levelo://app?vid=1b34c58c-f011-43f3-baac-47c6cf7523c0","ios":"levelo://app?vid=1b34c58c-f011-43f3-baac-47c6cf7523c0"},"vehicle_type_id":"4","last_reported":1741345659,"current_range_meters":8000,"station_id":"ce4bhpp2rcd13ifvqhfg","pricing_plan_id":"cebpf4jnsgd1na2vs0mg"},{"bike_id":"d325d838-f1e3-4178-bf12-b739cd4e0c3a","system_id":"levelo_inurba_marseille","lat":43.30966,"lon":5.39032,"is_reserved":false,"is_disabled":true,"rental_uris":{"android":"levelo://app?vid=d325d838-f1e3-4178-bf12-b739cd4e0c3a","ios":"levelo://app?vid=d325d838-f1e3-4178-bf12-b739cd4e0c3a"},"vehicle_type_id":"4","last_reported":1741345659,"current_range_meters":8000,"station_id":"ce4bgup2rcd13ifvqco0","pricing_plan_id":"cebpf4jnsgd1na2vs0mg"},{"bike_id":"484f17bc-2a99-4d45-a9b9-614e75e026f7","system_id":"levelo_inurba_marseille","lat":43.27813,"lon":5.40722,"is_reserved":false,"is_disabled":false,"rental_uris":{"android":"levelo://app?vid=484f17bc-2a99-4d45-a9b9-614e75e026f7","ios":"levelo://app?vid=484f17bc-2a99-4d45-a9b9-614e75e026f7"},"vehicle_type_id":"4","last_reported":1741345659,"current_range_meters":8000,"station_id":"ce4bhnh2rcd13ifvqgtg","pricing_plan_id":"cebpf4jnsgd1na2vs0mg"},{"bike_id":"651068a3-bff5-4aa4-bafe-de2f2377d643","system_id":"levelo_inurba_marseille","lat":43.257081,"lon":5.411187,"is_reserved":false,"is_disabled":false,"rental_uris":{"android":"levelo://app?vid=651068a3-bff5-4aa4-bafe-de2f2377d643","ios":"levelo://app?vid=651068a3-bff5-4aa4-bafe-de2f2377d643"},"vehicle_type_id":"4","last_reported":1741345659,"current_range_meters":8000,"station_id":"ce4bhkp2rcd13ifvqgd0","pricing_plan_id":"cebpf4jnsgd1na2vs0mg"},{"bike_id":"847a5dac-e8fd-44b4-ac18-4d6e30c019a9","system_id":"levelo_inurba_marseille","lat":43.27295,"lon":5.39053,"is_reserved":false,"is_disabled":true,"rental_uris":{"android":"levelo://app?vid=847a5dac-e8fd-44b4-ac18-4d6e30c019a9","ios":"levelo://app?vid=847a5dac-e8fd-44b4-ac18-4d6e30c019a9"},"vehicle_type_id":"4","last_reported":1741345659,"current_range_meters":8000,"station_id":"ce4bhgp2rcd13ifvqfe0","pricing_plan_id":"cebpf4jnsgd1na2vs0mg"},{"bike_id":"cfad0bf5-a99b-4347-bf1a-370f0c59a9c4","system_id":"levelo_inurba_marseille","lat":43.27797,"lon":5.40683,"is_reserved":false,"is_disabled":true,"rental_uris":{"android":"levelo://app?vid=cfad0bf5-a99b-4347-bf1a-370f0c59a9c4","ios":"levelo://app?vid=cfad0bf5-a99b-4347-bf1a-370f0c59a9c4"},"vehicle_type_id":"4","last_reported":1741345659,"current_range_meters":8000,"station_id":"ce4bhnh2rcd13ifvqgtg","pricing_plan_id":"cebpf4jnsgd1na2vs0mg"},{"bike_id":"858c50df-ffa3-4ac3-a680-aba957e8944e","system_id":"levelo_inurba_marseille","lat":43.298926,"lon":5.436584,"is_reserved":false,"is_disabled":false,"rental_uris":{"android":"levelo://app?vid=858c50df-ffa3-4ac3-a680-aba957e8944e","ios":"levelo://app?vid=858c50df-ffa3-4ac3-a680-aba957e8944e"},"vehicle_type_id":"4","last_reported":1741345659,"current_range_meters":8000,"station_id":"ce4bhpp2rcd13ifvqhfg","pricing_plan_id":"cebpf4jnsgd1na2vs0mg"},{"bike_id":"8f030caa-a56c-445e-a45e-4a84467e463f","system_id":"levelo_inurba_marseille","lat":43.23175,"lon":5.39983,"is_reserved":false,"is_disabled":false,"rental_uris":{"android":"levelo://app?vid=8f030caa-a56c-445e-a45e-4a84467e463f","ios":"levelo://app?vid=8f030caa-a56c-445e-a45e-4a84467e463f"},"vehicle_type_id":"4","last_reported":1741345659,"current_range_meters":8400,"station_id":"ce4bhn12rcd13ifvqgqg","pricing_plan_id":"cebpf4jnsgd1na2vs0mg"},{"bike_id":"7ad96960-c26d-4d04-9492-5023429321e7","system_id":"levelo_inurba_marseille","lat":43.27812,"lon":5.40714,"is_reserved":false,"is_disabled":false,"rental_uris":{"android":"levelo://app?vid=7ad96960-c26d-4d04-9492-5023429321e7","ios":"levelo://app?vid=7ad96960-c26d-4d04-9492-5023429321e7"},"vehicle_type_id":"4","last_reported":1741345659,"current_range_meters":8000,"station_id":"ce4bhnh2rcd13ifvqgtg","pricing_plan_id":"cebpf4jnsgd1na2vs0mg"},{"bike_id":"b7bc0161-fd2f-4b1a-8df2-8f22a2242cbd","system_id":"levelo_inurba_marseille","lat":43.26552,"lon":5.37284,"is_reserved":false,"is_disabled":false,"rental_uris":{"android":"levelo://app?vid=b7bc0161-fd2f-4b1a-8df2-8f22a2242cbd","ios":"levelo://app?vid=b7bc0161-fd2f-4b1a-8df2-8f22a2242cbd"},"vehicle_type_id":"4","last_reported":1741345659,"current_range_meters":8400,"station_id":"ce4bhg12rcd13ifvqf70","pricing_plan_id":"cebpf4jnsgd1na2vs0mg"},{"bike_id":"bc6f1c97-3700-471c-abf2-718e17baa78e","system_id":"levelo_inurba_marseille","lat":43.26229,"lon":5.4045,"is_reserved":false,"is_disabled":false,"rental_uris":{"android":"levelo://app?vid=bc6f1c97-3700-471c-abf2-718e17baa78e","ios":"levelo://app?vid=bc6f1c97-3700-471c-abf2-718e17baa78e"},"vehicle_type_id":"4","last_reported":1741345659,"current_range_meters":8400,"station_id":"ce4bhmh2rcd13ifvqgmg","pricing_plan_id":"cebpf4jnsgd1na2vs0mg"},{"bike_id":"fdde8103-1f2a-4455-bcfa-e1d74ecb0194","system_id":"levelo_inurba_marseille","lat":43.27812,"lon":5.40676,"is_reserved":false,"is_disabled":false,"rental_uris":{"android":"levelo://app?vid=fdde8103-1f2a-4455-bcfa-e1d74ecb0194","ios":"levelo://app?vid=fdde8103-1f2a-4455-bcfa-e1d74ecb0194"},"vehicle_type_id":"4","last_reported":1741345659,"current_range_meters":8800,"station_id":"ce4bhnh2rcd13ifvqgtg","pricing_plan_id":"cebpf4jnsgd1na2vs0mg"},{"bike_id":"34da12a4-e1c5-4c32-a72f-689173614aac","system_id":"levelo_inurba_marseille","lat":43.25001,"lon":5.38942,"is_reserved":false,"is_disabled":false,"rental_uris":{"android":"levelo://app?vid=34da12a4-e1c5-4c32-a72f-689173614aac","ios":"levelo://app?vid=34da12a4-e1c5-4c32-a72f-689173614aac"},"vehicle_type_id":"4","last_reported":1741345659,"current_range_meters":8400,"station_id":"","pricing_plan_id":"cebpf4jnsgd1na2vs0mg"},{"bike_id":"357f6b0d-7429-4870-b5b1-c540923d954d","system_id":"levelo_inurba_marseille","lat":43.23071,"lon":5.35493,"is_reserved":false,"is_disabled":false,"rental_uris":{"android":"levelo://app?vid=357f6b0d-7429-4870-b5b1-c540923d954d","ios":"levelo://app?vid=357f6b0d-7429-4870-b5b1-c540923d954d"},"vehicle_type_id":"4","last_reported":1741345659,"current_range_meters":8400,"station_id":"cpo3342slgdg3j2ifvpg","pricing_plan_id":"cebpf4jnsgd1na2vs0mg"},{"bike_id":"e1d769e4-11f2-4d18-9030-8795575f90b3","system_id":"levelo_inurba_marseille","lat":43.29025,"lon":5.38627,"is_reserved":false,"is_disabled":false,"rental_uris":{"android":"levelo://app?vid=e1d769e4-11f2-4d18-9030-8795575f90b3","ios":"levelo://app?vid=e1d769e4-11f2-4d18-9030-8795575f90b3"},"vehicle_type_id":"4","last_reported":1741345659,"current_range_meters":8800,"station_id":"ce4bh4p2rcd13ifvqe0g","pricing_plan_id":"cebpf4jnsgd1na2vs0mg"},{"bike_id":"2d340159-37c8-41dc-a62f-ca06729e55bc","system_id":"levelo_inurba_marseille","lat":43.3196,"lon":5.35948,"is_reserved":false,"is_disabled":false,"rental_uris":{"android":"levelo://app?vid=2d340159-37c8-41dc-a62f-ca06729e55bc","ios":"levelo://app?vid=2d340159-37c8-41dc-a62f-ca06729e55bc"},"vehicle_type_id":"4","last_reported":1741345659,"current_range_meters":8800,"station_id":"ce4bhsh2rcd13ifvqi2g","pricing_plan_id":"cebpf4jnsgd1na2vs0mg"},{"bike_id":"143b74fc-ab7b-4910-8495-ffc1ad22971d","system_id":"levelo_inurba_marseille","lat":43.25011,"lon":5.38931,"is_reserved":false,"is_disabled":true,"rental_uris":{"android":"levelo://app?vid=143b74fc-ab7b-4910-8495-ffc1ad22971d","ios":"levelo://app?vid=143b74fc-ab7b-4910-8495-ffc1ad22971d"},"vehicle_type_id":"4","last_reported":1741345659,"current_range_meters":8800,"station_id":"ce4bhgp2rcd13ifvqfd0","pricing_plan_id":"cebpf4jnsgd1na2vs0mg"},{"bike_id":"8aef80f6-d63a-4d5b-a709-5382d05dd4df","system_id":"levelo_inurba_marseille","lat":43.24807,"lon":5.37451,"is_reserved":false,"is_disabled":false,"rental_uris":{"android":"levelo://app?vid=8aef80f6-d63a-4d5b-a709-5382d05dd4df","ios":"levelo://app?vid=8aef80f6-d63a-4d5b-a709-5382d05dd4df"},"vehicle_type_id":"4","last_reported":1741345659,"current_range_meters":8400,"station_id":"ce4bhgh2rcd13ifvqfb0","pricing_plan_id":"cebpf4jnsgd1na2vs0mg"},{"bike_id":"e1bd87e9-b9cb-441c-bd70-d98871722cc2","system_id":"levelo_inurba_marseille","lat":43.27908,"lon":5.38011,"is_reserved":false,"is_disabled":false,"rental_uris":{"android":"levelo://app?vid=e1bd87e9-b9cb-441c-bd70-d98871722cc2","ios":"levelo://app?vid=e1bd87e9-b9cb-441c-bd70-d98871722cc2"},"vehicle_type_id":"4","last_reported":1741345659,"current_range_meters":8800,"station_id":"ce4bhf92rcd13ifvqf50","pricing_plan_id":"cebpf4jnsgd1na2vs0mg"},{"bike_id":"398350e7-7550-49a9-a28e-80579d6fd95c","system_id":"levelo_inurba_marseille","lat":43.27907,"lon":5.38021,"is_reserved":false,"is_disabled":false,"rental_uris":{"android":"levelo://app?vid=398350e7-7550-49a9-a28e-80579d6fd95c","ios":"levelo://app?vid=398350e7-7550-49a9-a28e-80579d6fd95c"},"vehicle_type_id":"4","last_reported":1741345659,"current_range_meters":8800,"station_id":"ce4bhf92rcd13ifvqf50","pricing_plan_id":"cebpf4jnsgd1na2vs0mg"},{"bike_id":"470ce45f-62c0-4713-ba7f-88e0f7e38546","system_id":"levelo_inurba_marseille","lat":43.3055,"lon":5.36538,"is_reserved":false,"is_disabled":false,"rental_uris":{"android":"levelo://app?vid=470ce45f-62c0-4713-ba7f-88e0f7e38546","ios":"levelo://app?vid=470ce45f-62c0-4713-ba7f-88e0f7e38546"},"vehicle_type_id":"4","last_reported":1741345659,"current_range_meters":8800,"station_id":"ce4bgs12rcd13ifvqcag","pricing_plan_id":"cebpf4jnsgd1na2vs0mg"},{"bike_id":"171bc39f-6210-403a-b4ae-fd684d12d4df","system_id":"levelo_inurba_marseille","lat":43.28114,"lon":5.37846,"is_reserved":false,"is_disabled":false,"rental_uris":{"android":"levelo://app?vid=171bc39f-6210-403a-b4ae-fd684d12d4df","ios":"levelo://app?vid=171bc39f-6210-403a-b4ae-fd684d12d4df"},"vehicle_type_id":"4","last_reported":1741345659,"current_range_meters":9200,"station_id":"ce4bha12rcd13ifvqee0","pricing_plan_id":"cebpf4jnsgd1na2vs0mg"},{"bike_id":"830a0610-0902-4186-912e-b882fbc32189","system_id":"levelo_inurba_marseille","lat":43.28112,"lon":5.37842,"is_reserved":false,"is_disabled":false,"rental_uris":{"android":"levelo://app?vid=830a0610-0902-4186-912e-b882fbc32189","ios":"levelo://app?vid=830a0610-0902-4186-912e-b882fbc32189"},"vehicle_type_id":"4","last_reported":1741345659,"current_range_meters":9200,"station_id":"ce4bha12rcd13ifvqee0","pricing_plan_id":"cebpf4jnsgd1na2vs0mg"},{"bike_id":"1d585b64-cebb-4f06-b21a-07ad8c1c47fd","system_id":"levelo_inurba_marseille","lat":43.30422,"lon":5.39749,"is_reserved":false,"is_disabled":false,"rental_uris":{"android":"levelo://app?vid=1d585b64-cebb-4f06-b21a-07ad8c1c47fd","ios":"levelo://app?vid=1d585b64-cebb-4f06-b21a-07ad8c1c47fd"},"vehicle_type_id":"4","last_reported":1741345659,"current_range_meters":9200,"station_id":"ce4bh092rcd13ifvqd20","pricing_plan_id":"cebpf4jnsgd1na2vs0mg"},{"bike_id":"a7d029f2-76b2-41f5-a5e9-67277e86bde6","system_id":"levelo_inurba_marseille","lat":43.27559,"lon":5.38423,"is_reserved":false,"is_disabled":false,"rental_uris":{"android":"levelo://app?vid=a7d029f2-76b2-41f5-a5e9-67277e86bde6","ios":"levelo://app?vid=a7d029f2-76b2-41f5-a5e9-67277e86bde6"},"vehicle_type_id":"4","last_reported":1741345659,"current_range_meters":9200,"station_id":"ce4bhh92rcd13ifvqfi0","pricing_plan_id":"cebpf4jnsgd1na2vs0mg"},{"bike_id":"e8ec0c29-95fe-4f54-864a-b154b6ccde41","system_id":"levelo_inurba_marseille","lat":43.27911,"lon":5.38015,"is_reserved":false,"is_disabled":false,"rental_uris":{"android":"levelo://app?vid=e8ec0c29-95fe-4f54-864a-b154b6ccde41","ios":"levelo://app?vid=e8ec0c29-95fe-4f54-864a-b154b6ccde41"},"vehicle_type_id":"4","last_reported":1741345659,"current_range_meters":9200,"station_id":"ce4bhf92rcd13ifvqf50","pricing_plan_id":"cebpf4jnsgd1na2vs0mg"},{"bike_id":"d8633e5b-9cfb-404d-a25c-e95914fe5365","system_id":"levelo_inurba_marseille","lat":43.30155,"lon":5.3965,"is_reserved":false,"is_disabled":false,"rental_uris":{"android":"levelo://app?vid=d8633e5b-9cfb-404d-a25c-e95914fe5365","ios":"levelo://app?vid=d8633e5b-9cfb-404d-a25c-e95914fe5365"},"vehicle_type_id":"4","last_reported":1741345659,"current_range_meters":9200,"station_id":"ce4bh0h2rcd13ifvqd40","pricing_plan_id":"cebpf4jnsgd1na2vs0mg"},{"bike_id":"f920a6ef-f0bd-4ed5-a63d-fc440a8642f5","system_id":"levelo_inurba_marseille","lat":43.25923,"lon":5.40863,"is_reserved":false,"is_disabled":false,"rental_uris":{"android":"levelo://app?vid=f920a6ef-f0bd-4ed5-a63d-fc440a8642f5","ios":"levelo://app?vid=f920a6ef-f0bd-4ed5-a63d-fc440a8642f5"},"vehicle_type_id":"4","last_reported":1741345659,"current_range_meters":9600,"station_id":"ce4bhm92rcd13ifvqglg","pricing_plan_id":"cebpf4jnsgd1na2vs0mg"},{"bike_id":"3c7a46d2-444a-4f49-9c30-f2d710357d3f","system_id":"levelo_inurba_marseille","lat":43.23196,"lon":5.39988,"is_reserved":false,"is_disabled":false,"rental_uris":{"android":"levelo://app?vid=3c7a46d2-444a-4f49-9c30-f2d710357d3f","ios":"levelo://app?vid=3c7a46d2-444a-4f49-9c30-f2d710357d3f"},"vehicle_type_id":"4","last_reported":1741345659,"current_range_meters":9600,"station_id":"ce4bhn12rcd13ifvqgqg","pricing_plan_id":"cebpf4jnsgd1na2vs0mg"},{"bike_id":"a67e0f76-569f-41a3-9478-efaf4f81ba58","system_id":"levelo_inurba_marseille","lat":43.32369,"lon":5.38886,"is_reserved":false,"is_disabled":false,"rental_uris":{"android":"levelo://app?vid=a67e0f76-569f-41a3-9478-efaf4f81ba58","ios":"levelo://app?vid=a67e0f76-569f-41a3-9478-efaf4f81ba58"},"vehicle_type_id":"4","last_reported":1741345659,"current_range_meters":9600,"station_id":"ce4bhqp2rcd13ifvqhog","pricing_plan_id":"cebpf4jnsgd1na2vs0mg"},{"bike_id":"377b49ea-77e9-4508-88e7-08219084b66b","system_id":"levelo_inurba_marseille","lat":43.27055,"lon":5.40263,"is_reserved":false,"is_disabled":false,"rental_uris":{"android":"levelo://app?vid=377b49ea-77e9-4508-88e7-08219084b66b","ios":"levelo://app?vid=377b49ea-77e9-4508-88e7-08219084b66b"},"vehicle_type_id":"4","last_reported":1741345659,"current_range_meters":9600,"station_id":"ce4bhk92rcd13ifvqgc0","pricing_plan_id":"cebpf4jnsgd1na2vs0mg"},{"bike_id":"513f53a6-aef9-4e70-b5d3-730448f8a94b","system_id":"levelo_inurba_marseille","lat":43.30224,"lon":5.36635,"is_reserved":false,"is_disabled":false,"rental_uris":{"android":"levelo://app?vid=513f53a6-aef9-4e70-b5d3-730448f8a94b","ios":"levelo://app?vid=513f53a6-aef9-4e70-b5d3-730448f8a94b"},"vehicle_type_id":"4","last_reported":1741345659,"current_range_meters":9600,"station_id":"ce4bgrh2rcd13ifvqc8g","pricing_plan_id":"cebpf4jnsgd1na2vs0mg"},{"bike_id":"661fd097-262c-4b0b-bf16-7ea667a70231","system_id":"levelo_inurba_marseille","lat":43.29302,"lon":5.37456,"is_reserved":false,"is_disabled":false,"rental_uris":{"android":"levelo://app?vid=661fd097-262c-4b0b-bf16-7ea667a70231","ios":"levelo://app?vid=661fd097-262c-4b0b-bf16-7ea667a70231"},"vehicle_type_id":"4","last_reported":1741345659,"current_range_meters":9600,"station_id":"ce4bgi12rcd13ifvqb70","pricing_plan_id":"cebpf4jnsgd1na2vs0mg"},{"bike_id":"879c50cd-ce0b-41f2-9f5f-94ba338e92b6","system_id":"levelo_inurba_marseille","lat":43.24798,"lon":5.37452,"is_reserved":false,"is_disabled":false,"rental_uris":{"android":"levelo://app?vid=879c50cd-ce0b-41f2-9f5f-94ba338e92b6","ios":"levelo://app?vid=879c50cd-ce0b-41f2-9f5f-94ba338e92b6"},"vehicle_type_id":"4","last_reported":1741345659,"current_range_meters":9200,"station_id":"ce4bhgh2rcd13ifvqfb0","pricing_plan_id":"cebpf4jnsgd1na2vs0mg"},{"bike_id":"5571d9ff-5d81-41bd-bcf5-ba27f45ec832","system_id":"levelo_inurba_marseille","lat":43.262,"lon":5.37437,"is_reserved":false,"is_disabled":false,"rental_uris":{"android":"levelo://app?vid=5571d9ff-5d81-41bd-bcf5-ba27f45ec832","ios":"levelo://app?vid=5571d9ff-5d81-41bd-bcf5-ba27f45ec832"},"vehicle_type_id":"4","last_reported":1741345659,"current_range_meters":9600,"station_id":"ce4bhgp2rcd13ifvqfc0","pricing_plan_id":"cebpf4jnsgd1na2vs0mg"},{"bike_id":"2dafe4c3-4c28-4c90-a34e-a2cb09c1c316","system_id":"levelo_inurba_marseille","lat":43.30573,"lon":5.3656,"is_reserved":false,"is_disabled":false,"rental_uris":{"android":"levelo://app?vid=2dafe4c3-4c28-4c90-a34e-a2cb09c1c316","ios":"levelo://app?vid=2dafe4c3-4c28-4c90-a34e-a2cb09c1c316"},"vehicle_type_id":"4","last_reported":1741345659,"current_range_meters":10000,"station_id":"ce4bgs12rcd13ifvqcag","pricing_plan_id":"cebpf4jnsgd1na2vs0mg"},{"bike_id":"56db0908-ef01-44f7-b403-cea5d6e769c0","system_id":"levelo_inurba_marseille","lat":43.26193,"lon":5.37453,"is_reserved":false,"is_disabled":false,"rental_uris":{"android":"levelo://app?vid=56db0908-ef01-44f7-b403-cea5d6e769c0","ios":"levelo://app?vid=56db0908-ef01-44f7-b403-cea5d6e769c0"},"vehicle_type_id":"4","last_reported":1741345659,"current_range_meters":10000,"station_id":"ce4bhgp2rcd13ifvqfc0","pricing_plan_id":"cebpf4jnsgd1na2vs0mg"},{"bike_id":"a7e8bc7d-4983-4763-86bc-9b1548214877","system_id":"levelo_inurba_marseille","lat":43.30539,"lon":5.36706,"is_reserved":false,"is_disabled":false,"rental_uris":{"android":"levelo://app?vid=a7e8bc7d-4983-4763-86bc-9b1548214877","ios":"levelo://app?vid=a7e8bc7d-4983-4763-86bc-9b1548214877"},"vehicle_type_id":"4","last_reported":1741345659,"current_range_meters":10800,"station_id":"ce4bgrp2rcd13ifvqc9g","pricing_plan_id":"cebpf4jnsgd1na2vs0mg"},{"bike_id":"79c11b83-e05e-46e4-889b-720cb1fb4be9","system_id":"levelo_inurba_marseille","lat":43.24059,"lon":5.37693,"is_reserved":false,"is_disabled":true,"rental_uris":{"android":"levelo://app?vid=79c11b83-e05e-46e4-889b-720cb1fb4be9","ios":"levelo://app?vid=79c11b83-e05e-46e4-889b-720cb1fb4be9"},"vehicle_type_id":"4","last_reported":1741345659,"current_range_meters":10800,"station_id":"","pricing_plan_id":"cebpf4jnsgd1na2vs0mg"},{"bike_id":"e720a8f2-51c4-45e0-ad35-8fb04937bbc4","system_id":"levelo_inurba_marseille","lat":43.27939,"lon":5.41054,"is_reserved":false,"is_disabled":false,"rental_uris":{"android":"levelo://app?vid=e720a8f2-51c4-45e0-ad35-8fb04937bbc4","ios":"levelo://app?vid=e720a8f2-51c4-45e0-ad35-8fb04937bbc4"},"vehicle_type_id":"4","last_reported":1741345659,"current_range_meters":10800,"station_id":"ce4bhnp2rcd13ifvqh0g","pricing_plan_id":"cebpf4jnsgd1na2vs0mg"},{"bike_id":"42323b44-4776-4993-88db-08c90d643018","system_id":"levelo_inurba_marseille","lat":43.30209,"lon":5.37643,"is_reserved":false,"is_disabled":false,"rental_uris":{"android":"levelo://app?vid=42323b44-4776-4993-88db-08c90d643018","ios":"levelo://app?vid=42323b44-4776-4993-88db-08c90d643018"},"vehicle_type_id":"4","last_reported":1741345659,"current_range_meters":10800,"station_id":"","pricing_plan_id":"cebpf4jnsgd1na2vs0mg"},{"bike_id":"4ecec15e-51a9-464b-a6c3-43511ce6977f","system_id":"levelo_inurba_marseille","lat":43.27811,"lon":5.4068,"is_reserved":false,"is_disabled":false,"rental_uris":{"android":"levelo://app?vid=4ecec15e-51a9-464b-a6c3-43511ce6977f","ios":"levelo://app?vid=4ecec15e-51a9-464b-a6c3-43511ce6977f"},"vehicle_type_id":"4","last_reported":1741345659,"current_range_meters":11200,"station_id":"ce4bhnh2rcd13ifvqgtg","pricing_plan_id":"cebpf4jnsgd1na2vs0mg"},{"bike_id":"8e653487-336a-41c8-9a45-0153174f104f","system_id":"levelo_inurba_marseille","lat":43.26944,"lon":5.38919,"is_reserved":false,"is_disabled":true,"rental_uris":{"android":"levelo://app?vid=8e653487-336a-41c8-9a45-0153174f104f","ios":"levelo://app?vid=8e653487-336a-41c8-9a45-0153174f104f"},"vehicle_type_id":"4","last_reported":1741345659,"current_range_meters":11200,"station_id":"ce4bhhh2rcd13ifvqfl0","pricing_plan_id":"cebpf4jnsgd1na2vs0mg"},{"bike_id":"6a1366c1-41ed-4dda-b62f-b12cda709bc4","system_id":"levelo_inurba_marseille","lat":43.3239,"lon":5.38864,"is_reserved":false,"is_disabled":false,"rental_uris":{"android":"levelo://app?vid=6a1366c1-41ed-4dda-b62f-b12cda709bc4","ios":"levelo://app?vid=6a1366c1-41ed-4dda-b62f-b12cda709bc4"},"vehicle_type_id":"4","last_reported":1741345659,"current_range_meters":11200,"station_id":"ce4bhqp2rcd13ifvqhog","pricing_plan_id":"cebpf4jnsgd1na2vs0mg"},{"bike_id":"9e48361c-be05-4241-87d7-e9e77046c1ee","system_id":"levelo_inurba_marseille","lat":43.298304,"lon":5.36287,"is_reserved":false,"is_disabled":false,"rental_uris":{"android":"levelo://app?vid=9e48361c-be05-4241-87d7-e9e77046c1ee","ios":"levelo://app?vid=9e48361c-be05-4241-87d7-e9e77046c1ee"},"vehicle_type_id":"4","last_reported":1741345659,"current_range_meters":11200,"station_id":"ce4bguh2rcd13ifvqcj0","pricing_plan_id":"cebpf4jnsgd1na2vs0mg"},{"bike_id":"308a209a-e6a0-4d20-ac65-f12405c6370b","system_id":"levelo_inurba_marseille","lat":43.30806,"lon":5.38142,"is_reserved":false,"is_disabled":false,"rental_uris":{"android":"levelo://app?vid=308a209a-e6a0-4d20-ac65-f12405c6370b","ios":"levelo://app?vid=308a209a-e6a0-4d20-ac65-f12405c6370b"},"vehicle_type_id":"4","last_reported":1741345659,"current_range_meters":11200,"station_id":"ce4bgt12rcd13ifvqce0","pricing_plan_id":"cebpf4jnsgd1na2vs0mg"},{"bike_id":"d015e1e7-8b4f-4898-a841-104d62c0d9ad","system_id":"levelo_inurba_marseille","lat":43.23173,"lon":5.39947,"is_reserved":false,"is_disabled":false,"rental_uris":{"android":"levelo://app?vid=d015e1e7-8b4f-4898-a841-104d62c0d9ad","ios":"levelo://app?vid=d015e1e7-8b4f-4898-a841-104d62c0d9ad"},"vehicle_type_id":"4","last_reported":1741345659,"current_range_meters":11200,"station_id":"ce4bhn12rcd13ifvqgqg","pricing_plan_id":"cebpf4jnsgd1na2vs0mg"},{"bike_id":"daa48c53-c5de-46aa-94fc-655cbd710c8c","system_id":"levelo_inurba_marseille","lat":43.22943,"lon":5.35393,"is_reserved":false,"is_disabled":false,"rental_uris":{"android":"levelo://app?vid=daa48c53-c5de-46aa-94fc-655cbd710c8c","ios":"levelo://app?vid=daa48c53-c5de-46aa-94fc-655cbd710c8c"},"vehicle_type_id":"4","last_reported":1741345659,"current_range_meters":11200,"station_id":"cpo3532slgdg3j2ikp40","pricing_plan_id":"cebpf4jnsgd1na2vs0mg"},{"bike_id":"b6c96ff3-a9c5-4214-9505-a4e380c739b1","system_id":"levelo_inurba_marseille","lat":43.30293,"lon":5.37712,"is_reserved":false,"is_disabled":false,"rental_uris":{"android":"levelo://app?vid=b6c96ff3-a9c5-4214-9505-a4e380c739b1","ios":"levelo://app?vid=b6c96ff3-a9c5-4214-9505-a4e380c739b1"},"vehicle_type_id":"4","last_reported":1741345659,"current_range_meters":11600,"station_id":"ce4bguh2rcd13ifvqcj0","pricing_plan_id":"cebpf4jnsgd1na2vs0mg"},{"bike_id":"fba20498-47c8-4184-b582-c4636d4fbe9f","system_id":"levelo_inurba_marseille","lat":43.26191,"lon":5.37451,"is_reserved":false,"is_disabled":false,"rental_uris":{"android":"levelo://app?vid=fba20498-47c8-4184-b582-c4636d4fbe9f","ios":"levelo://app?vid=fba20498-47c8-4184-b582-c4636d4fbe9f"},"vehicle_type_id":"4","last_reported":1741345659,"current_range_meters":11600,"station_id":"ce4bhgp2rcd13ifvqfc0","pricing_plan_id":"cebpf4jnsgd1na2vs0mg"},{"bike_id":"66d38daa-6efe-47bc-acc9-66b295102cc5","system_id":"levelo_inurba_marseille","lat":43.31717,"lon":5.43711,"is_reserved":false,"is_disabled":false,"rental_uris":{"android":"levelo://app?vid=66d38daa-6efe-47bc-acc9-66b295102cc5","ios":"levelo://app?vid=66d38daa-6efe-47bc-acc9-66b295102cc5"},"vehicle_type_id":"4","last_reported":1741345659,"current_range_meters":11600,"station_id":"ce4bhp92rcd13ifvqhcg","pricing_plan_id":"cebpf4jnsgd1na2vs0mg"},{"bike_id":"55f1a346-655d-4ceb-961f-e11c032b07e0","system_id":"levelo_inurba_marseille","lat":43.32694,"lon":5.403,"is_reserved":false,"is_disabled":false,"rental_uris":{"android":"levelo://app?vid=55f1a346-655d-4ceb-961f-e11c032b07e0","ios":"levelo://app?vid=55f1a346-655d-4ceb-961f-e11c032b07e0"},"vehicle_type_id":"4","last_reported":1741345659,"current_range_meters":11600,"station_id":"","pricing_plan_id":"cebpf4jnsgd1na2vs0mg"},{"bike_id":"5ba22cb2-6d7a-4a0c-92d4-89adcbc8752e","system_id":"levelo_inurba_marseille","lat":43.25003,"lon":5.38952,"is_reserved":false,"is_disabled":true,"rental_uris":{"android":"levelo://app?vid=5ba22cb2-6d7a-4a0c-92d4-89adcbc8752e","ios":"levelo://app?vid=5ba22cb2-6d7a-4a0c-92d4-89adcbc8752e"},"vehicle_type_id":"4","last_reported":1741345659,"current_range_meters":11600,"station_id":"ce4bhgp2rcd13ifvqfd0","pricing_plan_id":"cebpf4jnsgd1na2vs0mg"},{"bike_id":"2735d81b-f407-410c-9b16-c25290674dbb","system_id":"levelo_inurba_marseille","lat":43.28482,"lon":5.38554,"is_reserved":false,"is_disabled":false,"rental_uris":{"android":"levelo://app?vid=2735d81b-f407-410c-9b16-c25290674dbb","ios":"levelo://app?vid=2735d81b-f407-410c-9b16-c25290674dbb"},"vehicle_type_id":"4","last_reported":1741345659,"current_range_meters":11600,"station_id":"ce4bh8p2rcd13ifvqeb0","pricing_plan_id":"cebpf4jnsgd1na2vs0mg"},{"bike_id":"d0a9e0b6-7460-48af-b167-fa241d6b44c3","system_id":"levelo_inurba_marseille","lat":43.3212,"lon":5.36794,"is_reserved":false,"is_disabled":false,"rental_uris":{"android":"levelo://app?vid=d0a9e0b6-7460-48af-b167-fa241d6b44c3","ios":"levelo://app?vid=d0a9e0b6-7460-48af-b167-fa241d6b44c3"},"vehicle_type_id":"4","last_reported":1741345659,"current_range_meters":11600,"station_id":"ce4bhrh2rcd13ifvqhug","pricing_plan_id":"cebpf4jnsgd1na2vs0mg"},{"bike_id":"f0fbe1fe-e2d8-4b59-8260-0170fbbf8b39","system_id":"levelo_inurba_marseille","lat":43.30153,"lon":5.38082,"is_reserved":false,"is_disabled":false,"rental_uris":{"android":"levelo://app?vid=f0fbe1fe-e2d8-4b59-8260-0170fbbf8b39","ios":"levelo://app?vid=f0fbe1fe-e2d8-4b59-8260-0170fbbf8b39"},"vehicle_type_id":"4","last_reported":1741345659,"current_range_meters":11600,"station_id":"ce4bgjp2rcd13ifvqbh0","pricing_plan_id":"cebpf4jnsgd1na2vs0mg"},{"bike_id":"6b227f98-fb39-4fe1-9b3c-568c0697c999","system_id":"levelo_inurba_marseille","lat":43.3106,"lon":5.3837,"is_reserved":false,"is_disabled":false,"rental_uris":{"android":"levelo://app?vid=6b227f98-fb39-4fe1-9b3c-568c0697c999","ios":"levelo://app?vid=6b227f98-fb39-4fe1-9b3c-568c0697c999"},"vehicle_type_id":"4","last_reported":1741345659,"current_range_meters":12000,"station_id":"ce4bgv92rcd13ifvqcr0","pricing_plan_id":"cebpf4jnsgd1na2vs0mg"},{"bike_id":"707f7ab7-3329-4bbe-a15e-b7a9d9e721c7","system_id":"levelo_inurba_marseille","lat":43.31218,"lon":5.36868,"is_reserved":false,"is_disabled":false,"rental_uris":{"android":"levelo://app?vid=707f7ab7-3329-4bbe-a15e-b7a9d9e721c7","ios":"levelo://app?vid=707f7ab7-3329-4bbe-a15e-b7a9d9e721c7"},"vehicle_type_id":"4","last_reported":1741345659,"current_range_meters":12000,"station_id":"ce4bgl92rcd13ifvqbq0","pricing_plan_id":"cebpf4jnsgd1na2vs0mg"},{"bike_id":"3949e300-2dbd-4203-aa58-eef0b1b0c774","system_id":"levelo_inurba_marseille","lat":43.337879,"lon":5.37436,"is_reserved":false,"is_disabled":false,"rental_uris":{"android":"levelo://app?vid=3949e300-2dbd-4203-aa58-eef0b1b0c774","ios":"levelo://app?vid=3949e300-2dbd-4203-aa58-eef0b1b0c774"},"vehicle_type_id":"4","last_reported":1741345659,"current_range_meters":12400,"station_id":"","pricing_plan_id":"cebpf4jnsgd1na2vs0mg"},{"bike_id":"a798769a-1315-41cd-8151-fc154c0ee497","system_id":"levelo_inurba_marseille","lat":43.27828,"lon":5.40718,"is_reserved":false,"is_disabled":false,"rental_uris":{"android":"levelo://app?vid=a798769a-1315-41cd-8151-fc154c0ee497","ios":"levelo://app?vid=a798769a-1315-41cd-8151-fc154c0ee497"},"vehicle_type_id":"4","last_reported":1741345659,"current_range_meters":12400,"station_id":"ce4bhnh2rcd13ifvqgtg","pricing_plan_id":"cebpf4jnsgd1na2vs0mg"},{"bike_id":"68a18bc7-5ff2-4c57-b77e-7e1e991e0543","system_id":"levelo_inurba_marseille","lat":43.30434,"lon":5.39741,"is_reserved":false,"is_disabled":false,"rental_uris":{"android":"levelo://app?vid=68a18bc7-5ff2-4c57-b77e-7e1e991e0543","ios":"levelo://app?vid=68a18bc7-5ff2-4c57-b77e-7e1e991e0543"},"vehicle_type_id":"4","last_reported":1741345659,"current_range_meters":12400,"station_id":"ce4bh092rcd13ifvqd20","pricing_plan_id":"cebpf4jnsgd1na2vs0mg"},{"bike_id":"f0b16664-35ff-4b50-accb-34ad742ef185","system_id":"levelo_inurba_marseille","lat":43.30304,"lon":5.368774,"is_reserved":false,"is_disabled":false,"rental_uris":{"android":"levelo://app?vid=f0b16664-35ff-4b50-accb-34ad742ef185","ios":"levelo://app?vid=f0b16664-35ff-4b50-accb-34ad742ef185"},"vehicle_type_id":"4","last_reported":1741345659,"current_range_meters":12400,"station_id":"ce4bgi92rcd13ifvqb90","pricing_plan_id":"cebpf4jnsgd1na2vs0mg"},{"bike_id":"6d7e0450-89ad-4e81-9f4f-61db2e3e009a","system_id":"levelo_inurba_marseille","lat":43.2989,"lon":5.43646,"is_reserved":false,"is_disabled":false,"rental_uris":{"android":"levelo://app?vid=6d7e0450-89ad-4e81-9f4f-61db2e3e009a","ios":"levelo://app?vid=6d7e0450-89ad-4e81-9f4f-61db2e3e009a"},"vehicle_type_id":"4","last_reported":1741345659,"current_range_meters":12800,"station_id":"ce4bhpp2rcd13ifvqhfg","pricing_plan_id":"cebpf4jnsgd1na2vs0mg"},{"bike_id":"00cab53e-c5c3-43b1-a491-2c38efeecd93","system_id":"levelo_inurba_marseille","lat":43.24993,"lon":5.38924,"is_reserved":false,"is_disabled":false,"rental_uris":{"android":"levelo://app?vid=00cab53e-c5c3-43b1-a491-2c38efeecd93","ios":"levelo://app?vid=00cab53e-c5c3-43b1-a491-2c38efeecd93"},"vehicle_type_id":"4","last_reported":1741345659,"current_range_meters":12800,"station_id":"ce4bhgp2rcd13ifvqfd0","pricing_plan_id":"cebpf4jnsgd1na2vs0mg"},{"bike_id":"9efbff90-6380-4e58-8359-a0c4a1eca8c5","system_id":"levelo_inurba_marseille","lat":43.32372,"lon":5.38879,"is_reserved":false,"is_disabled":false,"rental_uris":{"android":"levelo://app?vid=9efbff90-6380-4e58-8359-a0c4a1eca8c5","ios":"levelo://app?vid=9efbff90-6380-4e58-8359-a0c4a1eca8c5"},"vehicle_type_id":"4","last_reported":1741345659,"current_range_meters":12800,"station_id":"ce4bhqp2rcd13ifvqhog","pricing_plan_id":"cebpf4jnsgd1na2vs0mg"},{"bike_id":"6152b505-bdaa-4154-9904-8e28b1c35e0b","system_id":"levelo_inurba_marseille","lat":43.27812,"lon":5.40709,"is_reserved":false,"is_disabled":false,"rental_uris":{"android":"levelo://app?vid=6152b505-bdaa-4154-9904-8e28b1c35e0b","ios":"levelo://app?vid=6152b505-bdaa-4154-9904-8e28b1c35e0b"},"vehicle_type_id":"4","last_reported":1741345659,"current_range_meters":12800,"station_id":"ce4bhnh2rcd13ifvqgtg","pricing_plan_id":"cebpf4jnsgd1na2vs0mg"},{"bike_id":"335978ae-5d3c-4013-adc2-831dd702eedf","system_id":"levelo_inurba_marseille","lat":43.27176,"lon":5.4099,"is_reserved":false,"is_disabled":false,"rental_uris":{"android":"levelo://app?vid=335978ae-5d3c-4013-adc2-831dd702eedf","ios":"levelo://app?vid=335978ae-5d3c-4013-adc2-831dd702eedf"},"vehicle_type_id":"4","last_reported":1741345659,"current_range_meters":12800,"station_id":"ce4bhl12rcd13ifvqgf0","pricing_plan_id":"cebpf4jnsgd1na2vs0mg"},{"bike_id":"bf43dfe3-8f66-4b1c-8fda-fd69b33eb23c","system_id":"levelo_inurba_marseille","lat":43.30461,"lon":5.37906,"is_reserved":false,"is_disabled":false,"rental_uris":{"android":"levelo://app?vid=bf43dfe3-8f66-4b1c-8fda-fd69b33eb23c","ios":"levelo://app?vid=bf43dfe3-8f66-4b1c-8fda-fd69b33eb23c"},"vehicle_type_id":"4","last_reported":1741345659,"current_range_meters":13600,"station_id":"ce4bgup2rcd13ifvqcn0","pricing_plan_id":"cebpf4jnsgd1na2vs0mg"},{"bike_id":"d884c72f-bdf1-47a5-8867-314c8cba6e88","system_id":"levelo_inurba_marseille","lat":43.26215,"lon":5.37438,"is_reserved":false,"is_disabled":false,"rental_uris":{"android":"levelo://app?vid=d884c72f-bdf1-47a5-8867-314c8cba6e88","ios":"levelo://app?vid=d884c72f-bdf1-47a5-8867-314c8cba6e88"},"vehicle_type_id":"4","last_reported":1741345659,"current_range_meters":13600,"station_id":"ce4bhgp2rcd13ifvqfc0","pricing_plan_id":"cebpf4jnsgd1na2vs0mg"},{"bike_id":"c53ffb14-3aba-45ef-9a7a-1baf57388aed","system_id":"levelo_inurba_marseille","lat":43.30541,"lon":5.36501,"is_reserved":false,"is_disabled":false,"rental_uris":{"android":"levelo://app?vid=c53ffb14-3aba-45ef-9a7a-1baf57388aed","ios":"levelo://app?vid=c53ffb14-3aba-45ef-9a7a-1baf57388aed"},"vehicle_type_id":"4","last_reported":1741345659,"current_range_meters":13600,"station_id":"","pricing_plan_id":"cebpf4jnsgd1na2vs0mg"},{"bike_id":"3a41131e-d4b1-4802-9eac-559cbd0bdf2c","system_id":"levelo_inurba_marseille","lat":43.29572,"lon":5.37502,"is_reserved":false,"is_disabled":false,"rental_uris":{"android":"levelo://app?vid=3a41131e-d4b1-4802-9eac-559cbd0bdf2c","ios":"levelo://app?vid=3a41131e-d4b1-4802-9eac-559cbd0bdf2c"},"vehicle_type_id":"4","last_reported":1741345659,"current_range_meters":13600,"station_id":"ce4bgh92rcd13ifvqb50","pricing_plan_id":"cebpf4jnsgd1na2vs0mg"},{"bike_id":"32efc770-f82a-4ba7-ac2a-c1148c50914f","system_id":"levelo_inurba_marseille","lat":43.28936,"lon":5.36391,"is_reserved":false,"is_disabled":false,"rental_uris":{"android":"levelo://app?vid=32efc770-f82a-4ba7-ac2a-c1148c50914f","ios":"levelo://app?vid=32efc770-f82a-4ba7-ac2a-c1148c50914f"},"vehicle_type_id":"4","last_reported":1741345659,"current_range_meters":13600,"station_id":"ce4bhc92rcd13ifvqetg","pricing_plan_id":"cebpf4jnsgd1na2vs0mg"},{"bike_id":"33c3461d-33a4-42b7-aaad-38e2706134ea","system_id":"levelo_inurba_marseille","lat":43.2594,"lon":5.40899,"is_reserved":false,"is_disabled":false,"rental_uris":{"android":"levelo://app?vid=33c3461d-33a4-42b7-aaad-38e2706134ea","ios":"levelo://app?vid=33c3461d-33a4-42b7-aaad-38e2706134ea"},"vehicle_type_id":"4","last_reported":1741345659,"current_range_meters":13600,"station_id":"ce4bhm92rcd13ifvqglg","pricing_plan_id":"cebpf4jnsgd1na2vs0mg"},{"bike_id":"62c4c10f-4cee-4f4d-a248-1e792569408d","system_id":"levelo_inurba_marseille","lat":43.312451,"lon":5.402194,"is_reserved":false,"is_disabled":false,"rental_uris":{"android":"levelo://app?vid=62c4c10f-4cee-4f4d-a248-1e792569408d","ios":"levelo://app?vid=62c4c10f-4cee-4f4d-a248-1e792569408d"},"vehicle_type_id":"4","last_reported":1741345659,"current_range_meters":13600,"station_id":"ce4bh092rcd13ifvqd30","pricing_plan_id":"cebpf4jnsgd1na2vs0mg"},{"bike_id":"e6472cf0-0ad7-491d-9b42-ba9a1b7210e2","system_id":"levelo_inurba_marseille","lat":43.29868,"lon":5.43672,"is_reserved":false,"is_disabled":false,"rental_uris":{"android":"levelo://app?vid=e6472cf0-0ad7-491d-9b42-ba9a1b7210e2","ios":"levelo://app?vid=e6472cf0-0ad7-491d-9b42-ba9a1b7210e2"},"vehicle_type_id":"4","last_reported":1741345659,"current_range_meters":14000,"station_id":"ce4bhpp2rcd13ifvqhfg","pricing_plan_id":"cebpf4jnsgd1na2vs0mg"},{"bike_id":"c82535d2-e5d8-490f-98c7-57a8ec857f98","system_id":"levelo_inurba_marseille","lat":43.24166,"lon":5.36395,"is_reserved":false,"is_disabled":false,"rental_uris":{"android":"levelo://app?vid=c82535d2-e5d8-490f-98c7-57a8ec857f98","ios":"levelo://app?vid=c82535d2-e5d8-490f-98c7-57a8ec857f98"},"vehicle_type_id":"4","last_reported":1741345659,"current_range_meters":14000,"station_id":"cpo36qri1sfpv3e86is0","pricing_plan_id":"cebpf4jnsgd1na2vs0mg"},{"bike_id":"fab6f1c4-abd4-4202-8158-b82c808ff632","system_id":"levelo_inurba_marseille","lat":43.30153,"lon":5.38077,"is_reserved":false,"is_disabled":false,"rental_uris":{"android":"levelo://app?vid=fab6f1c4-abd4-4202-8158-b82c808ff632","ios":"levelo://app?vid=fab6f1c4-abd4-4202-8158-b82c808ff632"},"vehicle_type_id":"4","last_reported":1741345659,"current_range_meters":14000,"station_id":"ce4bgjp2rcd13ifvqbh0","pricing_plan_id":"cebpf4jnsgd1na2vs0mg"},{"bike_id":"bd301c68-8ab1-4151-a20c-5c2dc71e7ee1","system_id":"levelo_inurba_marseille","lat":43.28103,"lon":5.37832,"is_reserved":false,"is_disabled":false,"rental_uris":{"android":"levelo://app?vid=bd301c68-8ab1-4151-a20c-5c2dc71e7ee1","ios":"levelo://app?vid=bd301c68-8ab1-4151-a20c-5c2dc71e7ee1"},"vehicle_type_id":"4","last_reported":1741345659,"current_range_meters":13600,"station_id":"ce4bha12rcd13ifvqee0","pricing_plan_id":"cebpf4jnsgd1na2vs0mg"},{"bike_id":"0e674cb4-f37d-4bd5-aaff-7ec953d386c6","system_id":"levelo_inurba_marseille","lat":43.24168,"lon":5.36402,"is_reserved":false,"is_disabled":false,"rental_uris":{"android":"levelo://app?vid=0e674cb4-f37d-4bd5-aaff-7ec953d386c6","ios":"levelo://app?vid=0e674cb4-f37d-4bd5-aaff-7ec953d386c6"},"vehicle_type_id":"4","last_reported":1741345659,"current_range_meters":14000,"station_id":"cpo36qri1sfpv3e86is0","pricing_plan_id":"cebpf4jnsgd1na2vs0mg"},{"bike_id":"6dc172cc-bafc-4383-897b-623fe4e9d3d1","system_id":"levelo_inurba_marseille","lat":43.30551,"lon":5.36547,"is_reserved":false,"is_disabled":false,"rental_uris":{"android":"levelo://app?vid=6dc172cc-bafc-4383-897b-623fe4e9d3d1","ios":"levelo://app?vid=6dc172cc-bafc-4383-897b-623fe4e9d3d1"},"vehicle_type_id":"4","last_reported":1741345659,"current_range_meters":14000,"station_id":"ce4bgs12rcd13ifvqcag","pricing_plan_id":"cebpf4jnsgd1na2vs0mg"},{"bike_id":"3c94b931-3649-4c69-bf1c-99f8fd15e284","system_id":"levelo_inurba_marseille","lat":43.324912,"lon":5.365783,"is_reserved":false,"is_disabled":false,"rental_uris":{"android":"levelo://app?vid=3c94b931-3649-4c69-bf1c-99f8fd15e284","ios":"levelo://app?vid=3c94b931-3649-4c69-bf1c-99f8fd15e284"},"vehicle_type_id":"4","last_reported":1741345659,"current_range_meters":14400,"station_id":"ce4bhs12rcd13ifvqhvg","pricing_plan_id":"cebpf4jnsgd1na2vs0mg"},{"bike_id":"60dbdfe4-0290-459f-80b1-32d771207de8","system_id":"levelo_inurba_marseille","lat":43.23966,"lon":5.36635,"is_reserved":false,"is_disabled":false,"rental_uris":{"android":"levelo://app?vid=60dbdfe4-0290-459f-80b1-32d771207de8","ios":"levelo://app?vid=60dbdfe4-0290-459f-80b1-32d771207de8"},"vehicle_type_id":"4","last_reported":1741345659,"current_range_meters":14000,"station_id":"ce4bhi12rcd13ifvqfp0","pricing_plan_id":"cebpf4jnsgd1na2vs0mg"},{"bike_id":"1ff404ea-bf89-42ea-8037-55faf4de1171","system_id":"levelo_inurba_marseille","lat":43.29512,"lon":5.39396,"is_reserved":false,"is_disabled":false,"rental_uris":{"android":"levelo://app?vid=1ff404ea-bf89-42ea-8037-55faf4de1171","ios":"levelo://app?vid=1ff404ea-bf89-42ea-8037-55faf4de1171"},"vehicle_type_id":"4","last_reported":1741345659,"current_range_meters":14000,"station_id":"ce4bh292rcd13ifvqdf0","pricing_plan_id":"cebpf4jnsgd1na2vs0mg"},{"bike_id":"6ae77951-a909-4dfa-a933-35324bca41b7","system_id":"levelo_inurba_marseille","lat":43.25011,"lon":5.38914,"is_reserved":false,"is_disabled":false,"rental_uris":{"android":"levelo://app?vid=6ae77951-a909-4dfa-a933-35324bca41b7","ios":"levelo://app?vid=6ae77951-a909-4dfa-a933-35324bca41b7"},"vehicle_type_id":"4","last_reported":1741345659,"current_range_meters":14400,"station_id":"ce4bhgp2rcd13ifvqfd0","pricing_plan_id":"cebpf4jnsgd1na2vs0mg"},{"bike_id":"03f5d243-4bbf-4f35-bac0-b02895569151","system_id":"levelo_inurba_marseille","lat":43.24793,"lon":5.37448,"is_reserved":false,"is_disabled":false,"rental_uris":{"android":"levelo://app?vid=03f5d243-4bbf-4f35-bac0-b02895569151","ios":"levelo://app?vid=03f5d243-4bbf-4f35-bac0-b02895569151"},"vehicle_type_id":"4","last_reported":1741345659,"current_range_meters":14400,"station_id":"ce4bhgh2rcd13ifvqfb0","pricing_plan_id":"cebpf4jnsgd1na2vs0mg"},{"bike_id":"7372ba19-4949-453e-a20c-490c28817add","system_id":"levelo_inurba_marseille","lat":43.337752,"lon":5.374517,"is_reserved":false,"is_disabled":false,"rental_uris":{"android":"levelo://app?vid=7372ba19-4949-453e-a20c-490c28817add","ios":"levelo://app?vid=7372ba19-4949-453e-a20c-490c28817add"},"vehicle_type_id":"4","last_reported":1741345659,"current_range_meters":14800,"station_id":"","pricing_plan_id":"cebpf4jnsgd1na2vs0mg"},{"bike_id":"a2a365fa-95eb-404e-b2e8-54d6d8c38496","system_id":"levelo_inurba_marseille","lat":43.25,"lon":5.38929,"is_reserved":false,"is_disabled":false,"rental_uris":{"android":"levelo://app?vid=a2a365fa-95eb-404e-b2e8-54d6d8c38496","ios":"levelo://app?vid=a2a365fa-95eb-404e-b2e8-54d6d8c38496"},"vehicle_type_id":"4","last_reported":1741345659,"current_range_meters":14800,"station_id":"ce4bhgp2rcd13ifvqfd0","pricing_plan_id":"cebpf4jnsgd1na2vs0mg"},{"bike_id":"e524bcef-a391-41b2-bad2-673eae53ea51","system_id":"levelo_inurba_marseille","lat":43.31708,"lon":5.43704,"is_reserved":false,"is_disabled":false,"rental_uris":{"android":"levelo://app?vid=e524bcef-a391-41b2-bad2-673eae53ea51","ios":"levelo://app?vid=e524bcef-a391-41b2-bad2-673eae53ea51"},"vehicle_type_id":"4","last_reported":1741345659,"current_range_meters":14800,"station_id":"ce4bhp92rcd13ifvqhcg","pricing_plan_id":"cebpf4jnsgd1na2vs0mg"},{"bike_id":"4d6d1af5-5c8f-41d6-b0f4-e41a5cb15aa9","system_id":"levelo_inurba_marseille","lat":43.27052,"lon":5.4026,"is_reserved":false,"is_disabled":false,"rental_uris":{"android":"levelo://app?vid=4d6d1af5-5c8f-41d6-b0f4-e41a5cb15aa9","ios":"levelo://app?vid=4d6d1af5-5c8f-41d6-b0f4-e41a5cb15aa9"},"vehicle_type_id":"4","last_reported":1741345659,"current_range_meters":14800,"station_id":"ce4bhk92rcd13ifvqgc0","pricing_plan_id":"cebpf4jnsgd1na2vs0mg"},{"bike_id":"dac09d9e-9ab6-4c54-8fe2-7fcfc9203869","system_id":"levelo_inurba_marseille","lat":43.26549,"lon":5.37315,"is_reserved":false,"is_disabled":true,"rental_uris":{"android":"levelo://app?vid=dac09d9e-9ab6-4c54-8fe2-7fcfc9203869","ios":"levelo://app?vid=dac09d9e-9ab6-4c54-8fe2-7fcfc9203869"},"vehicle_type_id":"4","last_reported":1741345659,"current_range_meters":14800,"station_id":"ce4bhg12rcd13ifvqf70","pricing_plan_id":"cebpf4jnsgd1na2vs0mg"},{"bike_id":"9754e90c-762d-46c6-aaae-68b94226291c","system_id":"levelo_inurba_marseille","lat":43.27563,"lon":5.38415,"is_reserved":false,"is_disabled":false,"rental_uris":{"android":"levelo://app?vid=9754e90c-762d-46c6-aaae-68b94226291c","ios":"levelo://app?vid=9754e90c-762d-46c6-aaae-68b94226291c"},"vehicle_type_id":"4","last_reported":1741345659,"current_range_meters":14400,"station_id":"ce4bhh92rcd13ifvqfi0","pricing_plan_id":"cebpf4jnsgd1na2vs0mg"},{"bike_id":"ad9a8406-e1b8-4c43-83e7-6ca47ad1435f","system_id":"levelo_inurba_marseille","lat":43.25008,"lon":5.38943,"is_reserved":false,"is_disabled":false,"rental_uris":{"android":"levelo://app?vid=ad9a8406-e1b8-4c43-83e7-6ca47ad1435f","ios":"levelo://app?vid=ad9a8406-e1b8-4c43-83e7-6ca47ad1435f"},"vehicle_type_id":"4","last_reported":1741345659,"current_range_meters":14800,"station_id":"ce4bhgp2rcd13ifvqfd0","pricing_plan_id":"cebpf4jnsgd1na2vs0mg"},{"bike_id":"97d1125e-23bd-4986-a8c2-161949a8b183","system_id":"levelo_inurba_marseille","lat":43.30549,"lon":5.36512,"is_reserved":false,"is_disabled":false,"rental_uris":{"android":"levelo://app?vid=97d1125e-23bd-4986-a8c2-161949a8b183","ios":"levelo://app?vid=97d1125e-23bd-4986-a8c2-161949a8b183"},"vehicle_type_id":"4","last_reported":1741345659,"current_range_meters":15200,"station_id":"ce4bgs12rcd13ifvqcag","pricing_plan_id":"cebpf4jnsgd1na2vs0mg"},{"bike_id":"a59c941d-b9d9-4002-b926-de5d10e62478","system_id":"levelo_inurba_marseille","lat":43.2417,"lon":5.36394,"is_reserved":false,"is_disabled":false,"rental_uris":{"android":"levelo://app?vid=a59c941d-b9d9-4002-b926-de5d10e62478","ios":"levelo://app?vid=a59c941d-b9d9-4002-b926-de5d10e62478"},"vehicle_type_id":"4","last_reported":1741345659,"current_range_meters":15200,"station_id":"cpo36qri1sfpv3e86is0","pricing_plan_id":"cebpf4jnsgd1na2vs0mg"},{"bike_id":"5ab2001e-22b6-4441-9cbe-2789bb8f2209","system_id":"levelo_inurba_marseille","lat":43.33617,"lon":5.41024,"is_reserved":false,"is_disabled":false,"rental_uris":{"android":"levelo://app?vid=5ab2001e-22b6-4441-9cbe-2789bb8f2209","ios":"levelo://app?vid=5ab2001e-22b6-4441-9cbe-2789bb8f2209"},"vehicle_type_id":"4","last_reported":1741345659,"current_range_meters":15200,"station_id":"ce4bhqh2rcd13ifvqhmg","pricing_plan_id":"cebpf4jnsgd1na2vs0mg"},{"bike_id":"774026a5-9fc8-4fae-9ff9-5683c7e9ae78","system_id":"levelo_inurba_marseille","lat":43.25008,"lon":5.38921,"is_reserved":false,"is_disabled":true,"rental_uris":{"android":"levelo://app?vid=774026a5-9fc8-4fae-9ff9-5683c7e9ae78","ios":"levelo://app?vid=774026a5-9fc8-4fae-9ff9-5683c7e9ae78"},"vehicle_type_id":"4","last_reported":1741345659,"current_range_meters":15200,"station_id":"ce4bhgp2rcd13ifvqfd0","pricing_plan_id":"cebpf4jnsgd1na2vs0mg"},{"bike_id":"7f465ac6-ce9f-42f3-bef2-da92efc16988","system_id":"levelo_inurba_marseille","lat":43.30605,"lon":5.37219,"is_reserved":false,"is_disabled":false,"rental_uris":{"android":"levelo://app?vid=7f465ac6-ce9f-42f3-bef2-da92efc16988","ios":"levelo://app?vid=7f465ac6-ce9f-42f3-bef2-da92efc16988"},"vehicle_type_id":"4","last_reported":1741345659,"current_range_meters":15200,"station_id":"ce4bgqh2rcd13ifvqc4g","pricing_plan_id":"cebpf4jnsgd1na2vs0mg"},{"bike_id":"469f693c-b20c-4425-9336-92ddb645d539","system_id":"levelo_inurba_marseille","lat":43.27208,"lon":5.39184,"is_reserved":false,"is_disabled":false,"rental_uris":{"android":"levelo://app?vid=469f693c-b20c-4425-9336-92ddb645d539","ios":"levelo://app?vid=469f693c-b20c-4425-9336-92ddb645d539"},"vehicle_type_id":"4","last_reported":1741345659,"current_range_meters":14800,"station_id":"ce4bhhp2rcd13ifvqfm0","pricing_plan_id":"cebpf4jnsgd1na2vs0mg"},{"bike_id":"37c795b7-c172-41a1-a38f-2f25494fb3e3","system_id":"levelo_inurba_marseille","lat":43.2594,"lon":5.40901,"is_reserved":false,"is_disabled":false,"rental_uris":{"android":"levelo://app?vid=37c795b7-c172-41a1-a38f-2f25494fb3e3","ios":"levelo://app?vid=37c795b7-c172-41a1-a38f-2f25494fb3e3"},"vehicle_type_id":"4","last_reported":1741345659,"current_range_meters":16000,"station_id":"ce4bhm92rcd13ifvqglg","pricing_plan_id":"cebpf4jnsgd1na2vs0mg"},{"bike_id":"93ee5eb5-bc07-4fa4-84ef-fcef721c938d","system_id":"levelo_inurba_marseille","lat":43.28272,"lon":5.35069,"is_reserved":false,"is_disabled":true,"rental_uris":{"android":"levelo://app?vid=93ee5eb5-bc07-4fa4-84ef-fcef721c938d","ios":"levelo://app?vid=93ee5eb5-bc07-4fa4-84ef-fcef721c938d"},"vehicle_type_id":"4","last_reported":1741345659,"current_range_meters":16000,"station_id":"ce4bhbp2rcd13ifvqerg","pricing_plan_id":"cebpf4jnsgd1na2vs0mg"},{"bike_id":"f4ed0edb-28d6-45bc-a5bc-4059639d75f5","system_id":"levelo_inurba_marseille","lat":43.284783,"lon":5.385538,"is_reserved":false,"is_disabled":false,"rental_uris":{"android":"levelo://app?vid=f4ed0edb-28d6-45bc-a5bc-4059639d75f5","ios":"levelo://app?vid=f4ed0edb-28d6-45bc-a5bc-4059639d75f5"},"vehicle_type_id":"4","last_reported":1741345659,"current_range_meters":15200,"station_id":"ce4bgi92rcd13ifvqb90","pricing_plan_id":"cebpf4jnsgd1na2vs0mg"},{"bike_id":"42168c6f-35a5-43f2-8ef8-61a75051262d","system_id":"levelo_inurba_marseille","lat":43.28162,"lon":5.4264,"is_reserved":false,"is_disabled":true,"rental_uris":{"android":"levelo://app?vid=42168c6f-35a5-43f2-8ef8-61a75051262d","ios":"levelo://app?vid=42168c6f-35a5-43f2-8ef8-61a75051262d"},"vehicle_type_id":"4","last_reported":1741345659,"current_range_meters":16000,"station_id":"ce4bhnh2rcd13ifvqgug","pricing_plan_id":"cebpf4jnsgd1na2vs0mg"},{"bike_id":"db1c7047-7b9f-4b56-96ef-3b289cb537df","system_id":"levelo_inurba_marseille","lat":43.30824,"lon":5.37414,"is_reserved":false,"is_disabled":false,"rental_uris":{"android":"levelo://app?vid=db1c7047-7b9f-4b56-96ef-3b289cb537df","ios":"levelo://app?vid=db1c7047-7b9f-4b56-96ef-3b289cb537df"},"vehicle_type_id":"4","last_reported":1741345659,"current_range_meters":16000,"station_id":"","pricing_plan_id":"cebpf4jnsgd1na2vs0mg"},{"bike_id":"b1d03295-5a4c-4b8b-ad8e-3dbefaa793f2","system_id":"levelo_inurba_marseille","lat":43.23203,"lon":5.3555,"is_reserved":false,"is_disabled":false,"rental_uris":{"android":"levelo://app?vid=b1d03295-5a4c-4b8b-ad8e-3dbefaa793f2","ios":"levelo://app?vid=b1d03295-5a4c-4b8b-ad8e-3dbefaa793f2"},"vehicle_type_id":"4","last_reported":1741345659,"current_range_meters":16000,"station_id":"ce4bhu92rcd13ifvqi70","pricing_plan_id":"cebpf4jnsgd1na2vs0mg"},{"bike_id":"82db4453-e14c-4c00-b173-f9c2f72d3897","system_id":"levelo_inurba_marseille","lat":43.28687,"lon":5.38678,"is_reserved":false,"is_disabled":true,"rental_uris":{"android":"levelo://app?vid=82db4453-e14c-4c00-b173-f9c2f72d3897","ios":"levelo://app?vid=82db4453-e14c-4c00-b173-f9c2f72d3897"},"vehicle_type_id":"4","last_reported":1741345659,"current_range_meters":15200,"station_id":"ce4bh492rcd13ifvqdug","pricing_plan_id":"cebpf4jnsgd1na2vs0mg"},{"bike_id":"1da9727a-97d2-474b-b023-3c51f5326d11","system_id":"levelo_inurba_marseille","lat":43.28721,"lon":5.36089,"is_reserved":false,"is_disabled":false,"rental_uris":{"android":"levelo://app?vid=1da9727a-97d2-474b-b023-3c51f5326d11","ios":"levelo://app?vid=1da9727a-97d2-474b-b023-3c51f5326d11"},"vehicle_type_id":"4","last_reported":1741345659,"current_range_meters":16000,"station_id":"cki0cbj6b192h4jlfktg","pricing_plan_id":"cebpf4jnsgd1na2vs0mg"},{"bike_id":"f3830b21-15dc-4615-9f57-64b00e552e0c","system_id":"levelo_inurba_marseille","lat":46.141408,"lon":6.094067,"is_reserved":false,"is_disabled":false,"rental_uris":{"android":"levelo://app?vid=f3830b21-15dc-4615-9f57-64b00e552e0c","ios":"levelo://app?vid=f3830b21-15dc-4615-9f57-64b00e552e0c"},"vehicle_type_id":"4","last_reported":1741345659,"current_range_meters":16000,"station_id":"ce4bgjp2rcd13ifvqbh0","pricing_plan_id":"cebpf4jnsgd1na2vs0mg"},{"bike_id":"76938046-bcd7-40dc-9765-8dc92266892c","system_id":"levelo_inurba_marseille","lat":43.28991,"lon":5.38129,"is_reserved":false,"is_disabled":false,"rental_uris":{"android":"levelo://app?vid=76938046-bcd7-40dc-9765-8dc92266892c","ios":"levelo://app?vid=76938046-bcd7-40dc-9765-8dc92266892c"},"vehicle_type_id":"4","last_reported":1741345659,"current_range_meters":16000,"station_id":"ce4bh4p2rcd13ifvqe1g","pricing_plan_id":"cebpf4jnsgd1na2vs0mg"},{"bike_id":"870c8d05-28b1-4b06-8dd5-7ae6b42d2e98","system_id":"levelo_inurba_marseille","lat":43.26211,"lon":5.37923,"is_reserved":false,"is_disabled":false,"rental_uris":{"android":"levelo://app?vid=870c8d05-28b1-4b06-8dd5-7ae6b42d2e98","ios":"levelo://app?vid=870c8d05-28b1-4b06-8dd5-7ae6b42d2e98"},"vehicle_type_id":"4","last_reported":1741345659,"current_range_meters":16400,"station_id":"","pricing_plan_id":"cebpf4jnsgd1na2vs0mg"},{"bike_id":"f6230f80-cb7c-4adb-bb20-24914c3f777a","system_id":"levelo_inurba_marseille","lat":43.292019,"lon":5.39328,"is_reserved":false,"is_disabled":false,"rental_uris":{"android":"levelo://app?vid=f6230f80-cb7c-4adb-bb20-24914c3f777a","ios":"levelo://app?vid=f6230f80-cb7c-4adb-bb20-24914c3f777a"},"vehicle_type_id":"4","last_reported":1741345659,"current_range_meters":16400,"station_id":"ce4bh4p2rcd13ifvqe0g","pricing_plan_id":"cebpf4jnsgd1na2vs0mg"},{"bike_id":"f8ee3c12-40d2-4e44-bc5c-d22488d3e808","system_id":"levelo_inurba_marseille","lat":43.30492,"lon":5.36669,"is_reserved":false,"is_disabled":false,"rental_uris":{"android":"levelo://app?vid=f8ee3c12-40d2-4e44-bc5c-d22488d3e808","ios":"levelo://app?vid=f8ee3c12-40d2-4e44-bc5c-d22488d3e808"},"vehicle_type_id":"4","last_reported":1741345659,"current_range_meters":16400,"station_id":"ce4bgrp2rcd13ifvqc9g","pricing_plan_id":"cebpf4jnsgd1na2vs0mg"},{"bike_id":"e6a6578a-0758-4e9d-ada5-5334a9480b65","system_id":"levelo_inurba_marseille","lat":43.30528,"lon":5.36708,"is_reserved":false,"is_disabled":false,"rental_uris":{"android":"levelo://app?vid=e6a6578a-0758-4e9d-ada5-5334a9480b65","ios":"levelo://app?vid=e6a6578a-0758-4e9d-ada5-5334a9480b65"},"vehicle_type_id":"4","last_reported":1741345659,"current_range_meters":16400,"station_id":"ce4bgrp2rcd13ifvqc9g","pricing_plan_id":"cebpf4jnsgd1na2vs0mg"},{"bike_id":"25db000e-d19c-4398-ae97-e9e1deee0744","system_id":"levelo_inurba_marseille","lat":43.29755,"lon":5.37138,"is_reserved":false,"is_disabled":false,"rental_uris":{"android":"levelo://app?vid=25db000e-d19c-4398-ae97-e9e1deee0744","ios":"levelo://app?vid=25db000e-d19c-4398-ae97-e9e1deee0744"},"vehicle_type_id":"4","last_reported":1741345659,"current_range_meters":16400,"station_id":"ce4bgop2rcd13ifvqc1g","pricing_plan_id":"cebpf4jnsgd1na2vs0mg"},{"bike_id":"34fca5e7-8353-4d68-89e6-b1d671353da7","system_id":"levelo_inurba_marseille","lat":43.32361,"lon":5.38922,"is_reserved":false,"is_disabled":false,"rental_uris":{"android":"levelo://app?vid=34fca5e7-8353-4d68-89e6-b1d671353da7","ios":"levelo://app?vid=34fca5e7-8353-4d68-89e6-b1d671353da7"},"vehicle_type_id":"4","last_reported":1741345659,"current_range_meters":16400,"station_id":"ce4bhqp2rcd13ifvqhog","pricing_plan_id":"cebpf4jnsgd1na2vs0mg"},{"bike_id":"b7ebb507-73d5-4aad-a5f5-f0faed745d44","system_id":"levelo_inurba_marseille","lat":43.29611,"lon":5.38092,"is_reserved":false,"is_disabled":false,"rental_uris":{"android":"levelo://app?vid=b7ebb507-73d5-4aad-a5f5-f0faed745d44","ios":"levelo://app?vid=b7ebb507-73d5-4aad-a5f5-f0faed745d44"},"vehicle_type_id":"4","last_reported":1741345659,"current_range_meters":16400,"station_id":"ce4bgl12rcd13ifvqbo0","pricing_plan_id":"cebpf4jnsgd1na2vs0mg"},{"bike_id":"9b8789be-c150-4679-b8ba-e1d5e4639da2","system_id":"levelo_inurba_marseille","lat":43.25685,"lon":5.41031,"is_reserved":false,"is_disabled":false,"rental_uris":{"android":"levelo://app?vid=9b8789be-c150-4679-b8ba-e1d5e4639da2","ios":"levelo://app?vid=9b8789be-c150-4679-b8ba-e1d5e4639da2"},"vehicle_type_id":"4","last_reported":1741345659,"current_range_meters":16400,"station_id":"ce4bhkp2rcd13ifvqgd0","pricing_plan_id":"cebpf4jnsgd1na2vs0mg"},{"bike_id":"948c29ab-75e2-429f-9e01-a4b11841505d","system_id":"levelo_inurba_marseille","lat":43.25012,"lon":5.3893,"is_reserved":false,"is_disabled":true,"rental_uris":{"android":"levelo://app?vid=948c29ab-75e2-429f-9e01-a4b11841505d","ios":"levelo://app?vid=948c29ab-75e2-429f-9e01-a4b11841505d"},"vehicle_type_id":"4","last_reported":1741345659,"current_range_meters":16400,"station_id":"ce4bhgp2rcd13ifvqfd0","pricing_plan_id":"cebpf4jnsgd1na2vs0mg"},{"bike_id":"7a234828-ce11-459e-8c82-c4c9a970f721","system_id":"levelo_inurba_marseille","lat":43.31306,"lon":5.36878,"is_reserved":false,"is_disabled":false,"rental_uris":{"android":"levelo://app?vid=7a234828-ce11-459e-8c82-c4c9a970f721","ios":"levelo://app?vid=7a234828-ce11-459e-8c82-c4c9a970f721"},"vehicle_type_id":"4","last_reported":1741345659,"current_range_meters":16400,"station_id":"","pricing_plan_id":"cebpf4jnsgd1na2vs0mg"},{"bike_id":"c4c723cb-a07b-4be7-9352-175d996d4f95","system_id":"levelo_inurba_marseille","lat":43.27945,"lon":5.41035,"is_reserved":false,"is_disabled":false,"rental_uris":{"android":"levelo://app?vid=c4c723cb-a07b-4be7-9352-175d996d4f95","ios":"levelo://app?vid=c4c723cb-a07b-4be7-9352-175d996d4f95"},"vehicle_type_id":"4","last_reported":1741345659,"current_range_meters":16400,"station_id":"ce4bhnp2rcd13ifvqh0g","pricing_plan_id":"cebpf4jnsgd1na2vs0mg"},{"bike_id":"72394691-790c-4220-bfab-de88bcc1297f","system_id":"levelo_inurba_marseille","lat":43.29193,"lon":5.39333,"is_reserved":false,"is_disabled":false,"rental_uris":{"android":"levelo://app?vid=72394691-790c-4220-bfab-de88bcc1297f","ios":"levelo://app?vid=72394691-790c-4220-bfab-de88bcc1297f"},"vehicle_type_id":"4","last_reported":1741345659,"current_range_meters":16400,"station_id":"ce4bh192rcd13ifvqdd0","pricing_plan_id":"cebpf4jnsgd1na2vs0mg"},{"bike_id":"b2c2514d-58df-4080-9acc-0a3325c87525","system_id":"levelo_inurba_marseille","lat":43.32358,"lon":5.36736,"is_reserved":false,"is_disabled":false,"rental_uris":{"android":"levelo://app?vid=b2c2514d-58df-4080-9acc-0a3325c87525","ios":"levelo://app?vid=b2c2514d-58df-4080-9acc-0a3325c87525"},"vehicle_type_id":"4","last_reported":1741345659,"current_range_meters":16800,"station_id":"ce4bhsh2rcd13ifvqi2g","pricing_plan_id":"cebpf4jnsgd1na2vs0mg"},{"bike_id":"523dd7c5-08de-4faa-af09-359a3efdba9c","system_id":"levelo_inurba_marseille","lat":43.24179,"lon":5.39726,"is_reserved":false,"is_disabled":false,"rental_uris":{"android":"levelo://app?vid=523dd7c5-08de-4faa-af09-359a3efdba9c","ios":"levelo://app?vid=523dd7c5-08de-4faa-af09-359a3efdba9c"},"vehicle_type_id":"4","last_reported":1741345659,"current_range_meters":16800,"station_id":"ce4bhn12rcd13ifvqgpg","pricing_plan_id":"cebpf4jnsgd1na2vs0mg"},{"bike_id":"6901c985-3237-4a3b-8579-87e57cfd1efa","system_id":"levelo_inurba_marseille","lat":43.23962,"lon":5.36639,"is_reserved":false,"is_disabled":false,"rental_uris":{"android":"levelo://app?vid=6901c985-3237-4a3b-8579-87e57cfd1efa","ios":"levelo://app?vid=6901c985-3237-4a3b-8579-87e57cfd1efa"},"vehicle_type_id":"4","last_reported":1741345659,"current_range_meters":16800,"station_id":"ce4bhi12rcd13ifvqfp0","pricing_plan_id":"cebpf4jnsgd1na2vs0mg"},{"bike_id":"76023be1-d2fd-42c0-a616-c011d5636f4f","system_id":"levelo_inurba_marseille","lat":43.24071,"lon":5.37696,"is_reserved":false,"is_disabled":true,"rental_uris":{"android":"levelo://app?vid=76023be1-d2fd-42c0-a616-c011d5636f4f","ios":"levelo://app?vid=76023be1-d2fd-42c0-a616-c011d5636f4f"},"vehicle_type_id":"4","last_reported":1741345659,"current_range_meters":16800,"station_id":"ce4bhnp2rcd13ifvqgvg","pricing_plan_id":"cebpf4jnsgd1na2vs0mg"},{"bike_id":"79247c64-c9ad-45a4-8f6e-8000a37602c9","system_id":"levelo_inurba_marseille","lat":43.26074,"lon":5.39413,"is_reserved":false,"is_disabled":true,"rental_uris":{"android":"levelo://app?vid=79247c64-c9ad-45a4-8f6e-8000a37602c9","ios":"levelo://app?vid=79247c64-c9ad-45a4-8f6e-8000a37602c9"},"vehicle_type_id":"4","last_reported":1741345659,"current_range_meters":16800,"station_id":"ce4bhh92rcd13ifvqfj0","pricing_plan_id":"cebpf4jnsgd1na2vs0mg"},{"bike_id":"74c8e635-007e-48cf-8e7d-2a6df03477c3","system_id":"levelo_inurba_marseille","lat":43.25492,"lon":5.37644,"is_reserved":false,"is_disabled":false,"rental_uris":{"android":"levelo://app?vid=74c8e635-007e-48cf-8e7d-2a6df03477c3","ios":"levelo://app?vid=74c8e635-007e-48cf-8e7d-2a6df03477c3"},"vehicle_type_id":"4","last_reported":1741345659,"current_range_meters":16400,"station_id":"ce4bhh12rcd13ifvqff0","pricing_plan_id":"cebpf4jnsgd1na2vs0mg"},{"bike_id":"0653222c-58ae-4674-96a2-9df317c6c4f5","system_id":"levelo_inurba_marseille","lat":43.287036,"lon":5.399941,"is_reserved":false,"is_disabled":false,"rental_uris":{"android":"levelo://app?vid=0653222c-58ae-4674-96a2-9df317c6c4f5","ios":"levelo://app?vid=0653222c-58ae-4674-96a2-9df317c6c4f5"},"vehicle_type_id":"4","last_reported":1741345659,"current_range_meters":16800,"station_id":"ce4bgjp2rcd13ifvqbh0","pricing_plan_id":"cebpf4jnsgd1na2vs0mg"},{"bike_id":"1aaa2ee1-14a5-4f03-932b-2926a84b073e","system_id":"levelo_inurba_marseille","lat":43.29004,"lon":5.35616,"is_reserved":false,"is_disabled":false,"rental_uris":{"android":"levelo://app?vid=1aaa2ee1-14a5-4f03-932b-2926a84b073e","ios":"levelo://app?vid=1aaa2ee1-14a5-4f03-932b-2926a84b073e"},"vehicle_type_id":"4","last_reported":1741345659,"current_range_meters":16400,"station_id":"ce4bhb92rcd13ifvqen0","pricing_plan_id":"cebpf4jnsgd1na2vs0mg"},{"bike_id":"6255bddf-469c-4f80-b881-d6236aedf1ec","system_id":"levelo_inurba_marseille","lat":43.3149,"lon":5.37248,"is_reserved":false,"is_disabled":false,"rental_uris":{"android":"levelo://app?vid=6255bddf-469c-4f80-b881-d6236aedf1ec","ios":"levelo://app?vid=6255bddf-469c-4f80-b881-d6236aedf1ec"},"vehicle_type_id":"4","last_reported":1741345659,"current_range_meters":16800,"station_id":"ce4bgt12rcd13ifvqcd0","pricing_plan_id":"cebpf4jnsgd1na2vs0mg"},{"bike_id":"bd8d1788-21b6-4ead-b960-e6e4282b1c40","system_id":"levelo_inurba_marseille","lat":43.29912,"lon":5.37482,"is_reserved":false,"is_disabled":false,"rental_uris":{"android":"levelo://app?vid=bd8d1788-21b6-4ead-b960-e6e4282b1c40","ios":"levelo://app?vid=bd8d1788-21b6-4ead-b960-e6e4282b1c40"},"vehicle_type_id":"4","last_reported":1741345659,"current_range_meters":17200,"station_id":"ce4bgjh2rcd13ifvqbg0","pricing_plan_id":"cebpf4jnsgd1na2vs0mg"},{"bike_id":"e6fda615-fd41-4b55-a73b-5d4708966aba","system_id":"levelo_inurba_marseille","lat":43.34142,"lon":5.40895,"is_reserved":false,"is_disabled":false,"rental_uris":{"android":"levelo://app?vid=e6fda615-fd41-4b55-a73b-5d4708966aba","ios":"levelo://app?vid=e6fda615-fd41-4b55-a73b-5d4708966aba"},"vehicle_type_id":"4","last_reported":1741345659,"current_range_meters":17200,"station_id":"ce4bhqh2rcd13ifvqhlg","pricing_plan_id":"cebpf4jnsgd1na2vs0mg"},{"bike_id":"713fafb4-888f-4353-8899-9eb2d47ce57a","system_id":"levelo_inurba_marseille","lat":43.302486,"lon":5.392322,"is_reserved":false,"is_disabled":false,"rental_uris":{"android":"levelo://app?vid=713fafb4-888f-4353-8899-9eb2d47ce57a","ios":"levelo://app?vid=713fafb4-888f-4353-8899-9eb2d47ce57a"},"vehicle_type_id":"4","last_reported":1741345659,"current_range_meters":17200,"station_id":"","pricing_plan_id":"cebpf4jnsgd1na2vs0mg"},{"bike_id":"79208dfc-fd0e-45cf-bf93-4425210358ae","system_id":"levelo_inurba_marseille","lat":43.28673,"lon":5.38672,"is_reserved":false,"is_disabled":false,"rental_uris":{"android":"levelo://app?vid=79208dfc-fd0e-45cf-bf93-4425210358ae","ios":"levelo://app?vid=79208dfc-fd0e-45cf-bf93-4425210358ae"},"vehicle_type_id":"4","last_reported":1741345659,"current_range_meters":17200,"station_id":"ce4bh492rcd13ifvqdug","pricing_plan_id":"cebpf4jnsgd1na2vs0mg"},{"bike_id":"b074c098-105a-483f-9325-0896897af1e3","system_id":"levelo_inurba_marseille","lat":43.23167,"lon":5.39947,"is_reserved":false,"is_disabled":false,"rental_uris":{"android":"levelo://app?vid=b074c098-105a-483f-9325-0896897af1e3","ios":"levelo://app?vid=b074c098-105a-483f-9325-0896897af1e3"},"vehicle_type_id":"4","last_reported":1741345659,"current_range_meters":17200,"station_id":"ce4bhn12rcd13ifvqgqg","pricing_plan_id":"cebpf4jnsgd1na2vs0mg"},{"bike_id":"48d9fe3c-c832-4176-91ca-aa42c020c83e","system_id":"levelo_inurba_marseille","lat":43.24661,"lon":5.38163,"is_reserved":false,"is_disabled":false,"rental_uris":{"android":"levelo://app?vid=48d9fe3c-c832-4176-91ca-aa42c020c83e","ios":"levelo://app?vid=48d9fe3c-c832-4176-91ca-aa42c020c83e"},"vehicle_type_id":"4","last_reported":1741345659,"current_range_meters":17200,"station_id":"ce4bhih2rcd13ifvqfr0","pricing_plan_id":"cebpf4jnsgd1na2vs0mg"},{"bike_id":"d701c035-2186-4eb7-b4ba-6f549b4f3d2b","system_id":"levelo_inurba_marseille","lat":43.286614,"lon":5.386397,"is_reserved":false,"is_disabled":false,"rental_uris":{"android":"levelo://app?vid=d701c035-2186-4eb7-b4ba-6f549b4f3d2b","ios":"levelo://app?vid=d701c035-2186-4eb7-b4ba-6f549b4f3d2b"},"vehicle_type_id":"4","last_reported":1741345659,"current_range_meters":17200,"station_id":"ce4bh492rcd13ifvqdug","pricing_plan_id":"cebpf4jnsgd1na2vs0mg"},{"bike_id":"b9bf1aba-5a39-4ec5-bace-d5be84f34b4c","system_id":"levelo_inurba_marseille","lat":43.28835,"lon":5.3934,"is_reserved":false,"is_disabled":false,"rental_uris":{"android":"levelo://app?vid=b9bf1aba-5a39-4ec5-bace-d5be84f34b4c","ios":"levelo://app?vid=b9bf1aba-5a39-4ec5-bace-d5be84f34b4c"},"vehicle_type_id":"4","last_reported":1741345659,"current_range_meters":16800,"station_id":"ce4bh2p2rcd13ifvqdi0","pricing_plan_id":"cebpf4jnsgd1na2vs0mg"},{"bike_id":"c3e64c70-f427-4b10-ad09-6881cb289f48","system_id":"levelo_inurba_marseille","lat":43.27922,"lon":5.38003,"is_reserved":false,"is_disabled":false,"rental_uris":{"android":"levelo://app?vid=c3e64c70-f427-4b10-ad09-6881cb289f48","ios":"levelo://app?vid=c3e64c70-f427-4b10-ad09-6881cb289f48"},"vehicle_type_id":"4","last_reported":1741345659,"current_range_meters":17600,"station_id":"ce4bhf92rcd13ifvqf50","pricing_plan_id":"cebpf4jnsgd1na2vs0mg"},{"bike_id":"c2cac908-18dd-46fb-a57b-84da81a0b3bf","system_id":"levelo_inurba_marseille","lat":43.28112,"lon":5.37834,"is_reserved":false,"is_disabled":false,"rental_uris":{"android":"levelo://app?vid=c2cac908-18dd-46fb-a57b-84da81a0b3bf","ios":"levelo://app?vid=c2cac908-18dd-46fb-a57b-84da81a0b3bf"},"vehicle_type_id":"4","last_reported":1741345659,"current_range_meters":17600,"station_id":"","pricing_plan_id":"cebpf4jnsgd1na2vs0mg"},{"bike_id":"2619de62-9b19-4b41-ba90-49f68c3ea1b4","system_id":"levelo_inurba_marseille","lat":43.29786,"lon":5.38109,"is_reserved":false,"is_disabled":false,"rental_uris":{"android":"levelo://app?vid=2619de62-9b19-4b41-ba90-49f68c3ea1b4","ios":"levelo://app?vid=2619de62-9b19-4b41-ba90-49f68c3ea1b4"},"vehicle_type_id":"4","last_reported":1741345659,"current_range_meters":17600,"station_id":"ce4bgip2rcd13ifvqbb0","pricing_plan_id":"cebpf4jnsgd1na2vs0mg"},{"bike_id":"a608eae3-b9b9-48e9-b86d-d2f6bca2ba9d","system_id":"levelo_inurba_marseille","lat":43.26845,"lon":5.394,"is_reserved":false,"is_disabled":false,"rental_uris":{"android":"levelo://app?vid=a608eae3-b9b9-48e9-b86d-d2f6bca2ba9d","ios":"levelo://app?vid=a608eae3-b9b9-48e9-b86d-d2f6bca2ba9d"},"vehicle_type_id":"4","last_reported":1741345659,"current_range_meters":17600,"station_id":"ce4bhh12rcd13ifvqfg0","pricing_plan_id":"cebpf4jnsgd1na2vs0mg"},{"bike_id":"388ea826-f5fa-4632-a530-45d13cc0a769","system_id":"levelo_inurba_marseille","lat":43.23198,"lon":5.39986,"is_reserved":false,"is_disabled":false,"rental_uris":{"android":"levelo://app?vid=388ea826-f5fa-4632-a530-45d13cc0a769","ios":"levelo://app?vid=388ea826-f5fa-4632-a530-45d13cc0a769"},"vehicle_type_id":"4","last_reported":1741345659,"current_range_meters":17600,"station_id":"ce4bhn12rcd13ifvqgqg","pricing_plan_id":"cebpf4jnsgd1na2vs0mg"},{"bike_id":"a16e5e2c-dca2-4fd6-a17a-ec91229f2862","system_id":"levelo_inurba_marseille","lat":43.2695,"lon":5.38645,"is_reserved":false,"is_disabled":false,"rental_uris":{"android":"levelo://app?vid=a16e5e2c-dca2-4fd6-a17a-ec91229f2862","ios":"levelo://app?vid=a16e5e2c-dca2-4fd6-a17a-ec91229f2862"},"vehicle_type_id":"4","last_reported":1741345659,"current_range_meters":17600,"station_id":"ce4bhh92rcd13ifvqfh0","pricing_plan_id":"cebpf4jnsgd1na2vs0mg"},{"bike_id":"1ff664cb-f378-4a6c-b3c1-b47ee25a2174","system_id":"levelo_inurba_marseille","lat":43.32365,"lon":5.38875,"is_reserved":false,"is_disabled":false,"rental_uris":{"android":"levelo://app?vid=1ff664cb-f378-4a6c-b3c1-b47ee25a2174","ios":"levelo://app?vid=1ff664cb-f378-4a6c-b3c1-b47ee25a2174"},"vehicle_type_id":"4","last_reported":1741345659,"current_range_meters":17600,"station_id":"ce4bhqp2rcd13ifvqhog","pricing_plan_id":"cebpf4jnsgd1na2vs0mg"},{"bike_id":"c1c412b3-ae23-45ab-894a-fe5b494cc9e6","system_id":"levelo_inurba_marseille","lat":43.231903,"lon":5.355586,"is_reserved":false,"is_disabled":false,"rental_uris":{"android":"levelo://app?vid=c1c412b3-ae23-45ab-894a-fe5b494cc9e6","ios":"levelo://app?vid=c1c412b3-ae23-45ab-894a-fe5b494cc9e6"},"vehicle_type_id":"4","last_reported":1741345659,"current_range_meters":17600,"station_id":"ce4bhu92rcd13ifvqi70","pricing_plan_id":"cebpf4jnsgd1na2vs0mg"},{"bike_id":"a072c032-8097-4ac1-9290-81941014cdee","system_id":"levelo_inurba_marseille","lat":43.2724,"lon":5.39228,"is_reserved":false,"is_disabled":false,"rental_uris":{"android":"levelo://app?vid=a072c032-8097-4ac1-9290-81941014cdee","ios":"levelo://app?vid=a072c032-8097-4ac1-9290-81941014cdee"},"vehicle_type_id":"4","last_reported":1741345659,"current_range_meters":18000,"station_id":"","pricing_plan_id":"cebpf4jnsgd1na2vs0mg"},{"bike_id":"27ab3f75-d5ee-43a9-8ddd-f6fbab7edacb","system_id":"levelo_inurba_marseille","lat":43.32118,"lon":5.36766,"is_reserved":false,"is_disabled":false,"rental_uris":{"android":"levelo://app?vid=27ab3f75-d5ee-43a9-8ddd-f6fbab7edacb","ios":"levelo://app?vid=27ab3f75-d5ee-43a9-8ddd-f6fbab7edacb"},"vehicle_type_id":"4","last_reported":1741345659,"current_range_meters":18000,"station_id":"ce4bhrh2rcd13ifvqhug","pricing_plan_id":"cebpf4jnsgd1na2vs0mg"},{"bike_id":"e051026c-fe71-4998-b031-914f6f9c5bfd","system_id":"levelo_inurba_marseille","lat":43.24662,"lon":5.38163,"is_reserved":false,"is_disabled":false,"rental_uris":{"android":"levelo://app?vid=e051026c-fe71-4998-b031-914f6f9c5bfd","ios":"levelo://app?vid=e051026c-fe71-4998-b031-914f6f9c5bfd"},"vehicle_type_id":"4","last_reported":1741345659,"current_range_meters":18000,"station_id":"ce4bhih2rcd13ifvqfr0","pricing_plan_id":"cebpf4jnsgd1na2vs0mg"},{"bike_id":"91a64cf5-c59c-4996-8ae6-cc074597fb2f","system_id":"levelo_inurba_marseille","lat":43.28617,"lon":5.35104,"is_reserved":false,"is_disabled":false,"rental_uris":{"android":"levelo://app?vid=91a64cf5-c59c-4996-8ae6-cc074597fb2f","ios":"levelo://app?vid=91a64cf5-c59c-4996-8ae6-cc074597fb2f"},"vehicle_type_id":"4","last_reported":1741345659,"current_range_meters":18000,"station_id":"ce4bhch2rcd13ifvqeug","pricing_plan_id":"cebpf4jnsgd1na2vs0mg"},{"bike_id":"9ad5802d-7dba-4b65-b21d-4e8eb8da3b61","system_id":"levelo_inurba_marseille","lat":43.30533,"lon":5.36524,"is_reserved":false,"is_disabled":false,"rental_uris":{"android":"levelo://app?vid=9ad5802d-7dba-4b65-b21d-4e8eb8da3b61","ios":"levelo://app?vid=9ad5802d-7dba-4b65-b21d-4e8eb8da3b61"},"vehicle_type_id":"4","last_reported":1741345659,"current_range_meters":18000,"station_id":"ce4bgs12rcd13ifvqcag","pricing_plan_id":"cebpf4jnsgd1na2vs0mg"},{"bike_id":"eade49d4-ed78-4663-a099-cba0d266f319","system_id":"levelo_inurba_marseille","lat":43.28938,"lon":5.36626,"is_reserved":false,"is_disabled":false,"rental_uris":{"android":"levelo://app?vid=eade49d4-ed78-4663-a099-cba0d266f319","ios":"levelo://app?vid=eade49d4-ed78-4663-a099-cba0d266f319"},"vehicle_type_id":"4","last_reported":1741345659,"current_range_meters":17600,"station_id":"ce4bhap2rcd13ifvqek0","pricing_plan_id":"cebpf4jnsgd1na2vs0mg"},{"bike_id":"eff8769c-6562-4b9d-81c5-83888ac43cbc","system_id":"levelo_inurba_marseille","lat":43.27837,"lon":5.40755,"is_reserved":false,"is_disabled":false,"rental_uris":{"android":"levelo://app?vid=eff8769c-6562-4b9d-81c5-83888ac43cbc","ios":"levelo://app?vid=eff8769c-6562-4b9d-81c5-83888ac43cbc"},"vehicle_type_id":"4","last_reported":1741345659,"current_range_meters":18000,"station_id":"ce4bhnh2rcd13ifvqgtg","pricing_plan_id":"cebpf4jnsgd1na2vs0mg"},{"bike_id":"c429de85-2030-43ac-b7ca-b75001501649","system_id":"levelo_inurba_marseille","lat":43.23201,"lon":5.3555,"is_reserved":false,"is_disabled":false,"rental_uris":{"android":"levelo://app?vid=c429de85-2030-43ac-b7ca-b75001501649","ios":"levelo://app?vid=c429de85-2030-43ac-b7ca-b75001501649"},"vehicle_type_id":"4","last_reported":1741345659,"current_range_meters":18000,"station_id":"ce4bhu92rcd13ifvqi70","pricing_plan_id":"cebpf4jnsgd1na2vs0mg"},{"bike_id":"21a97c5e-42a1-42dc-8f0b-c09a56ace1b8","system_id":"levelo_inurba_marseille","lat":43.303648,"lon":5.42486,"is_reserved":false,"is_disabled":true,"rental_uris":{"android":"levelo://app?vid=21a97c5e-42a1-42dc-8f0b-c09a56ace1b8","ios":"levelo://app?vid=21a97c5e-42a1-42dc-8f0b-c09a56ace1b8"},"vehicle_type_id":"4","last_reported":1741345659,"current_range_meters":18000,"station_id":"","pricing_plan_id":"cebpf4jnsgd1na2vs0mg"},{"bike_id":"fb9fe5c8-244f-47c3-aa5b-0ac4cf40dbfe","system_id":"levelo_inurba_marseille","lat":43.24394,"lon":5.37051,"is_reserved":false,"is_disabled":false,"rental_uris":{"android":"levelo://app?vid=fb9fe5c8-244f-47c3-aa5b-0ac4cf40dbfe","ios":"levelo://app?vid=fb9fe5c8-244f-47c3-aa5b-0ac4cf40dbfe"},"vehicle_type_id":"4","last_reported":1741345659,"current_range_meters":18000,"station_id":"ce4bhhh2rcd13ifvqfk0","pricing_plan_id":"cebpf4jnsgd1na2vs0mg"},{"bike_id":"f96cb518-5a43-4db2-9e85-d6a786d285d8","system_id":"levelo_inurba_marseille","lat":43.26551,"lon":5.37278,"is_reserved":false,"is_disabled":false,"rental_uris":{"android":"levelo://app?vid=f96cb518-5a43-4db2-9e85-d6a786d285d8","ios":"levelo://app?vid=f96cb518-5a43-4db2-9e85-d6a786d285d8"},"vehicle_type_id":"4","last_reported":1741345659,"current_range_meters":18800,"station_id":"ce4bhg12rcd13ifvqf70","pricing_plan_id":"cebpf4jnsgd1na2vs0mg"},{"bike_id":"518e7e60-e3b6-46a0-9a3a-00e130ceb1ae","system_id":"levelo_inurba_marseille","lat":43.29359,"lon":5.37844,"is_reserved":false,"is_disabled":false,"rental_uris":{"android":"levelo://app?vid=518e7e60-e3b6-46a0-9a3a-00e130ceb1ae","ios":"levelo://app?vid=518e7e60-e3b6-46a0-9a3a-00e130ceb1ae"},"vehicle_type_id":"4","last_reported":1741345659,"current_range_meters":18800,"station_id":"ce4bgjh2rcd13ifvqbf0","pricing_plan_id":"cebpf4jnsgd1na2vs0mg"},{"bike_id":"8189fb7f-dc16-4d0c-8562-cc46edf1b6e4","system_id":"levelo_inurba_marseille","lat":43.29879,"lon":5.38904,"is_reserved":false,"is_disabled":false,"rental_uris":{"android":"levelo://app?vid=8189fb7f-dc16-4d0c-8562-cc46edf1b6e4","ios":"levelo://app?vid=8189fb7f-dc16-4d0c-8562-cc46edf1b6e4"},"vehicle_type_id":"4","last_reported":1741345659,"current_range_meters":18800,"station_id":"ce4bh392rcd13ifvqdl0","pricing_plan_id":"cebpf4jnsgd1na2vs0mg"},{"bike_id":"821feb20-4465-4cf2-afcd-c39225c51040","system_id":"levelo_inurba_marseille","lat":43.2705,"lon":5.40262,"is_reserved":false,"is_disabled":false,"rental_uris":{"android":"levelo://app?vid=821feb20-4465-4cf2-afcd-c39225c51040","ios":"levelo://app?vid=821feb20-4465-4cf2-afcd-c39225c51040"},"vehicle_type_id":"4","last_reported":1741345659,"current_range_meters":18800,"station_id":"ce4bhk92rcd13ifvqgc0","pricing_plan_id":"cebpf4jnsgd1na2vs0mg"},{"bike_id":"c1a8c0e2-fda6-4598-aa5a-718a7d16d650","system_id":"levelo_inurba_marseille","lat":43.30086,"lon":5.39062,"is_reserved":false,"is_disabled":false,"rental_uris":{"android":"levelo://app?vid=c1a8c0e2-fda6-4598-aa5a-718a7d16d650","ios":"levelo://app?vid=c1a8c0e2-fda6-4598-aa5a-718a7d16d650"},"vehicle_type_id":"4","last_reported":1741345659,"current_range_meters":18800,"station_id":"ce4bh192rcd13ifvqdb0","pricing_plan_id":"cebpf4jnsgd1na2vs0mg"},{"bike_id":"a422f322-ac58-480f-85b8-19fd3ced3d7e","system_id":"levelo_inurba_marseille","lat":43.26937,"lon":5.38914,"is_reserved":false,"is_disabled":false,"rental_uris":{"android":"levelo://app?vid=a422f322-ac58-480f-85b8-19fd3ced3d7e","ios":"levelo://app?vid=a422f322-ac58-480f-85b8-19fd3ced3d7e"},"vehicle_type_id":"4","last_reported":1741345659,"current_range_meters":18000,"station_id":"ce4bhhh2rcd13ifvqfl0","pricing_plan_id":"cebpf4jnsgd1na2vs0mg"},{"bike_id":"bce5955a-7363-4ab5-b913-b16f2b452c21","system_id":"levelo_inurba_marseille","lat":43.29952,"lon":5.41312,"is_reserved":false,"is_disabled":false,"rental_uris":{"android":"levelo://app?vid=bce5955a-7363-4ab5-b913-b16f2b452c21","ios":"levelo://app?vid=bce5955a-7363-4ab5-b913-b16f2b452c21"},"vehicle_type_id":"4","last_reported":1741345659,"current_range_meters":18800,"station_id":"ce4bhp12rcd13ifvqh9g","pricing_plan_id":"cebpf4jnsgd1na2vs0mg"},{"bike_id":"4b5d851f-5ccb-42ce-bfb8-2b82304a3122","system_id":"levelo_inurba_marseille","lat":43.29291,"lon":5.37452,"is_reserved":false,"is_disabled":false,"rental_uris":{"android":"levelo://app?vid=4b5d851f-5ccb-42ce-bfb8-2b82304a3122","ios":"levelo://app?vid=4b5d851f-5ccb-42ce-bfb8-2b82304a3122"},"vehicle_type_id":"4","last_reported":1741345659,"current_range_meters":19200,"station_id":"ce4bgi12rcd13ifvqb70","pricing_plan_id":"cebpf4jnsgd1na2vs0mg"},{"bike_id":"e7a47a36-4c7a-4d18-9556-80e0688c24b2","system_id":"levelo_inurba_marseille","lat":43.30299,"lon":5.37697,"is_reserved":false,"is_disabled":false,"rental_uris":{"android":"levelo://app?vid=e7a47a36-4c7a-4d18-9556-80e0688c24b2","ios":"levelo://app?vid=e7a47a36-4c7a-4d18-9556-80e0688c24b2"},"vehicle_type_id":"4","last_reported":1741345659,"current_range_meters":19200,"station_id":"ce4bguh2rcd13ifvqcj0","pricing_plan_id":"cebpf4jnsgd1na2vs0mg"},{"bike_id":"9518aca7-5e68-4479-9127-a33ebd92ece2","system_id":"levelo_inurba_marseille","lat":43.26693,"lon":5.3827,"is_reserved":false,"is_disabled":true,"rental_uris":{"android":"levelo://app?vid=9518aca7-5e68-4479-9127-a33ebd92ece2","ios":"levelo://app?vid=9518aca7-5e68-4479-9127-a33ebd92ece2"},"vehicle_type_id":"4","last_reported":1741345659,"current_range_meters":19200,"station_id":"ce4bhg92rcd13ifvqf90","pricing_plan_id":"cebpf4jnsgd1na2vs0mg"},{"bike_id":"62b8f8c6-4f3a-4290-a9fa-eb80264648df","system_id":"levelo_inurba_marseille","lat":43.33607,"lon":5.41029,"is_reserved":false,"is_disabled":false,"rental_uris":{"android":"levelo://app?vid=62b8f8c6-4f3a-4290-a9fa-eb80264648df","ios":"levelo://app?vid=62b8f8c6-4f3a-4290-a9fa-eb80264648df"},"vehicle_type_id":"4","last_reported":1741345659,"current_range_meters":19200,"station_id":"ce4bhqh2rcd13ifvqhmg","pricing_plan_id":"cebpf4jnsgd1na2vs0mg"},{"bike_id":"66381e18-042e-4f6f-9695-cf1f46f9462a","system_id":"levelo_inurba_marseille","lat":43.30138,"lon":5.38054,"is_reserved":false,"is_disabled":false,"rental_uris":{"android":"levelo://app?vid=66381e18-042e-4f6f-9695-cf1f46f9462a","ios":"levelo://app?vid=66381e18-042e-4f6f-9695-cf1f46f9462a"},"vehicle_type_id":"4","last_reported":1741345659,"current_range_meters":19200,"station_id":"ce4bgjp2rcd13ifvqbh0","pricing_plan_id":"cebpf4jnsgd1na2vs0mg"},{"bike_id":"872212e3-ffdc-4b13-b166-2887ed3807f7","system_id":"levelo_inurba_marseille","lat":43.28614,"lon":5.35107,"is_reserved":false,"is_disabled":false,"rental_uris":{"android":"levelo://app?vid=872212e3-ffdc-4b13-b166-2887ed3807f7","ios":"levelo://app?vid=872212e3-ffdc-4b13-b166-2887ed3807f7"},"vehicle_type_id":"4","last_reported":1741345659,"current_range_meters":19200,"station_id":"ce4bhch2rcd13ifvqeug","pricing_plan_id":"cebpf4jnsgd1na2vs0mg"},{"bike_id":"305a8aa4-12c1-4cc2-848d-e0815a69b14f","system_id":"levelo_inurba_marseille","lat":43.31246,"lon":5.36847,"is_reserved":false,"is_disabled":false,"rental_uris":{"android":"levelo://app?vid=305a8aa4-12c1-4cc2-848d-e0815a69b14f","ios":"levelo://app?vid=305a8aa4-12c1-4cc2-848d-e0815a69b14f"},"vehicle_type_id":"4","last_reported":1741345659,"current_range_meters":19200,"station_id":"ce4bgl92rcd13ifvqbq0","pricing_plan_id":"cebpf4jnsgd1na2vs0mg"},{"bike_id":"955b8034-a149-4760-a9f5-aa807c086c65","system_id":"levelo_inurba_marseille","lat":43.30595,"lon":5.39358,"is_reserved":false,"is_disabled":false,"rental_uris":{"android":"levelo://app?vid=955b8034-a149-4760-a9f5-aa807c086c65","ios":"levelo://app?vid=955b8034-a149-4760-a9f5-aa807c086c65"},"vehicle_type_id":"4","last_reported":1741345659,"current_range_meters":19200,"station_id":"ce4bh0p2rcd13ifvqd80","pricing_plan_id":"cebpf4jnsgd1na2vs0mg"},{"bike_id":"e38fdd6b-9037-48d0-bf51-29371898881f","system_id":"levelo_inurba_marseille","lat":43.25004,"lon":5.38913,"is_reserved":false,"is_disabled":false,"rental_uris":{"android":"levelo://app?vid=e38fdd6b-9037-48d0-bf51-29371898881f","ios":"levelo://app?vid=e38fdd6b-9037-48d0-bf51-29371898881f"},"vehicle_type_id":"4","last_reported":1741345659,"current_range_meters":19200,"station_id":"ce4bhgp2rcd13ifvqfd0","pricing_plan_id":"cebpf4jnsgd1na2vs0mg"},{"bike_id":"22edf43f-3f95-46ee-bfd0-5d6f0e930693","system_id":"levelo_inurba_marseille","lat":43.29193,"lon":5.35813,"is_reserved":false,"is_disabled":false,"rental_uris":{"android":"levelo://app?vid=22edf43f-3f95-46ee-bfd0-5d6f0e930693","ios":"levelo://app?vid=22edf43f-3f95-46ee-bfd0-5d6f0e930693"},"vehicle_type_id":"4","last_reported":1741345659,"current_range_meters":19200,"station_id":"ce4bhb12rcd13ifvqel0","pricing_plan_id":"cebpf4jnsgd1na2vs0mg"},{"bike_id":"0a9bc1bd-e305-40d4-8852-5005300b12a0","system_id":"levelo_inurba_marseille","lat":43.2293,"lon":5.3538,"is_reserved":false,"is_disabled":false,"rental_uris":{"android":"levelo://app?vid=0a9bc1bd-e305-40d4-8852-5005300b12a0","ios":"levelo://app?vid=0a9bc1bd-e305-40d4-8852-5005300b12a0"},"vehicle_type_id":"4","last_reported":1741345659,"current_range_meters":19600,"station_id":"cpo3532slgdg3j2ikp40","pricing_plan_id":"cebpf4jnsgd1na2vs0mg"},{"bike_id":"9d5b824a-cc91-4fd5-8f4f-f20d4a403471","system_id":"levelo_inurba_marseille","lat":43.30546,"lon":5.36547,"is_reserved":false,"is_disabled":false,"rental_uris":{"android":"levelo://app?vid=9d5b824a-cc91-4fd5-8f4f-f20d4a403471","ios":"levelo://app?vid=9d5b824a-cc91-4fd5-8f4f-f20d4a403471"},"vehicle_type_id":"4","last_reported":1741345659,"current_range_meters":19600,"station_id":"ce4bgs12rcd13ifvqcag","pricing_plan_id":"cebpf4jnsgd1na2vs0mg"},{"bike_id":"41964e63-946b-49fd-9b33-19c638c43e74","system_id":"levelo_inurba_marseille","lat":43.30464,"lon":5.37905,"is_reserved":false,"is_disabled":false,"rental_uris":{"android":"levelo://app?vid=41964e63-946b-49fd-9b33-19c638c43e74","ios":"levelo://app?vid=41964e63-946b-49fd-9b33-19c638c43e74"},