{"last_updated":1751728174,"ttl":60,"version":"2.2","data":{"bikes":[{"bike_id":"3da29fb8-fc97-44c6-b9ac-31dd456b2fd4","system_id":"levelo_inurba_marseille","lat":43.33771,"lon":5.37424,"is_reserved":false,"is_disabled":true,"rental_uris":{"android":"levelo://app?vid=3da29fb8-fc97-44c6-b9ac-31dd456b2fd4","ios":"levelo://app?vid=3da29fb8-fc97-44c6-b9ac-31dd456b2fd4"},"vehicle_type_id":"4","last_reported":1751728174,"current_range_meters":0,"station_id":"","pricing_plan_id":"cebpf4jnsgd1na2vs0mg"},{"bike_id":"01861ad8-a8d7-4be6-816e-651927c87584","system_id":"levelo_inurba_marseille","lat":43.33751,"lon":5.37456,"is_reserved":false,"is_disabled":true,"rental_uris":{"android":"levelo://app?vid=01861ad8-a8d7-4be6-816e-651927c87584","ios":"levelo://app?vid=01861ad8-a8d7-4be6-816e-651927c87584"},"vehicle_type_id":"4","last_reported":1751728174,"current_range_meters":0,"station_id":"","pricing_plan_id":"cebpf4jnsgd1na2vs0mg"},{"bike_id":"374dc5fc-aac8-4da9-98b1-98e70c32d600","system_id":"levelo_inurba_marseille","lat":43.28205,"lon":5.34925,"is_reserved":false,"is_disabled":true,"rental_uris":{"android":"levelo://app?vid=374dc5fc-aac8-4da9-98b1-98e70c32d600","ios":"levelo://app?vid=374dc5fc-aac8-4da9-98b1-98e70c32d600"},"vehicle_type_id":"4","last_reported":1751728174,"current_range_meters":0,"station_id":"","pricing_plan_id":"cebpf4jnsgd1na2vs0mg"},{"bike_id":"709a7443-10a8-420a-866d-68d5e9fb61b3","system_id":"levelo_inurba_marseille","lat":43.231949,"lon":5.355535,"is_reserved":false,"is_disabled":true,"rental_uris":{"android":"levelo://app?vid=709a7443-10a8-420a-866d-68d5e9fb61b3","ios":"levelo://app?vid=709a7443-10a8-420a-866d-68d5e9fb61b3"},"vehicle_type_id":"4","last_reported":1751728174,"current_range_meters":0,"station_id":"","pricing_plan_id":"cebpf4jnsgd1na2vs0mg"},{"bike_id":"f70f4eac-3f58-4e34-b450-f4227420bc3d","system_id":"levelo_inurba_marseille","lat":43.3053,"lon":5.39166,"is_reserved":false,"is_disabled":true,"rental_uris":{"android":"levelo://app?vid=f70f4eac-3f58-4e34-b450-f4227420bc3d","ios":"levelo://app?vid=f70f4eac-3f58-4e34-b450-f4227420bc3d"},"vehicle_type_id":"4","last_reported":1751728174,"current_range_meters":0,"station_id":"","pricing_plan_id":"cebpf4jnsgd1na2vs0mg"},{"bike_id":"c8885025-0b30-48c0-846f-ea87c2948681","system_id":"levelo_inurba_marseille","lat":43.30155,"lon":5.3772,"is_reserved":false,"is_disabled":true,"rental_uris":{"android":"levelo://app?vid=c8885025-0b30-48c0-846f-ea87c2948681","ios":"levelo://app?vid=c8885025-0b30-48c0-846f-ea87c2948681"},"vehicle_type_id":"4","last_reported":1751728174,"current_range_meters":0,"station_id":"","pricing_plan_id":"cebpf4jnsgd1na2vs0mg"},{"bike_id":"1cad8455-0e19-4c8f-8c15-74d30fc23380","system_id":"levelo_inurba_marseille","lat":43.29888,"lon":5.36354,"is_reserved":false,"is_disabled":true,"rental_uris":{"android":"levelo://app?vid=1cad8455-0e19-4c8f-8c15-74d30fc23380","ios":"levelo://app?vid=1cad8455-0e19-4c8f-8c15-74d30fc23380"},"vehicle_type_id":"4","last_reported":1751728174,"current_range_meters":0,"station_id":"","pricing_plan_id":"cebpf4jnsgd1na2vs0mg"},{"bike_id":"c0522a60-00cd-4af7-9f00-b97997672578","system_id":"levelo_inurba_marseille","lat":43.30129,"lon":5.38779,"is_reserved":false,"is_disabled":true,"rental_uris":{"android":"levelo://app?vid=c0522a60-00cd-4af7-9f00-b97997672578","ios":"levelo://app?vid=c0522a60-00cd-4af7-9f00-b97997672578"},"vehicle_type_id":"4","last_reported":1751728174,"current_range_meters":0,"station_id":"ce4bghh2rcd13ifvqb60","pricing_plan_id":"cebpf4jnsgd1na2vs0mg"},{"bike_id":"00000360-ad3d-4f71-9f2d-696188b81447","system_id":"levelo_inurba_marseille","lat":43.30132,"lon":5.38776,"is_reserved":false,"is_disabled":true,"rental_uris":{"android":"levelo://app?vid=00000360-ad3d-4f71-9f2d-696188b81447","ios":"levelo://app?vid=00000360-ad3d-4f71-9f2d-696188b81447"},"vehicle_type_id":"4","last_reported":1751728174,"current_range_meters":0,"station_id":"ce4bghh2rcd13ifvqb60","pricing_plan_id":"cebpf4jnsgd1na2vs0mg"},{"bike_id":"1f658c80-0324-4440-935c-9bea5b75c490","system_id":"levelo_inurba_marseille","lat":43.29351,"lon":5.37859,"is_reserved":false,"is_disabled":true,"rental_uris":{"android":"levelo://app?vid=1f658c80-0324-4440-935c-9bea5b75c490","ios":"levelo://app?vid=1f658c80-0324-4440-935c-9bea5b75c490"},"vehicle_type_id":"4","last_reported":1751728174,"current_range_meters":0,"station_id":"ce4bgjh2rcd13ifvqbf0","pricing_plan_id":"cebpf4jnsgd1na2vs0mg"},{"bike_id":"d9c90620-26c1-4d3c-8a03-7cc318565518","system_id":"levelo_inurba_marseille","lat":43.301487,"lon":5.380787,"is_reserved":false,"is_disabled":true,"rental_uris":{"android":"levelo://app?vid=d9c90620-26c1-4d3c-8a03-7cc318565518","ios":"levelo://app?vid=d9c90620-26c1-4d3c-8a03-7cc318565518"},"vehicle_type_id":"4","last_reported":1751728174,"current_range_meters":0,"station_id":"ce4bgjp2rcd13ifvqbh0","pricing_plan_id":"cebpf4jnsgd1na2vs0mg"},{"bike_id":"c483b1b9-529f-4052-a241-48eede24c354","system_id":"levelo_inurba_marseille","lat":43.30196,"lon":5.36615,"is_reserved":false,"is_disabled":true,"rental_uris":{"android":"levelo://app?vid=c483b1b9-529f-4052-a241-48eede24c354","ios":"levelo://app?vid=c483b1b9-529f-4052-a241-48eede24c354"},"vehicle_type_id":"4","last_reported":1751728174,"current_range_meters":0,"station_id":"ce4bgrh2rcd13ifvqc8g","pricing_plan_id":"cebpf4jnsgd1na2vs0mg"},{"bike_id":"ce109c86-e03b-4d25-98f9-83a5d7f53ac8","system_id":"levelo_inurba_marseille","lat":43.283607,"lon":5.386338,"is_reserved":false,"is_disabled":true,"rental_uris":{"android":"levelo://app?vid=ce109c86-e03b-4d25-98f9-83a5d7f53ac8","ios":"levelo://app?vid=ce109c86-e03b-4d25-98f9-83a5d7f53ac8"},"vehicle_type_id":"4","last_reported":1751728174,"current_range_meters":0,"station_id":"ce4bh492rcd13ifvqdvg","pricing_plan_id":"cebpf4jnsgd1na2vs0mg"},{"bike_id":"6dd1d5cd-f690-4a15-9e27-79d1ad497a26","system_id":"levelo_inurba_marseille","lat":43.2847,"lon":5.38411,"is_reserved":false,"is_disabled":true,"rental_uris":{"android":"levelo://app?vid=6dd1d5cd-f690-4a15-9e27-79d1ad497a26","ios":"levelo://app?vid=6dd1d5cd-f690-4a15-9e27-79d1ad497a26"},"vehicle_type_id":"4","last_reported":1751728174,"current_range_meters":0,"station_id":"ce4bh512rcd13ifvqe3g","pricing_plan_id":"cebpf4jnsgd1na2vs0mg"},{"bike_id":"58ae042f-329c-4920-90cc-f386f592309c","system_id":"levelo_inurba_marseille","lat":43.29181,"lon":5.35787,"is_reserved":false,"is_disabled":true,"rental_uris":{"android":"levelo://app?vid=58ae042f-329c-4920-90cc-f386f592309c","ios":"levelo://app?vid=58ae042f-329c-4920-90cc-f386f592309c"},"vehicle_type_id":"4","last_reported":1751728174,"current_range_meters":0,"station_id":"ce4bhb12rcd13ifvqel0","pricing_plan_id":"cebpf4jnsgd1na2vs0mg"},{"bike_id":"71bbb3fb-1e2a-4524-96c0-8e55c934ebdd","system_id":"levelo_inurba_marseille","lat":43.292252,"lon":5.360624,"is_reserved":false,"is_disabled":true,"rental_uris":{"android":"levelo://app?vid=71bbb3fb-1e2a-4524-96c0-8e55c934ebdd","ios":"levelo://app?vid=71bbb3fb-1e2a-4524-96c0-8e55c934ebdd"},"vehicle_type_id":"4","last_reported":1751728174,"current_range_meters":0,"station_id":"ce4bhbh2rcd13ifvqeqg","pricing_plan_id":"cebpf4jnsgd1na2vs0mg"},{"bike_id":"7a2ebbf7-7d38-4dd4-a122-a64b457cf153","system_id":"levelo_inurba_marseille","lat":43.27978,"lon":5.38741,"is_reserved":false,"is_disabled":true,"rental_uris":{"android":"levelo://app?vid=7a2ebbf7-7d38-4dd4-a122-a64b457cf153","ios":"levelo://app?vid=7a2ebbf7-7d38-4dd4-a122-a64b457cf153"},"vehicle_type_id":"4","last_reported":1751728174,"current_range_meters":0,"station_id":"ce4bhg12rcd13ifvqf80","pricing_plan_id":"cebpf4jnsgd1na2vs0mg"},{"bike_id":"f9a261f0-44e1-47da-b597-08f8e1048148","system_id":"levelo_inurba_marseille","lat":43.26196,"lon":5.37448,"is_reserved":false,"is_disabled":true,"rental_uris":{"android":"levelo://app?vid=f9a261f0-44e1-47da-b597-08f8e1048148","ios":"levelo://app?vid=f9a261f0-44e1-47da-b597-08f8e1048148"},"vehicle_type_id":"4","last_reported":1751728174,"current_range_meters":0,"station_id":"ce4bhgp2rcd13ifvqfc0","pricing_plan_id":"cebpf4jnsgd1na2vs0mg"},{"bike_id":"9acfe423-1806-43a7-9557-b91826a10309","system_id":"levelo_inurba_marseille","lat":43.24386,"lon":5.37055,"is_reserved":false,"is_disabled":true,"rental_uris":{"android":"levelo://app?vid=9acfe423-1806-43a7-9557-b91826a10309","ios":"levelo://app?vid=9acfe423-1806-43a7-9557-b91826a10309"},"vehicle_type_id":"4","last_reported":1751728174,"current_range_meters":0,"station_id":"ce4bhhh2rcd13ifvqfk0","pricing_plan_id":"cebpf4jnsgd1na2vs0mg"},{"bike_id":"8afa7640-ebe8-4025-983a-c83f3912a2dd","system_id":"levelo_inurba_marseille","lat":43.21217,"lon":5.35088,"is_reserved":false,"is_disabled":true,"rental_uris":{"android":"levelo://app?vid=8afa7640-ebe8-4025-983a-c83f3912a2dd","ios":"levelo://app?vid=8afa7640-ebe8-4025-983a-c83f3912a2dd"},"vehicle_type_id":"4","last_reported":1751728174,"current_range_meters":0,"station_id":"st_cvj6sg6p6f1abm77japg","pricing_plan_id":"cebpf4jnsgd1na2vs0mg"},{"bike_id":"f5a47db5-6fb2-46bd-a2de-efa4ad13bf60","system_id":"levelo_inurba_marseille","lat":43.2118,"lon":5.35075,"is_reserved":false,"is_disabled":true,"rental_uris":{"android":"levelo://app?vid=f5a47db5-6fb2-46bd-a2de-efa4ad13bf60","ios":"levelo://app?vid=f5a47db5-6fb2-46bd-a2de-efa4ad13bf60"},"vehicle_type_id":"4","last_reported":1751728174,"current_range_meters":0,"station_id":"st_cvj6sg6p6f1abm77japg","pricing_plan_id":"cebpf4jnsgd1na2vs0mg"},{"bike_id":"f7e3e72c-67b9-41b7-a3b0-11a6311c93d8","system_id":"levelo_inurba_marseille","lat":43.29962,"lon":5.3717,"is_reserved":false,"is_disabled":true,"rental_uris":{"android":"levelo://app?vid=f7e3e72c-67b9-41b7-a3b0-11a6311c93d8","ios":"levelo://app?vid=f7e3e72c-67b9-41b7-a3b0-11a6311c93d8"},"vehicle_type_id":"4","last_reported":1751728174,"current_range_meters":400,"station_id":"ce4bgr92rcd13ifvqc7g","pricing_plan_id":"cebpf4jnsgd1na2vs0mg"},{"bike_id":"1787fc3e-2e28-4699-8ef3-a1aa7b8fc86c","system_id":"levelo_inurba_marseille","lat":43.29415,"lon":5.3862,"is_reserved":false,"is_disabled":true,"rental_uris":{"android":"levelo://app?vid=1787fc3e-2e28-4699-8ef3-a1aa7b8fc86c","ios":"levelo://app?vid=1787fc3e-2e28-4699-8ef3-a1aa7b8fc86c"},"vehicle_type_id":"4","last_reported":1751728174,"current_range_meters":400,"station_id":"ce4bh2h2rcd13ifvqdh0","pricing_plan_id":"cebpf4jnsgd1na2vs0mg"},{"bike_id":"0c49a7d6-f9db-4a6c-978f-71d3ca86d4a3","system_id":"levelo_inurba_marseille","lat":43.225,"lon":5.34781,"is_reserved":false,"is_disabled":true,"rental_uris":{"android":"levelo://app?vid=0c49a7d6-f9db-4a6c-978f-71d3ca86d4a3","ios":"levelo://app?vid=0c49a7d6-f9db-4a6c-978f-71d3ca86d4a3"},"vehicle_type_id":"4","last_reported":1751728174,"current_range_meters":400,"station_id":"st_cvj5dfep6f1abm77gieg","pricing_plan_id":"cebpf4jnsgd1na2vs0mg"},{"bike_id":"37421179-4759-4151-8453-de32ad1ce0bd","system_id":"levelo_inurba_marseille","lat":43.30144,"lon":5.38809,"is_reserved":false,"is_disabled":true,"rental_uris":{"android":"levelo://app?vid=37421179-4759-4151-8453-de32ad1ce0bd","ios":"levelo://app?vid=37421179-4759-4151-8453-de32ad1ce0bd"},"vehicle_type_id":"4","last_reported":1751728174,"current_range_meters":800,"station_id":"ce4bghh2rcd13ifvqb60","pricing_plan_id":"cebpf4jnsgd1na2vs0mg"},{"bike_id":"2fc6f9d9-929a-4ad9-94b4-971e6712dff7","system_id":"levelo_inurba_marseille","lat":43.29294,"lon":5.37432,"is_reserved":false,"is_disabled":true,"rental_uris":{"android":"levelo://app?vid=2fc6f9d9-929a-4ad9-94b4-971e6712dff7","ios":"levelo://app?vid=2fc6f9d9-929a-4ad9-94b4-971e6712dff7"},"vehicle_type_id":"4","last_reported":1751728174,"current_range_meters":800,"station_id":"ce4bgi12rcd13ifvqb70","pricing_plan_id":"cebpf4jnsgd1na2vs0mg"},{"bike_id":"32a2349f-5385-4ca2-9613-2473b6172611","system_id":"levelo_inurba_marseille","lat":43.30426,"lon":5.38886,"is_reserved":false,"is_disabled":true,"rental_uris":{"android":"levelo://app?vid=32a2349f-5385-4ca2-9613-2473b6172611","ios":"levelo://app?vid=32a2349f-5385-4ca2-9613-2473b6172611"},"vehicle_type_id":"4","last_reported":1751728174,"current_range_meters":800,"station_id":"ce4bgk12rcd13ifvqbi0","pricing_plan_id":"cebpf4jnsgd1na2vs0mg"},{"bike_id":"256ce235-2d08-4549-83a2-a24f38163148","system_id":"levelo_inurba_marseille","lat":43.30092,"lon":5.39074,"is_reserved":false,"is_disabled":true,"rental_uris":{"android":"levelo://app?vid=256ce235-2d08-4549-83a2-a24f38163148","ios":"levelo://app?vid=256ce235-2d08-4549-83a2-a24f38163148"},"vehicle_type_id":"4","last_reported":1751728174,"current_range_meters":800,"station_id":"ce4bh192rcd13ifvqdb0","pricing_plan_id":"cebpf4jnsgd1na2vs0mg"},{"bike_id":"2d1f59b1-88c4-4a30-ba9d-bab538c824ce","system_id":"levelo_inurba_marseille","lat":43.2918,"lon":5.35797,"is_reserved":false,"is_disabled":true,"rental_uris":{"android":"levelo://app?vid=2d1f59b1-88c4-4a30-ba9d-bab538c824ce","ios":"levelo://app?vid=2d1f59b1-88c4-4a30-ba9d-bab538c824ce"},"vehicle_type_id":"4","last_reported":1751728174,"current_range_meters":800,"station_id":"ce4bhb12rcd13ifvqel0","pricing_plan_id":"cebpf4jnsgd1na2vs0mg"},{"bike_id":"7d700fe5-59ec-4d47-b8c2-c85d7cc322a5","system_id":"levelo_inurba_marseille","lat":43.2853,"lon":5.37788,"is_reserved":false,"is_disabled":true,"rental_uris":{"android":"levelo://app?vid=7d700fe5-59ec-4d47-b8c2-c85d7cc322a5","ios":"levelo://app?vid=7d700fe5-59ec-4d47-b8c2-c85d7cc322a5"},"vehicle_type_id":"4","last_reported":1751728174,"current_range_meters":1200,"station_id":"","pricing_plan_id":"cebpf4jnsgd1na2vs0mg"},{"bike_id":"e26ba497-efc7-4420-b8c5-9fa5e27f2ce4","system_id":"levelo_inurba_marseille","lat":43.313766,"lon":5.370709,"is_reserved":false,"is_disabled":true,"rental_uris":{"android":"levelo://app?vid=e26ba497-efc7-4420-b8c5-9fa5e27f2ce4","ios":"levelo://app?vid=e26ba497-efc7-4420-b8c5-9fa5e27f2ce4"},"vehicle_type_id":"4","last_reported":1751728174,"current_range_meters":1200,"station_id":"","pricing_plan_id":"cebpf4jnsgd1na2vs0mg"},{"bike_id":"6e68c267-d285-41dc-92b5-dcfb8187d4c7","system_id":"levelo_inurba_marseille","lat":43.30142,"lon":5.38071,"is_reserved":false,"is_disabled":true,"rental_uris":{"android":"levelo://app?vid=6e68c267-d285-41dc-92b5-dcfb8187d4c7","ios":"levelo://app?vid=6e68c267-d285-41dc-92b5-dcfb8187d4c7"},"vehicle_type_id":"4","last_reported":1751728174,"current_range_meters":1200,"station_id":"ce4bgjp2rcd13ifvqbh0","pricing_plan_id":"cebpf4jnsgd1na2vs0mg"},{"bike_id":"fe931a8f-84ef-4d67-a02c-9173604f9e33","system_id":"levelo_inurba_marseille","lat":43.284058,"lon":5.349734,"is_reserved":false,"is_disabled":false,"rental_uris":{"android":"levelo://app?vid=fe931a8f-84ef-4d67-a02c-9173604f9e33","ios":"levelo://app?vid=fe931a8f-84ef-4d67-a02c-9173604f9e33"},"vehicle_type_id":"4","last_reported":1751728174,"current_range_meters":1200,"station_id":"ce4bhbh2rcd13ifvqepg","pricing_plan_id":"cebpf4jnsgd1na2vs0mg"},{"bike_id":"188a05ff-21b4-473e-b10f-67e0c5ee512c","system_id":"levelo_inurba_marseille","lat":43.23196,"lon":5.3555,"is_reserved":false,"is_disabled":true,"rental_uris":{"android":"levelo://app?vid=188a05ff-21b4-473e-b10f-67e0c5ee512c","ios":"levelo://app?vid=188a05ff-21b4-473e-b10f-67e0c5ee512c"},"vehicle_type_id":"4","last_reported":1751728174,"current_range_meters":1600,"station_id":"ce4bhu92rcd13ifvqi70","pricing_plan_id":"cebpf4jnsgd1na2vs0mg"},{"bike_id":"73e9ed7e-67ea-4e6a-ad15-acd1057e2eb4","system_id":"levelo_inurba_marseille","lat":43.211877,"lon":5.350725,"is_reserved":false,"is_disabled":true,"rental_uris":{"android":"levelo://app?vid=73e9ed7e-67ea-4e6a-ad15-acd1057e2eb4","ios":"levelo://app?vid=73e9ed7e-67ea-4e6a-ad15-acd1057e2eb4"},"vehicle_type_id":"4","last_reported":1751728174,"current_range_meters":1600,"station_id":"st_cvj6sg6p6f1abm77japg","pricing_plan_id":"cebpf4jnsgd1na2vs0mg"},{"bike_id":"68a6c3f6-152c-4e02-aa51-d50b6d2cec74","system_id":"levelo_inurba_marseille","lat":43.30949,"lon":5.39015,"is_reserved":false,"is_disabled":true,"rental_uris":{"android":"levelo://app?vid=68a6c3f6-152c-4e02-aa51-d50b6d2cec74","ios":"levelo://app?vid=68a6c3f6-152c-4e02-aa51-d50b6d2cec74"},"vehicle_type_id":"4","last_reported":1751728174,"current_range_meters":2000,"station_id":"ce4bgup2rcd13ifvqco0","pricing_plan_id":"cebpf4jnsgd1na2vs0mg"},{"bike_id":"ff30265f-31f2-4d31-8ced-0bb361f2d2ae","system_id":"levelo_inurba_marseille","lat":43.27374,"lon":5.36256,"is_reserved":false,"is_disabled":true,"rental_uris":{"android":"levelo://app?vid=ff30265f-31f2-4d31-8ced-0bb361f2d2ae","ios":"levelo://app?vid=ff30265f-31f2-4d31-8ced-0bb361f2d2ae"},"vehicle_type_id":"4","last_reported":1751728174,"current_range_meters":2000,"station_id":"ce4bhbh2rcd13ifvqeo0","pricing_plan_id":"cebpf4jnsgd1na2vs0mg"},{"bike_id":"9bfc7d3d-4e60-4f8a-9c32-ef3d0e77ec5b","system_id":"levelo_inurba_marseille","lat":43.211898,"lon":5.350946,"is_reserved":false,"is_disabled":true,"rental_uris":{"android":"levelo://app?vid=9bfc7d3d-4e60-4f8a-9c32-ef3d0e77ec5b","ios":"levelo://app?vid=9bfc7d3d-4e60-4f8a-9c32-ef3d0e77ec5b"},"vehicle_type_id":"4","last_reported":1751728174,"current_range_meters":2000,"station_id":"st_cvj6sg6p6f1abm77japg","pricing_plan_id":"cebpf4jnsgd1na2vs0mg"},{"bike_id":"cf60dc6f-328e-437b-b2d0-496b4633139a","system_id":"levelo_inurba_marseille","lat":43.26951,"lon":5.38628,"is_reserved":false,"is_disabled":false,"rental_uris":{"android":"levelo://app?vid=cf60dc6f-328e-437b-b2d0-496b4633139a","ios":"levelo://app?vid=cf60dc6f-328e-437b-b2d0-496b4633139a"},"vehicle_type_id":"4","last_reported":1751728174,"current_range_meters":2800,"station_id":"ce4bhh92rcd13ifvqfh0","pricing_plan_id":"cebpf4jnsgd1na2vs0mg"},{"bike_id":"e6e3ebe5-5d8f-437c-8f99-f6bd243ac5b2","system_id":"levelo_inurba_marseille","lat":43.30476,"lon":5.36978,"is_reserved":false,"is_disabled":false,"rental_uris":{"android":"levelo://app?vid=e6e3ebe5-5d8f-437c-8f99-f6bd243ac5b2","ios":"levelo://app?vid=e6e3ebe5-5d8f-437c-8f99-f6bd243ac5b2"},"vehicle_type_id":"4","last_reported":1751728174,"current_range_meters":3200,"station_id":"","pricing_plan_id":"cebpf4jnsgd1na2vs0mg"},{"bike_id":"a4f190c7-20dc-4c19-b209-ac0942e6e4c0","system_id":"levelo_inurba_marseille","lat":43.29565,"lon":5.37526,"is_reserved":false,"is_disabled":false,"rental_uris":{"android":"levelo://app?vid=a4f190c7-20dc-4c19-b209-ac0942e6e4c0","ios":"levelo://app?vid=a4f190c7-20dc-4c19-b209-ac0942e6e4c0"},"vehicle_type_id":"4","last_reported":1751728174,"current_range_meters":3200,"station_id":"ce4bgh92rcd13ifvqb50","pricing_plan_id":"cebpf4jnsgd1na2vs0mg"},{"bike_id":"bcf8e57e-7074-4fd0-9f30-0378b9dbb604","system_id":"levelo_inurba_marseille","lat":43.31109,"lon":5.37759,"is_reserved":false,"is_disabled":false,"rental_uris":{"android":"levelo://app?vid=bcf8e57e-7074-4fd0-9f30-0378b9dbb604","ios":"levelo://app?vid=bcf8e57e-7074-4fd0-9f30-0378b9dbb604"},"vehicle_type_id":"4","last_reported":1751728174,"current_range_meters":3200,"station_id":"ce4bgt92rcd13ifvqcg0","pricing_plan_id":"cebpf4jnsgd1na2vs0mg"},{"bike_id":"239470fd-fff1-4f5d-abff-0c89bae9e1cf","system_id":"levelo_inurba_marseille","lat":43.30207,"lon":5.39468,"is_reserved":false,"is_disabled":false,"rental_uris":{"android":"levelo://app?vid=239470fd-fff1-4f5d-abff-0c89bae9e1cf","ios":"levelo://app?vid=239470fd-fff1-4f5d-abff-0c89bae9e1cf"},"vehicle_type_id":"4","last_reported":1751728174,"current_range_meters":3200,"station_id":"ce4bh0p2rcd13ifvqd70","pricing_plan_id":"cebpf4jnsgd1na2vs0mg"},{"bike_id":"fc11b952-0238-4eef-9ef0-e8d8b2d94d37","system_id":"levelo_inurba_marseille","lat":43.299752,"lon":5.384807,"is_reserved":false,"is_disabled":false,"rental_uris":{"android":"levelo://app?vid=fc11b952-0238-4eef-9ef0-e8d8b2d94d37","ios":"levelo://app?vid=fc11b952-0238-4eef-9ef0-e8d8b2d94d37"},"vehicle_type_id":"4","last_reported":1751728174,"current_range_meters":3600,"station_id":"ce4bgj92rcd13ifvqbd0","pricing_plan_id":"cebpf4jnsgd1na2vs0mg"},{"bike_id":"66f7e2ed-7356-455c-99c0-387748707932","system_id":"levelo_inurba_marseille","lat":43.282514,"lon":5.350637,"is_reserved":false,"is_disabled":false,"rental_uris":{"android":"levelo://app?vid=66f7e2ed-7356-455c-99c0-387748707932","ios":"levelo://app?vid=66f7e2ed-7356-455c-99c0-387748707932"},"vehicle_type_id":"4","last_reported":1751728174,"current_range_meters":3600,"station_id":"ce4bhbp2rcd13ifvqerg","pricing_plan_id":"cebpf4jnsgd1na2vs0mg"},{"bike_id":"dc2c6f2b-a8d2-43ac-a074-8b76de58d9c3","system_id":"levelo_inurba_marseille","lat":43.27965,"lon":5.38753,"is_reserved":false,"is_disabled":false,"rental_uris":{"android":"levelo://app?vid=dc2c6f2b-a8d2-43ac-a074-8b76de58d9c3","ios":"levelo://app?vid=dc2c6f2b-a8d2-43ac-a074-8b76de58d9c3"},"vehicle_type_id":"4","last_reported":1751728174,"current_range_meters":3600,"station_id":"ce4bhg12rcd13ifvqf80","pricing_plan_id":"cebpf4jnsgd1na2vs0mg"},{"bike_id":"f6ac2ca1-a3ac-4f58-b1a1-b74be8a76990","system_id":"levelo_inurba_marseille","lat":43.29887,"lon":5.43657,"is_reserved":false,"is_disabled":false,"rental_uris":{"android":"levelo://app?vid=f6ac2ca1-a3ac-4f58-b1a1-b74be8a76990","ios":"levelo://app?vid=f6ac2ca1-a3ac-4f58-b1a1-b74be8a76990"},"vehicle_type_id":"4","last_reported":1751728174,"current_range_meters":3600,"station_id":"ce4bhpp2rcd13ifvqhfg","pricing_plan_id":"cebpf4jnsgd1na2vs0mg"},{"bike_id":"d1444e94-489f-4fa9-9e06-4bdf6ba47149","system_id":"levelo_inurba_marseille","lat":43.22504,"lon":5.34785,"is_reserved":false,"is_disabled":false,"rental_uris":{"android":"levelo://app?vid=d1444e94-489f-4fa9-9e06-4bdf6ba47149","ios":"levelo://app?vid=d1444e94-489f-4fa9-9e06-4bdf6ba47149"},"vehicle_type_id":"4","last_reported":1751728174,"current_range_meters":3600,"station_id":"st_cvj5dfep6f1abm77gieg","pricing_plan_id":"cebpf4jnsgd1na2vs0mg"},{"bike_id":"be4e2ba2-f83c-4be6-923a-932d435bb5ce","system_id":"levelo_inurba_marseille","lat":43.28239,"lon":5.40436,"is_reserved":false,"is_disabled":false,"rental_uris":{"android":"levelo://app?vid=be4e2ba2-f83c-4be6-923a-932d435bb5ce","ios":"levelo://app?vid=be4e2ba2-f83c-4be6-923a-932d435bb5ce"},"vehicle_type_id":"4","last_reported":1751728174,"current_range_meters":4000,"station_id":"","pricing_plan_id":"cebpf4jnsgd1na2vs0mg"},{"bike_id":"befc1add-825a-4362-b420-82ae92393625","system_id":"levelo_inurba_marseille","lat":43.28267,"lon":5.35058,"is_reserved":false,"is_disabled":false,"rental_uris":{"android":"levelo://app?vid=befc1add-825a-4362-b420-82ae92393625","ios":"levelo://app?vid=befc1add-825a-4362-b420-82ae92393625"},"vehicle_type_id":"4","last_reported":1751728174,"current_range_meters":4000,"station_id":"ce4bhbp2rcd13ifvqerg","pricing_plan_id":"cebpf4jnsgd1na2vs0mg"},{"bike_id":"a1413037-8192-495e-a96c-26b71764d814","system_id":"levelo_inurba_marseille","lat":43.299665,"lon":5.385058,"is_reserved":false,"is_disabled":false,"rental_uris":{"android":"levelo://app?vid=a1413037-8192-495e-a96c-26b71764d814","ios":"levelo://app?vid=a1413037-8192-495e-a96c-26b71764d814"},"vehicle_type_id":"4","last_reported":1751728174,"current_range_meters":4400,"station_id":"ce4bgj92rcd13ifvqbd0","pricing_plan_id":"cebpf4jnsgd1na2vs0mg"},{"bike_id":"c5bd74dc-4e7b-48e6-8e8e-acecd6133730","system_id":"levelo_inurba_marseille","lat":43.29681,"lon":5.37298,"is_reserved":false,"is_disabled":false,"rental_uris":{"android":"levelo://app?vid=c5bd74dc-4e7b-48e6-8e8e-acecd6133730","ios":"levelo://app?vid=c5bd74dc-4e7b-48e6-8e8e-acecd6133730"},"vehicle_type_id":"4","last_reported":1751728174,"current_range_meters":4400,"station_id":"ce4bgk12rcd13ifvqbj0","pricing_plan_id":"cebpf4jnsgd1na2vs0mg"},{"bike_id":"6c4b0b70-4c01-4e73-b227-11e33616fbf2","system_id":"levelo_inurba_marseille","lat":43.26672,"lon":5.38261,"is_reserved":false,"is_disabled":false,"rental_uris":{"android":"levelo://app?vid=6c4b0b70-4c01-4e73-b227-11e33616fbf2","ios":"levelo://app?vid=6c4b0b70-4c01-4e73-b227-11e33616fbf2"},"vehicle_type_id":"4","last_reported":1751728174,"current_range_meters":4400,"station_id":"ce4bhg92rcd13ifvqf90","pricing_plan_id":"cebpf4jnsgd1na2vs0mg"},{"bike_id":"8084a329-4563-4786-987c-17c3295fea32","system_id":"levelo_inurba_marseille","lat":43.25489,"lon":5.37625,"is_reserved":false,"is_disabled":false,"rental_uris":{"android":"levelo://app?vid=8084a329-4563-4786-987c-17c3295fea32","ios":"levelo://app?vid=8084a329-4563-4786-987c-17c3295fea32"},"vehicle_type_id":"4","last_reported":1751728174,"current_range_meters":4400,"station_id":"ce4bhh12rcd13ifvqff0","pricing_plan_id":"cebpf4jnsgd1na2vs0mg"},{"bike_id":"33d63bdf-de3b-4638-b96e-2f67317f8dbf","system_id":"levelo_inurba_marseille","lat":43.21188,"lon":5.35071,"is_reserved":false,"is_disabled":false,"rental_uris":{"android":"levelo://app?vid=33d63bdf-de3b-4638-b96e-2f67317f8dbf","ios":"levelo://app?vid=33d63bdf-de3b-4638-b96e-2f67317f8dbf"},"vehicle_type_id":"4","last_reported":1751728174,"current_range_meters":4400,"station_id":"st_cvj6sg6p6f1abm77japg","pricing_plan_id":"cebpf4jnsgd1na2vs0mg"},{"bike_id":"8171d87e-dcb3-4f3d-8fb4-9a71fd3ee8c2","system_id":"levelo_inurba_marseille","lat":43.29031,"lon":5.38129,"is_reserved":false,"is_disabled":false,"rental_uris":{"android":"levelo://app?vid=8171d87e-dcb3-4f3d-8fb4-9a71fd3ee8c2","ios":"levelo://app?vid=8171d87e-dcb3-4f3d-8fb4-9a71fd3ee8c2"},"vehicle_type_id":"4","last_reported":1751728174,"current_range_meters":4800,"station_id":"ce4bh4p2rcd13ifvqe1g","pricing_plan_id":"cebpf4jnsgd1na2vs0mg"},{"bike_id":"35b8f817-b1c8-4961-af0e-5af4e59b4571","system_id":"levelo_inurba_marseille","lat":43.27202,"lon":5.39177,"is_reserved":false,"is_disabled":false,"rental_uris":{"android":"levelo://app?vid=35b8f817-b1c8-4961-af0e-5af4e59b4571","ios":"levelo://app?vid=35b8f817-b1c8-4961-af0e-5af4e59b4571"},"vehicle_type_id":"4","last_reported":1751728174,"current_range_meters":4800,"station_id":"ce4bhhp2rcd13ifvqfm0","pricing_plan_id":"cebpf4jnsgd1na2vs0mg"},{"bike_id":"fb89c6e2-6d3e-4d5a-8c90-fdf5eab1efc4","system_id":"levelo_inurba_marseille","lat":43.24157,"lon":5.39731,"is_reserved":false,"is_disabled":false,"rental_uris":{"android":"levelo://app?vid=fb89c6e2-6d3e-4d5a-8c90-fdf5eab1efc4","ios":"levelo://app?vid=fb89c6e2-6d3e-4d5a-8c90-fdf5eab1efc4"},"vehicle_type_id":"4","last_reported":1751728174,"current_range_meters":4800,"station_id":"ce4bhn12rcd13ifvqgpg","pricing_plan_id":"cebpf4jnsgd1na2vs0mg"},{"bike_id":"d1d4c0fa-0e3f-47ab-b58d-db839ab9a273","system_id":"levelo_inurba_marseille","lat":43.3031,"lon":5.40453,"is_reserved":false,"is_disabled":false,"rental_uris":{"android":"levelo://app?vid=d1d4c0fa-0e3f-47ab-b58d-db839ab9a273","ios":"levelo://app?vid=d1d4c0fa-0e3f-47ab-b58d-db839ab9a273"},"vehicle_type_id":"4","last_reported":1751728174,"current_range_meters":5600,"station_id":"ce4bh012rcd13ifvqd10","pricing_plan_id":"cebpf4jnsgd1na2vs0mg"},{"bike_id":"d8c93050-8f4a-45d2-9269-93687a24b3cc","system_id":"levelo_inurba_marseille","lat":43.316692,"lon":5.436362,"is_reserved":false,"is_disabled":false,"rental_uris":{"android":"levelo://app?vid=d8c93050-8f4a-45d2-9269-93687a24b3cc","ios":"levelo://app?vid=d8c93050-8f4a-45d2-9269-93687a24b3cc"},"vehicle_type_id":"4","last_reported":1751728174,"current_range_meters":5600,"station_id":"ce4bhp92rcd13ifvqhcg","pricing_plan_id":"cebpf4jnsgd1na2vs0mg"},{"bike_id":"ab469843-23a8-4d94-8c5a-0776c1f2bcb8","system_id":"levelo_inurba_marseille","lat":43.211884,"lon":5.350731,"is_reserved":false,"is_disabled":false,"rental_uris":{"android":"levelo://app?vid=ab469843-23a8-4d94-8c5a-0776c1f2bcb8","ios":"levelo://app?vid=ab469843-23a8-4d94-8c5a-0776c1f2bcb8"},"vehicle_type_id":"4","last_reported":1751728174,"current_range_meters":5600,"station_id":"st_cvj6sg6p6f1abm77japg","pricing_plan_id":"cebpf4jnsgd1na2vs0mg"},{"bike_id":"3ebd7702-6c29-484c-8d5c-51a884ce93d4","system_id":"levelo_inurba_marseille","lat":43.29224,"lon":5.36055,"is_reserved":false,"is_disabled":false,"rental_uris":{"android":"levelo://app?vid=3ebd7702-6c29-484c-8d5c-51a884ce93d4","ios":"levelo://app?vid=3ebd7702-6c29-484c-8d5c-51a884ce93d4"},"vehicle_type_id":"4","last_reported":1751728174,"current_range_meters":6000,"station_id":"","pricing_plan_id":"cebpf4jnsgd1na2vs0mg"},{"bike_id":"9cb5832f-6e57-4237-b0af-ecb42f4863d1","system_id":"levelo_inurba_marseille","lat":43.300565,"lon":5.37019,"is_reserved":false,"is_disabled":false,"rental_uris":{"android":"levelo://app?vid=9cb5832f-6e57-4237-b0af-ecb42f4863d1","ios":"levelo://app?vid=9cb5832f-6e57-4237-b0af-ecb42f4863d1"},"vehicle_type_id":"4","last_reported":1751728174,"current_range_meters":6000,"station_id":"","pricing_plan_id":"cebpf4jnsgd1na2vs0mg"},{"bike_id":"ba154a12-11bd-42a5-958a-5992f5d043d1","system_id":"levelo_inurba_marseille","lat":43.30495,"lon":5.37093,"is_reserved":false,"is_disabled":false,"rental_uris":{"android":"levelo://app?vid=ba154a12-11bd-42a5-958a-5992f5d043d1","ios":"levelo://app?vid=ba154a12-11bd-42a5-958a-5992f5d043d1"},"vehicle_type_id":"4","last_reported":1751728174,"current_range_meters":6800,"station_id":"","pricing_plan_id":"cebpf4jnsgd1na2vs0mg"},{"bike_id":"dfa2c5ba-7cfd-4904-b5f3-426421892d68","system_id":"levelo_inurba_marseille","lat":43.26549,"lon":5.37287,"is_reserved":false,"is_disabled":false,"rental_uris":{"android":"levelo://app?vid=dfa2c5ba-7cfd-4904-b5f3-426421892d68","ios":"levelo://app?vid=dfa2c5ba-7cfd-4904-b5f3-426421892d68"},"vehicle_type_id":"4","last_reported":1751728174,"current_range_meters":6800,"station_id":"ce4bhg12rcd13ifvqf70","pricing_plan_id":"cebpf4jnsgd1na2vs0mg"},{"bike_id":"24ee1a34-2bd6-4e61-8d23-293e4f4f304c","system_id":"levelo_inurba_marseille","lat":43.248121,"lon":5.374677,"is_reserved":false,"is_disabled":false,"rental_uris":{"android":"levelo://app?vid=24ee1a34-2bd6-4e61-8d23-293e4f4f304c","ios":"levelo://app?vid=24ee1a34-2bd6-4e61-8d23-293e4f4f304c"},"vehicle_type_id":"4","last_reported":1751728174,"current_range_meters":6800,"station_id":"ce4bhgh2rcd13ifvqfb0","pricing_plan_id":"cebpf4jnsgd1na2vs0mg"},{"bike_id":"0c4b7fdb-b39e-49b3-a2b0-ae3d0f43e89d","system_id":"levelo_inurba_marseille","lat":43.32918,"lon":5.40592,"is_reserved":false,"is_disabled":false,"rental_uris":{"android":"levelo://app?vid=0c4b7fdb-b39e-49b3-a2b0-ae3d0f43e89d","ios":"levelo://app?vid=0c4b7fdb-b39e-49b3-a2b0-ae3d0f43e89d"},"vehicle_type_id":"4","last_reported":1751728174,"current_range_meters":7200,"station_id":"","pricing_plan_id":"cebpf4jnsgd1na2vs0mg"},{"bike_id":"fae54f84-396e-4974-8c0b-f166e0b5bb62","system_id":"levelo_inurba_marseille","lat":43.30133,"lon":5.38779,"is_reserved":false,"is_disabled":false,"rental_uris":{"android":"levelo://app?vid=fae54f84-396e-4974-8c0b-f166e0b5bb62","ios":"levelo://app?vid=fae54f84-396e-4974-8c0b-f166e0b5bb62"},"vehicle_type_id":"4","last_reported":1751728174,"current_range_meters":7200,"station_id":"ce4bghh2rcd13ifvqb60","pricing_plan_id":"cebpf4jnsgd1na2vs0mg"},{"bike_id":"e155b191-bfdf-41e9-9b97-d46629d7995a","system_id":"levelo_inurba_marseille","lat":43.27609,"lon":5.36115,"is_reserved":false,"is_disabled":false,"rental_uris":{"android":"levelo://app?vid=e155b191-bfdf-41e9-9b97-d46629d7995a","ios":"levelo://app?vid=e155b191-bfdf-41e9-9b97-d46629d7995a"},"vehicle_type_id":"4","last_reported":1751728174,"current_range_meters":7200,"station_id":"ce4bgj92rcd13ifvqbe0","pricing_plan_id":"cebpf4jnsgd1na2vs0mg"},{"bike_id":"a7fd63cc-8c0c-46fa-b46a-425d98218908","system_id":"levelo_inurba_marseille","lat":43.30299,"lon":5.39214,"is_reserved":false,"is_disabled":false,"rental_uris":{"android":"levelo://app?vid=a7fd63cc-8c0c-46fa-b46a-425d98218908","ios":"levelo://app?vid=a7fd63cc-8c0c-46fa-b46a-425d98218908"},"vehicle_type_id":"4","last_reported":1751728174,"current_range_meters":7200,"station_id":"ce4bgkh2rcd13ifvqbk0","pricing_plan_id":"cebpf4jnsgd1na2vs0mg"},{"bike_id":"7b30a72a-a704-4565-b800-d83ca2770739","system_id":"levelo_inurba_marseille","lat":43.28451,"lon":5.34962,"is_reserved":false,"is_disabled":false,"rental_uris":{"android":"levelo://app?vid=7b30a72a-a704-4565-b800-d83ca2770739","ios":"levelo://app?vid=7b30a72a-a704-4565-b800-d83ca2770739"},"vehicle_type_id":"4","last_reported":1751728174,"current_range_meters":7200,"station_id":"ce4bhbh2rcd13ifvqepg","pricing_plan_id":"cebpf4jnsgd1na2vs0mg"},{"bike_id":"571abec9-12fe-4261-907b-5b08f5260cfb","system_id":"levelo_inurba_marseille","lat":43.23167,"lon":5.43706,"is_reserved":false,"is_disabled":false,"rental_uris":{"android":"levelo://app?vid=571abec9-12fe-4261-907b-5b08f5260cfb","ios":"levelo://app?vid=571abec9-12fe-4261-907b-5b08f5260cfb"},"vehicle_type_id":"4","last_reported":1751728174,"current_range_meters":7200,"station_id":"ce4bhmp2rcd13ifvqgog","pricing_plan_id":"cebpf4jnsgd1na2vs0mg"},{"bike_id":"62f04794-7bee-4ad0-be71-48b4b08b85a0","system_id":"levelo_inurba_marseille","lat":43.30132,"lon":5.38758,"is_reserved":false,"is_disabled":false,"rental_uris":{"android":"levelo://app?vid=62f04794-7bee-4ad0-be71-48b4b08b85a0","ios":"levelo://app?vid=62f04794-7bee-4ad0-be71-48b4b08b85a0"},"vehicle_type_id":"4","last_reported":1751728174,"current_range_meters":8000,"station_id":"ce4bghh2rcd13ifvqb60","pricing_plan_id":"cebpf4jnsgd1na2vs0mg"},{"bike_id":"2ffeba7a-8316-4052-8019-91454da58cbe","system_id":"levelo_inurba_marseille","lat":43.26982,"lon":5.42013,"is_reserved":false,"is_disabled":false,"rental_uris":{"android":"levelo://app?vid=2ffeba7a-8316-4052-8019-91454da58cbe","ios":"levelo://app?vid=2ffeba7a-8316-4052-8019-91454da58cbe"},"vehicle_type_id":"4","last_reported":1751728174,"current_range_meters":8400,"station_id":"","pricing_plan_id":"cebpf4jnsgd1na2vs0mg"},{"bike_id":"6917bed5-c21f-48c3-870d-5408dab99803","system_id":"levelo_inurba_marseille","lat":43.29691,"lon":5.368885,"is_reserved":false,"is_disabled":false,"rental_uris":{"android":"levelo://app?vid=6917bed5-c21f-48c3-870d-5408dab99803","ios":"levelo://app?vid=6917bed5-c21f-48c3-870d-5408dab99803"},"vehicle_type_id":"4","last_reported":1751728174,"current_range_meters":8400,"station_id":"","pricing_plan_id":"cebpf4jnsgd1na2vs0mg"},{"bike_id":"a84549bf-3714-4865-96d4-5f7811cd672a","system_id":"levelo_inurba_marseille","lat":43.29782,"lon":5.37096,"is_reserved":false,"is_disabled":false,"rental_uris":{"android":"levelo://app?vid=a84549bf-3714-4865-96d4-5f7811cd672a","ios":"levelo://app?vid=a84549bf-3714-4865-96d4-5f7811cd672a"},"vehicle_type_id":"4","last_reported":1751728174,"current_range_meters":8400,"station_id":"ce4bgop2rcd13ifvqc1g","pricing_plan_id":"cebpf4jnsgd1na2vs0mg"},{"bike_id":"2930f031-7720-4be9-aa45-fd0c6499351b","system_id":"levelo_inurba_marseille","lat":43.29429,"lon":5.39761,"is_reserved":false,"is_disabled":false,"rental_uris":{"android":"levelo://app?vid=2930f031-7720-4be9-aa45-fd0c6499351b","ios":"levelo://app?vid=2930f031-7720-4be9-aa45-fd0c6499351b"},"vehicle_type_id":"4","last_reported":1751728174,"current_range_meters":8400,"station_id":"ce4bh3h2rcd13ifvqdo0","pricing_plan_id":"cebpf4jnsgd1na2vs0mg"},{"bike_id":"84293163-518e-4ba1-a4f1-a728c50225f1","system_id":"levelo_inurba_marseille","lat":43.26554,"lon":5.37282,"is_reserved":false,"is_disabled":false,"rental_uris":{"android":"levelo://app?vid=84293163-518e-4ba1-a4f1-a728c50225f1","ios":"levelo://app?vid=84293163-518e-4ba1-a4f1-a728c50225f1"},"vehicle_type_id":"4","last_reported":1751728174,"current_range_meters":8400,"station_id":"ce4bhg12rcd13ifvqf70","pricing_plan_id":"cebpf4jnsgd1na2vs0mg"},{"bike_id":"d7f4805c-3664-47a3-86fe-38fa0e4844da","system_id":"levelo_inurba_marseille","lat":43.301392,"lon":5.387797,"is_reserved":false,"is_disabled":false,"rental_uris":{"android":"levelo://app?vid=d7f4805c-3664-47a3-86fe-38fa0e4844da","ios":"levelo://app?vid=d7f4805c-3664-47a3-86fe-38fa0e4844da"},"vehicle_type_id":"4","last_reported":1751728174,"current_range_meters":8800,"station_id":"ce4bghh2rcd13ifvqb60","pricing_plan_id":"cebpf4jnsgd1na2vs0mg"},{"bike_id":"1ea67286-a223-4b82-9427-ab92f35796c9","system_id":"levelo_inurba_marseille","lat":43.3016,"lon":5.38083,"is_reserved":false,"is_disabled":false,"rental_uris":{"android":"levelo://app?vid=1ea67286-a223-4b82-9427-ab92f35796c9","ios":"levelo://app?vid=1ea67286-a223-4b82-9427-ab92f35796c9"},"vehicle_type_id":"4","last_reported":1751728174,"current_range_meters":8800,"station_id":"ce4bgjp2rcd13ifvqbh0","pricing_plan_id":"cebpf4jnsgd1na2vs0mg"},{"bike_id":"66500da3-630b-482c-a091-3ed3705ac709","system_id":"levelo_inurba_marseille","lat":43.31326,"lon":5.39687,"is_reserved":false,"is_disabled":false,"rental_uris":{"android":"levelo://app?vid=66500da3-630b-482c-a091-3ed3705ac709","ios":"levelo://app?vid=66500da3-630b-482c-a091-3ed3705ac709"},"vehicle_type_id":"4","last_reported":1751728174,"current_range_meters":8800,"station_id":"ce4bgvp2rcd13ifvqcu0","pricing_plan_id":"cebpf4jnsgd1na2vs0mg"},{"bike_id":"8566259d-9b0a-40a1-a13e-8d69981409f9","system_id":"levelo_inurba_marseille","lat":43.30071,"lon":5.39947,"is_reserved":false,"is_disabled":false,"rental_uris":{"android":"levelo://app?vid=8566259d-9b0a-40a1-a13e-8d69981409f9","ios":"levelo://app?vid=8566259d-9b0a-40a1-a13e-8d69981409f9"},"vehicle_type_id":"4","last_reported":1751728174,"current_range_meters":8800,"station_id":"ce4bh0h2rcd13ifvqd40","pricing_plan_id":"cebpf4jnsgd1na2vs0mg"},{"bike_id":"d8b3a6cc-bd3d-468e-835f-b9a4d65050f0","system_id":"levelo_inurba_marseille","lat":43.283736,"lon":5.375334,"is_reserved":false,"is_disabled":false,"rental_uris":{"android":"levelo://app?vid=d8b3a6cc-bd3d-468e-835f-b9a4d65050f0","ios":"levelo://app?vid=d8b3a6cc-bd3d-468e-835f-b9a4d65050f0"},"vehicle_type_id":"4","last_reported":1751728174,"current_range_meters":8800,"station_id":"ce4bh412rcd13ifvqds0","pricing_plan_id":"cebpf4jnsgd1na2vs0mg"},{"bike_id":"84cd3d8a-1b9c-452d-bee1-0a83f7fbaade","system_id":"levelo_inurba_marseille","lat":43.28365,"lon":5.38631,"is_reserved":false,"is_disabled":false,"rental_uris":{"android":"levelo://app?vid=84cd3d8a-1b9c-452d-bee1-0a83f7fbaade","ios":"levelo://app?vid=84cd3d8a-1b9c-452d-bee1-0a83f7fbaade"},"vehicle_type_id":"4","last_reported":1751728174,"current_range_meters":8800,"station_id":"ce4bh492rcd13ifvqdvg","pricing_plan_id":"cebpf4jnsgd1na2vs0mg"},{"bike_id":"6b0a1fd8-d9c6-42b7-8aee-05d9231cf95a","system_id":"levelo_inurba_marseille","lat":43.29203,"lon":5.40038,"is_reserved":false,"is_disabled":false,"rental_uris":{"android":"levelo://app?vid=6b0a1fd8-d9c6-42b7-8aee-05d9231cf95a","ios":"levelo://app?vid=6b0a1fd8-d9c6-42b7-8aee-05d9231cf95a"},"vehicle_type_id":"4","last_reported":1751728174,"current_range_meters":9200,"station_id":"","pricing_plan_id":"cebpf4jnsgd1na2vs0mg"},{"bike_id":"e0789c33-a88d-410b-b9b2-20a7d46a56a3","system_id":"levelo_inurba_marseille","lat":43.30327,"lon":5.38896,"is_reserved":false,"is_disabled":false,"rental_uris":{"android":"levelo://app?vid=e0789c33-a88d-410b-b9b2-20a7d46a56a3","ios":"levelo://app?vid=e0789c33-a88d-410b-b9b2-20a7d46a56a3"},"vehicle_type_id":"4","last_reported":1751728174,"current_range_meters":9200,"station_id":"","pricing_plan_id":"cebpf4jnsgd1na2vs0mg"},{"bike_id":"c5745936-7ff9-4c93-b673-f89f3418b5ee","system_id":"levelo_inurba_marseille","lat":43.31223,"lon":5.36873,"is_reserved":false,"is_disabled":false,"rental_uris":{"android":"levelo://app?vid=c5745936-7ff9-4c93-b673-f89f3418b5ee","ios":"levelo://app?vid=c5745936-7ff9-4c93-b673-f89f3418b5ee"},"vehicle_type_id":"4","last_reported":1751728174,"current_range_meters":9200,"station_id":"ce4bgl92rcd13ifvqbq0","pricing_plan_id":"cebpf4jnsgd1na2vs0mg"},{"bike_id":"1c8ab180-05fd-405f-9922-b2b2c2d5142f","system_id":"levelo_inurba_marseille","lat":43.33778,"lon":5.38131,"is_reserved":false,"is_disabled":false,"rental_uris":{"android":"levelo://app?vid=1c8ab180-05fd-405f-9922-b2b2c2d5142f","ios":"levelo://app?vid=1c8ab180-05fd-405f-9922-b2b2c2d5142f"},"vehicle_type_id":"4","last_reported":1751728174,"current_range_meters":9600,"station_id":"","pricing_plan_id":"cebpf4jnsgd1na2vs0mg"},{"bike_id":"b26fae72-751e-4090-a9c4-76ff5de1ad66","system_id":"levelo_inurba_marseille","lat":43.33259,"lon":5.3804,"is_reserved":false,"is_disabled":false,"rental_uris":{"android":"levelo://app?vid=b26fae72-751e-4090-a9c4-76ff5de1ad66","ios":"levelo://app?vid=b26fae72-751e-4090-a9c4-76ff5de1ad66"},"vehicle_type_id":"4","last_reported":1751728174,"current_range_meters":9600,"station_id":"","pricing_plan_id":"cebpf4jnsgd1na2vs0mg"},{"bike_id":"0f640d46-a2b5-4d98-b259-647b90dcae18","system_id":"levelo_inurba_marseille","lat":43.30042,"lon":5.40159,"is_reserved":false,"is_disabled":false,"rental_uris":{"android":"levelo://app?vid=0f640d46-a2b5-4d98-b259-647b90dcae18","ios":"levelo://app?vid=0f640d46-a2b5-4d98-b259-647b90dcae18"},"vehicle_type_id":"4","last_reported":1751728174,"current_range_meters":9600,"station_id":"","pricing_plan_id":"cebpf4jnsgd1na2vs0mg"},{"bike_id":"302af228-a4e3-4805-a116-8781ec410f64","system_id":"levelo_inurba_marseille","lat":43.28719,"lon":5.37941,"is_reserved":false,"is_disabled":false,"rental_uris":{"android":"levelo://app?vid=302af228-a4e3-4805-a116-8781ec410f64","ios":"levelo://app?vid=302af228-a4e3-4805-a116-8781ec410f64"},"vehicle_type_id":"4","last_reported":1751728174,"current_range_meters":9600,"station_id":"ce4bh9p2rcd13ifvqec0","pricing_plan_id":"cebpf4jnsgd1na2vs0mg"},{"bike_id":"f391c35a-6d08-43b1-b400-9a95e9b71adb","system_id":"levelo_inurba_marseille","lat":43.28613,"lon":5.35107,"is_reserved":false,"is_disabled":false,"rental_uris":{"android":"levelo://app?vid=f391c35a-6d08-43b1-b400-9a95e9b71adb","ios":"levelo://app?vid=f391c35a-6d08-43b1-b400-9a95e9b71adb"},"vehicle_type_id":"4","last_reported":1751728174,"current_range_meters":9600,"station_id":"ce4bhch2rcd13ifvqeug","pricing_plan_id":"cebpf4jnsgd1na2vs0mg"},{"bike_id":"9ce9f0d7-1694-461d-a18c-37de10165467","system_id":"levelo_inurba_marseille","lat":43.25481,"lon":5.3765,"is_reserved":false,"is_disabled":false,"rental_uris":{"android":"levelo://app?vid=9ce9f0d7-1694-461d-a18c-37de10165467","ios":"levelo://app?vid=9ce9f0d7-1694-461d-a18c-37de10165467"},"vehicle_type_id":"4","last_reported":1751728174,"current_range_meters":9600,"station_id":"ce4bhh12rcd13ifvqff0","pricing_plan_id":"cebpf4jnsgd1na2vs0mg"},{"bike_id":"76d127a6-3385-47a2-9e3a-490d1d976c59","system_id":"levelo_inurba_marseille","lat":43.31167,"lon":5.38239,"is_reserved":false,"is_disabled":false,"rental_uris":{"android":"levelo://app?vid=76d127a6-3385-47a2-9e3a-490d1d976c59","ios":"levelo://app?vid=76d127a6-3385-47a2-9e3a-490d1d976c59"},"vehicle_type_id":"4","last_reported":1751728174,"current_range_meters":10000,"station_id":"","pricing_plan_id":"cebpf4jnsgd1na2vs0mg"},{"bike_id":"a74e4111-850f-43d8-82a2-15fcc40ea74c","system_id":"levelo_inurba_marseille","lat":43.301348,"lon":5.387792,"is_reserved":false,"is_disabled":false,"rental_uris":{"android":"levelo://app?vid=a74e4111-850f-43d8-82a2-15fcc40ea74c","ios":"levelo://app?vid=a74e4111-850f-43d8-82a2-15fcc40ea74c"},"vehicle_type_id":"4","last_reported":1751728174,"current_range_meters":10000,"station_id":"ce4bghh2rcd13ifvqb60","pricing_plan_id":"cebpf4jnsgd1na2vs0mg"},{"bike_id":"b15a5629-b0c7-4102-9665-5eba01ec2f18","system_id":"levelo_inurba_marseille","lat":43.30598,"lon":5.37249,"is_reserved":false,"is_disabled":false,"rental_uris":{"android":"levelo://app?vid=b15a5629-b0c7-4102-9665-5eba01ec2f18","ios":"levelo://app?vid=b15a5629-b0c7-4102-9665-5eba01ec2f18"},"vehicle_type_id":"4","last_reported":1751728174,"current_range_meters":10000,"station_id":"ce4bgqh2rcd13ifvqc4g","pricing_plan_id":"cebpf4jnsgd1na2vs0mg"},{"bike_id":"36cfaf5e-2d89-47a7-a15d-9f16625b2ff4","system_id":"levelo_inurba_marseille","lat":43.30212,"lon":5.39459,"is_reserved":false,"is_disabled":false,"rental_uris":{"android":"levelo://app?vid=36cfaf5e-2d89-47a7-a15d-9f16625b2ff4","ios":"levelo://app?vid=36cfaf5e-2d89-47a7-a15d-9f16625b2ff4"},"vehicle_type_id":"4","last_reported":1751728174,"current_range_meters":10000,"station_id":"ce4bh0p2rcd13ifvqd70","pricing_plan_id":"cebpf4jnsgd1na2vs0mg"},{"bike_id":"4b8da722-ee9e-48a4-a5e5-3a8a10364708","system_id":"levelo_inurba_marseille","lat":43.31238,"lon":5.37821,"is_reserved":false,"is_disabled":false,"rental_uris":{"android":"levelo://app?vid=4b8da722-ee9e-48a4-a5e5-3a8a10364708","ios":"levelo://app?vid=4b8da722-ee9e-48a4-a5e5-3a8a10364708"},"vehicle_type_id":"4","last_reported":1751728174,"current_range_meters":10800,"station_id":"","pricing_plan_id":"cebpf4jnsgd1na2vs0mg"},{"bike_id":"69c2280d-9883-47db-99f2-c073a6babae6","system_id":"levelo_inurba_marseille","lat":43.30853,"lon":5.37038,"is_reserved":false,"is_disabled":false,"rental_uris":{"android":"levelo://app?vid=69c2280d-9883-47db-99f2-c073a6babae6","ios":"levelo://app?vid=69c2280d-9883-47db-99f2-c073a6babae6"},"vehicle_type_id":"4","last_reported":1751728174,"current_range_meters":10800,"station_id":"","pricing_plan_id":"cebpf4jnsgd1na2vs0mg"},{"bike_id":"dc8fc247-af1b-45e1-bb00-fcf80ab5d02f","system_id":"levelo_inurba_marseille","lat":43.27621,"lon":5.36107,"is_reserved":false,"is_disabled":false,"rental_uris":{"android":"levelo://app?vid=dc8fc247-af1b-45e1-bb00-fcf80ab5d02f","ios":"levelo://app?vid=dc8fc247-af1b-45e1-bb00-fcf80ab5d02f"},"vehicle_type_id":"4","last_reported":1751728174,"current_range_meters":10800,"station_id":"ce4bgj92rcd13ifvqbe0","pricing_plan_id":"cebpf4jnsgd1na2vs0mg"},{"bike_id":"94e2f770-4747-452b-81b2-8d879f7acc51","system_id":"levelo_inurba_marseille","lat":43.261943,"lon":5.37449,"is_reserved":false,"is_disabled":false,"rental_uris":{"android":"levelo://app?vid=94e2f770-4747-452b-81b2-8d879f7acc51","ios":"levelo://app?vid=94e2f770-4747-452b-81b2-8d879f7acc51"},"vehicle_type_id":"4","last_reported":1751728174,"current_range_meters":10800,"station_id":"ce4bhgp2rcd13ifvqfc0","pricing_plan_id":"cebpf4jnsgd1na2vs0mg"},{"bike_id":"02fdc12a-d347-4e7c-aa8f-fe9c774062bb","system_id":"levelo_inurba_marseille","lat":43.241825,"lon":5.397348,"is_reserved":false,"is_disabled":false,"rental_uris":{"android":"levelo://app?vid=02fdc12a-d347-4e7c-aa8f-fe9c774062bb","ios":"levelo://app?vid=02fdc12a-d347-4e7c-aa8f-fe9c774062bb"},"vehicle_type_id":"4","last_reported":1751728174,"current_range_meters":10800,"station_id":"ce4bhn12rcd13ifvqgpg","pricing_plan_id":"cebpf4jnsgd1na2vs0mg"},{"bike_id":"104fb22d-c305-40d3-a6ee-c13eed166d78","system_id":"levelo_inurba_marseille","lat":43.27624,"lon":5.3611,"is_reserved":false,"is_disabled":false,"rental_uris":{"android":"levelo://app?vid=104fb22d-c305-40d3-a6ee-c13eed166d78","ios":"levelo://app?vid=104fb22d-c305-40d3-a6ee-c13eed166d78"},"vehicle_type_id":"4","last_reported":1751728174,"current_range_meters":11200,"station_id":"ce4bgj92rcd13ifvqbe0","pricing_plan_id":"cebpf4jnsgd1na2vs0mg"},{"bike_id":"72415599-398a-4125-a62c-2c1cf2a849da","system_id":"levelo_inurba_marseille","lat":43.28344,"lon":5.38113,"is_reserved":false,"is_disabled":false,"rental_uris":{"android":"levelo://app?vid=72415599-398a-4125-a62c-2c1cf2a849da","ios":"levelo://app?vid=72415599-398a-4125-a62c-2c1cf2a849da"},"vehicle_type_id":"4","last_reported":1751728174,"current_range_meters":11200,"station_id":"ce4bh412rcd13ifvqdr0","pricing_plan_id":"cebpf4jnsgd1na2vs0mg"},{"bike_id":"04edf994-7a6f-42bd-bdb9-6db229bd33ae","system_id":"levelo_inurba_marseille","lat":43.29579,"lon":5.42259,"is_reserved":false,"is_disabled":false,"rental_uris":{"android":"levelo://app?vid=04edf994-7a6f-42bd-bdb9-6db229bd33ae","ios":"levelo://app?vid=04edf994-7a6f-42bd-bdb9-6db229bd33ae"},"vehicle_type_id":"4","last_reported":1751728174,"current_range_meters":11200,"station_id":"ce4bhph2rcd13ifvqhdg","pricing_plan_id":"cebpf4jnsgd1na2vs0mg"},{"bike_id":"97c1dcd5-710d-4d50-87dc-175ec1f0efd6","system_id":"levelo_inurba_marseille","lat":43.2293,"lon":5.3538,"is_reserved":false,"is_disabled":false,"rental_uris":{"android":"levelo://app?vid=97c1dcd5-710d-4d50-87dc-175ec1f0efd6","ios":"levelo://app?vid=97c1dcd5-710d-4d50-87dc-175ec1f0efd6"},"vehicle_type_id":"4","last_reported":1751728174,"current_range_meters":11200,"station_id":"cpo3532slgdg3j2ikp40","pricing_plan_id":"cebpf4jnsgd1na2vs0mg"},{"bike_id":"4db45513-e520-4598-82fa-5809d80d4f3d","system_id":"levelo_inurba_marseille","lat":43.28108,"lon":5.35475,"is_reserved":false,"is_disabled":false,"rental_uris":{"android":"levelo://app?vid=4db45513-e520-4598-82fa-5809d80d4f3d","ios":"levelo://app?vid=4db45513-e520-4598-82fa-5809d80d4f3d"},"vehicle_type_id":"4","last_reported":1751728174,"current_range_meters":11600,"station_id":"","pricing_plan_id":"cebpf4jnsgd1na2vs0mg"},{"bike_id":"9a7dcf3d-5bc8-42c0-9bb6-d8d9755a841d","system_id":"levelo_inurba_marseille","lat":43.30221,"lon":5.39478,"is_reserved":false,"is_disabled":false,"rental_uris":{"android":"levelo://app?vid=9a7dcf3d-5bc8-42c0-9bb6-d8d9755a841d","ios":"levelo://app?vid=9a7dcf3d-5bc8-42c0-9bb6-d8d9755a841d"},"vehicle_type_id":"4","last_reported":1751728174,"current_range_meters":11600,"station_id":"ce4bh0p2rcd13ifvqd70","pricing_plan_id":"cebpf4jnsgd1na2vs0mg"},{"bike_id":"19f6fdc4-6234-4a94-99a0-68be5e248ba1","system_id":"levelo_inurba_marseille","lat":43.26572,"lon":5.3908,"is_reserved":false,"is_disabled":false,"rental_uris":{"android":"levelo://app?vid=19f6fdc4-6234-4a94-99a0-68be5e248ba1","ios":"levelo://app?vid=19f6fdc4-6234-4a94-99a0-68be5e248ba1"},"vehicle_type_id":"4","last_reported":1751728174,"current_range_meters":11600,"station_id":"ce4bhe12rcd13ifvqf30","pricing_plan_id":"cebpf4jnsgd1na2vs0mg"},{"bike_id":"f69a5fb8-4b43-4c92-b9a1-575ca9077199","system_id":"levelo_inurba_marseille","lat":43.26239,"lon":5.40447,"is_reserved":false,"is_disabled":false,"rental_uris":{"android":"levelo://app?vid=f69a5fb8-4b43-4c92-b9a1-575ca9077199","ios":"levelo://app?vid=f69a5fb8-4b43-4c92-b9a1-575ca9077199"},"vehicle_type_id":"4","last_reported":1751728174,"current_range_meters":11600,"station_id":"ce4bhmh2rcd13ifvqgmg","pricing_plan_id":"cebpf4jnsgd1na2vs0mg"},{"bike_id":"29b19e99-4845-4ee3-b1ee-35721cd36dc7","system_id":"levelo_inurba_marseille","lat":43.23198,"lon":5.35548,"is_reserved":false,"is_disabled":false,"rental_uris":{"android":"levelo://app?vid=29b19e99-4845-4ee3-b1ee-35721cd36dc7","ios":"levelo://app?vid=29b19e99-4845-4ee3-b1ee-35721cd36dc7"},"vehicle_type_id":"4","last_reported":1751728174,"current_range_meters":11600,"station_id":"ce4bhu92rcd13ifvqi70","pricing_plan_id":"cebpf4jnsgd1na2vs0mg"},{"bike_id":"266cc187-baed-450b-a04e-255b34645329","system_id":"levelo_inurba_marseille","lat":43.30209,"lon":5.39463,"is_reserved":false,"is_disabled":false,"rental_uris":{"android":"levelo://app?vid=266cc187-baed-450b-a04e-255b34645329","ios":"levelo://app?vid=266cc187-baed-450b-a04e-255b34645329"},"vehicle_type_id":"4","last_reported":1751728174,"current_range_meters":12000,"station_id":"ce4bh0p2rcd13ifvqd70","pricing_plan_id":"cebpf4jnsgd1na2vs0mg"},{"bike_id":"c0cb2fe2-e678-4d53-9246-d4f63167ff66","system_id":"levelo_inurba_marseille","lat":43.23959,"lon":5.36639,"is_reserved":false,"is_disabled":false,"rental_uris":{"android":"levelo://app?vid=c0cb2fe2-e678-4d53-9246-d4f63167ff66","ios":"levelo://app?vid=c0cb2fe2-e678-4d53-9246-d4f63167ff66"},"vehicle_type_id":"4","last_reported":1751728174,"current_range_meters":12000,"station_id":"ce4bhi12rcd13ifvqfp0","pricing_plan_id":"cebpf4jnsgd1na2vs0mg"},{"bike_id":"d8d2e8fb-2989-454b-a772-e0e407868127","system_id":"levelo_inurba_marseille","lat":43.29068,"lon":5.37178,"is_reserved":false,"is_disabled":false,"rental_uris":{"android":"levelo://app?vid=d8d2e8fb-2989-454b-a772-e0e407868127","ios":"levelo://app?vid=d8d2e8fb-2989-454b-a772-e0e407868127"},"vehicle_type_id":"4","last_reported":1751728174,"current_range_meters":12400,"station_id":"ce4bh5p2rcd13ifvqe4g","pricing_plan_id":"cebpf4jnsgd1na2vs0mg"},{"bike_id":"254573af-7d24-43e5-8a3c-17382d555fa2","system_id":"levelo_inurba_marseille","lat":43.2842,"lon":5.34974,"is_reserved":false,"is_disabled":false,"rental_uris":{"android":"levelo://app?vid=254573af-7d24-43e5-8a3c-17382d555fa2","ios":"levelo://app?vid=254573af-7d24-43e5-8a3c-17382d555fa2"},"vehicle_type_id":"4","last_reported":1751728174,"current_range_meters":12400,"station_id":"ce4bhbh2rcd13ifvqepg","pricing_plan_id":"cebpf4jnsgd1na2vs0mg"},{"bike_id":"5e811c86-824d-4978-918d-a61aa3a543ea","system_id":"levelo_inurba_marseille","lat":43.30423,"lon":5.41289,"is_reserved":false,"is_disabled":false,"rental_uris":{"android":"levelo://app?vid=5e811c86-824d-4978-918d-a61aa3a543ea","ios":"levelo://app?vid=5e811c86-824d-4978-918d-a61aa3a543ea"},"vehicle_type_id":"4","last_reported":1751728174,"current_range_meters":12400,"station_id":"ce4bhop2rcd13ifvqh8g","pricing_plan_id":"cebpf4jnsgd1na2vs0mg"},{"bike_id":"daeee1e5-3b93-44da-8e47-7b24df6d544e","system_id":"levelo_inurba_marseille","lat":43.29977,"lon":5.37384,"is_reserved":false,"is_disabled":false,"rental_uris":{"android":"levelo://app?vid=daeee1e5-3b93-44da-8e47-7b24df6d544e","ios":"levelo://app?vid=daeee1e5-3b93-44da-8e47-7b24df6d544e"},"vehicle_type_id":"4","last_reported":1751728174,"current_range_meters":12800,"station_id":"","pricing_plan_id":"cebpf4jnsgd1na2vs0mg"},{"bike_id":"c640f378-9c76-45d6-a65e-ee1a86afbc71","system_id":"levelo_inurba_marseille","lat":43.2761,"lon":5.36106,"is_reserved":false,"is_disabled":false,"rental_uris":{"android":"levelo://app?vid=c640f378-9c76-45d6-a65e-ee1a86afbc71","ios":"levelo://app?vid=c640f378-9c76-45d6-a65e-ee1a86afbc71"},"vehicle_type_id":"4","last_reported":1751728174,"current_range_meters":12800,"station_id":"ce4bgj92rcd13ifvqbe0","pricing_plan_id":"cebpf4jnsgd1na2vs0mg"},{"bike_id":"9f072024-96cf-4f3d-ac83-0d4367df9987","system_id":"levelo_inurba_marseille","lat":43.337444,"lon":5.374475,"is_reserved":false,"is_disabled":false,"rental_uris":{"android":"levelo://app?vid=9f072024-96cf-4f3d-ac83-0d4367df9987","ios":"levelo://app?vid=9f072024-96cf-4f3d-ac83-0d4367df9987"},"vehicle_type_id":"4","last_reported":1751728174,"current_range_meters":12800,"station_id":"ce4bgl92rcd13ifvqbq0","pricing_plan_id":"cebpf4jnsgd1na2vs0mg"},{"bike_id":"2495f2b6-7a66-4528-85fc-ff37c93e7cc5","system_id":"levelo_inurba_marseille","lat":43.30145,"lon":5.39851,"is_reserved":false,"is_disabled":false,"rental_uris":{"android":"levelo://app?vid=2495f2b6-7a66-4528-85fc-ff37c93e7cc5","ios":"levelo://app?vid=2495f2b6-7a66-4528-85fc-ff37c93e7cc5"},"vehicle_type_id":"4","last_reported":1751728174,"current_range_meters":12800,"station_id":"ce4bh0h2rcd13ifvqd40","pricing_plan_id":"cebpf4jnsgd1na2vs0mg"},{"bike_id":"f1284ee2-078d-4dbd-9580-2dc23345a810","system_id":"levelo_inurba_marseille","lat":43.26556,"lon":5.37289,"is_reserved":false,"is_disabled":false,"rental_uris":{"android":"levelo://app?vid=f1284ee2-078d-4dbd-9580-2dc23345a810","ios":"levelo://app?vid=f1284ee2-078d-4dbd-9580-2dc23345a810"},"vehicle_type_id":"4","last_reported":1751728174,"current_range_meters":12800,"station_id":"ce4bhg12rcd13ifvqf70","pricing_plan_id":"cebpf4jnsgd1na2vs0mg"},{"bike_id":"c3b11f7a-63a8-4b29-96a6-ad52667fb890","system_id":"levelo_inurba_marseille","lat":43.25,"lon":5.38921,"is_reserved":false,"is_disabled":false,"rental_uris":{"android":"levelo://app?vid=c3b11f7a-63a8-4b29-96a6-ad52667fb890","ios":"levelo://app?vid=c3b11f7a-63a8-4b29-96a6-ad52667fb890"},"vehicle_type_id":"4","last_reported":1751728174,"current_range_meters":12800,"station_id":"ce4bhgp2rcd13ifvqfd0","pricing_plan_id":"cebpf4jnsgd1na2vs0mg"},{"bike_id":"ef8a3fcb-dbe7-4bda-8c07-e79d33ca4307","system_id":"levelo_inurba_marseille","lat":43.3128,"lon":5.40173,"is_reserved":false,"is_disabled":false,"rental_uris":{"android":"levelo://app?vid=ef8a3fcb-dbe7-4bda-8c07-e79d33ca4307","ios":"levelo://app?vid=ef8a3fcb-dbe7-4bda-8c07-e79d33ca4307"},"vehicle_type_id":"4","last_reported":1751728174,"current_range_meters":13600,"station_id":"ce4bh092rcd13ifvqd30","pricing_plan_id":"cebpf4jnsgd1na2vs0mg"},{"bike_id":"89c4c171-fa34-44ee-8818-b4f1de745083","system_id":"levelo_inurba_marseille","lat":43.23193,"lon":5.35537,"is_reserved":false,"is_disabled":false,"rental_uris":{"android":"levelo://app?vid=89c4c171-fa34-44ee-8818-b4f1de745083","ios":"levelo://app?vid=89c4c171-fa34-44ee-8818-b4f1de745083"},"vehicle_type_id":"4","last_reported":1751728174,"current_range_meters":13600,"station_id":"ce4bhu92rcd13ifvqi70","pricing_plan_id":"cebpf4jnsgd1na2vs0mg"},{"bike_id":"b1d40197-e49c-4962-8cd8-0babe05d31a6","system_id":"levelo_inurba_marseille","lat":43.21252,"lon":5.35272,"is_reserved":false,"is_disabled":false,"rental_uris":{"android":"levelo://app?vid=b1d40197-e49c-4962-8cd8-0babe05d31a6","ios":"levelo://app?vid=b1d40197-e49c-4962-8cd8-0babe05d31a6"},"vehicle_type_id":"4","last_reported":1751728174,"current_range_meters":14000,"station_id":"","pricing_plan_id":"cebpf4jnsgd1na2vs0mg"},{"bike_id":"16371782-24e4-423e-8528-b3378980588b","system_id":"levelo_inurba_marseille","lat":43.28418,"lon":5.34983,"is_reserved":false,"is_disabled":false,"rental_uris":{"android":"levelo://app?vid=16371782-24e4-423e-8528-b3378980588b","ios":"levelo://app?vid=16371782-24e4-423e-8528-b3378980588b"},"vehicle_type_id":"4","last_reported":1751728174,"current_range_meters":14000,"station_id":"ce4bhbh2rcd13ifvqepg","pricing_plan_id":"cebpf4jnsgd1na2vs0mg"},{"bike_id":"77bde8bf-068b-4583-87d6-ec3b6c990d7d","system_id":"levelo_inurba_marseille","lat":43.23963,"lon":5.36634,"is_reserved":false,"is_disabled":false,"rental_uris":{"android":"levelo://app?vid=77bde8bf-068b-4583-87d6-ec3b6c990d7d","ios":"levelo://app?vid=77bde8bf-068b-4583-87d6-ec3b6c990d7d"},"vehicle_type_id":"4","last_reported":1751728174,"current_range_meters":14000,"station_id":"ce4bhi12rcd13ifvqfp0","pricing_plan_id":"cebpf4jnsgd1na2vs0mg"},{"bike_id":"0d46fb15-39fe-4e47-9e36-ff099ab0aa35","system_id":"levelo_inurba_marseille","lat":43.23185,"lon":5.39988,"is_reserved":false,"is_disabled":false,"rental_uris":{"android":"levelo://app?vid=0d46fb15-39fe-4e47-9e36-ff099ab0aa35","ios":"levelo://app?vid=0d46fb15-39fe-4e47-9e36-ff099ab0aa35"},"vehicle_type_id":"4","last_reported":1751728174,"current_range_meters":14000,"station_id":"ce4bhn12rcd13ifvqgqg","pricing_plan_id":"cebpf4jnsgd1na2vs0mg"},{"bike_id":"d008f2d7-a6e8-4370-83cd-46244114c79c","system_id":"levelo_inurba_marseille","lat":43.23208,"lon":5.35549,"is_reserved":false,"is_disabled":false,"rental_uris":{"android":"levelo://app?vid=d008f2d7-a6e8-4370-83cd-46244114c79c","ios":"levelo://app?vid=d008f2d7-a6e8-4370-83cd-46244114c79c"},"vehicle_type_id":"4","last_reported":1751728174,"current_range_meters":14000,"station_id":"ce4bhu92rcd13ifvqi70","pricing_plan_id":"cebpf4jnsgd1na2vs0mg"},{"bike_id":"85e59ae2-b351-4789-8c40-11e04c4e6808","system_id":"levelo_inurba_marseille","lat":43.231994,"lon":5.355519,"is_reserved":false,"is_disabled":false,"rental_uris":{"android":"levelo://app?vid=85e59ae2-b351-4789-8c40-11e04c4e6808","ios":"levelo://app?vid=85e59ae2-b351-4789-8c40-11e04c4e6808"},"vehicle_type_id":"4","last_reported":1751728174,"current_range_meters":14000,"station_id":"ce4bhu92rcd13ifvqi70","pricing_plan_id":"cebpf4jnsgd1na2vs0mg"},{"bike_id":"2f74c931-10f2-4253-bbd0-d81a003e6700","system_id":"levelo_inurba_marseille","lat":43.267918,"lon":5.394125,"is_reserved":false,"is_disabled":false,"rental_uris":{"android":"levelo://app?vid=2f74c931-10f2-4253-bbd0-d81a003e6700","ios":"levelo://app?vid=2f74c931-10f2-4253-bbd0-d81a003e6700"},"vehicle_type_id":"4","last_reported":1751728174,"current_range_meters":14400,"station_id":"ce4bhh12rcd13ifvqfg0","pricing_plan_id":"cebpf4jnsgd1na2vs0mg"},{"bike_id":"3b94207c-4139-4abc-9bb5-5a1e38510ecd","system_id":"levelo_inurba_marseille","lat":43.26221,"lon":5.40456,"is_reserved":false,"is_disabled":false,"rental_uris":{"android":"levelo://app?vid=3b94207c-4139-4abc-9bb5-5a1e38510ecd","ios":"levelo://app?vid=3b94207c-4139-4abc-9bb5-5a1e38510ecd"},"vehicle_type_id":"4","last_reported":1751728174,"current_range_meters":14400,"station_id":"ce4bhmh2rcd13ifvqgmg","pricing_plan_id":"cebpf4jnsgd1na2vs0mg"},{"bike_id":"8b01cf32-54e2-4fd2-a618-94fbfc8c3130","system_id":"levelo_inurba_marseille","lat":43.231938,"lon":5.355604,"is_reserved":false,"is_disabled":false,"rental_uris":{"android":"levelo://app?vid=8b01cf32-54e2-4fd2-a618-94fbfc8c3130","ios":"levelo://app?vid=8b01cf32-54e2-4fd2-a618-94fbfc8c3130"},"vehicle_type_id":"4","last_reported":1751728174,"current_range_meters":14400,"station_id":"ce4bhu92rcd13ifvqi70","pricing_plan_id":"cebpf4jnsgd1na2vs0mg"},{"bike_id":"96bee655-62f8-4906-b63b-cc98a8cb85c7","system_id":"levelo_inurba_marseille","lat":43.23194,"lon":5.35552,"is_reserved":false,"is_disabled":false,"rental_uris":{"android":"levelo://app?vid=96bee655-62f8-4906-b63b-cc98a8cb85c7","ios":"levelo://app?vid=96bee655-62f8-4906-b63b-cc98a8cb85c7"},"vehicle_type_id":"4","last_reported":1751728174,"current_range_meters":14400,"station_id":"ce4bhu92rcd13ifvqi70","pricing_plan_id":"cebpf4jnsgd1na2vs0mg"},{"bike_id":"adf1d38d-1f03-40cf-9b57-0a8f15f62b2d","system_id":"levelo_inurba_marseille","lat":43.32955,"lon":5.36393,"is_reserved":false,"is_disabled":false,"rental_uris":{"android":"levelo://app?vid=adf1d38d-1f03-40cf-9b57-0a8f15f62b2d","ios":"levelo://app?vid=adf1d38d-1f03-40cf-9b57-0a8f15f62b2d"},"vehicle_type_id":"4","last_reported":1751728174,"current_range_meters":14800,"station_id":"","pricing_plan_id":"cebpf4jnsgd1na2vs0mg"},{"bike_id":"1ddc21a9-b051-4a3e-8b2c-b8f010d25f77","system_id":"levelo_inurba_marseille","lat":43.310886,"lon":5.377888,"is_reserved":false,"is_disabled":false,"rental_uris":{"android":"levelo://app?vid=1ddc21a9-b051-4a3e-8b2c-b8f010d25f77","ios":"levelo://app?vid=1ddc21a9-b051-4a3e-8b2c-b8f010d25f77"},"vehicle_type_id":"4","last_reported":1751728174,"current_range_meters":14800,"station_id":"ce4bgt92rcd13ifvqcg0","pricing_plan_id":"cebpf4jnsgd1na2vs0mg"},{"bike_id":"c3fae141-3322-46bb-976b-c85803ceeb5f","system_id":"levelo_inurba_marseille","lat":43.2956,"lon":5.42274,"is_reserved":false,"is_disabled":false,"rental_uris":{"android":"levelo://app?vid=c3fae141-3322-46bb-976b-c85803ceeb5f","ios":"levelo://app?vid=c3fae141-3322-46bb-976b-c85803ceeb5f"},"vehicle_type_id":"4","last_reported":1751728174,"current_range_meters":14800,"station_id":"ce4bhph2rcd13ifvqhdg","pricing_plan_id":"cebpf4jnsgd1na2vs0mg"},{"bike_id":"8501c7f1-4540-433a-9226-9677bd87b71a","system_id":"levelo_inurba_marseille","lat":43.21188,"lon":5.35076,"is_reserved":false,"is_disabled":false,"rental_uris":{"android":"levelo://app?vid=8501c7f1-4540-433a-9226-9677bd87b71a","ios":"levelo://app?vid=8501c7f1-4540-433a-9226-9677bd87b71a"},"vehicle_type_id":"4","last_reported":1751728174,"current_range_meters":14800,"station_id":"st_cvj6sg6p6f1abm77japg","pricing_plan_id":"cebpf4jnsgd1na2vs0mg"},{"bike_id":"cca681f4-cce5-4fb7-9918-cb13c2d9cbe6","system_id":"levelo_inurba_marseille","lat":43.2573,"lon":5.41107,"is_reserved":false,"is_disabled":false,"rental_uris":{"android":"levelo://app?vid=cca681f4-cce5-4fb7-9918-cb13c2d9cbe6","ios":"levelo://app?vid=cca681f4-cce5-4fb7-9918-cb13c2d9cbe6"},"vehicle_type_id":"4","last_reported":1751728174,"current_range_meters":15200,"station_id":"","pricing_plan_id":"cebpf4jnsgd1na2vs0mg"},{"bike_id":"bca643a0-6015-472b-896d-df020d6f3301","system_id":"levelo_inurba_marseille","lat":43.30892,"lon":5.37185,"is_reserved":false,"is_disabled":false,"rental_uris":{"android":"levelo://app?vid=bca643a0-6015-472b-896d-df020d6f3301","ios":"levelo://app?vid=bca643a0-6015-472b-896d-df020d6f3301"},"vehicle_type_id":"4","last_reported":1751728174,"current_range_meters":15200,"station_id":"ce4bguh2rcd13ifvqckg","pricing_plan_id":"cebpf4jnsgd1na2vs0mg"},{"bike_id":"870178c0-2a38-4a38-842e-c24c62c71712","system_id":"levelo_inurba_marseille","lat":43.28291,"lon":5.35054,"is_reserved":false,"is_disabled":false,"rental_uris":{"android":"levelo://app?vid=870178c0-2a38-4a38-842e-c24c62c71712","ios":"levelo://app?vid=870178c0-2a38-4a38-842e-c24c62c71712"},"vehicle_type_id":"4","last_reported":1751728174,"current_range_meters":15200,"station_id":"ce4bhbp2rcd13ifvqerg","pricing_plan_id":"cebpf4jnsgd1na2vs0mg"},{"bike_id":"e71bcd81-9ad3-4c70-8aed-a8c086e789ac","system_id":"levelo_inurba_marseille","lat":43.259316,"lon":5.40905,"is_reserved":false,"is_disabled":false,"rental_uris":{"android":"levelo://app?vid=e71bcd81-9ad3-4c70-8aed-a8c086e789ac","ios":"levelo://app?vid=e71bcd81-9ad3-4c70-8aed-a8c086e789ac"},"vehicle_type_id":"4","last_reported":1751728174,"current_range_meters":15200,"station_id":"ce4bhm92rcd13ifvqglg","pricing_plan_id":"cebpf4jnsgd1na2vs0mg"},{"bike_id":"fe8ee84c-fdfc-40aa-a1c2-6e36409c0740","system_id":"levelo_inurba_marseille","lat":43.26806,"lon":5.3907,"is_reserved":false,"is_disabled":false,"rental_uris":{"android":"levelo://app?vid=fe8ee84c-fdfc-40aa-a1c2-6e36409c0740","ios":"levelo://app?vid=fe8ee84c-fdfc-40aa-a1c2-6e36409c0740"},"vehicle_type_id":"4","last_reported":1751728174,"current_range_meters":16000,"station_id":"","pricing_plan_id":"cebpf4jnsgd1na2vs0mg"},{"bike_id":"ba8e5270-5a7f-4191-a91d-7cf85eea91c2","system_id":"levelo_inurba_marseille","lat":43.28061,"lon":5.34774,"is_reserved":false,"is_disabled":false,"rental_uris":{"android":"levelo://app?vid=ba8e5270-5a7f-4191-a91d-7cf85eea91c2","ios":"levelo://app?vid=ba8e5270-5a7f-4191-a91d-7cf85eea91c2"},"vehicle_type_id":"4","last_reported":1751728174,"current_range_meters":16000,"station_id":"","pricing_plan_id":"cebpf4jnsgd1na2vs0mg"},{"bike_id":"00d2b955-706e-4027-b313-613b5525a28b","system_id":"levelo_inurba_marseille","lat":43.30208,"lon":5.39465,"is_reserved":false,"is_disabled":false,"rental_uris":{"android":"levelo://app?vid=00d2b955-706e-4027-b313-613b5525a28b","ios":"levelo://app?vid=00d2b955-706e-4027-b313-613b5525a28b"},"vehicle_type_id":"4","last_reported":1751728174,"current_range_meters":16000,"station_id":"ce4bh0p2rcd13ifvqd70","pricing_plan_id":"cebpf4jnsgd1na2vs0mg"},{"bike_id":"27ee6dc2-2d1a-4e06-afbd-fdef97d4b086","system_id":"levelo_inurba_marseille","lat":43.28257,"lon":5.35054,"is_reserved":false,"is_disabled":false,"rental_uris":{"android":"levelo://app?vid=27ee6dc2-2d1a-4e06-afbd-fdef97d4b086","ios":"levelo://app?vid=27ee6dc2-2d1a-4e06-afbd-fdef97d4b086"},"vehicle_type_id":"4","last_reported":1751728174,"current_range_meters":16000,"station_id":"ce4bhbp2rcd13ifvqerg","pricing_plan_id":"cebpf4jnsgd1na2vs0mg"},{"bike_id":"33483aec-9181-40ff-9721-cfacb89c05f1","system_id":"levelo_inurba_marseille","lat":43.262,"lon":5.37928,"is_reserved":false,"is_disabled":false,"rental_uris":{"android":"levelo://app?vid=33483aec-9181-40ff-9721-cfacb89c05f1","ios":"levelo://app?vid=33483aec-9181-40ff-9721-cfacb89c05f1"},"vehicle_type_id":"4","last_reported":1751728174,"current_range_meters":16000,"station_id":"ce4bhjp2rcd13ifvqg90","pricing_plan_id":"cebpf4jnsgd1na2vs0mg"},{"bike_id":"c3ee34fd-e4fa-487d-9f62-237275a3ab53","system_id":"levelo_inurba_marseille","lat":43.25716,"lon":5.41112,"is_reserved":false,"is_disabled":false,"rental_uris":{"android":"levelo://app?vid=c3ee34fd-e4fa-487d-9f62-237275a3ab53","ios":"levelo://app?vid=c3ee34fd-e4fa-487d-9f62-237275a3ab53"},"vehicle_type_id":"4","last_reported":1751728174,"current_range_meters":16000,"station_id":"ce4bhkp2rcd13ifvqgd0","pricing_plan_id":"cebpf4jnsgd1na2vs0mg"},{"bike_id":"18e903c3-bd69-4cad-bc4b-fefd2f289489","system_id":"levelo_inurba_marseille","lat":43.26239,"lon":5.40449,"is_reserved":false,"is_disabled":false,"rental_uris":{"android":"levelo://app?vid=18e903c3-bd69-4cad-bc4b-fefd2f289489","ios":"levelo://app?vid=18e903c3-bd69-4cad-bc4b-fefd2f289489"},"vehicle_type_id":"4","last_reported":1751728174,"current_range_meters":16000,"station_id":"ce4bhmh2rcd13ifvqgmg","pricing_plan_id":"cebpf4jnsgd1na2vs0mg"},{"bike_id":"812b8e66-971b-40dd-b687-55e7a475913e","system_id":"levelo_inurba_marseille","lat":43.27496,"lon":5.42448,"is_reserved":false,"is_disabled":false,"rental_uris":{"android":"levelo://app?vid=812b8e66-971b-40dd-b687-55e7a475913e","ios":"levelo://app?vid=812b8e66-971b-40dd-b687-55e7a475913e"},"vehicle_type_id":"4","last_reported":1751728174,"current_range_meters":16000,"station_id":"ce4bhn92rcd13ifvqgrg","pricing_plan_id":"cebpf4jnsgd1na2vs0mg"},{"bike_id":"74505c76-0015-4b91-8cb8-fc16dc1c139c","system_id":"levelo_inurba_marseille","lat":43.26941,"lon":5.40254,"is_reserved":false,"is_disabled":false,"rental_uris":{"android":"levelo://app?vid=74505c76-0015-4b91-8cb8-fc16dc1c139c","ios":"levelo://app?vid=74505c76-0015-4b91-8cb8-fc16dc1c139c"},"vehicle_type_id":"4","last_reported":1751728174,"current_range_meters":16000,"station_id":"cjm6bp8fraef2m0cb0m0","pricing_plan_id":"cebpf4jnsgd1na2vs0mg"},{"bike_id":"07ba84a8-f478-421c-96ed-6c0402ece04f","system_id":"levelo_inurba_marseille","lat":43.229441,"lon":5.353919,"is_reserved":false,"is_disabled":false,"rental_uris":{"android":"levelo://app?vid=07ba84a8-f478-421c-96ed-6c0402ece04f","ios":"levelo://app?vid=07ba84a8-f478-421c-96ed-6c0402ece04f"},"vehicle_type_id":"4","last_reported":1751728174,"current_range_meters":16000,"station_id":"cpo3532slgdg3j2ikp40","pricing_plan_id":"cebpf4jnsgd1na2vs0mg"},{"bike_id":"a6fe0581-5daf-4b07-9e14-c0bfec26b1cd","system_id":"levelo_inurba_marseille","lat":43.2175,"lon":5.34603,"is_reserved":false,"is_disabled":false,"rental_uris":{"android":"levelo://app?vid=a6fe0581-5daf-4b07-9e14-c0bfec26b1cd","ios":"levelo://app?vid=a6fe0581-5daf-4b07-9e14-c0bfec26b1cd"},"vehicle_type_id":"4","last_reported":1751728174,"current_range_meters":16000,"station_id":"st_cvj6r9ubvosntc0bgbag","pricing_plan_id":"cebpf4jnsgd1na2vs0mg"},{"bike_id":"5b8b8b84-e60f-4fc4-93db-0fd575e647e5","system_id":"levelo_inurba_marseille","lat":43.211887,"lon":5.3509,"is_reserved":false,"is_disabled":false,"rental_uris":{"android":"levelo://app?vid=5b8b8b84-e60f-4fc4-93db-0fd575e647e5","ios":"levelo://app?vid=5b8b8b84-e60f-4fc4-93db-0fd575e647e5"},"vehicle_type_id":"4","last_reported":1751728174,"current_range_meters":16000,"station_id":"st_cvj6sg6p6f1abm77japg","pricing_plan_id":"cebpf4jnsgd1na2vs0mg"},{"bike_id":"8a42812b-a6a1-406d-afe6-f3a1f04badd8","system_id":"levelo_inurba_marseille","lat":43.30851,"lon":5.36996,"is_reserved":false,"is_disabled":false,"rental_uris":{"android":"levelo://app?vid=8a42812b-a6a1-406d-afe6-f3a1f04badd8","ios":"levelo://app?vid=8a42812b-a6a1-406d-afe6-f3a1f04badd8"},"vehicle_type_id":"4","last_reported":1751728174,"current_range_meters":16400,"station_id":"","pricing_plan_id":"cebpf4jnsgd1na2vs0mg"},{"bike_id":"856c776b-976c-4e7f-97c1-3dc27b8380dd","system_id":"levelo_inurba_marseille","lat":43.31617,"lon":5.3833,"is_reserved":false,"is_disabled":false,"rental_uris":{"android":"levelo://app?vid=856c776b-976c-4e7f-97c1-3dc27b8380dd","ios":"levelo://app?vid=856c776b-976c-4e7f-97c1-3dc27b8380dd"},"vehicle_type_id":"4","last_reported":1751728174,"current_range_meters":16400,"station_id":"","pricing_plan_id":"cebpf4jnsgd1na2vs0mg"},{"bike_id":"38f7fbb9-ddf9-4adc-90d7-9ce9e9c6f27c","system_id":"levelo_inurba_marseille","lat":43.28218,"lon":5.38597,"is_reserved":false,"is_disabled":false,"rental_uris":{"android":"levelo://app?vid=38f7fbb9-ddf9-4adc-90d7-9ce9e9c6f27c","ios":"levelo://app?vid=38f7fbb9-ddf9-4adc-90d7-9ce9e9c6f27c"},"vehicle_type_id":"4","last_reported":1751728174,"current_range_meters":16400,"station_id":"","pricing_plan_id":"cebpf4jnsgd1na2vs0mg"},{"bike_id":"112fffb1-3704-4b3d-af7e-6f3ca59cf5a5","system_id":"levelo_inurba_marseille","lat":43.317,"lon":5.37746,"is_reserved":false,"is_disabled":false,"rental_uris":{"android":"levelo://app?vid=112fffb1-3704-4b3d-af7e-6f3ca59cf5a5","ios":"levelo://app?vid=112fffb1-3704-4b3d-af7e-6f3ca59cf5a5"},"vehicle_type_id":"4","last_reported":1751728174,"current_range_meters":16400,"station_id":"ce4bgth2rcd13ifvqch0","pricing_plan_id":"cebpf4jnsgd1na2vs0mg"},{"bike_id":"d6f2e0f1-21db-46b2-95c0-4ebab68f83f8","system_id":"levelo_inurba_marseille","lat":43.284058,"lon":5.349717,"is_reserved":false,"is_disabled":false,"rental_uris":{"android":"levelo://app?vid=d6f2e0f1-21db-46b2-95c0-4ebab68f83f8","ios":"levelo://app?vid=d6f2e0f1-21db-46b2-95c0-4ebab68f83f8"},"vehicle_type_id":"4","last_reported":1751728174,"current_range_meters":16400,"station_id":"ce4bhbh2rcd13ifvqepg","pricing_plan_id":"cebpf4jnsgd1na2vs0mg"},{"bike_id":"1133fa96-960d-45e6-9328-aa458deeee07","system_id":"levelo_inurba_marseille","lat":43.26219,"lon":5.40471,"is_reserved":false,"is_disabled":false,"rental_uris":{"android":"levelo://app?vid=1133fa96-960d-45e6-9328-aa458deeee07","ios":"levelo://app?vid=1133fa96-960d-45e6-9328-aa458deeee07"},"vehicle_type_id":"4","last_reported":1751728174,"current_range_meters":16400,"station_id":"ce4bhmh2rcd13ifvqgmg","pricing_plan_id":"cebpf4jnsgd1na2vs0mg"},{"bike_id":"84303959-8cba-4981-9cd0-d7bbd107feff","system_id":"levelo_inurba_marseille","lat":43.304204,"lon":5.41278,"is_reserved":false,"is_disabled":false,"rental_uris":{"android":"levelo://app?vid=84303959-8cba-4981-9cd0-d7bbd107feff","ios":"levelo://app?vid=84303959-8cba-4981-9cd0-d7bbd107feff"},"vehicle_type_id":"4","last_reported":1751728174,"current_range_meters":16400,"station_id":"ce4bhop2rcd13ifvqh8g","pricing_plan_id":"cebpf4jnsgd1na2vs0mg"},{"bike_id":"7d7ca329-d013-418c-84c4-2b0666103eeb","system_id":"levelo_inurba_marseille","lat":43.298976,"lon":5.436679,"is_reserved":false,"is_disabled":false,"rental_uris":{"android":"levelo://app?vid=7d7ca329-d013-418c-84c4-2b0666103eeb","ios":"levelo://app?vid=7d7ca329-d013-418c-84c4-2b0666103eeb"},"vehicle_type_id":"4","last_reported":1751728174,"current_range_meters":16400,"station_id":"ce4bhpp2rcd13ifvqhfg","pricing_plan_id":"cebpf4jnsgd1na2vs0mg"},{"bike_id":"e9f184b7-4c52-47df-adfb-be4fdc9c8ed3","system_id":"levelo_inurba_marseille","lat":43.23184,"lon":5.35556,"is_reserved":false,"is_disabled":false,"rental_uris":{"android":"levelo://app?vid=e9f184b7-4c52-47df-adfb-be4fdc9c8ed3","ios":"levelo://app?vid=e9f184b7-4c52-47df-adfb-be4fdc9c8ed3"},"vehicle_type_id":"4","last_reported":1751728174,"current_range_meters":16400,"station_id":"ce4bhu92rcd13ifvqi70","pricing_plan_id":"cebpf4jnsgd1na2vs0mg"},{"bike_id":"cd6f91d4-bdaf-4e38-b4f5-14f6e83055e8","system_id":"levelo_inurba_marseille","lat":43.211925,"lon":5.350923,"is_reserved":false,"is_disabled":false,"rental_uris":{"android":"levelo://app?vid=cd6f91d4-bdaf-4e38-b4f5-14f6e83055e8","ios":"levelo://app?vid=cd6f91d4-bdaf-4e38-b4f5-14f6e83055e8"},"vehicle_type_id":"4","last_reported":1751728174,"current_range_meters":16400,"station_id":"st_cvj6sg6p6f1abm77japg","pricing_plan_id":"cebpf4jnsgd1na2vs0mg"},{"bike_id":"bf24b26e-7f51-4120-9a48-54c87edaa2f7","system_id":"levelo_inurba_marseille","lat":43.21183,"lon":5.35071,"is_reserved":false,"is_disabled":false,"rental_uris":{"android":"levelo://app?vid=bf24b26e-7f51-4120-9a48-54c87edaa2f7","ios":"levelo://app?vid=bf24b26e-7f51-4120-9a48-54c87edaa2f7"},"vehicle_type_id":"4","last_reported":1751728174,"current_range_meters":16400,"station_id":"st_cvj6sg6p6f1abm77japg","pricing_plan_id":"cebpf4jnsgd1na2vs0mg"},{"bike_id":"cfedde4d-29e4-48a6-bc2a-67d1ad344395","system_id":"levelo_inurba_marseille","lat":43.2324,"lon":5.35603,"is_reserved":false,"is_disabled":false,"rental_uris":{"android":"levelo://app?vid=cfedde4d-29e4-48a6-bc2a-67d1ad344395","ios":"levelo://app?vid=cfedde4d-29e4-48a6-bc2a-67d1ad344395"},"vehicle_type_id":"4","last_reported":1751728174,"current_range_meters":16800,"station_id":"","pricing_plan_id":"cebpf4jnsgd1na2vs0mg"},{"bike_id":"8380f630-45c7-4cdf-9576-f907a486cab1","system_id":"levelo_inurba_marseille","lat":43.28423,"lon":5.34979,"is_reserved":false,"is_disabled":false,"rental_uris":{"android":"levelo://app?vid=8380f630-45c7-4cdf-9576-f907a486cab1","ios":"levelo://app?vid=8380f630-45c7-4cdf-9576-f907a486cab1"},"vehicle_type_id":"4","last_reported":1751728174,"current_range_meters":16800,"station_id":"","pricing_plan_id":"cebpf4jnsgd1na2vs0mg"},{"bike_id":"a432562a-30ff-4df9-a4a5-167573d04372","system_id":"levelo_inurba_marseille","lat":43.31696,"lon":5.40469,"is_reserved":false,"is_disabled":false,"rental_uris":{"android":"levelo://app?vid=a432562a-30ff-4df9-a4a5-167573d04372","ios":"levelo://app?vid=a432562a-30ff-4df9-a4a5-167573d04372"},"vehicle_type_id":"4","last_reported":1751728174,"current_range_meters":16800,"station_id":"ce4bh012rcd13ifvqd00","pricing_plan_id":"cebpf4jnsgd1na2vs0mg"},{"bike_id":"694e7c5e-f88c-4aef-b7e9-fc484427936f","system_id":"levelo_inurba_marseille","lat":43.28429,"lon":5.34989,"is_reserved":false,"is_disabled":false,"rental_uris":{"android":"levelo://app?vid=694e7c5e-f88c-4aef-b7e9-fc484427936f","ios":"levelo://app?vid=694e7c5e-f88c-4aef-b7e9-fc484427936f"},"vehicle_type_id":"4","last_reported":1751728174,"current_range_meters":16800,"station_id":"ce4bhbh2rcd13ifvqepg","pricing_plan_id":"cebpf4jnsgd1na2vs0mg"},{"bike_id":"b6e48e5f-e234-4c93-b6af-0c488e78d7fd","system_id":"levelo_inurba_marseille","lat":43.28423,"lon":5.34974,"is_reserved":false,"is_disabled":false,"rental_uris":{"android":"levelo://app?vid=b6e48e5f-e234-4c93-b6af-0c488e78d7fd","ios":"levelo://app?vid=b6e48e5f-e234-4c93-b6af-0c488e78d7fd"},"vehicle_type_id":"4","last_reported":1751728174,"current_range_meters":16800,"station_id":"ce4bhbh2rcd13ifvqepg","pricing_plan_id":"cebpf4jnsgd1na2vs0mg"},{"bike_id":"fc22404d-2c96-46c7-a91d-77ee4681dcaa","system_id":"levelo_inurba_marseille","lat":43.28262,"lon":5.35059,"is_reserved":false,"is_disabled":false,"rental_uris":{"android":"levelo://app?vid=fc22404d-2c96-46c7-a91d-77ee4681dcaa","ios":"levelo://app?vid=fc22404d-2c96-46c7-a91d-77ee4681dcaa"},"vehicle_type_id":"4","last_reported":1751728174,"current_range_meters":16800,"station_id":"ce4bhbp2rcd13ifvqerg","pricing_plan_id":"cebpf4jnsgd1na2vs0mg"},{"bike_id":"33e8eeb4-8b00-46df-b16c-eec4d3a4e4a9","system_id":"levelo_inurba_marseille","lat":43.28627,"lon":5.35092,"is_reserved":false,"is_disabled":false,"rental_uris":{"android":"levelo://app?vid=33e8eeb4-8b00-46df-b16c-eec4d3a4e4a9","ios":"levelo://app?vid=33e8eeb4-8b00-46df-b16c-eec4d3a4e4a9"},"vehicle_type_id":"4","last_reported":1751728174,"current_range_meters":16800,"station_id":"ce4bhch2rcd13ifvqeug","pricing_plan_id":"cebpf4jnsgd1na2vs0mg"},{"bike_id":"4a5ea6cf-0080-4542-aae9-f545715c1050","system_id":"levelo_inurba_marseille","lat":43.24389,"lon":5.370617,"is_reserved":false,"is_disabled":false,"rental_uris":{"android":"levelo://app?vid=4a5ea6cf-0080-4542-aae9-f545715c1050","ios":"levelo://app?vid=4a5ea6cf-0080-4542-aae9-f545715c1050"},"vehicle_type_id":"4","last_reported":1751728174,"current_range_meters":16800,"station_id":"ce4bhhh2rcd13ifvqfk0","pricing_plan_id":"cebpf4jnsgd1na2vs0mg"},{"bike_id":"5e4669bd-8536-4919-8da2-15409e182044","system_id":"levelo_inurba_marseille","lat":43.23161,"lon":5.4371,"is_reserved":false,"is_disabled":false,"rental_uris":{"android":"levelo://app?vid=5e4669bd-8536-4919-8da2-15409e182044","ios":"levelo://app?vid=5e4669bd-8536-4919-8da2-15409e182044"},"vehicle_type_id":"4","last_reported":1751728174,"current_range_meters":16800,"station_id":"ce4bhmp2rcd13ifvqgog","pricing_plan_id":"cebpf4jnsgd1na2vs0mg"},{"bike_id":"7f0c1e3c-145d-459e-b135-55934e2c45cf","system_id":"levelo_inurba_marseille","lat":43.28139,"lon":5.42653,"is_reserved":false,"is_disabled":false,"rental_uris":{"android":"levelo://app?vid=7f0c1e3c-145d-459e-b135-55934e2c45cf","ios":"levelo://app?vid=7f0c1e3c-145d-459e-b135-55934e2c45cf"},"vehicle_type_id":"4","last_reported":1751728174,"current_range_meters":16800,"station_id":"ce4bhnh2rcd13ifvqgug","pricing_plan_id":"cebpf4jnsgd1na2vs0mg"},{"bike_id":"38855c64-4a55-4d3a-8da1-44a2b313158b","system_id":"levelo_inurba_marseille","lat":43.32357,"lon":5.36763,"is_reserved":false,"is_disabled":false,"rental_uris":{"android":"levelo://app?vid=38855c64-4a55-4d3a-8da1-44a2b313158b","ios":"levelo://app?vid=38855c64-4a55-4d3a-8da1-44a2b313158b"},"vehicle_type_id":"4","last_reported":1751728174,"current_range_meters":16800,"station_id":"ce4bhsh2rcd13ifvqi2g","pricing_plan_id":"cebpf4jnsgd1na2vs0mg"},{"bike_id":"e449aa29-cae1-4432-9aec-dedc13360b20","system_id":"levelo_inurba_marseille","lat":43.21186,"lon":5.35078,"is_reserved":false,"is_disabled":false,"rental_uris":{"android":"levelo://app?vid=e449aa29-cae1-4432-9aec-dedc13360b20","ios":"levelo://app?vid=e449aa29-cae1-4432-9aec-dedc13360b20"},"vehicle_type_id":"4","last_reported":1751728174,"current_range_meters":16800,"station_id":"st_cvj6sg6p6f1abm77japg","pricing_plan_id":"cebpf4jnsgd1na2vs0mg"},{"bike_id":"83f5a43f-9251-4df5-b904-d4540f94dc14","system_id":"levelo_inurba_marseille","lat":43.30206,"lon":5.39465,"is_reserved":false,"is_disabled":false,"rental_uris":{"android":"levelo://app?vid=83f5a43f-9251-4df5-b904-d4540f94dc14","ios":"levelo://app?vid=83f5a43f-9251-4df5-b904-d4540f94dc14"},"vehicle_type_id":"4","last_reported":1751728174,"current_range_meters":17200,"station_id":"ce4bh0p2rcd13ifvqd70","pricing_plan_id":"cebpf4jnsgd1na2vs0mg"},{"bike_id":"9a10144a-8749-4f7d-82eb-5cdd444f0125","system_id":"levelo_inurba_marseille","lat":43.22921,"lon":5.35357,"is_reserved":false,"is_disabled":false,"rental_uris":{"android":"levelo://app?vid=9a10144a-8749-4f7d-82eb-5cdd444f0125","ios":"levelo://app?vid=9a10144a-8749-4f7d-82eb-5cdd444f0125"},"vehicle_type_id":"4","last_reported":1751728174,"current_range_meters":17200,"station_id":"cpo3532slgdg3j2ikp40","pricing_plan_id":"cebpf4jnsgd1na2vs0mg"},{"bike_id":"822b4a19-dca8-4707-b2d1-0cec2472e3bb","system_id":"levelo_inurba_marseille","lat":43.24198,"lon":5.36386,"is_reserved":false,"is_disabled":false,"rental_uris":{"android":"levelo://app?vid=822b4a19-dca8-4707-b2d1-0cec2472e3bb","ios":"levelo://app?vid=822b4a19-dca8-4707-b2d1-0cec2472e3bb"},"vehicle_type_id":"4","last_reported":1751728174,"current_range_meters":17200,"station_id":"cpo36qri1sfpv3e86is0","pricing_plan_id":"cebpf4jnsgd1na2vs0mg"},{"bike_id":"452e8211-4f44-45d0-814a-3e9e25b8c44e","system_id":"levelo_inurba_marseille","lat":43.21192,"lon":5.35069,"is_reserved":false,"is_disabled":false,"rental_uris":{"android":"levelo://app?vid=452e8211-4f44-45d0-814a-3e9e25b8c44e","ios":"levelo://app?vid=452e8211-4f44-45d0-814a-3e9e25b8c44e"},"vehicle_type_id":"4","last_reported":1751728174,"current_range_meters":17200,"station_id":"st_cvj6sg6p6f1abm77japg","pricing_plan_id":"cebpf4jnsgd1na2vs0mg"},{"bike_id":"8b885149-cf7a-4df4-824d-7d686b7d76d4","system_id":"levelo_inurba_marseille","lat":43.28017,"lon":5.40874,"is_reserved":false,"is_disabled":false,"rental_uris":{"android":"levelo://app?vid=8b885149-cf7a-4df4-824d-7d686b7d76d4","ios":"levelo://app?vid=8b885149-cf7a-4df4-824d-7d686b7d76d4"},"vehicle_type_id":"4","last_reported":1751728174,"current_range_meters":17600,"station_id":"","pricing_plan_id":"cebpf4jnsgd1na2vs0mg"},{"bike_id":"d7b38d56-834e-4f13-940f-76edc49acc30","system_id":"levelo_inurba_marseille","lat":43.30153,"lon":5.38068,"is_reserved":false,"is_disabled":false,"rental_uris":{"android":"levelo://app?vid=d7b38d56-834e-4f13-940f-76edc49acc30","ios":"levelo://app?vid=d7b38d56-834e-4f13-940f-76edc49acc30"},"vehicle_type_id":"4","last_reported":1751728174,"current_range_meters":17600,"station_id":"ce4bgjp2rcd13ifvqbh0","pricing_plan_id":"cebpf4jnsgd1na2vs0mg"},{"bike_id":"3ea7a273-24c9-4a26-8cc5-ae83c99551e5","system_id":"levelo_inurba_marseille","lat":43.31267,"lon":5.36856,"is_reserved":false,"is_disabled":false,"rental_uris":{"android":"levelo://app?vid=3ea7a273-24c9-4a26-8cc5-ae83c99551e5","ios":"levelo://app?vid=3ea7a273-24c9-4a26-8cc5-ae83c99551e5"},"vehicle_type_id":"4","last_reported":1751728174,"current_range_meters":17600,"station_id":"ce4bgl92rcd13ifvqbq0","pricing_plan_id":"cebpf4jnsgd1na2vs0mg"},{"bike_id":"93a68e5c-b562-4ab5-ab9b-7e9d824be919","system_id":"levelo_inurba_marseille","lat":43.2971,"lon":5.36594,"is_reserved":false,"is_disabled":false,"rental_uris":{"android":"levelo://app?vid=93a68e5c-b562-4ab5-ab9b-7e9d824be919","ios":"levelo://app?vid=93a68e5c-b562-4ab5-ab9b-7e9d824be919"},"vehicle_type_id":"4","last_reported":1751728174,"current_range_meters":17600,"station_id":"ce4bgn12rcd13ifvqbt0","pricing_plan_id":"cebpf4jnsgd1na2vs0mg"},{"bike_id":"2961646c-55cd-48bc-be76-5dc0946b770e","system_id":"levelo_inurba_marseille","lat":43.28364,"lon":5.38632,"is_reserved":false,"is_disabled":false,"rental_uris":{"android":"levelo://app?vid=2961646c-55cd-48bc-be76-5dc0946b770e","ios":"levelo://app?vid=2961646c-55cd-48bc-be76-5dc0946b770e"},"vehicle_type_id":"4","last_reported":1751728174,"current_range_meters":17600,"station_id":"ce4bh492rcd13ifvqdvg","pricing_plan_id":"cebpf4jnsgd1na2vs0mg"},{"bike_id":"73ddafef-e4a3-4253-b65a-e3961403f488","system_id":"levelo_inurba_marseille","lat":43.292682,"lon":5.368424,"is_reserved":false,"is_disabled":false,"rental_uris":{"android":"levelo://app?vid=73ddafef-e4a3-4253-b65a-e3961403f488","ios":"levelo://app?vid=73ddafef-e4a3-4253-b65a-e3961403f488"},"vehicle_type_id":"4","last_reported":1751728174,"current_range_meters":17600,"station_id":"ce4bhbp2rcd13ifvqesg","pricing_plan_id":"cebpf4jnsgd1na2vs0mg"},{"bike_id":"f50f85f1-af85-490b-9cf4-959afe5e0b8c","system_id":"levelo_inurba_marseille","lat":43.26558,"lon":5.37282,"is_reserved":false,"is_disabled":false,"rental_uris":{"android":"levelo://app?vid=f50f85f1-af85-490b-9cf4-959afe5e0b8c","ios":"levelo://app?vid=f50f85f1-af85-490b-9cf4-959afe5e0b8c"},"vehicle_type_id":"4","last_reported":1751728174,"current_range_meters":17600,"station_id":"ce4bhg12rcd13ifvqf70","pricing_plan_id":"cebpf4jnsgd1na2vs0mg"},{"bike_id":"a7d009f5-46f9-4bf7-b3fa-162fac40ffe6","system_id":"levelo_inurba_marseille","lat":43.24804,"lon":5.374564,"is_reserved":false,"is_disabled":false,"rental_uris":{"android":"levelo://app?vid=a7d009f5-46f9-4bf7-b3fa-162fac40ffe6","ios":"levelo://app?vid=a7d009f5-46f9-4bf7-b3fa-162fac40ffe6"},"vehicle_type_id":"4","last_reported":1751728174,"current_range_meters":17600,"station_id":"ce4bhgh2rcd13ifvqfb0","pricing_plan_id":"cebpf4jnsgd1na2vs0mg"},{"bike_id":"38556a8c-bc16-440b-aba1-9df44c77db93","system_id":"levelo_inurba_marseille","lat":43.26218,"lon":5.40434,"is_reserved":false,"is_disabled":false,"rental_uris":{"android":"levelo://app?vid=38556a8c-bc16-440b-aba1-9df44c77db93","ios":"levelo://app?vid=38556a8c-bc16-440b-aba1-9df44c77db93"},"vehicle_type_id":"4","last_reported":1751728174,"current_range_meters":17600,"station_id":"ce4bhmh2rcd13ifvqgmg","pricing_plan_id":"cebpf4jnsgd1na2vs0mg"},{"bike_id":"6c0eccf4-4d3f-43f7-8026-8ef8b9417166","system_id":"levelo_inurba_marseille","lat":43.24161,"lon":5.36405,"is_reserved":false,"is_disabled":false,"rental_uris":{"android":"levelo://app?vid=6c0eccf4-4d3f-43f7-8026-8ef8b9417166","ios":"levelo://app?vid=6c0eccf4-4d3f-43f7-8026-8ef8b9417166"},"vehicle_type_id":"4","last_reported":1751728174,"current_range_meters":17600,"station_id":"cpo36qri1sfpv3e86is0","pricing_plan_id":"cebpf4jnsgd1na2vs0mg"},{"bike_id":"34336850-6732-42a6-9723-d078e791892c","system_id":"levelo_inurba_marseille","lat":43.232436,"lon":5.399859,"is_reserved":false,"is_disabled":false,"rental_uris":{"android":"levelo://app?vid=34336850-6732-42a6-9723-d078e791892c","ios":"levelo://app?vid=34336850-6732-42a6-9723-d078e791892c"},"vehicle_type_id":"4","last_reported":1751728174,"current_range_meters":18000,"station_id":"","pricing_plan_id":"cebpf4jnsgd1na2vs0mg"},{"bike_id":"d858b784-4fd9-41d7-8169-6d2f7e176251","system_id":"levelo_inurba_marseille","lat":43.30054,"lon":5.3781,"is_reserved":false,"is_disabled":false,"rental_uris":{"android":"levelo://app?vid=d858b784-4fd9-41d7-8169-6d2f7e176251","ios":"levelo://app?vid=d858b784-4fd9-41d7-8169-6d2f7e176251"},"vehicle_type_id":"4","last_reported":1751728174,"current_range_meters":18000,"station_id":"","pricing_plan_id":"cebpf4jnsgd1na2vs0mg"},{"bike_id":"66327dec-fdec-4bbc-9a22-10b9ea2d27be","system_id":"levelo_inurba_marseille","lat":43.30304,"lon":5.39208,"is_reserved":false,"is_disabled":false,"rental_uris":{"android":"levelo://app?vid=66327dec-fdec-4bbc-9a22-10b9ea2d27be","ios":"levelo://app?vid=66327dec-fdec-4bbc-9a22-10b9ea2d27be"},"vehicle_type_id":"4","last_reported":1751728174,"current_range_meters":18000,"station_id":"ce4bgkh2rcd13ifvqbk0","pricing_plan_id":"cebpf4jnsgd1na2vs0mg"},{"bike_id":"910abdfe-fb99-4cc6-8c15-b5d6869a3975","system_id":"levelo_inurba_marseille","lat":43.3014,"lon":5.37416,"is_reserved":false,"is_disabled":false,"rental_uris":{"android":"levelo://app?vid=910abdfe-fb99-4cc6-8c15-b5d6869a3975","ios":"levelo://app?vid=910abdfe-fb99-4cc6-8c15-b5d6869a3975"},"vehicle_type_id":"4","last_reported":1751728174,"current_range_meters":18000,"station_id":"ce4bgs92rcd13ifvqcc0","pricing_plan_id":"cebpf4jnsgd1na2vs0mg"},{"bike_id":"a0456e0b-aced-4dd0-83e4-9fa25fff8aca","system_id":"levelo_inurba_marseille","lat":43.30263,"lon":5.37726,"is_reserved":false,"is_disabled":false,"rental_uris":{"android":"levelo://app?vid=a0456e0b-aced-4dd0-83e4-9fa25fff8aca","ios":"levelo://app?vid=a0456e0b-aced-4dd0-83e4-9fa25fff8aca"},"vehicle_type_id":"4","last_reported":1751728174,"current_range_meters":18000,"station_id":"ce4bguh2rcd13ifvqcj0","pricing_plan_id":"cebpf4jnsgd1na2vs0mg"},{"bike_id":"5406ff72-cc8f-41ba-981f-a3ee00ae79c2","system_id":"levelo_inurba_marseille","lat":43.31061,"lon":5.38378,"is_reserved":false,"is_disabled":false,"rental_uris":{"android":"levelo://app?vid=5406ff72-cc8f-41ba-981f-a3ee00ae79c2","ios":"levelo://app?vid=5406ff72-cc8f-41ba-981f-a3ee00ae79c2"},"vehicle_type_id":"4","last_reported":1751728174,"current_range_meters":18000,"station_id":"ce4bgv92rcd13ifvqcr0","pricing_plan_id":"cebpf4jnsgd1na2vs0mg"},{"bike_id":"bf4a4cec-7b68-4193-a1fd-6d4bdff6f834","system_id":"levelo_inurba_marseille","lat":43.30196,"lon":5.39493,"is_reserved":false,"is_disabled":false,"rental_uris":{"android":"levelo://app?vid=bf4a4cec-7b68-4193-a1fd-6d4bdff6f834","ios":"levelo://app?vid=bf4a4cec-7b68-4193-a1fd-6d4bdff6f834"},"vehicle_type_id":"4","last_reported":1751728174,"current_range_meters":18000,"station_id":"ce4bh0p2rcd13ifvqd70","pricing_plan_id":"cebpf4jnsgd1na2vs0mg"},{"bike_id":"bf203b3d-54d7-49df-9a3c-40a478352510","system_id":"levelo_inurba_marseille","lat":43.27056,"lon":5.40259,"is_reserved":false,"is_disabled":false,"rental_uris":{"android":"levelo://app?vid=bf203b3d-54d7-49df-9a3c-40a478352510","ios":"levelo://app?vid=bf203b3d-54d7-49df-9a3c-40a478352510"},"vehicle_type_id":"4","last_reported":1751728174,"current_range_meters":18000,"station_id":"ce4bhk92rcd13ifvqgc0","pricing_plan_id":"cebpf4jnsgd1na2vs0mg"},{"bike_id":"30daf87a-5e7d-42b3-ac97-c9dfd23296b5","system_id":"levelo_inurba_marseille","lat":43.32494,"lon":5.36603,"is_reserved":false,"is_disabled":false,"rental_uris":{"android":"levelo://app?vid=30daf87a-5e7d-42b3-ac97-c9dfd23296b5","ios":"levelo://app?vid=30daf87a-5e7d-42b3-ac97-c9dfd23296b5"},"vehicle_type_id":"4","last_reported":1751728174,"current_range_meters":18000,"station_id":"ce4bhs12rcd13ifvqhvg","pricing_plan_id":"cebpf4jnsgd1na2vs0mg"},{"bike_id":"8bf0d992-d2a0-428e-940a-091ee9b7c2a4","system_id":"levelo_inurba_marseille","lat":43.22503,"lon":5.34791,"is_reserved":false,"is_disabled":false,"rental_uris":{"android":"levelo://app?vid=8bf0d992-d2a0-428e-940a-091ee9b7c2a4","ios":"levelo://app?vid=8bf0d992-d2a0-428e-940a-091ee9b7c2a4"},"vehicle_type_id":"4","last_reported":1751728174,"current_range_meters":18000,"station_id":"st_cvj5dfep6f1abm77gieg","pricing_plan_id":"cebpf4jnsgd1na2vs0mg"},{"bike_id":"9b2b9607-b3a5-493d-ba07-8575a2e5282f","system_id":"levelo_inurba_marseille","lat":43.30292,"lon":5.39225,"is_reserved":false,"is_disabled":false,"rental_uris":{"android":"levelo://app?vid=9b2b9607-b3a5-493d-ba07-8575a2e5282f","ios":"levelo://app?vid=9b2b9607-b3a5-493d-ba07-8575a2e5282f"},"vehicle_type_id":"4","last_reported":1751728174,"current_range_meters":18800,"station_id":"ce4bgkh2rcd13ifvqbk0","pricing_plan_id":"cebpf4jnsgd1na2vs0mg"},{"bike_id":"c3188eca-7d42-4de8-b36e-207b8180af3b","system_id":"levelo_inurba_marseille","lat":43.31486,"lon":5.37306,"is_reserved":false,"is_disabled":false,"rental_uris":{"android":"levelo://app?vid=c3188eca-7d42-4de8-b36e-207b8180af3b","ios":"levelo://app?vid=c3188eca-7d42-4de8-b36e-207b8180af3b"},"vehicle_type_id":"4","last_reported":1751728174,"current_range_meters":18800,"station_id":"ce4bgt12rcd13ifvqcd0","pricing_plan_id":"cebpf4jnsgd1na2vs0mg"},{"bike_id":"5f935518-2281-4fe0-8fba-563f8b5c66f3","system_id":"levelo_inurba_marseille","lat":43.282745,"lon":5.350561,"is_reserved":false,"is_disabled":false,"rental_uris":{"android":"levelo://app?vid=5f935518-2281-4fe0-8fba-563f8b5c66f3","ios":"levelo://app?vid=5f935518-2281-4fe0-8fba-563f8b5c66f3"},"vehicle_type_id":"4","last_reported":1751728174,"current_range_meters":18800,"station_id":"ce4bhbp2rcd13ifvqerg","pricing_plan_id":"cebpf4jnsgd1na2vs0mg"},{"bike_id":"7b99e899-409c-4f93-8ba2-72f1529e7cca","system_id":"levelo_inurba_marseille","lat":43.26193,"lon":5.37446,"is_reserved":false,"is_disabled":false,"rental_uris":{"android":"levelo://app?vid=7b99e899-409c-4f93-8ba2-72f1529e7cca","ios":"levelo://app?vid=7b99e899-409c-4f93-8ba2-72f1529e7cca"},"vehicle_type_id":"4","last_reported":1751728174,"current_range_meters":18800,"station_id":"ce4bhgp2rcd13ifvqfc0","pricing_plan_id":"cebpf4jnsgd1na2vs0mg"},{"bike_id":"486a7961-ac13-4d32-be9e-fcb654db67b5","system_id":"levelo_inurba_marseille","lat":43.23188,"lon":5.35559,"is_reserved":false,"is_disabled":false,"rental_uris":{"android":"levelo://app?vid=486a7961-ac13-4d32-be9e-fcb654db67b5","ios":"levelo://app?vid=486a7961-ac13-4d32-be9e-fcb654db67b5"},"vehicle_type_id":"4","last_reported":1751728174,"current_range_meters":18800,"station_id":"ce4bhu92rcd13ifvqi70","pricing_plan_id":"cebpf4jnsgd1na2vs0mg"},{"bike_id":"2e9ecc0a-afc7-4316-ac0c-3ab173435e83","system_id":"levelo_inurba_marseille","lat":43.23196,"lon":5.35526,"is_reserved":false,"is_disabled":false,"rental_uris":{"android":"levelo://app?vid=2e9ecc0a-afc7-4316-ac0c-3ab173435e83","ios":"levelo://app?vid=2e9ecc0a-afc7-4316-ac0c-3ab173435e83"},"vehicle_type_id":"4","last_reported":1751728174,"current_range_meters":18800,"station_id":"ce4bhu92rcd13ifvqi70","pricing_plan_id":"cebpf4jnsgd1na2vs0mg"},{"bike_id":"c43eae3b-dccb-4509-aa37-b59577141f6c","system_id":"levelo_inurba_marseille","lat":43.23192,"lon":5.35565,"is_reserved":false,"is_disabled":false,"rental_uris":{"android":"levelo://app?vid=c43eae3b-dccb-4509-aa37-b59577141f6c","ios":"levelo://app?vid=c43eae3b-dccb-4509-aa37-b59577141f6c"},"vehicle_type_id":"4","last_reported":1751728174,"current_range_meters":18800,"station_id":"ce4bhu92rcd13ifvqi70","pricing_plan_id":"cebpf4jnsgd1na2vs0mg"},{"bike_id":"d5ef770d-9759-47e3-b3a5-7d2785ef76db","system_id":"levelo_inurba_marseille","lat":43.32922,"lon":5.3906,"is_reserved":false,"is_disabled":false,"rental_uris":{"android":"levelo://app?vid=d5ef770d-9759-47e3-b3a5-7d2785ef76db","ios":"levelo://app?vid=d5ef770d-9759-47e3-b3a5-7d2785ef76db"},"vehicle_type_id":"4","last_reported":1751728174,"current_range_meters":19200,"station_id":"","pricing_plan_id":"cebpf4jnsgd1na2vs0mg"},{"bike_id":"d7d3dcd2-ad3b-47eb-9ac8-5e975e5f2c50","system_id":"levelo_inurba_marseille","lat":43.30304,"lon":5.39217,"is_reserved":false,"is_disabled":false,"rental_uris":{"android":"levelo://app?vid=d7d3dcd2-ad3b-47eb-9ac8-5e975e5f2c50","ios":"levelo://app?vid=d7d3dcd2-ad3b-47eb-9ac8-5e975e5f2c50"},"vehicle_type_id":"4","last_reported":1751728174,"current_range_meters":19200,"station_id":"ce4bgkh2rcd13ifvqbk0","pricing_plan_id":"cebpf4jnsgd1na2vs0mg"},{"bike_id":"d8dc160e-c97b-4777-9dc9-83d1cd567ac2","system_id":"levelo_inurba_marseille","lat":43.29187,"lon":5.35798,"is_reserved":false,"is_disabled":false,"rental_uris":{"android":"levelo://app?vid=d8dc160e-c97b-4777-9dc9-83d1cd567ac2","ios":"levelo://app?vid=d8dc160e-c97b-4777-9dc9-83d1cd567ac2"},"vehicle_type_id":"4","last_reported":1751728174,"current_range_meters":19200,"station_id":"ce4bhb12rcd13ifvqel0","pricing_plan_id":"cebpf4jnsgd1na2vs0mg"},{"bike_id":"d718f9a1-ccc6-473c-9dcc-75e39b1a53fd","system_id":"levelo_inurba_marseille","lat":43.28266,"lon":5.35061,"is_reserved":false,"is_disabled":false,"rental_uris":{"android":"levelo://app?vid=d718f9a1-ccc6-473c-9dcc-75e39b1a53fd","ios":"levelo://app?vid=d718f9a1-ccc6-473c-9dcc-75e39b1a53fd"},"vehicle_type_id":"4","last_reported":1751728174,"current_range_meters":19200,"station_id":"ce4bhbp2rcd13ifvqerg","pricing_plan_id":"cebpf4jnsgd1na2vs0mg"},{"bike_id":"cfca378e-1c3a-473c-ad78-0b61a98f41f4","system_id":"levelo_inurba_marseille","lat":43.24646,"lon":5.3889,"is_reserved":false,"is_disabled":false,"rental_uris":{"android":"levelo://app?vid=cfca378e-1c3a-473c-ad78-0b61a98f41f4","ios":"levelo://app?vid=cfca378e-1c3a-473c-ad78-0b61a98f41f4"},"vehicle_type_id":"4","last_reported":1751728174,"current_range_meters":19200,"station_id":"ce4bhg12rcd13ifvqf60","pricing_plan_id":"cebpf4jnsgd1na2vs0mg"},{"bike_id":"20dc5cce-5dc1-4042-bd10-73295ff304d5","system_id":"levelo_inurba_marseille","lat":43.272063,"lon":5.391861,"is_reserved":false,"is_disabled":false,"rental_uris":{"android":"levelo://app?vid=20dc5cce-5dc1-4042-bd10-73295ff304d5","ios":"levelo://app?vid=20dc5cce-5dc1-4042-bd10-73295ff304d5"},"vehicle_type_id":"4","last_reported":1751728174,"current_range_meters":19200,"station_id":"ce4bhhp2rcd13ifvqfm0","pricing_plan_id":"cebpf4jnsgd1na2vs0mg"},{"bike_id":"4e5d2ccc-3fb6-498d-aa39-fd27c722ff47","system_id":"levelo_inurba_marseille","lat":43.2707,"lon":5.422815,"is_reserved":false,"is_disabled":false,"rental_uris":{"android":"levelo://app?vid=4e5d2ccc-3fb6-498d-aa39-fd27c722ff47","ios":"levelo://app?vid=4e5d2ccc-3fb6-498d-aa39-fd27c722ff47"},"vehicle_type_id":"4","last_reported":1751728174,"current_range_meters":19200,"station_id":"ce4bhk92rcd13ifvqgb0","pricing_plan_id":"cebpf4jnsgd1na2vs0mg"},{"bike_id":"a02e334e-f101-44f4-a9cc-30d05a6a8f3a","system_id":"levelo_inurba_marseille","lat":43.30306,"lon":5.39212,"is_reserved":false,"is_disabled":false,"rental_uris":{"android":"levelo://app?vid=a02e334e-f101-44f4-a9cc-30d05a6a8f3a","ios":"levelo://app?vid=a02e334e-f101-44f4-a9cc-30d05a6a8f3a"},"vehicle_type_id":"4","last_reported":1751728174,"current_range_meters":19600,"station_id":"ce4bgkh2rcd13ifvqbk0","pricing_plan_id":"cebpf4jnsgd1na2vs0mg"},{"bike_id":"ac66367e-0173-4c1a-9bd6-cd5a02dda59d","system_id":"levelo_inurba_marseille","lat":43.3059,"lon":5.39353,"is_reserved":false,"is_disabled":false,"rental_uris":{"android":"levelo://app?vid=ac66367e-0173-4c1a-9bd6-cd5a02dda59d","ios":"levelo://app?vid=ac66367e-0173-4c1a-9bd6-cd5a02dda59d"},"vehicle_type_id":"4","last_reported":1751728174,"current_range_meters":19600,"station_id":"ce4bh0p2rcd13ifvqd80","pricing_plan_id":"cebpf4jnsgd1na2vs0mg"},{"bike_id":"9abd6f77-4e53-434c-beb9-a6104827143a","system_id":"levelo_inurba_marseille","lat":43.24386,"lon":5.37057,"is_reserved":false,"is_disabled":false,"rental_uris":{"android":"levelo://app?vid=9abd6f77-4e53-434c-beb9-a6104827143a","ios":"levelo://app?vid=9abd6f77-4e53-434c-beb9-a6104827143a"},"vehicle_type_id":"4","last_reported":1751728174,"current_range_meters":19600,"station_id":"ce4bhhh2rcd13ifvqfk0","pricing_plan_id":"cebpf4jnsgd1na2vs0mg"},{"bike_id":"d1f9d37d-b429-4583-912e-805cf3889e65","system_id":"levelo_inurba_marseille","lat":43.23194,"lon":5.35551,"is_reserved":false,"is_disabled":false,"rental_uris":{"android":"levelo://app?vid=d1f9d37d-b429-4583-912e-805cf3889e65","ios":"levelo://app?vid=d1f9d37d-b429-4583-912e-805cf3889e65"},"vehicle_type_id":"4","last_reported":1751728174,"current_range_meters":19600,"station_id":"ce4bhu92rcd13ifvqi70","pricing_plan_id":"cebpf4jnsgd1na2vs0mg"},{"bike_id":"7384a57e-d95e-4016-b410-33edfad0bf75","system_id":"levelo_inurba_marseille","lat":43.24147,"lon":5.36421,"is_reserved":false,"is_disabled":false,"rental_uris":{"android":"levelo://app?vid=7384a57e-d95e-4016-b410-33edfad0bf75","ios":"levelo://app?vid=7384a57e-d95e-4016-b410-33edfad0bf75"},"vehicle_type_id":"4","last_reported":1751728174,"current_range_meters":19600,"station_id":"cpo36qri1sfpv3e86is0","pricing_plan_id":"cebpf4jnsgd1na2vs0mg"},{"bike_id":"69642295-98e8-42b2-b780-533016775486","system_id":"levelo_inurba_marseille","lat":43.24179,"lon":5.36398,"is_reserved":false,"is_disabled":false,"rental_uris":{"android":"levelo://app?vid=69642295-98e8-42b2-b780-533016775486","ios":"levelo://app?vid=69642295-98e8-42b2-b780-533016775486"},