{"last_updated":1749744808,"ttl":60,"version":"2.2","data":{"bikes":[{"bike_id":"b31f0139-170f-4194-984f-4386218a1e9d","system_id":"levelo_inurba_marseille","lat":43.33771,"lon":5.37424,"is_reserved":false,"is_disabled":true,"rental_uris":{"android":"levelo://app?vid=b31f0139-170f-4194-984f-4386218a1e9d","ios":"levelo://app?vid=b31f0139-170f-4194-984f-4386218a1e9d"},"vehicle_type_id":"4","last_reported":1749744808,"current_range_meters":0,"station_id":"","pricing_plan_id":"cebpf4jnsgd1na2vs0mg"},{"bike_id":"1acfb620-cad7-48c0-8901-d7a5b74a5b65","system_id":"levelo_inurba_marseille","lat":43.33751,"lon":5.37456,"is_reserved":false,"is_disabled":false,"rental_uris":{"android":"levelo://app?vid=1acfb620-cad7-48c0-8901-d7a5b74a5b65","ios":"levelo://app?vid=1acfb620-cad7-48c0-8901-d7a5b74a5b65"},"vehicle_type_id":"4","last_reported":1749744808,"current_range_meters":8000,"station_id":"","pricing_plan_id":"cebpf4jnsgd1na2vs0mg"},{"bike_id":"15642284-38bf-46a3-8429-b976f7e075a1","system_id":"levelo_inurba_marseille","lat":43.27921,"lon":5.38295,"is_reserved":false,"is_disabled":true,"rental_uris":{"android":"levelo://app?vid=15642284-38bf-46a3-8429-b976f7e075a1","ios":"levelo://app?vid=15642284-38bf-46a3-8429-b976f7e075a1"},"vehicle_type_id":"4","last_reported":1749744808,"current_range_meters":0,"station_id":"","pricing_plan_id":"cebpf4jnsgd1na2vs0mg"},{"bike_id":"bf89d78c-eb96-40d5-beb0-f402ef102cc1","system_id":"levelo_inurba_marseille","lat":43.337444,"lon":5.374475,"is_reserved":false,"is_disabled":true,"rental_uris":{"android":"levelo://app?vid=bf89d78c-eb96-40d5-beb0-f402ef102cc1","ios":"levelo://app?vid=bf89d78c-eb96-40d5-beb0-f402ef102cc1"},"vehicle_type_id":"4","last_reported":1749744808,"current_range_meters":0,"station_id":"","pricing_plan_id":"cebpf4jnsgd1na2vs0mg"},{"bike_id":"7c6a9c32-3bbe-4d4c-8294-1969d0688a87","system_id":"levelo_inurba_marseille","lat":43.28487,"lon":5.42312,"is_reserved":false,"is_disabled":true,"rental_uris":{"android":"levelo://app?vid=7c6a9c32-3bbe-4d4c-8294-1969d0688a87","ios":"levelo://app?vid=7c6a9c32-3bbe-4d4c-8294-1969d0688a87"},"vehicle_type_id":"4","last_reported":1749744808,"current_range_meters":0,"station_id":"","pricing_plan_id":"cebpf4jnsgd1na2vs0mg"},{"bike_id":"78778bea-ee8d-4617-9940-e8d532761b1d","system_id":"levelo_inurba_marseille","lat":43.3242,"lon":5.42696,"is_reserved":false,"is_disabled":true,"rental_uris":{"android":"levelo://app?vid=78778bea-ee8d-4617-9940-e8d532761b1d","ios":"levelo://app?vid=78778bea-ee8d-4617-9940-e8d532761b1d"},"vehicle_type_id":"4","last_reported":1749744808,"current_range_meters":0,"station_id":"","pricing_plan_id":"cebpf4jnsgd1na2vs0mg"},{"bike_id":"492f4bbd-1190-4ef2-b66a-479ffe91b09b","system_id":"levelo_inurba_marseille","lat":43.337444,"lon":5.374475,"is_reserved":false,"is_disabled":true,"rental_uris":{"android":"levelo://app?vid=492f4bbd-1190-4ef2-b66a-479ffe91b09b","ios":"levelo://app?vid=492f4bbd-1190-4ef2-b66a-479ffe91b09b"},"vehicle_type_id":"4","last_reported":1749744808,"current_range_meters":0,"station_id":"","pricing_plan_id":"cebpf4jnsgd1na2vs0mg"},{"bike_id":"a76bfa59-b731-46b4-a462-7fdbb44a5154","system_id":"levelo_inurba_marseille","lat":43.29771,"lon":5.42167,"is_reserved":false,"is_disabled":true,"rental_uris":{"android":"levelo://app?vid=a76bfa59-b731-46b4-a462-7fdbb44a5154","ios":"levelo://app?vid=a76bfa59-b731-46b4-a462-7fdbb44a5154"},"vehicle_type_id":"4","last_reported":1749744808,"current_range_meters":0,"station_id":"","pricing_plan_id":"cebpf4jnsgd1na2vs0mg"},{"bike_id":"ce526313-e4c7-47eb-856f-183916936663","system_id":"levelo_inurba_marseille","lat":43.26223,"lon":5.39575,"is_reserved":false,"is_disabled":true,"rental_uris":{"android":"levelo://app?vid=ce526313-e4c7-47eb-856f-183916936663","ios":"levelo://app?vid=ce526313-e4c7-47eb-856f-183916936663"},"vehicle_type_id":"4","last_reported":1749744808,"current_range_meters":0,"station_id":"","pricing_plan_id":"cebpf4jnsgd1na2vs0mg"},{"bike_id":"9f21f556-a4c2-470e-9472-e6321ac8c72b","system_id":"levelo_inurba_marseille","lat":43.299045,"lon":5.384889,"is_reserved":false,"is_disabled":true,"rental_uris":{"android":"levelo://app?vid=9f21f556-a4c2-470e-9472-e6321ac8c72b","ios":"levelo://app?vid=9f21f556-a4c2-470e-9472-e6321ac8c72b"},"vehicle_type_id":"4","last_reported":1749744808,"current_range_meters":0,"station_id":"ce4bgj92rcd13ifvqbd0","pricing_plan_id":"cebpf4jnsgd1na2vs0mg"},{"bike_id":"48d34ad3-2644-46dd-82a0-47e5ff24cebe","system_id":"levelo_inurba_marseille","lat":43.30431,"lon":5.38883,"is_reserved":false,"is_disabled":true,"rental_uris":{"android":"levelo://app?vid=48d34ad3-2644-46dd-82a0-47e5ff24cebe","ios":"levelo://app?vid=48d34ad3-2644-46dd-82a0-47e5ff24cebe"},"vehicle_type_id":"4","last_reported":1749744808,"current_range_meters":0,"station_id":"ce4bgk12rcd13ifvqbi0","pricing_plan_id":"cebpf4jnsgd1na2vs0mg"},{"bike_id":"01b54cce-549e-46cc-ad0f-93c25cdbc9f6","system_id":"levelo_inurba_marseille","lat":43.2867,"lon":5.36349,"is_reserved":false,"is_disabled":true,"rental_uris":{"android":"levelo://app?vid=01b54cce-549e-46cc-ad0f-93c25cdbc9f6","ios":"levelo://app?vid=01b54cce-549e-46cc-ad0f-93c25cdbc9f6"},"vehicle_type_id":"4","last_reported":1749744808,"current_range_meters":0,"station_id":"ce4bhah2rcd13ifvqej0","pricing_plan_id":"cebpf4jnsgd1na2vs0mg"},{"bike_id":"ebbdeb94-0f77-40b9-8690-af159db84d67","system_id":"levelo_inurba_marseille","lat":43.24546,"lon":5.39522,"is_reserved":false,"is_disabled":true,"rental_uris":{"android":"levelo://app?vid=ebbdeb94-0f77-40b9-8690-af159db84d67","ios":"levelo://app?vid=ebbdeb94-0f77-40b9-8690-af159db84d67"},"vehicle_type_id":"4","last_reported":1749744808,"current_range_meters":0,"station_id":"ce4bhlp2rcd13ifvqgjg","pricing_plan_id":"cebpf4jnsgd1na2vs0mg"},{"bike_id":"e17401fd-ee9d-4f83-8fb6-7fd894b98c85","system_id":"levelo_inurba_marseille","lat":43.28149,"lon":5.42657,"is_reserved":false,"is_disabled":true,"rental_uris":{"android":"levelo://app?vid=e17401fd-ee9d-4f83-8fb6-7fd894b98c85","ios":"levelo://app?vid=e17401fd-ee9d-4f83-8fb6-7fd894b98c85"},"vehicle_type_id":"4","last_reported":1749744808,"current_range_meters":0,"station_id":"ce4bhnh2rcd13ifvqgug","pricing_plan_id":"cebpf4jnsgd1na2vs0mg"},{"bike_id":"80f15d41-89a1-42eb-af22-caf5478fcb03","system_id":"levelo_inurba_marseille","lat":43.27993,"lon":5.41662,"is_reserved":false,"is_disabled":true,"rental_uris":{"android":"levelo://app?vid=80f15d41-89a1-42eb-af22-caf5478fcb03","ios":"levelo://app?vid=80f15d41-89a1-42eb-af22-caf5478fcb03"},"vehicle_type_id":"4","last_reported":1749744808,"current_range_meters":0,"station_id":"ce4bho12rcd13ifvqh1g","pricing_plan_id":"cebpf4jnsgd1na2vs0mg"},{"bike_id":"f4a529c2-e076-4853-9434-aa931ab59680","system_id":"levelo_inurba_marseille","lat":43.317104,"lon":5.437024,"is_reserved":false,"is_disabled":true,"rental_uris":{"android":"levelo://app?vid=f4a529c2-e076-4853-9434-aa931ab59680","ios":"levelo://app?vid=f4a529c2-e076-4853-9434-aa931ab59680"},"vehicle_type_id":"4","last_reported":1749744808,"current_range_meters":0,"station_id":"ce4bhp92rcd13ifvqhcg","pricing_plan_id":"cebpf4jnsgd1na2vs0mg"},{"bike_id":"6b12840c-5e2b-4e90-8baa-8966fd39c125","system_id":"levelo_inurba_marseille","lat":43.23205,"lon":5.35555,"is_reserved":false,"is_disabled":true,"rental_uris":{"android":"levelo://app?vid=6b12840c-5e2b-4e90-8baa-8966fd39c125","ios":"levelo://app?vid=6b12840c-5e2b-4e90-8baa-8966fd39c125"},"vehicle_type_id":"4","last_reported":1749744808,"current_range_meters":0,"station_id":"ce4bhu92rcd13ifvqi70","pricing_plan_id":"cebpf4jnsgd1na2vs0mg"},{"bike_id":"af831259-8777-4522-8450-a395ecfd4af4","system_id":"levelo_inurba_marseille","lat":43.2953,"lon":5.37503,"is_reserved":false,"is_disabled":true,"rental_uris":{"android":"levelo://app?vid=af831259-8777-4522-8450-a395ecfd4af4","ios":"levelo://app?vid=af831259-8777-4522-8450-a395ecfd4af4"},"vehicle_type_id":"4","last_reported":1749744808,"current_range_meters":400,"station_id":"ce4bgkp2rcd13ifvqbmg","pricing_plan_id":"cebpf4jnsgd1na2vs0mg"},{"bike_id":"81d5a925-fb52-48eb-8276-ea02e257c960","system_id":"levelo_inurba_marseille","lat":43.24804,"lon":5.37455,"is_reserved":false,"is_disabled":true,"rental_uris":{"android":"levelo://app?vid=81d5a925-fb52-48eb-8276-ea02e257c960","ios":"levelo://app?vid=81d5a925-fb52-48eb-8276-ea02e257c960"},"vehicle_type_id":"4","last_reported":1749744808,"current_range_meters":400,"station_id":"ce4bhgh2rcd13ifvqfb0","pricing_plan_id":"cebpf4jnsgd1na2vs0mg"},{"bike_id":"da0dc9d8-433a-4d43-aa66-3d89232d6864","system_id":"levelo_inurba_marseille","lat":43.28411,"lon":5.37516,"is_reserved":false,"is_disabled":true,"rental_uris":{"android":"levelo://app?vid=da0dc9d8-433a-4d43-aa66-3d89232d6864","ios":"levelo://app?vid=da0dc9d8-433a-4d43-aa66-3d89232d6864"},"vehicle_type_id":"4","last_reported":1749744808,"current_range_meters":800,"station_id":"ce4bh412rcd13ifvqds0","pricing_plan_id":"cebpf4jnsgd1na2vs0mg"},{"bike_id":"e8fadb5c-c34f-46bc-ac62-5a43608850d2","system_id":"levelo_inurba_marseille","lat":43.29024,"lon":5.38139,"is_reserved":false,"is_disabled":true,"rental_uris":{"android":"levelo://app?vid=e8fadb5c-c34f-46bc-ac62-5a43608850d2","ios":"levelo://app?vid=e8fadb5c-c34f-46bc-ac62-5a43608850d2"},"vehicle_type_id":"4","last_reported":1749744808,"current_range_meters":800,"station_id":"ce4bh4p2rcd13ifvqe1g","pricing_plan_id":"cebpf4jnsgd1na2vs0mg"},{"bike_id":"db7fbfe8-f3aa-458d-b554-d8f51d48cecf","system_id":"levelo_inurba_marseille","lat":43.26191,"lon":5.37451,"is_reserved":false,"is_disabled":true,"rental_uris":{"android":"levelo://app?vid=db7fbfe8-f3aa-458d-b554-d8f51d48cecf","ios":"levelo://app?vid=db7fbfe8-f3aa-458d-b554-d8f51d48cecf"},"vehicle_type_id":"4","last_reported":1749744808,"current_range_meters":800,"station_id":"ce4bhgp2rcd13ifvqfc0","pricing_plan_id":"cebpf4jnsgd1na2vs0mg"},{"bike_id":"6fec8452-9159-4284-a3cc-a0393f729100","system_id":"levelo_inurba_marseille","lat":43.21743,"lon":5.34603,"is_reserved":false,"is_disabled":true,"rental_uris":{"android":"levelo://app?vid=6fec8452-9159-4284-a3cc-a0393f729100","ios":"levelo://app?vid=6fec8452-9159-4284-a3cc-a0393f729100"},"vehicle_type_id":"4","last_reported":1749744808,"current_range_meters":1200,"station_id":"","pricing_plan_id":"cebpf4jnsgd1na2vs0mg"},{"bike_id":"a9b6bf99-4070-4437-bb20-72962ae30b90","system_id":"levelo_inurba_marseille","lat":43.27524,"lon":5.36406,"is_reserved":false,"is_disabled":true,"rental_uris":{"android":"levelo://app?vid=a9b6bf99-4070-4437-bb20-72962ae30b90","ios":"levelo://app?vid=a9b6bf99-4070-4437-bb20-72962ae30b90"},"vehicle_type_id":"4","last_reported":1749744808,"current_range_meters":1200,"station_id":"","pricing_plan_id":"cebpf4jnsgd1na2vs0mg"},{"bike_id":"5941d565-c6da-4433-8509-7c7528c28209","system_id":"levelo_inurba_marseille","lat":43.29262,"lon":5.38446,"is_reserved":false,"is_disabled":true,"rental_uris":{"android":"levelo://app?vid=5941d565-c6da-4433-8509-7c7528c28209","ios":"levelo://app?vid=5941d565-c6da-4433-8509-7c7528c28209"},"vehicle_type_id":"4","last_reported":1749744808,"current_range_meters":1200,"station_id":"ce4bh692rcd13ifvqea0","pricing_plan_id":"cebpf4jnsgd1na2vs0mg"},{"bike_id":"f9df38e3-9a22-4d0a-ab19-28e1df33e442","system_id":"levelo_inurba_marseille","lat":43.29014,"lon":5.35621,"is_reserved":false,"is_disabled":true,"rental_uris":{"android":"levelo://app?vid=f9df38e3-9a22-4d0a-ab19-28e1df33e442","ios":"levelo://app?vid=f9df38e3-9a22-4d0a-ab19-28e1df33e442"},"vehicle_type_id":"4","last_reported":1749744808,"current_range_meters":1200,"station_id":"ce4bhb92rcd13ifvqen0","pricing_plan_id":"cebpf4jnsgd1na2vs0mg"},{"bike_id":"6559df7e-f62d-40e2-acee-6898fd38a5b6","system_id":"levelo_inurba_marseille","lat":43.284214,"lon":5.349968,"is_reserved":false,"is_disabled":true,"rental_uris":{"android":"levelo://app?vid=6559df7e-f62d-40e2-acee-6898fd38a5b6","ios":"levelo://app?vid=6559df7e-f62d-40e2-acee-6898fd38a5b6"},"vehicle_type_id":"4","last_reported":1749744808,"current_range_meters":1200,"station_id":"ce4bhb92rcd13ifvqen0","pricing_plan_id":"cebpf4jnsgd1na2vs0mg"},{"bike_id":"1b41680d-d41d-4b83-8d72-975da3beaa15","system_id":"levelo_inurba_marseille","lat":43.29277,"lon":5.36841,"is_reserved":false,"is_disabled":true,"rental_uris":{"android":"levelo://app?vid=1b41680d-d41d-4b83-8d72-975da3beaa15","ios":"levelo://app?vid=1b41680d-d41d-4b83-8d72-975da3beaa15"},"vehicle_type_id":"4","last_reported":1749744808,"current_range_meters":1200,"station_id":"ce4bhbp2rcd13ifvqesg","pricing_plan_id":"cebpf4jnsgd1na2vs0mg"},{"bike_id":"4c5ba32f-2709-4b7d-97f6-f20cb2390784","system_id":"levelo_inurba_marseille","lat":43.28615,"lon":5.35106,"is_reserved":false,"is_disabled":true,"rental_uris":{"android":"levelo://app?vid=4c5ba32f-2709-4b7d-97f6-f20cb2390784","ios":"levelo://app?vid=4c5ba32f-2709-4b7d-97f6-f20cb2390784"},"vehicle_type_id":"4","last_reported":1749744808,"current_range_meters":1200,"station_id":"ce4bhch2rcd13ifvqeug","pricing_plan_id":"cebpf4jnsgd1na2vs0mg"},{"bike_id":"fa5c0511-8f19-4735-8fa8-8416e74975e0","system_id":"levelo_inurba_marseille","lat":43.29363,"lon":5.37844,"is_reserved":false,"is_disabled":true,"rental_uris":{"android":"levelo://app?vid=fa5c0511-8f19-4735-8fa8-8416e74975e0","ios":"levelo://app?vid=fa5c0511-8f19-4735-8fa8-8416e74975e0"},"vehicle_type_id":"4","last_reported":1749744808,"current_range_meters":1600,"station_id":"ce4bgjh2rcd13ifvqbf0","pricing_plan_id":"cebpf4jnsgd1na2vs0mg"},{"bike_id":"342eb6a6-996c-4828-a28d-8840b15cc184","system_id":"levelo_inurba_marseille","lat":43.307946,"lon":5.434363,"is_reserved":false,"is_disabled":true,"rental_uris":{"android":"levelo://app?vid=342eb6a6-996c-4828-a28d-8840b15cc184","ios":"levelo://app?vid=342eb6a6-996c-4828-a28d-8840b15cc184"},"vehicle_type_id":"4","last_reported":1749744808,"current_range_meters":1600,"station_id":"ce4bhph2rcd13ifvqheg","pricing_plan_id":"cebpf4jnsgd1na2vs0mg"},{"bike_id":"ed6ea578-21d9-4f87-bccb-79fb5e21bd8c","system_id":"levelo_inurba_marseille","lat":43.29087,"lon":5.38123,"is_reserved":false,"is_disabled":true,"rental_uris":{"android":"levelo://app?vid=ed6ea578-21d9-4f87-bccb-79fb5e21bd8c","ios":"levelo://app?vid=ed6ea578-21d9-4f87-bccb-79fb5e21bd8c"},"vehicle_type_id":"4","last_reported":1749744808,"current_range_meters":2000,"station_id":"ce4bh512rcd13ifvqe2g","pricing_plan_id":"cebpf4jnsgd1na2vs0mg"},{"bike_id":"e0dd8167-1b43-40a7-b7bd-f1d564162ca4","system_id":"levelo_inurba_marseille","lat":43.2849,"lon":5.38544,"is_reserved":false,"is_disabled":true,"rental_uris":{"android":"levelo://app?vid=e0dd8167-1b43-40a7-b7bd-f1d564162ca4","ios":"levelo://app?vid=e0dd8167-1b43-40a7-b7bd-f1d564162ca4"},"vehicle_type_id":"4","last_reported":1749744808,"current_range_meters":2000,"station_id":"ce4bh8p2rcd13ifvqeb0","pricing_plan_id":"cebpf4jnsgd1na2vs0mg"},{"bike_id":"16e33ef7-ecf4-4c72-95a2-6adbe2695d78","system_id":"levelo_inurba_marseille","lat":43.2849,"lon":5.38568,"is_reserved":false,"is_disabled":true,"rental_uris":{"android":"levelo://app?vid=16e33ef7-ecf4-4c72-95a2-6adbe2695d78","ios":"levelo://app?vid=16e33ef7-ecf4-4c72-95a2-6adbe2695d78"},"vehicle_type_id":"4","last_reported":1749744808,"current_range_meters":2000,"station_id":"ce4bh8p2rcd13ifvqeb0","pricing_plan_id":"cebpf4jnsgd1na2vs0mg"},{"bike_id":"abd9368a-8e4c-499e-a1f5-80b11287a3bd","system_id":"levelo_inurba_marseille","lat":43.28615,"lon":5.351065,"is_reserved":false,"is_disabled":true,"rental_uris":{"android":"levelo://app?vid=abd9368a-8e4c-499e-a1f5-80b11287a3bd","ios":"levelo://app?vid=abd9368a-8e4c-499e-a1f5-80b11287a3bd"},"vehicle_type_id":"4","last_reported":1749744808,"current_range_meters":2000,"station_id":"ce4bhch2rcd13ifvqeug","pricing_plan_id":"cebpf4jnsgd1na2vs0mg"},{"bike_id":"b43b4118-0f71-4bc0-bcd5-eae42291a7a0","system_id":"levelo_inurba_marseille","lat":43.29917,"lon":5.37496,"is_reserved":false,"is_disabled":false,"rental_uris":{"android":"levelo://app?vid=b43b4118-0f71-4bc0-bcd5-eae42291a7a0","ios":"levelo://app?vid=b43b4118-0f71-4bc0-bcd5-eae42291a7a0"},"vehicle_type_id":"4","last_reported":1749744808,"current_range_meters":2800,"station_id":"ce4bgjh2rcd13ifvqbg0","pricing_plan_id":"cebpf4jnsgd1na2vs0mg"},{"bike_id":"e484213d-e89c-4346-a8a3-f9db7e48b6c6","system_id":"levelo_inurba_marseille","lat":43.30902,"lon":5.3719,"is_reserved":false,"is_disabled":false,"rental_uris":{"android":"levelo://app?vid=e484213d-e89c-4346-a8a3-f9db7e48b6c6","ios":"levelo://app?vid=e484213d-e89c-4346-a8a3-f9db7e48b6c6"},"vehicle_type_id":"4","last_reported":1749744808,"current_range_meters":2800,"station_id":"ce4bguh2rcd13ifvqckg","pricing_plan_id":"cebpf4jnsgd1na2vs0mg"},{"bike_id":"66b1cbfb-c132-4ef4-922c-0beab9b5a350","system_id":"levelo_inurba_marseille","lat":43.29762,"lon":5.45981,"is_reserved":false,"is_disabled":false,"rental_uris":{"android":"levelo://app?vid=66b1cbfb-c132-4ef4-922c-0beab9b5a350","ios":"levelo://app?vid=66b1cbfb-c132-4ef4-922c-0beab9b5a350"},"vehicle_type_id":"4","last_reported":1749744808,"current_range_meters":3200,"station_id":"","pricing_plan_id":"cebpf4jnsgd1na2vs0mg"},{"bike_id":"853e9d90-8fb4-4c17-a762-9923b9fb02f0","system_id":"levelo_inurba_marseille","lat":43.254281,"lon":5.381063,"is_reserved":false,"is_disabled":false,"rental_uris":{"android":"levelo://app?vid=853e9d90-8fb4-4c17-a762-9923b9fb02f0","ios":"levelo://app?vid=853e9d90-8fb4-4c17-a762-9923b9fb02f0"},"vehicle_type_id":"4","last_reported":1749744808,"current_range_meters":3200,"station_id":"","pricing_plan_id":"cebpf4jnsgd1na2vs0mg"},{"bike_id":"b9a58d65-5077-406c-be11-bcc89d73e564","system_id":"levelo_inurba_marseille","lat":43.2959,"lon":5.38114,"is_reserved":false,"is_disabled":false,"rental_uris":{"android":"levelo://app?vid=b9a58d65-5077-406c-be11-bcc89d73e564","ios":"levelo://app?vid=b9a58d65-5077-406c-be11-bcc89d73e564"},"vehicle_type_id":"4","last_reported":1749744808,"current_range_meters":3200,"station_id":"ce4bgl12rcd13ifvqbo0","pricing_plan_id":"cebpf4jnsgd1na2vs0mg"},{"bike_id":"13309a06-8f96-4c0c-8c15-0cbe3622bc77","system_id":"levelo_inurba_marseille","lat":43.283997,"lon":5.375102,"is_reserved":false,"is_disabled":false,"rental_uris":{"android":"levelo://app?vid=13309a06-8f96-4c0c-8c15-0cbe3622bc77","ios":"levelo://app?vid=13309a06-8f96-4c0c-8c15-0cbe3622bc77"},"vehicle_type_id":"4","last_reported":1749744808,"current_range_meters":3200,"station_id":"ce4bh412rcd13ifvqds0","pricing_plan_id":"cebpf4jnsgd1na2vs0mg"},{"bike_id":"d212d5fa-ad1a-4c0f-a13b-4e25878fef66","system_id":"levelo_inurba_marseille","lat":43.29014,"lon":5.35592,"is_reserved":false,"is_disabled":false,"rental_uris":{"android":"levelo://app?vid=d212d5fa-ad1a-4c0f-a13b-4e25878fef66","ios":"levelo://app?vid=d212d5fa-ad1a-4c0f-a13b-4e25878fef66"},"vehicle_type_id":"4","last_reported":1749744808,"current_range_meters":3200,"station_id":"ce4bhb92rcd13ifvqen0","pricing_plan_id":"cebpf4jnsgd1na2vs0mg"},{"bike_id":"5077581b-cebb-46fc-ba69-4fa8272d4810","system_id":"levelo_inurba_marseille","lat":43.21365,"lon":5.35525,"is_reserved":false,"is_disabled":false,"rental_uris":{"android":"levelo://app?vid=5077581b-cebb-46fc-ba69-4fa8272d4810","ios":"levelo://app?vid=5077581b-cebb-46fc-ba69-4fa8272d4810"},"vehicle_type_id":"4","last_reported":1749744808,"current_range_meters":3600,"station_id":"","pricing_plan_id":"cebpf4jnsgd1na2vs0mg"},{"bike_id":"4b46de49-fc9e-423b-b68b-7bdf05a00e45","system_id":"levelo_inurba_marseille","lat":43.25314,"lon":5.39371,"is_reserved":false,"is_disabled":false,"rental_uris":{"android":"levelo://app?vid=4b46de49-fc9e-423b-b68b-7bdf05a00e45","ios":"levelo://app?vid=4b46de49-fc9e-423b-b68b-7bdf05a00e45"},"vehicle_type_id":"4","last_reported":1749744808,"current_range_meters":3600,"station_id":"","pricing_plan_id":"cebpf4jnsgd1na2vs0mg"},{"bike_id":"bcb71057-5076-49a0-b7ee-8c0735eaeaa5","system_id":"levelo_inurba_marseille","lat":43.287074,"lon":5.373795,"is_reserved":false,"is_disabled":false,"rental_uris":{"android":"levelo://app?vid=bcb71057-5076-49a0-b7ee-8c0735eaeaa5","ios":"levelo://app?vid=bcb71057-5076-49a0-b7ee-8c0735eaeaa5"},"vehicle_type_id":"4","last_reported":1749744808,"current_range_meters":3600,"station_id":"ce4bh3p2rcd13ifvqdq0","pricing_plan_id":"cebpf4jnsgd1na2vs0mg"},{"bike_id":"42de91fd-9848-41e2-8a9e-992f0c40fd06","system_id":"levelo_inurba_marseille","lat":43.28368,"lon":5.38645,"is_reserved":false,"is_disabled":false,"rental_uris":{"android":"levelo://app?vid=42de91fd-9848-41e2-8a9e-992f0c40fd06","ios":"levelo://app?vid=42de91fd-9848-41e2-8a9e-992f0c40fd06"},"vehicle_type_id":"4","last_reported":1749744808,"current_range_meters":3600,"station_id":"ce4bh492rcd13ifvqdvg","pricing_plan_id":"cebpf4jnsgd1na2vs0mg"},{"bike_id":"165a6ce2-f806-45b2-bf82-39d7bdd011fc","system_id":"levelo_inurba_marseille","lat":43.29387,"lon":5.38554,"is_reserved":false,"is_disabled":false,"rental_uris":{"android":"levelo://app?vid=165a6ce2-f806-45b2-bf82-39d7bdd011fc","ios":"levelo://app?vid=165a6ce2-f806-45b2-bf82-39d7bdd011fc"},"vehicle_type_id":"4","last_reported":1749744808,"current_range_meters":4000,"station_id":"","pricing_plan_id":"cebpf4jnsgd1na2vs0mg"},{"bike_id":"bfadd118-81cf-4f9f-ae5e-ea0a303ea551","system_id":"levelo_inurba_marseille","lat":43.29758,"lon":5.37109,"is_reserved":false,"is_disabled":false,"rental_uris":{"android":"levelo://app?vid=bfadd118-81cf-4f9f-ae5e-ea0a303ea551","ios":"levelo://app?vid=bfadd118-81cf-4f9f-ae5e-ea0a303ea551"},"vehicle_type_id":"4","last_reported":1749744808,"current_range_meters":4000,"station_id":"ce4bgop2rcd13ifvqc1g","pricing_plan_id":"cebpf4jnsgd1na2vs0mg"},{"bike_id":"7bd4fa9a-3bd5-4698-b729-2310f57a3869","system_id":"levelo_inurba_marseille","lat":43.29535,"lon":5.39401,"is_reserved":false,"is_disabled":false,"rental_uris":{"android":"levelo://app?vid=7bd4fa9a-3bd5-4698-b729-2310f57a3869","ios":"levelo://app?vid=7bd4fa9a-3bd5-4698-b729-2310f57a3869"},"vehicle_type_id":"4","last_reported":1749744808,"current_range_meters":4000,"station_id":"ce4bh292rcd13ifvqdf0","pricing_plan_id":"cebpf4jnsgd1na2vs0mg"},{"bike_id":"475ac121-9460-4ca6-a577-af4f561c53c7","system_id":"levelo_inurba_marseille","lat":43.24808,"lon":5.37459,"is_reserved":false,"is_disabled":false,"rental_uris":{"android":"levelo://app?vid=475ac121-9460-4ca6-a577-af4f561c53c7","ios":"levelo://app?vid=475ac121-9460-4ca6-a577-af4f561c53c7"},"vehicle_type_id":"4","last_reported":1749744808,"current_range_meters":4000,"station_id":"ce4bhgh2rcd13ifvqfb0","pricing_plan_id":"cebpf4jnsgd1na2vs0mg"},{"bike_id":"1e20f032-0f6a-40b2-ad29-e4d2225496fa","system_id":"levelo_inurba_marseille","lat":43.30287,"lon":5.37069,"is_reserved":false,"is_disabled":false,"rental_uris":{"android":"levelo://app?vid=1e20f032-0f6a-40b2-ad29-e4d2225496fa","ios":"levelo://app?vid=1e20f032-0f6a-40b2-ad29-e4d2225496fa"},"vehicle_type_id":"4","last_reported":1749744808,"current_range_meters":4400,"station_id":"","pricing_plan_id":"cebpf4jnsgd1na2vs0mg"},{"bike_id":"4ec2f2c9-c269-4759-ad63-795c8dffa7b6","system_id":"levelo_inurba_marseille","lat":43.28729,"lon":5.37952,"is_reserved":false,"is_disabled":false,"rental_uris":{"android":"levelo://app?vid=4ec2f2c9-c269-4759-ad63-795c8dffa7b6","ios":"levelo://app?vid=4ec2f2c9-c269-4759-ad63-795c8dffa7b6"},"vehicle_type_id":"4","last_reported":1749744808,"current_range_meters":4400,"station_id":"ce4bh9p2rcd13ifvqec0","pricing_plan_id":"cebpf4jnsgd1na2vs0mg"},{"bike_id":"6d255e59-c097-4587-bc47-2ccac0d2c58f","system_id":"levelo_inurba_marseille","lat":43.26206,"lon":5.37441,"is_reserved":false,"is_disabled":false,"rental_uris":{"android":"levelo://app?vid=6d255e59-c097-4587-bc47-2ccac0d2c58f","ios":"levelo://app?vid=6d255e59-c097-4587-bc47-2ccac0d2c58f"},"vehicle_type_id":"4","last_reported":1749744808,"current_range_meters":4400,"station_id":"ce4bhgp2rcd13ifvqfc0","pricing_plan_id":"cebpf4jnsgd1na2vs0mg"},{"bike_id":"3176b11d-0c58-4120-9d0b-c43834110364","system_id":"levelo_inurba_marseille","lat":43.24665,"lon":5.38172,"is_reserved":false,"is_disabled":false,"rental_uris":{"android":"levelo://app?vid=3176b11d-0c58-4120-9d0b-c43834110364","ios":"levelo://app?vid=3176b11d-0c58-4120-9d0b-c43834110364"},"vehicle_type_id":"4","last_reported":1749744808,"current_range_meters":4400,"station_id":"ce4bhih2rcd13ifvqfr0","pricing_plan_id":"cebpf4jnsgd1na2vs0mg"},{"bike_id":"94b38268-aa5b-4d2d-84c1-508f718cbf39","system_id":"levelo_inurba_marseille","lat":43.29223,"lon":5.360617,"is_reserved":false,"is_disabled":false,"rental_uris":{"android":"levelo://app?vid=94b38268-aa5b-4d2d-84c1-508f718cbf39","ios":"levelo://app?vid=94b38268-aa5b-4d2d-84c1-508f718cbf39"},"vehicle_type_id":"4","last_reported":1749744808,"current_range_meters":4800,"station_id":"ce4bhbh2rcd13ifvqeqg","pricing_plan_id":"cebpf4jnsgd1na2vs0mg"},{"bike_id":"aa4d79f0-dd5b-4fd3-86e4-a94de88060cf","system_id":"levelo_inurba_marseille","lat":43.278494,"lon":5.392182,"is_reserved":false,"is_disabled":false,"rental_uris":{"android":"levelo://app?vid=aa4d79f0-dd5b-4fd3-86e4-a94de88060cf","ios":"levelo://app?vid=aa4d79f0-dd5b-4fd3-86e4-a94de88060cf"},"vehicle_type_id":"4","last_reported":1749744808,"current_range_meters":4800,"station_id":"ce4bhjp2rcd13ifvqga0","pricing_plan_id":"cebpf4jnsgd1na2vs0mg"},{"bike_id":"e42cdf42-9b2d-4adb-b5cd-04a7ccf82a0c","system_id":"levelo_inurba_marseille","lat":43.29166,"lon":5.37163,"is_reserved":false,"is_disabled":false,"rental_uris":{"android":"levelo://app?vid=e42cdf42-9b2d-4adb-b5cd-04a7ccf82a0c","ios":"levelo://app?vid=e42cdf42-9b2d-4adb-b5cd-04a7ccf82a0c"},"vehicle_type_id":"4","last_reported":1749744808,"current_range_meters":5600,"station_id":"ce4bha92rcd13ifvqeh0","pricing_plan_id":"cebpf4jnsgd1na2vs0mg"},{"bike_id":"9e59a544-9634-4830-a50c-88d11116e6bd","system_id":"levelo_inurba_marseille","lat":43.33026,"lon":5.39049,"is_reserved":false,"is_disabled":false,"rental_uris":{"android":"levelo://app?vid=9e59a544-9634-4830-a50c-88d11116e6bd","ios":"levelo://app?vid=9e59a544-9634-4830-a50c-88d11116e6bd"},"vehicle_type_id":"4","last_reported":1749744808,"current_range_meters":5600,"station_id":"ce4bhr92rcd13ifvqhrg","pricing_plan_id":"cebpf4jnsgd1na2vs0mg"},{"bike_id":"66314ca9-30a7-4c0a-8507-6f89f4c9b4e1","system_id":"levelo_inurba_marseille","lat":43.26178,"lon":5.37051,"is_reserved":false,"is_disabled":false,"rental_uris":{"android":"levelo://app?vid=66314ca9-30a7-4c0a-8507-6f89f4c9b4e1","ios":"levelo://app?vid=66314ca9-30a7-4c0a-8507-6f89f4c9b4e1"},"vehicle_type_id":"4","last_reported":1749744808,"current_range_meters":6000,"station_id":"","pricing_plan_id":"cebpf4jnsgd1na2vs0mg"},{"bike_id":"c8cafbfc-4ff1-4f69-aa80-ea22eda550c6","system_id":"levelo_inurba_marseille","lat":43.2857,"lon":5.39495,"is_reserved":false,"is_disabled":false,"rental_uris":{"android":"levelo://app?vid=c8cafbfc-4ff1-4f69-aa80-ea22eda550c6","ios":"levelo://app?vid=c8cafbfc-4ff1-4f69-aa80-ea22eda550c6"},"vehicle_type_id":"4","last_reported":1749744808,"current_range_meters":6000,"station_id":"ce4bh292rcd13ifvqdg0","pricing_plan_id":"cebpf4jnsgd1na2vs0mg"},{"bike_id":"c5f7e1f8-f66c-4638-9903-f25df9e54bd7","system_id":"levelo_inurba_marseille","lat":43.32041,"lon":5.41548,"is_reserved":false,"is_disabled":true,"rental_uris":{"android":"levelo://app?vid=c5f7e1f8-f66c-4638-9903-f25df9e54bd7","ios":"levelo://app?vid=c5f7e1f8-f66c-4638-9903-f25df9e54bd7"},"vehicle_type_id":"4","last_reported":1749744808,"current_range_meters":6000,"station_id":"ce4bhq92rcd13ifvqhkg","pricing_plan_id":"cebpf4jnsgd1na2vs0mg"},{"bike_id":"e16a60f1-df40-4cb9-92b7-842feef06ac8","system_id":"levelo_inurba_marseille","lat":43.29635,"lon":5.40596,"is_reserved":false,"is_disabled":false,"rental_uris":{"android":"levelo://app?vid=e16a60f1-df40-4cb9-92b7-842feef06ac8","ios":"levelo://app?vid=e16a60f1-df40-4cb9-92b7-842feef06ac8"},"vehicle_type_id":"4","last_reported":1749744808,"current_range_meters":6400,"station_id":"ce4bh0h2rcd13ifvqd60","pricing_plan_id":"cebpf4jnsgd1na2vs0mg"},{"bike_id":"795b7d15-4f33-4e5b-9628-1dbdbaca5cbf","system_id":"levelo_inurba_marseille","lat":43.292575,"lon":5.384269,"is_reserved":false,"is_disabled":false,"rental_uris":{"android":"levelo://app?vid=795b7d15-4f33-4e5b-9628-1dbdbaca5cbf","ios":"levelo://app?vid=795b7d15-4f33-4e5b-9628-1dbdbaca5cbf"},"vehicle_type_id":"4","last_reported":1749744808,"current_range_meters":6400,"station_id":"ce4bh692rcd13ifvqea0","pricing_plan_id":"cebpf4jnsgd1na2vs0mg"},{"bike_id":"7e0d45d2-8aa3-4b53-9f2c-0f2f2899da3d","system_id":"levelo_inurba_marseille","lat":43.27372,"lon":5.36263,"is_reserved":false,"is_disabled":false,"rental_uris":{"android":"levelo://app?vid=7e0d45d2-8aa3-4b53-9f2c-0f2f2899da3d","ios":"levelo://app?vid=7e0d45d2-8aa3-4b53-9f2c-0f2f2899da3d"},"vehicle_type_id":"4","last_reported":1749744808,"current_range_meters":6400,"station_id":"ce4bhbh2rcd13ifvqeo0","pricing_plan_id":"cebpf4jnsgd1na2vs0mg"},{"bike_id":"a91c871d-d59c-4046-addc-424a15b502e0","system_id":"levelo_inurba_marseille","lat":43.24659,"lon":5.38162,"is_reserved":false,"is_disabled":false,"rental_uris":{"android":"levelo://app?vid=a91c871d-d59c-4046-addc-424a15b502e0","ios":"levelo://app?vid=a91c871d-d59c-4046-addc-424a15b502e0"},"vehicle_type_id":"4","last_reported":1749744808,"current_range_meters":6400,"station_id":"ce4bhih2rcd13ifvqfr0","pricing_plan_id":"cebpf4jnsgd1na2vs0mg"},{"bike_id":"6aaf8bd5-91f6-4c17-935a-52716ff54961","system_id":"levelo_inurba_marseille","lat":43.29193,"lon":5.35799,"is_reserved":false,"is_disabled":false,"rental_uris":{"android":"levelo://app?vid=6aaf8bd5-91f6-4c17-935a-52716ff54961","ios":"levelo://app?vid=6aaf8bd5-91f6-4c17-935a-52716ff54961"},"vehicle_type_id":"4","last_reported":1749744808,"current_range_meters":6800,"station_id":"ce4bhb12rcd13ifvqel0","pricing_plan_id":"cebpf4jnsgd1na2vs0mg"},{"bike_id":"1314cd79-5ccb-400f-817f-629e5a96ff40","system_id":"levelo_inurba_marseille","lat":43.288607,"lon":5.35841,"is_reserved":false,"is_disabled":false,"rental_uris":{"android":"levelo://app?vid=1314cd79-5ccb-400f-817f-629e5a96ff40","ios":"levelo://app?vid=1314cd79-5ccb-400f-817f-629e5a96ff40"},"vehicle_type_id":"4","last_reported":1749744808,"current_range_meters":6800,"station_id":"ce4bhb12rcd13ifvqem0","pricing_plan_id":"cebpf4jnsgd1na2vs0mg"},{"bike_id":"0340e91f-ba45-4990-af1e-1c97217d195c","system_id":"levelo_inurba_marseille","lat":43.2731,"lon":5.39099,"is_reserved":false,"is_disabled":false,"rental_uris":{"android":"levelo://app?vid=0340e91f-ba45-4990-af1e-1c97217d195c","ios":"levelo://app?vid=0340e91f-ba45-4990-af1e-1c97217d195c"},"vehicle_type_id":"4","last_reported":1749744808,"current_range_meters":6800,"station_id":"ce4bhgp2rcd13ifvqfe0","pricing_plan_id":"cebpf4jnsgd1na2vs0mg"},{"bike_id":"2c382c8d-26be-429b-8672-118c8c680909","system_id":"levelo_inurba_marseille","lat":43.27827,"lon":5.4072,"is_reserved":false,"is_disabled":false,"rental_uris":{"android":"levelo://app?vid=2c382c8d-26be-429b-8672-118c8c680909","ios":"levelo://app?vid=2c382c8d-26be-429b-8672-118c8c680909"},"vehicle_type_id":"4","last_reported":1749744808,"current_range_meters":6800,"station_id":"ce4bhnh2rcd13ifvqgtg","pricing_plan_id":"cebpf4jnsgd1na2vs0mg"},{"bike_id":"b4d49ed4-1e3a-4d5f-8de7-ba795ea165bf","system_id":"levelo_inurba_marseille","lat":43.304333,"lon":5.397287,"is_reserved":false,"is_disabled":false,"rental_uris":{"android":"levelo://app?vid=b4d49ed4-1e3a-4d5f-8de7-ba795ea165bf","ios":"levelo://app?vid=b4d49ed4-1e3a-4d5f-8de7-ba795ea165bf"},"vehicle_type_id":"4","last_reported":1749744808,"current_range_meters":7200,"station_id":"ce4bh092rcd13ifvqd20","pricing_plan_id":"cebpf4jnsgd1na2vs0mg"},{"bike_id":"30e41312-592a-44ee-872f-f7a9cdd9f906","system_id":"levelo_inurba_marseille","lat":43.25587,"lon":5.38223,"is_reserved":false,"is_disabled":false,"rental_uris":{"android":"levelo://app?vid=30e41312-592a-44ee-872f-f7a9cdd9f906","ios":"levelo://app?vid=30e41312-592a-44ee-872f-f7a9cdd9f906"},"vehicle_type_id":"4","last_reported":1749744808,"current_range_meters":7200,"station_id":"ce4bhih2rcd13ifvqfs0","pricing_plan_id":"cebpf4jnsgd1na2vs0mg"},{"bike_id":"06aca121-8c23-489c-820b-0e16ba99a46f","system_id":"levelo_inurba_marseille","lat":43.28421,"lon":5.34988,"is_reserved":false,"is_disabled":false,"rental_uris":{"android":"levelo://app?vid=06aca121-8c23-489c-820b-0e16ba99a46f","ios":"levelo://app?vid=06aca121-8c23-489c-820b-0e16ba99a46f"},"vehicle_type_id":"4","last_reported":1749744808,"current_range_meters":8000,"station_id":"ce4bhbh2rcd13ifvqepg","pricing_plan_id":"cebpf4jnsgd1na2vs0mg"},{"bike_id":"0b36d1cf-1c25-4184-baf2-a26b8bfaa05f","system_id":"levelo_inurba_marseille","lat":43.27931,"lon":5.4103,"is_reserved":false,"is_disabled":false,"rental_uris":{"android":"levelo://app?vid=0b36d1cf-1c25-4184-baf2-a26b8bfaa05f","ios":"levelo://app?vid=0b36d1cf-1c25-4184-baf2-a26b8bfaa05f"},"vehicle_type_id":"4","last_reported":1749744808,"current_range_meters":8000,"station_id":"ce4bhnp2rcd13ifvqh0g","pricing_plan_id":"cebpf4jnsgd1na2vs0mg"},{"bike_id":"84f5a926-1dd6-4535-b647-2764ce0ca103","system_id":"levelo_inurba_marseille","lat":43.321214,"lon":5.3677,"is_reserved":false,"is_disabled":false,"rental_uris":{"android":"levelo://app?vid=84f5a926-1dd6-4535-b647-2764ce0ca103","ios":"levelo://app?vid=84f5a926-1dd6-4535-b647-2764ce0ca103"},"vehicle_type_id":"4","last_reported":1749744808,"current_range_meters":8000,"station_id":"ce4bhrh2rcd13ifvqhug","pricing_plan_id":"cebpf4jnsgd1na2vs0mg"},{"bike_id":"8105426e-eb6c-4b79-bfaa-254c1b037d55","system_id":"levelo_inurba_marseille","lat":43.32364,"lon":5.36774,"is_reserved":false,"is_disabled":false,"rental_uris":{"android":"levelo://app?vid=8105426e-eb6c-4b79-bfaa-254c1b037d55","ios":"levelo://app?vid=8105426e-eb6c-4b79-bfaa-254c1b037d55"},"vehicle_type_id":"4","last_reported":1749744808,"current_range_meters":8000,"station_id":"ce4bhsh2rcd13ifvqi2g","pricing_plan_id":"cebpf4jnsgd1na2vs0mg"},{"bike_id":"74256cc3-7604-4915-9113-2b633e90b499","system_id":"levelo_inurba_marseille","lat":43.29376,"lon":5.37828,"is_reserved":false,"is_disabled":false,"rental_uris":{"android":"levelo://app?vid=74256cc3-7604-4915-9113-2b633e90b499","ios":"levelo://app?vid=74256cc3-7604-4915-9113-2b633e90b499"},"vehicle_type_id":"4","last_reported":1749744808,"current_range_meters":8400,"station_id":"ce4bgjh2rcd13ifvqbf0","pricing_plan_id":"cebpf4jnsgd1na2vs0mg"},{"bike_id":"ced51e67-5daf-4f04-894a-9b852f2baaa4","system_id":"levelo_inurba_marseille","lat":43.29596,"lon":5.38106,"is_reserved":false,"is_disabled":false,"rental_uris":{"android":"levelo://app?vid=ced51e67-5daf-4f04-894a-9b852f2baaa4","ios":"levelo://app?vid=ced51e67-5daf-4f04-894a-9b852f2baaa4"},"vehicle_type_id":"4","last_reported":1749744808,"current_range_meters":8400,"station_id":"ce4bgl12rcd13ifvqbo0","pricing_plan_id":"cebpf4jnsgd1na2vs0mg"},{"bike_id":"6dee85e8-f87d-4832-a30e-695f385c8649","system_id":"levelo_inurba_marseille","lat":43.31199,"lon":5.40692,"is_reserved":false,"is_disabled":false,"rental_uris":{"android":"levelo://app?vid=6dee85e8-f87d-4832-a30e-695f385c8649","ios":"levelo://app?vid=6dee85e8-f87d-4832-a30e-695f385c8649"},"vehicle_type_id":"4","last_reported":1749744808,"current_range_meters":8800,"station_id":"","pricing_plan_id":"cebpf4jnsgd1na2vs0mg"},{"bike_id":"df59c4b5-d37e-47c7-b638-54b79134224a","system_id":"levelo_inurba_marseille","lat":43.27919,"lon":5.39581,"is_reserved":false,"is_disabled":false,"rental_uris":{"android":"levelo://app?vid=df59c4b5-d37e-47c7-b638-54b79134224a","ios":"levelo://app?vid=df59c4b5-d37e-47c7-b638-54b79134224a"},"vehicle_type_id":"4","last_reported":1749744808,"current_range_meters":8800,"station_id":"ce4bhf92rcd13ifvqf40","pricing_plan_id":"cebpf4jnsgd1na2vs0mg"},{"bike_id":"c6e16743-e8d6-4213-9937-7d709deec0fe","system_id":"levelo_inurba_marseille","lat":43.25727,"lon":5.41108,"is_reserved":false,"is_disabled":false,"rental_uris":{"android":"levelo://app?vid=c6e16743-e8d6-4213-9937-7d709deec0fe","ios":"levelo://app?vid=c6e16743-e8d6-4213-9937-7d709deec0fe"},"vehicle_type_id":"4","last_reported":1749744808,"current_range_meters":8800,"station_id":"ce4bhkp2rcd13ifvqgd0","pricing_plan_id":"cebpf4jnsgd1na2vs0mg"},{"bike_id":"1c0a05cf-5c32-4895-9323-effbe100afb9","system_id":"levelo_inurba_marseille","lat":43.2318,"lon":5.39993,"is_reserved":false,"is_disabled":false,"rental_uris":{"android":"levelo://app?vid=1c0a05cf-5c32-4895-9323-effbe100afb9","ios":"levelo://app?vid=1c0a05cf-5c32-4895-9323-effbe100afb9"},"vehicle_type_id":"4","last_reported":1749744808,"current_range_meters":8800,"station_id":"ce4bhn12rcd13ifvqgqg","pricing_plan_id":"cebpf4jnsgd1na2vs0mg"},{"bike_id":"e5ff82fd-cc37-4e1f-aade-050998fb0f61","system_id":"levelo_inurba_marseille","lat":43.26263,"lon":5.37099,"is_reserved":false,"is_disabled":false,"rental_uris":{"android":"levelo://app?vid=e5ff82fd-cc37-4e1f-aade-050998fb0f61","ios":"levelo://app?vid=e5ff82fd-cc37-4e1f-aade-050998fb0f61"},"vehicle_type_id":"4","last_reported":1749744808,"current_range_meters":9200,"station_id":"","pricing_plan_id":"cebpf4jnsgd1na2vs0mg"},{"bike_id":"308cbf69-b866-4a48-b377-e4f7d5e7c70b","system_id":"levelo_inurba_marseille","lat":43.32953,"lon":5.39083,"is_reserved":false,"is_disabled":false,"rental_uris":{"android":"levelo://app?vid=308cbf69-b866-4a48-b377-e4f7d5e7c70b","ios":"levelo://app?vid=308cbf69-b866-4a48-b377-e4f7d5e7c70b"},"vehicle_type_id":"4","last_reported":1749744808,"current_range_meters":9200,"station_id":"","pricing_plan_id":"cebpf4jnsgd1na2vs0mg"},{"bike_id":"7c6bd994-3fbd-4191-9b6a-5da5d5831d44","system_id":"levelo_inurba_marseille","lat":43.29797,"lon":5.4043,"is_reserved":false,"is_disabled":false,"rental_uris":{"android":"levelo://app?vid=7c6bd994-3fbd-4191-9b6a-5da5d5831d44","ios":"levelo://app?vid=7c6bd994-3fbd-4191-9b6a-5da5d5831d44"},"vehicle_type_id":"4","last_reported":1749744808,"current_range_meters":9200,"station_id":"ce4bh112rcd13ifvqd90","pricing_plan_id":"cebpf4jnsgd1na2vs0mg"},{"bike_id":"881f1578-33a9-4e47-927b-19119a01aabb","system_id":"levelo_inurba_marseille","lat":43.29888,"lon":5.38905,"is_reserved":false,"is_disabled":false,"rental_uris":{"android":"levelo://app?vid=881f1578-33a9-4e47-927b-19119a01aabb","ios":"levelo://app?vid=881f1578-33a9-4e47-927b-19119a01aabb"},"vehicle_type_id":"4","last_reported":1749744808,"current_range_meters":9200,"station_id":"ce4bh392rcd13ifvqdl0","pricing_plan_id":"cebpf4jnsgd1na2vs0mg"},{"bike_id":"287f909c-2708-4b69-8f31-66ec8f9d3dc7","system_id":"levelo_inurba_marseille","lat":43.289995,"lon":5.356315,"is_reserved":false,"is_disabled":false,"rental_uris":{"android":"levelo://app?vid=287f909c-2708-4b69-8f31-66ec8f9d3dc7","ios":"levelo://app?vid=287f909c-2708-4b69-8f31-66ec8f9d3dc7"},"vehicle_type_id":"4","last_reported":1749744808,"current_range_meters":9200,"station_id":"ce4bhb92rcd13ifvqen0","pricing_plan_id":"cebpf4jnsgd1na2vs0mg"},{"bike_id":"9d6b83fc-44a1-4fb0-841c-35e87bc3a2db","system_id":"levelo_inurba_marseille","lat":43.28432,"lon":5.34996,"is_reserved":false,"is_disabled":false,"rental_uris":{"android":"levelo://app?vid=9d6b83fc-44a1-4fb0-841c-35e87bc3a2db","ios":"levelo://app?vid=9d6b83fc-44a1-4fb0-841c-35e87bc3a2db"},"vehicle_type_id":"4","last_reported":1749744808,"current_range_meters":9200,"station_id":"ce4bhbh2rcd13ifvqepg","pricing_plan_id":"cebpf4jnsgd1na2vs0mg"},{"bike_id":"d7c33aab-ee7c-404d-a2ac-8cbb81953f56","system_id":"levelo_inurba_marseille","lat":43.27941,"lon":5.41044,"is_reserved":false,"is_disabled":false,"rental_uris":{"android":"levelo://app?vid=d7c33aab-ee7c-404d-a2ac-8cbb81953f56","ios":"levelo://app?vid=d7c33aab-ee7c-404d-a2ac-8cbb81953f56"},"vehicle_type_id":"4","last_reported":1749744808,"current_range_meters":9200,"station_id":"ce4bhnp2rcd13ifvqh0g","pricing_plan_id":"cebpf4jnsgd1na2vs0mg"},{"bike_id":"a2421370-e442-436f-a98a-844d44299694","system_id":"levelo_inurba_marseille","lat":43.32366,"lon":5.36767,"is_reserved":false,"is_disabled":false,"rental_uris":{"android":"levelo://app?vid=a2421370-e442-436f-a98a-844d44299694","ios":"levelo://app?vid=a2421370-e442-436f-a98a-844d44299694"},"vehicle_type_id":"4","last_reported":1749744808,"current_range_meters":9600,"station_id":"ce4bhsh2rcd13ifvqi2g","pricing_plan_id":"cebpf4jnsgd1na2vs0mg"},{"bike_id":"ebea6c03-1b58-4b54-a954-fea9389de62f","system_id":"levelo_inurba_marseille","lat":43.283142,"lon":5.350289,"is_reserved":false,"is_disabled":false,"rental_uris":{"android":"levelo://app?vid=ebea6c03-1b58-4b54-a954-fea9389de62f","ios":"levelo://app?vid=ebea6c03-1b58-4b54-a954-fea9389de62f"},"vehicle_type_id":"4","last_reported":1749744808,"current_range_meters":10000,"station_id":"ce4bhbh2rcd13ifvqeo0","pricing_plan_id":"cebpf4jnsgd1na2vs0mg"},{"bike_id":"a0971d0f-9a4f-45a7-b255-8be5a0d20f1d","system_id":"levelo_inurba_marseille","lat":43.2318,"lon":5.39987,"is_reserved":false,"is_disabled":false,"rental_uris":{"android":"levelo://app?vid=a0971d0f-9a4f-45a7-b255-8be5a0d20f1d","ios":"levelo://app?vid=a0971d0f-9a4f-45a7-b255-8be5a0d20f1d"},"vehicle_type_id":"4","last_reported":1749744808,"current_range_meters":10000,"station_id":"ce4bhn12rcd13ifvqgqg","pricing_plan_id":"cebpf4jnsgd1na2vs0mg"},{"bike_id":"f09c33fa-6cc3-4b2d-b767-e67238861615","system_id":"levelo_inurba_marseille","lat":43.31756,"lon":5.39022,"is_reserved":false,"is_disabled":false,"rental_uris":{"android":"levelo://app?vid=f09c33fa-6cc3-4b2d-b767-e67238861615","ios":"levelo://app?vid=f09c33fa-6cc3-4b2d-b767-e67238861615"},"vehicle_type_id":"4","last_reported":1749744808,"current_range_meters":10000,"station_id":"ce4bhqp2rcd13ifvqhng","pricing_plan_id":"cebpf4jnsgd1na2vs0mg"},{"bike_id":"db1fb8e3-e820-4dfc-8a80-81806048c981","system_id":"levelo_inurba_marseille","lat":43.33028,"lon":5.39039,"is_reserved":false,"is_disabled":false,"rental_uris":{"android":"levelo://app?vid=db1fb8e3-e820-4dfc-8a80-81806048c981","ios":"levelo://app?vid=db1fb8e3-e820-4dfc-8a80-81806048c981"},"vehicle_type_id":"4","last_reported":1749744808,"current_range_meters":10000,"station_id":"ce4bhr92rcd13ifvqhrg","pricing_plan_id":"cebpf4jnsgd1na2vs0mg"},{"bike_id":"49b8c1e7-333c-43b1-a833-2e9392c96b85","system_id":"levelo_inurba_marseille","lat":43.21749,"lon":5.34612,"is_reserved":false,"is_disabled":false,"rental_uris":{"android":"levelo://app?vid=49b8c1e7-333c-43b1-a833-2e9392c96b85","ios":"levelo://app?vid=49b8c1e7-333c-43b1-a833-2e9392c96b85"},"vehicle_type_id":"4","last_reported":1749744808,"current_range_meters":10000,"station_id":"st_cvj6r9ubvosntc0bgbag","pricing_plan_id":"cebpf4jnsgd1na2vs0mg"},{"bike_id":"19a098e9-ffdf-4b67-b1ff-1d37a8fb59b8","system_id":"levelo_inurba_marseille","lat":43.2904,"lon":5.35907,"is_reserved":false,"is_disabled":false,"rental_uris":{"android":"levelo://app?vid=19a098e9-ffdf-4b67-b1ff-1d37a8fb59b8","ios":"levelo://app?vid=19a098e9-ffdf-4b67-b1ff-1d37a8fb59b8"},"vehicle_type_id":"4","last_reported":1749744808,"current_range_meters":10800,"station_id":"ce4bha92rcd13ifvqeg0","pricing_plan_id":"cebpf4jnsgd1na2vs0mg"},{"bike_id":"9ef8e05c-3e47-4cc9-ac32-6c62481c06d6","system_id":"levelo_inurba_marseille","lat":43.28615,"lon":5.35099,"is_reserved":false,"is_disabled":false,"rental_uris":{"android":"levelo://app?vid=9ef8e05c-3e47-4cc9-ac32-6c62481c06d6","ios":"levelo://app?vid=9ef8e05c-3e47-4cc9-ac32-6c62481c06d6"},"vehicle_type_id":"4","last_reported":1749744808,"current_range_meters":10800,"station_id":"ce4bhch2rcd13ifvqeug","pricing_plan_id":"cebpf4jnsgd1na2vs0mg"},{"bike_id":"51c9c3d1-050f-47d1-8726-c1814cd19d79","system_id":"levelo_inurba_marseille","lat":43.31255,"lon":5.38956,"is_reserved":false,"is_disabled":false,"rental_uris":{"android":"levelo://app?vid=51c9c3d1-050f-47d1-8726-c1814cd19d79","ios":"levelo://app?vid=51c9c3d1-050f-47d1-8726-c1814cd19d79"},"vehicle_type_id":"4","last_reported":1749744808,"current_range_meters":11200,"station_id":"","pricing_plan_id":"cebpf4jnsgd1na2vs0mg"},{"bike_id":"608dbf53-4bd7-4842-92d3-6444e235738b","system_id":"levelo_inurba_marseille","lat":43.26736,"lon":5.3821,"is_reserved":false,"is_disabled":false,"rental_uris":{"android":"levelo://app?vid=608dbf53-4bd7-4842-92d3-6444e235738b","ios":"levelo://app?vid=608dbf53-4bd7-4842-92d3-6444e235738b"},"vehicle_type_id":"4","last_reported":1749744808,"current_range_meters":11200,"station_id":"","pricing_plan_id":"cebpf4jnsgd1na2vs0mg"},{"bike_id":"b72ded49-711c-49ed-9b26-27d4f9bf278e","system_id":"levelo_inurba_marseille","lat":43.309119,"lon":5.368449,"is_reserved":false,"is_disabled":false,"rental_uris":{"android":"levelo://app?vid=b72ded49-711c-49ed-9b26-27d4f9bf278e","ios":"levelo://app?vid=b72ded49-711c-49ed-9b26-27d4f9bf278e"},"vehicle_type_id":"4","last_reported":1749744808,"current_range_meters":11200,"station_id":"ce4bgn92rcd13ifvqbvg","pricing_plan_id":"cebpf4jnsgd1na2vs0mg"},{"bike_id":"7ff44891-9a8d-494a-83ab-4a4298bcbfd3","system_id":"levelo_inurba_marseille","lat":43.29035,"lon":5.38658,"is_reserved":false,"is_disabled":false,"rental_uris":{"android":"levelo://app?vid=7ff44891-9a8d-494a-83ab-4a4298bcbfd3","ios":"levelo://app?vid=7ff44891-9a8d-494a-83ab-4a4298bcbfd3"},"vehicle_type_id":"4","last_reported":1749744808,"current_range_meters":11200,"station_id":"ce4bh4p2rcd13ifvqe0g","pricing_plan_id":"cebpf4jnsgd1na2vs0mg"},{"bike_id":"3ced17b6-22ba-4bee-aa66-7a2551f4849d","system_id":"levelo_inurba_marseille","lat":43.2925,"lon":5.38435,"is_reserved":false,"is_disabled":false,"rental_uris":{"android":"levelo://app?vid=3ced17b6-22ba-4bee-aa66-7a2551f4849d","ios":"levelo://app?vid=3ced17b6-22ba-4bee-aa66-7a2551f4849d"},"vehicle_type_id":"4","last_reported":1749744808,"current_range_meters":11200,"station_id":"ce4bh692rcd13ifvqea0","pricing_plan_id":"cebpf4jnsgd1na2vs0mg"},{"bike_id":"684cca66-1b7f-4d56-97db-a6fb36692f06","system_id":"levelo_inurba_marseille","lat":43.28625,"lon":5.35094,"is_reserved":false,"is_disabled":false,"rental_uris":{"android":"levelo://app?vid=684cca66-1b7f-4d56-97db-a6fb36692f06","ios":"levelo://app?vid=684cca66-1b7f-4d56-97db-a6fb36692f06"},"vehicle_type_id":"4","last_reported":1749744808,"current_range_meters":11200,"station_id":"ce4bhch2rcd13ifvqeug","pricing_plan_id":"cebpf4jnsgd1na2vs0mg"},{"bike_id":"8e11f679-e67e-4eb7-8f43-c03fba8b3d34","system_id":"levelo_inurba_marseille","lat":43.24386,"lon":5.37058,"is_reserved":false,"is_disabled":false,"rental_uris":{"android":"levelo://app?vid=8e11f679-e67e-4eb7-8f43-c03fba8b3d34","ios":"levelo://app?vid=8e11f679-e67e-4eb7-8f43-c03fba8b3d34"},"vehicle_type_id":"4","last_reported":1749744808,"current_range_meters":11200,"station_id":"ce4bhhh2rcd13ifvqfk0","pricing_plan_id":"cebpf4jnsgd1na2vs0mg"},{"bike_id":"500320f2-e4bb-4906-a414-ca67470055ab","system_id":"levelo_inurba_marseille","lat":43.25635,"lon":5.38582,"is_reserved":false,"is_disabled":false,"rental_uris":{"android":"levelo://app?vid=500320f2-e4bb-4906-a414-ca67470055ab","ios":"levelo://app?vid=500320f2-e4bb-4906-a414-ca67470055ab"},"vehicle_type_id":"4","last_reported":1749744808,"current_range_meters":11600,"station_id":"","pricing_plan_id":"cebpf4jnsgd1na2vs0mg"},{"bike_id":"501fe5cc-ec9f-4031-8e12-9c9a87dfd25d","system_id":"levelo_inurba_marseille","lat":43.3178,"lon":5.40602,"is_reserved":false,"is_disabled":false,"rental_uris":{"android":"levelo://app?vid=501fe5cc-ec9f-4031-8e12-9c9a87dfd25d","ios":"levelo://app?vid=501fe5cc-ec9f-4031-8e12-9c9a87dfd25d"},"vehicle_type_id":"4","last_reported":1749744808,"current_range_meters":11600,"station_id":"","pricing_plan_id":"cebpf4jnsgd1na2vs0mg"},{"bike_id":"fa3a7218-82d6-4e26-991b-7d22500f4dda","system_id":"levelo_inurba_marseille","lat":43.29526,"lon":5.38545,"is_reserved":false,"is_disabled":false,"rental_uris":{"android":"levelo://app?vid=fa3a7218-82d6-4e26-991b-7d22500f4dda","ios":"levelo://app?vid=fa3a7218-82d6-4e26-991b-7d22500f4dda"},"vehicle_type_id":"4","last_reported":1749744808,"current_range_meters":11600,"station_id":"ce4bgih2rcd13ifvqba0","pricing_plan_id":"cebpf4jnsgd1na2vs0mg"},{"bike_id":"484a5881-f7c1-4a40-a319-a7b9d8287491","system_id":"levelo_inurba_marseille","lat":43.312263,"lon":5.368765,"is_reserved":false,"is_disabled":false,"rental_uris":{"android":"levelo://app?vid=484a5881-f7c1-4a40-a319-a7b9d8287491","ios":"levelo://app?vid=484a5881-f7c1-4a40-a319-a7b9d8287491"},"vehicle_type_id":"4","last_reported":1749744808,"current_range_meters":11600,"station_id":"ce4bgl92rcd13ifvqbq0","pricing_plan_id":"cebpf4jnsgd1na2vs0mg"},{"bike_id":"5c9a761e-f791-49d6-b3bd-89130b968851","system_id":"levelo_inurba_marseille","lat":43.30136,"lon":5.3744,"is_reserved":false,"is_disabled":false,"rental_uris":{"android":"levelo://app?vid=5c9a761e-f791-49d6-b3bd-89130b968851","ios":"levelo://app?vid=5c9a761e-f791-49d6-b3bd-89130b968851"},"vehicle_type_id":"4","last_reported":1749744808,"current_range_meters":11600,"station_id":"ce4bgs92rcd13ifvqcc0","pricing_plan_id":"cebpf4jnsgd1na2vs0mg"},{"bike_id":"c1007516-aeb0-4ba7-9bde-1641bdd872c9","system_id":"levelo_inurba_marseille","lat":43.29633,"lon":5.40593,"is_reserved":false,"is_disabled":false,"rental_uris":{"android":"levelo://app?vid=c1007516-aeb0-4ba7-9bde-1641bdd872c9","ios":"levelo://app?vid=c1007516-aeb0-4ba7-9bde-1641bdd872c9"},"vehicle_type_id":"4","last_reported":1749744808,"current_range_meters":11600,"station_id":"ce4bh0h2rcd13ifvqd60","pricing_plan_id":"cebpf4jnsgd1na2vs0mg"},{"bike_id":"bafd5f31-51bc-417f-83ba-f895c476c749","system_id":"levelo_inurba_marseille","lat":43.29802,"lon":5.40405,"is_reserved":false,"is_disabled":false,"rental_uris":{"android":"levelo://app?vid=bafd5f31-51bc-417f-83ba-f895c476c749","ios":"levelo://app?vid=bafd5f31-51bc-417f-83ba-f895c476c749"},"vehicle_type_id":"4","last_reported":1749744808,"current_range_meters":11600,"station_id":"ce4bh112rcd13ifvqd90","pricing_plan_id":"cebpf4jnsgd1na2vs0mg"},{"bike_id":"743245d4-5457-49b9-9efc-d95c90d69b8e","system_id":"levelo_inurba_marseille","lat":43.314873,"lon":5.373081,"is_reserved":false,"is_disabled":false,"rental_uris":{"android":"levelo://app?vid=743245d4-5457-49b9-9efc-d95c90d69b8e","ios":"levelo://app?vid=743245d4-5457-49b9-9efc-d95c90d69b8e"},"vehicle_type_id":"4","last_reported":1749744808,"current_range_meters":11600,"station_id":"ce4bhip2rcd13ifvqft0","pricing_plan_id":"cebpf4jnsgd1na2vs0mg"},{"bike_id":"52a34aa8-b7f0-4454-a50d-5a6fd218552f","system_id":"levelo_inurba_marseille","lat":43.24072,"lon":5.3776,"is_reserved":false,"is_disabled":false,"rental_uris":{"android":"levelo://app?vid=52a34aa8-b7f0-4454-a50d-5a6fd218552f","ios":"levelo://app?vid=52a34aa8-b7f0-4454-a50d-5a6fd218552f"},"vehicle_type_id":"4","last_reported":1749744808,"current_range_meters":11600,"station_id":"ce4bhnp2rcd13ifvqgvg","pricing_plan_id":"cebpf4jnsgd1na2vs0mg"},{"bike_id":"45cb9171-bb7e-418e-bf45-5916b7d21e5e","system_id":"levelo_inurba_marseille","lat":43.32105,"lon":5.36783,"is_reserved":false,"is_disabled":false,"rental_uris":{"android":"levelo://app?vid=45cb9171-bb7e-418e-bf45-5916b7d21e5e","ios":"levelo://app?vid=45cb9171-bb7e-418e-bf45-5916b7d21e5e"},"vehicle_type_id":"4","last_reported":1749744808,"current_range_meters":11600,"station_id":"ce4bhrh2rcd13ifvqhug","pricing_plan_id":"cebpf4jnsgd1na2vs0mg"},{"bike_id":"9bfe4539-db8b-4c21-9f2c-45979a474d8a","system_id":"levelo_inurba_marseille","lat":43.29026,"lon":5.38645,"is_reserved":false,"is_disabled":false,"rental_uris":{"android":"levelo://app?vid=9bfe4539-db8b-4c21-9f2c-45979a474d8a","ios":"levelo://app?vid=9bfe4539-db8b-4c21-9f2c-45979a474d8a"},"vehicle_type_id":"4","last_reported":1749744808,"current_range_meters":12000,"station_id":"ce4bh4p2rcd13ifvqe0g","pricing_plan_id":"cebpf4jnsgd1na2vs0mg"},{"bike_id":"af43aec2-ec33-4064-9359-d3174110aaca","system_id":"levelo_inurba_marseille","lat":43.24666,"lon":5.38159,"is_reserved":false,"is_disabled":false,"rental_uris":{"android":"levelo://app?vid=af43aec2-ec33-4064-9359-d3174110aaca","ios":"levelo://app?vid=af43aec2-ec33-4064-9359-d3174110aaca"},"vehicle_type_id":"4","last_reported":1749744808,"current_range_meters":12000,"station_id":"ce4bhih2rcd13ifvqfr0","pricing_plan_id":"cebpf4jnsgd1na2vs0mg"},{"bike_id":"97421c04-2630-4fc1-9da9-b17d88602c5f","system_id":"levelo_inurba_marseille","lat":43.337687,"lon":5.37437,"is_reserved":false,"is_disabled":false,"rental_uris":{"android":"levelo://app?vid=97421c04-2630-4fc1-9da9-b17d88602c5f","ios":"levelo://app?vid=97421c04-2630-4fc1-9da9-b17d88602c5f"},"vehicle_type_id":"4","last_reported":1749744808,"current_range_meters":12400,"station_id":"","pricing_plan_id":"cebpf4jnsgd1na2vs0mg"},{"bike_id":"8fe91cc0-7e94-4c8e-ba14-077f7df3b78e","system_id":"levelo_inurba_marseille","lat":43.29008,"lon":5.3561,"is_reserved":false,"is_disabled":false,"rental_uris":{"android":"levelo://app?vid=8fe91cc0-7e94-4c8e-ba14-077f7df3b78e","ios":"levelo://app?vid=8fe91cc0-7e94-4c8e-ba14-077f7df3b78e"},"vehicle_type_id":"4","last_reported":1749744808,"current_range_meters":12400,"station_id":"ce4bhb92rcd13ifvqen0","pricing_plan_id":"cebpf4jnsgd1na2vs0mg"},{"bike_id":"14655e0a-0149-414b-9a81-df8f9f2a868b","system_id":"levelo_inurba_marseille","lat":43.27838,"lon":5.39213,"is_reserved":false,"is_disabled":false,"rental_uris":{"android":"levelo://app?vid=14655e0a-0149-414b-9a81-df8f9f2a868b","ios":"levelo://app?vid=14655e0a-0149-414b-9a81-df8f9f2a868b"},"vehicle_type_id":"4","last_reported":1749744808,"current_range_meters":12400,"station_id":"ce4bhjp2rcd13ifvqga0","pricing_plan_id":"cebpf4jnsgd1na2vs0mg"},{"bike_id":"94ba4ced-59b4-48e6-90ab-48cbb9861d34","system_id":"levelo_inurba_marseille","lat":43.27068,"lon":5.4227,"is_reserved":false,"is_disabled":false,"rental_uris":{"android":"levelo://app?vid=94ba4ced-59b4-48e6-90ab-48cbb9861d34","ios":"levelo://app?vid=94ba4ced-59b4-48e6-90ab-48cbb9861d34"},"vehicle_type_id":"4","last_reported":1749744808,"current_range_meters":12400,"station_id":"ce4bhk92rcd13ifvqgb0","pricing_plan_id":"cebpf4jnsgd1na2vs0mg"},{"bike_id":"67467270-d946-408f-a2ad-8456688a9b5f","system_id":"levelo_inurba_marseille","lat":43.292,"lon":5.3933,"is_reserved":false,"is_disabled":false,"rental_uris":{"android":"levelo://app?vid=67467270-d946-408f-a2ad-8456688a9b5f","ios":"levelo://app?vid=67467270-d946-408f-a2ad-8456688a9b5f"},"vehicle_type_id":"4","last_reported":1749744808,"current_range_meters":12800,"station_id":"ce4bh192rcd13ifvqdd0","pricing_plan_id":"cebpf4jnsgd1na2vs0mg"},{"bike_id":"582d82af-3bf6-4720-a133-d826fb023d83","system_id":"levelo_inurba_marseille","lat":43.291014,"lon":5.386103,"is_reserved":false,"is_disabled":false,"rental_uris":{"android":"levelo://app?vid=582d82af-3bf6-4720-a133-d826fb023d83","ios":"levelo://app?vid=582d82af-3bf6-4720-a133-d826fb023d83"},"vehicle_type_id":"4","last_reported":1749744808,"current_range_meters":12800,"station_id":"ce4bh4p2rcd13ifvqe0g","pricing_plan_id":"cebpf4jnsgd1na2vs0mg"},{"bike_id":"b4bcceba-19e6-4a99-84fb-6ff438941a6d","system_id":"levelo_inurba_marseille","lat":43.28924,"lon":5.38385,"is_reserved":false,"is_disabled":false,"rental_uris":{"android":"levelo://app?vid=b4bcceba-19e6-4a99-84fb-6ff438941a6d","ios":"levelo://app?vid=b4bcceba-19e6-4a99-84fb-6ff438941a6d"},"vehicle_type_id":"4","last_reported":1749744808,"current_range_meters":12800,"station_id":"ce4bh612rcd13ifvqe6g","pricing_plan_id":"cebpf4jnsgd1na2vs0mg"},{"bike_id":"2676e0f2-8978-4433-8c2e-f7f8580a07b8","system_id":"levelo_inurba_marseille","lat":43.286073,"lon":5.35095,"is_reserved":false,"is_disabled":false,"rental_uris":{"android":"levelo://app?vid=2676e0f2-8978-4433-8c2e-f7f8580a07b8","ios":"levelo://app?vid=2676e0f2-8978-4433-8c2e-f7f8580a07b8"},"vehicle_type_id":"4","last_reported":1749744808,"current_range_meters":12800,"station_id":"ce4bhch2rcd13ifvqeug","pricing_plan_id":"cebpf4jnsgd1na2vs0mg"},{"bike_id":"7f36cb51-aea2-42f7-8ce3-7c9f561ac0fc","system_id":"levelo_inurba_marseille","lat":43.29576,"lon":5.39963,"is_reserved":false,"is_disabled":false,"rental_uris":{"android":"levelo://app?vid=7f36cb51-aea2-42f7-8ce3-7c9f561ac0fc","ios":"levelo://app?vid=7f36cb51-aea2-42f7-8ce3-7c9f561ac0fc"},"vehicle_type_id":"4","last_reported":1749744808,"current_range_meters":13600,"station_id":"ce4bh312rcd13ifvqdj0","pricing_plan_id":"cebpf4jnsgd1na2vs0mg"},{"bike_id":"8b18bff2-4704-4a5e-a11e-984cb1c6e2b2","system_id":"levelo_inurba_marseille","lat":43.28617,"lon":5.351113,"is_reserved":false,"is_disabled":false,"rental_uris":{"android":"levelo://app?vid=8b18bff2-4704-4a5e-a11e-984cb1c6e2b2","ios":"levelo://app?vid=8b18bff2-4704-4a5e-a11e-984cb1c6e2b2"},"vehicle_type_id":"4","last_reported":1749744808,"current_range_meters":13600,"station_id":"ce4bhch2rcd13ifvqeug","pricing_plan_id":"cebpf4jnsgd1na2vs0mg"},{"bike_id":"f1a6a751-f99a-420d-8d76-07982379fc90","system_id":"levelo_inurba_marseille","lat":43.2582,"lon":5.39438,"is_reserved":false,"is_disabled":false,"rental_uris":{"android":"levelo://app?vid=f1a6a751-f99a-420d-8d76-07982379fc90","ios":"levelo://app?vid=f1a6a751-f99a-420d-8d76-07982379fc90"},"vehicle_type_id":"4","last_reported":1749744808,"current_range_meters":13600,"station_id":"ce4bhip2rcd13ifvqft0","pricing_plan_id":"cebpf4jnsgd1na2vs0mg"},{"bike_id":"ab1f1c04-cbdf-4d50-94cb-9c4a9aaca6c6","system_id":"levelo_inurba_marseille","lat":43.29712,"lon":5.37697,"is_reserved":false,"is_disabled":false,"rental_uris":{"android":"levelo://app?vid=ab1f1c04-cbdf-4d50-94cb-9c4a9aaca6c6","ios":"levelo://app?vid=ab1f1c04-cbdf-4d50-94cb-9c4a9aaca6c6"},"vehicle_type_id":"4","last_reported":1749744808,"current_range_meters":14000,"station_id":"ce4bgkh2rcd13ifvqbl0","pricing_plan_id":"cebpf4jnsgd1na2vs0mg"},{"bike_id":"3ef9c677-6332-476d-88a1-61769a9c0e7a","system_id":"levelo_inurba_marseille","lat":43.28268,"lon":5.35059,"is_reserved":false,"is_disabled":false,"rental_uris":{"android":"levelo://app?vid=3ef9c677-6332-476d-88a1-61769a9c0e7a","ios":"levelo://app?vid=3ef9c677-6332-476d-88a1-61769a9c0e7a"},"vehicle_type_id":"4","last_reported":1749744808,"current_range_meters":14000,"station_id":"ce4bhbp2rcd13ifvqerg","pricing_plan_id":"cebpf4jnsgd1na2vs0mg"},{"bike_id":"a7bba24a-f9f9-43ae-a8b4-05ea9becd0e5","system_id":"levelo_inurba_marseille","lat":43.25579,"lon":5.3823,"is_reserved":false,"is_disabled":false,"rental_uris":{"android":"levelo://app?vid=a7bba24a-f9f9-43ae-a8b4-05ea9becd0e5","ios":"levelo://app?vid=a7bba24a-f9f9-43ae-a8b4-05ea9becd0e5"},"vehicle_type_id":"4","last_reported":1749744808,"current_range_meters":14000,"station_id":"ce4bhih2rcd13ifvqfs0","pricing_plan_id":"cebpf4jnsgd1na2vs0mg"},{"bike_id":"741c4fa2-75b4-4148-b4e4-7d2f7095d3f4","system_id":"levelo_inurba_marseille","lat":43.27987,"lon":5.41659,"is_reserved":false,"is_disabled":false,"rental_uris":{"android":"levelo://app?vid=741c4fa2-75b4-4148-b4e4-7d2f7095d3f4","ios":"levelo://app?vid=741c4fa2-75b4-4148-b4e4-7d2f7095d3f4"},"vehicle_type_id":"4","last_reported":1749744808,"current_range_meters":14000,"station_id":"ce4bho12rcd13ifvqh1g","pricing_plan_id":"cebpf4jnsgd1na2vs0mg"},{"bike_id":"9cfb5991-2280-4230-b550-97760b380a10","system_id":"levelo_inurba_marseille","lat":43.24186,"lon":5.3637,"is_reserved":false,"is_disabled":false,"rental_uris":{"android":"levelo://app?vid=9cfb5991-2280-4230-b550-97760b380a10","ios":"levelo://app?vid=9cfb5991-2280-4230-b550-97760b380a10"},"vehicle_type_id":"4","last_reported":1749744808,"current_range_meters":14000,"station_id":"cpo36qri1sfpv3e86is0","pricing_plan_id":"cebpf4jnsgd1na2vs0mg"},{"bike_id":"1268e070-f02d-4537-93df-0bfd5c4daa05","system_id":"levelo_inurba_marseille","lat":43.32683,"lon":5.37668,"is_reserved":false,"is_disabled":false,"rental_uris":{"android":"levelo://app?vid=1268e070-f02d-4537-93df-0bfd5c4daa05","ios":"levelo://app?vid=1268e070-f02d-4537-93df-0bfd5c4daa05"},"vehicle_type_id":"4","last_reported":1749744808,"current_range_meters":14400,"station_id":"","pricing_plan_id":"cebpf4jnsgd1na2vs0mg"},{"bike_id":"6e464720-93b0-4699-80fe-881649eb71cd","system_id":"levelo_inurba_marseille","lat":43.23263,"lon":5.35585,"is_reserved":false,"is_disabled":false,"rental_uris":{"android":"levelo://app?vid=6e464720-93b0-4699-80fe-881649eb71cd","ios":"levelo://app?vid=6e464720-93b0-4699-80fe-881649eb71cd"},"vehicle_type_id":"4","last_reported":1749744808,"current_range_meters":14400,"station_id":"","pricing_plan_id":"cebpf4jnsgd1na2vs0mg"},{"bike_id":"e826721b-d3a7-45a7-a83b-1a1e5e0a1563","system_id":"levelo_inurba_marseille","lat":43.29593,"lon":5.38106,"is_reserved":false,"is_disabled":false,"rental_uris":{"android":"levelo://app?vid=e826721b-d3a7-45a7-a83b-1a1e5e0a1563","ios":"levelo://app?vid=e826721b-d3a7-45a7-a83b-1a1e5e0a1563"},"vehicle_type_id":"4","last_reported":1749744808,"current_range_meters":14400,"station_id":"ce4bgl12rcd13ifvqbo0","pricing_plan_id":"cebpf4jnsgd1na2vs0mg"},{"bike_id":"e1259bdc-2fca-4f0a-8c39-8cf9d1a28f2e","system_id":"levelo_inurba_marseille","lat":43.26681,"lon":5.38299,"is_reserved":false,"is_disabled":false,"rental_uris":{"android":"levelo://app?vid=e1259bdc-2fca-4f0a-8c39-8cf9d1a28f2e","ios":"levelo://app?vid=e1259bdc-2fca-4f0a-8c39-8cf9d1a28f2e"},"vehicle_type_id":"4","last_reported":1749744808,"current_range_meters":14400,"station_id":"ce4bhg92rcd13ifvqf90","pricing_plan_id":"cebpf4jnsgd1na2vs0mg"},{"bike_id":"f66eae9c-5c94-49a9-8006-c182909f14b1","system_id":"levelo_inurba_marseille","lat":43.26484,"lon":5.39547,"is_reserved":false,"is_disabled":false,"rental_uris":{"android":"levelo://app?vid=f66eae9c-5c94-49a9-8006-c182909f14b1","ios":"levelo://app?vid=f66eae9c-5c94-49a9-8006-c182909f14b1"},"vehicle_type_id":"4","last_reported":1749744808,"current_range_meters":14400,"station_id":"ce4bhi12rcd13ifvqfq0","pricing_plan_id":"cebpf4jnsgd1na2vs0mg"},{"bike_id":"cb89c99c-2ee3-4260-9ecd-921289bbc789","system_id":"levelo_inurba_marseille","lat":43.30417,"lon":5.41283,"is_reserved":false,"is_disabled":false,"rental_uris":{"android":"levelo://app?vid=cb89c99c-2ee3-4260-9ecd-921289bbc789","ios":"levelo://app?vid=cb89c99c-2ee3-4260-9ecd-921289bbc789"},"vehicle_type_id":"4","last_reported":1749744808,"current_range_meters":14400,"station_id":"ce4bhop2rcd13ifvqh8g","pricing_plan_id":"cebpf4jnsgd1na2vs0mg"},{"bike_id":"83ad8241-60c4-42de-b76a-fbfc2eb5a88b","system_id":"levelo_inurba_marseille","lat":43.29881,"lon":5.36385,"is_reserved":false,"is_disabled":false,"rental_uris":{"android":"levelo://app?vid=83ad8241-60c4-42de-b76a-fbfc2eb5a88b","ios":"levelo://app?vid=83ad8241-60c4-42de-b76a-fbfc2eb5a88b"},"vehicle_type_id":"4","last_reported":1749744808,"current_range_meters":14800,"station_id":"","pricing_plan_id":"cebpf4jnsgd1na2vs0mg"},{"bike_id":"e5ef7447-82af-477b-846f-d44631249354","system_id":"levelo_inurba_marseille","lat":43.32479,"lon":5.3881,"is_reserved":false,"is_disabled":false,"rental_uris":{"android":"levelo://app?vid=e5ef7447-82af-477b-846f-d44631249354","ios":"levelo://app?vid=e5ef7447-82af-477b-846f-d44631249354"},"vehicle_type_id":"4","last_reported":1749744808,"current_range_meters":14800,"station_id":"","pricing_plan_id":"cebpf4jnsgd1na2vs0mg"},{"bike_id":"6bb680a9-7408-4d5f-9cbd-e91d3aa7f68f","system_id":"levelo_inurba_marseille","lat":43.290138,"lon":5.378556,"is_reserved":false,"is_disabled":false,"rental_uris":{"android":"levelo://app?vid=6bb680a9-7408-4d5f-9cbd-e91d3aa7f68f","ios":"levelo://app?vid=6bb680a9-7408-4d5f-9cbd-e91d3aa7f68f"},"vehicle_type_id":"4","last_reported":1749744808,"current_range_meters":15200,"station_id":"ce4bgn12rcd13ifvqbt0","pricing_plan_id":"cebpf4jnsgd1na2vs0mg"},{"bike_id":"0ca4d2a8-bad9-4190-8a2d-e9a96e9c9f84","system_id":"levelo_inurba_marseille","lat":43.29254,"lon":5.38446,"is_reserved":false,"is_disabled":false,"rental_uris":{"android":"levelo://app?vid=0ca4d2a8-bad9-4190-8a2d-e9a96e9c9f84","ios":"levelo://app?vid=0ca4d2a8-bad9-4190-8a2d-e9a96e9c9f84"},"vehicle_type_id":"4","last_reported":1749744808,"current_range_meters":15200,"station_id":"ce4bh692rcd13ifvqea0","pricing_plan_id":"cebpf4jnsgd1na2vs0mg"},{"bike_id":"ef135769-a29b-4186-b2eb-f7a29806429a","system_id":"levelo_inurba_marseille","lat":43.28617,"lon":5.35105,"is_reserved":false,"is_disabled":false,"rental_uris":{"android":"levelo://app?vid=ef135769-a29b-4186-b2eb-f7a29806429a","ios":"levelo://app?vid=ef135769-a29b-4186-b2eb-f7a29806429a"},"vehicle_type_id":"4","last_reported":1749744808,"current_range_meters":15200,"station_id":"ce4bhch2rcd13ifvqeug","pricing_plan_id":"cebpf4jnsgd1na2vs0mg"},{"bike_id":"cc424f6d-19aa-4ebc-a4cf-45db676a764a","system_id":"levelo_inurba_marseille","lat":43.248018,"lon":5.374469,"is_reserved":false,"is_disabled":false,"rental_uris":{"android":"levelo://app?vid=cc424f6d-19aa-4ebc-a4cf-45db676a764a","ios":"levelo://app?vid=cc424f6d-19aa-4ebc-a4cf-45db676a764a"},"vehicle_type_id":"4","last_reported":1749744808,"current_range_meters":15200,"station_id":"ce4bhgh2rcd13ifvqfb0","pricing_plan_id":"cebpf4jnsgd1na2vs0mg"},{"bike_id":"ad65060b-ebc0-4053-ac73-5f062bf51242","system_id":"levelo_inurba_marseille","lat":43.26198,"lon":5.37931,"is_reserved":false,"is_disabled":false,"rental_uris":{"android":"levelo://app?vid=ad65060b-ebc0-4053-ac73-5f062bf51242","ios":"levelo://app?vid=ad65060b-ebc0-4053-ac73-5f062bf51242"},"vehicle_type_id":"4","last_reported":1749744808,"current_range_meters":15200,"station_id":"ce4bhjp2rcd13ifvqg90","pricing_plan_id":"cebpf4jnsgd1na2vs0mg"},{"bike_id":"c0bd4251-d527-48a7-9378-e4e80c1c274f","system_id":"levelo_inurba_marseille","lat":43.31806,"lon":5.37356,"is_reserved":false,"is_disabled":false,"rental_uris":{"android":"levelo://app?vid=c0bd4251-d527-48a7-9378-e4e80c1c274f","ios":"levelo://app?vid=c0bd4251-d527-48a7-9378-e4e80c1c274f"},"vehicle_type_id":"4","last_reported":1749744808,"current_range_meters":16000,"station_id":"","pricing_plan_id":"cebpf4jnsgd1na2vs0mg"},{"bike_id":"c8102abf-9227-4fcc-9174-09f9b0bcd8fa","system_id":"levelo_inurba_marseille","lat":43.31307,"lon":5.37286,"is_reserved":false,"is_disabled":false,"rental_uris":{"android":"levelo://app?vid=c8102abf-9227-4fcc-9174-09f9b0bcd8fa","ios":"levelo://app?vid=c8102abf-9227-4fcc-9174-09f9b0bcd8fa"},"vehicle_type_id":"4","last_reported":1749744808,"current_range_meters":16000,"station_id":"","pricing_plan_id":"cebpf4jnsgd1na2vs0mg"},{"bike_id":"23e13495-dbc2-4014-83be-7f8bed77896d","system_id":"levelo_inurba_marseille","lat":43.29024,"lon":5.38636,"is_reserved":false,"is_disabled":false,"rental_uris":{"android":"levelo://app?vid=23e13495-dbc2-4014-83be-7f8bed77896d","ios":"levelo://app?vid=23e13495-dbc2-4014-83be-7f8bed77896d"},"vehicle_type_id":"4","last_reported":1749744808,"current_range_meters":16000,"station_id":"ce4bh4p2rcd13ifvqe0g","pricing_plan_id":"cebpf4jnsgd1na2vs0mg"},{"bike_id":"d3669100-ce37-4da8-8298-cb5cbdd94f44","system_id":"levelo_inurba_marseille","lat":43.29273,"lon":5.3685,"is_reserved":false,"is_disabled":false,"rental_uris":{"android":"levelo://app?vid=d3669100-ce37-4da8-8298-cb5cbdd94f44","ios":"levelo://app?vid=d3669100-ce37-4da8-8298-cb5cbdd94f44"},"vehicle_type_id":"4","last_reported":1749744808,"current_range_meters":16000,"station_id":"ce4bhbp2rcd13ifvqesg","pricing_plan_id":"cebpf4jnsgd1na2vs0mg"},{"bike_id":"2b3487c0-6d03-4c54-801f-a27aa1820b7e","system_id":"levelo_inurba_marseille","lat":43.26533,"lon":5.37297,"is_reserved":false,"is_disabled":false,"rental_uris":{"android":"levelo://app?vid=2b3487c0-6d03-4c54-801f-a27aa1820b7e","ios":"levelo://app?vid=2b3487c0-6d03-4c54-801f-a27aa1820b7e"},"vehicle_type_id":"4","last_reported":1749744808,"current_range_meters":16000,"station_id":"ce4bhg12rcd13ifvqf70","pricing_plan_id":"cebpf4jnsgd1na2vs0mg"},{"bike_id":"78e4331f-c67f-4812-a1cf-4af0acc5e2d6","system_id":"levelo_inurba_marseille","lat":43.323936,"lon":5.367753,"is_reserved":false,"is_disabled":false,"rental_uris":{"android":"levelo://app?vid=78e4331f-c67f-4812-a1cf-4af0acc5e2d6","ios":"levelo://app?vid=78e4331f-c67f-4812-a1cf-4af0acc5e2d6"},"vehicle_type_id":"4","last_reported":1749744808,"current_range_meters":16000,"station_id":"ce4bhsh2rcd13ifvqi2g","pricing_plan_id":"cebpf4jnsgd1na2vs0mg"},{"bike_id":"4249d8a7-7c90-42a5-af5c-9415ad38fe72","system_id":"levelo_inurba_marseille","lat":43.229367,"lon":5.353742,"is_reserved":false,"is_disabled":false,"rental_uris":{"android":"levelo://app?vid=4249d8a7-7c90-42a5-af5c-9415ad38fe72","ios":"levelo://app?vid=4249d8a7-7c90-42a5-af5c-9415ad38fe72"},"vehicle_type_id":"4","last_reported":1749744808,"current_range_meters":16000,"station_id":"cpo3532slgdg3j2ikp40","pricing_plan_id":"cebpf4jnsgd1na2vs0mg"},{"bike_id":"e8299c5a-0d94-49f9-a092-0337b92fbc5e","system_id":"levelo_inurba_marseille","lat":43.2872,"lon":5.37937,"is_reserved":false,"is_disabled":false,"rental_uris":{"android":"levelo://app?vid=e8299c5a-0d94-49f9-a092-0337b92fbc5e","ios":"levelo://app?vid=e8299c5a-0d94-49f9-a092-0337b92fbc5e"},"vehicle_type_id":"4","last_reported":1749744808,"current_range_meters":16400,"station_id":"ce4bh9p2rcd13ifvqec0","pricing_plan_id":"cebpf4jnsgd1na2vs0mg"},{"bike_id":"8750d06d-5cdf-4884-a71c-5a3369a4a9c1","system_id":"levelo_inurba_marseille","lat":43.2737,"lon":5.3626,"is_reserved":false,"is_disabled":false,"rental_uris":{"android":"levelo://app?vid=8750d06d-5cdf-4884-a71c-5a3369a4a9c1","ios":"levelo://app?vid=8750d06d-5cdf-4884-a71c-5a3369a4a9c1"},"vehicle_type_id":"4","last_reported":1749744808,"current_range_meters":16400,"station_id":"ce4bhbh2rcd13ifvqeo0","pricing_plan_id":"cebpf4jnsgd1na2vs0mg"},{"bike_id":"c67ef85d-1aaa-4737-a385-65fdb7b24c9b","system_id":"levelo_inurba_marseille","lat":43.28408,"lon":5.34996,"is_reserved":false,"is_disabled":false,"rental_uris":{"android":"levelo://app?vid=c67ef85d-1aaa-4737-a385-65fdb7b24c9b","ios":"levelo://app?vid=c67ef85d-1aaa-4737-a385-65fdb7b24c9b"},"vehicle_type_id":"4","last_reported":1749744808,"current_range_meters":16400,"station_id":"ce4bhbh2rcd13ifvqepg","pricing_plan_id":"cebpf4jnsgd1na2vs0mg"},{"bike_id":"17cc4974-9f41-42cb-a868-b39c23fa56cd","system_id":"levelo_inurba_marseille","lat":43.28621,"lon":5.35085,"is_reserved":false,"is_disabled":false,"rental_uris":{"android":"levelo://app?vid=17cc4974-9f41-42cb-a868-b39c23fa56cd","ios":"levelo://app?vid=17cc4974-9f41-42cb-a868-b39c23fa56cd"},"vehicle_type_id":"4","last_reported":1749744808,"current_range_meters":16400,"station_id":"ce4bhch2rcd13ifvqeug","pricing_plan_id":"cebpf4jnsgd1na2vs0mg"},{"bike_id":"78e5a94d-d744-4e01-a08d-729673117d90","system_id":"levelo_inurba_marseille","lat":43.24807,"lon":5.374571,"is_reserved":false,"is_disabled":false,"rental_uris":{"android":"levelo://app?vid=78e5a94d-d744-4e01-a08d-729673117d90","ios":"levelo://app?vid=78e5a94d-d744-4e01-a08d-729673117d90"},"vehicle_type_id":"4","last_reported":1749744808,"current_range_meters":16400,"station_id":"ce4bhgh2rcd13ifvqfb0","pricing_plan_id":"cebpf4jnsgd1na2vs0mg"},{"bike_id":"b2798195-4fce-46b6-9218-5d7d2f4fa6a6","system_id":"levelo_inurba_marseille","lat":43.29554,"lon":5.42288,"is_reserved":false,"is_disabled":false,"rental_uris":{"android":"levelo://app?vid=b2798195-4fce-46b6-9218-5d7d2f4fa6a6","ios":"levelo://app?vid=b2798195-4fce-46b6-9218-5d7d2f4fa6a6"},"vehicle_type_id":"4","last_reported":1749744808,"current_range_meters":16400,"station_id":"ce4bhph2rcd13ifvqhdg","pricing_plan_id":"cebpf4jnsgd1na2vs0mg"},{"bike_id":"41902e46-3363-402b-89a9-77321257c96b","system_id":"levelo_inurba_marseille","lat":43.32361,"lon":5.36765,"is_reserved":false,"is_disabled":false,"rental_uris":{"android":"levelo://app?vid=41902e46-3363-402b-89a9-77321257c96b","ios":"levelo://app?vid=41902e46-3363-402b-89a9-77321257c96b"},"vehicle_type_id":"4","last_reported":1749744808,"current_range_meters":16400,"station_id":"ce4bhsh2rcd13ifvqi2g","pricing_plan_id":"cebpf4jnsgd1na2vs0mg"},{"bike_id":"346f3f80-6b15-4406-b905-bb78596f5bac","system_id":"levelo_inurba_marseille","lat":43.323673,"lon":5.367301,"is_reserved":false,"is_disabled":false,"rental_uris":{"android":"levelo://app?vid=346f3f80-6b15-4406-b905-bb78596f5bac","ios":"levelo://app?vid=346f3f80-6b15-4406-b905-bb78596f5bac"},"vehicle_type_id":"4","last_reported":1749744808,"current_range_meters":16400,"station_id":"ce4bhsh2rcd13ifvqi2g","pricing_plan_id":"cebpf4jnsgd1na2vs0mg"},{"bike_id":"13c243cd-9cd7-41ad-a6fc-cb8f0f4eabf6","system_id":"levelo_inurba_marseille","lat":43.21749,"lon":5.346,"is_reserved":false,"is_disabled":false,"rental_uris":{"android":"levelo://app?vid=13c243cd-9cd7-41ad-a6fc-cb8f0f4eabf6","ios":"levelo://app?vid=13c243cd-9cd7-41ad-a6fc-cb8f0f4eabf6"},"vehicle_type_id":"4","last_reported":1749744808,"current_range_meters":16400,"station_id":"st_cvj6r9ubvosntc0bgbag","pricing_plan_id":"cebpf4jnsgd1na2vs0mg"},{"bike_id":"d2bac3ee-63cb-4a07-838b-fc7fd1057d93","system_id":"levelo_inurba_marseille","lat":43.292033,"lon":5.376327,"is_reserved":false,"is_disabled":false,"rental_uris":{"android":"levelo://app?vid=d2bac3ee-63cb-4a07-838b-fc7fd1057d93","ios":"levelo://app?vid=d2bac3ee-63cb-4a07-838b-fc7fd1057d93"},"vehicle_type_id":"4","last_reported":1749744808,"current_range_meters":16800,"station_id":"ce4bgjh2rcd13ifvqbf0","pricing_plan_id":"cebpf4jnsgd1na2vs0mg"},{"bike_id":"5793fbd6-ad84-426b-b0fd-07b4f0997a3b","system_id":"levelo_inurba_marseille","lat":43.30191,"lon":5.36636,"is_reserved":false,"is_disabled":false,"rental_uris":{"android":"levelo://app?vid=5793fbd6-ad84-426b-b0fd-07b4f0997a3b","ios":"levelo://app?vid=5793fbd6-ad84-426b-b0fd-07b4f0997a3b"},"vehicle_type_id":"4","last_reported":1749744808,"current_range_meters":16800,"station_id":"ce4bgrh2rcd13ifvqc8g","pricing_plan_id":"cebpf4jnsgd1na2vs0mg"},{"bike_id":"a0b0ed91-a0ba-4d90-b5bb-73e708b8be0f","system_id":"levelo_inurba_marseille","lat":43.30092,"lon":5.39085,"is_reserved":false,"is_disabled":false,"rental_uris":{"android":"levelo://app?vid=a0b0ed91-a0ba-4d90-b5bb-73e708b8be0f","ios":"levelo://app?vid=a0b0ed91-a0ba-4d90-b5bb-73e708b8be0f"},"vehicle_type_id":"4","last_reported":1749744808,"current_range_meters":16800,"station_id":"ce4bh192rcd13ifvqdb0","pricing_plan_id":"cebpf4jnsgd1na2vs0mg"},{"bike_id":"b211812f-6a1c-4a87-9630-f87d44035bd8","system_id":"levelo_inurba_marseille","lat":43.28409,"lon":5.34988,"is_reserved":false,"is_disabled":false,"rental_uris":{"android":"levelo://app?vid=b211812f-6a1c-4a87-9630-f87d44035bd8","ios":"levelo://app?vid=b211812f-6a1c-4a87-9630-f87d44035bd8"},"vehicle_type_id":"4","last_reported":1749744808,"current_range_meters":16800,"station_id":"ce4bhbh2rcd13ifvqepg","pricing_plan_id":"cebpf4jnsgd1na2vs0mg"},{"bike_id":"4a1ebb57-de4c-466d-8a5a-f3907adc6246","system_id":"levelo_inurba_marseille","lat":43.27952,"lon":5.41038,"is_reserved":false,"is_disabled":false,"rental_uris":{"android":"levelo://app?vid=4a1ebb57-de4c-466d-8a5a-f3907adc6246","ios":"levelo://app?vid=4a1ebb57-de4c-466d-8a5a-f3907adc6246"},"vehicle_type_id":"4","last_reported":1749744808,"current_range_meters":16800,"station_id":"ce4bhnp2rcd13ifvqh0g","pricing_plan_id":"cebpf4jnsgd1na2vs0mg"},{"bike_id":"104ae1bd-3949-41c2-af16-b75b28441cbc","system_id":"levelo_inurba_marseille","lat":43.32335,"lon":5.40623,"is_reserved":false,"is_disabled":false,"rental_uris":{"android":"levelo://app?vid=104ae1bd-3949-41c2-af16-b75b28441cbc","ios":"levelo://app?vid=104ae1bd-3949-41c2-af16-b75b28441cbc"},"vehicle_type_id":"4","last_reported":1749744808,"current_range_meters":16800,"station_id":"ce4bhq92rcd13ifvqhjg","pricing_plan_id":"cebpf4jnsgd1na2vs0mg"},{"bike_id":"62c0da7f-aff9-4ffa-86b8-6966d8f0e555","system_id":"levelo_inurba_marseille","lat":43.21181,"lon":5.35078,"is_reserved":false,"is_disabled":false,"rental_uris":{"android":"levelo://app?vid=62c0da7f-aff9-4ffa-86b8-6966d8f0e555","ios":"levelo://app?vid=62c0da7f-aff9-4ffa-86b8-6966d8f0e555"},"vehicle_type_id":"4","last_reported":1749744808,"current_range_meters":16800,"station_id":"st_cvj6sg6p6f1abm77japg","pricing_plan_id":"cebpf4jnsgd1na2vs0mg"},{"bike_id":"600da287-0374-4ee0-bea4-ba6902340b5e","system_id":"levelo_inurba_marseille","lat":43.27497,"lon":5.36006,"is_reserved":false,"is_disabled":false,"rental_uris":{"android":"levelo://app?vid=600da287-0374-4ee0-bea4-ba6902340b5e","ios":"levelo://app?vid=600da287-0374-4ee0-bea4-ba6902340b5e"},"vehicle_type_id":"4","last_reported":1749744808,"current_range_meters":17200,"station_id":"","pricing_plan_id":"cebpf4jnsgd1na2vs0mg"},{"bike_id":"be429f1e-331d-48f2-a500-de2dd1bc58a3","system_id":"levelo_inurba_marseille","lat":43.28987,"lon":5.37834,"is_reserved":false,"is_disabled":false,"rental_uris":{"android":"levelo://app?vid=be429f1e-331d-48f2-a500-de2dd1bc58a3","ios":"levelo://app?vid=be429f1e-331d-48f2-a500-de2dd1bc58a3"},"vehicle_type_id":"4","last_reported":1749744808,"current_range_meters":17200,"station_id":"ce4bh9p2rcd13ifvqed0","pricing_plan_id":"cebpf4jnsgd1na2vs0mg"},{"bike_id":"dc8d791b-973d-4f6b-9b6b-43529331e2de","system_id":"levelo_inurba_marseille","lat":43.26555,"lon":5.37283,"is_reserved":false,"is_disabled":false,"rental_uris":{"android":"levelo://app?vid=dc8d791b-973d-4f6b-9b6b-43529331e2de","ios":"levelo://app?vid=dc8d791b-973d-4f6b-9b6b-43529331e2de"},"vehicle_type_id":"4","last_reported":1749744808,"current_range_meters":17200,"station_id":"ce4bhg12rcd13ifvqf70","pricing_plan_id":"cebpf4jnsgd1na2vs0mg"},{"bike_id":"4a65f4b5-e097-4212-bc7c-a33aaf7163b9","system_id":"levelo_inurba_marseille","lat":43.26207,"lon":5.37441,"is_reserved":false,"is_disabled":false,"rental_uris":{"android":"levelo://app?vid=4a65f4b5-e097-4212-bc7c-a33aaf7163b9","ios":"levelo://app?vid=4a65f4b5-e097-4212-bc7c-a33aaf7163b9"},"vehicle_type_id":"4","last_reported":1749744808,"current_range_meters":17200,"station_id":"ce4bhgp2rcd13ifvqfc0","pricing_plan_id":"cebpf4jnsgd1na2vs0mg"},{"bike_id":"69e1a69b-4756-48eb-af3c-9de8ea852974","system_id":"levelo_inurba_marseille","lat":43.26214,"lon":5.37439,"is_reserved":false,"is_disabled":false,"rental_uris":{"android":"levelo://app?vid=69e1a69b-4756-48eb-af3c-9de8ea852974","ios":"levelo://app?vid=69e1a69b-4756-48eb-af3c-9de8ea852974"},"vehicle_type_id":"4","last_reported":1749744808,"current_range_meters":17200,"station_id":"ce4bhgp2rcd13ifvqfc0","pricing_plan_id":"cebpf4jnsgd1na2vs0mg"},{"bike_id":"86dc398f-680e-48f1-97b1-49cbd1ed69a4","system_id":"levelo_inurba_marseille","lat":43.308,"lon":5.43531,"is_reserved":false,"is_disabled":false,"rental_uris":{"android":"levelo://app?vid=86dc398f-680e-48f1-97b1-49cbd1ed69a4","ios":"levelo://app?vid=86dc398f-680e-48f1-97b1-49cbd1ed69a4"},"vehicle_type_id":"4","last_reported":1749744808,"current_range_meters":17200,"station_id":"ce4bhph2rcd13ifvqheg","pricing_plan_id":"cebpf4jnsgd1na2vs0mg"},{"bike_id":"11a7710f-084d-413d-abc1-c587a947a05e","system_id":"levelo_inurba_marseille","lat":43.26823,"lon":5.39076,"is_reserved":false,"is_disabled":false,"rental_uris":{"android":"levelo://app?vid=11a7710f-084d-413d-abc1-c587a947a05e","ios":"levelo://app?vid=11a7710f-084d-413d-abc1-c587a947a05e"},"vehicle_type_id":"4","last_reported":1749744808,"current_range_meters":17600,"station_id":"","pricing_plan_id":"cebpf4jnsgd1na2vs0mg"},{"bike_id":"6facbc0d-f1b5-4dc3-86d4-5c1204834925","system_id":"levelo_inurba_marseille","lat":43.28046,"lon":5.34815,"is_reserved":false,"is_disabled":false,"rental_uris":{"android":"levelo://app?vid=6facbc0d-f1b5-4dc3-86d4-5c1204834925","ios":"levelo://app?vid=6facbc0d-f1b5-4dc3-86d4-5c1204834925"},"vehicle_type_id":"4","last_reported":1749744808,"current_range_meters":17600,"station_id":"","pricing_plan_id":"cebpf4jnsgd1na2vs0mg"},{"bike_id":"17a227e7-1b66-43fe-852b-da9a4d0eeb8e","system_id":"levelo_inurba_marseille","lat":43.29194,"lon":5.35804,"is_reserved":false,"is_disabled":false,"rental_uris":{"android":"levelo://app?vid=17a227e7-1b66-43fe-852b-da9a4d0eeb8e","ios":"levelo://app?vid=17a227e7-1b66-43fe-852b-da9a4d0eeb8e"},"vehicle_type_id":"4","last_reported":1749744808,"current_range_meters":17600,"station_id":"ce4bhb12rcd13ifvqel0","pricing_plan_id":"cebpf4jnsgd1na2vs0mg"},{"bike_id":"eb033ce6-a585-4e6e-b61e-8ddb3c04724d","system_id":"levelo_inurba_marseille","lat":43.286132,"lon":5.350956,"is_reserved":false,"is_disabled":false,"rental_uris":{"android":"levelo://app?vid=eb033ce6-a585-4e6e-b61e-8ddb3c04724d","ios":"levelo://app?vid=eb033ce6-a585-4e6e-b61e-8ddb3c04724d"},"vehicle_type_id":"4","last_reported":1749744808,"current_range_meters":17600,"station_id":"ce4bhch2rcd13ifvqeug","pricing_plan_id":"cebpf4jnsgd1na2vs0mg"},{"bike_id":"fbab353d-c351-4809-8f41-9640905d5e1e","system_id":"levelo_inurba_marseille","lat":43.26709,"lon":5.38255,"is_reserved":false,"is_disabled":false,"rental_uris":{"android":"levelo://app?vid=fbab353d-c351-4809-8f41-9640905d5e1e","ios":"levelo://app?vid=fbab353d-c351-4809-8f41-9640905d5e1e"},"vehicle_type_id":"4","last_reported":1749744808,"current_range_meters":17600,"station_id":"ce4bhg92rcd13ifvqf90","pricing_plan_id":"cebpf4jnsgd1na2vs0mg"},{"bike_id":"ab5bb3e9-46f2-4c71-9d5e-e076edd0d228","system_id":"levelo_inurba_marseille","lat":43.26199,"lon":5.37926,"is_reserved":false,"is_disabled":false,"rental_uris":{"android":"levelo://app?vid=ab5bb3e9-46f2-4c71-9d5e-e076edd0d228","ios":"levelo://app?vid=ab5bb3e9-46f2-4c71-9d5e-e076edd0d228"},"vehicle_type_id":"4","last_reported":1749744808,"current_range_meters":17600,"station_id":"ce4bhjp2rcd13ifvqg90","pricing_plan_id":"cebpf4jnsgd1na2vs0mg"},{"bike_id":"3d243e1c-a883-4bc3-9c15-b8da6e60785b","system_id":"levelo_inurba_marseille","lat":43.26853,"lon":5.42857,"is_reserved":false,"is_disabled":false,"rental_uris":{"android":"levelo://app?vid=3d243e1c-a883-4bc3-9c15-b8da6e60785b","ios":"levelo://app?vid=3d243e1c-a883-4bc3-9c15-b8da6e60785b"},"vehicle_type_id":"4","last_reported":1749744808,"current_range_meters":18000,"station_id":"","pricing_plan_id":"cebpf4jnsgd1na2vs0mg"},{"bike_id":"e8639d85-2d2a-429d-bcfe-f3a304f2fccb","system_id":"levelo_inurba_marseille","lat":43.33717,"lon":5.37477,"is_reserved":false,"is_disabled":false,"rental_uris":{"android":"levelo://app?vid=e8639d85-2d2a-429d-bcfe-f3a304f2fccb","ios":"levelo://app?vid=e8639d85-2d2a-429d-bcfe-f3a304f2fccb"},"vehicle_type_id":"4","last_reported":1749744808,"current_range_meters":18000,"station_id":"","pricing_plan_id":"cebpf4jnsgd1na2vs0mg"},{"bike_id":"3eabb3f5-8852-4a95-98c5-cb548829993f","system_id":"levelo_inurba_marseille","lat":43.28268,"lon":5.35062,"is_reserved":false,"is_disabled":false,"rental_uris":{"android":"levelo://app?vid=3eabb3f5-8852-4a95-98c5-cb548829993f","ios":"levelo://app?vid=3eabb3f5-8852-4a95-98c5-cb548829993f"},"vehicle_type_id":"4","last_reported":1749744808,"current_range_meters":18000,"station_id":"ce4bhbp2rcd13ifvqerg","pricing_plan_id":"cebpf4jnsgd1na2vs0mg"},{"bike_id":"dac3dd7c-2a5d-4fbe-9b85-f238e7862502","system_id":"levelo_inurba_marseille","lat":43.30422,"lon":5.41279,"is_reserved":false,"is_disabled":false,"rental_uris":{"android":"levelo://app?vid=dac3dd7c-2a5d-4fbe-9b85-f238e7862502","ios":"levelo://app?vid=dac3dd7c-2a5d-4fbe-9b85-f238e7862502"},"vehicle_type_id":"4","last_reported":1749744808,"current_range_meters":18000,"station_id":"ce4bhop2rcd13ifvqh8g","pricing_plan_id":"cebpf4jnsgd1na2vs0mg"},{"bike_id":"326cc913-bdbc-48c2-9a88-414846f09512","system_id":"levelo_inurba_marseille","lat":43.32371,"lon":5.36755,"is_reserved":false,"is_disabled":false,"rental_uris":{"android":"levelo://app?vid=326cc913-bdbc-48c2-9a88-414846f09512","ios":"levelo://app?vid=326cc913-bdbc-48c2-9a88-414846f09512"},"vehicle_type_id":"4","last_reported":1749744808,"current_range_meters":18000,"station_id":"ce4bhsh2rcd13ifvqi2g","pricing_plan_id":"cebpf4jnsgd1na2vs0mg"},{"bike_id":"075c05ec-b3c9-44c3-b57f-1083abf2ca61","system_id":"levelo_inurba_marseille","lat":43.27121,"lon":5.426231,"is_reserved":false,"is_disabled":false,"rental_uris":{"android":"levelo://app?vid=075c05ec-b3c9-44c3-b57f-1083abf2ca61","ios":"levelo://app?vid=075c05ec-b3c9-44c3-b57f-1083abf2ca61"},"vehicle_type_id":"4","last_reported":1749744808,"current_range_meters":18800,"station_id":"","pricing_plan_id":"cebpf4jnsgd1na2vs0mg"},{"bike_id":"713f94e3-c67e-4836-bdd5-cfe7bb1b1281","system_id":"levelo_inurba_marseille","lat":43.225,"lon":5.34783,"is_reserved":false,"is_disabled":false,"rental_uris":{"android":"levelo://app?vid=713f94e3-c67e-4836-bdd5-cfe7bb1b1281","ios":"levelo://app?vid=713f94e3-c67e-4836-bdd5-cfe7bb1b1281"},"vehicle_type_id":"4","last_reported":1749744808,"current_range_meters":18800,"station_id":"","pricing_plan_id":"cebpf4jnsgd1na2vs0mg"},{"bike_id":"7d3b952d-e03c-4044-9b66-7b45c5e0a8de","system_id":"levelo_inurba_marseille","lat":43.29421,"lon":5.38621,"is_reserved":false,"is_disabled":false,"rental_uris":{"android":"levelo://app?vid=7d3b952d-e03c-4044-9b66-7b45c5e0a8de","ios":"levelo://app?vid=7d3b952d-e03c-4044-9b66-7b45c5e0a8de"},"vehicle_type_id":"4","last_reported":1749744808,"current_range_meters":18800,"station_id":"ce4bh2h2rcd13ifvqdh0","pricing_plan_id":"cebpf4jnsgd1na2vs0mg"},{"bike_id":"1eceb208-681b-4e94-a2be-aaebeed831ca","system_id":"levelo_inurba_marseille","lat":43.28928,"lon":5.38384,"is_reserved":false,"is_disabled":false,"rental_uris":{"android":"levelo://app?vid=1eceb208-681b-4e94-a2be-aaebeed831ca","ios":"levelo://app?vid=1eceb208-681b-4e94-a2be-aaebeed831ca"},"vehicle_type_id":"4","last_reported":1749744808,"current_range_meters":18800,"station_id":"ce4bh612rcd13ifvqe6g","pricing_plan_id":"cebpf4jnsgd1na2vs0mg"},{"bike_id":"090ddacd-e807-4db5-bf49-36f9b46657fd","system_id":"levelo_inurba_marseille","lat":43.28278,"lon":5.35064,"is_reserved":false,"is_disabled":false,"rental_uris":{"android":"levelo://app?vid=090ddacd-e807-4db5-bf49-36f9b46657fd","ios":"levelo://app?vid=090ddacd-e807-4db5-bf49-36f9b46657fd"},"vehicle_type_id":"4","last_reported":1749744808,"current_range_meters":18800,"station_id":"ce4bhbp2rcd13ifvqerg","pricing_plan_id":"cebpf4jnsgd1na2vs0mg"},{"bike_id":"fff231a3-fa37-401c-aae3-ea338c315e37","system_id":"levelo_inurba_marseille","lat":43.24804,"lon":5.37457,"is_reserved":false,"is_disabled":false,"rental_uris":{"android":"levelo://app?vid=fff231a3-fa37-401c-aae3-ea338c315e37","ios":"levelo://app?vid=fff231a3-fa37-401c-aae3-ea338c315e37"},"vehicle_type_id":"4","last_reported":1749744808,"current_range_meters":18800,"station_id":"ce4bhgh2rcd13ifvqfb0","pricing_plan_id":"cebpf4jnsgd1na2vs0mg"},{"bike_id":"b892915d-db0f-4d3a-8105-cae2e31710f6","system_id":"levelo_inurba_marseille","lat":43.33606,"lon":5.41042,"is_reserved":false,"is_disabled":false,"rental_uris":{"android":"levelo://app?vid=b892915d-db0f-4d3a-8105-cae2e31710f6","ios":"levelo://app?vid=b892915d-db0f-4d3a-8105-cae2e31710f6"},"vehicle_type_id":"4","last_reported":1749744808,"current_range_meters":18800,"station_id":"ce4bhqh2rcd13ifvqhmg","pricing_plan_id":"cebpf4jnsgd1na2vs0mg"},{"bike_id":"786e17c5-f113-42ac-8221-84186a5f6775","system_id":"levelo_inurba_marseille","lat":43.28724,"lon":5.36097,"is_reserved":false,"is_disabled":false,"rental_uris":{"android":"levelo://app?vid=786e17c5-f113-42ac-8221-84186a5f6775","ios":"levelo://app?vid=786e17c5-f113-42ac-8221-84186a5f6775"},"vehicle_type_id":"4","last_reported":1749744808,"current_range_meters":18800,"station_id":"cki0cbj6b192h4jlfktg","pricing_plan_id":"cebpf4jnsgd1na2vs0mg"},{"bike_id":"c60ed994-ea6f-49a4-8b0e-f1f201720e29","system_id":"levelo_inurba_marseille","lat":43.2993,"lon":5.36554,"is_reserved":false,"is_disabled":false,"rental_uris":{"android":"levelo://app?vid=c60ed994-ea6f-49a4-8b0e-f1f201720e29","ios":"levelo://app?vid=c60ed994-ea6f-49a4-8b0e-f1f201720e29"},"vehicle_type_id":"4","last_reported":1749744808,"current_range_meters":19200,"station_id":"ce4bgm92rcd13ifvqbr0","pricing_plan_id":"cebpf4jnsgd1na2vs0mg"},{"bike_id":"c47eae8c-d5a1-4ee6-9d03-274968a7d7c0","system_id":"levelo_inurba_marseille","lat":43.2942,"lon":5.38621,"is_reserved":false,"is_disabled":false,"rental_uris":{"android":"levelo://app?vid=c47eae8c-d5a1-4ee6-9d03-274968a7d7c0","ios":"levelo://app?vid=c47eae8c-d5a1-4ee6-9d03-274968a7d7c0"},"vehicle_type_id":"4","last_reported":1749744808,"current_range_meters":19200,"station_id":"ce4bh2h2rcd13ifvqdh0","pricing_plan_id":"cebpf4jnsgd1na2vs0mg"},{"bike_id":"82bae905-b0a1-4af7-a3db-4a9ca670819f","system_id":"levelo_inurba_marseille","lat":43.26207,"lon":5.37448,"is_reserved":false,"is_disabled":false,"rental_uris":{"android":"levelo://app?vid=82bae905-b0a1-4af7-a3db-4a9ca670819f","ios":"levelo://app?vid=82bae905-b0a1-4af7-a3db-4a9ca670819f"},"vehicle_type_id":"4","last_reported":1749744808,"current_range_meters":19200,"station_id":"ce4bhgp2rcd13ifvqfc0","pricing_plan_id":"cebpf4jnsgd1na2vs0mg"},{"bike_id":"2b7bdda8-8fcf-4b30-93c1-c62af5460aa8","system_id":"levelo_inurba_marseille","lat":43.26202,"lon":5.37928,"is_reserved":false,"is_disabled":false,"rental_uris":{"android":"levelo://app?vid=2b7bdda8-8fcf-4b30-93c1-c62af5460aa8","ios":"levelo://app?vid=2b7bdda8-8fcf-4b30-93c1-c62af5460aa8"},"vehicle_type_id":"4","last_reported":1749744808,"current_range_meters":19200,"station_id":"ce4bhjp2rcd13ifvqg90","pricing_plan_id":"cebpf4jnsgd1na2vs0mg"},{"bike_id":"ebde0757-a94a-4915-8c86-60ad7ee049c4","system_id":"levelo_inurba_marseille","lat":43.231906,"lon":5.355474,"is_reserved":false,"is_disabled":false,"rental_uris":{"android":"levelo://app?vid=ebde0757-a94a-4915-8c86-60ad7ee049c4","ios":"levelo://app?vid=ebde0757-a94a-4915-8c86-60ad7ee049c4"},"vehicle_type_id":"4","last_reported":1749744808,"current_range_meters":19200,"station_id":"ce4bhu92rcd13ifvqi70","pricing_plan_id":"cebpf4jnsgd1na2vs0mg"},{"bike_id":"e0806586-bd10-43e8-af77-c0a205908295","system_id":"levelo_inurba_marseille","lat":43.21739,"lon":5.34601,"is_reserved":false,"is_disabled":false,"rental_uris":{"android":"levelo://app?vid=e0806586-bd10-43e8-af77-c0a205908295","ios":"levelo://app?vid=e0806586-bd10-43e8-af77-c0a205908295"},"vehicle_type_id":"4","last_reported":1749744808,"current_range_meters":19200,"station_id":"st_cvj6r9ubvosntc0bgbag","pricing_plan_id":"cebpf4jnsgd1na2vs0mg"},{"bike_id":"700bf133-88c6-4f1c-90ca-0b0751fa1a13","system_id":"levelo_inurba_marseille","lat":43.21756,"lon":5.34591,"is_reserved":false,"is_disabled":false,"rental_uris":{"android":"levelo://app?vid=700bf133-88c6-4f1c-90ca-0b0751fa1a13","ios":"levelo://app?vid=700bf133-88c6-4f1c-90ca-0b0751fa1a13"},"vehicle_type_id":"4","last_reported":1749744808,"current_range_meters":19200,"station_id":"st_cvj6r9ubvosntc0bgbag","pricing_plan_id":"cebpf4jnsgd1na2vs0mg"},{"bike_id":"2d9eb491-ef60-4c87-8fa5-c0a977f848da","system_id":"levelo_inurba_marseille","lat":43.21199,"lon":5.35053,"is_reserved":false,"is_disabled":false,"rental_uris":{"android":"levelo://app?vid=2d9eb491-ef60-4c87-8fa5-c0a977f848da","ios":"levelo://app?vid=2d9eb491-ef60-4c87-8fa5-c0a977f848da"},"vehicle_type_id":"4","last_reported":1749744808,"current_range_meters":19200,"station_id":"st_cvj6sg6p6f1abm77japg","pricing_plan_id":"cebpf4jnsgd1na2vs0mg"},{"bike_id":"4634bf9e-ccd4-430c-9ad6-8237cd17b2df","system_id":"levelo_inurba_marseille","lat":43.3025,"lon":5.40055,"is_reserved":false,"is_disabled":false,"rental_uris":{"android":"levelo://app?vid=4634bf9e-ccd4-430c-9ad6-8237cd17b2df","ios":"levelo://app?vid=4634bf9e-ccd4-430c-9ad6-8237cd17b2df"},"vehicle_type_id":"4","last_reported":1749744808,"current_range_meters":19600,"station_id":"ce4bgvh2rcd13ifvqcs0","pricing_plan_id":"cebpf4jnsgd1na2vs0mg"},{"bike_id":"27ef21de-1bb4-47d4-a4cd-20f951a589e5","system_id":"levelo_inurba_marseille","lat":43.28929,"lon":5.38406,"is_reserved":false,"is_disabled":false,"rental_uris":{"android":"levelo://app?vid=27ef21de-1bb4-47d4-a4cd-20f951a589e5","ios":"levelo://app?vid=27ef21de-1bb4-47d4-a4cd-20f951a589e5"},"vehicle_type_id":"4","last_reported":1749744808,"current_range_meters":19600,"station_id":"ce4bh612rcd13ifvqe6g","pricing_plan_id":"cebpf4jnsgd1na2vs0mg"},{"bike_id":"2d94d84a-9027-4ed6-949f-11d42e2b6602","system_id":"levelo_inurba_marseille","lat":43.28412,"lon":5.34998,"is_reserved":false,"is_disabled":false,"rental_uris":{"android":"levelo://app?vid=2d94d84a-9027-4ed6-949f-11d42e2b6602","ios":"levelo://app?vid=2d94d84a-9027-4ed6-949f-11d42e2b6602"},"vehicle_type_id":"4","last_reported":1749744808,"current_range_meters":19600,"station_id":"ce4bhbh2rcd13ifvqepg","pricing_plan_id":"cebpf4jnsgd1na2vs0mg"},{"bike_id":"9e09ee76-0d8f-4b21-bfa2-c81827dd417f","system_id":"levelo_inurba_marseille","lat":43.28616,"lon":5.35107,"is_reserved":false,"is_disabled":false,"rental_uris":{"android":"levelo://app?vid=9e09ee76-0d8f-4b21-bfa2-c81827dd417f","ios":"levelo://app?vid=9e09ee76-0d8f-4b21-bfa2-c81827dd417f"},"vehicle_type_id":"4","last_reported":1749744808,"current_range_meters":19600,"station_id":"ce4bhch2rcd13ifvqeug","pricing_plan_id":"cebpf4jnsgd1na2vs0mg"},{"bike_id":"680e6b8f-c18f-488a-a60f-a45b7c28d4cf","system_id":"levelo_inurba_marseille","lat":43.27172,"lon":5.40995,"is_reserved":false,"is_disabled":false,"rental_uris":{"android":"levelo://app?vid=680e6b8f-c18f-488a-a60f-a45b7c28d4cf","ios":"levelo://app?vid=680e6b8f-c18f-488a-a60f-a45b7c28d4cf"},"vehicle_type_id":"4","last_reported":1749744808,"current_range_meters":19600,"station_id":"ce4bhl12rcd13ifvqgf0","pricing_plan_id":"cebpf4jnsgd1na2vs0mg"},{"bike_id":"3b2851dc-cdc3-4c74-bb7a-6b50ea5674bc","system_id":"levelo_inurba_marseille","lat":43.31565,"lon":5.38027,"is_reserved":false,"is_disabled":false,"rental_uris":{"android":"levelo://app?vid=3b2851dc-cdc3-4c74-bb7a-6b50ea5674bc","ios":"levelo://app?vid=3b2851dc-cdc3-4c74-bb7a-6b50ea5674bc"},"vehicle_type_id":"4","last_reported":1749744808,"current_range_meters":19600,"station_id":"ce4bhsp2rcd13ifvqi50","pricing_plan_id":"cebpf4jnsgd1na2vs0mg"},{"bike_id":"037d7197-b0d0-4879-8a59-ce3cea0b8597","system_id":"levelo_inurba_marseille","lat":43.21767,"lon":5.346,"is_reserved":false,"is_disabled":false,"rental_uris":{"android":"levelo://app?vid=037d7197-b0d0-4879-8a59-ce3cea0b8597","ios":"levelo://app?vid=037d7197-b0d0-4879-8a59-ce3cea0b8597"},"vehicle_type_id":"4","last_reported":1749744808,"current_range_meters":19600,"station_id":"st_cvj6r9ubvosntc0bgbag","pricing_plan_id":"cebpf4jnsgd1na2vs0mg"},{"bike_id":"b4007d96-ced4-4d49-81eb-44948ed29990","system_id":"levelo_inurba_marseille","lat":43.29571,"lon":5.39981,"is_reserved":false,"is_disabled":false,"rental_uris":{"android":"levelo://app?vid=b4007d96-ced4-4d49-81eb-44948ed29990","ios":"levelo://app?vid=b4007d96-ced4-4d49-81eb-44948ed29990"},"vehicle_type_id":"4","last_reported":1749744808,"current_range_meters":20000,"station_id":"ce4bh312rcd13ifvqdj0","pricing_plan_id":"cebpf4jnsgd1na2vs0mg"},{"bike_id":"90338aae-4a2b-4b77-bdbb-68f62b85f33c","system_id":"levelo_inurba_marseille","lat":43.28626,"lon":5.35094,"is_reserved":false,"is_disabled":false,"rental_uris":{"android":"levelo://app?vid=90338aae-4a2b-4b77-bdbb-68f62b85f33c","ios":"levelo://app?vid=90338aae-4a2b-4b77-bdbb-68f62b85f33c"},"vehicle_type_id":"4","last_reported":1749744808,"current_range_meters":20000,"station_id":"ce4bhch2rcd13ifvqeug","pricing_plan_id":"cebpf4jnsgd1na2vs0mg"},{"bike_id":"9befd06b-d185-47e0-8999-2462bde4980f","system_id":"levelo_inurba_marseille","lat":43.2905,"lon":5.35912,"is_reserved":false,"is_disabled":false,"rental_uris":{"android":"levelo://app?vid=9befd06b-d185-47e0-8999-2462bde4980f","ios":"levelo://app?vid=9befd06b-d185-47e0-8999-2462bde4980f"},"vehicle_type_id":"4","last_reported":1749744808,"current_range_meters":20400,"station_id":"ce4bha92rcd13ifvqeg0","pricing_plan_id":"cebpf4jnsgd1na2vs0mg"},{"bike_id":"e8322689-b2a8-48eb-819b-34f4be7be48c","system_id":"levelo_inurba_marseille","lat":43.28856,"lon":5.3585,"is_reserved":false,"is_disabled":false,"rental_uris":{"android":"levelo://app?vid=e8322689-b2a8-48eb-819b-34f4be7be48c","ios":"levelo://app?vid=e8322689-b2a8-48eb-819b-34f4be7be48c"},"vehicle_type_id":"4","last_reported":1749744808,"current_range_meters":20400,"station_id":"ce4bhb12rcd13ifvqem0","pricing_plan_id":"cebpf4jnsgd1na2vs0mg"},{"bike_id":"f67b256b-30ad-4c15-865a-c4c0b2f67565","system_id":"levelo_inurba_marseille","lat":43.2923,"lon":5.36063,"is_reserved":false,"is_disabled":false,"rental_uris":{"android":"levelo://app?vid=f67b256b-30ad-4c15-865a-c4c0b2f67565","ios":"levelo://app?vid=f67b256b-30ad-4c15-865a-c4c0b2f67565"},"vehicle_type_id":"4","last_reported":1749744808,"current_range_meters":20400,"station_id":"ce4bhbh2rcd13ifvqeqg","pricing_plan_id":"cebpf4jnsgd1na2vs0mg"},{"bike_id":"f3ec16b2-8afd-4ecb-8d58-15a6a90ff603","system_id":"levelo_inurba_marseille","lat":43.323608,"lon":5.367594,"is_reserved":false,"is_disabled":false,"rental_uris":{"android":"levelo://app?vid=f3ec16b2-8afd-4ecb-8d58-15a6a90ff603","ios":"levelo://app?vid=f3ec16b2-8afd-4ecb-8d58-15a6a90ff603"},"vehicle_type_id":"4","last_reported":1749744808,"current_range_meters":20400,"station_id":"ce4bhsh2rcd13ifvqi2g","pricing_plan_id":"cebpf4jnsgd1na2vs0mg"},{"bike_id":"a172b0cf-62c4-4c52-a818-ce564350df02","system_id":"levelo_inurba_marseille","lat":43.211937,"lon":5.350777,"is_reserved":false,"is_disabled":false,"rental_uris":{"android":"levelo://app?vid=a172b0cf-62c4-4c52-a818-ce564350df02","ios":"levelo://app?vid=a172b0cf-62c4-4c52-a818-ce564350df02"},"vehicle_type_id":"4","last_reported":1749744808,"current_range_meters":20400,"station_id":"st_cvj6sg6p6f1abm77japg","pricing_plan_id":"cebpf4jnsgd1na2vs0mg"},{"bike_id":"276fb697-fcd8-4c48-be9d-0552a9148871","system_id":"levelo_inurba_marseille","lat":43.28271,"lon":5.35067,"is_reserved":false,"is_disabled":false,"rental_uris":{"android":"levelo://app?vid=276fb697-fcd8-4c48-be9d-0552a9148871","ios":"levelo://app?vid=276fb697-fcd8-4c48-be9d-0552a9148871"},"vehicle_type_id":"4","last_reported":1749744808,"current_range_meters":20800,"station_id":"ce4bhbp2rcd13ifvqerg","pricing_plan_id":"cebpf4jnsgd1na2vs0mg"},{"bike_id":"844a7c1d-959c-4212-8295-3746c677673d","system_id":"levelo_inurba_marseille","lat":43.28613,"lon":5.35099,"is_reserved":false,"is_disabled":false,"rental_uris":{"android":"levelo://app?vid=844a7c1d-959c-4212-8295-3746c677673d","ios":"levelo://app?vid=844a7c1d-959c-4212-8295-3746c677673d"},"vehicle_type_id":"4","last_reported":1749744808,"current_range_meters":20800,"station_id":"ce4bhch2rcd13ifvqeug","pricing_plan_id":"cebpf4jnsgd1na2vs0mg"},{"bike_id":"6acfc09e-df4d-4c5e-9a33-4506bcf43c90","system_id":"levelo_inurba_marseille","lat":43.32292,"lon":5.38269,"is_reserved":false,"is_disabled":false,"rental_uris":{"android":"levelo://app?vid=6acfc09e-df4d-4c5e-9a33-4506bcf43c90","ios":"levelo://app?vid=6acfc09e-df4d-4c5e-9a33-4506bcf43c90"},"vehicle_type_id":"4","last_reported":1749744808,"current_range_meters":20800,"station_id":"ce4bhr12rcd13ifvqhqg","pricing_plan_id":"cebpf4jnsgd1na2vs0mg"},{"bike_id":"abd0d78f-a5d4-4339-93f7-6b3fc51d77c5","system_id":"levelo_inurba_marseille","lat":43.36389,"lon":5.35106,"is_reserved":false,"is_disabled":false,"rental_uris":{"android":"levelo://app?vid=abd0d78f-a5d4-4339-93f7-6b3fc51d77c5","ios":"levelo://app?vid=abd0d78f-a5d4-4339-93f7-6b3fc51d77c5"},"vehicle_type_id":"4","last_reported":1749744808,"current_range_meters":21600,"station_id":"","pricing_plan_id":"cebpf4jnsgd1na2vs0mg"},{"bike_id":"2510e829-9557-484a-ba02-d17ddd1383c7","system_id":"levelo_inurba_marseille","lat":43.28849,"lon":5.39308,"is_reserved":false,"is_disabled":false,"rental_uris":{"android":"levelo://app?vid=2510e829-9557-484a-ba02-d17ddd1383c7","ios":"levelo://app?vid=2510e829-9557-484a-ba02-d17ddd1383c7"},"vehicle_type_id":"4","last_reported":1749744808,"current_range_meters":21600,"station_id":"ce4bh2p2rcd13ifvqdi0","pricing_plan_id":"cebpf4jnsgd1na2vs0mg"},{"bike_id":"05327e73-87e3-4f2e-bc2e-fc621922c156","system_id":"levelo_inurba_marseille","lat":43.29256,"lon":5.38444,"is_reserved":false,"is_disabled":false,"rental_uris":{"android":"levelo://app?vid=05327e73-87e3-4f2e-bc2e-fc621922c156","ios":"levelo://app?vid=05327e73-87e3-4f2e-bc2e-fc621922c156"},"vehicle_type_id":"4","last_reported":1749744808,"current_range_meters":21600,"station_id":"ce4bh692rcd13ifvqea0","pricing_plan_id":"cebpf4jnsgd1na2vs0mg"},{"bike_id":"6455344b-a538-4794-8901-8f6b905083f4","system_id":"levelo_inurba_marseille","lat":43.28861,"lon":5.35847,"is_reserved":false,"is_disabled":false,"rental_uris":{"android":"levelo://app?vid=6455344b-a538-4794-8901-8f6b905083f4","ios":"levelo://app?vid=6455344b-a538-4794-8901-8f6b905083f4"},