{"last_updated":1685138764,"ttl":30,"version":"2.2","data":{"bikes":[{"bike_id":"d27f71f6-0eb9-4e9b-a7cc-820f20bacca0","system_id":"levelo_inurba_marseille","lat":43.305368,"lon":5.367343,"is_reserved":false,"is_disabled":false,"rental_uris":{"android":"levelo://app?vid=d27f71f6-0eb9-4e9b-a7cc-820f20bacca0","ios":"levelo://app?vid=d27f71f6-0eb9-4e9b-a7cc-820f20bacca0"},"vehicle_type_id":"4","last_reported":1685138765,"current_range_meters":2400,"station_id":"ce4bgrp2rcd13ifvqc9g","pricing_plan_id":"free"},{"bike_id":"5921b083-e155-411c-bed6-98f631b3efdd","system_id":"levelo_inurba_marseille","lat":43.305989,"lon":5.37225,"is_reserved":false,"is_disabled":false,"rental_uris":{"android":"levelo://app?vid=5921b083-e155-411c-bed6-98f631b3efdd","ios":"levelo://app?vid=5921b083-e155-411c-bed6-98f631b3efdd"},"vehicle_type_id":"4","last_reported":1685138765,"current_range_meters":3600,"station_id":"ce4bgqh2rcd13ifvqc4g","pricing_plan_id":"free"},{"bike_id":"4ce628f7-59b5-4bc3-8ba3-28a94232f29d","system_id":"levelo_inurba_marseille","lat":43.30603,"lon":5.37228,"is_reserved":false,"is_disabled":false,"rental_uris":{"android":"levelo://app?vid=4ce628f7-59b5-4bc3-8ba3-28a94232f29d","ios":"levelo://app?vid=4ce628f7-59b5-4bc3-8ba3-28a94232f29d"},"vehicle_type_id":"4","last_reported":1685138765,"current_range_meters":800,"station_id":"ce4bgqh2rcd13ifvqc4g","pricing_plan_id":"free"},{"bike_id":"9228354f-aee1-4f6d-bf9a-8f82b491c6d3","system_id":"levelo_inurba_marseille","lat":43.31712,"lon":5.37745,"is_reserved":false,"is_disabled":false,"rental_uris":{"android":"levelo://app?vid=9228354f-aee1-4f6d-bf9a-8f82b491c6d3","ios":"levelo://app?vid=9228354f-aee1-4f6d-bf9a-8f82b491c6d3"},"vehicle_type_id":"4","last_reported":1685138765,"current_range_meters":14000,"station_id":"ce4bgth2rcd13ifvqch0","pricing_plan_id":"free"},{"bike_id":"f47b8c93-abbd-42bc-9979-f8f6f8e17204","system_id":"levelo_inurba_marseille","lat":43.31711,"lon":5.37747,"is_reserved":false,"is_disabled":false,"rental_uris":{"android":"levelo://app?vid=f47b8c93-abbd-42bc-9979-f8f6f8e17204","ios":"levelo://app?vid=f47b8c93-abbd-42bc-9979-f8f6f8e17204"},"vehicle_type_id":"4","last_reported":1685138765,"current_range_meters":12000,"station_id":"ce4bgth2rcd13ifvqch0","pricing_plan_id":"free"},{"bike_id":"c0b0d062-8275-40cf-8874-7d9d55ab7e88","system_id":"levelo_inurba_marseille","lat":43.31713,"lon":5.37832,"is_reserved":false,"is_disabled":false,"rental_uris":{"android":"levelo://app?vid=c0b0d062-8275-40cf-8874-7d9d55ab7e88","ios":"levelo://app?vid=c0b0d062-8275-40cf-8874-7d9d55ab7e88"},"vehicle_type_id":"4","last_reported":1685138765,"current_range_meters":23200,"station_id":"","pricing_plan_id":"free"},{"bike_id":"5c6d3410-9c43-4d50-bb24-06969f52b17c","system_id":"levelo_inurba_marseille","lat":43.315289,"lon":5.380349,"is_reserved":false,"is_disabled":false,"rental_uris":{"android":"levelo://app?vid=5c6d3410-9c43-4d50-bb24-06969f52b17c","ios":"levelo://app?vid=5c6d3410-9c43-4d50-bb24-06969f52b17c"},"vehicle_type_id":"4","last_reported":1685138765,"current_range_meters":28000,"station_id":"ce4bhsp2rcd13ifvqi50","pricing_plan_id":"free"},{"bike_id":"f61feeab-286f-41a6-86f7-b17b5d51eb29","system_id":"levelo_inurba_marseille","lat":43.304606,"lon":5.379026,"is_reserved":false,"is_disabled":false,"rental_uris":{"android":"levelo://app?vid=f61feeab-286f-41a6-86f7-b17b5d51eb29","ios":"levelo://app?vid=f61feeab-286f-41a6-86f7-b17b5d51eb29"},"vehicle_type_id":"4","last_reported":1685138765,"current_range_meters":10400,"station_id":"ce4bgup2rcd13ifvqcn0","pricing_plan_id":"free"},{"bike_id":"4d0978e6-1c20-40c3-a7a4-1cdc64e85c57","system_id":"levelo_inurba_marseille","lat":43.304606,"lon":5.379026,"is_reserved":false,"is_disabled":false,"rental_uris":{"android":"levelo://app?vid=4d0978e6-1c20-40c3-a7a4-1cdc64e85c57","ios":"levelo://app?vid=4d0978e6-1c20-40c3-a7a4-1cdc64e85c57"},"vehicle_type_id":"4","last_reported":1685138765,"current_range_meters":0,"station_id":"ce4bgup2rcd13ifvqcn0","pricing_plan_id":"free"},{"bike_id":"46349676-80ed-44a7-9bea-3a55a4175303","system_id":"levelo_inurba_marseille","lat":43.31996,"lon":5.38144,"is_reserved":false,"is_disabled":false,"rental_uris":{"android":"levelo://app?vid=46349676-80ed-44a7-9bea-3a55a4175303","ios":"levelo://app?vid=46349676-80ed-44a7-9bea-3a55a4175303"},"vehicle_type_id":"4","last_reported":1685138765,"current_range_meters":8400,"station_id":"ce4bhr12rcd13ifvqhpg","pricing_plan_id":"free"},{"bike_id":"5f66b5c8-c13e-4e6a-af73-99f8edb1fe4e","system_id":"levelo_inurba_marseille","lat":43.31993,"lon":5.38148,"is_reserved":false,"is_disabled":false,"rental_uris":{"android":"levelo://app?vid=5f66b5c8-c13e-4e6a-af73-99f8edb1fe4e","ios":"levelo://app?vid=5f66b5c8-c13e-4e6a-af73-99f8edb1fe4e"},"vehicle_type_id":"4","last_reported":1685138765,"current_range_meters":19600,"station_id":"ce4bhr12rcd13ifvqhpg","pricing_plan_id":"free"},{"bike_id":"15085faf-94d1-454c-8de1-c9482918e24b","system_id":"levelo_inurba_marseille","lat":43.31992,"lon":5.38151,"is_reserved":false,"is_disabled":false,"rental_uris":{"android":"levelo://app?vid=15085faf-94d1-454c-8de1-c9482918e24b","ios":"levelo://app?vid=15085faf-94d1-454c-8de1-c9482918e24b"},"vehicle_type_id":"4","last_reported":1685138765,"current_range_meters":7200,"station_id":"ce4bhr12rcd13ifvqhpg","pricing_plan_id":"free"},{"bike_id":"e5571f58-adb6-49b7-8c86-2d757ae8e1a0","system_id":"levelo_inurba_marseille","lat":43.31998,"lon":5.38148,"is_reserved":false,"is_disabled":false,"rental_uris":{"android":"levelo://app?vid=e5571f58-adb6-49b7-8c86-2d757ae8e1a0","ios":"levelo://app?vid=e5571f58-adb6-49b7-8c86-2d757ae8e1a0"},"vehicle_type_id":"4","last_reported":1685138765,"current_range_meters":16800,"station_id":"ce4bhr12rcd13ifvqhpg","pricing_plan_id":"free"},{"bike_id":"d8eb8348-63ee-4970-972e-0c9f03d04147","system_id":"levelo_inurba_marseille","lat":43.313571,"lon":5.384829,"is_reserved":false,"is_disabled":false,"rental_uris":{"android":"levelo://app?vid=d8eb8348-63ee-4970-972e-0c9f03d04147","ios":"levelo://app?vid=d8eb8348-63ee-4970-972e-0c9f03d04147"},"vehicle_type_id":"4","last_reported":1685138765,"current_range_meters":0,"station_id":"ce4bgt92rcd13ifvqcf0","pricing_plan_id":"free"},{"bike_id":"48dcd346-2153-4058-8ad0-8be5a4f1cc28","system_id":"levelo_inurba_marseille","lat":43.313571,"lon":5.384829,"is_reserved":false,"is_disabled":false,"rental_uris":{"android":"levelo://app?vid=48dcd346-2153-4058-8ad0-8be5a4f1cc28","ios":"levelo://app?vid=48dcd346-2153-4058-8ad0-8be5a4f1cc28"},"vehicle_type_id":"4","last_reported":1685138765,"current_range_meters":8000,"station_id":"ce4bgt92rcd13ifvqcf0","pricing_plan_id":"free"},{"bike_id":"282e49a3-da6d-4821-a4f5-b04fc5157ca6","system_id":"levelo_inurba_marseille","lat":43.313571,"lon":5.384829,"is_reserved":false,"is_disabled":false,"rental_uris":{"android":"levelo://app?vid=282e49a3-da6d-4821-a4f5-b04fc5157ca6","ios":"levelo://app?vid=282e49a3-da6d-4821-a4f5-b04fc5157ca6"},"vehicle_type_id":"4","last_reported":1685138765,"current_range_meters":26000,"station_id":"ce4bgt92rcd13ifvqcf0","pricing_plan_id":"free"},{"bike_id":"c404da12-457f-4ee5-a986-c74a743b5f93","system_id":"levelo_inurba_marseille","lat":43.313571,"lon":5.384829,"is_reserved":false,"is_disabled":false,"rental_uris":{"android":"levelo://app?vid=c404da12-457f-4ee5-a986-c74a743b5f93","ios":"levelo://app?vid=c404da12-457f-4ee5-a986-c74a743b5f93"},"vehicle_type_id":"4","last_reported":1685138765,"current_range_meters":4000,"station_id":"ce4bgt92rcd13ifvqcf0","pricing_plan_id":"free"},{"bike_id":"97b214bf-1b61-4e27-8be9-9ee88855c248","system_id":"levelo_inurba_marseille","lat":43.313571,"lon":5.384829,"is_reserved":false,"is_disabled":false,"rental_uris":{"android":"levelo://app?vid=97b214bf-1b61-4e27-8be9-9ee88855c248","ios":"levelo://app?vid=97b214bf-1b61-4e27-8be9-9ee88855c248"},"vehicle_type_id":"4","last_reported":1685138765,"current_range_meters":12400,"station_id":"ce4bgt92rcd13ifvqcf0","pricing_plan_id":"free"},{"bike_id":"c7781619-e55e-4ac4-b8b3-4561d131adca","system_id":"levelo_inurba_marseille","lat":43.313571,"lon":5.384829,"is_reserved":false,"is_disabled":false,"rental_uris":{"android":"levelo://app?vid=c7781619-e55e-4ac4-b8b3-4561d131adca","ios":"levelo://app?vid=c7781619-e55e-4ac4-b8b3-4561d131adca"},"vehicle_type_id":"4","last_reported":1685138765,"current_range_meters":8000,"station_id":"ce4bgt92rcd13ifvqcf0","pricing_plan_id":"free"},{"bike_id":"7efe62c0-b2f0-4a0b-b673-f79ab860cb0d","system_id":"levelo_inurba_marseille","lat":43.313571,"lon":5.384829,"is_reserved":false,"is_disabled":false,"rental_uris":{"android":"levelo://app?vid=7efe62c0-b2f0-4a0b-b673-f79ab860cb0d","ios":"levelo://app?vid=7efe62c0-b2f0-4a0b-b673-f79ab860cb0d"},"vehicle_type_id":"4","last_reported":1685138765,"current_range_meters":11200,"station_id":"ce4bgt92rcd13ifvqcf0","pricing_plan_id":"free"},{"bike_id":"c54a9467-eb1a-467c-b99a-2911073c7cb1","system_id":"levelo_inurba_marseille","lat":43.313571,"lon":5.384829,"is_reserved":false,"is_disabled":false,"rental_uris":{"android":"levelo://app?vid=c54a9467-eb1a-467c-b99a-2911073c7cb1","ios":"levelo://app?vid=c54a9467-eb1a-467c-b99a-2911073c7cb1"},"vehicle_type_id":"4","last_reported":1685138765,"current_range_meters":12000,"station_id":"ce4bgt92rcd13ifvqcf0","pricing_plan_id":"free"},{"bike_id":"25c40156-ec88-4069-8e0b-b9271ac43ac0","system_id":"levelo_inurba_marseille","lat":43.313571,"lon":5.384829,"is_reserved":false,"is_disabled":false,"rental_uris":{"android":"levelo://app?vid=25c40156-ec88-4069-8e0b-b9271ac43ac0","ios":"levelo://app?vid=25c40156-ec88-4069-8e0b-b9271ac43ac0"},"vehicle_type_id":"4","last_reported":1685138765,"current_range_meters":0,"station_id":"ce4bgt92rcd13ifvqcf0","pricing_plan_id":"free"},{"bike_id":"ce2a0397-a098-4918-8b32-9aeab436cda5","system_id":"levelo_inurba_marseille","lat":43.299222,"lon":5.365554,"is_reserved":false,"is_disabled":false,"rental_uris":{"android":"levelo://app?vid=ce2a0397-a098-4918-8b32-9aeab436cda5","ios":"levelo://app?vid=ce2a0397-a098-4918-8b32-9aeab436cda5"},"vehicle_type_id":"4","last_reported":1685138765,"current_range_meters":4400,"station_id":"ce4bgm92rcd13ifvqbr0","pricing_plan_id":"free"},{"bike_id":"9aa0181f-a722-469f-8f40-be6b8f468fb7","system_id":"levelo_inurba_marseille","lat":43.299222,"lon":5.365554,"is_reserved":false,"is_disabled":false,"rental_uris":{"android":"levelo://app?vid=9aa0181f-a722-469f-8f40-be6b8f468fb7","ios":"levelo://app?vid=9aa0181f-a722-469f-8f40-be6b8f468fb7"},"vehicle_type_id":"4","last_reported":1685138765,"current_range_meters":0,"station_id":"ce4bgm92rcd13ifvqbr0","pricing_plan_id":"free"},{"bike_id":"04e0eaad-e904-4500-aace-9c4504be684d","system_id":"levelo_inurba_marseille","lat":43.311722,"lon":5.387247,"is_reserved":false,"is_disabled":false,"rental_uris":{"android":"levelo://app?vid=04e0eaad-e904-4500-aace-9c4504be684d","ios":"levelo://app?vid=04e0eaad-e904-4500-aace-9c4504be684d"},"vehicle_type_id":"4","last_reported":1685138765,"current_range_meters":26000,"station_id":"ce4bgv12rcd13ifvqcp0","pricing_plan_id":"free"},{"bike_id":"2c0c5287-f10f-469c-a32a-4527f5465581","system_id":"levelo_inurba_marseille","lat":43.311722,"lon":5.387247,"is_reserved":false,"is_disabled":false,"rental_uris":{"android":"levelo://app?vid=2c0c5287-f10f-469c-a32a-4527f5465581","ios":"levelo://app?vid=2c0c5287-f10f-469c-a32a-4527f5465581"},"vehicle_type_id":"4","last_reported":1685138765,"current_range_meters":2800,"station_id":"ce4bgv12rcd13ifvqcp0","pricing_plan_id":"free"},{"bike_id":"63e10921-d750-4903-8c90-bae8e95c1609","system_id":"levelo_inurba_marseille","lat":43.299243,"lon":5.374807,"is_reserved":false,"is_disabled":false,"rental_uris":{"android":"levelo://app?vid=63e10921-d750-4903-8c90-bae8e95c1609","ios":"levelo://app?vid=63e10921-d750-4903-8c90-bae8e95c1609"},"vehicle_type_id":"4","last_reported":1685138765,"current_range_meters":8800,"station_id":"ce4bgjh2rcd13ifvqbg0","pricing_plan_id":"free"},{"bike_id":"56c647e1-ca1d-4135-ab33-95dc2a04027e","system_id":"levelo_inurba_marseille","lat":43.311722,"lon":5.387247,"is_reserved":false,"is_disabled":false,"rental_uris":{"android":"levelo://app?vid=56c647e1-ca1d-4135-ab33-95dc2a04027e","ios":"levelo://app?vid=56c647e1-ca1d-4135-ab33-95dc2a04027e"},"vehicle_type_id":"4","last_reported":1685138765,"current_range_meters":30000,"station_id":"ce4bgv12rcd13ifvqcp0","pricing_plan_id":"free"},{"bike_id":"047d7ded-393c-4000-8605-899d3c4d0dca","system_id":"levelo_inurba_marseille","lat":43.299243,"lon":5.374807,"is_reserved":false,"is_disabled":false,"rental_uris":{"android":"levelo://app?vid=047d7ded-393c-4000-8605-899d3c4d0dca","ios":"levelo://app?vid=047d7ded-393c-4000-8605-899d3c4d0dca"},"vehicle_type_id":"4","last_reported":1685138765,"current_range_meters":21600,"station_id":"ce4bgjh2rcd13ifvqbg0","pricing_plan_id":"free"},{"bike_id":"dd0c32eb-8cac-4b97-9064-bb4f748ffd7b","system_id":"levelo_inurba_marseille","lat":43.311722,"lon":5.387247,"is_reserved":false,"is_disabled":false,"rental_uris":{"android":"levelo://app?vid=dd0c32eb-8cac-4b97-9064-bb4f748ffd7b","ios":"levelo://app?vid=dd0c32eb-8cac-4b97-9064-bb4f748ffd7b"},"vehicle_type_id":"4","last_reported":1685138765,"current_range_meters":3200,"station_id":"ce4bgv12rcd13ifvqcp0","pricing_plan_id":"free"},{"bike_id":"15bdd509-ac6b-486d-a3af-74b1c552f2cb","system_id":"levelo_inurba_marseille","lat":43.32833,"lon":5.36689,"is_reserved":false,"is_disabled":false,"rental_uris":{"android":"levelo://app?vid=15bdd509-ac6b-486d-a3af-74b1c552f2cb","ios":"levelo://app?vid=15bdd509-ac6b-486d-a3af-74b1c552f2cb"},"vehicle_type_id":"4","last_reported":1685138765,"current_range_meters":14400,"station_id":"ce4bhs92rcd13ifvqi0g","pricing_plan_id":"free"},{"bike_id":"fd2f7b4b-349a-4854-83fe-5b667e45995a","system_id":"levelo_inurba_marseille","lat":43.31501,"lon":5.38925,"is_reserved":false,"is_disabled":false,"rental_uris":{"android":"levelo://app?vid=fd2f7b4b-349a-4854-83fe-5b667e45995a","ios":"levelo://app?vid=fd2f7b4b-349a-4854-83fe-5b667e45995a"},"vehicle_type_id":"4","last_reported":1685138765,"current_range_meters":22800,"station_id":"","pricing_plan_id":"free"},{"bike_id":"521a2ae4-946b-47bf-ba22-cf10bef5a9f9","system_id":"levelo_inurba_marseille","lat":43.29623,"lon":5.37149,"is_reserved":false,"is_disabled":false,"rental_uris":{"android":"levelo://app?vid=521a2ae4-946b-47bf-ba22-cf10bef5a9f9","ios":"levelo://app?vid=521a2ae4-946b-47bf-ba22-cf10bef5a9f9"},"vehicle_type_id":"4","last_reported":1685138765,"current_range_meters":12800,"station_id":"ce4bgk12rcd13ifvqbj0","pricing_plan_id":"free"},{"bike_id":"d7f266a6-ce15-437e-86aa-7112b7a80e12","system_id":"levelo_inurba_marseille","lat":43.30973,"lon":5.39017,"is_reserved":false,"is_disabled":false,"rental_uris":{"android":"levelo://app?vid=d7f266a6-ce15-437e-86aa-7112b7a80e12","ios":"levelo://app?vid=d7f266a6-ce15-437e-86aa-7112b7a80e12"},"vehicle_type_id":"4","last_reported":1685138765,"current_range_meters":0,"station_id":"ce4bgup2rcd13ifvqco0","pricing_plan_id":"free"},{"bike_id":"59a4a35e-0f2c-4a7a-80ac-79dfce367a2e","system_id":"levelo_inurba_marseille","lat":43.309589,"lon":5.390258,"is_reserved":false,"is_disabled":false,"rental_uris":{"android":"levelo://app?vid=59a4a35e-0f2c-4a7a-80ac-79dfce367a2e","ios":"levelo://app?vid=59a4a35e-0f2c-4a7a-80ac-79dfce367a2e"},"vehicle_type_id":"4","last_reported":1685138765,"current_range_meters":21600,"station_id":"ce4bgup2rcd13ifvqco0","pricing_plan_id":"free"},{"bike_id":"210c85bb-fe3d-4a5e-93a8-0f61f249b038","system_id":"levelo_inurba_marseille","lat":43.309589,"lon":5.390258,"is_reserved":false,"is_disabled":false,"rental_uris":{"android":"levelo://app?vid=210c85bb-fe3d-4a5e-93a8-0f61f249b038","ios":"levelo://app?vid=210c85bb-fe3d-4a5e-93a8-0f61f249b038"},"vehicle_type_id":"4","last_reported":1685138765,"current_range_meters":4000,"station_id":"ce4bgup2rcd13ifvqco0","pricing_plan_id":"free"},{"bike_id":"ed74f70b-3196-45c9-a9d2-00d1db5bfe98","system_id":"levelo_inurba_marseille","lat":43.309589,"lon":5.390258,"is_reserved":false,"is_disabled":false,"rental_uris":{"android":"levelo://app?vid=ed74f70b-3196-45c9-a9d2-00d1db5bfe98","ios":"levelo://app?vid=ed74f70b-3196-45c9-a9d2-00d1db5bfe98"},"vehicle_type_id":"4","last_reported":1685138765,"current_range_meters":26400,"station_id":"ce4bgup2rcd13ifvqco0","pricing_plan_id":"free"},{"bike_id":"1fe587ea-0f6f-4047-a0e5-717cb76f37d7","system_id":"levelo_inurba_marseille","lat":43.309589,"lon":5.390258,"is_reserved":false,"is_disabled":false,"rental_uris":{"android":"levelo://app?vid=1fe587ea-0f6f-4047-a0e5-717cb76f37d7","ios":"levelo://app?vid=1fe587ea-0f6f-4047-a0e5-717cb76f37d7"},"vehicle_type_id":"4","last_reported":1685138765,"current_range_meters":22800,"station_id":"ce4bgup2rcd13ifvqco0","pricing_plan_id":"free"},{"bike_id":"76b6e55f-2900-4abe-b944-87c2d29d343e","system_id":"levelo_inurba_marseille","lat":43.309589,"lon":5.390258,"is_reserved":false,"is_disabled":false,"rental_uris":{"android":"levelo://app?vid=76b6e55f-2900-4abe-b944-87c2d29d343e","ios":"levelo://app?vid=76b6e55f-2900-4abe-b944-87c2d29d343e"},"vehicle_type_id":"4","last_reported":1685138765,"current_range_meters":7200,"station_id":"ce4bgup2rcd13ifvqco0","pricing_plan_id":"free"},{"bike_id":"6e226586-df61-40d0-a3cd-7dbbf5962dc4","system_id":"levelo_inurba_marseille","lat":43.309589,"lon":5.390258,"is_reserved":false,"is_disabled":false,"rental_uris":{"android":"levelo://app?vid=6e226586-df61-40d0-a3cd-7dbbf5962dc4","ios":"levelo://app?vid=6e226586-df61-40d0-a3cd-7dbbf5962dc4"},"vehicle_type_id":"4","last_reported":1685138765,"current_range_meters":1600,"station_id":"ce4bgup2rcd13ifvqco0","pricing_plan_id":"free"},{"bike_id":"fae36fef-3ec9-4975-bf82-cfe1a4699775","system_id":"levelo_inurba_marseille","lat":43.309589,"lon":5.390258,"is_reserved":false,"is_disabled":false,"rental_uris":{"android":"levelo://app?vid=fae36fef-3ec9-4975-bf82-cfe1a4699775","ios":"levelo://app?vid=fae36fef-3ec9-4975-bf82-cfe1a4699775"},"vehicle_type_id":"4","last_reported":1685138765,"current_range_meters":8800,"station_id":"ce4bgup2rcd13ifvqco0","pricing_plan_id":"free"},{"bike_id":"c8bc59e2-dc73-4851-9e03-9402264e8801","system_id":"levelo_inurba_marseille","lat":43.309589,"lon":5.390258,"is_reserved":false,"is_disabled":false,"rental_uris":{"android":"levelo://app?vid=c8bc59e2-dc73-4851-9e03-9402264e8801","ios":"levelo://app?vid=c8bc59e2-dc73-4851-9e03-9402264e8801"},"vehicle_type_id":"4","last_reported":1685138765,"current_range_meters":1200,"station_id":"ce4bgup2rcd13ifvqco0","pricing_plan_id":"free"},{"bike_id":"cf3fb89a-c959-4f23-8f03-a98d306de8af","system_id":"levelo_inurba_marseille","lat":43.317557,"lon":5.390173,"is_reserved":false,"is_disabled":false,"rental_uris":{"android":"levelo://app?vid=cf3fb89a-c959-4f23-8f03-a98d306de8af","ios":"levelo://app?vid=cf3fb89a-c959-4f23-8f03-a98d306de8af"},"vehicle_type_id":"4","last_reported":1685138765,"current_range_meters":23600,"station_id":"ce4bhqp2rcd13ifvqhng","pricing_plan_id":"free"},{"bike_id":"b760dc60-6d37-49c7-8dde-1a371397cdb8","system_id":"levelo_inurba_marseille","lat":43.317557,"lon":5.390173,"is_reserved":false,"is_disabled":false,"rental_uris":{"android":"levelo://app?vid=b760dc60-6d37-49c7-8dde-1a371397cdb8","ios":"levelo://app?vid=b760dc60-6d37-49c7-8dde-1a371397cdb8"},"vehicle_type_id":"4","last_reported":1685138765,"current_range_meters":28800,"station_id":"ce4bhqp2rcd13ifvqhng","pricing_plan_id":"free"},{"bike_id":"774ce504-2767-4c7f-b9b2-adba2127074c","system_id":"levelo_inurba_marseille","lat":43.317557,"lon":5.390173,"is_reserved":false,"is_disabled":false,"rental_uris":{"android":"levelo://app?vid=774ce504-2767-4c7f-b9b2-adba2127074c","ios":"levelo://app?vid=774ce504-2767-4c7f-b9b2-adba2127074c"},"vehicle_type_id":"4","last_reported":1685138765,"current_range_meters":28800,"station_id":"ce4bhqp2rcd13ifvqhng","pricing_plan_id":"free"},{"bike_id":"0a80d5e9-ad49-415c-9ece-72c4359f066d","system_id":"levelo_inurba_marseille","lat":43.317557,"lon":5.390173,"is_reserved":false,"is_disabled":false,"rental_uris":{"android":"levelo://app?vid=0a80d5e9-ad49-415c-9ece-72c4359f066d","ios":"levelo://app?vid=0a80d5e9-ad49-415c-9ece-72c4359f066d"},"vehicle_type_id":"4","last_reported":1685138765,"current_range_meters":28000,"station_id":"ce4bhqp2rcd13ifvqhng","pricing_plan_id":"free"},{"bike_id":"a7dd7453-109c-46e9-b905-386520d3a3a6","system_id":"levelo_inurba_marseille","lat":43.30435,"lon":5.38889,"is_reserved":false,"is_disabled":false,"rental_uris":{"android":"levelo://app?vid=a7dd7453-109c-46e9-b905-386520d3a3a6","ios":"levelo://app?vid=a7dd7453-109c-46e9-b905-386520d3a3a6"},"vehicle_type_id":"4","last_reported":1685138765,"current_range_meters":1200,"station_id":"ce4bgk12rcd13ifvqbi0","pricing_plan_id":"free"},{"bike_id":"a128aa0b-d01f-439a-a071-684041b20a47","system_id":"levelo_inurba_marseille","lat":43.296277,"lon":5.377108,"is_reserved":false,"is_disabled":false,"rental_uris":{"android":"levelo://app?vid=a128aa0b-d01f-439a-a071-684041b20a47","ios":"levelo://app?vid=a128aa0b-d01f-439a-a071-684041b20a47"},"vehicle_type_id":"4","last_reported":1685138765,"current_range_meters":0,"station_id":"ce4bgi92rcd13ifvqb90","pricing_plan_id":"free"},{"bike_id":"3fdf7676-e3cb-40b8-aa47-40c7c9f4b198","system_id":"levelo_inurba_marseille","lat":43.304278,"lon":5.388868,"is_reserved":false,"is_disabled":false,"rental_uris":{"android":"levelo://app?vid=3fdf7676-e3cb-40b8-aa47-40c7c9f4b198","ios":"levelo://app?vid=3fdf7676-e3cb-40b8-aa47-40c7c9f4b198"},"vehicle_type_id":"4","last_reported":1685138765,"current_range_meters":28800,"station_id":"ce4bgk12rcd13ifvqbi0","pricing_plan_id":"free"},{"bike_id":"66b0626f-db56-4e3f-bed8-bcd49d4a29c0","system_id":"levelo_inurba_marseille","lat":43.29527,"lon":5.37496,"is_reserved":false,"is_disabled":false,"rental_uris":{"android":"levelo://app?vid=66b0626f-db56-4e3f-bed8-bcd49d4a29c0","ios":"levelo://app?vid=66b0626f-db56-4e3f-bed8-bcd49d4a29c0"},"vehicle_type_id":"4","last_reported":1685138765,"current_range_meters":0,"station_id":"ce4bgkp2rcd13ifvqbmg","pricing_plan_id":"free"},{"bike_id":"aaa07f33-70d0-4050-834b-b434b6d5466b","system_id":"levelo_inurba_marseille","lat":43.30499,"lon":5.3909,"is_reserved":false,"is_disabled":false,"rental_uris":{"android":"levelo://app?vid=aaa07f33-70d0-4050-834b-b434b6d5466b","ios":"levelo://app?vid=aaa07f33-70d0-4050-834b-b434b6d5466b"},"vehicle_type_id":"4","last_reported":1685138765,"current_range_meters":14000,"station_id":"","pricing_plan_id":"free"},{"bike_id":"5d361504-6791-4859-a39b-91c8e6dee5a4","system_id":"levelo_inurba_marseille","lat":43.29601,"lon":5.381084,"is_reserved":false,"is_disabled":false,"rental_uris":{"android":"levelo://app?vid=5d361504-6791-4859-a39b-91c8e6dee5a4","ios":"levelo://app?vid=5d361504-6791-4859-a39b-91c8e6dee5a4"},"vehicle_type_id":"4","last_reported":1685138765,"current_range_meters":2400,"station_id":"ce4bgl12rcd13ifvqbo0","pricing_plan_id":"free"},{"bike_id":"4888e602-1ee5-461c-88d5-0d334c4d6266","system_id":"levelo_inurba_marseille","lat":43.29602,"lon":5.381084,"is_reserved":false,"is_disabled":false,"rental_uris":{"android":"levelo://app?vid=4888e602-1ee5-461c-88d5-0d334c4d6266","ios":"levelo://app?vid=4888e602-1ee5-461c-88d5-0d334c4d6266"},"vehicle_type_id":"4","last_reported":1685138765,"current_range_meters":7200,"station_id":"ce4bgl12rcd13ifvqbo0","pricing_plan_id":"free"},{"bike_id":"aadf27cc-5db4-42eb-8733-763857df27aa","system_id":"levelo_inurba_marseille","lat":43.30096,"lon":5.3907,"is_reserved":false,"is_disabled":false,"rental_uris":{"android":"levelo://app?vid=aadf27cc-5db4-42eb-8733-763857df27aa","ios":"levelo://app?vid=aadf27cc-5db4-42eb-8733-763857df27aa"},"vehicle_type_id":"4","last_reported":1685138765,"current_range_meters":0,"station_id":"ce4bh192rcd13ifvqdb0","pricing_plan_id":"free"},{"bike_id":"fe3613ba-e557-44d4-91f9-0781c919e764","system_id":"levelo_inurba_marseille","lat":43.25102,"lon":5.403214,"is_reserved":false,"is_disabled":false,"rental_uris":{"android":"levelo://app?vid=fe3613ba-e557-44d4-91f9-0781c919e764","ios":"levelo://app?vid=fe3613ba-e557-44d4-91f9-0781c919e764"},"vehicle_type_id":"4","last_reported":1685138765,"current_range_meters":0,"station_id":"ce4bhlh2rcd13ifvqgig","pricing_plan_id":"free"},{"bike_id":"f11bd125-d0cf-458a-b939-a63fa0ed69bf","system_id":"levelo_inurba_marseille","lat":43.30886,"lon":5.39633,"is_reserved":false,"is_disabled":false,"rental_uris":{"android":"levelo://app?vid=f11bd125-d0cf-458a-b939-a63fa0ed69bf","ios":"levelo://app?vid=f11bd125-d0cf-458a-b939-a63fa0ed69bf"},"vehicle_type_id":"4","last_reported":1685138765,"current_range_meters":1600,"station_id":"","pricing_plan_id":"free"},{"bike_id":"e83efb7a-b88f-4299-9dc5-8a967077d059","system_id":"levelo_inurba_marseille","lat":43.309038,"lon":5.396546,"is_reserved":false,"is_disabled":false,"rental_uris":{"android":"levelo://app?vid=e83efb7a-b88f-4299-9dc5-8a967077d059","ios":"levelo://app?vid=e83efb7a-b88f-4299-9dc5-8a967077d059"},"vehicle_type_id":"4","last_reported":1685138765,"current_range_meters":6000,"station_id":"ce4bh012rcd13ifvqcv0","pricing_plan_id":"free"},{"bike_id":"d2f9afe7-7a68-4ce8-b722-5b950087a3b1","system_id":"levelo_inurba_marseille","lat":43.30888,"lon":5.39644,"is_reserved":false,"is_disabled":false,"rental_uris":{"android":"levelo://app?vid=d2f9afe7-7a68-4ce8-b722-5b950087a3b1","ios":"levelo://app?vid=d2f9afe7-7a68-4ce8-b722-5b950087a3b1"},"vehicle_type_id":"4","last_reported":1685138765,"current_range_meters":10000,"station_id":"ce4bh012rcd13ifvqcv0","pricing_plan_id":"free"},{"bike_id":"91251e0d-693c-48c7-a8af-45ec73cdd651","system_id":"levelo_inurba_marseille","lat":43.309038,"lon":5.396546,"is_reserved":false,"is_disabled":false,"rental_uris":{"android":"levelo://app?vid=91251e0d-693c-48c7-a8af-45ec73cdd651","ios":"levelo://app?vid=91251e0d-693c-48c7-a8af-45ec73cdd651"},"vehicle_type_id":"4","last_reported":1685138765,"current_range_meters":0,"station_id":"ce4bh012rcd13ifvqcv0","pricing_plan_id":"free"},{"bike_id":"397d93dc-d1f4-4557-a945-52310a0d8cf0","system_id":"levelo_inurba_marseille","lat":43.30882,"lon":5.39652,"is_reserved":false,"is_disabled":false,"rental_uris":{"android":"levelo://app?vid=397d93dc-d1f4-4557-a945-52310a0d8cf0","ios":"levelo://app?vid=397d93dc-d1f4-4557-a945-52310a0d8cf0"},"vehicle_type_id":"4","last_reported":1685138765,"current_range_meters":3600,"station_id":"ce4bh012rcd13ifvqcv0","pricing_plan_id":"free"},{"bike_id":"9821c2a5-1f5b-4efb-9507-771d2931444d","system_id":"levelo_inurba_marseille","lat":43.29529,"lon":5.385581,"is_reserved":false,"is_disabled":false,"rental_uris":{"android":"levelo://app?vid=9821c2a5-1f5b-4efb-9507-771d2931444d","ios":"levelo://app?vid=9821c2a5-1f5b-4efb-9507-771d2931444d"},"vehicle_type_id":"4","last_reported":1685138765,"current_range_meters":0,"station_id":"ce4bgih2rcd13ifvqba0","pricing_plan_id":"free"},{"bike_id":"36e625bd-c98c-444f-a774-90c5c4e948a9","system_id":"levelo_inurba_marseille","lat":43.29529,"lon":5.385581,"is_reserved":false,"is_disabled":false,"rental_uris":{"android":"levelo://app?vid=36e625bd-c98c-444f-a774-90c5c4e948a9","ios":"levelo://app?vid=36e625bd-c98c-444f-a774-90c5c4e948a9"},"vehicle_type_id":"4","last_reported":1685138765,"current_range_meters":9600,"station_id":"ce4bgih2rcd13ifvqba0","pricing_plan_id":"free"},{"bike_id":"78a12042-1abb-406e-b3ba-7e6f17bb3054","system_id":"levelo_inurba_marseille","lat":43.290779,"lon":5.371482,"is_reserved":false,"is_disabled":false,"rental_uris":{"android":"levelo://app?vid=78a12042-1abb-406e-b3ba-7e6f17bb3054","ios":"levelo://app?vid=78a12042-1abb-406e-b3ba-7e6f17bb3054"},"vehicle_type_id":"4","last_reported":1685138765,"current_range_meters":0,"station_id":"ce4bh5p2rcd13ifvqe4g","pricing_plan_id":"free"},{"bike_id":"01f89ae4-6af3-4309-90e5-0b3a6bfdb489","system_id":"levelo_inurba_marseille","lat":43.290779,"lon":5.371482,"is_reserved":false,"is_disabled":false,"rental_uris":{"android":"levelo://app?vid=01f89ae4-6af3-4309-90e5-0b3a6bfdb489","ios":"levelo://app?vid=01f89ae4-6af3-4309-90e5-0b3a6bfdb489"},"vehicle_type_id":"4","last_reported":1685138765,"current_range_meters":0,"station_id":"ce4bh5p2rcd13ifvqe4g","pricing_plan_id":"free"},{"bike_id":"1def98d4-1744-4926-902d-391614b369f4","system_id":"levelo_inurba_marseille","lat":43.29152,"lon":5.38047,"is_reserved":false,"is_disabled":false,"rental_uris":{"android":"levelo://app?vid=1def98d4-1744-4926-902d-391614b369f4","ios":"levelo://app?vid=1def98d4-1744-4926-902d-391614b369f4"},"vehicle_type_id":"4","last_reported":1685138765,"current_range_meters":10400,"station_id":"","pricing_plan_id":"free"},{"bike_id":"51fa5962-7a98-4dd8-8a74-9dd6962ce124","system_id":"levelo_inurba_marseille","lat":43.292642,"lon":5.384254,"is_reserved":false,"is_disabled":false,"rental_uris":{"android":"levelo://app?vid=51fa5962-7a98-4dd8-8a74-9dd6962ce124","ios":"levelo://app?vid=51fa5962-7a98-4dd8-8a74-9dd6962ce124"},"vehicle_type_id":"4","last_reported":1685138765,"current_range_meters":1200,"station_id":"ce4bh692rcd13ifvqea0","pricing_plan_id":"free"},{"bike_id":"2ea7f55b-5485-4ba1-82d1-a96aeb8e7510","system_id":"levelo_inurba_marseille","lat":43.29262,"lon":5.38442,"is_reserved":false,"is_disabled":false,"rental_uris":{"android":"levelo://app?vid=2ea7f55b-5485-4ba1-82d1-a96aeb8e7510","ios":"levelo://app?vid=2ea7f55b-5485-4ba1-82d1-a96aeb8e7510"},"vehicle_type_id":"4","last_reported":1685138765,"current_range_meters":17600,"station_id":"ce4bh692rcd13ifvqea0","pricing_plan_id":"free"},{"bike_id":"27b00982-3b99-4fbc-9c5f-d015e098df02","system_id":"levelo_inurba_marseille","lat":43.2926,"lon":5.38446,"is_reserved":false,"is_disabled":false,"rental_uris":{"android":"levelo://app?vid=27b00982-3b99-4fbc-9c5f-d015e098df02","ios":"levelo://app?vid=27b00982-3b99-4fbc-9c5f-d015e098df02"},"vehicle_type_id":"4","last_reported":1685138765,"current_range_meters":31200,"station_id":"ce4bh692rcd13ifvqea0","pricing_plan_id":"free"},{"bike_id":"59881bb5-9631-44b8-9222-5b8036561342","system_id":"levelo_inurba_marseille","lat":43.29252,"lon":5.38447,"is_reserved":false,"is_disabled":false,"rental_uris":{"android":"levelo://app?vid=59881bb5-9631-44b8-9222-5b8036561342","ios":"levelo://app?vid=59881bb5-9631-44b8-9222-5b8036561342"},"vehicle_type_id":"4","last_reported":1685138765,"current_range_meters":30800,"station_id":"ce4bh692rcd13ifvqea0","pricing_plan_id":"free"},{"bike_id":"45965492-6db7-4b9c-828f-19d1b9ad4ff1","system_id":"levelo_inurba_marseille","lat":43.33048,"lon":5.38911,"is_reserved":false,"is_disabled":false,"rental_uris":{"android":"levelo://app?vid=45965492-6db7-4b9c-828f-19d1b9ad4ff1","ios":"levelo://app?vid=45965492-6db7-4b9c-828f-19d1b9ad4ff1"},"vehicle_type_id":"4","last_reported":1685138765,"current_range_meters":4000,"station_id":"ce4bhr92rcd13ifvqhrg","pricing_plan_id":"free"},{"bike_id":"351acc09-8a17-4508-bb95-e897624cde5b","system_id":"levelo_inurba_marseille","lat":43.33051,"lon":5.38912,"is_reserved":false,"is_disabled":false,"rental_uris":{"android":"levelo://app?vid=351acc09-8a17-4508-bb95-e897624cde5b","ios":"levelo://app?vid=351acc09-8a17-4508-bb95-e897624cde5b"},"vehicle_type_id":"4","last_reported":1685138765,"current_range_meters":6800,"station_id":"ce4bhr92rcd13ifvqhrg","pricing_plan_id":"free"},{"bike_id":"0946d748-7803-4433-a71f-5d9ea9a7286e","system_id":"levelo_inurba_marseille","lat":43.290991,"lon":5.381336,"is_reserved":false,"is_disabled":false,"rental_uris":{"android":"levelo://app?vid=0946d748-7803-4433-a71f-5d9ea9a7286e","ios":"levelo://app?vid=0946d748-7803-4433-a71f-5d9ea9a7286e"},"vehicle_type_id":"4","last_reported":1685138765,"current_range_meters":28400,"station_id":"","pricing_plan_id":"free"},{"bike_id":"25a6f4aa-ea4b-4c84-96a9-d3dd75621ddc","system_id":"levelo_inurba_marseille","lat":43.297814,"lon":5.393513,"is_reserved":false,"is_disabled":false,"rental_uris":{"android":"levelo://app?vid=25a6f4aa-ea4b-4c84-96a9-d3dd75621ddc","ios":"levelo://app?vid=25a6f4aa-ea4b-4c84-96a9-d3dd75621ddc"},"vehicle_type_id":"4","last_reported":1685138765,"current_range_meters":0,"station_id":"chh1huq6cuj3fo74tm60","pricing_plan_id":"free"},{"bike_id":"bb45c857-2d86-4c63-8298-4a794a05fde7","system_id":"levelo_inurba_marseille","lat":43.290958,"lon":5.381365,"is_reserved":false,"is_disabled":false,"rental_uris":{"android":"levelo://app?vid=bb45c857-2d86-4c63-8298-4a794a05fde7","ios":"levelo://app?vid=bb45c857-2d86-4c63-8298-4a794a05fde7"},"vehicle_type_id":"4","last_reported":1685138765,"current_range_meters":0,"station_id":"ce4bh512rcd13ifvqe2g","pricing_plan_id":"free"},{"bike_id":"92f33d53-00ff-4859-951d-6a7a5550435b","system_id":"levelo_inurba_marseille","lat":43.290995,"lon":5.381361,"is_reserved":false,"is_disabled":false,"rental_uris":{"android":"levelo://app?vid=92f33d53-00ff-4859-951d-6a7a5550435b","ios":"levelo://app?vid=92f33d53-00ff-4859-951d-6a7a5550435b"},"vehicle_type_id":"4","last_reported":1685138765,"current_range_meters":400,"station_id":"ce4bh512rcd13ifvqe2g","pricing_plan_id":"free"},{"bike_id":"2383a910-dcd3-461b-975a-8ed18c18572b","system_id":"levelo_inurba_marseille","lat":43.290931,"lon":5.381358,"is_reserved":false,"is_disabled":false,"rental_uris":{"android":"levelo://app?vid=2383a910-dcd3-461b-975a-8ed18c18572b","ios":"levelo://app?vid=2383a910-dcd3-461b-975a-8ed18c18572b"},"vehicle_type_id":"4","last_reported":1685138765,"current_range_meters":20000,"station_id":"ce4bh512rcd13ifvqe2g","pricing_plan_id":"free"},{"bike_id":"f93985a5-b44b-4fa4-b562-284e5a6d5cec","system_id":"levelo_inurba_marseille","lat":43.28864,"lon":5.35854,"is_reserved":false,"is_disabled":false,"rental_uris":{"android":"levelo://app?vid=f93985a5-b44b-4fa4-b562-284e5a6d5cec","ios":"levelo://app?vid=f93985a5-b44b-4fa4-b562-284e5a6d5cec"},"vehicle_type_id":"4","last_reported":1685138765,"current_range_meters":2000,"station_id":"ce4bhb12rcd13ifvqem0","pricing_plan_id":"free"},{"bike_id":"02362672-78e1-4667-9a77-d71f91f94365","system_id":"levelo_inurba_marseille","lat":43.33748,"lon":5.37434,"is_reserved":false,"is_disabled":false,"rental_uris":{"android":"levelo://app?vid=02362672-78e1-4667-9a77-d71f91f94365","ios":"levelo://app?vid=02362672-78e1-4667-9a77-d71f91f94365"},"vehicle_type_id":"4","last_reported":1685138765,"current_range_meters":18400,"station_id":"","pricing_plan_id":"free"},{"bike_id":"141c14ea-594b-43ee-894e-8c44af1dcd73","system_id":"levelo_inurba_marseille","lat":43.3375,"lon":5.37433,"is_reserved":false,"is_disabled":false,"rental_uris":{"android":"levelo://app?vid=141c14ea-594b-43ee-894e-8c44af1dcd73","ios":"levelo://app?vid=141c14ea-594b-43ee-894e-8c44af1dcd73"},"vehicle_type_id":"4","last_reported":1685138765,"current_range_meters":14000,"station_id":"","pricing_plan_id":"free"},{"bike_id":"556c6db1-2600-4c2b-9521-aae8453517c1","system_id":"levelo_inurba_marseille","lat":43.33754,"lon":5.37441,"is_reserved":false,"is_disabled":false,"rental_uris":{"android":"levelo://app?vid=556c6db1-2600-4c2b-9521-aae8453517c1","ios":"levelo://app?vid=556c6db1-2600-4c2b-9521-aae8453517c1"},"vehicle_type_id":"4","last_reported":1685138765,"current_range_meters":20400,"station_id":"","pricing_plan_id":"free"},{"bike_id":"31f720de-218a-4b5b-b0aa-c3e6fae4c874","system_id":"levelo_inurba_marseille","lat":43.30642,"lon":5.401031,"is_reserved":false,"is_disabled":false,"rental_uris":{"android":"levelo://app?vid=31f720de-218a-4b5b-b0aa-c3e6fae4c874","ios":"levelo://app?vid=31f720de-218a-4b5b-b0aa-c3e6fae4c874"},"vehicle_type_id":"4","last_reported":1685138765,"current_range_meters":30000,"station_id":"ce4bh112rcd13ifvqda0","pricing_plan_id":"free"},{"bike_id":"0f915385-1fd5-4f54-896c-f56a11a31d3d","system_id":"levelo_inurba_marseille","lat":43.33759,"lon":5.3743,"is_reserved":false,"is_disabled":false,"rental_uris":{"android":"levelo://app?vid=0f915385-1fd5-4f54-896c-f56a11a31d3d","ios":"levelo://app?vid=0f915385-1fd5-4f54-896c-f56a11a31d3d"},"vehicle_type_id":"4","last_reported":1685138765,"current_range_meters":21600,"station_id":"","pricing_plan_id":"free"},{"bike_id":"5232e414-de7a-4323-a120-c55243939717","system_id":"levelo_inurba_marseille","lat":43.30642,"lon":5.401031,"is_reserved":false,"is_disabled":false,"rental_uris":{"android":"levelo://app?vid=5232e414-de7a-4323-a120-c55243939717","ios":"levelo://app?vid=5232e414-de7a-4323-a120-c55243939717"},"vehicle_type_id":"4","last_reported":1685138765,"current_range_meters":3200,"station_id":"ce4bh112rcd13ifvqda0","pricing_plan_id":"free"},{"bike_id":"5bd96745-9a19-4fe7-b597-4db9cabdc957","system_id":"levelo_inurba_marseille","lat":43.33764,"lon":5.37431,"is_reserved":false,"is_disabled":false,"rental_uris":{"android":"levelo://app?vid=5bd96745-9a19-4fe7-b597-4db9cabdc957","ios":"levelo://app?vid=5bd96745-9a19-4fe7-b597-4db9cabdc957"},"vehicle_type_id":"4","last_reported":1685138765,"current_range_meters":28000,"station_id":"","pricing_plan_id":"free"},{"bike_id":"1490fad1-fe90-4399-a2f2-79545cf03a2b","system_id":"levelo_inurba_marseille","lat":43.337578,"lon":5.374791,"is_reserved":false,"is_disabled":false,"rental_uris":{"android":"levelo://app?vid=1490fad1-fe90-4399-a2f2-79545cf03a2b","ios":"levelo://app?vid=1490fad1-fe90-4399-a2f2-79545cf03a2b"},"vehicle_type_id":"4","last_reported":1685138765,"current_range_meters":30000,"station_id":"","pricing_plan_id":"free"},{"bike_id":"eb8ac404-8a95-4fc7-819a-ea19315069af","system_id":"levelo_inurba_marseille","lat":43.33767,"lon":5.37434,"is_reserved":false,"is_disabled":false,"rental_uris":{"android":"levelo://app?vid=eb8ac404-8a95-4fc7-819a-ea19315069af","ios":"levelo://app?vid=eb8ac404-8a95-4fc7-819a-ea19315069af"},"vehicle_type_id":"4","last_reported":1685138765,"current_range_meters":26400,"station_id":"","pricing_plan_id":"free"},{"bike_id":"2bf74030-4727-4c41-8398-1e2210bddb5b","system_id":"levelo_inurba_marseille","lat":43.30642,"lon":5.401031,"is_reserved":false,"is_disabled":false,"rental_uris":{"android":"levelo://app?vid=2bf74030-4727-4c41-8398-1e2210bddb5b","ios":"levelo://app?vid=2bf74030-4727-4c41-8398-1e2210bddb5b"},"vehicle_type_id":"4","last_reported":1685138765,"current_range_meters":0,"station_id":"ce4bh112rcd13ifvqda0","pricing_plan_id":"free"},{"bike_id":"467b4a4b-f7a3-4756-8001-45011518a8f6","system_id":"levelo_inurba_marseille","lat":43.298681,"lon":5.397225,"is_reserved":false,"is_disabled":false,"rental_uris":{"android":"levelo://app?vid=467b4a4b-f7a3-4756-8001-45011518a8f6","ios":"levelo://app?vid=467b4a4b-f7a3-4756-8001-45011518a8f6"},"vehicle_type_id":"4","last_reported":1685138765,"current_range_meters":0,"station_id":"ce4bh0h2rcd13ifvqd50","pricing_plan_id":"free"},{"bike_id":"4d10c0e5-929e-4710-8c03-e1ff207f124f","system_id":"levelo_inurba_marseille","lat":43.298681,"lon":5.397225,"is_reserved":false,"is_disabled":false,"rental_uris":{"android":"levelo://app?vid=4d10c0e5-929e-4710-8c03-e1ff207f124f","ios":"levelo://app?vid=4d10c0e5-929e-4710-8c03-e1ff207f124f"},"vehicle_type_id":"4","last_reported":1685138765,"current_range_meters":26000,"station_id":"ce4bh0h2rcd13ifvqd50","pricing_plan_id":"free"},{"bike_id":"574c866f-1377-4236-9e04-ab7908068d7b","system_id":"levelo_inurba_marseille","lat":43.29031,"lon":5.38642,"is_reserved":false,"is_disabled":false,"rental_uris":{"android":"levelo://app?vid=574c866f-1377-4236-9e04-ab7908068d7b","ios":"levelo://app?vid=574c866f-1377-4236-9e04-ab7908068d7b"},"vehicle_type_id":"4","last_reported":1685138765,"current_range_meters":22000,"station_id":"ce4bh4p2rcd13ifvqe0g","pricing_plan_id":"free"},{"bike_id":"7346c7f1-4c3d-4c04-8005-5bdb1c2b82f3","system_id":"levelo_inurba_marseille","lat":43.290336,"lon":5.386425,"is_reserved":false,"is_disabled":false,"rental_uris":{"android":"levelo://app?vid=7346c7f1-4c3d-4c04-8005-5bdb1c2b82f3","ios":"levelo://app?vid=7346c7f1-4c3d-4c04-8005-5bdb1c2b82f3"},"vehicle_type_id":"4","last_reported":1685138765,"current_range_meters":5600,"station_id":"ce4bh4p2rcd13ifvqe0g","pricing_plan_id":"free"},{"bike_id":"3e2808df-2835-407b-a81f-c3d5a6a19e85","system_id":"levelo_inurba_marseille","lat":43.30238,"lon":5.40052,"is_reserved":false,"is_disabled":false,"rental_uris":{"android":"levelo://app?vid=3e2808df-2835-407b-a81f-c3d5a6a19e85","ios":"levelo://app?vid=3e2808df-2835-407b-a81f-c3d5a6a19e85"},"vehicle_type_id":"4","last_reported":1685138765,"current_range_meters":0,"station_id":"","pricing_plan_id":"free"},{"bike_id":"12312b66-8d1d-4f63-a714-acf38f566b26","system_id":"levelo_inurba_marseille","lat":43.290345,"lon":5.38646,"is_reserved":false,"is_disabled":false,"rental_uris":{"android":"levelo://app?vid=12312b66-8d1d-4f63-a714-acf38f566b26","ios":"levelo://app?vid=12312b66-8d1d-4f63-a714-acf38f566b26"},"vehicle_type_id":"4","last_reported":1685138765,"current_range_meters":20400,"station_id":"ce4bh4p2rcd13ifvqe0g","pricing_plan_id":"free"},{"bike_id":"d6705ce2-8996-43f3-90db-ad31b2f1e87b","system_id":"levelo_inurba_marseille","lat":43.30245,"lon":5.4006,"is_reserved":false,"is_disabled":false,"rental_uris":{"android":"levelo://app?vid=d6705ce2-8996-43f3-90db-ad31b2f1e87b","ios":"levelo://app?vid=d6705ce2-8996-43f3-90db-ad31b2f1e87b"},"vehicle_type_id":"4","last_reported":1685138765,"current_range_meters":0,"station_id":"","pricing_plan_id":"free"},{"bike_id":"c90037cd-a76f-4d3e-8909-e4e10cbd2318","system_id":"levelo_inurba_marseille","lat":43.30243,"lon":5.40062,"is_reserved":false,"is_disabled":false,"rental_uris":{"android":"levelo://app?vid=c90037cd-a76f-4d3e-8909-e4e10cbd2318","ios":"levelo://app?vid=c90037cd-a76f-4d3e-8909-e4e10cbd2318"},"vehicle_type_id":"4","last_reported":1685138765,"current_range_meters":6000,"station_id":"","pricing_plan_id":"free"},{"bike_id":"09408b44-fda1-40b6-b744-3b96e5269b2e","system_id":"levelo_inurba_marseille","lat":43.292724,"lon":5.401131,"is_reserved":false,"is_disabled":false,"rental_uris":{"android":"levelo://app?vid=09408b44-fda1-40b6-b744-3b96e5269b2e","ios":"levelo://app?vid=09408b44-fda1-40b6-b744-3b96e5269b2e"},"vehicle_type_id":"4","last_reported":1685138765,"current_range_meters":5200,"station_id":"ce4bh312rcd13ifvqdk0","pricing_plan_id":"free"},{"bike_id":"cc9109b3-cf80-44ee-93c9-22187c91c73e","system_id":"levelo_inurba_marseille","lat":43.286,"lon":5.37053,"is_reserved":false,"is_disabled":false,"rental_uris":{"android":"levelo://app?vid=cc9109b3-cf80-44ee-93c9-22187c91c73e","ios":"levelo://app?vid=cc9109b3-cf80-44ee-93c9-22187c91c73e"},"vehicle_type_id":"4","last_reported":1685138765,"current_range_meters":2800,"station_id":"ce4bht12rcd13ifvqi60","pricing_plan_id":"free"},{"bike_id":"f9ddc6be-9649-48bf-9675-35f6871cfd7b","system_id":"levelo_inurba_marseille","lat":43.287184,"lon":5.37937,"is_reserved":false,"is_disabled":false,"rental_uris":{"android":"levelo://app?vid=f9ddc6be-9649-48bf-9675-35f6871cfd7b","ios":"levelo://app?vid=f9ddc6be-9649-48bf-9675-35f6871cfd7b"},"vehicle_type_id":"4","last_reported":1685138765,"current_range_meters":0,"station_id":"ce4bh9p2rcd13ifvqec0","pricing_plan_id":"free"},{"bike_id":"ec7bbe5d-e96d-491b-b5fd-bcc1d11d583f","system_id":"levelo_inurba_marseille","lat":43.28729,"lon":5.37936,"is_reserved":false,"is_disabled":false,"rental_uris":{"android":"levelo://app?vid=ec7bbe5d-e96d-491b-b5fd-bcc1d11d583f","ios":"levelo://app?vid=ec7bbe5d-e96d-491b-b5fd-bcc1d11d583f"},"vehicle_type_id":"4","last_reported":1685138765,"current_range_meters":0,"station_id":"ce4bh9p2rcd13ifvqec0","pricing_plan_id":"free"},{"bike_id":"25f47f24-e7cf-4d36-b790-f2cf3d18d10f","system_id":"levelo_inurba_marseille","lat":43.291994,"lon":5.392907,"is_reserved":false,"is_disabled":false,"rental_uris":{"android":"levelo://app?vid=25f47f24-e7cf-4d36-b790-f2cf3d18d10f","ios":"levelo://app?vid=25f47f24-e7cf-4d36-b790-f2cf3d18d10f"},"vehicle_type_id":"4","last_reported":1685138765,"current_range_meters":800,"station_id":"ce4bh192rcd13ifvqdd0","pricing_plan_id":"free"},{"bike_id":"b2b4c97d-4feb-49ce-8ac2-9614480a179c","system_id":"levelo_inurba_marseille","lat":43.323464,"lon":5.406297,"is_reserved":false,"is_disabled":false,"rental_uris":{"android":"levelo://app?vid=b2b4c97d-4feb-49ce-8ac2-9614480a179c","ios":"levelo://app?vid=b2b4c97d-4feb-49ce-8ac2-9614480a179c"},"vehicle_type_id":"4","last_reported":1685138765,"current_range_meters":22000,"station_id":"ce4bhq92rcd13ifvqhjg","pricing_plan_id":"free"},{"bike_id":"5371bbd7-c92f-4fd0-bddb-eca2c7cd5808","system_id":"levelo_inurba_marseille","lat":43.323464,"lon":5.406297,"is_reserved":false,"is_disabled":false,"rental_uris":{"android":"levelo://app?vid=5371bbd7-c92f-4fd0-bddb-eca2c7cd5808","ios":"levelo://app?vid=5371bbd7-c92f-4fd0-bddb-eca2c7cd5808"},"vehicle_type_id":"4","last_reported":1685138765,"current_range_meters":31600,"station_id":"ce4bhq92rcd13ifvqhjg","pricing_plan_id":"free"},{"bike_id":"d5fd31a8-b7a4-48f5-9751-f4ba7b16e78e","system_id":"levelo_inurba_marseille","lat":43.323464,"lon":5.406297,"is_reserved":false,"is_disabled":false,"rental_uris":{"android":"levelo://app?vid=d5fd31a8-b7a4-48f5-9751-f4ba7b16e78e","ios":"levelo://app?vid=d5fd31a8-b7a4-48f5-9751-f4ba7b16e78e"},"vehicle_type_id":"4","last_reported":1685138765,"current_range_meters":31600,"station_id":"ce4bhq92rcd13ifvqhjg","pricing_plan_id":"free"},{"bike_id":"05535726-18cf-4c4e-a127-a20c64b49b2f","system_id":"levelo_inurba_marseille","lat":43.288501,"lon":5.393087,"is_reserved":false,"is_disabled":false,"rental_uris":{"android":"levelo://app?vid=05535726-18cf-4c4e-a127-a20c64b49b2f","ios":"levelo://app?vid=05535726-18cf-4c4e-a127-a20c64b49b2f"},"vehicle_type_id":"4","last_reported":1685138765,"current_range_meters":21600,"station_id":"ce4bh2p2rcd13ifvqdi0","pricing_plan_id":"free"},{"bike_id":"a54c0a1e-47ff-4ddc-8250-f565d379869f","system_id":"levelo_inurba_marseille","lat":43.283498,"lon":5.380948,"is_reserved":false,"is_disabled":false,"rental_uris":{"android":"levelo://app?vid=a54c0a1e-47ff-4ddc-8250-f565d379869f","ios":"levelo://app?vid=a54c0a1e-47ff-4ddc-8250-f565d379869f"},"vehicle_type_id":"4","last_reported":1685138765,"current_range_meters":16400,"station_id":"ce4bh412rcd13ifvqdr0","pricing_plan_id":"free"},{"bike_id":"c4e585b5-9266-4970-b642-7a52215d349d","system_id":"levelo_inurba_marseille","lat":43.28416,"lon":5.34982,"is_reserved":false,"is_disabled":false,"rental_uris":{"android":"levelo://app?vid=c4e585b5-9266-4970-b642-7a52215d349d","ios":"levelo://app?vid=c4e585b5-9266-4970-b642-7a52215d349d"},"vehicle_type_id":"4","last_reported":1685138765,"current_range_meters":0,"station_id":"ce4bhbh2rcd13ifvqepg","pricing_plan_id":"free"},{"bike_id":"4d86ce40-e406-44d0-9e2e-59dcfae65e59","system_id":"levelo_inurba_marseille","lat":43.29041,"lon":5.39947,"is_reserved":false,"is_disabled":false,"rental_uris":{"android":"levelo://app?vid=4d86ce40-e406-44d0-9e2e-59dcfae65e59","ios":"levelo://app?vid=4d86ce40-e406-44d0-9e2e-59dcfae65e59"},"vehicle_type_id":"4","last_reported":1685138765,"current_range_meters":0,"station_id":"ce4bh392rcd13ifvqdm0","pricing_plan_id":"free"},{"bike_id":"9d05700c-8ed6-4701-8c6e-3df90d5a5eb5","system_id":"levelo_inurba_marseille","lat":43.281044,"lon":5.378308,"is_reserved":false,"is_disabled":false,"rental_uris":{"android":"levelo://app?vid=9d05700c-8ed6-4701-8c6e-3df90d5a5eb5","ios":"levelo://app?vid=9d05700c-8ed6-4701-8c6e-3df90d5a5eb5"},"vehicle_type_id":"4","last_reported":1685138765,"current_range_meters":28400,"station_id":"ce4bha12rcd13ifvqee0","pricing_plan_id":"free"},{"bike_id":"02a6fc98-a76d-410e-847a-f73467d55c6f","system_id":"levelo_inurba_marseille","lat":43.296263,"lon":5.40601,"is_reserved":false,"is_disabled":false,"rental_uris":{"android":"levelo://app?vid=02a6fc98-a76d-410e-847a-f73467d55c6f","ios":"levelo://app?vid=02a6fc98-a76d-410e-847a-f73467d55c6f"},"vehicle_type_id":"4","last_reported":1685138765,"current_range_meters":6400,"station_id":"ce4bh0h2rcd13ifvqd60","pricing_plan_id":"free"},{"bike_id":"2f42fb67-7e50-4a9a-be8a-e4b1dab1832d","system_id":"levelo_inurba_marseille","lat":43.281044,"lon":5.378308,"is_reserved":false,"is_disabled":false,"rental_uris":{"android":"levelo://app?vid=2f42fb67-7e50-4a9a-be8a-e4b1dab1832d","ios":"levelo://app?vid=2f42fb67-7e50-4a9a-be8a-e4b1dab1832d"},"vehicle_type_id":"4","last_reported":1685138765,"current_range_meters":8400,"station_id":"ce4bha12rcd13ifvqee0","pricing_plan_id":"free"},{"bike_id":"0e1e0293-0442-42b3-aee6-e82a67c0d377","system_id":"levelo_inurba_marseille","lat":43.296263,"lon":5.40601,"is_reserved":false,"is_disabled":false,"rental_uris":{"android":"levelo://app?vid=0e1e0293-0442-42b3-aee6-e82a67c0d377","ios":"levelo://app?vid=0e1e0293-0442-42b3-aee6-e82a67c0d377"},"vehicle_type_id":"4","last_reported":1685138765,"current_range_meters":9200,"station_id":"ce4bh0h2rcd13ifvqd60","pricing_plan_id":"free"},{"bike_id":"976254bc-d84c-40e7-88b6-52c03416c965","system_id":"levelo_inurba_marseille","lat":43.32136,"lon":5.41078,"is_reserved":false,"is_disabled":false,"rental_uris":{"android":"levelo://app?vid=976254bc-d84c-40e7-88b6-52c03416c965","ios":"levelo://app?vid=976254bc-d84c-40e7-88b6-52c03416c965"},"vehicle_type_id":"4","last_reported":1685138765,"current_range_meters":11200,"station_id":"","pricing_plan_id":"free"},{"bike_id":"963fb504-2c2f-410f-8f62-0c31f56762be","system_id":"levelo_inurba_marseille","lat":43.284462,"lon":5.392121,"is_reserved":false,"is_disabled":false,"rental_uris":{"android":"levelo://app?vid=963fb504-2c2f-410f-8f62-0c31f56762be","ios":"levelo://app?vid=963fb504-2c2f-410f-8f62-0c31f56762be"},"vehicle_type_id":"4","last_reported":1685138765,"current_range_meters":0,"station_id":"ce4bhoh2rcd13ifvqh5g","pricing_plan_id":"free"},{"bike_id":"de4fd8b1-fd04-4ce8-a388-f59c5a67678d","system_id":"levelo_inurba_marseille","lat":43.284462,"lon":5.392121,"is_reserved":false,"is_disabled":false,"rental_uris":{"android":"levelo://app?vid=de4fd8b1-fd04-4ce8-a388-f59c5a67678d","ios":"levelo://app?vid=de4fd8b1-fd04-4ce8-a388-f59c5a67678d"},"vehicle_type_id":"4","last_reported":1685138765,"current_range_meters":0,"station_id":"ce4bhoh2rcd13ifvqh5g","pricing_plan_id":"free"},{"bike_id":"12ed4811-d4f0-43aa-9a13-aa3cc3c6a097","system_id":"levelo_inurba_marseille","lat":43.27903,"lon":5.38008,"is_reserved":false,"is_disabled":false,"rental_uris":{"android":"levelo://app?vid=12ed4811-d4f0-43aa-9a13-aa3cc3c6a097","ios":"levelo://app?vid=12ed4811-d4f0-43aa-9a13-aa3cc3c6a097"},"vehicle_type_id":"4","last_reported":1685138765,"current_range_meters":0,"station_id":"","pricing_plan_id":"free"},{"bike_id":"43dcc7f7-48f1-404c-b9e5-cfdfde26f758","system_id":"levelo_inurba_marseille","lat":43.287154,"lon":5.399979,"is_reserved":false,"is_disabled":false,"rental_uris":{"android":"levelo://app?vid=43dcc7f7-48f1-404c-b9e5-cfdfde26f758","ios":"levelo://app?vid=43dcc7f7-48f1-404c-b9e5-cfdfde26f758"},"vehicle_type_id":"4","last_reported":1685138765,"current_range_meters":4000,"station_id":"ce4bho92rcd13ifvqh3g","pricing_plan_id":"free"},{"bike_id":"d5481f23-2e90-49e5-90f9-50629faff775","system_id":"levelo_inurba_marseille","lat":43.287154,"lon":5.399979,"is_reserved":false,"is_disabled":false,"rental_uris":{"android":"levelo://app?vid=d5481f23-2e90-49e5-90f9-50629faff775","ios":"levelo://app?vid=d5481f23-2e90-49e5-90f9-50629faff775"},"vehicle_type_id":"4","last_reported":1685138765,"current_range_meters":30400,"station_id":"ce4bho92rcd13ifvqh3g","pricing_plan_id":"free"},{"bike_id":"ac3963b2-be8c-498c-ae2f-09e027148ade","system_id":"levelo_inurba_marseille","lat":43.287061,"lon":5.399911,"is_reserved":false,"is_disabled":false,"rental_uris":{"android":"levelo://app?vid=ac3963b2-be8c-498c-ae2f-09e027148ade","ios":"levelo://app?vid=ac3963b2-be8c-498c-ae2f-09e027148ade"},"vehicle_type_id":"4","last_reported":1685138765,"current_range_meters":7200,"station_id":"","pricing_plan_id":"free"},{"bike_id":"2ae5ada2-7875-4056-a935-955d6e721c13","system_id":"levelo_inurba_marseille","lat":43.320045,"lon":5.415046,"is_reserved":false,"is_disabled":false,"rental_uris":{"android":"levelo://app?vid=2ae5ada2-7875-4056-a935-955d6e721c13","ios":"levelo://app?vid=2ae5ada2-7875-4056-a935-955d6e721c13"},"vehicle_type_id":"4","last_reported":1685138765,"current_range_meters":400,"station_id":"ce4bhq92rcd13ifvqhkg","pricing_plan_id":"free"},{"bike_id":"4c671eb8-dc8c-4794-8182-cf8accdce86f","system_id":"levelo_inurba_marseille","lat":43.279742,"lon":5.38744,"is_reserved":false,"is_disabled":false,"rental_uris":{"android":"levelo://app?vid=4c671eb8-dc8c-4794-8182-cf8accdce86f","ios":"levelo://app?vid=4c671eb8-dc8c-4794-8182-cf8accdce86f"},"vehicle_type_id":"4","last_reported":1685138765,"current_range_meters":0,"station_id":"ce4bhg12rcd13ifvqf80","pricing_plan_id":"free"},{"bike_id":"c5f6d60b-4a28-4691-be70-4ff8a287ccd9","system_id":"levelo_inurba_marseille","lat":43.279742,"lon":5.38744,"is_reserved":false,"is_disabled":false,"rental_uris":{"android":"levelo://app?vid=c5f6d60b-4a28-4691-be70-4ff8a287ccd9","ios":"levelo://app?vid=c5f6d60b-4a28-4691-be70-4ff8a287ccd9"},"vehicle_type_id":"4","last_reported":1685138765,"current_range_meters":800,"station_id":"ce4bhg12rcd13ifvqf80","pricing_plan_id":"free"},{"bike_id":"4635e896-2677-40e5-88f6-5726e4724eda","system_id":"levelo_inurba_marseille","lat":43.279742,"lon":5.38744,"is_reserved":false,"is_disabled":false,"rental_uris":{"android":"levelo://app?vid=4635e896-2677-40e5-88f6-5726e4724eda","ios":"levelo://app?vid=4635e896-2677-40e5-88f6-5726e4724eda"},"vehicle_type_id":"4","last_reported":1685138765,"current_range_meters":800,"station_id":"ce4bhg12rcd13ifvqf80","pricing_plan_id":"free"},{"bike_id":"c1acd907-35bf-4420-a404-48470f083a98","system_id":"levelo_inurba_marseille","lat":43.292571,"lon":5.409107,"is_reserved":false,"is_disabled":false,"rental_uris":{"android":"levelo://app?vid=c1acd907-35bf-4420-a404-48470f083a98","ios":"levelo://app?vid=c1acd907-35bf-4420-a404-48470f083a98"},"vehicle_type_id":"4","last_reported":1685138765,"current_range_meters":3600,"station_id":"ce4bh192rcd13ifvqdc0","pricing_plan_id":"free"},{"bike_id":"a16e1caf-4f69-4f06-87e7-bb40cd98823a","system_id":"levelo_inurba_marseille","lat":43.292571,"lon":5.409107,"is_reserved":false,"is_disabled":false,"rental_uris":{"android":"levelo://app?vid=a16e1caf-4f69-4f06-87e7-bb40cd98823a","ios":"levelo://app?vid=a16e1caf-4f69-4f06-87e7-bb40cd98823a"},"vehicle_type_id":"4","last_reported":1685138765,"current_range_meters":15600,"station_id":"ce4bh192rcd13ifvqdc0","pricing_plan_id":"free"},{"bike_id":"636d0941-2607-4659-948f-3ae740d680f8","system_id":"levelo_inurba_marseille","lat":43.27616,"lon":5.36111,"is_reserved":false,"is_disabled":false,"rental_uris":{"android":"levelo://app?vid=636d0941-2607-4659-948f-3ae740d680f8","ios":"levelo://app?vid=636d0941-2607-4659-948f-3ae740d680f8"},"vehicle_type_id":"4","last_reported":1685138765,"current_range_meters":27600,"station_id":"ce4bgj92rcd13ifvqbe0","pricing_plan_id":"free"},{"bike_id":"a79f82ac-790e-4444-9f2e-bf44c6c40821","system_id":"levelo_inurba_marseille","lat":43.278399,"lon":5.392139,"is_reserved":false,"is_disabled":false,"rental_uris":{"android":"levelo://app?vid=a79f82ac-790e-4444-9f2e-bf44c6c40821","ios":"levelo://app?vid=a79f82ac-790e-4444-9f2e-bf44c6c40821"},"vehicle_type_id":"4","last_reported":1685138765,"current_range_meters":14800,"station_id":"ce4bhjp2rcd13ifvqga0","pricing_plan_id":"free"},{"bike_id":"e93bbde3-425b-42a9-8225-2f80622797b0","system_id":"levelo_inurba_marseille","lat":43.278401,"lon":5.392152,"is_reserved":false,"is_disabled":false,"rental_uris":{"android":"levelo://app?vid=e93bbde3-425b-42a9-8225-2f80622797b0","ios":"levelo://app?vid=e93bbde3-425b-42a9-8225-2f80622797b0"},"vehicle_type_id":"4","last_reported":1685138765,"current_range_meters":0,"station_id":"ce4bhjp2rcd13ifvqga0","pricing_plan_id":"free"},{"bike_id":"5e2a4fab-1ddf-4141-9247-52fe1cbcde41","system_id":"levelo_inurba_marseille","lat":43.278399,"lon":5.392139,"is_reserved":false,"is_disabled":false,"rental_uris":{"android":"levelo://app?vid=5e2a4fab-1ddf-4141-9247-52fe1cbcde41","ios":"levelo://app?vid=5e2a4fab-1ddf-4141-9247-52fe1cbcde41"},"vehicle_type_id":"4","last_reported":1685138765,"current_range_meters":0,"station_id":"ce4bhjp2rcd13ifvqga0","pricing_plan_id":"free"},{"bike_id":"687671f7-bd05-4553-8da1-82e09bf12188","system_id":"levelo_inurba_marseille","lat":43.278401,"lon":5.392152,"is_reserved":false,"is_disabled":false,"rental_uris":{"android":"levelo://app?vid=687671f7-bd05-4553-8da1-82e09bf12188","ios":"levelo://app?vid=687671f7-bd05-4553-8da1-82e09bf12188"},"vehicle_type_id":"4","last_reported":1685138765,"current_range_meters":7200,"station_id":"ce4bhjp2rcd13ifvqga0","pricing_plan_id":"free"},{"bike_id":"65aa9ce0-a2ca-4028-8eb6-289aaf4cd8bc","system_id":"levelo_inurba_marseille","lat":43.278399,"lon":5.392139,"is_reserved":false,"is_disabled":false,"rental_uris":{"android":"levelo://app?vid=65aa9ce0-a2ca-4028-8eb6-289aaf4cd8bc","ios":"levelo://app?vid=65aa9ce0-a2ca-4028-8eb6-289aaf4cd8bc"},"vehicle_type_id":"4","last_reported":1685138765,"current_range_meters":3600,"station_id":"ce4bhjp2rcd13ifvqga0","pricing_plan_id":"free"},{"bike_id":"ce11a5cb-89e9-4f2f-b3e2-14799f0a90fa","system_id":"levelo_inurba_marseille","lat":43.278399,"lon":5.392139,"is_reserved":false,"is_disabled":false,"rental_uris":{"android":"levelo://app?vid=ce11a5cb-89e9-4f2f-b3e2-14799f0a90fa","ios":"levelo://app?vid=ce11a5cb-89e9-4f2f-b3e2-14799f0a90fa"},"vehicle_type_id":"4","last_reported":1685138765,"current_range_meters":400,"station_id":"ce4bhjp2rcd13ifvqga0","pricing_plan_id":"free"},{"bike_id":"721db80b-3ea5-41ce-9323-11c0b53abcc1","system_id":"levelo_inurba_marseille","lat":43.273609,"lon":5.362708,"is_reserved":false,"is_disabled":false,"rental_uris":{"android":"levelo://app?vid=721db80b-3ea5-41ce-9323-11c0b53abcc1","ios":"levelo://app?vid=721db80b-3ea5-41ce-9323-11c0b53abcc1"},"vehicle_type_id":"4","last_reported":1685138765,"current_range_meters":0,"station_id":"ce4bhbh2rcd13ifvqeo0","pricing_plan_id":"free"},{"bike_id":"65d706ef-3409-418d-b88f-b5af1c633b67","system_id":"levelo_inurba_marseille","lat":43.276769,"lon":5.388787,"is_reserved":false,"is_disabled":false,"rental_uris":{"android":"levelo://app?vid=65d706ef-3409-418d-b88f-b5af1c633b67","ios":"levelo://app?vid=65d706ef-3409-418d-b88f-b5af1c633b67"},"vehicle_type_id":"4","last_reported":1685138765,"current_range_meters":12800,"station_id":"ce4bhi12rcd13ifvqfo0","pricing_plan_id":"free"},{"bike_id":"1b3a9706-1d75-49da-b04f-a8d2d21f8a41","system_id":"levelo_inurba_marseille","lat":43.31084,"lon":5.42427,"is_reserved":false,"is_disabled":false,"rental_uris":{"android":"levelo://app?vid=1b3a9706-1d75-49da-b04f-a8d2d21f8a41","ios":"levelo://app?vid=1b3a9706-1d75-49da-b04f-a8d2d21f8a41"},"vehicle_type_id":"4","last_reported":1685138765,"current_range_meters":28000,"station_id":"ce4bhp92rcd13ifvqhag","pricing_plan_id":"free"},{"bike_id":"ddf01628-103a-4378-9f72-cdb7d25b5e88","system_id":"levelo_inurba_marseille","lat":43.273125,"lon":5.390731,"is_reserved":false,"is_disabled":false,"rental_uris":{"android":"levelo://app?vid=ddf01628-103a-4378-9f72-cdb7d25b5e88","ios":"levelo://app?vid=ddf01628-103a-4378-9f72-cdb7d25b5e88"},"vehicle_type_id":"4","last_reported":1685138765,"current_range_meters":1600,"station_id":"ce4bhgp2rcd13ifvqfe0","pricing_plan_id":"free"},{"bike_id":"767501bf-9e02-4ea0-9a16-7b863af6cb9c","system_id":"levelo_inurba_marseille","lat":43.304096,"lon":5.425385,"is_reserved":false,"is_disabled":false,"rental_uris":{"android":"levelo://app?vid=767501bf-9e02-4ea0-9a16-7b863af6cb9c","ios":"levelo://app?vid=767501bf-9e02-4ea0-9a16-7b863af6cb9c"},"vehicle_type_id":"4","last_reported":1685138765,"current_range_meters":21600,"station_id":"ce4bhoh2rcd13ifvqh6g","pricing_plan_id":"free"},{"bike_id":"679930e3-a79e-4d40-8ff8-e2b468608024","system_id":"levelo_inurba_marseille","lat":43.304096,"lon":5.425385,"is_reserved":false,"is_disabled":false,"rental_uris":{"android":"levelo://app?vid=679930e3-a79e-4d40-8ff8-e2b468608024","ios":"levelo://app?vid=679930e3-a79e-4d40-8ff8-e2b468608024"},"vehicle_type_id":"4","last_reported":1685138765,"current_range_meters":26400,"station_id":"ce4bhoh2rcd13ifvqh6g","pricing_plan_id":"free"},{"bike_id":"fd336a87-11d4-4c23-b8a0-d0e0f21ac341","system_id":"levelo_inurba_marseille","lat":43.304096,"lon":5.425385,"is_reserved":false,"is_disabled":false,"rental_uris":{"android":"levelo://app?vid=fd336a87-11d4-4c23-b8a0-d0e0f21ac341","ios":"levelo://app?vid=fd336a87-11d4-4c23-b8a0-d0e0f21ac341"},"vehicle_type_id":"4","last_reported":1685138765,"current_range_meters":7200,"station_id":"ce4bhoh2rcd13ifvqh6g","pricing_plan_id":"free"},{"bike_id":"d22f36e7-212a-4ec8-b2cd-cc7905ed30e8","system_id":"levelo_inurba_marseille","lat":43.304096,"lon":5.425385,"is_reserved":false,"is_disabled":false,"rental_uris":{"android":"levelo://app?vid=d22f36e7-212a-4ec8-b2cd-cc7905ed30e8","ios":"levelo://app?vid=d22f36e7-212a-4ec8-b2cd-cc7905ed30e8"},"vehicle_type_id":"4","last_reported":1685138765,"current_range_meters":31200,"station_id":"ce4bhoh2rcd13ifvqh6g","pricing_plan_id":"free"},{"bike_id":"7631a483-305f-4665-9171-e3a805f9fb2f","system_id":"levelo_inurba_marseille","lat":43.30413,"lon":5.42541,"is_reserved":false,"is_disabled":false,"rental_uris":{"android":"levelo://app?vid=7631a483-305f-4665-9171-e3a805f9fb2f","ios":"levelo://app?vid=7631a483-305f-4665-9171-e3a805f9fb2f"},"vehicle_type_id":"4","last_reported":1685138765,"current_range_meters":28000,"station_id":"ce4bhoh2rcd13ifvqh6g","pricing_plan_id":"free"},{"bike_id":"90f11800-b668-4300-9d98-e81adec919a5","system_id":"levelo_inurba_marseille","lat":43.304096,"lon":5.425385,"is_reserved":false,"is_disabled":false,"rental_uris":{"android":"levelo://app?vid=90f11800-b668-4300-9d98-e81adec919a5","ios":"levelo://app?vid=90f11800-b668-4300-9d98-e81adec919a5"},"vehicle_type_id":"4","last_reported":1685138765,"current_range_meters":30000,"station_id":"ce4bhoh2rcd13ifvqh6g","pricing_plan_id":"free"},{"bike_id":"aa48024b-638e-4c91-8341-bb88b8e8aa05","system_id":"levelo_inurba_marseille","lat":43.295511,"lon":5.422926,"is_reserved":false,"is_disabled":false,"rental_uris":{"android":"levelo://app?vid=aa48024b-638e-4c91-8341-bb88b8e8aa05","ios":"levelo://app?vid=aa48024b-638e-4c91-8341-bb88b8e8aa05"},"vehicle_type_id":"4","last_reported":1685138765,"current_range_meters":0,"station_id":"ce4bhph2rcd13ifvqhdg","pricing_plan_id":"free"},{"bike_id":"6d713c6e-b9c6-4bb9-9970-dd3ec8ae03ba","system_id":"levelo_inurba_marseille","lat":43.295511,"lon":5.422926,"is_reserved":false,"is_disabled":false,"rental_uris":{"android":"levelo://app?vid=6d713c6e-b9c6-4bb9-9970-dd3ec8ae03ba","ios":"levelo://app?vid=6d713c6e-b9c6-4bb9-9970-dd3ec8ae03ba"},"vehicle_type_id":"4","last_reported":1685138765,"current_range_meters":5200,"station_id":"ce4bhph2rcd13ifvqhdg","pricing_plan_id":"free"},{"bike_id":"de79f32b-5b48-49af-978b-7aeae2c3cc2e","system_id":"levelo_inurba_marseille","lat":43.295523,"lon":5.422926,"is_reserved":false,"is_disabled":false,"rental_uris":{"android":"levelo://app?vid=de79f32b-5b48-49af-978b-7aeae2c3cc2e","ios":"levelo://app?vid=de79f32b-5b48-49af-978b-7aeae2c3cc2e"},"vehicle_type_id":"4","last_reported":1685138765,"current_range_meters":0,"station_id":"ce4bhph2rcd13ifvqhdg","pricing_plan_id":"free"},{"bike_id":"68d7c925-39ba-4ba8-8f44-3bee47422994","system_id":"levelo_inurba_marseille","lat":43.278128,"lon":5.407195,"is_reserved":false,"is_disabled":false,"rental_uris":{"android":"levelo://app?vid=68d7c925-39ba-4ba8-8f44-3bee47422994","ios":"levelo://app?vid=68d7c925-39ba-4ba8-8f44-3bee47422994"},"vehicle_type_id":"4","last_reported":1685138765,"current_range_meters":2800,"station_id":"ce4bhnh2rcd13ifvqgtg","pricing_plan_id":"free"},{"bike_id":"de3a8f84-22e2-4639-8b7c-600a488f198b","system_id":"levelo_inurba_marseille","lat":43.278128,"lon":5.407195,"is_reserved":false,"is_disabled":false,"rental_uris":{"android":"levelo://app?vid=de3a8f84-22e2-4639-8b7c-600a488f198b","ios":"levelo://app?vid=de3a8f84-22e2-4639-8b7c-600a488f198b"},"vehicle_type_id":"4","last_reported":1685138765,"current_range_meters":18800,"station_id":"ce4bhnh2rcd13ifvqgtg","pricing_plan_id":"free"},{"bike_id":"614a60d1-69e3-49b8-a11e-6538932cc002","system_id":"levelo_inurba_marseille","lat":43.26841,"lon":5.39329,"is_reserved":false,"is_disabled":false,"rental_uris":{"android":"levelo://app?vid=614a60d1-69e3-49b8-a11e-6538932cc002","ios":"levelo://app?vid=614a60d1-69e3-49b8-a11e-6538932cc002"},"vehicle_type_id":"4","last_reported":1685138765,"current_range_meters":6400,"station_id":"","pricing_plan_id":"free"},{"bike_id":"16ad52e3-f067-413c-b4f3-ef3b2eceb8d3","system_id":"levelo_inurba_marseille","lat":43.267966,"lon":5.393976,"is_reserved":false,"is_disabled":false,"rental_uris":{"android":"levelo://app?vid=16ad52e3-f067-413c-b4f3-ef3b2eceb8d3","ios":"levelo://app?vid=16ad52e3-f067-413c-b4f3-ef3b2eceb8d3"},"vehicle_type_id":"4","last_reported":1685138765,"current_range_meters":10000,"station_id":"ce4bhh12rcd13ifvqfg0","pricing_plan_id":"free"},{"bike_id":"b35a7040-bbda-43db-9397-f046555e255b","system_id":"levelo_inurba_marseille","lat":43.308,"lon":5.43517,"is_reserved":false,"is_disabled":false,"rental_uris":{"android":"levelo://app?vid=b35a7040-bbda-43db-9397-f046555e255b","ios":"levelo://app?vid=b35a7040-bbda-43db-9397-f046555e255b"},"vehicle_type_id":"4","last_reported":1685138765,"current_range_meters":22400,"station_id":"","pricing_plan_id":"free"},{"bike_id":"eb1e7463-04a7-4eb1-b297-dd018c79d527","system_id":"levelo_inurba_marseille","lat":43.30794,"lon":5.43518,"is_reserved":false,"is_disabled":false,"rental_uris":{"android":"levelo://app?vid=eb1e7463-04a7-4eb1-b297-dd018c79d527","ios":"levelo://app?vid=eb1e7463-04a7-4eb1-b297-dd018c79d527"},"vehicle_type_id":"4","last_reported":1685138765,"current_range_meters":0,"station_id":"","pricing_plan_id":"free"},{"bike_id":"97f92444-dc7f-4ac8-885e-43ac50454dc0","system_id":"levelo_inurba_marseille","lat":43.31709,"lon":5.43695,"is_reserved":false,"is_disabled":false,"rental_uris":{"android":"levelo://app?vid=97f92444-dc7f-4ac8-885e-43ac50454dc0","ios":"levelo://app?vid=97f92444-dc7f-4ac8-885e-43ac50454dc0"},"vehicle_type_id":"4","last_reported":1685138765,"current_range_meters":0,"station_id":"ce4bhp92rcd13ifvqhcg","pricing_plan_id":"free"},{"bike_id":"a40b814c-8d11-48f9-af9c-8f2d70505adb","system_id":"levelo_inurba_marseille","lat":43.31705,"lon":5.43705,"is_reserved":false,"is_disabled":false,"rental_uris":{"android":"levelo://app?vid=a40b814c-8d11-48f9-af9c-8f2d70505adb","ios":"levelo://app?vid=a40b814c-8d11-48f9-af9c-8f2d70505adb"},"vehicle_type_id":"4","last_reported":1685138765,"current_range_meters":24800,"station_id":"ce4bhp92rcd13ifvqhcg","pricing_plan_id":"free"},{"bike_id":"677fe151-801a-4d73-9e92-e9bc07905498","system_id":"levelo_inurba_marseille","lat":43.31718,"lon":5.43707,"is_reserved":false,"is_disabled":false,"rental_uris":{"android":"levelo://app?vid=677fe151-801a-4d73-9e92-e9bc07905498","ios":"levelo://app?vid=677fe151-801a-4d73-9e92-e9bc07905498"},"vehicle_type_id":"4","last_reported":1685138765,"current_range_meters":30000,"station_id":"ce4bhp92rcd13ifvqhcg","pricing_plan_id":"free"},{"bike_id":"20f577de-5147-4873-9845-df04d4fb0009","system_id":"levelo_inurba_marseille","lat":43.317104,"lon":5.436818,"is_reserved":false,"is_disabled":false,"rental_uris":{"android":"levelo://app?vid=20f577de-5147-4873-9845-df04d4fb0009","ios":"levelo://app?vid=20f577de-5147-4873-9845-df04d4fb0009"},"vehicle_type_id":"4","last_reported":1685138765,"current_range_meters":8400,"station_id":"ce4bhp92rcd13ifvqhcg","pricing_plan_id":"free"},{"bike_id":"a7888e89-b39a-43b1-b69c-1f8318600eee","system_id":"levelo_inurba_marseille","lat":43.267959,"lon":5.402687,"is_reserved":false,"is_disabled":false,"rental_uris":{"android":"levelo://app?vid=a7888e89-b39a-43b1-b69c-1f8318600eee","ios":"levelo://app?vid=a7888e89-b39a-43b1-b69c-1f8318600eee"},"vehicle_type_id":"4","last_reported":1685138765,"current_range_meters":2000,"station_id":"ce501612rcd8frsf0b60","pricing_plan_id":"free"},{"bike_id":"c0b1d61f-95d0-43f1-8852-8a7f67e94801","system_id":"levelo_inurba_marseille","lat":43.267959,"lon":5.402687,"is_reserved":false,"is_disabled":false,"rental_uris":{"android":"levelo://app?vid=c0b1d61f-95d0-43f1-8852-8a7f67e94801","ios":"levelo://app?vid=c0b1d61f-95d0-43f1-8852-8a7f67e94801"},"vehicle_type_id":"4","last_reported":1685138765,"current_range_meters":30400,"station_id":"ce501612rcd8frsf0b60","pricing_plan_id":"free"},{"bike_id":"e6f0d5a2-53e3-4624-b094-33844a880739","system_id":"levelo_inurba_marseille","lat":43.267959,"lon":5.402685,"is_reserved":false,"is_disabled":false,"rental_uris":{"android":"levelo://app?vid=e6f0d5a2-53e3-4624-b094-33844a880739","ios":"levelo://app?vid=e6f0d5a2-53e3-4624-b094-33844a880739"},"vehicle_type_id":"4","last_reported":1685138765,"current_range_meters":6000,"station_id":"ce501612rcd8frsf0b60","pricing_plan_id":"free"},{"bike_id":"a09c2fb7-fa01-4ddb-ade6-04db0857aafa","system_id":"levelo_inurba_marseille","lat":43.267959,"lon":5.402687,"is_reserved":false,"is_disabled":false,"rental_uris":{"android":"levelo://app?vid=a09c2fb7-fa01-4ddb-ade6-04db0857aafa","ios":"levelo://app?vid=a09c2fb7-fa01-4ddb-ade6-04db0857aafa"},"vehicle_type_id":"4","last_reported":1685138765,"current_range_meters":0,"station_id":"ce501612rcd8frsf0b60","pricing_plan_id":"free"},{"bike_id":"625cf51e-ab1a-4754-ae5a-a72655adf3ff","system_id":"levelo_inurba_marseille","lat":43.29896,"lon":5.43655,"is_reserved":false,"is_disabled":false,"rental_uris":{"android":"levelo://app?vid=625cf51e-ab1a-4754-ae5a-a72655adf3ff","ios":"levelo://app?vid=625cf51e-ab1a-4754-ae5a-a72655adf3ff"},"vehicle_type_id":"4","last_reported":1685138765,"current_range_meters":10400,"station_id":"ce4bhpp2rcd13ifvqhfg","pricing_plan_id":"free"},{"bike_id":"4e1b86b6-b12c-441f-b5c1-ba0a90fca197","system_id":"levelo_inurba_marseille","lat":43.298768,"lon":5.43643,"is_reserved":false,"is_disabled":false,"rental_uris":{"android":"levelo://app?vid=4e1b86b6-b12c-441f-b5c1-ba0a90fca197","ios":"levelo://app?vid=4e1b86b6-b12c-441f-b5c1-ba0a90fca197"},"vehicle_type_id":"4","last_reported":1685138765,"current_range_meters":30800,"station_id":"ce4bhpp2rcd13ifvqhfg","pricing_plan_id":"free"},{"bike_id":"dde9f2f0-56ac-4fd7-8d1e-ed84b13d9718","system_id":"levelo_inurba_marseille","lat":43.29897,"lon":5.4366,"is_reserved":false,"is_disabled":false,"rental_uris":{"android":"levelo://app?vid=dde9f2f0-56ac-4fd7-8d1e-ed84b13d9718","ios":"levelo://app?vid=dde9f2f0-56ac-4fd7-8d1e-ed84b13d9718"},"vehicle_type_id":"4","last_reported":1685138765,"current_range_meters":29600,"station_id":"ce4bhpp2rcd13ifvqhfg","pricing_plan_id":"free"},{"bike_id":"2bbf39e5-5485-4880-b9ce-9ba5fff1a707","system_id":"levelo_inurba_marseille","lat":43.29898,"lon":5.43662,"is_reserved":false,"is_disabled":false,"rental_uris":{"android":"levelo://app?vid=2bbf39e5-5485-4880-b9ce-9ba5fff1a707","ios":"levelo://app?vid=2bbf39e5-5485-4880-b9ce-9ba5fff1a707"},"vehicle_type_id":"4","last_reported":1685138765,"current_range_meters":16000,"station_id":"","pricing_plan_id":"free"},{"bike_id":"57572c88-3708-4036-891a-204b9f884608","system_id":"levelo_inurba_marseille","lat":43.29895,"lon":5.43662,"is_reserved":false,"is_disabled":false,"rental_uris":{"android":"levelo://app?vid=57572c88-3708-4036-891a-204b9f884608","ios":"levelo://app?vid=57572c88-3708-4036-891a-204b9f884608"},"vehicle_type_id":"4","last_reported":1685138765,"current_range_meters":12800,"station_id":"ce4bhpp2rcd13ifvqhfg","pricing_plan_id":"free"},{"bike_id":"2bec87da-92f9-4fd1-a31d-4f8c41246cb1","system_id":"levelo_inurba_marseille","lat":43.29895,"lon":5.43662,"is_reserved":false,"is_disabled":false,"rental_uris":{"android":"levelo://app?vid=2bec87da-92f9-4fd1-a31d-4f8c41246cb1","ios":"levelo://app?vid=2bec87da-92f9-4fd1-a31d-4f8c41246cb1"},"vehicle_type_id":"4","last_reported":1685138765,"current_range_meters":6400,"station_id":"ce4bhpp2rcd13ifvqhfg","pricing_plan_id":"free"},{"bike_id":"a01b8269-cd6f-432a-9c44-37513ea96cd0","system_id":"levelo_inurba_marseille","lat":43.298768,"lon":5.43643,"is_reserved":false,"is_disabled":false,"rental_uris":{"android":"levelo://app?vid=a01b8269-cd6f-432a-9c44-37513ea96cd0","ios":"levelo://app?vid=a01b8269-cd6f-432a-9c44-37513ea96cd0"},"vehicle_type_id":"4","last_reported":1685138765,"current_range_meters":24000,"station_id":"ce4bhpp2rcd13ifvqhfg","pricing_plan_id":"free"},{"bike_id":"c8de2773-0f39-49ca-aaaa-0510f3608265","system_id":"levelo_inurba_marseille","lat":43.29899,"lon":5.43667,"is_reserved":false,"is_disabled":false,"rental_uris":{"android":"levelo://app?vid=c8de2773-0f39-49ca-aaaa-0510f3608265","ios":"levelo://app?vid=c8de2773-0f39-49ca-aaaa-0510f3608265"},"vehicle_type_id":"4","last_reported":1685138765,"current_range_meters":24800,"station_id":"","pricing_plan_id":"free"},{"bike_id":"608b499d-e068-453a-896b-74bff4555044","system_id":"levelo_inurba_marseille","lat":43.29899,"lon":5.43668,"is_reserved":false,"is_disabled":false,"rental_uris":{"android":"levelo://app?vid=608b499d-e068-453a-896b-74bff4555044","ios":"levelo://app?vid=608b499d-e068-453a-896b-74bff4555044"},"vehicle_type_id":"4","last_reported":1685138765,"current_range_meters":20800,"station_id":"","pricing_plan_id":"free"},{"bike_id":"1522e6fe-e66c-4a0c-a606-391cd3d5a93b","system_id":"levelo_inurba_marseille","lat":43.298768,"lon":5.43643,"is_reserved":false,"is_disabled":false,"rental_uris":{"android":"levelo://app?vid=1522e6fe-e66c-4a0c-a606-391cd3d5a93b","ios":"levelo://app?vid=1522e6fe-e66c-4a0c-a606-391cd3d5a93b"},"vehicle_type_id":"4","last_reported":1685138765,"current_range_meters":18400,"station_id":"ce4bhpp2rcd13ifvqhfg","pricing_plan_id":"free"},{"bike_id":"141abb9c-baa0-4410-bbbc-e3f6497daf31","system_id":"levelo_inurba_marseille","lat":43.29895,"lon":5.43669,"is_reserved":false,"is_disabled":false,"rental_uris":{"android":"levelo://app?vid=141abb9c-baa0-4410-bbbc-e3f6497daf31","ios":"levelo://app?vid=141abb9c-baa0-4410-bbbc-e3f6497daf31"},"vehicle_type_id":"4","last_reported":1685138765,"current_range_meters":6000,"station_id":"ce4bhpp2rcd13ifvqhfg","pricing_plan_id":"free"},{"bike_id":"e2babc3f-884a-4e8d-8199-9d67d1723bc0","system_id":"levelo_inurba_marseille","lat":43.2607,"lon":5.393983,"is_reserved":false,"is_disabled":false,"rental_uris":{"android":"levelo://app?vid=e2babc3f-884a-4e8d-8199-9d67d1723bc0","ios":"levelo://app?vid=e2babc3f-884a-4e8d-8199-9d67d1723bc0"},"vehicle_type_id":"4","last_reported":1685138765,"current_range_meters":15600,"station_id":"ce4bhh92rcd13ifvqfj0","pricing_plan_id":"free"},{"bike_id":"4441101a-0e23-4762-b4ed-d88e6abf1afd","system_id":"levelo_inurba_marseille","lat":43.2607,"lon":5.393983,"is_reserved":false,"is_disabled":false,"rental_uris":{"android":"levelo://app?vid=4441101a-0e23-4762-b4ed-d88e6abf1afd","ios":"levelo://app?vid=4441101a-0e23-4762-b4ed-d88e6abf1afd"},"vehicle_type_id":"4","last_reported":1685138765,"current_range_meters":7200,"station_id":"ce4bhh92rcd13ifvqfj0","pricing_plan_id":"free"},{"bike_id":"de0a123c-3ef8-436d-a65f-b68df85ee18a","system_id":"levelo_inurba_marseille","lat":43.25585,"lon":5.38226,"is_reserved":false,"is_disabled":false,"rental_uris":{"android":"levelo://app?vid=de0a123c-3ef8-436d-a65f-b68df85ee18a","ios":"levelo://app?vid=de0a123c-3ef8-436d-a65f-b68df85ee18a"},"vehicle_type_id":"4","last_reported":1685138765,"current_range_meters":3200,"station_id":"ce4bhih2rcd13ifvqfs0","pricing_plan_id":"free"},{"bike_id":"1d3c6f4c-a60e-443b-a3c4-1e76a3892c57","system_id":"levelo_inurba_marseille","lat":43.25581,"lon":5.38229,"is_reserved":false,"is_disabled":false,"rental_uris":{"android":"levelo://app?vid=1d3c6f4c-a60e-443b-a3c4-1e76a3892c57","ios":"levelo://app?vid=1d3c6f4c-a60e-443b-a3c4-1e76a3892c57"},"vehicle_type_id":"4","last_reported":1685138765,"current_range_meters":23600,"station_id":"ce4bhih2rcd13ifvqfs0","pricing_plan_id":"free"},{"bike_id":"d9cfb92c-48bd-4f17-b87b-eca62c898de3","system_id":"levelo_inurba_marseille","lat":43.255756,"lon":5.382303,"is_reserved":false,"is_disabled":false,"rental_uris":{"android":"levelo://app?vid=d9cfb92c-48bd-4f17-b87b-eca62c898de3","ios":"levelo://app?vid=d9cfb92c-48bd-4f17-b87b-eca62c898de3"},"vehicle_type_id":"4","last_reported":1685138765,"current_range_meters":19200,"station_id":"ce4bhih2rcd13ifvqfs0","pricing_plan_id":"free"},{"bike_id":"21a94e83-2bcf-4902-8a6a-85407ac0d3c9","system_id":"levelo_inurba_marseille","lat":43.254952,"lon":5.376471,"is_reserved":false,"is_disabled":false,"rental_uris":{"android":"levelo://app?vid=21a94e83-2bcf-4902-8a6a-85407ac0d3c9","ios":"levelo://app?vid=21a94e83-2bcf-4902-8a6a-85407ac0d3c9"},"vehicle_type_id":"4","last_reported":1685138765,"current_range_meters":6800,"station_id":"","pricing_plan_id":"free"},{"bike_id":"783ca787-6440-405d-808e-48711cfe8ddc","system_id":"levelo_inurba_marseille","lat":43.270721,"lon":5.422764,"is_reserved":false,"is_disabled":false,"rental_uris":{"android":"levelo://app?vid=783ca787-6440-405d-808e-48711cfe8ddc","ios":"levelo://app?vid=783ca787-6440-405d-808e-48711cfe8ddc"},"vehicle_type_id":"4","last_reported":1685138765,"current_range_meters":31600,"station_id":"ce4bhk92rcd13ifvqgb0","pricing_plan_id":"free"},{"bike_id":"e07724f5-d80a-4c8d-b1c3-67b7d1904c8b","system_id":"levelo_inurba_marseille","lat":43.270721,"lon":5.422764,"is_reserved":false,"is_disabled":false,"rental_uris":{"android":"levelo://app?vid=e07724f5-d80a-4c8d-b1c3-67b7d1904c8b","ios":"levelo://app?vid=e07724f5-d80a-4c8d-b1c3-67b7d1904c8b"},"vehicle_type_id":"4","last_reported":1685138765,"current_range_meters":16400,"station_id":"ce4bhk92rcd13ifvqgb0","pricing_plan_id":"free"},{"bike_id":"fb391ea4-e81d-46d6-bf8b-15607b8eba32","system_id":"levelo_inurba_marseille","lat":43.2707,"lon":5.42279,"is_reserved":false,"is_disabled":false,"rental_uris":{"android":"levelo://app?vid=fb391ea4-e81d-46d6-bf8b-15607b8eba32","ios":"levelo://app?vid=fb391ea4-e81d-46d6-bf8b-15607b8eba32"},"vehicle_type_id":"4","last_reported":1685138765,"current_range_meters":24000,"station_id":"ce4bhk92rcd13ifvqgb0","pricing_plan_id":"free"},{"bike_id":"3583dbe0-433b-4cf5-8a78-02a3550f1dd8","system_id":"levelo_inurba_marseille","lat":43.27439,"lon":5.42943,"is_reserved":false,"is_disabled":false,"rental_uris":{"android":"levelo://app?vid=3583dbe0-433b-4cf5-8a78-02a3550f1dd8","ios":"levelo://app?vid=3583dbe0-433b-4cf5-8a78-02a3550f1dd8"},"vehicle_type_id":"4","last_reported":1685138765,"current_range_meters":1200,"station_id":"","pricing_plan_id":"free"},{"bike_id":"f000cdb9-807c-4fcb-9c92-0b988d205612","system_id":"levelo_inurba_marseille","lat":43.246629,"lon":5.381738,"is_reserved":false,"is_disabled":false,"rental_uris":{"android":"levelo://app?vid=f000cdb9-807c-4fcb-9c92-0b988d205612","ios":"levelo://app?vid=f000cdb9-807c-4fcb-9c92-0b988d205612"},"vehicle_type_id":"4","last_reported":1685138765,"current_range_meters":21600,"station_id":"ce4bhih2rcd13ifvqfr0","pricing_plan_id":"free"},{"bike_id":"e5d203d7-e8a0-4d67-879e-49d6f87a1d0d","system_id":"levelo_inurba_marseille","lat":43.25102,"lon":5.403214,"is_reserved":false,"is_disabled":false,"rental_uris":{"android":"levelo://app?vid=e5d203d7-e8a0-4d67-879e-49d6f87a1d0d","ios":"levelo://app?vid=e5d203d7-e8a0-4d67-879e-49d6f87a1d0d"},"vehicle_type_id":"4","last_reported":1685138765,"current_range_meters":3600,"station_id":"ce4bhlh2rcd13ifvqgig","pricing_plan_id":"free"},{"bike_id":"58a68823-d36d-4417-80d4-a4ba4de27579","system_id":"levelo_inurba_marseille","lat":43.25102,"lon":5.403214,"is_reserved":false,"is_disabled":false,"rental_uris":{"android":"levelo://app?vid=58a68823-d36d-4417-80d4-a4ba4de27579","ios":"levelo://app?vid=58a68823-d36d-4417-80d4-a4ba4de27579"},"vehicle_type_id":"4","last_reported":1685138765,"current_range_meters":0,"station_id":"ce4bhlh2rcd13ifvqgig","pricing_plan_id":"free"},{"bike_id":"63fbb90b-8313-4d55-ab5d-c516f6b654f9","system_id":"levelo_inurba_marseille","lat":43.25102,"lon":5.403214,"is_reserved":false,"is_disabled":false,"rental_uris":{"android":"levelo://app?vid=63fbb90b-8313-4d55-ab5d-c516f6b654f9","ios":"levelo://app?vid=63fbb90b-8313-4d55-ab5d-c516f6b654f9"},"vehicle_type_id":"4","last_reported":1685138765,"current_range_meters":400,"station_id":"ce4bhlh2rcd13ifvqgig","pricing_plan_id":"free"},{"bike_id":"cfaf7643-f32d-458d-8aec-b66dbe4e6a55","system_id":"levelo_inurba_marseille","lat":43.25102,"lon":5.403214,"is_reserved":false,"is_disabled":false,"rental_uris":{"android":"levelo://app?vid=cfaf7643-f32d-458d-8aec-b66dbe4e6a55","ios":"levelo://app?vid=cfaf7643-f32d-458d-8aec-b66dbe4e6a55"},"vehicle_type_id":"4","last_reported":1685138765,"current_range_meters":3600,"station_id":"ce4bhlh2rcd13ifvqgig","pricing_plan_id":"free"},{"bike_id":"54ef489f-93a7-4986-89e9-dc413a91fe34","system_id":"levelo_inurba_marseille","lat":43.24542,"lon":5.39516,"is_reserved":false,"is_disabled":false,"rental_uris":{"android":"levelo://app?vid=54ef489f-93a7-4986-89e9-dc413a91fe34","ios":"levelo://app?vid=54ef489f-93a7-4986-89e9-dc413a91fe34"},"vehicle_type_id":"4","last_reported":1685138765,"current_range_meters":800,"station_id":"ce4bhlp2rcd13ifvqgjg","pricing_plan_id":"free"},{"bike_id":"03754e85-4f2e-4dd7-815c-760b21ea4a77","system_id":"levelo_inurba_marseille","lat":43.239588,"lon":5.366238,"is_reserved":false,"is_disabled":false,"rental_uris":{"android":"levelo://app?vid=03754e85-4f2e-4dd7-815c-760b21ea4a77","ios":"levelo://app?vid=03754e85-4f2e-4dd7-815c-760b21ea4a77"},"vehicle_type_id":"4","last_reported":1685138765,"current_range_meters":6800,"station_id":"ce4bhi12rcd13ifvqfp0","pricing_plan_id":"free"},{"bike_id":"0bad9044-093a-48bf-8fe1-530aadf8e836","system_id":"levelo_inurba_marseille","lat":43.239588,"lon":5.366238,"is_reserved":false,"is_disabled":false,"rental_uris":{"android":"levelo://app?vid=0bad9044-093a-48bf-8fe1-530aadf8e836","ios":"levelo://app?vid=0bad9044-093a-48bf-8fe1-530aadf8e836"},"vehicle_type_id":"4","last_reported":1685138765,"current_range_meters":7200,"station_id":"ce4bhi12rcd13ifvqfp0","pricing_plan_id":"free"},{"bike_id":"94131c2f-0652-4017-9402-d58012b923f9","system_id":"levelo_inurba_marseille","lat":43.239588,"lon":5.366238,"is_reserved":false,"is_disabled":false,"rental_uris":{"android":"levelo://app?vid=94131c2f-0652-4017-9402-d58012b923f9","ios":"levelo://app?vid=94131c2f-0652-4017-9402-d58012b923f9"},"vehicle_type_id":"4","last_reported":1685138765,"current_range_meters":26800,"station_id":"ce4bhi12rcd13ifvqfp0","pricing_plan_id":"free"},{"bike_id":"017cbb90-9d16-469d-ab9b-008c01d90208","system_id":"levelo_inurba_marseille","lat":43.2391,"lon":5.38445,"is_reserved":false,"is_disabled":false,"rental_uris":{"android":"levelo://app?vid=017cbb90-9d16-469d-ab9b-008c01d90208","ios":"levelo://app?vid=017cbb90-9d16-469d-ab9b-008c01d90208"},"vehicle_type_id":"4","last_reported":1685138765,"current_range_meters":7200,"station_id":"","pricing_plan_id":"free"},{"bike_id":"06cc29fe-4669-4afc-bb35-a5e1af0a1bc4","system_id":"levelo_inurba_marseille","lat":43.23196,"lon":5.35546,"is_reserved":false,"is_disabled":false,"rental_uris":{"android":"levelo://app?vid=06cc29fe-4669-4afc-bb35-a5e1af0a1bc4","ios":"levelo://app?vid=06cc29fe-4669-4afc-bb35-a5e1af0a1bc4"},"vehicle_type_id":"4","last_reported":1685138765,"current_range_meters":4400,"station_id":"ce4bhu92rcd13ifvqi70","pricing_plan_id":"free"},{"bike_id":"ba4d59a8-54c3-439d-b6ce-459d537c072d","system_id":"levelo_inurba_marseille","lat":43.23195,"lon":5.35544,"is_reserved":false,"is_disabled":false,"rental_uris":{"android":"levelo://app?vid=ba4d59a8-54c3-439d-b6ce-459d537c072d","ios":"levelo://app?vid=ba4d59a8-54c3-439d-b6ce-459d537c072d"},"vehicle_type_id":"4","last_reported":1685138765,"current_range_meters":11600,"station_id":"ce4bhu92rcd13ifvqi70","pricing_plan_id":"free"},{"bike_id":"16e751e9-9edd-4155-bc9f-8de735fe1021","system_id":"levelo_inurba_marseille","lat":43.231919,"lon":5.355532,"is_reserved":false,"is_disabled":false,"rental_uris":{"android":"levelo://app?vid=16e751e9-9edd-4155-bc9f-8de735fe1021","ios":"levelo://app?vid=16e751e9-9edd-4155-bc9f-8de735fe1021"},"vehicle_type_id":"4","last_reported":1685138765,"current_range_meters":29600,"station_id":"ce4bhu92rcd13ifvqi70","pricing_plan_id":"free"},{"bike_id":"6ed80210-e865-4830-a64d-7a44325491b1","system_id":"levelo_inurba_marseille","lat":43.23192,"lon":5.35549,"is_reserved":false,"is_disabled":false,"rental_uris":{"android":"levelo://app?vid=6ed80210-e865-4830-a64d-7a44325491b1","ios":"levelo://app?vid=6ed80210-e865-4830-a64d-7a44325491b1"},"vehicle_type_id":"4","last_reported":1685138765,"current_range_meters":28000,"station_id":"ce4bhu92rcd13ifvqi70","pricing_plan_id":"free"},{"bike_id":"81d4dcc7-3fc7-449d-ab1e-2ea2b47e5952","system_id":"levelo_inurba_marseille","lat":43.2319,"lon":5.35553,"is_reserved":false,"is_disabled":false,"rental_uris":{"android":"levelo://app?vid=81d4dcc7-3fc7-449d-ab1e-2ea2b47e5952","ios":"levelo://app?vid=81d4dcc7-3fc7-449d-ab1e-2ea2b47e5952"},"vehicle_type_id":"4","last_reported":1685138765,"current_range_meters":16400,"station_id":"ce4bhu92rcd13ifvqi70","pricing_plan_id":"free"},{"bike_id":"b3218611-a475-42a9-92c5-070141c073f0","system_id":"levelo_inurba_marseille","lat":43.2319,"lon":5.35549,"is_reserved":false,"is_disabled":false,"rental_uris":{"android":"levelo://app?vid=b3218611-a475-42a9-92c5-070141c073f0","ios":"levelo://app?vid=b3218611-a475-42a9-92c5-070141c073f0"},"vehicle_type_id":"4","last_reported":1685138765,"current_range_meters":25200,"station_id":"ce4bhu92rcd13ifvqi70","pricing_plan_id":"free"},{"bike_id":"50387e49-f9cb-45f2-830b-f9804e09b35a","system_id":"levelo_inurba_marseille","lat":43.2319,"lon":5.35545,"is_reserved":false,"is_disabled":false,"rental_uris":{"android":"levelo://app?vid=50387e49-f9cb-45f2-830b-f9804e09b35a","ios":"levelo://app?vid=50387e49-f9cb-45f2-830b-f9804e09b35a"},"vehicle_type_id":"4","last_reported":1685138765,"current_range_meters":4000,"station_id":"ce4bhu92rcd13ifvqi70","pricing_plan_id":"free"},{"bike_id":"5c272820-3a04-409e-a879-87b2d365273d","system_id":"levelo_inurba_marseille","lat":43.23128,"lon":5.35505,"is_reserved":false,"is_disabled":false,"rental_uris":{"android":"levelo://app?vid=5c272820-3a04-409e-a879-87b2d365273d","ios":"levelo://app?vid=5c272820-3a04-409e-a879-87b2d365273d"},"vehicle_type_id":"4","last_reported":1685138765,"current_range_meters":14400,"station_id":"","pricing_plan_id":"free"},{"bike_id":"b8c47a34-ff34-4067-b87c-33640e964fbc","system_id":"levelo_inurba_marseille","lat":43.231794,"lon":5.400052,"is_reserved":false,"is_disabled":false,"rental_uris":{"android":"levelo://app?vid=b8c47a34-ff34-4067-b87c-33640e964fbc","ios":"levelo://app?vid=b8c47a34-ff34-4067-b87c-33640e964fbc"},"vehicle_type_id":"4","last_reported":1685138765,"current_range_meters":31600,"station_id":"ce4bhn12rcd13ifvqgqg","pricing_plan_id":"free"},{"bike_id":"1e8bd4c3-40cb-4655-8b71-9004c0667763","system_id":"levelo_inurba_marseille","lat":43.231793,"lon":5.400044,"is_reserved":false,"is_disabled":false,"rental_uris":{"android":"levelo://app?vid=1e8bd4c3-40cb-4655-8b71-9004c0667763","ios":"levelo://app?vid=1e8bd4c3-40cb-4655-8b71-9004c0667763"},"vehicle_type_id":"4","last_reported":1685138765,"current_range_meters":27600,"station_id":"ce4bhn12rcd13ifvqgqg","pricing_plan_id":"free"},{"bike_id":"a7fbfb05-3a72-4dea-b5c9-12ad7997a8ad","system_id":"levelo_inurba_marseille","lat":43.231794,"lon":5.400052,"is_reserved":false,"is_disabled":false,"rental_uris":{"android":"levelo://app?vid=a7fbfb05-3a72-4dea-b5c9-12ad7997a8ad","ios":"levelo://app?vid=a7fbfb05-3a72-4dea-b5c9-12ad7997a8ad"},"vehicle_type_id":"4","last_reported":1685138765,"current_range_meters":25600,"station_id":"ce4bhn12rcd13ifvqgqg","pricing_plan_id":"free"},{"bike_id":"b10c561f-d3c4-4914-b7f7-f4a5a2a5d820","system_id":"levelo_inurba_marseille","lat":43.231793,"lon":5.400044,"is_reserved":false,"is_disabled":false,"rental_uris":{"android":"levelo://app?vid=b10c561f-d3c4-4914-b7f7-f4a5a2a5d820","ios":"levelo://app?vid=b10c561f-d3c4-4914-b7f7-f4a5a2a5d820"},"vehicle_type_id":"4","last_reported":1685138765,"current_range_meters":24000,"station_id":"ce4bhn12rcd13ifvqgqg","pricing_plan_id":"free"},{"bike_id":"bb1260c0-5c49-4590-8dc5-5c901bf3b31b","system_id":"levelo_inurba_marseille","lat":43.231793,"lon":5.400044,"is_reserved":false,"is_disabled":false,"rental_uris":{"android":"levelo://app?vid=bb1260c0-5c49-4590-8dc5-5c901bf3b31b","ios":"levelo://app?vid=bb1260c0-5c49-4590-8dc5-5c901bf3b31b"},"vehicle_type_id":"4","last_reported":1685138765,"current_range_meters":400,"station_id":"ce4bhn12rcd13ifvqgqg","pricing_plan_id":"free"},{"bike_id":"6909e9f4-7190-4de5-9454-7cc1785d277a","system_id":"levelo_inurba_marseille","lat":43.231794,"lon":5.400052,"is_reserved":false,"is_disabled":false,"rental_uris":{"android":"levelo://app?vid=6909e9f4-7190-4de5-9454-7cc1785d277a","ios":"levelo://app?vid=6909e9f4-7190-4de5-9454-7cc1785d277a"},"vehicle_type_id":"4","last_reported":1685138765,"current_range_meters":31600,"station_id":"ce4bhn12rcd13ifvqgqg","pricing_plan_id":"free"},{"bike_id":"34abd7a2-e4aa-4639-88a1-75020959dd9f","system_id":"levelo_inurba_marseille","lat":43.231794,"lon":5.400052,"is_reserved":false,"is_disabled":false,"rental_uris":{"android":"levelo://app?vid=34abd7a2-e4aa-4639-88a1-75020959dd9f","ios":"levelo://app?vid=34abd7a2-e4aa-4639-88a1-75020959dd9f"},"vehicle_type_id":"4","last_reported":1685138765,"current_range_meters":31600,"station_id":"ce4bhn12rcd13ifvqgqg","pricing_plan_id":"free"},{"bike_id":"67b77559-a903-49c5-9f37-4b2143617b52","system_id":"levelo_inurba_marseille","lat":43.231794,"lon":5.400052,"is_reserved":false,"is_disabled":false,"rental_uris":{"android":"levelo://app?vid=67b77559-a903-49c5-9f37-4b2143617b52","ios":"levelo://app?vid=67b77559-a903-49c5-9f37-4b2143617b52"},"vehicle_type_id":"4","last_reported":1685138765,"current_range_meters":22000,"station_id":"ce4bhn12rcd13ifvqgqg","pricing_plan_id":"free"},{"bike_id":"0098075c-728f-4919-85e5-a85abece1c10","system_id":"levelo_inurba_marseille","lat":43.231793,"lon":5.400044,"is_reserved":false,"is_disabled":false,"rental_uris":{"android":"levelo://app?vid=0098075c-728f-4919-85e5-a85abece1c10","ios":"levelo://app?vid=0098075c-728f-4919-85e5-a85abece1c10"},"vehicle_type_id":"4","last_reported":1685138765,"current_range_meters":2400,"station_id":"ce4bhn12rcd13ifvqgqg","pricing_plan_id":"free"},{"bike_id":"7dcc073b-b41d-40ec-9cbd-380dfe07c27c","system_id":"levelo_inurba_marseille","lat":43.231793,"lon":5.400044,"is_reserved":false,"is_disabled":false,"rental_uris":{"android":"levelo://app?vid=7dcc073b-b41d-40ec-9cbd-380dfe07c27c","ios":"levelo://app?vid=7dcc073b-b41d-40ec-9cbd-380dfe07c27c"},"vehicle_type_id":"4","last_reported":1685138765,"current_range_meters":9600,"station_id":"ce4bhn12rcd13ifvqgqg","pricing_plan_id":"free"},{"bike_id":"fa025f6b-9b72-4047-81a2-78b1accb1a5e","system_id":"levelo_inurba_marseille","lat":43.231793,"lon":5.400044,"is_reserved":false,"is_disabled":false,"rental_uris":{"android":"levelo://app?vid=fa025f6b-9b72-4047-81a2-78b1accb1a5e","ios":"levelo://app?vid=fa025f6b-9b72-4047-81a2-78b1accb1a5e"},"vehicle_type_id":"4","last_reported":1685138765,"current_range_meters":14400,"station_id":"ce4bhn12rcd13ifvqgqg","pricing_plan_id":"free"},{"bike_id":"6bf87b3f-2e5e-484d-9f73-d12a90c06e2e","system_id":"levelo_inurba_marseille","lat":43.231794,"lon":5.400052,"is_reserved":false,"is_disabled":false,"rental_uris":{"android":"levelo://app?vid=6bf87b3f-2e5e-484d-9f73-d12a90c06e2e","ios":"levelo://app?vid=6bf87b3f-2e5e-484d-9f73-d12a90c06e2e"},"vehicle_type_id":"4","last_reported":1685138765,"current_range_meters":31600,"station_id":"ce4bhn12rcd13ifvqgqg","pricing_plan_id":"free"},{"bike_id":"a07f019b-9568-41d4-a110-5874a4b39346","system_id":"levelo_inurba_marseille","lat":43.231793,"lon":5.400044,"is_reserved":false,"is_disabled":false,"rental_uris":{"android":"levelo://app?vid=a07f019b-9568-41d4-a110-5874a4b39346","ios":"levelo://app?vid=a07f019b-9568-41d4-a110-5874a4b39346"},"vehicle_type_id":"4","last_reported":1685138765,"current_range_meters":31600,"station_id":"ce4bhn12rcd13ifvqgqg","pricing_plan_id":"free"},{"bike_id":"1420567d-5493-4112-adec-f09973b532e9","system_id":"levelo_inurba_marseille","lat":43.231793,"lon":5.400044,"is_reserved":false,"is_disabled":false,"rental_uris":{"android":"levelo://app?vid=1420567d-5493-4112-adec-f09973b532e9","ios":"levelo://app?vid=1420567d-5493-4112-adec-f09973b532e9"},"vehicle_type_id":"4","last_reported":1685138765,"current_range_meters":24800,"station_id":"ce4bhn12rcd13ifvqgqg","pricing_plan_id":"free"},{"bike_id":"8c241283-b8ed-4c41-b054-8d4f0354626e","system_id":"levelo_inurba_marseille","lat":43.231793,"lon":5.400044,"is_reserved":false,"is_disabled":false,"rental_uris":{"android":"levelo://app?vid=8c241283-b8ed-4c41-b054-8d4f0354626e","ios":"levelo://app?vid=8c241283-b8ed-4c41-b054-8d4f0354626e"},"vehicle_type_id":"4","last_reported":1685138765,"current_range_meters":2800,"station_id":"ce4bhn12rcd13ifvqgqg","pricing_plan_id":"free"}]}}