{"last_updated":1745907300,"ttl":60,"version":"2.2","data":{"bikes":[{"bike_id":"69c4c9fb-618b-4ba3-abec-1e0d1169fbe7","system_id":"levelo_inurba_marseille","lat":43.289332,"lon":5.363929,"is_reserved":false,"is_disabled":false,"rental_uris":{"android":"levelo://app?vid=69c4c9fb-618b-4ba3-abec-1e0d1169fbe7","ios":"levelo://app?vid=69c4c9fb-618b-4ba3-abec-1e0d1169fbe7"},"vehicle_type_id":"4","last_reported":1745907301,"current_range_meters":2800,"station_id":"ce4bhc92rcd13ifvqetg","pricing_plan_id":"cebpf4jnsgd1na2vs0mg"},{"bike_id":"cbec0076-95d0-4f8f-8339-66de29997492","system_id":"levelo_inurba_marseille","lat":43.25565,"lon":5.3826,"is_reserved":false,"is_disabled":false,"rental_uris":{"android":"levelo://app?vid=cbec0076-95d0-4f8f-8339-66de29997492","ios":"levelo://app?vid=cbec0076-95d0-4f8f-8339-66de29997492"},"vehicle_type_id":"4","last_reported":1745907301,"current_range_meters":2800,"station_id":"ce4bhih2rcd13ifvqfs0","pricing_plan_id":"cebpf4jnsgd1na2vs0mg"},{"bike_id":"51ff0c01-320d-4ae2-90f4-169adbdd2a73","system_id":"levelo_inurba_marseille","lat":43.33602,"lon":5.41035,"is_reserved":false,"is_disabled":false,"rental_uris":{"android":"levelo://app?vid=51ff0c01-320d-4ae2-90f4-169adbdd2a73","ios":"levelo://app?vid=51ff0c01-320d-4ae2-90f4-169adbdd2a73"},"vehicle_type_id":"4","last_reported":1745907301,"current_range_meters":2800,"station_id":"ce4bhqh2rcd13ifvqhmg","pricing_plan_id":"cebpf4jnsgd1na2vs0mg"},{"bike_id":"ef5a622e-aa0a-4359-b3fd-ef466748c455","system_id":"levelo_inurba_marseille","lat":43.23188,"lon":5.35556,"is_reserved":false,"is_disabled":false,"rental_uris":{"android":"levelo://app?vid=ef5a622e-aa0a-4359-b3fd-ef466748c455","ios":"levelo://app?vid=ef5a622e-aa0a-4359-b3fd-ef466748c455"},"vehicle_type_id":"4","last_reported":1745907301,"current_range_meters":2800,"station_id":"ce4bhu92rcd13ifvqi70","pricing_plan_id":"cebpf4jnsgd1na2vs0mg"},{"bike_id":"476d5457-f8ed-4790-ba4f-941ab585cf7b","system_id":"levelo_inurba_marseille","lat":43.26548,"lon":5.37295,"is_reserved":false,"is_disabled":false,"rental_uris":{"android":"levelo://app?vid=476d5457-f8ed-4790-ba4f-941ab585cf7b","ios":"levelo://app?vid=476d5457-f8ed-4790-ba4f-941ab585cf7b"},"vehicle_type_id":"4","last_reported":1745907301,"current_range_meters":2800,"station_id":"ce4bhg12rcd13ifvqf70","pricing_plan_id":"cebpf4jnsgd1na2vs0mg"},{"bike_id":"36188a54-a10d-40d1-8d64-0c807fe5e1a7","system_id":"levelo_inurba_marseille","lat":43.30595,"lon":5.39359,"is_reserved":false,"is_disabled":false,"rental_uris":{"android":"levelo://app?vid=36188a54-a10d-40d1-8d64-0c807fe5e1a7","ios":"levelo://app?vid=36188a54-a10d-40d1-8d64-0c807fe5e1a7"},"vehicle_type_id":"4","last_reported":1745907301,"current_range_meters":3200,"station_id":"ce4bh0p2rcd13ifvqd80","pricing_plan_id":"cebpf4jnsgd1na2vs0mg"},{"bike_id":"e627cdd5-e16a-4ad8-a3b1-60eba8dac7ce","system_id":"levelo_inurba_marseille","lat":43.27494,"lon":5.42461,"is_reserved":false,"is_disabled":false,"rental_uris":{"android":"levelo://app?vid=e627cdd5-e16a-4ad8-a3b1-60eba8dac7ce","ios":"levelo://app?vid=e627cdd5-e16a-4ad8-a3b1-60eba8dac7ce"},"vehicle_type_id":"4","last_reported":1745907301,"current_range_meters":3200,"station_id":"ce4bhn92rcd13ifvqgrg","pricing_plan_id":"cebpf4jnsgd1na2vs0mg"},{"bike_id":"7c6c8544-6040-4148-ba81-baae7c84ebb2","system_id":"levelo_inurba_marseille","lat":43.29261,"lon":5.38437,"is_reserved":false,"is_disabled":false,"rental_uris":{"android":"levelo://app?vid=7c6c8544-6040-4148-ba81-baae7c84ebb2","ios":"levelo://app?vid=7c6c8544-6040-4148-ba81-baae7c84ebb2"},"vehicle_type_id":"4","last_reported":1745907301,"current_range_meters":2800,"station_id":"ce4bh692rcd13ifvqea0","pricing_plan_id":"cebpf4jnsgd1na2vs0mg"},{"bike_id":"8ae79fb7-0582-444e-8dab-1d22e31e0f2e","system_id":"levelo_inurba_marseille","lat":43.2396,"lon":5.36629,"is_reserved":false,"is_disabled":false,"rental_uris":{"android":"levelo://app?vid=8ae79fb7-0582-444e-8dab-1d22e31e0f2e","ios":"levelo://app?vid=8ae79fb7-0582-444e-8dab-1d22e31e0f2e"},"vehicle_type_id":"4","last_reported":1745907301,"current_range_meters":3600,"station_id":"ce4bhi12rcd13ifvqfp0","pricing_plan_id":"cebpf4jnsgd1na2vs0mg"},{"bike_id":"6ba5f6b0-be13-48ce-9b7b-ab69ca4dda1a","system_id":"levelo_inurba_marseille","lat":43.27491,"lon":5.42451,"is_reserved":false,"is_disabled":false,"rental_uris":{"android":"levelo://app?vid=6ba5f6b0-be13-48ce-9b7b-ab69ca4dda1a","ios":"levelo://app?vid=6ba5f6b0-be13-48ce-9b7b-ab69ca4dda1a"},"vehicle_type_id":"4","last_reported":1745907301,"current_range_meters":3600,"station_id":"ce4bhn92rcd13ifvqgrg","pricing_plan_id":"cebpf4jnsgd1na2vs0mg"},{"bike_id":"61ffaa74-f23c-450f-a9ee-eb45d749f9a5","system_id":"levelo_inurba_marseille","lat":43.24661,"lon":5.38158,"is_reserved":false,"is_disabled":false,"rental_uris":{"android":"levelo://app?vid=61ffaa74-f23c-450f-a9ee-eb45d749f9a5","ios":"levelo://app?vid=61ffaa74-f23c-450f-a9ee-eb45d749f9a5"},"vehicle_type_id":"4","last_reported":1745907301,"current_range_meters":3600,"station_id":"ce4bhih2rcd13ifvqfr0","pricing_plan_id":"cebpf4jnsgd1na2vs0mg"},{"bike_id":"21416959-405e-427c-8613-f68765f7be41","system_id":"levelo_inurba_marseille","lat":43.30532,"lon":5.36722,"is_reserved":false,"is_disabled":false,"rental_uris":{"android":"levelo://app?vid=21416959-405e-427c-8613-f68765f7be41","ios":"levelo://app?vid=21416959-405e-427c-8613-f68765f7be41"},"vehicle_type_id":"4","last_reported":1745907301,"current_range_meters":3600,"station_id":"ce4bgrp2rcd13ifvqc9g","pricing_plan_id":"cebpf4jnsgd1na2vs0mg"},{"bike_id":"59ca24f2-2a70-4347-b369-ba9243e29662","system_id":"levelo_inurba_marseille","lat":43.30706,"lon":5.42454,"is_reserved":false,"is_disabled":false,"rental_uris":{"android":"levelo://app?vid=59ca24f2-2a70-4347-b369-ba9243e29662","ios":"levelo://app?vid=59ca24f2-2a70-4347-b369-ba9243e29662"},"vehicle_type_id":"4","last_reported":1745907301,"current_range_meters":4000,"station_id":"st_cvj6ca6bvosntc0bfgr0","pricing_plan_id":"cebpf4jnsgd1na2vs0mg"},{"bike_id":"149bb859-c4a9-4199-9649-3df3637ed9bd","system_id":"levelo_inurba_marseille","lat":43.29271,"lon":5.40128,"is_reserved":false,"is_disabled":false,"rental_uris":{"android":"levelo://app?vid=149bb859-c4a9-4199-9649-3df3637ed9bd","ios":"levelo://app?vid=149bb859-c4a9-4199-9649-3df3637ed9bd"},"vehicle_type_id":"4","last_reported":1745907301,"current_range_meters":4400,"station_id":"ce4bh312rcd13ifvqdk0","pricing_plan_id":"cebpf4jnsgd1na2vs0mg"},{"bike_id":"30becde2-6955-45b1-9c85-5b2263cb99c6","system_id":"levelo_inurba_marseille","lat":43.27567,"lon":5.38433,"is_reserved":false,"is_disabled":false,"rental_uris":{"android":"levelo://app?vid=30becde2-6955-45b1-9c85-5b2263cb99c6","ios":"levelo://app?vid=30becde2-6955-45b1-9c85-5b2263cb99c6"},"vehicle_type_id":"4","last_reported":1745907301,"current_range_meters":6000,"station_id":"ce4bhh92rcd13ifvqfi0","pricing_plan_id":"cebpf4jnsgd1na2vs0mg"},{"bike_id":"2170e8a2-0b50-454a-a8c3-90edc68a4e7f","system_id":"levelo_inurba_marseille","lat":43.22934,"lon":5.35374,"is_reserved":false,"is_disabled":false,"rental_uris":{"android":"levelo://app?vid=2170e8a2-0b50-454a-a8c3-90edc68a4e7f","ios":"levelo://app?vid=2170e8a2-0b50-454a-a8c3-90edc68a4e7f"},"vehicle_type_id":"4","last_reported":1745907301,"current_range_meters":4800,"station_id":"cpo3532slgdg3j2ikp40","pricing_plan_id":"cebpf4jnsgd1na2vs0mg"},{"bike_id":"4141a4ac-c499-4bea-ac60-899e617d90d3","system_id":"levelo_inurba_marseille","lat":43.243943,"lon":5.37062,"is_reserved":false,"is_disabled":false,"rental_uris":{"android":"levelo://app?vid=4141a4ac-c499-4bea-ac60-899e617d90d3","ios":"levelo://app?vid=4141a4ac-c499-4bea-ac60-899e617d90d3"},"vehicle_type_id":"4","last_reported":1745907301,"current_range_meters":5600,"station_id":"ce4bhhh2rcd13ifvqfk0","pricing_plan_id":"cebpf4jnsgd1na2vs0mg"},{"bike_id":"55c946ec-1b56-4b26-a112-7bb21ea1f566","system_id":"levelo_inurba_marseille","lat":43.28155,"lon":5.42633,"is_reserved":false,"is_disabled":false,"rental_uris":{"android":"levelo://app?vid=55c946ec-1b56-4b26-a112-7bb21ea1f566","ios":"levelo://app?vid=55c946ec-1b56-4b26-a112-7bb21ea1f566"},"vehicle_type_id":"4","last_reported":1745907301,"current_range_meters":4800,"station_id":"ce4bhnh2rcd13ifvqgug","pricing_plan_id":"cebpf4jnsgd1na2vs0mg"},{"bike_id":"b4eabd13-20fa-492b-aa8b-a53653a0e3c5","system_id":"levelo_inurba_marseille","lat":43.23158,"lon":5.43712,"is_reserved":false,"is_disabled":false,"rental_uris":{"android":"levelo://app?vid=b4eabd13-20fa-492b-aa8b-a53653a0e3c5","ios":"levelo://app?vid=b4eabd13-20fa-492b-aa8b-a53653a0e3c5"},"vehicle_type_id":"4","last_reported":1745907301,"current_range_meters":4800,"station_id":"ce4bhmp2rcd13ifvqgog","pricing_plan_id":"cebpf4jnsgd1na2vs0mg"},{"bike_id":"a4c8a335-745b-4d95-97e0-7bac3cb18549","system_id":"levelo_inurba_marseille","lat":43.28119,"lon":5.398547,"is_reserved":false,"is_disabled":false,"rental_uris":{"android":"levelo://app?vid=a4c8a335-745b-4d95-97e0-7bac3cb18549","ios":"levelo://app?vid=a4c8a335-745b-4d95-97e0-7bac3cb18549"},"vehicle_type_id":"4","last_reported":1745907301,"current_range_meters":5600,"station_id":"","pricing_plan_id":"cebpf4jnsgd1na2vs0mg"},{"bike_id":"bed836fc-1934-49b6-9e64-34780801d17a","system_id":"levelo_inurba_marseille","lat":43.25728,"lon":5.41106,"is_reserved":false,"is_disabled":false,"rental_uris":{"android":"levelo://app?vid=bed836fc-1934-49b6-9e64-34780801d17a","ios":"levelo://app?vid=bed836fc-1934-49b6-9e64-34780801d17a"},"vehicle_type_id":"4","last_reported":1745907301,"current_range_meters":4800,"station_id":"ce4bhkp2rcd13ifvqgd0","pricing_plan_id":"cebpf4jnsgd1na2vs0mg"},{"bike_id":"19bc06ff-788d-4601-8413-abaa0395d58e","system_id":"levelo_inurba_marseille","lat":43.32559,"lon":5.41459,"is_reserved":false,"is_disabled":false,"rental_uris":{"android":"levelo://app?vid=19bc06ff-788d-4601-8413-abaa0395d58e","ios":"levelo://app?vid=19bc06ff-788d-4601-8413-abaa0395d58e"},"vehicle_type_id":"4","last_reported":1745907301,"current_range_meters":6000,"station_id":"ce4bhq12rcd13ifvqhhg","pricing_plan_id":"cebpf4jnsgd1na2vs0mg"},{"bike_id":"9911c71f-c88f-4cff-b649-bf5519661d1e","system_id":"levelo_inurba_marseille","lat":43.26556,"lon":5.37283,"is_reserved":false,"is_disabled":false,"rental_uris":{"android":"levelo://app?vid=9911c71f-c88f-4cff-b649-bf5519661d1e","ios":"levelo://app?vid=9911c71f-c88f-4cff-b649-bf5519661d1e"},"vehicle_type_id":"4","last_reported":1745907301,"current_range_meters":6000,"station_id":"ce4bhg12rcd13ifvqf70","pricing_plan_id":"cebpf4jnsgd1na2vs0mg"},{"bike_id":"1bee674a-01be-4b36-8247-af24b5c1cd5e","system_id":"levelo_inurba_marseille","lat":43.25133,"lon":5.40333,"is_reserved":false,"is_disabled":false,"rental_uris":{"android":"levelo://app?vid=1bee674a-01be-4b36-8247-af24b5c1cd5e","ios":"levelo://app?vid=1bee674a-01be-4b36-8247-af24b5c1cd5e"},"vehicle_type_id":"4","last_reported":1745907301,"current_range_meters":6400,"station_id":"ce4bhlh2rcd13ifvqgig","pricing_plan_id":"cebpf4jnsgd1na2vs0mg"},{"bike_id":"521fe742-6297-45f1-91d7-1268b8017380","system_id":"levelo_inurba_marseille","lat":43.29848,"lon":5.36282,"is_reserved":false,"is_disabled":false,"rental_uris":{"android":"levelo://app?vid=521fe742-6297-45f1-91d7-1268b8017380","ios":"levelo://app?vid=521fe742-6297-45f1-91d7-1268b8017380"},"vehicle_type_id":"4","last_reported":1745907301,"current_range_meters":6000,"station_id":"ce4bgpp2rcd13ifvqc3g","pricing_plan_id":"cebpf4jnsgd1na2vs0mg"},{"bike_id":"39a2385d-5897-4dd1-839d-9f9ce8e30498","system_id":"levelo_inurba_marseille","lat":43.24075,"lon":5.37764,"is_reserved":false,"is_disabled":false,"rental_uris":{"android":"levelo://app?vid=39a2385d-5897-4dd1-839d-9f9ce8e30498","ios":"levelo://app?vid=39a2385d-5897-4dd1-839d-9f9ce8e30498"},"vehicle_type_id":"4","last_reported":1745907301,"current_range_meters":6800,"station_id":"ce4bhnp2rcd13ifvqgvg","pricing_plan_id":"cebpf4jnsgd1na2vs0mg"},{"bike_id":"c6b81f33-8a4a-4d90-9b7a-b61623090b82","system_id":"levelo_inurba_marseille","lat":43.2439,"lon":5.370579,"is_reserved":false,"is_disabled":false,"rental_uris":{"android":"levelo://app?vid=c6b81f33-8a4a-4d90-9b7a-b61623090b82","ios":"levelo://app?vid=c6b81f33-8a4a-4d90-9b7a-b61623090b82"},"vehicle_type_id":"4","last_reported":1745907301,"current_range_meters":6800,"station_id":"ce4bhhh2rcd13ifvqfk0","pricing_plan_id":"cebpf4jnsgd1na2vs0mg"},{"bike_id":"679a1104-bb2f-4313-81ae-490e909d7dd6","system_id":"levelo_inurba_marseille","lat":43.29616,"lon":5.37717,"is_reserved":false,"is_disabled":true,"rental_uris":{"android":"levelo://app?vid=679a1104-bb2f-4313-81ae-490e909d7dd6","ios":"levelo://app?vid=679a1104-bb2f-4313-81ae-490e909d7dd6"},"vehicle_type_id":"4","last_reported":1745907301,"current_range_meters":6800,"station_id":"ce4bgi92rcd13ifvqb90","pricing_plan_id":"cebpf4jnsgd1na2vs0mg"},{"bike_id":"26deac1f-c435-40bc-9469-9ae0b266bb77","system_id":"levelo_inurba_marseille","lat":43.30193,"lon":5.38476,"is_reserved":false,"is_disabled":false,"rental_uris":{"android":"levelo://app?vid=26deac1f-c435-40bc-9469-9ae0b266bb77","ios":"levelo://app?vid=26deac1f-c435-40bc-9469-9ae0b266bb77"},"vehicle_type_id":"4","last_reported":1745907301,"current_range_meters":6800,"station_id":"","pricing_plan_id":"cebpf4jnsgd1na2vs0mg"},{"bike_id":"a927ad15-b129-4085-9072-8cc54f2c8cf2","system_id":"levelo_inurba_marseille","lat":43.32087,"lon":5.3679,"is_reserved":false,"is_disabled":false,"rental_uris":{"android":"levelo://app?vid=a927ad15-b129-4085-9072-8cc54f2c8cf2","ios":"levelo://app?vid=a927ad15-b129-4085-9072-8cc54f2c8cf2"},"vehicle_type_id":"4","last_reported":1745907301,"current_range_meters":6800,"station_id":"ce4bhrh2rcd13ifvqhug","pricing_plan_id":"cebpf4jnsgd1na2vs0mg"},{"bike_id":"af4f0c69-e62d-4155-b1d1-a67b45271ae1","system_id":"levelo_inurba_marseille","lat":43.247313,"lon":5.41187,"is_reserved":false,"is_disabled":false,"rental_uris":{"android":"levelo://app?vid=af4f0c69-e62d-4155-b1d1-a67b45271ae1","ios":"levelo://app?vid=af4f0c69-e62d-4155-b1d1-a67b45271ae1"},"vehicle_type_id":"4","last_reported":1745907301,"current_range_meters":7200,"station_id":"","pricing_plan_id":"cebpf4jnsgd1na2vs0mg"},{"bike_id":"63da50ac-3275-4213-9a0b-ab14a34196e1","system_id":"levelo_inurba_marseille","lat":43.24645,"lon":5.38169,"is_reserved":false,"is_disabled":true,"rental_uris":{"android":"levelo://app?vid=63da50ac-3275-4213-9a0b-ab14a34196e1","ios":"levelo://app?vid=63da50ac-3275-4213-9a0b-ab14a34196e1"},"vehicle_type_id":"4","last_reported":1745907301,"current_range_meters":7200,"station_id":"ce4bhih2rcd13ifvqfr0","pricing_plan_id":"cebpf4jnsgd1na2vs0mg"},{"bike_id":"c77d9452-ae24-4013-9d3f-4cae31acfd4b","system_id":"levelo_inurba_marseille","lat":43.2961,"lon":5.38108,"is_reserved":false,"is_disabled":false,"rental_uris":{"android":"levelo://app?vid=c77d9452-ae24-4013-9d3f-4cae31acfd4b","ios":"levelo://app?vid=c77d9452-ae24-4013-9d3f-4cae31acfd4b"},"vehicle_type_id":"4","last_reported":1745907301,"current_range_meters":7200,"station_id":"ce4bgl12rcd13ifvqbo0","pricing_plan_id":"cebpf4jnsgd1na2vs0mg"},{"bike_id":"fdb350a6-cc23-43dc-bd88-b05048d9527c","system_id":"levelo_inurba_marseille","lat":43.24994,"lon":5.38959,"is_reserved":false,"is_disabled":true,"rental_uris":{"android":"levelo://app?vid=fdb350a6-cc23-43dc-bd88-b05048d9527c","ios":"levelo://app?vid=fdb350a6-cc23-43dc-bd88-b05048d9527c"},"vehicle_type_id":"4","last_reported":1745907301,"current_range_meters":7200,"station_id":"ce4bhgp2rcd13ifvqfd0","pricing_plan_id":"cebpf4jnsgd1na2vs0mg"},{"bike_id":"ddd8e07d-5115-4782-80c2-022d4f102dd2","system_id":"levelo_inurba_marseille","lat":43.251208,"lon":5.403242,"is_reserved":false,"is_disabled":false,"rental_uris":{"android":"levelo://app?vid=ddd8e07d-5115-4782-80c2-022d4f102dd2","ios":"levelo://app?vid=ddd8e07d-5115-4782-80c2-022d4f102dd2"},"vehicle_type_id":"4","last_reported":1745907301,"current_range_meters":7200,"station_id":"ce4bhlh2rcd13ifvqgig","pricing_plan_id":"cebpf4jnsgd1na2vs0mg"},{"bike_id":"e1159595-da0e-4187-b288-b9110d58852e","system_id":"levelo_inurba_marseille","lat":43.30632,"lon":5.40095,"is_reserved":false,"is_disabled":false,"rental_uris":{"android":"levelo://app?vid=e1159595-da0e-4187-b288-b9110d58852e","ios":"levelo://app?vid=e1159595-da0e-4187-b288-b9110d58852e"},"vehicle_type_id":"4","last_reported":1745907301,"current_range_meters":7200,"station_id":"ce4bh112rcd13ifvqda0","pricing_plan_id":"cebpf4jnsgd1na2vs0mg"},{"bike_id":"57a41005-dba4-4995-a65d-3cc07a95ba9a","system_id":"levelo_inurba_marseille","lat":43.30205,"lon":5.39445,"is_reserved":false,"is_disabled":true,"rental_uris":{"android":"levelo://app?vid=57a41005-dba4-4995-a65d-3cc07a95ba9a","ios":"levelo://app?vid=57a41005-dba4-4995-a65d-3cc07a95ba9a"},"vehicle_type_id":"4","last_reported":1745907301,"current_range_meters":7200,"station_id":"ce4bh0p2rcd13ifvqd70","pricing_plan_id":"cebpf4jnsgd1na2vs0mg"},{"bike_id":"1f60866e-1eaf-44dc-8e9a-4dca75cf6c04","system_id":"levelo_inurba_marseille","lat":43.32361,"lon":5.38909,"is_reserved":false,"is_disabled":false,"rental_uris":{"android":"levelo://app?vid=1f60866e-1eaf-44dc-8e9a-4dca75cf6c04","ios":"levelo://app?vid=1f60866e-1eaf-44dc-8e9a-4dca75cf6c04"},"vehicle_type_id":"4","last_reported":1745907301,"current_range_meters":7200,"station_id":"ce4bhqp2rcd13ifvqhog","pricing_plan_id":"cebpf4jnsgd1na2vs0mg"},{"bike_id":"475b8bdc-dc1f-4399-9f80-4f88f5bfa601","system_id":"levelo_inurba_marseille","lat":43.32539,"lon":5.41423,"is_reserved":false,"is_disabled":false,"rental_uris":{"android":"levelo://app?vid=475b8bdc-dc1f-4399-9f80-4f88f5bfa601","ios":"levelo://app?vid=475b8bdc-dc1f-4399-9f80-4f88f5bfa601"},"vehicle_type_id":"4","last_reported":1745907301,"current_range_meters":8000,"station_id":"ce4bhq12rcd13ifvqhhg","pricing_plan_id":"cebpf4jnsgd1na2vs0mg"},{"bike_id":"32eca611-111c-4689-bb0d-8c20e0341828","system_id":"levelo_inurba_marseille","lat":43.255707,"lon":5.382509,"is_reserved":false,"is_disabled":false,"rental_uris":{"android":"levelo://app?vid=32eca611-111c-4689-bb0d-8c20e0341828","ios":"levelo://app?vid=32eca611-111c-4689-bb0d-8c20e0341828"},"vehicle_type_id":"4","last_reported":1745907301,"current_range_meters":8400,"station_id":"ce4bhih2rcd13ifvqfs0","pricing_plan_id":"cebpf4jnsgd1na2vs0mg"},{"bike_id":"1f19ae80-a633-40e2-944b-c9ca822ccc97","system_id":"levelo_inurba_marseille","lat":43.33087,"lon":5.40749,"is_reserved":false,"is_disabled":false,"rental_uris":{"android":"levelo://app?vid=1f19ae80-a633-40e2-944b-c9ca822ccc97","ios":"levelo://app?vid=1f19ae80-a633-40e2-944b-c9ca822ccc97"},"vehicle_type_id":"4","last_reported":1745907301,"current_range_meters":8400,"station_id":"","pricing_plan_id":"cebpf4jnsgd1na2vs0mg"},{"bike_id":"0601db71-6a78-497f-b205-23cf0bd13a21","system_id":"levelo_inurba_marseille","lat":43.27628,"lon":5.36138,"is_reserved":false,"is_disabled":false,"rental_uris":{"android":"levelo://app?vid=0601db71-6a78-497f-b205-23cf0bd13a21","ios":"levelo://app?vid=0601db71-6a78-497f-b205-23cf0bd13a21"},"vehicle_type_id":"4","last_reported":1745907301,"current_range_meters":8400,"station_id":"ce4bgj92rcd13ifvqbe0","pricing_plan_id":"cebpf4jnsgd1na2vs0mg"},{"bike_id":"05145c84-b9e3-47c2-91f6-efba0dd3a65c","system_id":"levelo_inurba_marseille","lat":43.25011,"lon":5.38915,"is_reserved":false,"is_disabled":true,"rental_uris":{"android":"levelo://app?vid=05145c84-b9e3-47c2-91f6-efba0dd3a65c","ios":"levelo://app?vid=05145c84-b9e3-47c2-91f6-efba0dd3a65c"},"vehicle_type_id":"4","last_reported":1745907301,"current_range_meters":8400,"station_id":"ce4bhgp2rcd13ifvqfd0","pricing_plan_id":"cebpf4jnsgd1na2vs0mg"},{"bike_id":"0c7a366b-22c8-441c-a626-cdf811c3208a","system_id":"levelo_inurba_marseille","lat":43.301555,"lon":5.38094,"is_reserved":false,"is_disabled":false,"rental_uris":{"android":"levelo://app?vid=0c7a366b-22c8-441c-a626-cdf811c3208a","ios":"levelo://app?vid=0c7a366b-22c8-441c-a626-cdf811c3208a"},"vehicle_type_id":"4","last_reported":1745907301,"current_range_meters":8800,"station_id":"ce4bgjp2rcd13ifvqbh0","pricing_plan_id":"cebpf4jnsgd1na2vs0mg"},{"bike_id":"ce2acb9b-3791-4000-822d-c542d629429b","system_id":"levelo_inurba_marseille","lat":43.26124,"lon":5.41468,"is_reserved":false,"is_disabled":false,"rental_uris":{"android":"levelo://app?vid=ce2acb9b-3791-4000-822d-c542d629429b","ios":"levelo://app?vid=ce2acb9b-3791-4000-822d-c542d629429b"},"vehicle_type_id":"4","last_reported":1745907301,"current_range_meters":8800,"station_id":"","pricing_plan_id":"cebpf4jnsgd1na2vs0mg"},{"bike_id":"8a6862b6-19ef-4be8-8367-ae3322ddba6d","system_id":"levelo_inurba_marseille","lat":43.24065,"lon":5.37768,"is_reserved":false,"is_disabled":false,"rental_uris":{"android":"levelo://app?vid=8a6862b6-19ef-4be8-8367-ae3322ddba6d","ios":"levelo://app?vid=8a6862b6-19ef-4be8-8367-ae3322ddba6d"},"vehicle_type_id":"4","last_reported":1745907301,"current_range_meters":8800,"station_id":"ce4bhnp2rcd13ifvqgvg","pricing_plan_id":"cebpf4jnsgd1na2vs0mg"},{"bike_id":"dd840921-3a3a-471e-8f1e-eb356802d267","system_id":"levelo_inurba_marseille","lat":43.27488,"lon":5.42447,"is_reserved":false,"is_disabled":false,"rental_uris":{"android":"levelo://app?vid=dd840921-3a3a-471e-8f1e-eb356802d267","ios":"levelo://app?vid=dd840921-3a3a-471e-8f1e-eb356802d267"},"vehicle_type_id":"4","last_reported":1745907301,"current_range_meters":8800,"station_id":"ce4bhn92rcd13ifvqgrg","pricing_plan_id":"cebpf4jnsgd1na2vs0mg"},{"bike_id":"41ac2d78-5961-4c8e-9f3b-f0feb2fd8afe","system_id":"levelo_inurba_marseille","lat":43.27939,"lon":5.410383,"is_reserved":false,"is_disabled":false,"rental_uris":{"android":"levelo://app?vid=41ac2d78-5961-4c8e-9f3b-f0feb2fd8afe","ios":"levelo://app?vid=41ac2d78-5961-4c8e-9f3b-f0feb2fd8afe"},"vehicle_type_id":"4","last_reported":1745907301,"current_range_meters":8800,"station_id":"ce4bhnp2rcd13ifvqh0g","pricing_plan_id":"cebpf4jnsgd1na2vs0mg"},{"bike_id":"e0fce97a-38d8-43c7-81c6-a502fabd1d3c","system_id":"levelo_inurba_marseille","lat":43.28926,"lon":5.38412,"is_reserved":false,"is_disabled":true,"rental_uris":{"android":"levelo://app?vid=e0fce97a-38d8-43c7-81c6-a502fabd1d3c","ios":"levelo://app?vid=e0fce97a-38d8-43c7-81c6-a502fabd1d3c"},"vehicle_type_id":"4","last_reported":1745907301,"current_range_meters":9200,"station_id":"ce4bh612rcd13ifvqe6g","pricing_plan_id":"cebpf4jnsgd1na2vs0mg"},{"bike_id":"e5b4b90d-e268-4de2-98f4-f6d0513f8801","system_id":"levelo_inurba_marseille","lat":43.26548,"lon":5.42201,"is_reserved":false,"is_disabled":false,"rental_uris":{"android":"levelo://app?vid=e5b4b90d-e268-4de2-98f4-f6d0513f8801","ios":"levelo://app?vid=e5b4b90d-e268-4de2-98f4-f6d0513f8801"},"vehicle_type_id":"4","last_reported":1745907301,"current_range_meters":9200,"station_id":"","pricing_plan_id":"cebpf4jnsgd1na2vs0mg"},{"bike_id":"4e3ba404-c078-4592-a462-831e3582e541","system_id":"levelo_inurba_marseille","lat":43.30157,"lon":5.38086,"is_reserved":false,"is_disabled":false,"rental_uris":{"android":"levelo://app?vid=4e3ba404-c078-4592-a462-831e3582e541","ios":"levelo://app?vid=4e3ba404-c078-4592-a462-831e3582e541"},"vehicle_type_id":"4","last_reported":1745907301,"current_range_meters":9200,"station_id":"ce4bgjp2rcd13ifvqbh0","pricing_plan_id":"cebpf4jnsgd1na2vs0mg"},{"bike_id":"45dbde69-a867-4cd1-9b21-c8baab31852c","system_id":"levelo_inurba_marseille","lat":43.34138,"lon":5.40904,"is_reserved":false,"is_disabled":false,"rental_uris":{"android":"levelo://app?vid=45dbde69-a867-4cd1-9b21-c8baab31852c","ios":"levelo://app?vid=45dbde69-a867-4cd1-9b21-c8baab31852c"},"vehicle_type_id":"4","last_reported":1745907301,"current_range_meters":8800,"station_id":"ce4bhqh2rcd13ifvqhlg","pricing_plan_id":"cebpf4jnsgd1na2vs0mg"},{"bike_id":"226d312a-4ccb-496e-aab9-b0daf824d15a","system_id":"levelo_inurba_marseille","lat":43.311012,"lon":5.37773,"is_reserved":false,"is_disabled":false,"rental_uris":{"android":"levelo://app?vid=226d312a-4ccb-496e-aab9-b0daf824d15a","ios":"levelo://app?vid=226d312a-4ccb-496e-aab9-b0daf824d15a"},"vehicle_type_id":"4","last_reported":1745907301,"current_range_meters":9200,"station_id":"ce4bgt92rcd13ifvqcg0","pricing_plan_id":"cebpf4jnsgd1na2vs0mg"},{"bike_id":"b9bdb62f-7270-47bb-a192-f7f104501227","system_id":"levelo_inurba_marseille","lat":43.231404,"lon":5.437253,"is_reserved":false,"is_disabled":false,"rental_uris":{"android":"levelo://app?vid=b9bdb62f-7270-47bb-a192-f7f104501227","ios":"levelo://app?vid=b9bdb62f-7270-47bb-a192-f7f104501227"},"vehicle_type_id":"4","last_reported":1745907301,"current_range_meters":9600,"station_id":"ce4bhmp2rcd13ifvqgog","pricing_plan_id":"cebpf4jnsgd1na2vs0mg"},{"bike_id":"f8527f98-9dba-4767-9c49-2ee5632fd2af","system_id":"levelo_inurba_marseille","lat":43.27821,"lon":5.40722,"is_reserved":false,"is_disabled":true,"rental_uris":{"android":"levelo://app?vid=f8527f98-9dba-4767-9c49-2ee5632fd2af","ios":"levelo://app?vid=f8527f98-9dba-4767-9c49-2ee5632fd2af"},"vehicle_type_id":"4","last_reported":1745907301,"current_range_meters":9600,"station_id":"ce4bhnh2rcd13ifvqgtg","pricing_plan_id":"cebpf4jnsgd1na2vs0mg"},{"bike_id":"3566469e-5adf-4ae7-9fad-25ede3e08c1b","system_id":"levelo_inurba_marseille","lat":43.29262,"lon":5.38435,"is_reserved":false,"is_disabled":true,"rental_uris":{"android":"levelo://app?vid=3566469e-5adf-4ae7-9fad-25ede3e08c1b","ios":"levelo://app?vid=3566469e-5adf-4ae7-9fad-25ede3e08c1b"},"vehicle_type_id":"4","last_reported":1745907301,"current_range_meters":9600,"station_id":"ce4bh692rcd13ifvqea0","pricing_plan_id":"cebpf4jnsgd1na2vs0mg"},{"bike_id":"5508056e-004b-4a4a-8c22-607a2f7ec61c","system_id":"levelo_inurba_marseille","lat":43.31707,"lon":5.37741,"is_reserved":false,"is_disabled":false,"rental_uris":{"android":"levelo://app?vid=5508056e-004b-4a4a-8c22-607a2f7ec61c","ios":"levelo://app?vid=5508056e-004b-4a4a-8c22-607a2f7ec61c"},"vehicle_type_id":"4","last_reported":1745907301,"current_range_meters":10000,"station_id":"ce4bgth2rcd13ifvqch0","pricing_plan_id":"cebpf4jnsgd1na2vs0mg"},{"bike_id":"a6c80b0c-536c-4a45-884f-2e1d125500ab","system_id":"levelo_inurba_marseille","lat":43.22502,"lon":5.34784,"is_reserved":false,"is_disabled":false,"rental_uris":{"android":"levelo://app?vid=a6c80b0c-536c-4a45-884f-2e1d125500ab","ios":"levelo://app?vid=a6c80b0c-536c-4a45-884f-2e1d125500ab"},"vehicle_type_id":"4","last_reported":1745907301,"current_range_meters":10000,"station_id":"st_cvj5dfep6f1abm77gieg","pricing_plan_id":"cebpf4jnsgd1na2vs0mg"},{"bike_id":"4a059a2d-b3a6-4e0b-9fd3-b714abc8d3bb","system_id":"levelo_inurba_marseille","lat":43.3201,"lon":5.38135,"is_reserved":false,"is_disabled":true,"rental_uris":{"android":"levelo://app?vid=4a059a2d-b3a6-4e0b-9fd3-b714abc8d3bb","ios":"levelo://app?vid=4a059a2d-b3a6-4e0b-9fd3-b714abc8d3bb"},"vehicle_type_id":"4","last_reported":1745907301,"current_range_meters":10000,"station_id":"ce4bhr12rcd13ifvqhpg","pricing_plan_id":"cebpf4jnsgd1na2vs0mg"},{"bike_id":"f35c7b84-6ac3-4dcc-a0e5-a488e0ec4bd3","system_id":"levelo_inurba_marseille","lat":43.275,"lon":5.42491,"is_reserved":false,"is_disabled":false,"rental_uris":{"android":"levelo://app?vid=f35c7b84-6ac3-4dcc-a0e5-a488e0ec4bd3","ios":"levelo://app?vid=f35c7b84-6ac3-4dcc-a0e5-a488e0ec4bd3"},"vehicle_type_id":"4","last_reported":1745907301,"current_range_meters":10000,"station_id":"ce4bhn92rcd13ifvqgrg","pricing_plan_id":"cebpf4jnsgd1na2vs0mg"},{"bike_id":"e1da51c7-c992-4572-bbd2-71c6335bf435","system_id":"levelo_inurba_marseille","lat":43.30456,"lon":5.37912,"is_reserved":false,"is_disabled":false,"rental_uris":{"android":"levelo://app?vid=e1da51c7-c992-4572-bbd2-71c6335bf435","ios":"levelo://app?vid=e1da51c7-c992-4572-bbd2-71c6335bf435"},"vehicle_type_id":"4","last_reported":1745907301,"current_range_meters":10000,"station_id":"ce4bgup2rcd13ifvqcn0","pricing_plan_id":"cebpf4jnsgd1na2vs0mg"},{"bike_id":"4f33f1fd-20a3-4897-9777-19066388bb99","system_id":"levelo_inurba_marseille","lat":43.29905,"lon":5.38275,"is_reserved":false,"is_disabled":true,"rental_uris":{"android":"levelo://app?vid=4f33f1fd-20a3-4897-9777-19066388bb99","ios":"levelo://app?vid=4f33f1fd-20a3-4897-9777-19066388bb99"},"vehicle_type_id":"4","last_reported":1745907301,"current_range_meters":10000,"station_id":"","pricing_plan_id":"cebpf4jnsgd1na2vs0mg"},{"bike_id":"611abd13-c6a5-461e-9e55-07bc452e941d","system_id":"levelo_inurba_marseille","lat":43.24176,"lon":5.39738,"is_reserved":false,"is_disabled":false,"rental_uris":{"android":"levelo://app?vid=611abd13-c6a5-461e-9e55-07bc452e941d","ios":"levelo://app?vid=611abd13-c6a5-461e-9e55-07bc452e941d"},"vehicle_type_id":"4","last_reported":1745907301,"current_range_meters":10800,"station_id":"ce4bhn12rcd13ifvqgpg","pricing_plan_id":"cebpf4jnsgd1na2vs0mg"},{"bike_id":"f16c0934-45ca-4017-bfd5-79a3245804b5","system_id":"levelo_inurba_marseille","lat":43.30483,"lon":5.37898,"is_reserved":false,"is_disabled":false,"rental_uris":{"android":"levelo://app?vid=f16c0934-45ca-4017-bfd5-79a3245804b5","ios":"levelo://app?vid=f16c0934-45ca-4017-bfd5-79a3245804b5"},"vehicle_type_id":"4","last_reported":1745907301,"current_range_meters":10800,"station_id":"ce4bgup2rcd13ifvqcn0","pricing_plan_id":"cebpf4jnsgd1na2vs0mg"},{"bike_id":"c2f55bf5-7612-4683-9df6-f2a9a9637e64","system_id":"levelo_inurba_marseille","lat":43.26571,"lon":5.39011,"is_reserved":false,"is_disabled":true,"rental_uris":{"android":"levelo://app?vid=c2f55bf5-7612-4683-9df6-f2a9a9637e64","ios":"levelo://app?vid=c2f55bf5-7612-4683-9df6-f2a9a9637e64"},"vehicle_type_id":"4","last_reported":1745907301,"current_range_meters":10800,"station_id":"ce4bhe12rcd13ifvqf30","pricing_plan_id":"cebpf4jnsgd1na2vs0mg"},{"bike_id":"bef27059-0093-4a2b-aef9-ea4e164109e8","system_id":"levelo_inurba_marseille","lat":43.30597,"lon":5.39368,"is_reserved":false,"is_disabled":false,"rental_uris":{"android":"levelo://app?vid=bef27059-0093-4a2b-aef9-ea4e164109e8","ios":"levelo://app?vid=bef27059-0093-4a2b-aef9-ea4e164109e8"},"vehicle_type_id":"4","last_reported":1745907301,"current_range_meters":10800,"station_id":"ce4bh0p2rcd13ifvqd80","pricing_plan_id":"cebpf4jnsgd1na2vs0mg"},{"bike_id":"ab4612c3-85f5-4cb4-9ce2-46373d9c1c69","system_id":"levelo_inurba_marseille","lat":43.25803,"lon":5.3859,"is_reserved":false,"is_disabled":false,"rental_uris":{"android":"levelo://app?vid=ab4612c3-85f5-4cb4-9ce2-46373d9c1c69","ios":"levelo://app?vid=ab4612c3-85f5-4cb4-9ce2-46373d9c1c69"},"vehicle_type_id":"4","last_reported":1745907301,"current_range_meters":10800,"station_id":"","pricing_plan_id":"cebpf4jnsgd1na2vs0mg"},{"bike_id":"a273dd95-99e2-4bb8-bee8-19cb9b13f516","system_id":"levelo_inurba_marseille","lat":43.29903,"lon":5.43667,"is_reserved":false,"is_disabled":true,"rental_uris":{"android":"levelo://app?vid=a273dd95-99e2-4bb8-bee8-19cb9b13f516","ios":"levelo://app?vid=a273dd95-99e2-4bb8-bee8-19cb9b13f516"},"vehicle_type_id":"4","last_reported":1745907301,"current_range_meters":10800,"station_id":"ce4bhpp2rcd13ifvqhfg","pricing_plan_id":"cebpf4jnsgd1na2vs0mg"},{"bike_id":"ae89e098-36b2-4584-a188-fd9e387979c7","system_id":"levelo_inurba_marseille","lat":43.24075,"lon":5.37757,"is_reserved":false,"is_disabled":false,"rental_uris":{"android":"levelo://app?vid=ae89e098-36b2-4584-a188-fd9e387979c7","ios":"levelo://app?vid=ae89e098-36b2-4584-a188-fd9e387979c7"},"vehicle_type_id":"4","last_reported":1745907301,"current_range_meters":10800,"station_id":"ce4bhnp2rcd13ifvqgvg","pricing_plan_id":"cebpf4jnsgd1na2vs0mg"},{"bike_id":"56d3126a-5caf-4303-83cc-6be1581e9786","system_id":"levelo_inurba_marseille","lat":43.248127,"lon":5.374588,"is_reserved":false,"is_disabled":false,"rental_uris":{"android":"levelo://app?vid=56d3126a-5caf-4303-83cc-6be1581e9786","ios":"levelo://app?vid=56d3126a-5caf-4303-83cc-6be1581e9786"},"vehicle_type_id":"4","last_reported":1745907301,"current_range_meters":11200,"station_id":"ce4bhgh2rcd13ifvqfb0","pricing_plan_id":"cebpf4jnsgd1na2vs0mg"},{"bike_id":"6feb8351-2482-46bd-9d4a-94c3d9c16d27","system_id":"levelo_inurba_marseille","lat":43.30593,"lon":5.39359,"is_reserved":false,"is_disabled":false,"rental_uris":{"android":"levelo://app?vid=6feb8351-2482-46bd-9d4a-94c3d9c16d27","ios":"levelo://app?vid=6feb8351-2482-46bd-9d4a-94c3d9c16d27"},"vehicle_type_id":"4","last_reported":1745907301,"current_range_meters":11600,"station_id":"ce4bh0p2rcd13ifvqd80","pricing_plan_id":"cebpf4jnsgd1na2vs0mg"},{"bike_id":"b22808be-e5f5-481a-adbb-a37a4ee6ac9d","system_id":"levelo_inurba_marseille","lat":43.29791,"lon":5.40401,"is_reserved":false,"is_disabled":false,"rental_uris":{"android":"levelo://app?vid=b22808be-e5f5-481a-adbb-a37a4ee6ac9d","ios":"levelo://app?vid=b22808be-e5f5-481a-adbb-a37a4ee6ac9d"},"vehicle_type_id":"4","last_reported":1745907301,"current_range_meters":11600,"station_id":"ce4bh112rcd13ifvqd90","pricing_plan_id":"cebpf4jnsgd1na2vs0mg"},{"bike_id":"923f8501-7d40-44db-85bf-a51b2ea797ac","system_id":"levelo_inurba_marseille","lat":43.26939,"lon":5.40278,"is_reserved":false,"is_disabled":true,"rental_uris":{"android":"levelo://app?vid=923f8501-7d40-44db-85bf-a51b2ea797ac","ios":"levelo://app?vid=923f8501-7d40-44db-85bf-a51b2ea797ac"},"vehicle_type_id":"4","last_reported":1745907301,"current_range_meters":11600,"station_id":"cjm6bp8fraef2m0cb0m0","pricing_plan_id":"cebpf4jnsgd1na2vs0mg"},{"bike_id":"a17dfbc6-c24a-4f6f-a28a-8c7675d89f62","system_id":"levelo_inurba_marseille","lat":43.30405,"lon":5.41286,"is_reserved":false,"is_disabled":true,"rental_uris":{"android":"levelo://app?vid=a17dfbc6-c24a-4f6f-a28a-8c7675d89f62","ios":"levelo://app?vid=a17dfbc6-c24a-4f6f-a28a-8c7675d89f62"},"vehicle_type_id":"4","last_reported":1745907301,"current_range_meters":11600,"station_id":"ce4bhop2rcd13ifvqh8g","pricing_plan_id":"cebpf4jnsgd1na2vs0mg"},{"bike_id":"64b4a0f6-eb4e-4a58-a49c-c2fdffc72cda","system_id":"levelo_inurba_marseille","lat":43.275664,"lon":5.38429,"is_reserved":false,"is_disabled":true,"rental_uris":{"android":"levelo://app?vid=64b4a0f6-eb4e-4a58-a49c-c2fdffc72cda","ios":"levelo://app?vid=64b4a0f6-eb4e-4a58-a49c-c2fdffc72cda"},"vehicle_type_id":"4","last_reported":1745907301,"current_range_meters":12000,"station_id":"ce4bhh92rcd13ifvqfi0","pricing_plan_id":"cebpf4jnsgd1na2vs0mg"},{"bike_id":"b3d7cca2-7d35-4030-8d40-4a8257616573","system_id":"levelo_inurba_marseille","lat":43.22508,"lon":5.347928,"is_reserved":false,"is_disabled":false,"rental_uris":{"android":"levelo://app?vid=b3d7cca2-7d35-4030-8d40-4a8257616573","ios":"levelo://app?vid=b3d7cca2-7d35-4030-8d40-4a8257616573"},"vehicle_type_id":"4","last_reported":1745907301,"current_range_meters":12000,"station_id":"st_cvj5dfep6f1abm77gieg","pricing_plan_id":"cebpf4jnsgd1na2vs0mg"},{"bike_id":"b13f9913-27dd-4197-ba83-0d6b671b36d4","system_id":"levelo_inurba_marseille","lat":43.324817,"lon":5.365694,"is_reserved":false,"is_disabled":false,"rental_uris":{"android":"levelo://app?vid=b13f9913-27dd-4197-ba83-0d6b671b36d4","ios":"levelo://app?vid=b13f9913-27dd-4197-ba83-0d6b671b36d4"},"vehicle_type_id":"4","last_reported":1745907301,"current_range_meters":12000,"station_id":"ce4bhs12rcd13ifvqhvg","pricing_plan_id":"cebpf4jnsgd1na2vs0mg"},{"bike_id":"fc095c6b-c13d-483c-9345-7ac105dceaff","system_id":"levelo_inurba_marseille","lat":43.26958,"lon":5.3864,"is_reserved":false,"is_disabled":false,"rental_uris":{"android":"levelo://app?vid=fc095c6b-c13d-483c-9345-7ac105dceaff","ios":"levelo://app?vid=fc095c6b-c13d-483c-9345-7ac105dceaff"},"vehicle_type_id":"4","last_reported":1745907301,"current_range_meters":12400,"station_id":"ce4bhh92rcd13ifvqfh0","pricing_plan_id":"cebpf4jnsgd1na2vs0mg"},{"bike_id":"f333b96f-fa04-44a6-9fa6-8f4d6a7b1ea9","system_id":"levelo_inurba_marseille","lat":43.24081,"lon":5.37753,"is_reserved":false,"is_disabled":false,"rental_uris":{"android":"levelo://app?vid=f333b96f-fa04-44a6-9fa6-8f4d6a7b1ea9","ios":"levelo://app?vid=f333b96f-fa04-44a6-9fa6-8f4d6a7b1ea9"},"vehicle_type_id":"4","last_reported":1745907301,"current_range_meters":12400,"station_id":"ce4bhnp2rcd13ifvqgvg","pricing_plan_id":"cebpf4jnsgd1na2vs0mg"},{"bike_id":"d58e03bb-19b9-469a-bcd7-0c3ce91d40b5","system_id":"levelo_inurba_marseille","lat":43.21345,"lon":5.34983,"is_reserved":false,"is_disabled":false,"rental_uris":{"android":"levelo://app?vid=d58e03bb-19b9-469a-bcd7-0c3ce91d40b5","ios":"levelo://app?vid=d58e03bb-19b9-469a-bcd7-0c3ce91d40b5"},"vehicle_type_id":"4","last_reported":1745907301,"current_range_meters":12400,"station_id":"","pricing_plan_id":"cebpf4jnsgd1na2vs0mg"},{"bike_id":"4b895ffc-93de-4c0a-9a5a-22699c8c0ef4","system_id":"levelo_inurba_marseille","lat":43.3073,"lon":5.42443,"is_reserved":false,"is_disabled":true,"rental_uris":{"android":"levelo://app?vid=4b895ffc-93de-4c0a-9a5a-22699c8c0ef4","ios":"levelo://app?vid=4b895ffc-93de-4c0a-9a5a-22699c8c0ef4"},"vehicle_type_id":"4","last_reported":1745907301,"current_range_meters":12400,"station_id":"st_cvj6ca6bvosntc0bfgr0","pricing_plan_id":"cebpf4jnsgd1na2vs0mg"},{"bike_id":"a958bd06-9a50-497e-aef9-55e910bf12d1","system_id":"levelo_inurba_marseille","lat":43.29923,"lon":5.38152,"is_reserved":false,"is_disabled":true,"rental_uris":{"android":"levelo://app?vid=a958bd06-9a50-497e-aef9-55e910bf12d1","ios":"levelo://app?vid=a958bd06-9a50-497e-aef9-55e910bf12d1"},"vehicle_type_id":"4","last_reported":1745907301,"current_range_meters":12800,"station_id":"ce4bgj12rcd13ifvqbc0","pricing_plan_id":"cebpf4jnsgd1na2vs0mg"},{"bike_id":"5d12ee4a-52f1-4f1a-af38-ad7a19a5a489","system_id":"levelo_inurba_marseille","lat":43.30595,"lon":5.36527,"is_reserved":false,"is_disabled":true,"rental_uris":{"android":"levelo://app?vid=5d12ee4a-52f1-4f1a-af38-ad7a19a5a489","ios":"levelo://app?vid=5d12ee4a-52f1-4f1a-af38-ad7a19a5a489"},"vehicle_type_id":"4","last_reported":1745907301,"current_range_meters":12800,"station_id":"ce4bgs12rcd13ifvqcag","pricing_plan_id":"cebpf4jnsgd1na2vs0mg"},{"bike_id":"18ecf80b-8620-4934-aa71-4e6f16570632","system_id":"levelo_inurba_marseille","lat":43.3047,"lon":5.37906,"is_reserved":false,"is_disabled":false,"rental_uris":{"android":"levelo://app?vid=18ecf80b-8620-4934-aa71-4e6f16570632","ios":"levelo://app?vid=18ecf80b-8620-4934-aa71-4e6f16570632"},"vehicle_type_id":"4","last_reported":1745907301,"current_range_meters":12800,"station_id":"ce4bgup2rcd13ifvqcn0","pricing_plan_id":"cebpf4jnsgd1na2vs0mg"},{"bike_id":"116435cc-6f7e-490d-b285-852166b8e71a","system_id":"levelo_inurba_marseille","lat":43.299254,"lon":5.374244,"is_reserved":false,"is_disabled":false,"rental_uris":{"android":"levelo://app?vid=116435cc-6f7e-490d-b285-852166b8e71a","ios":"levelo://app?vid=116435cc-6f7e-490d-b285-852166b8e71a"},"vehicle_type_id":"4","last_reported":1745907301,"current_range_meters":12000,"station_id":"ce4bgjh2rcd13ifvqbg0","pricing_plan_id":"cebpf4jnsgd1na2vs0mg"},{"bike_id":"28894e81-ede6-4351-84e3-e6b48081a345","system_id":"levelo_inurba_marseille","lat":43.33465,"lon":5.400537,"is_reserved":false,"is_disabled":false,"rental_uris":{"android":"levelo://app?vid=28894e81-ede6-4351-84e3-e6b48081a345","ios":"levelo://app?vid=28894e81-ede6-4351-84e3-e6b48081a345"},"vehicle_type_id":"4","last_reported":1745907301,"current_range_meters":13600,"station_id":"","pricing_plan_id":"cebpf4jnsgd1na2vs0mg"},{"bike_id":"a640b5aa-9396-4827-8f57-dd7ffd2f1a84","system_id":"levelo_inurba_marseille","lat":43.29791,"lon":5.38119,"is_reserved":false,"is_disabled":true,"rental_uris":{"android":"levelo://app?vid=a640b5aa-9396-4827-8f57-dd7ffd2f1a84","ios":"levelo://app?vid=a640b5aa-9396-4827-8f57-dd7ffd2f1a84"},"vehicle_type_id":"4","last_reported":1745907301,"current_range_meters":13600,"station_id":"ce4bgip2rcd13ifvqbb0","pricing_plan_id":"cebpf4jnsgd1na2vs0mg"},{"bike_id":"2e4c498f-96c6-44fa-a2cf-adad16bec378","system_id":"levelo_inurba_marseille","lat":43.30137,"lon":5.3741,"is_reserved":false,"is_disabled":false,"rental_uris":{"android":"levelo://app?vid=2e4c498f-96c6-44fa-a2cf-adad16bec378","ios":"levelo://app?vid=2e4c498f-96c6-44fa-a2cf-adad16bec378"},"vehicle_type_id":"4","last_reported":1745907301,"current_range_meters":11200,"station_id":"ce4bgs92rcd13ifvqcc0","pricing_plan_id":"cebpf4jnsgd1na2vs0mg"},{"bike_id":"1c71dd62-5c1a-42e0-8da7-81eceebfb73e","system_id":"levelo_inurba_marseille","lat":43.21185,"lon":5.35076,"is_reserved":false,"is_disabled":false,"rental_uris":{"android":"levelo://app?vid=1c71dd62-5c1a-42e0-8da7-81eceebfb73e","ios":"levelo://app?vid=1c71dd62-5c1a-42e0-8da7-81eceebfb73e"},"vehicle_type_id":"4","last_reported":1745907301,"current_range_meters":13600,"station_id":"st_cvj6sg6p6f1abm77japg","pricing_plan_id":"cebpf4jnsgd1na2vs0mg"},{"bike_id":"aee1020e-43fa-49a4-bb93-b4d43968d720","system_id":"levelo_inurba_marseille","lat":43.31493,"lon":5.37314,"is_reserved":false,"is_disabled":false,"rental_uris":{"android":"levelo://app?vid=aee1020e-43fa-49a4-bb93-b4d43968d720","ios":"levelo://app?vid=aee1020e-43fa-49a4-bb93-b4d43968d720"},"vehicle_type_id":"4","last_reported":1745907301,"current_range_meters":12800,"station_id":"ce4bgt12rcd13ifvqcd0","pricing_plan_id":"cebpf4jnsgd1na2vs0mg"},{"bike_id":"c561163e-a003-49a9-bf4f-8ad31b0bbaac","system_id":"levelo_inurba_marseille","lat":43.25712,"lon":5.41842,"is_reserved":false,"is_disabled":false,"rental_uris":{"android":"levelo://app?vid=c561163e-a003-49a9-bf4f-8ad31b0bbaac","ios":"levelo://app?vid=c561163e-a003-49a9-bf4f-8ad31b0bbaac"},"vehicle_type_id":"4","last_reported":1745907301,"current_range_meters":14000,"station_id":"","pricing_plan_id":"cebpf4jnsgd1na2vs0mg"},{"bike_id":"90ec756e-7d75-44ae-9837-bcc6f8c453df","system_id":"levelo_inurba_marseille","lat":43.231922,"lon":5.355566,"is_reserved":false,"is_disabled":false,"rental_uris":{"android":"levelo://app?vid=90ec756e-7d75-44ae-9837-bcc6f8c453df","ios":"levelo://app?vid=90ec756e-7d75-44ae-9837-bcc6f8c453df"},"vehicle_type_id":"4","last_reported":1745907301,"current_range_meters":14000,"station_id":"ce4bhu92rcd13ifvqi70","pricing_plan_id":"cebpf4jnsgd1na2vs0mg"},{"bike_id":"99c7e414-7472-4b29-822e-5c11b822ffea","system_id":"levelo_inurba_marseille","lat":43.290213,"lon":5.378602,"is_reserved":false,"is_disabled":false,"rental_uris":{"android":"levelo://app?vid=99c7e414-7472-4b29-822e-5c11b822ffea","ios":"levelo://app?vid=99c7e414-7472-4b29-822e-5c11b822ffea"},"vehicle_type_id":"4","last_reported":1745907301,"current_range_meters":14400,"station_id":"ce4bhc92rcd13ifvqetg","pricing_plan_id":"cebpf4jnsgd1na2vs0mg"},{"bike_id":"abb92aba-e4dd-44a5-a608-71cd25858b73","system_id":"levelo_inurba_marseille","lat":43.28987,"lon":5.37831,"is_reserved":false,"is_disabled":false,"rental_uris":{"android":"levelo://app?vid=abb92aba-e4dd-44a5-a608-71cd25858b73","ios":"levelo://app?vid=abb92aba-e4dd-44a5-a608-71cd25858b73"},"vehicle_type_id":"4","last_reported":1745907301,"current_range_meters":14000,"station_id":"ce4bh9p2rcd13ifvqed0","pricing_plan_id":"cebpf4jnsgd1na2vs0mg"},{"bike_id":"96c2f3b6-0045-4e75-9295-7300a743a972","system_id":"levelo_inurba_marseille","lat":43.31715,"lon":5.37745,"is_reserved":false,"is_disabled":false,"rental_uris":{"android":"levelo://app?vid=96c2f3b6-0045-4e75-9295-7300a743a972","ios":"levelo://app?vid=96c2f3b6-0045-4e75-9295-7300a743a972"},"vehicle_type_id":"4","last_reported":1745907301,"current_range_meters":14400,"station_id":"ce4bgth2rcd13ifvqch0","pricing_plan_id":"cebpf4jnsgd1na2vs0mg"},{"bike_id":"69e5982b-1cfc-4bf9-a6c1-72ad2f9319a0","system_id":"levelo_inurba_marseille","lat":43.27493,"lon":5.42456,"is_reserved":false,"is_disabled":false,"rental_uris":{"android":"levelo://app?vid=69e5982b-1cfc-4bf9-a6c1-72ad2f9319a0","ios":"levelo://app?vid=69e5982b-1cfc-4bf9-a6c1-72ad2f9319a0"},"vehicle_type_id":"4","last_reported":1745907301,"current_range_meters":14400,"station_id":"ce4bhn92rcd13ifvqgrg","pricing_plan_id":"cebpf4jnsgd1na2vs0mg"},{"bike_id":"9366d0f7-d227-4995-badb-e85de9ed01d7","system_id":"levelo_inurba_marseille","lat":43.31726,"lon":5.37803,"is_reserved":false,"is_disabled":true,"rental_uris":{"android":"levelo://app?vid=9366d0f7-d227-4995-badb-e85de9ed01d7","ios":"levelo://app?vid=9366d0f7-d227-4995-badb-e85de9ed01d7"},"vehicle_type_id":"4","last_reported":1745907301,"current_range_meters":14400,"station_id":"","pricing_plan_id":"cebpf4jnsgd1na2vs0mg"},{"bike_id":"9c82b174-65fa-4b80-b691-7ab15d61c164","system_id":"levelo_inurba_marseille","lat":43.27493,"lon":5.4245,"is_reserved":false,"is_disabled":false,"rental_uris":{"android":"levelo://app?vid=9c82b174-65fa-4b80-b691-7ab15d61c164","ios":"levelo://app?vid=9c82b174-65fa-4b80-b691-7ab15d61c164"},"vehicle_type_id":"4","last_reported":1745907301,"current_range_meters":14000,"station_id":"ce4bhn92rcd13ifvqgrg","pricing_plan_id":"cebpf4jnsgd1na2vs0mg"},{"bike_id":"888538ce-4dc3-4f2e-8404-8ea4d633e1aa","system_id":"levelo_inurba_marseille","lat":43.26176,"lon":5.37474,"is_reserved":false,"is_disabled":false,"rental_uris":{"android":"levelo://app?vid=888538ce-4dc3-4f2e-8404-8ea4d633e1aa","ios":"levelo://app?vid=888538ce-4dc3-4f2e-8404-8ea4d633e1aa"},"vehicle_type_id":"4","last_reported":1745907301,"current_range_meters":14400,"station_id":"ce4bhgp2rcd13ifvqfc0","pricing_plan_id":"cebpf4jnsgd1na2vs0mg"},{"bike_id":"489415b8-9254-45c1-b00c-e7554d56755c","system_id":"levelo_inurba_marseille","lat":43.24514,"lon":5.41241,"is_reserved":false,"is_disabled":false,"rental_uris":{"android":"levelo://app?vid=489415b8-9254-45c1-b00c-e7554d56755c","ios":"levelo://app?vid=489415b8-9254-45c1-b00c-e7554d56755c"},"vehicle_type_id":"4","last_reported":1745907301,"current_range_meters":14800,"station_id":"","pricing_plan_id":"cebpf4jnsgd1na2vs0mg"},{"bike_id":"b3645ff5-269b-452d-a7ff-bc430d773124","system_id":"levelo_inurba_marseille","lat":43.24075,"lon":5.37759,"is_reserved":false,"is_disabled":false,"rental_uris":{"android":"levelo://app?vid=b3645ff5-269b-452d-a7ff-bc430d773124","ios":"levelo://app?vid=b3645ff5-269b-452d-a7ff-bc430d773124"},"vehicle_type_id":"4","last_reported":1745907301,"current_range_meters":14800,"station_id":"ce4bhnp2rcd13ifvqgvg","pricing_plan_id":"cebpf4jnsgd1na2vs0mg"},{"bike_id":"4e1d0b0f-000b-461f-b35f-eabaf802e00c","system_id":"levelo_inurba_marseille","lat":43.24076,"lon":5.37754,"is_reserved":false,"is_disabled":false,"rental_uris":{"android":"levelo://app?vid=4e1d0b0f-000b-461f-b35f-eabaf802e00c","ios":"levelo://app?vid=4e1d0b0f-000b-461f-b35f-eabaf802e00c"},"vehicle_type_id":"4","last_reported":1745907301,"current_range_meters":15200,"station_id":"ce4bhnp2rcd13ifvqgvg","pricing_plan_id":"cebpf4jnsgd1na2vs0mg"},{"bike_id":"39f18c8b-df43-4308-a98e-40efc694b971","system_id":"levelo_inurba_marseille","lat":43.24076,"lon":5.37777,"is_reserved":false,"is_disabled":false,"rental_uris":{"android":"levelo://app?vid=39f18c8b-df43-4308-a98e-40efc694b971","ios":"levelo://app?vid=39f18c8b-df43-4308-a98e-40efc694b971"},"vehicle_type_id":"4","last_reported":1745907301,"current_range_meters":15200,"station_id":"ce4bhnp2rcd13ifvqgvg","pricing_plan_id":"cebpf4jnsgd1na2vs0mg"},{"bike_id":"2a8a1c15-6e02-4c60-8edf-466d3fbc8696","system_id":"levelo_inurba_marseille","lat":43.240814,"lon":5.377512,"is_reserved":false,"is_disabled":false,"rental_uris":{"android":"levelo://app?vid=2a8a1c15-6e02-4c60-8edf-466d3fbc8696","ios":"levelo://app?vid=2a8a1c15-6e02-4c60-8edf-466d3fbc8696"},"vehicle_type_id":"4","last_reported":1745907301,"current_range_meters":16000,"station_id":"ce4bhnp2rcd13ifvqgvg","pricing_plan_id":"cebpf4jnsgd1na2vs0mg"},{"bike_id":"66efd0cc-7d27-4e97-801f-bca43c8c7a88","system_id":"levelo_inurba_marseille","lat":43.30615,"lon":5.39358,"is_reserved":false,"is_disabled":true,"rental_uris":{"android":"levelo://app?vid=66efd0cc-7d27-4e97-801f-bca43c8c7a88","ios":"levelo://app?vid=66efd0cc-7d27-4e97-801f-bca43c8c7a88"},"vehicle_type_id":"4","last_reported":1745907301,"current_range_meters":16000,"station_id":"ce4bh0p2rcd13ifvqd80","pricing_plan_id":"cebpf4jnsgd1na2vs0mg"},{"bike_id":"32b33499-54fa-4c63-b565-ff6a41c5eea4","system_id":"levelo_inurba_marseille","lat":43.24179,"lon":5.39729,"is_reserved":false,"is_disabled":false,"rental_uris":{"android":"levelo://app?vid=32b33499-54fa-4c63-b565-ff6a41c5eea4","ios":"levelo://app?vid=32b33499-54fa-4c63-b565-ff6a41c5eea4"},"vehicle_type_id":"4","last_reported":1745907301,"current_range_meters":16000,"station_id":"ce4bhn12rcd13ifvqgpg","pricing_plan_id":"cebpf4jnsgd1na2vs0mg"},{"bike_id":"51682406-302d-4e16-8f5f-1b72e5b7603a","system_id":"levelo_inurba_marseille","lat":43.27936,"lon":5.41148,"is_reserved":false,"is_disabled":false,"rental_uris":{"android":"levelo://app?vid=51682406-302d-4e16-8f5f-1b72e5b7603a","ios":"levelo://app?vid=51682406-302d-4e16-8f5f-1b72e5b7603a"},"vehicle_type_id":"4","last_reported":1745907301,"current_range_meters":16000,"station_id":"ce4bhnp2rcd13ifvqh0g","pricing_plan_id":"cebpf4jnsgd1na2vs0mg"},{"bike_id":"1d8c393f-6120-42ad-a83d-fbea77187c37","system_id":"levelo_inurba_marseille","lat":43.24083,"lon":5.37755,"is_reserved":false,"is_disabled":false,"rental_uris":{"android":"levelo://app?vid=1d8c393f-6120-42ad-a83d-fbea77187c37","ios":"levelo://app?vid=1d8c393f-6120-42ad-a83d-fbea77187c37"},"vehicle_type_id":"4","last_reported":1745907301,"current_range_meters":16000,"station_id":"ce4bhnp2rcd13ifvqgvg","pricing_plan_id":"cebpf4jnsgd1na2vs0mg"},{"bike_id":"9267d655-da46-4146-ae8d-203ad0fc0b34","system_id":"levelo_inurba_marseille","lat":43.2657,"lon":5.39009,"is_reserved":false,"is_disabled":false,"rental_uris":{"android":"levelo://app?vid=9267d655-da46-4146-ae8d-203ad0fc0b34","ios":"levelo://app?vid=9267d655-da46-4146-ae8d-203ad0fc0b34"},"vehicle_type_id":"4","last_reported":1745907301,"current_range_meters":16000,"station_id":"ce4bhe12rcd13ifvqf30","pricing_plan_id":"cebpf4jnsgd1na2vs0mg"},{"bike_id":"c46fbe5f-8330-40b5-9f5c-628a73545d10","system_id":"levelo_inurba_marseille","lat":43.33601,"lon":5.41022,"is_reserved":false,"is_disabled":false,"rental_uris":{"android":"levelo://app?vid=c46fbe5f-8330-40b5-9f5c-628a73545d10","ios":"levelo://app?vid=c46fbe5f-8330-40b5-9f5c-628a73545d10"},"vehicle_type_id":"4","last_reported":1745907301,"current_range_meters":16000,"station_id":"ce4bhqh2rcd13ifvqhmg","pricing_plan_id":"cebpf4jnsgd1na2vs0mg"},{"bike_id":"30e585b6-a1a7-4d47-a9c6-d0ac4b00d0db","system_id":"levelo_inurba_marseille","lat":43.321124,"lon":5.36785,"is_reserved":false,"is_disabled":false,"rental_uris":{"android":"levelo://app?vid=30e585b6-a1a7-4d47-a9c6-d0ac4b00d0db","ios":"levelo://app?vid=30e585b6-a1a7-4d47-a9c6-d0ac4b00d0db"},"vehicle_type_id":"4","last_reported":1745907301,"current_range_meters":16400,"station_id":"ce4bhrh2rcd13ifvqhug","pricing_plan_id":"cebpf4jnsgd1na2vs0mg"},{"bike_id":"86c55011-c55b-493c-9b54-56c4d47b50cb","system_id":"levelo_inurba_marseille","lat":43.298,"lon":5.38086,"is_reserved":false,"is_disabled":false,"rental_uris":{"android":"levelo://app?vid=86c55011-c55b-493c-9b54-56c4d47b50cb","ios":"levelo://app?vid=86c55011-c55b-493c-9b54-56c4d47b50cb"},"vehicle_type_id":"4","last_reported":1745907301,"current_range_meters":16400,"station_id":"ce4bgip2rcd13ifvqbb0","pricing_plan_id":"cebpf4jnsgd1na2vs0mg"},{"bike_id":"a439637d-dbae-491d-93f2-642ad200cd8c","system_id":"levelo_inurba_marseille","lat":43.28319,"lon":5.38904,"is_reserved":false,"is_disabled":true,"rental_uris":{"android":"levelo://app?vid=a439637d-dbae-491d-93f2-642ad200cd8c","ios":"levelo://app?vid=a439637d-dbae-491d-93f2-642ad200cd8c"},"vehicle_type_id":"4","last_reported":1745907301,"current_range_meters":16400,"station_id":"","pricing_plan_id":"cebpf4jnsgd1na2vs0mg"},{"bike_id":"dcae510a-fb55-4a1e-9b94-49942e6daf9c","system_id":"levelo_inurba_marseille","lat":43.27923,"lon":5.39581,"is_reserved":false,"is_disabled":true,"rental_uris":{"android":"levelo://app?vid=dcae510a-fb55-4a1e-9b94-49942e6daf9c","ios":"levelo://app?vid=dcae510a-fb55-4a1e-9b94-49942e6daf9c"},"vehicle_type_id":"4","last_reported":1745907301,"current_range_meters":16400,"station_id":"ce4bhf92rcd13ifvqf40","pricing_plan_id":"cebpf4jnsgd1na2vs0mg"},{"bike_id":"c9a715ac-a7ea-45d9-9e61-15c54d527fac","system_id":"levelo_inurba_marseille","lat":43.26197,"lon":5.37934,"is_reserved":false,"is_disabled":false,"rental_uris":{"android":"levelo://app?vid=c9a715ac-a7ea-45d9-9e61-15c54d527fac","ios":"levelo://app?vid=c9a715ac-a7ea-45d9-9e61-15c54d527fac"},"vehicle_type_id":"4","last_reported":1745907301,"current_range_meters":16400,"station_id":"ce4bhjp2rcd13ifvqg90","pricing_plan_id":"cebpf4jnsgd1na2vs0mg"},{"bike_id":"593be073-f9d6-4a93-938b-8e84b0eca97d","system_id":"levelo_inurba_marseille","lat":43.24075,"lon":5.37761,"is_reserved":false,"is_disabled":false,"rental_uris":{"android":"levelo://app?vid=593be073-f9d6-4a93-938b-8e84b0eca97d","ios":"levelo://app?vid=593be073-f9d6-4a93-938b-8e84b0eca97d"},"vehicle_type_id":"4","last_reported":1745907301,"current_range_meters":16400,"station_id":"ce4bhnp2rcd13ifvqgvg","pricing_plan_id":"cebpf4jnsgd1na2vs0mg"},{"bike_id":"ab566342-f92c-435a-a238-04939b89345b","system_id":"levelo_inurba_marseille","lat":43.29602,"lon":5.38077,"is_reserved":false,"is_disabled":true,"rental_uris":{"android":"levelo://app?vid=ab566342-f92c-435a-a238-04939b89345b","ios":"levelo://app?vid=ab566342-f92c-435a-a238-04939b89345b"},"vehicle_type_id":"4","last_reported":1745907301,"current_range_meters":16400,"station_id":"ce4bgl12rcd13ifvqbo0","pricing_plan_id":"cebpf4jnsgd1na2vs0mg"},{"bike_id":"b65024f1-321f-4d06-a452-3dc7546cb35f","system_id":"levelo_inurba_marseille","lat":43.32047,"lon":5.41546,"is_reserved":false,"is_disabled":false,"rental_uris":{"android":"levelo://app?vid=b65024f1-321f-4d06-a452-3dc7546cb35f","ios":"levelo://app?vid=b65024f1-321f-4d06-a452-3dc7546cb35f"},"vehicle_type_id":"4","last_reported":1745907301,"current_range_meters":16000,"station_id":"ce4bhq92rcd13ifvqhkg","pricing_plan_id":"cebpf4jnsgd1na2vs0mg"},{"bike_id":"1f384330-8c5f-4222-a3d0-f04b402fbed2","system_id":"levelo_inurba_marseille","lat":43.30151,"lon":5.38086,"is_reserved":false,"is_disabled":false,"rental_uris":{"android":"levelo://app?vid=1f384330-8c5f-4222-a3d0-f04b402fbed2","ios":"levelo://app?vid=1f384330-8c5f-4222-a3d0-f04b402fbed2"},"vehicle_type_id":"4","last_reported":1745907301,"current_range_meters":16800,"station_id":"ce4bgjp2rcd13ifvqbh0","pricing_plan_id":"cebpf4jnsgd1na2vs0mg"},{"bike_id":"1cb3da76-f497-49e4-a8a6-5a0629444d60","system_id":"levelo_inurba_marseille","lat":43.29933,"lon":5.36695,"is_reserved":false,"is_disabled":false,"rental_uris":{"android":"levelo://app?vid=1cb3da76-f497-49e4-a8a6-5a0629444d60","ios":"levelo://app?vid=1cb3da76-f497-49e4-a8a6-5a0629444d60"},"vehicle_type_id":"4","last_reported":1745907301,"current_range_meters":16800,"station_id":"","pricing_plan_id":"cebpf4jnsgd1na2vs0mg"},{"bike_id":"ae50c1de-8c80-4ad2-a1d9-2fbb08d50e7b","system_id":"levelo_inurba_marseille","lat":43.25717,"lon":5.41119,"is_reserved":false,"is_disabled":true,"rental_uris":{"android":"levelo://app?vid=ae50c1de-8c80-4ad2-a1d9-2fbb08d50e7b","ios":"levelo://app?vid=ae50c1de-8c80-4ad2-a1d9-2fbb08d50e7b"},"vehicle_type_id":"4","last_reported":1745907301,"current_range_meters":16800,"station_id":"ce4bhkp2rcd13ifvqgd0","pricing_plan_id":"cebpf4jnsgd1na2vs0mg"},{"bike_id":"3116d66b-5e57-4f41-b790-e11ad4af653f","system_id":"levelo_inurba_marseille","lat":43.27965,"lon":5.41653,"is_reserved":false,"is_disabled":true,"rental_uris":{"android":"levelo://app?vid=3116d66b-5e57-4f41-b790-e11ad4af653f","ios":"levelo://app?vid=3116d66b-5e57-4f41-b790-e11ad4af653f"},"vehicle_type_id":"4","last_reported":1745907301,"current_range_meters":16800,"station_id":"ce4bho12rcd13ifvqh1g","pricing_plan_id":"cebpf4jnsgd1na2vs0mg"},{"bike_id":"03ddb6b3-1b9f-4637-8018-0f95bc4e3fdd","system_id":"levelo_inurba_marseille","lat":43.27484,"lon":5.42452,"is_reserved":false,"is_disabled":false,"rental_uris":{"android":"levelo://app?vid=03ddb6b3-1b9f-4637-8018-0f95bc4e3fdd","ios":"levelo://app?vid=03ddb6b3-1b9f-4637-8018-0f95bc4e3fdd"},"vehicle_type_id":"4","last_reported":1745907301,"current_range_meters":16800,"station_id":"ce4bhn92rcd13ifvqgrg","pricing_plan_id":"cebpf4jnsgd1na2vs0mg"},{"bike_id":"9173922a-f107-41af-a094-25f7cf17a35b","system_id":"levelo_inurba_marseille","lat":43.24073,"lon":5.37771,"is_reserved":false,"is_disabled":true,"rental_uris":{"android":"levelo://app?vid=9173922a-f107-41af-a094-25f7cf17a35b","ios":"levelo://app?vid=9173922a-f107-41af-a094-25f7cf17a35b"},"vehicle_type_id":"4","last_reported":1745907301,"current_range_meters":16400,"station_id":"ce4bhnp2rcd13ifvqgvg","pricing_plan_id":"cebpf4jnsgd1na2vs0mg"},{"bike_id":"07693e24-7000-4fd3-8fe1-8644dd3f1e08","system_id":"levelo_inurba_marseille","lat":43.2739,"lon":5.38984,"is_reserved":false,"is_disabled":false,"rental_uris":{"android":"levelo://app?vid=07693e24-7000-4fd3-8fe1-8644dd3f1e08","ios":"levelo://app?vid=07693e24-7000-4fd3-8fe1-8644dd3f1e08"},"vehicle_type_id":"4","last_reported":1745907301,"current_range_meters":16800,"station_id":"","pricing_plan_id":"cebpf4jnsgd1na2vs0mg"},{"bike_id":"601bac93-154b-4a64-9f36-f3a94feba46d","system_id":"levelo_inurba_marseille","lat":43.301572,"lon":5.380893,"is_reserved":false,"is_disabled":false,"rental_uris":{"android":"levelo://app?vid=601bac93-154b-4a64-9f36-f3a94feba46d","ios":"levelo://app?vid=601bac93-154b-4a64-9f36-f3a94feba46d"},"vehicle_type_id":"4","last_reported":1745907301,"current_range_meters":17200,"station_id":"ce4bgjp2rcd13ifvqbh0","pricing_plan_id":"cebpf4jnsgd1na2vs0mg"},{"bike_id":"ad9644f2-6523-45a6-8205-44ac1eab58f0","system_id":"levelo_inurba_marseille","lat":43.2849,"lon":5.38419,"is_reserved":false,"is_disabled":false,"rental_uris":{"android":"levelo://app?vid=ad9644f2-6523-45a6-8205-44ac1eab58f0","ios":"levelo://app?vid=ad9644f2-6523-45a6-8205-44ac1eab58f0"},"vehicle_type_id":"4","last_reported":1745907301,"current_range_meters":17200,"station_id":"ce4bh512rcd13ifvqe3g","pricing_plan_id":"cebpf4jnsgd1na2vs0mg"},{"bike_id":"6899628f-43b9-42f0-b029-6d4e8fdbc76f","system_id":"levelo_inurba_marseille","lat":43.29041,"lon":5.37565,"is_reserved":false,"is_disabled":false,"rental_uris":{"android":"levelo://app?vid=6899628f-43b9-42f0-b029-6d4e8fdbc76f","ios":"levelo://app?vid=6899628f-43b9-42f0-b029-6d4e8fdbc76f"},"vehicle_type_id":"4","last_reported":1745907301,"current_range_meters":17600,"station_id":"ce4bh692rcd13ifvqe90","pricing_plan_id":"cebpf4jnsgd1na2vs0mg"},{"bike_id":"6a08f3bf-5429-499e-92b3-602788dffc24","system_id":"levelo_inurba_marseille","lat":43.2922,"lon":5.36075,"is_reserved":false,"is_disabled":false,"rental_uris":{"android":"levelo://app?vid=6a08f3bf-5429-499e-92b3-602788dffc24","ios":"levelo://app?vid=6a08f3bf-5429-499e-92b3-602788dffc24"},"vehicle_type_id":"4","last_reported":1745907301,"current_range_meters":17600,"station_id":"ce4bhbh2rcd13ifvqeqg","pricing_plan_id":"cebpf4jnsgd1na2vs0mg"},{"bike_id":"9d879c97-2eb8-4134-a4dc-028cdf750bbd","system_id":"levelo_inurba_marseille","lat":43.30379,"lon":5.42486,"is_reserved":false,"is_disabled":false,"rental_uris":{"android":"levelo://app?vid=9d879c97-2eb8-4134-a4dc-028cdf750bbd","ios":"levelo://app?vid=9d879c97-2eb8-4134-a4dc-028cdf750bbd"},"vehicle_type_id":"4","last_reported":1745907301,"current_range_meters":17600,"station_id":"ce4bhoh2rcd13ifvqh6g","pricing_plan_id":"cebpf4jnsgd1na2vs0mg"},{"bike_id":"d2f13750-e22a-4165-8dd4-3429f9cedb09","system_id":"levelo_inurba_marseille","lat":43.29266,"lon":5.37638,"is_reserved":false,"is_disabled":true,"rental_uris":{"android":"levelo://app?vid=d2f13750-e22a-4165-8dd4-3429f9cedb09","ios":"levelo://app?vid=d2f13750-e22a-4165-8dd4-3429f9cedb09"},"vehicle_type_id":"4","last_reported":1745907301,"current_range_meters":17600,"station_id":"ce4bgi12rcd13ifvqb80","pricing_plan_id":"cebpf4jnsgd1na2vs0mg"},{"bike_id":"e55a54d4-a0b5-40a8-b00f-452c87f84852","system_id":"levelo_inurba_marseille","lat":43.31233,"lon":5.36888,"is_reserved":false,"is_disabled":false,"rental_uris":{"android":"levelo://app?vid=e55a54d4-a0b5-40a8-b00f-452c87f84852","ios":"levelo://app?vid=e55a54d4-a0b5-40a8-b00f-452c87f84852"},"vehicle_type_id":"4","last_reported":1745907301,"current_range_meters":18000,"station_id":"ce4bgl92rcd13ifvqbq0","pricing_plan_id":"cebpf4jnsgd1na2vs0mg"},{"bike_id":"e902df82-3f4e-4be2-82fa-374a8ba1fc49","system_id":"levelo_inurba_marseille","lat":43.299568,"lon":5.397819,"is_reserved":false,"is_disabled":false,"rental_uris":{"android":"levelo://app?vid=e902df82-3f4e-4be2-82fa-374a8ba1fc49","ios":"levelo://app?vid=e902df82-3f4e-4be2-82fa-374a8ba1fc49"},"vehicle_type_id":"4","last_reported":1745907301,"current_range_meters":18000,"station_id":"","pricing_plan_id":"cebpf4jnsgd1na2vs0mg"},{"bike_id":"8c7a67d0-9427-4b48-9948-5c9e9f7b218a","system_id":"levelo_inurba_marseille","lat":43.30147,"lon":5.38079,"is_reserved":false,"is_disabled":false,"rental_uris":{"android":"levelo://app?vid=8c7a67d0-9427-4b48-9948-5c9e9f7b218a","ios":"levelo://app?vid=8c7a67d0-9427-4b48-9948-5c9e9f7b218a"},"vehicle_type_id":"4","last_reported":1745907301,"current_range_meters":18000,"station_id":"ce4bgjp2rcd13ifvqbh0","pricing_plan_id":"cebpf4jnsgd1na2vs0mg"},{"bike_id":"b1acefc1-3a95-4d96-aa8c-428fd7e78fd9","system_id":"levelo_inurba_marseille","lat":43.26781,"lon":5.39422,"is_reserved":false,"is_disabled":false,"rental_uris":{"android":"levelo://app?vid=b1acefc1-3a95-4d96-aa8c-428fd7e78fd9","ios":"levelo://app?vid=b1acefc1-3a95-4d96-aa8c-428fd7e78fd9"},"vehicle_type_id":"4","last_reported":1745907301,"current_range_meters":18000,"station_id":"ce4bhh12rcd13ifvqfg0","pricing_plan_id":"cebpf4jnsgd1na2vs0mg"},{"bike_id":"f40dcfa5-aac8-4c77-a8ea-6f63ff9f54e7","system_id":"levelo_inurba_marseille","lat":43.29034,"lon":5.38141,"is_reserved":false,"is_disabled":true,"rental_uris":{"android":"levelo://app?vid=f40dcfa5-aac8-4c77-a8ea-6f63ff9f54e7","ios":"levelo://app?vid=f40dcfa5-aac8-4c77-a8ea-6f63ff9f54e7"},"vehicle_type_id":"4","last_reported":1745907301,"current_range_meters":18000,"station_id":"ce4bh4p2rcd13ifvqe1g","pricing_plan_id":"cebpf4jnsgd1na2vs0mg"},{"bike_id":"47a9c5d0-ed84-424b-98b1-5dc8bf5c9b1b","system_id":"levelo_inurba_marseille","lat":43.30909,"lon":5.36842,"is_reserved":false,"is_disabled":false,"rental_uris":{"android":"levelo://app?vid=47a9c5d0-ed84-424b-98b1-5dc8bf5c9b1b","ios":"levelo://app?vid=47a9c5d0-ed84-424b-98b1-5dc8bf5c9b1b"},"vehicle_type_id":"4","last_reported":1745907301,"current_range_meters":16400,"station_id":"ce4bgn92rcd13ifvqbvg","pricing_plan_id":"cebpf4jnsgd1na2vs0mg"},{"bike_id":"1ff7221b-8e1e-4dce-9e57-4aed861ca4b9","system_id":"levelo_inurba_marseille","lat":43.337366,"lon":5.391866,"is_reserved":false,"is_disabled":false,"rental_uris":{"android":"levelo://app?vid=1ff7221b-8e1e-4dce-9e57-4aed861ca4b9","ios":"levelo://app?vid=1ff7221b-8e1e-4dce-9e57-4aed861ca4b9"},"vehicle_type_id":"4","last_reported":1745907301,"current_range_meters":18000,"station_id":"ce4bhr92rcd13ifvqhsg","pricing_plan_id":"cebpf4jnsgd1na2vs0mg"},{"bike_id":"73bdaf62-584c-4aef-b388-35b847199721","system_id":"levelo_inurba_marseille","lat":43.2804,"lon":5.36942,"is_reserved":false,"is_disabled":false,"rental_uris":{"android":"levelo://app?vid=73bdaf62-584c-4aef-b388-35b847199721","ios":"levelo://app?vid=73bdaf62-584c-4aef-b388-35b847199721"},"vehicle_type_id":"4","last_reported":1745907301,"current_range_meters":18800,"station_id":"ce4bha12rcd13ifvqef0","pricing_plan_id":"cebpf4jnsgd1na2vs0mg"},{"bike_id":"416f56c9-d4a6-4629-a68f-9e2d92705b16","system_id":"levelo_inurba_marseille","lat":43.27488,"lon":5.42459,"is_reserved":false,"is_disabled":false,"rental_uris":{"android":"levelo://app?vid=416f56c9-d4a6-4629-a68f-9e2d92705b16","ios":"levelo://app?vid=416f56c9-d4a6-4629-a68f-9e2d92705b16"},"vehicle_type_id":"4","last_reported":1745907301,"current_range_meters":18800,"station_id":"ce4bhn92rcd13ifvqgrg","pricing_plan_id":"cebpf4jnsgd1na2vs0mg"},{"bike_id":"71e018d9-0583-4ba4-883c-893ee738b790","system_id":"levelo_inurba_marseille","lat":43.24546,"lon":5.39523,"is_reserved":false,"is_disabled":false,"rental_uris":{"android":"levelo://app?vid=71e018d9-0583-4ba4-883c-893ee738b790","ios":"levelo://app?vid=71e018d9-0583-4ba4-883c-893ee738b790"},"vehicle_type_id":"4","last_reported":1745907301,"current_range_meters":18800,"station_id":"ce4bhlp2rcd13ifvqgjg","pricing_plan_id":"cebpf4jnsgd1na2vs0mg"},{"bike_id":"cf0a6d6b-93fc-4b28-ab69-696fa3b835c9","system_id":"levelo_inurba_marseille","lat":43.29604,"lon":5.38089,"is_reserved":false,"is_disabled":false,"rental_uris":{"android":"levelo://app?vid=cf0a6d6b-93fc-4b28-ab69-696fa3b835c9","ios":"levelo://app?vid=cf0a6d6b-93fc-4b28-ab69-696fa3b835c9"},"vehicle_type_id":"4","last_reported":1745907301,"current_range_meters":18800,"station_id":"ce4bgl12rcd13ifvqbo0","pricing_plan_id":"cebpf4jnsgd1na2vs0mg"},{"bike_id":"d768fc81-ef3c-45b5-bca5-b3b9757bb982","system_id":"levelo_inurba_marseille","lat":43.22936,"lon":5.35376,"is_reserved":false,"is_disabled":true,"rental_uris":{"android":"levelo://app?vid=d768fc81-ef3c-45b5-bca5-b3b9757bb982","ios":"levelo://app?vid=d768fc81-ef3c-45b5-bca5-b3b9757bb982"},"vehicle_type_id":"4","last_reported":1745907301,"current_range_meters":18800,"station_id":"cpo3532slgdg3j2ikp40","pricing_plan_id":"cebpf4jnsgd1na2vs0mg"},{"bike_id":"e9947e8d-885b-4216-a0aa-5a092afe2d44","system_id":"levelo_inurba_marseille","lat":43.32481,"lon":5.36558,"is_reserved":false,"is_disabled":false,"rental_uris":{"android":"levelo://app?vid=e9947e8d-885b-4216-a0aa-5a092afe2d44","ios":"levelo://app?vid=e9947e8d-885b-4216-a0aa-5a092afe2d44"},"vehicle_type_id":"4","last_reported":1745907301,"current_range_meters":18800,"station_id":"ce4bhs12rcd13ifvqhvg","pricing_plan_id":"cebpf4jnsgd1na2vs0mg"},{"bike_id":"bf3dbc16-a8a7-42a9-a13c-7d55eb791e58","system_id":"levelo_inurba_marseille","lat":43.3244,"lon":5.3661,"is_reserved":false,"is_disabled":false,"rental_uris":{"android":"levelo://app?vid=bf3dbc16-a8a7-42a9-a13c-7d55eb791e58","ios":"levelo://app?vid=bf3dbc16-a8a7-42a9-a13c-7d55eb791e58"},"vehicle_type_id":"4","last_reported":1745907301,"current_range_meters":18800,"station_id":"","pricing_plan_id":"cebpf4jnsgd1na2vs0mg"},{"bike_id":"940b7320-b328-4afe-85a6-d4d069ced16a","system_id":"levelo_inurba_marseille","lat":43.30921,"lon":5.40156,"is_reserved":false,"is_disabled":true,"rental_uris":{"android":"levelo://app?vid=940b7320-b328-4afe-85a6-d4d069ced16a","ios":"levelo://app?vid=940b7320-b328-4afe-85a6-d4d069ced16a"},"vehicle_type_id":"4","last_reported":1745907301,"current_range_meters":19200,"station_id":"ce4bgvp2rcd13ifvqct0","pricing_plan_id":"cebpf4jnsgd1na2vs0mg"},{"bike_id":"bb3509b9-11fa-446c-927c-844799eeb638","system_id":"levelo_inurba_marseille","lat":43.28935,"lon":5.36638,"is_reserved":false,"is_disabled":false,"rental_uris":{"android":"levelo://app?vid=bb3509b9-11fa-446c-927c-844799eeb638","ios":"levelo://app?vid=bb3509b9-11fa-446c-927c-844799eeb638"},"vehicle_type_id":"4","last_reported":1745907301,"current_range_meters":19200,"station_id":"ce4bhap2rcd13ifvqek0","pricing_plan_id":"cebpf4jnsgd1na2vs0mg"},{"bike_id":"9d16da21-6a74-4fc8-b8ad-41c41ab84a3b","system_id":"levelo_inurba_marseille","lat":43.31005,"lon":5.373365,"is_reserved":false,"is_disabled":true,"rental_uris":{"android":"levelo://app?vid=9d16da21-6a74-4fc8-b8ad-41c41ab84a3b","ios":"levelo://app?vid=9d16da21-6a74-4fc8-b8ad-41c41ab84a3b"},"vehicle_type_id":"4","last_reported":1745907301,"current_range_meters":19200,"station_id":"","pricing_plan_id":"cebpf4jnsgd1na2vs0mg"},{"bike_id":"ce2710b2-8aee-43d8-8ef3-2843f2527c66","system_id":"levelo_inurba_marseille","lat":43.241692,"lon":5.364008,"is_reserved":false,"is_disabled":false,"rental_uris":{"android":"levelo://app?vid=ce2710b2-8aee-43d8-8ef3-2843f2527c66","ios":"levelo://app?vid=ce2710b2-8aee-43d8-8ef3-2843f2527c66"},"vehicle_type_id":"4","last_reported":1745907301,"current_range_meters":19200,"station_id":"cpo36qri1sfpv3e86is0","pricing_plan_id":"cebpf4jnsgd1na2vs0mg"},{"bike_id":"b26a0b33-650f-4f7b-8536-58a942167ba4","system_id":"levelo_inurba_marseille","lat":43.23193,"lon":5.35544,"is_reserved":false,"is_disabled":false,"rental_uris":{"android":"levelo://app?vid=b26a0b33-650f-4f7b-8536-58a942167ba4","ios":"levelo://app?vid=b26a0b33-650f-4f7b-8536-58a942167ba4"},"vehicle_type_id":"4","last_reported":1745907301,"current_range_meters":19600,"station_id":"ce4bhu92rcd13ifvqi70","pricing_plan_id":"cebpf4jnsgd1na2vs0mg"},{"bike_id":"c2ed07fc-3986-4fb5-97ba-4b7f859d19c3","system_id":"levelo_inurba_marseille","lat":43.264511,"lon":5.379016,"is_reserved":false,"is_disabled":false,"rental_uris":{"android":"levelo://app?vid=c2ed07fc-3986-4fb5-97ba-4b7f859d19c3","ios":"levelo://app?vid=c2ed07fc-3986-4fb5-97ba-4b7f859d19c3"},"vehicle_type_id":"4","last_reported":1745907301,"current_range_meters":19600,"station_id":"ce4bhg92rcd13ifvqf90","pricing_plan_id":"cebpf4jnsgd1na2vs0mg"},{"bike_id":"1b928805-71ce-4e5b-aa9f-653e5e7692f3","system_id":"levelo_inurba_marseille","lat":43.289362,"lon":5.366447,"is_reserved":false,"is_disabled":false,"rental_uris":{"android":"levelo://app?vid=1b928805-71ce-4e5b-aa9f-653e5e7692f3","ios":"levelo://app?vid=1b928805-71ce-4e5b-aa9f-653e5e7692f3"},"vehicle_type_id":"4","last_reported":1745907301,"current_range_meters":19600,"station_id":"ce4bh9p2rcd13ifvqed0","pricing_plan_id":"cebpf4jnsgd1na2vs0mg"},{"bike_id":"2767110b-46f6-461f-9053-309ad1bd2e5a","system_id":"levelo_inurba_marseille","lat":43.229313,"lon":5.353789,"is_reserved":false,"is_disabled":false,"rental_uris":{"android":"levelo://app?vid=2767110b-46f6-461f-9053-309ad1bd2e5a","ios":"levelo://app?vid=2767110b-46f6-461f-9053-309ad1bd2e5a"},"vehicle_type_id":"4","last_reported":1745907301,"current_range_meters":19600,"station_id":"cpo3532slgdg3j2ikp40","pricing_plan_id":"cebpf4jnsgd1na2vs0mg"},{"bike_id":"4678f98c-9605-485e-9f52-d38650b7e3f9","system_id":"levelo_inurba_marseille","lat":43.32477,"lon":5.3658,"is_reserved":false,"is_disabled":false,"rental_uris":{"android":"levelo://app?vid=4678f98c-9605-485e-9f52-d38650b7e3f9","ios":"levelo://app?vid=4678f98c-9605-485e-9f52-d38650b7e3f9"},"vehicle_type_id":"4","last_reported":1745907301,"current_range_meters":19600,"station_id":"ce4bhs12rcd13ifvqhvg","pricing_plan_id":"cebpf4jnsgd1na2vs0mg"},{"bike_id":"aa8d6287-b95a-4e16-8b3a-83cecfb5c05d","system_id":"levelo_inurba_marseille","lat":43.241614,"lon":5.363925,"is_reserved":false,"is_disabled":true,"rental_uris":{"android":"levelo://app?vid=aa8d6287-b95a-4e16-8b3a-83cecfb5c05d","ios":"levelo://app?vid=aa8d6287-b95a-4e16-8b3a-83cecfb5c05d"},"vehicle_type_id":"4","last_reported":1745907301,"current_range_meters":19600,"station_id":"cpo36qri1sfpv3e86is0","pricing_plan_id":"cebpf4jnsgd1na2vs0mg"},{"bike_id":"581f1744-bcdd-4406-a0b0-77432a0f21e2","system_id":"levelo_inurba_marseille","lat":43.29937,"lon":5.36503,"is_reserved":false,"is_disabled":false,"rental_uris":{"android":"levelo://app?vid=581f1744-bcdd-4406-a0b0-77432a0f21e2","ios":"levelo://app?vid=581f1744-bcdd-4406-a0b0-77432a0f21e2"},"vehicle_type_id":"4","last_reported":1745907301,"current_range_meters":20000,"station_id":"ce4bgm92rcd13ifvqbr0","pricing_plan_id":"cebpf4jnsgd1na2vs0mg"},{"bike_id":"e92549cc-c714-4fcb-b601-7bc7a99f3481","system_id":"levelo_inurba_marseille","lat":43.262,"lon":5.37933,"is_reserved":false,"is_disabled":false,"rental_uris":{"android":"levelo://app?vid=e92549cc-c714-4fcb-b601-7bc7a99f3481","ios":"levelo://app?vid=e92549cc-c714-4fcb-b601-7bc7a99f3481"},"vehicle_type_id":"4","last_reported":1745907301,"current_range_meters":19600,"station_id":"ce4bhjp2rcd13ifvqg90","pricing_plan_id":"cebpf4jnsgd1na2vs0mg"},{"bike_id":"86c2979e-8cf6-48ed-bdb1-835ff11e3adc","system_id":"levelo_inurba_marseille","lat":43.253887,"lon":5.418531,"is_reserved":false,"is_disabled":false,"rental_uris":{"android":"levelo://app?vid=86c2979e-8cf6-48ed-bdb1-835ff11e3adc","ios":"levelo://app?vid=86c2979e-8cf6-48ed-bdb1-835ff11e3adc"},"vehicle_type_id":"4","last_reported":1745907301,"current_range_meters":20000,"station_id":"","pricing_plan_id":"cebpf4jnsgd1na2vs0mg"},{"bike_id":"fce2c520-92d3-4d18-810b-8d643fc15a1a","system_id":"levelo_inurba_marseille","lat":43.230567,"lon":5.354898,"is_reserved":false,"is_disabled":false,"rental_uris":{"android":"levelo://app?vid=fce2c520-92d3-4d18-810b-8d643fc15a1a","ios":"levelo://app?vid=fce2c520-92d3-4d18-810b-8d643fc15a1a"},"vehicle_type_id":"4","last_reported":1745907301,"current_range_meters":20000,"station_id":"cpo3342slgdg3j2ifvpg","pricing_plan_id":"cebpf4jnsgd1na2vs0mg"},{"bike_id":"60a9e04d-65fb-484e-8157-bf72e2207805","system_id":"levelo_inurba_marseille","lat":43.30376,"lon":5.42487,"is_reserved":false,"is_disabled":false,"rental_uris":{"android":"levelo://app?vid=60a9e04d-65fb-484e-8157-bf72e2207805","ios":"levelo://app?vid=60a9e04d-65fb-484e-8157-bf72e2207805"},"vehicle_type_id":"4","last_reported":1745907301,"current_range_meters":20000,"station_id":"ce4bhoh2rcd13ifvqh6g","pricing_plan_id":"cebpf4jnsgd1na2vs0mg"},{"bike_id":"2b6be6c7-5b80-4c20-a759-99aea3c0b369","system_id":"levelo_inurba_marseille","lat":43.26203,"lon":5.37934,"is_reserved":false,"is_disabled":false,"rental_uris":{"android":"levelo://app?vid=2b6be6c7-5b80-4c20-a759-99aea3c0b369","ios":"levelo://app?vid=2b6be6c7-5b80-4c20-a759-99aea3c0b369"},"vehicle_type_id":"4","last_reported":1745907301,"current_range_meters":20000,"station_id":"ce4bhjp2rcd13ifvqg90","pricing_plan_id":"cebpf4jnsgd1na2vs0mg"},{"bike_id":"b74c772a-8ddd-497d-bd6c-1c8c16eb578f","system_id":"levelo_inurba_marseille","lat":43.24179,"lon":5.39734,"is_reserved":false,"is_disabled":false,"rental_uris":{"android":"levelo://app?vid=b74c772a-8ddd-497d-bd6c-1c8c16eb578f","ios":"levelo://app?vid=b74c772a-8ddd-497d-bd6c-1c8c16eb578f"},"vehicle_type_id":"4","last_reported":1745907301,"current_range_meters":20400,"station_id":"ce4bhn12rcd13ifvqgpg","pricing_plan_id":"cebpf4jnsgd1na2vs0mg"},{"bike_id":"78299f95-ca86-4b3d-bb9e-6146f0ec1e45","system_id":"levelo_inurba_marseille","lat":43.29278,"lon":5.40116,"is_reserved":false,"is_disabled":true,"rental_uris":{"android":"levelo://app?vid=78299f95-ca86-4b3d-bb9e-6146f0ec1e45","ios":"levelo://app?vid=78299f95-ca86-4b3d-bb9e-6146f0ec1e45"},"vehicle_type_id":"4","last_reported":1745907301,"current_range_meters":20400,"station_id":"ce4bh312rcd13ifvqdk0","pricing_plan_id":"cebpf4jnsgd1na2vs0mg"},{"bike_id":"a8c0e256-9f10-4a78-b269-92926e1ae8b4","system_id":"levelo_inurba_marseille","lat":43.31687,"lon":5.40476,"is_reserved":false,"is_disabled":false,"rental_uris":{"android":"levelo://app?vid=a8c0e256-9f10-4a78-b269-92926e1ae8b4","ios":"levelo://app?vid=a8c0e256-9f10-4a78-b269-92926e1ae8b4"},"vehicle_type_id":"4","last_reported":1745907301,"current_range_meters":20800,"station_id":"ce4bh012rcd13ifvqd00","pricing_plan_id":"cebpf4jnsgd1na2vs0mg"},{"bike_id":"29cd3bd7-4042-4675-9354-54243f71f739","system_id":"levelo_inurba_marseille","lat":43.26249,"lon":5.38775,"is_reserved":false,"is_disabled":false,"rental_uris":{"android":"levelo://app?vid=29cd3bd7-4042-4675-9354-54243f71f739","ios":"levelo://app?vid=29cd3bd7-4042-4675-9354-54243f71f739"},"vehicle_type_id":"4","last_reported":1745907301,"current_range_meters":20400,"station_id":"","pricing_plan_id":"cebpf4jnsgd1na2vs0mg"},{"bike_id":"36589065-9777-4275-9498-24a04bf80734","system_id":"levelo_inurba_marseille","lat":43.229274,"lon":5.353904,"is_reserved":false,"is_disabled":false,"rental_uris":{"android":"levelo://app?vid=36589065-9777-4275-9498-24a04bf80734","ios":"levelo://app?vid=36589065-9777-4275-9498-24a04bf80734"},"vehicle_type_id":"4","last_reported":1745907301,"current_range_meters":20800,"station_id":"cpo3532slgdg3j2ikp40","pricing_plan_id":"cebpf4jnsgd1na2vs0mg"},{"bike_id":"6cf435b6-7657-4d5d-b1a3-17d16b147917","system_id":"levelo_inurba_marseille","lat":43.30444,"lon":5.39819,"is_reserved":false,"is_disabled":false,"rental_uris":{"android":"levelo://app?vid=6cf435b6-7657-4d5d-b1a3-17d16b147917","ios":"levelo://app?vid=6cf435b6-7657-4d5d-b1a3-17d16b147917"},"vehicle_type_id":"4","last_reported":1745907301,"current_range_meters":20800,"station_id":"","pricing_plan_id":"cebpf4jnsgd1na2vs0mg"},{"bike_id":"dc28fc6e-d680-4477-bbc1-f4611ff292f9","system_id":"levelo_inurba_marseille","lat":43.246594,"lon":5.3818,"is_reserved":false,"is_disabled":false,"rental_uris":{"android":"levelo://app?vid=dc28fc6e-d680-4477-bbc1-f4611ff292f9","ios":"levelo://app?vid=dc28fc6e-d680-4477-bbc1-f4611ff292f9"},"vehicle_type_id":"4","last_reported":1745907301,"current_range_meters":20800,"station_id":"ce4bhih2rcd13ifvqfr0","pricing_plan_id":"cebpf4jnsgd1na2vs0mg"},{"bike_id":"7c432600-5b6a-404c-a720-ca398678266d","system_id":"levelo_inurba_marseille","lat":43.30584,"lon":5.3936,"is_reserved":false,"is_disabled":false,"rental_uris":{"android":"levelo://app?vid=7c432600-5b6a-404c-a720-ca398678266d","ios":"levelo://app?vid=7c432600-5b6a-404c-a720-ca398678266d"},"vehicle_type_id":"4","last_reported":1745907301,"current_range_meters":20800,"station_id":"ce4bh0p2rcd13ifvqd80","pricing_plan_id":"cebpf4jnsgd1na2vs0mg"},{"bike_id":"a0bca584-7bcc-4a32-b855-448a6da9e20d","system_id":"levelo_inurba_marseille","lat":43.30586,"lon":5.39362,"is_reserved":false,"is_disabled":false,"rental_uris":{"android":"levelo://app?vid=a0bca584-7bcc-4a32-b855-448a6da9e20d","ios":"levelo://app?vid=a0bca584-7bcc-4a32-b855-448a6da9e20d"},"vehicle_type_id":"4","last_reported":1745907301,"current_range_meters":20800,"station_id":"ce4bh0p2rcd13ifvqd80","pricing_plan_id":"cebpf4jnsgd1na2vs0mg"},{"bike_id":"334f0609-b51b-492a-8482-a689c46d4ff0","system_id":"levelo_inurba_marseille","lat":43.28476,"lon":5.38445,"is_reserved":false,"is_disabled":true,"rental_uris":{"android":"levelo://app?vid=334f0609-b51b-492a-8482-a689c46d4ff0","ios":"levelo://app?vid=334f0609-b51b-492a-8482-a689c46d4ff0"},"vehicle_type_id":"4","last_reported":1745907301,"current_range_meters":20800,"station_id":"ce4bh512rcd13ifvqe3g","pricing_plan_id":"cebpf4jnsgd1na2vs0mg"},{"bike_id":"74fe1d59-0891-470d-b9e8-30b48522c53c","system_id":"levelo_inurba_marseille","lat":43.301598,"lon":5.381038,"is_reserved":false,"is_disabled":false,"rental_uris":{"android":"levelo://app?vid=74fe1d59-0891-470d-b9e8-30b48522c53c","ios":"levelo://app?vid=74fe1d59-0891-470d-b9e8-30b48522c53c"},"vehicle_type_id":"4","last_reported":1745907301,"current_range_meters":20800,"station_id":"ce4bgjp2rcd13ifvqbh0","pricing_plan_id":"cebpf4jnsgd1na2vs0mg"},{"bike_id":"476d6e23-e0d6-4515-acd8-e9a58c14fa45","system_id":"levelo_inurba_marseille","lat":43.326529,"lon":5.410064,"is_reserved":false,"is_disabled":false,"rental_uris":{"android":"levelo://app?vid=476d6e23-e0d6-4515-acd8-e9a58c14fa45","ios":"levelo://app?vid=476d6e23-e0d6-4515-acd8-e9a58c14fa45"},"vehicle_type_id":"4","last_reported":1745907301,"current_range_meters":21600,"station_id":"ce4bhpp2rcd13ifvqhgg","pricing_plan_id":"cebpf4jnsgd1na2vs0mg"},{"bike_id":"4749155e-e373-4c8f-bc81-5d82546f7dd2","system_id":"levelo_inurba_marseille","lat":43.30538,"lon":5.36719,"is_reserved":false,"is_disabled":false,"rental_uris":{"android":"levelo://app?vid=4749155e-e373-4c8f-bc81-5d82546f7dd2","ios":"levelo://app?vid=4749155e-e373-4c8f-bc81-5d82546f7dd2"},"vehicle_type_id":"4","last_reported":1745907301,"current_range_meters":20800,"station_id":"ce4bgrp2rcd13ifvqc9g","pricing_plan_id":"cebpf4jnsgd1na2vs0mg"},{"bike_id":"fd679683-1c0d-47f7-a9ca-e017987004aa","system_id":"levelo_inurba_marseille","lat":43.32537,"lon":5.41432,"is_reserved":false,"is_disabled":false,"rental_uris":{"android":"levelo://app?vid=fd679683-1c0d-47f7-a9ca-e017987004aa","ios":"levelo://app?vid=fd679683-1c0d-47f7-a9ca-e017987004aa"},"vehicle_type_id":"4","last_reported":1745907301,"current_range_meters":20800,"station_id":"ce4bhq12rcd13ifvqhhg","pricing_plan_id":"cebpf4jnsgd1na2vs0mg"},{"bike_id":"872de594-7b21-4e43-856e-ec3f06d1e4a2","system_id":"levelo_inurba_marseille","lat":43.24384,"lon":5.37053,"is_reserved":false,"is_disabled":false,"rental_uris":{"android":"levelo://app?vid=872de594-7b21-4e43-856e-ec3f06d1e4a2","ios":"levelo://app?vid=872de594-7b21-4e43-856e-ec3f06d1e4a2"},"vehicle_type_id":"4","last_reported":1745907301,"current_range_meters":22000,"station_id":"ce4bhhh2rcd13ifvqfk0","pricing_plan_id":"cebpf4jnsgd1na2vs0mg"},{"bike_id":"d3f0bfcb-69cf-45ae-ac01-ea999747b73f","system_id":"levelo_inurba_marseille","lat":43.331225,"lon":5.409827,"is_reserved":false,"is_disabled":false,"rental_uris":{"android":"levelo://app?vid=d3f0bfcb-69cf-45ae-ac01-ea999747b73f","ios":"levelo://app?vid=d3f0bfcb-69cf-45ae-ac01-ea999747b73f"},"vehicle_type_id":"4","last_reported":1745907301,"current_range_meters":22000,"station_id":"ce4bhqh2rcd13ifvqhmg","pricing_plan_id":"cebpf4jnsgd1na2vs0mg"},{"bike_id":"2372f7c6-1089-4c13-bafe-c3d7862aadcc","system_id":"levelo_inurba_marseille","lat":43.317051,"lon":5.437041,"is_reserved":false,"is_disabled":false,"rental_uris":{"android":"levelo://app?vid=2372f7c6-1089-4c13-bafe-c3d7862aadcc","ios":"levelo://app?vid=2372f7c6-1089-4c13-bafe-c3d7862aadcc"},"vehicle_type_id":"4","last_reported":1745907301,"current_range_meters":22400,"station_id":"ce4bhp92rcd13ifvqhcg","pricing_plan_id":"cebpf4jnsgd1na2vs0mg"},{"bike_id":"44ff7261-e51a-4419-8ffa-a0d39d5b60ba","system_id":"levelo_inurba_marseille","lat":43.28363,"lon":5.38145,"is_reserved":false,"is_disabled":true,"rental_uris":{"android":"levelo://app?vid=44ff7261-e51a-4419-8ffa-a0d39d5b60ba","ios":"levelo://app?vid=44ff7261-e51a-4419-8ffa-a0d39d5b60ba"},"vehicle_type_id":"4","last_reported":1745907301,"current_range_meters":22400,"station_id":"ce4bh412rcd13ifvqdr0","pricing_plan_id":"cebpf4jnsgd1na2vs0mg"},{"bike_id":"3fc88682-2290-4e90-995d-3122aa0163a4","system_id":"levelo_inurba_marseille","lat":43.2996,"lon":5.41315,"is_reserved":false,"is_disabled":false,"rental_uris":{"android":"levelo://app?vid=3fc88682-2290-4e90-995d-3122aa0163a4","ios":"levelo://app?vid=3fc88682-2290-4e90-995d-3122aa0163a4"},"vehicle_type_id":"4","last_reported":1745907301,"current_range_meters":22400,"station_id":"ce4bhp12rcd13ifvqh9g","pricing_plan_id":"cebpf4jnsgd1na2vs0mg"},{"bike_id":"9eac9edc-c3d5-43dc-8ebc-c05868539cb4","system_id":"levelo_inurba_marseille","lat":43.24991,"lon":5.37967,"is_reserved":false,"is_disabled":false,"rental_uris":{"android":"levelo://app?vid=9eac9edc-c3d5-43dc-8ebc-c05868539cb4","ios":"levelo://app?vid=9eac9edc-c3d5-43dc-8ebc-c05868539cb4"},"vehicle_type_id":"4","last_reported":1745907301,"current_range_meters":22800,"station_id":"","pricing_plan_id":"cebpf4jnsgd1na2vs0mg"},{"bike_id":"2a4f5dfa-513d-46a0-923b-e5be40c3c2bc","system_id":"levelo_inurba_marseille","lat":43.28443,"lon":5.39182,"is_reserved":false,"is_disabled":true,"rental_uris":{"android":"levelo://app?vid=2a4f5dfa-513d-46a0-923b-e5be40c3c2bc","ios":"levelo://app?vid=2a4f5dfa-513d-46a0-923b-e5be40c3c2bc"},"vehicle_type_id":"4","last_reported":1745907301,"current_range_meters":22800,"station_id":"ce4bhoh2rcd13ifvqh5g","pricing_plan_id":"cebpf4jnsgd1na2vs0mg"},{"bike_id":"5bdccf16-f4ff-4fb1-b9fc-a191f092cdc4","system_id":"levelo_inurba_marseille","lat":43.34141,"lon":5.40899,"is_reserved":false,"is_disabled":false,"rental_uris":{"android":"levelo://app?vid=5bdccf16-f4ff-4fb1-b9fc-a191f092cdc4","ios":"levelo://app?vid=5bdccf16-f4ff-4fb1-b9fc-a191f092cdc4"},"vehicle_type_id":"4","last_reported":1745907301,"current_range_meters":22400,"station_id":"ce4bhqh2rcd13ifvqhlg","pricing_plan_id":"cebpf4jnsgd1na2vs0mg"},{"bike_id":"bbc0a8da-4c3b-49be-b7f6-df30b3385912","system_id":"levelo_inurba_marseille","lat":43.27489,"lon":5.42447,"is_reserved":false,"is_disabled":false,"rental_uris":{"android":"levelo://app?vid=bbc0a8da-4c3b-49be-b7f6-df30b3385912","ios":"levelo://app?vid=bbc0a8da-4c3b-49be-b7f6-df30b3385912"},"vehicle_type_id":"4","last_reported":1745907301,"current_range_meters":22800,"station_id":"ce4bhn92rcd13ifvqgrg","pricing_plan_id":"cebpf4jnsgd1na2vs0mg"},{"bike_id":"ec6e3d6a-bc7c-4674-9c9c-37406be03b49","system_id":"levelo_inurba_marseille","lat":43.2315,"lon":5.43725,"is_reserved":false,"is_disabled":false,"rental_uris":{"android":"levelo://app?vid=ec6e3d6a-bc7c-4674-9c9c-37406be03b49","ios":"levelo://app?vid=ec6e3d6a-bc7c-4674-9c9c-37406be03b49"},"vehicle_type_id":"4","last_reported":1745907301,"current_range_meters":23200,"station_id":"ce4bhmp2rcd13ifvqgog","pricing_plan_id":"cebpf4jnsgd1na2vs0mg"},{"bike_id":"7940bc1b-eaa7-4f49-a435-46dc9391f6a1","system_id":"levelo_inurba_marseille","lat":43.211905,"lon":5.350723,"is_reserved":false,"is_disabled":false,"rental_uris":{"android":"levelo://app?vid=7940bc1b-eaa7-4f49-a435-46dc9391f6a1","ios":"levelo://app?vid=7940bc1b-eaa7-4f49-a435-46dc9391f6a1"},"vehicle_type_id":"4","last_reported":1745907301,"current_range_meters":22800,"station_id":"st_cvj6sg6p6f1abm77japg","pricing_plan_id":"cebpf4jnsgd1na2vs0mg"},{"bike_id":"ec11b258-f4fc-40a2-bf01-a964a220fe54","system_id":"levelo_inurba_marseille","lat":43.25002,"lon":5.38927,"is_reserved":false,"is_disabled":false,"rental_uris":{"android":"levelo://app?vid=ec11b258-f4fc-40a2-bf01-a964a220fe54","ios":"levelo://app?vid=ec11b258-f4fc-40a2-bf01-a964a220fe54"},"vehicle_type_id":"4","last_reported":1745907301,"current_range_meters":22800,"station_id":"ce4bhgp2rcd13ifvqfd0","pricing_plan_id":"cebpf4jnsgd1na2vs0mg"},{"bike_id":"750b37f4-0312-424d-8787-8c7fa359a8d6","system_id":"levelo_inurba_marseille","lat":43.33603,"lon":5.41022,"is_reserved":false,"is_disabled":false,"rental_uris":{"android":"levelo://app?vid=750b37f4-0312-424d-8787-8c7fa359a8d6","ios":"levelo://app?vid=750b37f4-0312-424d-8787-8c7fa359a8d6"},"vehicle_type_id":"4","last_reported":1745907301,"current_range_meters":22800,"station_id":"ce4bhqh2rcd13ifvqhmg","pricing_plan_id":"cebpf4jnsgd1na2vs0mg"},{"bike_id":"111c1998-4230-4789-add4-3e3731da2f78","system_id":"levelo_inurba_marseille","lat":43.27652,"lon":5.420957,"is_reserved":false,"is_disabled":false,"rental_uris":{"android":"levelo://app?vid=111c1998-4230-4789-add4-3e3731da2f78","ios":"levelo://app?vid=111c1998-4230-4789-add4-3e3731da2f78"},"vehicle_type_id":"4","last_reported":1745907301,"current_range_meters":23200,"station_id":"","pricing_plan_id":"cebpf4jnsgd1na2vs0mg"},{"bike_id":"06c39eee-79a0-429c-aca4-ab00b87b3f0d","system_id":"levelo_inurba_marseille","lat":43.27497,"lon":5.42461,"is_reserved":false,"is_disabled":false,"rental_uris":{"android":"levelo://app?vid=06c39eee-79a0-429c-aca4-ab00b87b3f0d","ios":"levelo://app?vid=06c39eee-79a0-429c-aca4-ab00b87b3f0d"},"vehicle_type_id":"4","last_reported":1745907301,"current_range_meters":24000,"station_id":"ce4bhn92rcd13ifvqgrg","pricing_plan_id":"cebpf4jnsgd1na2vs0mg"},{"bike_id":"aafd1f31-0fdb-4842-bf9f-44d4e18ae5e0","system_id":"levelo_inurba_marseille","lat":43.28077,"lon":5.3966,"is_reserved":false,"is_disabled":false,"rental_uris":{"android":"levelo://app?vid=aafd1f31-0fdb-4842-bf9f-44d4e18ae5e0","ios":"levelo://app?vid=aafd1f31-0fdb-4842-bf9f-44d4e18ae5e0"},"vehicle_type_id":"4","last_reported":1745907301,"current_range_meters":24000,"station_id":"ce4bho12rcd13ifvqh2g","pricing_plan_id":"cebpf4jnsgd1na2vs0mg"},{"bike_id":"9c1f99af-9024-415e-9b81-d2633fec2aa6","system_id":"levelo_inurba_marseille","lat":43.3361,"lon":5.4104,"is_reserved":false,"is_disabled":false,"rental_uris":{"android":"levelo://app?vid=9c1f99af-9024-415e-9b81-d2633fec2aa6","ios":"levelo://app?vid=9c1f99af-9024-415e-9b81-d2633fec2aa6"},"vehicle_type_id":"4","last_reported":1745907301,"current_range_meters":24000,"station_id":"ce4bhqh2rcd13ifvqhmg","pricing_plan_id":"cebpf4jnsgd1na2vs0mg"},{"bike_id":"8c679b2d-9fad-4179-b27c-b19a80e891c8","system_id":"levelo_inurba_marseille","lat":43.30465,"lon":5.37908,"is_reserved":false,"is_disabled":false,"rental_uris":{"android":"levelo://app?vid=8c679b2d-9fad-4179-b27c-b19a80e891c8","ios":"levelo://app?vid=8c679b2d-9fad-4179-b27c-b19a80e891c8"},"vehicle_type_id":"4","last_reported":1745907301,"current_range_meters":24000,"station_id":"ce4bgup2rcd13ifvqcn0","pricing_plan_id":"cebpf4jnsgd1na2vs0mg"},{"bike_id":"095a9042-2060-4122-b747-11ce2b79aebb","system_id":"levelo_inurba_marseille","lat":43.30699,"lon":5.37491,"is_reserved":false,"is_disabled":false,"rental_uris":{"android":"levelo://app?vid=095a9042-2060-4122-b747-11ce2b79aebb","ios":"levelo://app?vid=095a9042-2060-4122-b747-11ce2b79aebb"},"vehicle_type_id":"4","last_reported":1745907301,"current_range_meters":24400,"station_id":"","pricing_plan_id":"cebpf4jnsgd1na2vs0mg"},{"bike_id":"9d7cd891-1eab-48c4-8c51-445bb475f0d6","system_id":"levelo_inurba_marseille","lat":43.292139,"lon":5.369069,"is_reserved":false,"is_disabled":false,"rental_uris":{"android":"levelo://app?vid=9d7cd891-1eab-48c4-8c51-445bb475f0d6","ios":"levelo://app?vid=9d7cd891-1eab-48c4-8c51-445bb475f0d6"},"vehicle_type_id":"4","last_reported":1745907301,"current_range_meters":24000,"station_id":"","pricing_plan_id":"cebpf4jnsgd1na2vs0mg"},{"bike_id":"2d434d56-9537-4953-91e1-ca8603f1df94","system_id":"levelo_inurba_marseille","lat":43.31221,"lon":5.36865,"is_reserved":false,"is_disabled":false,"rental_uris":{"android":"levelo://app?vid=2d434d56-9537-4953-91e1-ca8603f1df94","ios":"levelo://app?vid=2d434d56-9537-4953-91e1-ca8603f1df94"},"vehicle_type_id":"4","last_reported":1745907301,"current_range_meters":23200,"station_id":"ce4bgl92rcd13ifvqbq0","pricing_plan_id":"cebpf4jnsgd1na2vs0mg"},{"bike_id":"f5ee6b5c-07b9-4c0d-b44d-1ece77029f45","system_id":"levelo_inurba_marseille","lat":43.30518,"lon":5.36516,"is_reserved":false,"is_disabled":true,"rental_uris":{"android":"levelo://app?vid=f5ee6b5c-07b9-4c0d-b44d-1ece77029f45","ios":"levelo://app?vid=f5ee6b5c-07b9-4c0d-b44d-1ece77029f45"},"vehicle_type_id":"4","last_reported":1745907301,"current_range_meters":24000,"station_id":"","pricing_plan_id":"cebpf4jnsgd1na2vs0mg"},{"bike_id":"12d82bc9-4a63-4485-9cc6-a4750f25eca3","system_id":"levelo_inurba_marseille","lat":43.26566,"lon":5.3903,"is_reserved":false,"is_disabled":false,"rental_uris":{"android":"levelo://app?vid=12d82bc9-4a63-4485-9cc6-a4750f25eca3","ios":"levelo://app?vid=12d82bc9-4a63-4485-9cc6-a4750f25eca3"},"vehicle_type_id":"4","last_reported":1745907301,"current_range_meters":24400,"station_id":"ce4bhe12rcd13ifvqf30","pricing_plan_id":"cebpf4jnsgd1na2vs0mg"},{"bike_id":"d6445cce-7d16-4041-9fb2-2ef474685e46","system_id":"levelo_inurba_marseille","lat":43.24076,"lon":5.37757,"is_reserved":false,"is_disabled":false,"rental_uris":{"android":"levelo://app?vid=d6445cce-7d16-4041-9fb2-2ef474685e46","ios":"levelo://app?vid=d6445cce-7d16-4041-9fb2-2ef474685e46"},"vehicle_type_id":"4","last_reported":1745907301,"current_range_meters":24400,"station_id":"ce4bhnp2rcd13ifvqgvg","pricing_plan_id":"cebpf4jnsgd1na2vs0mg"},{"bike_id":"3f0b7b4b-e305-41e5-ad7d-0b2805d71e0a","system_id":"levelo_inurba_marseille","lat":43.27568,"lon":5.42367,"is_reserved":false,"is_disabled":false,"rental_uris":{"android":"levelo://app?vid=3f0b7b4b-e305-41e5-ad7d-0b2805d71e0a","ios":"levelo://app?vid=3f0b7b4b-e305-41e5-ad7d-0b2805d71e0a"},"vehicle_type_id":"4","last_reported":1745907301,"current_range_meters":24400,"station_id":"","pricing_plan_id":"cebpf4jnsgd1na2vs0mg"},{"bike_id":"820ca97f-43fe-4c2c-a0fe-859c2687c4a3","system_id":"levelo_inurba_marseille","lat":43.30594,"lon":5.39361,"is_reserved":false,"is_disabled":true,"rental_uris":{"android":"levelo://app?vid=820ca97f-43fe-4c2c-a0fe-859c2687c4a3","ios":"levelo://app?vid=820ca97f-43fe-4c2c-a0fe-859c2687c4a3"},"vehicle_type_id":"4","last_reported":1745907301,"current_range_meters":24400,"station_id":"ce4bh0p2rcd13ifvqd80","pricing_plan_id":"cebpf4jnsgd1na2vs0mg"},{"bike_id":"970629cc-6f41-47a8-8db5-15b656cc9689","system_id":"levelo_inurba_marseille","lat":43.32023,"lon":5.38179,"is_reserved":false,"is_disabled":true,"rental_uris":{"android":"levelo://app?vid=970629cc-6f41-47a8-8db5-15b656cc9689","ios":"levelo://app?vid=970629cc-6f41-47a8-8db5-15b656cc9689"},"vehicle_type_id":"4","last_reported":1745907301,"current_range_meters":24400,"station_id":"ce4bhr12rcd13ifvqhpg","pricing_plan_id":"cebpf4jnsgd1na2vs0mg"},{"bike_id":"be29e37f-02fb-448d-8751-7b2bc2e28bfa","system_id":"levelo_inurba_marseille","lat":43.239624,"lon":5.366224,"is_reserved":false,"is_disabled":false,"rental_uris":{"android":"levelo://app?vid=be29e37f-02fb-448d-8751-7b2bc2e28bfa","ios":"levelo://app?vid=be29e37f-02fb-448d-8751-7b2bc2e28bfa"},"vehicle_type_id":"4","last_reported":1745907301,"current_range_meters":24400,"station_id":"ce4bhi12rcd13ifvqfp0","pricing_plan_id":"cebpf4jnsgd1na2vs0mg"},{"bike_id":"4e3345d9-60ee-4484-9c44-e8e3491db587","system_id":"levelo_inurba_marseille","lat":43.25116,"lon":5.4032,"is_reserved":false,"is_disabled":false,"rental_uris":{"android":"levelo://app?vid=4e3345d9-60ee-4484-9c44-e8e3491db587","ios":"levelo://app?vid=4e3345d9-60ee-4484-9c44-e8e3491db587"},"vehicle_type_id":"4","last_reported":1745907301,"current_range_meters":24400,"station_id":"ce4bhlh2rcd13ifvqgig","pricing_plan_id":"cebpf4jnsgd1na2vs0mg"},{"bike_id":"6b68380b-538d-4e82-a837-46085847b0db","system_id":"levelo_inurba_marseille","lat":43.28454,"lon":5.35893,"is_reserved":false,"is_disabled":true,"rental_uris":{"android":"levelo://app?vid=6b68380b-538d-4e82-a837-46085847b0db","ios":"levelo://app?vid=6b68380b-538d-4e82-a837-46085847b0db"},"vehicle_type_id":"4","last_reported":1745907301,"current_range_meters":24400,"station_id":"ce4bhah2rcd13ifvqei0","pricing_plan_id":"cebpf4jnsgd1na2vs0mg"},{"bike_id":"ce353a96-3e3e-4dc6-9db0-14435b4983e3","system_id":"levelo_inurba_marseille","lat":43.23609,"lon":5.36506,"is_reserved":false,"is_disabled":false,"rental_uris":{"android":"levelo://app?vid=ce353a96-3e3e-4dc6-9db0-14435b4983e3","ios":"levelo://app?vid=ce353a96-3e3e-4dc6-9db0-14435b4983e3"},"vehicle_type_id":"4","last_reported":1745907301,"current_range_meters":24400,"station_id":"","pricing_plan_id":"cebpf4jnsgd1na2vs0mg"},{"bike_id":"c5e08465-0785-4807-abbe-19c208ca79d4","system_id":"levelo_inurba_marseille","lat":43.23192,"lon":5.35566,"is_reserved":false,"is_disabled":false,"rental_uris":{"android":"levelo://app?vid=c5e08465-0785-4807-abbe-19c208ca79d4","ios":"levelo://app?vid=c5e08465-0785-4807-abbe-19c208ca79d4"},"vehicle_type_id":"4","last_reported":1745907301,"current_range_meters":24800,"station_id":"ce4bhu92rcd13ifvqi70","pricing_plan_id":"cebpf4jnsgd1na2vs0mg"},{"bike_id":"288b5399-540d-470c-af94-6957e7dabf20","system_id":"levelo_inurba_marseille","lat":43.241639,"lon":5.363926,"is_reserved":false,"is_disabled":false,"rental_uris":{"android":"levelo://app?vid=288b5399-540d-470c-af94-6957e7dabf20","ios":"levelo://app?vid=288b5399-540d-470c-af94-6957e7dabf20"},"vehicle_type_id":"4","last_reported":1745907301,"current_range_meters":24800,"station_id":"cpo36qri1sfpv3e86is0","pricing_plan_id":"cebpf4jnsgd1na2vs0mg"},{"bike_id":"bf4bd6a6-a11a-49da-aed7-8c89af86e285","system_id":"levelo_inurba_marseille","lat":43.29295,"lon":5.37452,"is_reserved":false,"is_disabled":true,"rental_uris":{"android":"levelo://app?vid=bf4bd6a6-a11a-49da-aed7-8c89af86e285","ios":"levelo://app?vid=bf4bd6a6-a11a-49da-aed7-8c89af86e285"},"vehicle_type_id":"4","last_reported":1745907301,"current_range_meters":24800,"station_id":"ce4bgi12rcd13ifvqb70","pricing_plan_id":"cebpf4jnsgd1na2vs0mg"},{"bike_id":"b51699aa-7c27-47ba-8bfd-3ee62d05b307","system_id":"levelo_inurba_marseille","lat":43.2418,"lon":5.39734,"is_reserved":false,"is_disabled":false,"rental_uris":{"android":"levelo://app?vid=b51699aa-7c27-47ba-8bfd-3ee62d05b307","ios":"levelo://app?vid=b51699aa-7c27-47ba-8bfd-3ee62d05b307"},"vehicle_type_id":"4","last_reported":1745907301,"current_range_meters":24800,"station_id":"ce4bhn12rcd13ifvqgpg","pricing_plan_id":"cebpf4jnsgd1na2vs0mg"},{"bike_id":"74bf95c0-7a97-49f5-b668-5cac095decdf","system_id":"levelo_inurba_marseille","lat":43.2407,"lon":5.37762,"is_reserved":false,"is_disabled":false,"rental_uris":{"android":"levelo://app?vid=74bf95c0-7a97-49f5-b668-5cac095decdf","ios":"levelo://app?vid=74bf95c0-7a97-49f5-b668-5cac095decdf"},"vehicle_type_id":"4","last_reported":1745907301,"current_range_meters":24800,"station_id":"ce4bhnp2rcd13ifvqgvg","pricing_plan_id":"cebpf4jnsgd1na2vs0mg"},{"bike_id":"edbc464a-446d-4095-a0fe-ee31e1f4af56","system_id":"levelo_inurba_marseille","lat":43.28955,"lon":5.36407,"is_reserved":false,"is_disabled":true,"rental_uris":{"android":"levelo://app?vid=edbc464a-446d-4095-a0fe-ee31e1f4af56","ios":"levelo://app?vid=edbc464a-446d-4095-a0fe-ee31e1f4af56"},"vehicle_type_id":"4","last_reported":1745907301,"current_range_meters":24800,"station_id":"ce4bhc92rcd13ifvqetg","pricing_plan_id":"cebpf4jnsgd1na2vs0mg"},{"bike_id":"d7dafc95-2fcb-4a68-8209-e0df57abe148","system_id":"levelo_inurba_marseille","lat":43.3048,"lon":5.379,"is_reserved":false,"is_disabled":false,"rental_uris":{"android":"levelo://app?vid=d7dafc95-2fcb-4a68-8209-e0df57abe148","ios":"levelo://app?vid=d7dafc95-2fcb-4a68-8209-e0df57abe148"},"vehicle_type_id":"4","last_reported":1745907301,"current_range_meters":24800,"station_id":"ce4bgup2rcd13ifvqcn0","pricing_plan_id":"cebpf4jnsgd1na2vs0mg"},{"bike_id":"ff47ea99-d5f0-4307-a653-cbeaa7c7fb67","system_id":"levelo_inurba_marseille","lat":43.32078,"lon":5.44084,"is_reserved":false,"is_disabled":false,"rental_uris":{"android":"levelo://app?vid=ff47ea99-d5f0-4307-a653-cbeaa7c7fb67","ios":"levelo://app?vid=ff47ea99-d5f0-4307-a653-cbeaa7c7fb67"},"vehicle_type_id":"4","last_reported":1745907301,"current_range_meters":24800,"station_id":"","pricing_plan_id":"cebpf4jnsgd1na2vs0mg"},{"bike_id":"aa94de33-4600-43d3-b374-a628c811fcbe","system_id":"levelo_inurba_marseille","lat":43.27492,"lon":5.42454,"is_reserved":false,"is_disabled":false,"rental_uris":{"android":"levelo://app?vid=aa94de33-4600-43d3-b374-a628c811fcbe","ios":"levelo://app?vid=aa94de33-4600-43d3-b374-a628c811fcbe"},"vehicle_type_id":"4","last_reported":1745907301,"current_range_meters":24800,"station_id":"ce4bhn92rcd13ifvqgrg","pricing_plan_id":"cebpf4jnsgd1na2vs0mg"},{"bike_id":"4ce3d03e-2e52-45cf-bfdb-81721b623809","system_id":"levelo_inurba_marseille","lat":43.23598,"lon":5.40355,"is_reserved":false,"is_disabled":true,"rental_uris":{"android":"levelo://app?vid=4ce3d03e-2e52-45cf-bfdb-81721b623809","ios":"levelo://app?vid=4ce3d03e-2e52-45cf-bfdb-81721b623809"},"vehicle_type_id":"4","last_reported":1745907301,"current_range_meters":25200,"station_id":"","pricing_plan_id":"cebpf4jnsgd1na2vs0mg"},{"bike_id":"af740dd3-89d1-414e-a33e-14acddde99ed","system_id":"levelo_inurba_marseille","lat":43.3134,"lon":5.36721,"is_reserved":false,"is_disabled":false,"rental_uris":{"android":"levelo://app?vid=af740dd3-89d1-414e-a33e-14acddde99ed","ios":"levelo://app?vid=af740dd3-89d1-414e-a33e-14acddde99ed"},"vehicle_type_id":"4","last_reported":1745907301,"current_range_meters":25200,"station_id":"ce4bgr92rcd13ifvqc6g","pricing_plan_id":"cebpf4jnsgd1na2vs0mg"},{"bike_id":"42c6d5fb-e6cd-4658-a88b-b142bee86eec","system_id":"levelo_inurba_marseille","lat":43.29601,"lon":5.38324,"is_reserved":false,"is_disabled":false,"rental_uris":{"android":"levelo://app?vid=42c6d5fb-e6cd-4658-a88b-b142bee86eec","ios":"levelo://app?vid=42c6d5fb-e6cd-4658-a88b-b142bee86eec"},"vehicle_type_id":"4","last_reported":1745907301,"current_range_meters":25200,"station_id":"","pricing_plan_id":"cebpf4jnsgd1na2vs0mg"},{"bike_id":"faf4c844-c26b-4d1f-b8c1-8da52988ae36","system_id":"levelo_inurba_marseille","lat":43.29891,"lon":5.38257,"is_reserved":false,"is_disabled":false,"rental_uris":{"android":"levelo://app?vid=faf4c844-c26b-4d1f-b8c1-8da52988ae36","ios":"levelo://app?vid=faf4c844-c26b-4d1f-b8c1-8da52988ae36"},"vehicle_type_id":"4","last_reported":1745907301,"current_range_meters":25200,"station_id":"","pricing_plan_id":"cebpf4jnsgd1na2vs0mg"},{"bike_id":"288e959d-96e9-467b-806a-661e544cf3a4","system_id":"levelo_inurba_marseille","lat":43.21193,"lon":5.350793,"is_reserved":false,"is_disabled":false,"rental_uris":{"android":"levelo://app?vid=288e959d-96e9-467b-806a-661e544cf3a4","ios":"levelo://app?vid=288e959d-96e9-467b-806a-661e544cf3a4"},"vehicle_type_id":"4","last_reported":1745907301,"current_range_meters":25200,"station_id":"st_cvj6sg6p6f1abm77japg","pricing_plan_id":"cebpf4jnsgd1na2vs0mg"},