{"last_updated":1701477266,"ttl":30,"version":"2.2","data":{"bikes":[{"bike_id":"ae349520-b12f-4bd7-afe1-ba40e5ad9153","system_id":"levelo_inurba_marseille","lat":43.314811,"lon":5.373103,"is_reserved":false,"is_disabled":false,"rental_uris":{"android":"levelo://app?vid=ae349520-b12f-4bd7-afe1-ba40e5ad9153","ios":"levelo://app?vid=ae349520-b12f-4bd7-afe1-ba40e5ad9153"},"vehicle_type_id":"4","last_reported":1701477266,"current_range_meters":27600,"station_id":"ce4bgt12rcd13ifvqcd0","pricing_plan_id":"free"},{"bike_id":"9922fc93-9052-478b-b9cc-b0ee0efe8af3","system_id":"levelo_inurba_marseille","lat":43.30896,"lon":5.372,"is_reserved":false,"is_disabled":false,"rental_uris":{"android":"levelo://app?vid=9922fc93-9052-478b-b9cc-b0ee0efe8af3","ios":"levelo://app?vid=9922fc93-9052-478b-b9cc-b0ee0efe8af3"},"vehicle_type_id":"4","last_reported":1701477266,"current_range_meters":19200,"station_id":"ce4bguh2rcd13ifvqckg","pricing_plan_id":"free"},{"bike_id":"69fbcc51-fc4f-4eab-a13a-6e69098befda","system_id":"levelo_inurba_marseille","lat":43.30896,"lon":5.37215,"is_reserved":false,"is_disabled":false,"rental_uris":{"android":"levelo://app?vid=69fbcc51-fc4f-4eab-a13a-6e69098befda","ios":"levelo://app?vid=69fbcc51-fc4f-4eab-a13a-6e69098befda"},"vehicle_type_id":"4","last_reported":1701477266,"current_range_meters":24400,"station_id":"ce4bguh2rcd13ifvqckg","pricing_plan_id":"free"},{"bike_id":"c1bd4f6e-955d-4703-9bdd-b0770e0bc1a3","system_id":"levelo_inurba_marseille","lat":43.305989,"lon":5.37225,"is_reserved":false,"is_disabled":false,"rental_uris":{"android":"levelo://app?vid=c1bd4f6e-955d-4703-9bdd-b0770e0bc1a3","ios":"levelo://app?vid=c1bd4f6e-955d-4703-9bdd-b0770e0bc1a3"},"vehicle_type_id":"4","last_reported":1701477266,"current_range_meters":0,"station_id":"ce4bgqh2rcd13ifvqc4g","pricing_plan_id":"free"},{"bike_id":"7cbe8b9b-3852-4bb4-b25e-dcb7ef12cdfd","system_id":"levelo_inurba_marseille","lat":43.305989,"lon":5.37225,"is_reserved":false,"is_disabled":false,"rental_uris":{"android":"levelo://app?vid=7cbe8b9b-3852-4bb4-b25e-dcb7ef12cdfd","ios":"levelo://app?vid=7cbe8b9b-3852-4bb4-b25e-dcb7ef12cdfd"},"vehicle_type_id":"4","last_reported":1701477266,"current_range_meters":23600,"station_id":"ce4bgqh2rcd13ifvqc4g","pricing_plan_id":"free"},{"bike_id":"7bdbcfe9-924e-49e5-849f-fb7276f261aa","system_id":"levelo_inurba_marseille","lat":43.310532,"lon":5.377412,"is_reserved":false,"is_disabled":false,"rental_uris":{"android":"levelo://app?vid=7bdbcfe9-924e-49e5-849f-fb7276f261aa","ios":"levelo://app?vid=7bdbcfe9-924e-49e5-849f-fb7276f261aa"},"vehicle_type_id":"4","last_reported":1701477266,"current_range_meters":8800,"station_id":"","pricing_plan_id":"free"},{"bike_id":"b6756954-57f2-4f72-8684-210644fc26c2","system_id":"levelo_inurba_marseille","lat":43.311195,"lon":5.377668,"is_reserved":false,"is_disabled":false,"rental_uris":{"android":"levelo://app?vid=b6756954-57f2-4f72-8684-210644fc26c2","ios":"levelo://app?vid=b6756954-57f2-4f72-8684-210644fc26c2"},"vehicle_type_id":"4","last_reported":1701477266,"current_range_meters":4400,"station_id":"","pricing_plan_id":"free"},{"bike_id":"cfd3bb51-5657-4943-be4a-4ca2f802bb01","system_id":"levelo_inurba_marseille","lat":43.308139,"lon":5.376591,"is_reserved":false,"is_disabled":false,"rental_uris":{"android":"levelo://app?vid=cfd3bb51-5657-4943-be4a-4ca2f802bb01","ios":"levelo://app?vid=cfd3bb51-5657-4943-be4a-4ca2f802bb01"},"vehicle_type_id":"4","last_reported":1701477266,"current_range_meters":13200,"station_id":"ce4bgv92rcd13ifvqcq0","pricing_plan_id":"free"},{"bike_id":"f427a2c3-6e4a-446b-ae2f-9be8aa7f4122","system_id":"levelo_inurba_marseille","lat":43.31719,"lon":5.376813,"is_reserved":false,"is_disabled":false,"rental_uris":{"android":"levelo://app?vid=f427a2c3-6e4a-446b-ae2f-9be8aa7f4122","ios":"levelo://app?vid=f427a2c3-6e4a-446b-ae2f-9be8aa7f4122"},"vehicle_type_id":"4","last_reported":1701477266,"current_range_meters":0,"station_id":"","pricing_plan_id":"free"},{"bike_id":"e913f328-1e31-4c22-bd87-f809ea246de4","system_id":"levelo_inurba_marseille","lat":43.317168,"lon":5.376883,"is_reserved":false,"is_disabled":false,"rental_uris":{"android":"levelo://app?vid=e913f328-1e31-4c22-bd87-f809ea246de4","ios":"levelo://app?vid=e913f328-1e31-4c22-bd87-f809ea246de4"},"vehicle_type_id":"4","last_reported":1701477266,"current_range_meters":2400,"station_id":"","pricing_plan_id":"free"},{"bike_id":"016cf6d8-febc-4a39-b584-d99d4927b6d7","system_id":"levelo_inurba_marseille","lat":43.307945,"lon":5.376487,"is_reserved":false,"is_disabled":false,"rental_uris":{"android":"levelo://app?vid=016cf6d8-febc-4a39-b584-d99d4927b6d7","ios":"levelo://app?vid=016cf6d8-febc-4a39-b584-d99d4927b6d7"},"vehicle_type_id":"4","last_reported":1701477266,"current_range_meters":19200,"station_id":"ce4bgv92rcd13ifvqcq0","pricing_plan_id":"free"},{"bike_id":"9ea36cc4-8675-4e34-94ad-a78cb11790c8","system_id":"levelo_inurba_marseille","lat":43.307945,"lon":5.376487,"is_reserved":false,"is_disabled":false,"rental_uris":{"android":"levelo://app?vid=9ea36cc4-8675-4e34-94ad-a78cb11790c8","ios":"levelo://app?vid=9ea36cc4-8675-4e34-94ad-a78cb11790c8"},"vehicle_type_id":"4","last_reported":1701477266,"current_range_meters":23600,"station_id":"ce4bgv92rcd13ifvqcq0","pricing_plan_id":"free"},{"bike_id":"92d8af04-b91c-4fe9-87f2-3d7cc202feb7","system_id":"levelo_inurba_marseille","lat":43.317075,"lon":5.377367,"is_reserved":false,"is_disabled":false,"rental_uris":{"android":"levelo://app?vid=92d8af04-b91c-4fe9-87f2-3d7cc202feb7","ios":"levelo://app?vid=92d8af04-b91c-4fe9-87f2-3d7cc202feb7"},"vehicle_type_id":"4","last_reported":1701477266,"current_range_meters":22400,"station_id":"ce4bgth2rcd13ifvqch0","pricing_plan_id":"free"},{"bike_id":"fb6fd937-527b-4585-9058-0dfdc6436ac8","system_id":"levelo_inurba_marseille","lat":43.31351,"lon":5.37909,"is_reserved":false,"is_disabled":false,"rental_uris":{"android":"levelo://app?vid=fb6fd937-527b-4585-9058-0dfdc6436ac8","ios":"levelo://app?vid=fb6fd937-527b-4585-9058-0dfdc6436ac8"},"vehicle_type_id":"4","last_reported":1701477266,"current_range_meters":23600,"station_id":"","pricing_plan_id":"free"},{"bike_id":"593babd9-c3d2-4b6a-af9f-be560bf08fbf","system_id":"levelo_inurba_marseille","lat":43.30864,"lon":5.378834,"is_reserved":false,"is_disabled":false,"rental_uris":{"android":"levelo://app?vid=593babd9-c3d2-4b6a-af9f-be560bf08fbf","ios":"levelo://app?vid=593babd9-c3d2-4b6a-af9f-be560bf08fbf"},"vehicle_type_id":"4","last_reported":1701477266,"current_range_meters":4400,"station_id":"","pricing_plan_id":"free"},{"bike_id":"194ff67d-738d-48c1-a517-c6d5095fe7b4","system_id":"levelo_inurba_marseille","lat":43.31529,"lon":5.38043,"is_reserved":false,"is_disabled":false,"rental_uris":{"android":"levelo://app?vid=194ff67d-738d-48c1-a517-c6d5095fe7b4","ios":"levelo://app?vid=194ff67d-738d-48c1-a517-c6d5095fe7b4"},"vehicle_type_id":"4","last_reported":1701477266,"current_range_meters":18800,"station_id":"ce4bhsp2rcd13ifvqi50","pricing_plan_id":"free"},{"bike_id":"b8576f31-26f1-4459-99fa-b66389668bc8","system_id":"levelo_inurba_marseille","lat":43.307986,"lon":5.381508,"is_reserved":false,"is_disabled":false,"rental_uris":{"android":"levelo://app?vid=b8576f31-26f1-4459-99fa-b66389668bc8","ios":"levelo://app?vid=b8576f31-26f1-4459-99fa-b66389668bc8"},"vehicle_type_id":"4","last_reported":1701477266,"current_range_meters":24000,"station_id":"ce4bgt12rcd13ifvqce0","pricing_plan_id":"free"},{"bike_id":"5992250d-dbf7-4936-8880-3160b80e6809","system_id":"levelo_inurba_marseille","lat":43.308012,"lon":5.381511,"is_reserved":false,"is_disabled":false,"rental_uris":{"android":"levelo://app?vid=5992250d-dbf7-4936-8880-3160b80e6809","ios":"levelo://app?vid=5992250d-dbf7-4936-8880-3160b80e6809"},"vehicle_type_id":"4","last_reported":1701477266,"current_range_meters":11600,"station_id":"ce4bgt12rcd13ifvqce0","pricing_plan_id":"free"},{"bike_id":"a6475a8a-11b3-4af0-85f3-fd2cabbfdd22","system_id":"levelo_inurba_marseille","lat":43.3248,"lon":5.36568,"is_reserved":false,"is_disabled":false,"rental_uris":{"android":"levelo://app?vid=a6475a8a-11b3-4af0-85f3-fd2cabbfdd22","ios":"levelo://app?vid=a6475a8a-11b3-4af0-85f3-fd2cabbfdd22"},"vehicle_type_id":"4","last_reported":1701477266,"current_range_meters":20800,"station_id":"ce4bhs12rcd13ifvqhvg","pricing_plan_id":"free"},{"bike_id":"19dcde97-826d-4c77-b8cf-d90ba7f775b0","system_id":"levelo_inurba_marseille","lat":43.324771,"lon":5.36557,"is_reserved":false,"is_disabled":false,"rental_uris":{"android":"levelo://app?vid=19dcde97-826d-4c77-b8cf-d90ba7f775b0","ios":"levelo://app?vid=19dcde97-826d-4c77-b8cf-d90ba7f775b0"},"vehicle_type_id":"4","last_reported":1701477266,"current_range_meters":16400,"station_id":"ce4bhs12rcd13ifvqhvg","pricing_plan_id":"free"},{"bike_id":"e56c4c03-d6ac-416d-8380-bbaf7fb49559","system_id":"levelo_inurba_marseille","lat":43.32482,"lon":5.36559,"is_reserved":false,"is_disabled":false,"rental_uris":{"android":"levelo://app?vid=e56c4c03-d6ac-416d-8380-bbaf7fb49559","ios":"levelo://app?vid=e56c4c03-d6ac-416d-8380-bbaf7fb49559"},"vehicle_type_id":"4","last_reported":1701477266,"current_range_meters":4800,"station_id":"ce4bhs12rcd13ifvqhvg","pricing_plan_id":"free"},{"bike_id":"e9535649-358f-4bec-bada-1ddbe19c48b2","system_id":"levelo_inurba_marseille","lat":43.32,"lon":5.38152,"is_reserved":false,"is_disabled":false,"rental_uris":{"android":"levelo://app?vid=e9535649-358f-4bec-bada-1ddbe19c48b2","ios":"levelo://app?vid=e9535649-358f-4bec-bada-1ddbe19c48b2"},"vehicle_type_id":"4","last_reported":1701477266,"current_range_meters":2000,"station_id":"ce4bhr12rcd13ifvqhpg","pricing_plan_id":"free"},{"bike_id":"2275aca5-3158-4c2c-8022-ca5d2714bc86","system_id":"levelo_inurba_marseille","lat":43.319997,"lon":5.381594,"is_reserved":false,"is_disabled":false,"rental_uris":{"android":"levelo://app?vid=2275aca5-3158-4c2c-8022-ca5d2714bc86","ios":"levelo://app?vid=2275aca5-3158-4c2c-8022-ca5d2714bc86"},"vehicle_type_id":"4","last_reported":1701477266,"current_range_meters":17200,"station_id":"ce4bhr12rcd13ifvqhpg","pricing_plan_id":"free"},{"bike_id":"3240a428-be7b-4ff5-97ee-35180b1dbf71","system_id":"levelo_inurba_marseille","lat":43.313571,"lon":5.384829,"is_reserved":false,"is_disabled":false,"rental_uris":{"android":"levelo://app?vid=3240a428-be7b-4ff5-97ee-35180b1dbf71","ios":"levelo://app?vid=3240a428-be7b-4ff5-97ee-35180b1dbf71"},"vehicle_type_id":"4","last_reported":1701477266,"current_range_meters":28400,"station_id":"ce4bgt92rcd13ifvqcf0","pricing_plan_id":"free"},{"bike_id":"79bb6607-cc78-4995-9caf-aebfa08ae6a3","system_id":"levelo_inurba_marseille","lat":43.313571,"lon":5.384829,"is_reserved":false,"is_disabled":false,"rental_uris":{"android":"levelo://app?vid=79bb6607-cc78-4995-9caf-aebfa08ae6a3","ios":"levelo://app?vid=79bb6607-cc78-4995-9caf-aebfa08ae6a3"},"vehicle_type_id":"4","last_reported":1701477266,"current_range_meters":27200,"station_id":"ce4bgt92rcd13ifvqcf0","pricing_plan_id":"free"},{"bike_id":"8cec856e-4d26-4988-83b1-91ef4dac2750","system_id":"levelo_inurba_marseille","lat":43.313571,"lon":5.384829,"is_reserved":false,"is_disabled":false,"rental_uris":{"android":"levelo://app?vid=8cec856e-4d26-4988-83b1-91ef4dac2750","ios":"levelo://app?vid=8cec856e-4d26-4988-83b1-91ef4dac2750"},"vehicle_type_id":"4","last_reported":1701477266,"current_range_meters":1600,"station_id":"ce4bgt92rcd13ifvqcf0","pricing_plan_id":"free"},{"bike_id":"9fdb7f97-586d-42d2-befd-15216ba2e422","system_id":"levelo_inurba_marseille","lat":43.31183,"lon":5.38523,"is_reserved":false,"is_disabled":false,"rental_uris":{"android":"levelo://app?vid=9fdb7f97-586d-42d2-befd-15216ba2e422","ios":"levelo://app?vid=9fdb7f97-586d-42d2-befd-15216ba2e422"},"vehicle_type_id":"4","last_reported":1701477266,"current_range_meters":3600,"station_id":"","pricing_plan_id":"free"},{"bike_id":"748d12ab-8e09-4ecd-b2d2-cbe0ea9624f6","system_id":"levelo_inurba_marseille","lat":43.29846,"lon":5.36764,"is_reserved":false,"is_disabled":false,"rental_uris":{"android":"levelo://app?vid=748d12ab-8e09-4ecd-b2d2-cbe0ea9624f6","ios":"levelo://app?vid=748d12ab-8e09-4ecd-b2d2-cbe0ea9624f6"},"vehicle_type_id":"4","last_reported":1701477266,"current_range_meters":8800,"station_id":"","pricing_plan_id":"free"},{"bike_id":"4a4eb50c-75bb-4e6b-9faa-8e5527e44948","system_id":"levelo_inurba_marseille","lat":43.311615,"lon":5.386818,"is_reserved":false,"is_disabled":false,"rental_uris":{"android":"levelo://app?vid=4a4eb50c-75bb-4e6b-9faa-8e5527e44948","ios":"levelo://app?vid=4a4eb50c-75bb-4e6b-9faa-8e5527e44948"},"vehicle_type_id":"4","last_reported":1701477266,"current_range_meters":6800,"station_id":"ce4bgv12rcd13ifvqcp0","pricing_plan_id":"free"},{"bike_id":"89cf40a6-6319-4e74-8412-d9b1d01195e5","system_id":"levelo_inurba_marseille","lat":43.299243,"lon":5.37481,"is_reserved":false,"is_disabled":false,"rental_uris":{"android":"levelo://app?vid=89cf40a6-6319-4e74-8412-d9b1d01195e5","ios":"levelo://app?vid=89cf40a6-6319-4e74-8412-d9b1d01195e5"},"vehicle_type_id":"4","last_reported":1701477266,"current_range_meters":30000,"station_id":"ce4bgjh2rcd13ifvqbg0","pricing_plan_id":"free"},{"bike_id":"8133275c-d5dd-4d9e-96e1-9a60c278613c","system_id":"levelo_inurba_marseille","lat":43.311722,"lon":5.387247,"is_reserved":false,"is_disabled":false,"rental_uris":{"android":"levelo://app?vid=8133275c-d5dd-4d9e-96e1-9a60c278613c","ios":"levelo://app?vid=8133275c-d5dd-4d9e-96e1-9a60c278613c"},"vehicle_type_id":"4","last_reported":1701477266,"current_range_meters":21200,"station_id":"ce4bgv12rcd13ifvqcp0","pricing_plan_id":"free"},{"bike_id":"18cb6321-1bd6-4edf-9633-cbb02c3241d1","system_id":"levelo_inurba_marseille","lat":43.311722,"lon":5.387247,"is_reserved":false,"is_disabled":false,"rental_uris":{"android":"levelo://app?vid=18cb6321-1bd6-4edf-9633-cbb02c3241d1","ios":"levelo://app?vid=18cb6321-1bd6-4edf-9633-cbb02c3241d1"},"vehicle_type_id":"4","last_reported":1701477266,"current_range_meters":31600,"station_id":"ce4bgv12rcd13ifvqcp0","pricing_plan_id":"free"},{"bike_id":"5554b433-3894-4d7c-8796-43f7d0039f22","system_id":"levelo_inurba_marseille","lat":43.311722,"lon":5.387247,"is_reserved":false,"is_disabled":false,"rental_uris":{"android":"levelo://app?vid=5554b433-3894-4d7c-8796-43f7d0039f22","ios":"levelo://app?vid=5554b433-3894-4d7c-8796-43f7d0039f22"},"vehicle_type_id":"4","last_reported":1701477266,"current_range_meters":30800,"station_id":"ce4bgv12rcd13ifvqcp0","pricing_plan_id":"free"},{"bike_id":"62cc609e-855c-4c7f-8835-fd7f525975e8","system_id":"levelo_inurba_marseille","lat":43.311722,"lon":5.387247,"is_reserved":false,"is_disabled":false,"rental_uris":{"android":"levelo://app?vid=62cc609e-855c-4c7f-8835-fd7f525975e8","ios":"levelo://app?vid=62cc609e-855c-4c7f-8835-fd7f525975e8"},"vehicle_type_id":"4","last_reported":1701477266,"current_range_meters":31200,"station_id":"ce4bgv12rcd13ifvqcp0","pricing_plan_id":"free"},{"bike_id":"a4d1e9d0-b503-4a28-8c6f-5c9dbef64bcc","system_id":"levelo_inurba_marseille","lat":43.311722,"lon":5.387247,"is_reserved":false,"is_disabled":false,"rental_uris":{"android":"levelo://app?vid=a4d1e9d0-b503-4a28-8c6f-5c9dbef64bcc","ios":"levelo://app?vid=a4d1e9d0-b503-4a28-8c6f-5c9dbef64bcc"},"vehicle_type_id":"4","last_reported":1701477266,"current_range_meters":23600,"station_id":"ce4bgv12rcd13ifvqcp0","pricing_plan_id":"free"},{"bike_id":"0b75d4b8-4264-49df-8375-9db6292aa85b","system_id":"levelo_inurba_marseille","lat":43.311722,"lon":5.387247,"is_reserved":false,"is_disabled":false,"rental_uris":{"android":"levelo://app?vid=0b75d4b8-4264-49df-8375-9db6292aa85b","ios":"levelo://app?vid=0b75d4b8-4264-49df-8375-9db6292aa85b"},"vehicle_type_id":"4","last_reported":1701477266,"current_range_meters":31200,"station_id":"ce4bgv12rcd13ifvqcp0","pricing_plan_id":"free"},{"bike_id":"fb861d31-3608-471e-bcf7-f64a2c81bd8a","system_id":"levelo_inurba_marseille","lat":43.297794,"lon":5.370888,"is_reserved":false,"is_disabled":false,"rental_uris":{"android":"levelo://app?vid=fb861d31-3608-471e-bcf7-f64a2c81bd8a","ios":"levelo://app?vid=fb861d31-3608-471e-bcf7-f64a2c81bd8a"},"vehicle_type_id":"4","last_reported":1701477266,"current_range_meters":22800,"station_id":"ce4bgop2rcd13ifvqc1g","pricing_plan_id":"free"},{"bike_id":"cf758772-2103-4c5d-9248-cfc6a1d99cd2","system_id":"levelo_inurba_marseille","lat":43.322872,"lon":5.382756,"is_reserved":false,"is_disabled":false,"rental_uris":{"android":"levelo://app?vid=cf758772-2103-4c5d-9248-cfc6a1d99cd2","ios":"levelo://app?vid=cf758772-2103-4c5d-9248-cfc6a1d99cd2"},"vehicle_type_id":"4","last_reported":1701477266,"current_range_meters":29200,"station_id":"ce4bhr12rcd13ifvqhqg","pricing_plan_id":"free"},{"bike_id":"e9c2a1db-09ba-458a-8020-96222a840fa4","system_id":"levelo_inurba_marseille","lat":43.322872,"lon":5.382756,"is_reserved":false,"is_disabled":false,"rental_uris":{"android":"levelo://app?vid=e9c2a1db-09ba-458a-8020-96222a840fa4","ios":"levelo://app?vid=e9c2a1db-09ba-458a-8020-96222a840fa4"},"vehicle_type_id":"4","last_reported":1701477266,"current_range_meters":26800,"station_id":"ce4bhr12rcd13ifvqhqg","pricing_plan_id":"free"},{"bike_id":"65073be3-64d5-4947-9113-fd11101b78dd","system_id":"levelo_inurba_marseille","lat":43.322872,"lon":5.382756,"is_reserved":false,"is_disabled":false,"rental_uris":{"android":"levelo://app?vid=65073be3-64d5-4947-9113-fd11101b78dd","ios":"levelo://app?vid=65073be3-64d5-4947-9113-fd11101b78dd"},"vehicle_type_id":"4","last_reported":1701477266,"current_range_meters":10800,"station_id":"ce4bhr12rcd13ifvqhqg","pricing_plan_id":"free"},{"bike_id":"3c6eacad-63e8-42f7-9988-09cf64b64dd8","system_id":"levelo_inurba_marseille","lat":43.328371,"lon":5.366909,"is_reserved":false,"is_disabled":false,"rental_uris":{"android":"levelo://app?vid=3c6eacad-63e8-42f7-9988-09cf64b64dd8","ios":"levelo://app?vid=3c6eacad-63e8-42f7-9988-09cf64b64dd8"},"vehicle_type_id":"4","last_reported":1701477266,"current_range_meters":10800,"station_id":"ce4bhs92rcd13ifvqi0g","pricing_plan_id":"free"},{"bike_id":"38b36a3d-7fa0-425f-884d-37f0109ceebf","system_id":"levelo_inurba_marseille","lat":43.328291,"lon":5.366879,"is_reserved":false,"is_disabled":false,"rental_uris":{"android":"levelo://app?vid=38b36a3d-7fa0-425f-884d-37f0109ceebf","ios":"levelo://app?vid=38b36a3d-7fa0-425f-884d-37f0109ceebf"},"vehicle_type_id":"4","last_reported":1701477266,"current_range_meters":15200,"station_id":"ce4bhs92rcd13ifvqi0g","pricing_plan_id":"free"},{"bike_id":"c0284961-478e-4ccd-b43e-321d6e4c5580","system_id":"levelo_inurba_marseille","lat":43.32833,"lon":5.36695,"is_reserved":false,"is_disabled":false,"rental_uris":{"android":"levelo://app?vid=c0284961-478e-4ccd-b43e-321d6e4c5580","ios":"levelo://app?vid=c0284961-478e-4ccd-b43e-321d6e4c5580"},"vehicle_type_id":"4","last_reported":1701477266,"current_range_meters":4800,"station_id":"ce4bhs92rcd13ifvqi0g","pricing_plan_id":"free"},{"bike_id":"e196cafb-d37f-4b76-93ee-2d2565c7ad83","system_id":"levelo_inurba_marseille","lat":43.297106,"lon":5.366153,"is_reserved":false,"is_disabled":false,"rental_uris":{"android":"levelo://app?vid=e196cafb-d37f-4b76-93ee-2d2565c7ad83","ios":"levelo://app?vid=e196cafb-d37f-4b76-93ee-2d2565c7ad83"},"vehicle_type_id":"4","last_reported":1701477266,"current_range_meters":0,"station_id":"ce4bgn12rcd13ifvqbt0","pricing_plan_id":"free"},{"bike_id":"eaa0e7e7-2390-47fa-909b-7b240952cbef","system_id":"levelo_inurba_marseille","lat":43.316639,"lon":5.389346,"is_reserved":false,"is_disabled":false,"rental_uris":{"android":"levelo://app?vid=eaa0e7e7-2390-47fa-909b-7b240952cbef","ios":"levelo://app?vid=eaa0e7e7-2390-47fa-909b-7b240952cbef"},"vehicle_type_id":"4","last_reported":1701477266,"current_range_meters":17200,"station_id":"","pricing_plan_id":"free"},{"bike_id":"70ea4c69-6cdc-4618-9a9d-a38e1ca26ac8","system_id":"levelo_inurba_marseille","lat":43.29573,"lon":5.367355,"is_reserved":false,"is_disabled":false,"rental_uris":{"android":"levelo://app?vid=70ea4c69-6cdc-4618-9a9d-a38e1ca26ac8","ios":"levelo://app?vid=70ea4c69-6cdc-4618-9a9d-a38e1ca26ac8"},"vehicle_type_id":"4","last_reported":1701477266,"current_range_meters":22400,"station_id":"ce4bgph2rcd13ifvqc2g","pricing_plan_id":"free"},{"bike_id":"5bd76230-5089-4482-857d-0bca1f67522e","system_id":"levelo_inurba_marseille","lat":43.29573,"lon":5.367355,"is_reserved":false,"is_disabled":false,"rental_uris":{"android":"levelo://app?vid=5bd76230-5089-4482-857d-0bca1f67522e","ios":"levelo://app?vid=5bd76230-5089-4482-857d-0bca1f67522e"},"vehicle_type_id":"4","last_reported":1701477266,"current_range_meters":26400,"station_id":"ce4bgph2rcd13ifvqc2g","pricing_plan_id":"free"},{"bike_id":"b086a4c6-33f7-4e01-ad03-bfd36c1e6e8b","system_id":"levelo_inurba_marseille","lat":43.309589,"lon":5.390258,"is_reserved":false,"is_disabled":false,"rental_uris":{"android":"levelo://app?vid=b086a4c6-33f7-4e01-ad03-bfd36c1e6e8b","ios":"levelo://app?vid=b086a4c6-33f7-4e01-ad03-bfd36c1e6e8b"},"vehicle_type_id":"4","last_reported":1701477266,"current_range_meters":23600,"station_id":"ce4bgup2rcd13ifvqco0","pricing_plan_id":"free"},{"bike_id":"8c23e561-bbb5-4288-b0c4-06857560998a","system_id":"levelo_inurba_marseille","lat":43.309589,"lon":5.390258,"is_reserved":false,"is_disabled":false,"rental_uris":{"android":"levelo://app?vid=8c23e561-bbb5-4288-b0c4-06857560998a","ios":"levelo://app?vid=8c23e561-bbb5-4288-b0c4-06857560998a"},"vehicle_type_id":"4","last_reported":1701477266,"current_range_meters":9600,"station_id":"ce4bgup2rcd13ifvqco0","pricing_plan_id":"free"},{"bike_id":"e5f26c5e-2074-4536-953e-a3eb912ac3be","system_id":"levelo_inurba_marseille","lat":43.317557,"lon":5.390173,"is_reserved":false,"is_disabled":false,"rental_uris":{"android":"levelo://app?vid=e5f26c5e-2074-4536-953e-a3eb912ac3be","ios":"levelo://app?vid=e5f26c5e-2074-4536-953e-a3eb912ac3be"},"vehicle_type_id":"4","last_reported":1701477266,"current_range_meters":8400,"station_id":"ce4bhqp2rcd13ifvqhng","pricing_plan_id":"free"},{"bike_id":"c9a793b6-383f-4ac4-bb57-1a38a504f0fb","system_id":"levelo_inurba_marseille","lat":43.317557,"lon":5.390173,"is_reserved":false,"is_disabled":false,"rental_uris":{"android":"levelo://app?vid=c9a793b6-383f-4ac4-bb57-1a38a504f0fb","ios":"levelo://app?vid=c9a793b6-383f-4ac4-bb57-1a38a504f0fb"},"vehicle_type_id":"4","last_reported":1701477266,"current_range_meters":30000,"station_id":"ce4bhqp2rcd13ifvqhng","pricing_plan_id":"free"},{"bike_id":"99263d35-6055-4dd7-9f57-42166970aeba","system_id":"levelo_inurba_marseille","lat":43.317545,"lon":5.390202,"is_reserved":false,"is_disabled":false,"rental_uris":{"android":"levelo://app?vid=99263d35-6055-4dd7-9f57-42166970aeba","ios":"levelo://app?vid=99263d35-6055-4dd7-9f57-42166970aeba"},"vehicle_type_id":"4","last_reported":1701477266,"current_range_meters":31200,"station_id":"ce4bhqp2rcd13ifvqhng","pricing_plan_id":"free"},{"bike_id":"16ba0c63-8aa8-4038-9c53-14acf0533f64","system_id":"levelo_inurba_marseille","lat":43.295748,"lon":5.37522,"is_reserved":false,"is_disabled":false,"rental_uris":{"android":"levelo://app?vid=16ba0c63-8aa8-4038-9c53-14acf0533f64","ios":"levelo://app?vid=16ba0c63-8aa8-4038-9c53-14acf0533f64"},"vehicle_type_id":"4","last_reported":1701477266,"current_range_meters":14000,"station_id":"ce4bgh92rcd13ifvqb50","pricing_plan_id":"free"},{"bike_id":"2da18332-f6cb-4013-9d9e-f99cecf44d84","system_id":"levelo_inurba_marseille","lat":43.304278,"lon":5.388868,"is_reserved":false,"is_disabled":false,"rental_uris":{"android":"levelo://app?vid=2da18332-f6cb-4013-9d9e-f99cecf44d84","ios":"levelo://app?vid=2da18332-f6cb-4013-9d9e-f99cecf44d84"},"vehicle_type_id":"4","last_reported":1701477266,"current_range_meters":23600,"station_id":"ce4bgk12rcd13ifvqbi0","pricing_plan_id":"free"},{"bike_id":"35b4ae9b-beb0-4e8c-95bf-7212b65cc59e","system_id":"levelo_inurba_marseille","lat":43.295693,"lon":5.375183,"is_reserved":false,"is_disabled":false,"rental_uris":{"android":"levelo://app?vid=35b4ae9b-beb0-4e8c-95bf-7212b65cc59e","ios":"levelo://app?vid=35b4ae9b-beb0-4e8c-95bf-7212b65cc59e"},"vehicle_type_id":"4","last_reported":1701477266,"current_range_meters":0,"station_id":"ce4bgh92rcd13ifvqb50","pricing_plan_id":"free"},{"bike_id":"13ca97e5-82b5-4e06-8d78-e9793b7e594e","system_id":"levelo_inurba_marseille","lat":43.297142,"lon":5.379705,"is_reserved":false,"is_disabled":false,"rental_uris":{"android":"levelo://app?vid=13ca97e5-82b5-4e06-8d78-e9793b7e594e","ios":"levelo://app?vid=13ca97e5-82b5-4e06-8d78-e9793b7e594e"},"vehicle_type_id":"4","last_reported":1701477266,"current_range_meters":21200,"station_id":"","pricing_plan_id":"free"},{"bike_id":"e28f90eb-cea4-49eb-a22b-ca8f56f6d451","system_id":"levelo_inurba_marseille","lat":43.2927,"lon":5.36832,"is_reserved":false,"is_disabled":false,"rental_uris":{"android":"levelo://app?vid=e28f90eb-cea4-49eb-a22b-ca8f56f6d451","ios":"levelo://app?vid=e28f90eb-cea4-49eb-a22b-ca8f56f6d451"},"vehicle_type_id":"4","last_reported":1701477266,"current_range_meters":0,"station_id":"ce4bhbp2rcd13ifvqesg","pricing_plan_id":"free"},{"bike_id":"353da743-7b5f-4e7c-942e-ac7ae47abf4a","system_id":"levelo_inurba_marseille","lat":43.293259,"lon":5.371586,"is_reserved":false,"is_disabled":false,"rental_uris":{"android":"levelo://app?vid=353da743-7b5f-4e7c-942e-ac7ae47abf4a","ios":"levelo://app?vid=353da743-7b5f-4e7c-942e-ac7ae47abf4a"},"vehicle_type_id":"4","last_reported":1701477266,"current_range_meters":28800,"station_id":"ce4bgh92rcd13ifvqb40","pricing_plan_id":"free"},{"bike_id":"aac8680b-ac21-4462-93d7-831cf74934f0","system_id":"levelo_inurba_marseille","lat":43.305994,"lon":5.393687,"is_reserved":false,"is_disabled":false,"rental_uris":{"android":"levelo://app?vid=aac8680b-ac21-4462-93d7-831cf74934f0","ios":"levelo://app?vid=aac8680b-ac21-4462-93d7-831cf74934f0"},"vehicle_type_id":"4","last_reported":1701477266,"current_range_meters":28000,"station_id":"ce4bh0p2rcd13ifvqd80","pricing_plan_id":"free"},{"bike_id":"9e7a0dd1-c52d-4543-a645-3704d67dd0c1","system_id":"levelo_inurba_marseille","lat":43.305994,"lon":5.393687,"is_reserved":false,"is_disabled":false,"rental_uris":{"android":"levelo://app?vid=9e7a0dd1-c52d-4543-a645-3704d67dd0c1","ios":"levelo://app?vid=9e7a0dd1-c52d-4543-a645-3704d67dd0c1"},"vehicle_type_id":"4","last_reported":1701477266,"current_range_meters":28800,"station_id":"ce4bh0p2rcd13ifvqd80","pricing_plan_id":"free"},{"bike_id":"434fa6e7-12b0-4bbf-b737-e002a01efe75","system_id":"levelo_inurba_marseille","lat":43.2936,"lon":5.37835,"is_reserved":false,"is_disabled":false,"rental_uris":{"android":"levelo://app?vid=434fa6e7-12b0-4bbf-b737-e002a01efe75","ios":"levelo://app?vid=434fa6e7-12b0-4bbf-b737-e002a01efe75"},"vehicle_type_id":"4","last_reported":1701477266,"current_range_meters":23200,"station_id":"ce4bgjh2rcd13ifvqbf0","pricing_plan_id":"free"},{"bike_id":"6d12ca8e-ff25-4bb6-8ff4-254e2b663862","system_id":"levelo_inurba_marseille","lat":43.309038,"lon":5.396546,"is_reserved":false,"is_disabled":false,"rental_uris":{"android":"levelo://app?vid=6d12ca8e-ff25-4bb6-8ff4-254e2b663862","ios":"levelo://app?vid=6d12ca8e-ff25-4bb6-8ff4-254e2b663862"},"vehicle_type_id":"4","last_reported":1701477266,"current_range_meters":23600,"station_id":"ce4bh012rcd13ifvqcv0","pricing_plan_id":"free"},{"bike_id":"00746fc3-6c23-4bab-aa6d-cf7da193780e","system_id":"levelo_inurba_marseille","lat":43.309047,"lon":5.396551,"is_reserved":false,"is_disabled":false,"rental_uris":{"android":"levelo://app?vid=00746fc3-6c23-4bab-aa6d-cf7da193780e","ios":"levelo://app?vid=00746fc3-6c23-4bab-aa6d-cf7da193780e"},"vehicle_type_id":"4","last_reported":1701477266,"current_range_meters":14400,"station_id":"ce4bh012rcd13ifvqcv0","pricing_plan_id":"free"},{"bike_id":"39c04fec-b8d1-42af-8068-1cc09f98ae9b","system_id":"levelo_inurba_marseille","lat":43.309047,"lon":5.396551,"is_reserved":false,"is_disabled":false,"rental_uris":{"android":"levelo://app?vid=39c04fec-b8d1-42af-8068-1cc09f98ae9b","ios":"levelo://app?vid=39c04fec-b8d1-42af-8068-1cc09f98ae9b"},"vehicle_type_id":"4","last_reported":1701477266,"current_range_meters":27600,"station_id":"ce4bh012rcd13ifvqcv0","pricing_plan_id":"free"},{"bike_id":"a22b40db-0867-4535-bec2-cd80000493d1","system_id":"levelo_inurba_marseille","lat":43.313291,"lon":5.396838,"is_reserved":false,"is_disabled":false,"rental_uris":{"android":"levelo://app?vid=a22b40db-0867-4535-bec2-cd80000493d1","ios":"levelo://app?vid=a22b40db-0867-4535-bec2-cd80000493d1"},"vehicle_type_id":"4","last_reported":1701477266,"current_range_meters":5200,"station_id":"ce4bgvp2rcd13ifvqcu0","pricing_plan_id":"free"},{"bike_id":"3e4b3588-c60f-43d7-b7ca-c2354c610af9","system_id":"levelo_inurba_marseille","lat":43.309038,"lon":5.396546,"is_reserved":false,"is_disabled":false,"rental_uris":{"android":"levelo://app?vid=3e4b3588-c60f-43d7-b7ca-c2354c610af9","ios":"levelo://app?vid=3e4b3588-c60f-43d7-b7ca-c2354c610af9"},"vehicle_type_id":"4","last_reported":1701477266,"current_range_meters":6800,"station_id":"ce4bh012rcd13ifvqcv0","pricing_plan_id":"free"},{"bike_id":"52391c10-12e8-476c-b36d-42eec3feee02","system_id":"levelo_inurba_marseille","lat":43.309038,"lon":5.396546,"is_reserved":false,"is_disabled":false,"rental_uris":{"android":"levelo://app?vid=52391c10-12e8-476c-b36d-42eec3feee02","ios":"levelo://app?vid=52391c10-12e8-476c-b36d-42eec3feee02"},"vehicle_type_id":"4","last_reported":1701477266,"current_range_meters":16000,"station_id":"ce4bh012rcd13ifvqcv0","pricing_plan_id":"free"},{"bike_id":"2c9333a9-f303-4528-a874-91f7d904521d","system_id":"levelo_inurba_marseille","lat":43.309047,"lon":5.396551,"is_reserved":false,"is_disabled":false,"rental_uris":{"android":"levelo://app?vid=2c9333a9-f303-4528-a874-91f7d904521d","ios":"levelo://app?vid=2c9333a9-f303-4528-a874-91f7d904521d"},"vehicle_type_id":"4","last_reported":1701477266,"current_range_meters":30800,"station_id":"ce4bh012rcd13ifvqcv0","pricing_plan_id":"free"},{"bike_id":"5103a99a-e833-4196-9da5-9a90ab3d7d66","system_id":"levelo_inurba_marseille","lat":43.309047,"lon":5.396551,"is_reserved":false,"is_disabled":false,"rental_uris":{"android":"levelo://app?vid=5103a99a-e833-4196-9da5-9a90ab3d7d66","ios":"levelo://app?vid=5103a99a-e833-4196-9da5-9a90ab3d7d66"},"vehicle_type_id":"4","last_reported":1701477266,"current_range_meters":14000,"station_id":"ce4bh012rcd13ifvqcv0","pricing_plan_id":"free"},{"bike_id":"d1a87725-0ee3-4ad3-b97d-807766a38d28","system_id":"levelo_inurba_marseille","lat":43.290779,"lon":5.371482,"is_reserved":false,"is_disabled":false,"rental_uris":{"android":"levelo://app?vid=d1a87725-0ee3-4ad3-b97d-807766a38d28","ios":"levelo://app?vid=d1a87725-0ee3-4ad3-b97d-807766a38d28"},"vehicle_type_id":"4","last_reported":1701477266,"current_range_meters":20800,"station_id":"ce4bh5p2rcd13ifvqe4g","pricing_plan_id":"free"},{"bike_id":"5ab31f5c-97dd-4b03-a8a4-f49bdbb4e63f","system_id":"levelo_inurba_marseille","lat":43.290779,"lon":5.371482,"is_reserved":false,"is_disabled":false,"rental_uris":{"android":"levelo://app?vid=5ab31f5c-97dd-4b03-a8a4-f49bdbb4e63f","ios":"levelo://app?vid=5ab31f5c-97dd-4b03-a8a4-f49bdbb4e63f"},"vehicle_type_id":"4","last_reported":1701477266,"current_range_meters":0,"station_id":"ce4bh5p2rcd13ifvqe4g","pricing_plan_id":"free"},{"bike_id":"8723e2fa-e12f-4126-9d2f-80f10c40f075","system_id":"levelo_inurba_marseille","lat":43.302008,"lon":5.394694,"is_reserved":false,"is_disabled":false,"rental_uris":{"android":"levelo://app?vid=8723e2fa-e12f-4126-9d2f-80f10c40f075","ios":"levelo://app?vid=8723e2fa-e12f-4126-9d2f-80f10c40f075"},"vehicle_type_id":"4","last_reported":1701477266,"current_range_meters":8800,"station_id":"ce4bh0p2rcd13ifvqd70","pricing_plan_id":"free"},{"bike_id":"6d40c3c7-58ed-4bc3-a5c8-f16502ac5f18","system_id":"levelo_inurba_marseille","lat":43.290624,"lon":5.359245,"is_reserved":false,"is_disabled":false,"rental_uris":{"android":"levelo://app?vid=6d40c3c7-58ed-4bc3-a5c8-f16502ac5f18","ios":"levelo://app?vid=6d40c3c7-58ed-4bc3-a5c8-f16502ac5f18"},"vehicle_type_id":"4","last_reported":1701477266,"current_range_meters":28000,"station_id":"ce4bha92rcd13ifvqeg0","pricing_plan_id":"free"},{"bike_id":"b91618f4-f018-4144-a07a-697ad3c4f5bd","system_id":"levelo_inurba_marseille","lat":43.290624,"lon":5.359245,"is_reserved":false,"is_disabled":false,"rental_uris":{"android":"levelo://app?vid=b91618f4-f018-4144-a07a-697ad3c4f5bd","ios":"levelo://app?vid=b91618f4-f018-4144-a07a-697ad3c4f5bd"},"vehicle_type_id":"4","last_reported":1701477266,"current_range_meters":24400,"station_id":"ce4bha92rcd13ifvqeg0","pricing_plan_id":"free"},{"bike_id":"a22f1bc1-69fc-4e9b-9d71-284d49d6a028","system_id":"levelo_inurba_marseille","lat":43.290631,"lon":5.359244,"is_reserved":false,"is_disabled":false,"rental_uris":{"android":"levelo://app?vid=a22f1bc1-69fc-4e9b-9d71-284d49d6a028","ios":"levelo://app?vid=a22f1bc1-69fc-4e9b-9d71-284d49d6a028"},"vehicle_type_id":"4","last_reported":1701477266,"current_range_meters":23200,"station_id":"ce4bha92rcd13ifvqeg0","pricing_plan_id":"free"},{"bike_id":"c58b39fe-f050-44d5-bbe7-4abcb7249795","system_id":"levelo_inurba_marseille","lat":43.291541,"lon":5.380542,"is_reserved":false,"is_disabled":false,"rental_uris":{"android":"levelo://app?vid=c58b39fe-f050-44d5-bbe7-4abcb7249795","ios":"levelo://app?vid=c58b39fe-f050-44d5-bbe7-4abcb7249795"},"vehicle_type_id":"4","last_reported":1701477266,"current_range_meters":16800,"station_id":"ce4bhn92rcd13ifvqgrg","pricing_plan_id":"free"},{"bike_id":"5b2242d7-7281-4d52-b141-ad0b4eae943b","system_id":"levelo_inurba_marseille","lat":43.289184,"lon":5.366408,"is_reserved":false,"is_disabled":false,"rental_uris":{"android":"levelo://app?vid=5b2242d7-7281-4d52-b141-ad0b4eae943b","ios":"levelo://app?vid=5b2242d7-7281-4d52-b141-ad0b4eae943b"},"vehicle_type_id":"4","last_reported":1701477266,"current_range_meters":26400,"station_id":"ce4bhap2rcd13ifvqek0","pricing_plan_id":"free"},{"bike_id":"3b8459ab-660c-4cba-8ad0-d351d569abe8","system_id":"levelo_inurba_marseille","lat":43.304274,"lon":5.397513,"is_reserved":false,"is_disabled":false,"rental_uris":{"android":"levelo://app?vid=3b8459ab-660c-4cba-8ad0-d351d569abe8","ios":"levelo://app?vid=3b8459ab-660c-4cba-8ad0-d351d569abe8"},"vehicle_type_id":"4","last_reported":1701477266,"current_range_meters":6000,"station_id":"ce4bh092rcd13ifvqd20","pricing_plan_id":"free"},{"bike_id":"9465dd10-b10d-40c6-93db-89b51c107c0a","system_id":"levelo_inurba_marseille","lat":43.28999,"lon":5.35616,"is_reserved":false,"is_disabled":false,"rental_uris":{"android":"levelo://app?vid=9465dd10-b10d-40c6-93db-89b51c107c0a","ios":"levelo://app?vid=9465dd10-b10d-40c6-93db-89b51c107c0a"},"vehicle_type_id":"4","last_reported":1701477266,"current_range_meters":25600,"station_id":"ce4bhb92rcd13ifvqen0","pricing_plan_id":"free"},{"bike_id":"bb5ac502-0791-4778-9b7b-eeaffd8b807c","system_id":"levelo_inurba_marseille","lat":43.29786,"lon":5.39351,"is_reserved":false,"is_disabled":false,"rental_uris":{"android":"levelo://app?vid=bb5ac502-0791-4778-9b7b-eeaffd8b807c","ios":"levelo://app?vid=bb5ac502-0791-4778-9b7b-eeaffd8b807c"},"vehicle_type_id":"4","last_reported":1701477266,"current_range_meters":10400,"station_id":"chh1huq6cuj3fo74tm60","pricing_plan_id":"free"},{"bike_id":"65ac5f69-fce7-47ef-9056-4949b0e0591e","system_id":"levelo_inurba_marseille","lat":43.30925,"lon":5.40141,"is_reserved":false,"is_disabled":false,"rental_uris":{"android":"levelo://app?vid=65ac5f69-fce7-47ef-9056-4949b0e0591e","ios":"levelo://app?vid=65ac5f69-fce7-47ef-9056-4949b0e0591e"},"vehicle_type_id":"4","last_reported":1701477266,"current_range_meters":26400,"station_id":"ce4bgvp2rcd13ifvqct0","pricing_plan_id":"free"},{"bike_id":"920728c3-d140-4eb7-9410-cfa127aa414b","system_id":"levelo_inurba_marseille","lat":43.3375,"lon":5.3745,"is_reserved":false,"is_disabled":false,"rental_uris":{"android":"levelo://app?vid=920728c3-d140-4eb7-9410-cfa127aa414b","ios":"levelo://app?vid=920728c3-d140-4eb7-9410-cfa127aa414b"},"vehicle_type_id":"4","last_reported":1701477266,"current_range_meters":27600,"station_id":"","pricing_plan_id":"free"},{"bike_id":"3d556dae-7947-49fd-a8aa-d4cfa297cc42","system_id":"levelo_inurba_marseille","lat":43.306412,"lon":5.401035,"is_reserved":false,"is_disabled":false,"rental_uris":{"android":"levelo://app?vid=3d556dae-7947-49fd-a8aa-d4cfa297cc42","ios":"levelo://app?vid=3d556dae-7947-49fd-a8aa-d4cfa297cc42"},"vehicle_type_id":"4","last_reported":1701477266,"current_range_meters":31200,"station_id":"ce4bh112rcd13ifvqda0","pricing_plan_id":"free"},{"bike_id":"725ac4ba-a8f9-4203-a8b0-6a86ea5fed63","system_id":"levelo_inurba_marseille","lat":43.30642,"lon":5.401031,"is_reserved":false,"is_disabled":false,"rental_uris":{"android":"levelo://app?vid=725ac4ba-a8f9-4203-a8b0-6a86ea5fed63","ios":"levelo://app?vid=725ac4ba-a8f9-4203-a8b0-6a86ea5fed63"},"vehicle_type_id":"4","last_reported":1701477266,"current_range_meters":26800,"station_id":"ce4bh112rcd13ifvqda0","pricing_plan_id":"free"},{"bike_id":"1cb3288c-2360-4421-bee9-817939cff32b","system_id":"levelo_inurba_marseille","lat":43.33775,"lon":5.374435,"is_reserved":false,"is_disabled":false,"rental_uris":{"android":"levelo://app?vid=1cb3288c-2360-4421-bee9-817939cff32b","ios":"levelo://app?vid=1cb3288c-2360-4421-bee9-817939cff32b"},"vehicle_type_id":"4","last_reported":1701477266,"current_range_meters":30400,"station_id":"","pricing_plan_id":"free"},{"bike_id":"5d120708-8ed3-4df3-844f-33f8b16bc4f2","system_id":"levelo_inurba_marseille","lat":43.301117,"lon":5.398795,"is_reserved":false,"is_disabled":false,"rental_uris":{"android":"levelo://app?vid=5d120708-8ed3-4df3-844f-33f8b16bc4f2","ios":"levelo://app?vid=5d120708-8ed3-4df3-844f-33f8b16bc4f2"},"vehicle_type_id":"4","last_reported":1701477266,"current_range_meters":21200,"station_id":"ce4bh0h2rcd13ifvqd40","pricing_plan_id":"free"},{"bike_id":"e17c114d-ae2e-42d2-bd50-794f50d899eb","system_id":"levelo_inurba_marseille","lat":43.28727,"lon":5.36078,"is_reserved":false,"is_disabled":false,"rental_uris":{"android":"levelo://app?vid=e17c114d-ae2e-42d2-bd50-794f50d899eb","ios":"levelo://app?vid=e17c114d-ae2e-42d2-bd50-794f50d899eb"},"vehicle_type_id":"4","last_reported":1701477266,"current_range_meters":26000,"station_id":"cki0cbj6b192h4jlfktg","pricing_plan_id":"free"},{"bike_id":"d27a50e8-78f6-40af-ba67-5e866b035351","system_id":"levelo_inurba_marseille","lat":43.28704,"lon":5.37394,"is_reserved":false,"is_disabled":false,"rental_uris":{"android":"levelo://app?vid=d27a50e8-78f6-40af-ba67-5e866b035351","ios":"levelo://app?vid=d27a50e8-78f6-40af-ba67-5e866b035351"},"vehicle_type_id":"4","last_reported":1701477266,"current_range_meters":31200,"station_id":"ce4bh3p2rcd13ifvqdq0","pricing_plan_id":"free"},{"bike_id":"f424ac82-931a-46a4-9fe9-b5b9b8440d74","system_id":"levelo_inurba_marseille","lat":43.286961,"lon":5.373785,"is_reserved":false,"is_disabled":false,"rental_uris":{"android":"levelo://app?vid=f424ac82-931a-46a4-9fe9-b5b9b8440d74","ios":"levelo://app?vid=f424ac82-931a-46a4-9fe9-b5b9b8440d74"},"vehicle_type_id":"4","last_reported":1701477266,"current_range_meters":18000,"station_id":"ce4bh3p2rcd13ifvqdq0","pricing_plan_id":"free"},{"bike_id":"ca6a3ab0-e3a9-45af-b571-7ba4851030a8","system_id":"levelo_inurba_marseille","lat":43.28698,"lon":5.37393,"is_reserved":false,"is_disabled":false,"rental_uris":{"android":"levelo://app?vid=ca6a3ab0-e3a9-45af-b571-7ba4851030a8","ios":"levelo://app?vid=ca6a3ab0-e3a9-45af-b571-7ba4851030a8"},"vehicle_type_id":"4","last_reported":1701477266,"current_range_meters":20800,"station_id":"ce4bh3p2rcd13ifvqdq0","pricing_plan_id":"free"},{"bike_id":"392eb6ac-de23-46c7-9d9c-300d8c7a46a8","system_id":"levelo_inurba_marseille","lat":43.295194,"lon":5.39397,"is_reserved":false,"is_disabled":false,"rental_uris":{"android":"levelo://app?vid=392eb6ac-de23-46c7-9d9c-300d8c7a46a8","ios":"levelo://app?vid=392eb6ac-de23-46c7-9d9c-300d8c7a46a8"},"vehicle_type_id":"4","last_reported":1701477266,"current_range_meters":20400,"station_id":"ce4bh292rcd13ifvqdf0","pricing_plan_id":"free"},{"bike_id":"d361f5f1-cc69-4b51-9775-2bf934d0065a","system_id":"levelo_inurba_marseille","lat":43.290345,"lon":5.38646,"is_reserved":false,"is_disabled":false,"rental_uris":{"android":"levelo://app?vid=d361f5f1-cc69-4b51-9775-2bf934d0065a","ios":"levelo://app?vid=d361f5f1-cc69-4b51-9775-2bf934d0065a"},"vehicle_type_id":"4","last_reported":1701477266,"current_range_meters":0,"station_id":"ce4bh4p2rcd13ifvqe0g","pricing_plan_id":"free"},{"bike_id":"bddee9d1-56af-40bf-84c3-b098693e8bc2","system_id":"levelo_inurba_marseille","lat":43.302759,"lon":5.400793,"is_reserved":false,"is_disabled":false,"rental_uris":{"android":"levelo://app?vid=bddee9d1-56af-40bf-84c3-b098693e8bc2","ios":"levelo://app?vid=bddee9d1-56af-40bf-84c3-b098693e8bc2"},"vehicle_type_id":"4","last_reported":1701477266,"current_range_meters":9600,"station_id":"ce4bgvh2rcd13ifvqcs0","pricing_plan_id":"free"},{"bike_id":"63e20380-c229-438a-b270-2ae06fb16e3c","system_id":"levelo_inurba_marseille","lat":43.302759,"lon":5.400793,"is_reserved":false,"is_disabled":false,"rental_uris":{"android":"levelo://app?vid=63e20380-c229-438a-b270-2ae06fb16e3c","ios":"levelo://app?vid=63e20380-c229-438a-b270-2ae06fb16e3c"},"vehicle_type_id":"4","last_reported":1701477266,"current_range_meters":18000,"station_id":"ce4bgvh2rcd13ifvqcs0","pricing_plan_id":"free"},{"bike_id":"40b013a4-8905-48ea-afb9-3ba70bd67899","system_id":"levelo_inurba_marseille","lat":43.28606,"lon":5.37061,"is_reserved":false,"is_disabled":false,"rental_uris":{"android":"levelo://app?vid=40b013a4-8905-48ea-afb9-3ba70bd67899","ios":"levelo://app?vid=40b013a4-8905-48ea-afb9-3ba70bd67899"},"vehicle_type_id":"4","last_reported":1701477266,"current_range_meters":6000,"station_id":"ce4bht12rcd13ifvqi60","pricing_plan_id":"free"},{"bike_id":"11461886-3d74-4954-b8fd-698ee83f5db9","system_id":"levelo_inurba_marseille","lat":43.29208,"lon":5.39315,"is_reserved":false,"is_disabled":false,"rental_uris":{"android":"levelo://app?vid=11461886-3d74-4954-b8fd-698ee83f5db9","ios":"levelo://app?vid=11461886-3d74-4954-b8fd-698ee83f5db9"},"vehicle_type_id":"4","last_reported":1701477266,"current_range_meters":11200,"station_id":"ce4bh192rcd13ifvqdd0","pricing_plan_id":"free"},{"bike_id":"608f6612-5e0b-45ad-8fd2-70ee67284d11","system_id":"levelo_inurba_marseille","lat":43.291994,"lon":5.392907,"is_reserved":false,"is_disabled":false,"rental_uris":{"android":"levelo://app?vid=608f6612-5e0b-45ad-8fd2-70ee67284d11","ios":"levelo://app?vid=608f6612-5e0b-45ad-8fd2-70ee67284d11"},"vehicle_type_id":"4","last_reported":1701477266,"current_range_meters":27600,"station_id":"ce4bh192rcd13ifvqdd0","pricing_plan_id":"free"},{"bike_id":"0a49e11d-d8de-4489-83c9-bb1afc6bb1b6","system_id":"levelo_inurba_marseille","lat":43.291994,"lon":5.392907,"is_reserved":false,"is_disabled":false,"rental_uris":{"android":"levelo://app?vid=0a49e11d-d8de-4489-83c9-bb1afc6bb1b6","ios":"levelo://app?vid=0a49e11d-d8de-4489-83c9-bb1afc6bb1b6"},"vehicle_type_id":"4","last_reported":1701477266,"current_range_meters":26000,"station_id":"ce4bh192rcd13ifvqdd0","pricing_plan_id":"free"},{"bike_id":"d602a3d1-e3f7-4a70-9183-9c49798f1d01","system_id":"levelo_inurba_marseille","lat":43.284538,"lon":5.358657,"is_reserved":false,"is_disabled":false,"rental_uris":{"android":"levelo://app?vid=d602a3d1-e3f7-4a70-9183-9c49798f1d01","ios":"levelo://app?vid=d602a3d1-e3f7-4a70-9183-9c49798f1d01"},"vehicle_type_id":"4","last_reported":1701477266,"current_range_meters":30000,"station_id":"ce4bhah2rcd13ifvqei0","pricing_plan_id":"free"},{"bike_id":"6876ca3c-4536-4659-b150-3e9e6d87cd51","system_id":"levelo_inurba_marseille","lat":43.284534,"lon":5.358662,"is_reserved":false,"is_disabled":false,"rental_uris":{"android":"levelo://app?vid=6876ca3c-4536-4659-b150-3e9e6d87cd51","ios":"levelo://app?vid=6876ca3c-4536-4659-b150-3e9e6d87cd51"},"vehicle_type_id":"4","last_reported":1701477266,"current_range_meters":14000,"station_id":"ce4bhah2rcd13ifvqei0","pricing_plan_id":"free"},{"bike_id":"c8124233-8250-4dcc-97e2-8fce9e8a5b7f","system_id":"levelo_inurba_marseille","lat":43.284534,"lon":5.358662,"is_reserved":false,"is_disabled":false,"rental_uris":{"android":"levelo://app?vid=c8124233-8250-4dcc-97e2-8fce9e8a5b7f","ios":"levelo://app?vid=c8124233-8250-4dcc-97e2-8fce9e8a5b7f"},"vehicle_type_id":"4","last_reported":1701477266,"current_range_meters":22000,"station_id":"ce4bhah2rcd13ifvqei0","pricing_plan_id":"free"},{"bike_id":"83fff12d-75ac-488f-9fff-e6d245974c11","system_id":"levelo_inurba_marseille","lat":43.284534,"lon":5.358662,"is_reserved":false,"is_disabled":false,"rental_uris":{"android":"levelo://app?vid=83fff12d-75ac-488f-9fff-e6d245974c11","ios":"levelo://app?vid=83fff12d-75ac-488f-9fff-e6d245974c11"},"vehicle_type_id":"4","last_reported":1701477266,"current_range_meters":15200,"station_id":"ce4bhah2rcd13ifvqei0","pricing_plan_id":"free"},{"bike_id":"189622c6-31d0-4222-82db-9ef7fb206284","system_id":"levelo_inurba_marseille","lat":43.284534,"lon":5.358662,"is_reserved":false,"is_disabled":false,"rental_uris":{"android":"levelo://app?vid=189622c6-31d0-4222-82db-9ef7fb206284","ios":"levelo://app?vid=189622c6-31d0-4222-82db-9ef7fb206284"},"vehicle_type_id":"4","last_reported":1701477266,"current_range_meters":3600,"station_id":"ce4bhah2rcd13ifvqei0","pricing_plan_id":"free"},{"bike_id":"76e026e9-f498-405a-a861-33107ad8ad7a","system_id":"levelo_inurba_marseille","lat":43.284534,"lon":5.358662,"is_reserved":false,"is_disabled":false,"rental_uris":{"android":"levelo://app?vid=76e026e9-f498-405a-a861-33107ad8ad7a","ios":"levelo://app?vid=76e026e9-f498-405a-a861-33107ad8ad7a"},"vehicle_type_id":"4","last_reported":1701477266,"current_range_meters":11200,"station_id":"ce4bhah2rcd13ifvqei0","pricing_plan_id":"free"},{"bike_id":"a18ecf0e-fc7b-48d9-97d6-5da25d796a5e","system_id":"levelo_inurba_marseille","lat":43.284534,"lon":5.358662,"is_reserved":false,"is_disabled":false,"rental_uris":{"android":"levelo://app?vid=a18ecf0e-fc7b-48d9-97d6-5da25d796a5e","ios":"levelo://app?vid=a18ecf0e-fc7b-48d9-97d6-5da25d796a5e"},"vehicle_type_id":"4","last_reported":1701477266,"current_range_meters":10800,"station_id":"ce4bhah2rcd13ifvqei0","pricing_plan_id":"free"},{"bike_id":"62720c14-5e46-4d7a-8274-80646bf8be6b","system_id":"levelo_inurba_marseille","lat":43.284534,"lon":5.358662,"is_reserved":false,"is_disabled":false,"rental_uris":{"android":"levelo://app?vid=62720c14-5e46-4d7a-8274-80646bf8be6b","ios":"levelo://app?vid=62720c14-5e46-4d7a-8274-80646bf8be6b"},"vehicle_type_id":"4","last_reported":1701477266,"current_range_meters":7200,"station_id":"ce4bhah2rcd13ifvqei0","pricing_plan_id":"free"},{"bike_id":"86eb75fe-1c5f-4652-8465-4a3c2168372f","system_id":"levelo_inurba_marseille","lat":43.284534,"lon":5.358662,"is_reserved":false,"is_disabled":false,"rental_uris":{"android":"levelo://app?vid=86eb75fe-1c5f-4652-8465-4a3c2168372f","ios":"levelo://app?vid=86eb75fe-1c5f-4652-8465-4a3c2168372f"},"vehicle_type_id":"4","last_reported":1701477266,"current_range_meters":20000,"station_id":"ce4bhah2rcd13ifvqei0","pricing_plan_id":"free"},{"bike_id":"4fec3294-b0d6-4602-8752-e8e7c54698e3","system_id":"levelo_inurba_marseille","lat":43.294314,"lon":5.397498,"is_reserved":false,"is_disabled":false,"rental_uris":{"android":"levelo://app?vid=4fec3294-b0d6-4602-8752-e8e7c54698e3","ios":"levelo://app?vid=4fec3294-b0d6-4602-8752-e8e7c54698e3"},"vehicle_type_id":"4","last_reported":1701477266,"current_range_meters":27600,"station_id":"ce4bh3h2rcd13ifvqdo0","pricing_plan_id":"free"},{"bike_id":"2efc55de-0ea8-4453-aedf-038d566b9294","system_id":"levelo_inurba_marseille","lat":43.285848,"lon":5.350787,"is_reserved":false,"is_disabled":false,"rental_uris":{"android":"levelo://app?vid=2efc55de-0ea8-4453-aedf-038d566b9294","ios":"levelo://app?vid=2efc55de-0ea8-4453-aedf-038d566b9294"},"vehicle_type_id":"4","last_reported":1701477266,"current_range_meters":12800,"station_id":"ce4bhch2rcd13ifvqeug","pricing_plan_id":"free"},{"bike_id":"10206c3b-db3b-404f-8bd8-adf24e9318e3","system_id":"levelo_inurba_marseille","lat":43.285856,"lon":5.350771,"is_reserved":false,"is_disabled":false,"rental_uris":{"android":"levelo://app?vid=10206c3b-db3b-404f-8bd8-adf24e9318e3","ios":"levelo://app?vid=10206c3b-db3b-404f-8bd8-adf24e9318e3"},"vehicle_type_id":"4","last_reported":1701477266,"current_range_meters":19200,"station_id":"ce4bhch2rcd13ifvqeug","pricing_plan_id":"free"},{"bike_id":"e1438d15-0f5a-4498-ac86-9638958660be","system_id":"levelo_inurba_marseille","lat":43.285856,"lon":5.350771,"is_reserved":false,"is_disabled":false,"rental_uris":{"android":"levelo://app?vid=e1438d15-0f5a-4498-ac86-9638958660be","ios":"levelo://app?vid=e1438d15-0f5a-4498-ac86-9638958660be"},"vehicle_type_id":"4","last_reported":1701477266,"current_range_meters":23200,"station_id":"ce4bhch2rcd13ifvqeug","pricing_plan_id":"free"},{"bike_id":"6442bcfe-6f3e-4e0f-946d-202ad91fc65f","system_id":"levelo_inurba_marseille","lat":43.283998,"lon":5.375062,"is_reserved":false,"is_disabled":false,"rental_uris":{"android":"levelo://app?vid=6442bcfe-6f3e-4e0f-946d-202ad91fc65f","ios":"levelo://app?vid=6442bcfe-6f3e-4e0f-946d-202ad91fc65f"},"vehicle_type_id":"4","last_reported":1701477266,"current_range_meters":9600,"station_id":"ce4bh412rcd13ifvqds0","pricing_plan_id":"free"},{"bike_id":"c47d8a34-64a5-4a7d-bad1-8de458a790af","system_id":"levelo_inurba_marseille","lat":43.29572,"lon":5.39981,"is_reserved":false,"is_disabled":false,"rental_uris":{"android":"levelo://app?vid=c47d8a34-64a5-4a7d-bad1-8de458a790af","ios":"levelo://app?vid=c47d8a34-64a5-4a7d-bad1-8de458a790af"},"vehicle_type_id":"4","last_reported":1701477266,"current_range_meters":24400,"station_id":"ce4bh312rcd13ifvqdj0","pricing_plan_id":"free"},{"bike_id":"22d3fdec-9025-487e-aa9c-f81d22267200","system_id":"levelo_inurba_marseille","lat":43.286595,"lon":5.386795,"is_reserved":false,"is_disabled":false,"rental_uris":{"android":"levelo://app?vid=22d3fdec-9025-487e-aa9c-f81d22267200","ios":"levelo://app?vid=22d3fdec-9025-487e-aa9c-f81d22267200"},"vehicle_type_id":"4","last_reported":1701477266,"current_range_meters":28000,"station_id":"ce4bh492rcd13ifvqdug","pricing_plan_id":"free"},{"bike_id":"4aa97cd1-6a39-4439-81f1-99ae1420ed06","system_id":"levelo_inurba_marseille","lat":43.310785,"lon":5.424305,"is_reserved":false,"is_disabled":false,"rental_uris":{"android":"levelo://app?vid=4aa97cd1-6a39-4439-81f1-99ae1420ed06","ios":"levelo://app?vid=4aa97cd1-6a39-4439-81f1-99ae1420ed06"},"vehicle_type_id":"4","last_reported":1701477266,"current_range_meters":18000,"station_id":"ce4bhp92rcd13ifvqhag","pricing_plan_id":"free"},{"bike_id":"7f458fab-3a0c-4609-8310-733ff5bbba57","system_id":"levelo_inurba_marseille","lat":43.33717,"lon":5.391857,"is_reserved":false,"is_disabled":false,"rental_uris":{"android":"levelo://app?vid=7f458fab-3a0c-4609-8310-733ff5bbba57","ios":"levelo://app?vid=7f458fab-3a0c-4609-8310-733ff5bbba57"},"vehicle_type_id":"4","last_reported":1701477266,"current_range_meters":30000,"station_id":"ce4bhr92rcd13ifvqhsg","pricing_plan_id":"free"},{"bike_id":"f99fc4d8-709b-4cee-a32c-2cdd6f1e8b1e","system_id":"levelo_inurba_marseille","lat":43.337168,"lon":5.391825,"is_reserved":false,"is_disabled":false,"rental_uris":{"android":"levelo://app?vid=f99fc4d8-709b-4cee-a32c-2cdd6f1e8b1e","ios":"levelo://app?vid=f99fc4d8-709b-4cee-a32c-2cdd6f1e8b1e"},"vehicle_type_id":"4","last_reported":1701477266,"current_range_meters":26400,"station_id":"ce4bhr92rcd13ifvqhsg","pricing_plan_id":"free"},{"bike_id":"4092b413-a8f0-49fd-8cc3-69bf3f509a40","system_id":"levelo_inurba_marseille","lat":43.323362,"lon":5.406267,"is_reserved":false,"is_disabled":false,"rental_uris":{"android":"levelo://app?vid=4092b413-a8f0-49fd-8cc3-69bf3f509a40","ios":"levelo://app?vid=4092b413-a8f0-49fd-8cc3-69bf3f509a40"},"vehicle_type_id":"4","last_reported":1701477266,"current_range_meters":12400,"station_id":"ce4bhq92rcd13ifvqhjg","pricing_plan_id":"free"},{"bike_id":"4714f7cd-5ff4-41d0-870b-3e9261538b58","system_id":"levelo_inurba_marseille","lat":43.323464,"lon":5.406297,"is_reserved":false,"is_disabled":false,"rental_uris":{"android":"levelo://app?vid=4714f7cd-5ff4-41d0-870b-3e9261538b58","ios":"levelo://app?vid=4714f7cd-5ff4-41d0-870b-3e9261538b58"},"vehicle_type_id":"4","last_reported":1701477266,"current_range_meters":29600,"station_id":"ce4bhq92rcd13ifvqhjg","pricing_plan_id":"free"},{"bike_id":"38d8b76a-df3d-4280-afd7-e16bd99c25ba","system_id":"levelo_inurba_marseille","lat":43.283498,"lon":5.380948,"is_reserved":false,"is_disabled":false,"rental_uris":{"android":"levelo://app?vid=38d8b76a-df3d-4280-afd7-e16bd99c25ba","ios":"levelo://app?vid=38d8b76a-df3d-4280-afd7-e16bd99c25ba"},"vehicle_type_id":"4","last_reported":1701477266,"current_range_meters":10400,"station_id":"ce4bh412rcd13ifvqdr0","pricing_plan_id":"free"},{"bike_id":"47afa503-275c-4f70-bb54-ec9e9fe2d3cc","system_id":"levelo_inurba_marseille","lat":43.289437,"lon":5.396337,"is_reserved":false,"is_disabled":false,"rental_uris":{"android":"levelo://app?vid=47afa503-275c-4f70-bb54-ec9e9fe2d3cc","ios":"levelo://app?vid=47afa503-275c-4f70-bb54-ec9e9fe2d3cc"},"vehicle_type_id":"4","last_reported":1701477266,"current_range_meters":18800,"station_id":"ce4bh3h2rcd13ifvqdn0","pricing_plan_id":"free"},{"bike_id":"36ba1fe1-aabe-4f5c-ad38-099c40bab020","system_id":"levelo_inurba_marseille","lat":43.292724,"lon":5.401131,"is_reserved":false,"is_disabled":false,"rental_uris":{"android":"levelo://app?vid=36ba1fe1-aabe-4f5c-ad38-099c40bab020","ios":"levelo://app?vid=36ba1fe1-aabe-4f5c-ad38-099c40bab020"},"vehicle_type_id":"4","last_reported":1701477266,"current_range_meters":20800,"station_id":"ce4bh312rcd13ifvqdk0","pricing_plan_id":"free"},{"bike_id":"647772e7-d9f9-4bae-9035-ec29fdb1c14e","system_id":"levelo_inurba_marseille","lat":43.283502,"lon":5.386471,"is_reserved":false,"is_disabled":false,"rental_uris":{"android":"levelo://app?vid=647772e7-d9f9-4bae-9035-ec29fdb1c14e","ios":"levelo://app?vid=647772e7-d9f9-4bae-9035-ec29fdb1c14e"},"vehicle_type_id":"4","last_reported":1701477266,"current_range_meters":12400,"station_id":"ce4bh492rcd13ifvqdvg","pricing_plan_id":"free"},{"bike_id":"9228b679-a081-4c22-835c-fa72278ded5d","system_id":"levelo_inurba_marseille","lat":43.282744,"lon":5.350533,"is_reserved":false,"is_disabled":false,"rental_uris":{"android":"levelo://app?vid=9228b679-a081-4c22-835c-fa72278ded5d","ios":"levelo://app?vid=9228b679-a081-4c22-835c-fa72278ded5d"},"vehicle_type_id":"4","last_reported":1701477266,"current_range_meters":31200,"station_id":"ce4bhbp2rcd13ifvqerg","pricing_plan_id":"free"},{"bike_id":"1243777c-b77e-47a9-b250-2f7163566a8e","system_id":"levelo_inurba_marseille","lat":43.280382,"lon":5.369291,"is_reserved":false,"is_disabled":false,"rental_uris":{"android":"levelo://app?vid=1243777c-b77e-47a9-b250-2f7163566a8e","ios":"levelo://app?vid=1243777c-b77e-47a9-b250-2f7163566a8e"},"vehicle_type_id":"4","last_reported":1701477266,"current_range_meters":19600,"station_id":"ce4bha12rcd13ifvqef0","pricing_plan_id":"free"},{"bike_id":"da9c69a8-f034-4bc4-bd6f-19169039de2b","system_id":"levelo_inurba_marseille","lat":43.280382,"lon":5.369291,"is_reserved":false,"is_disabled":false,"rental_uris":{"android":"levelo://app?vid=da9c69a8-f034-4bc4-bd6f-19169039de2b","ios":"levelo://app?vid=da9c69a8-f034-4bc4-bd6f-19169039de2b"},"vehicle_type_id":"4","last_reported":1701477266,"current_range_meters":27600,"station_id":"ce4bha12rcd13ifvqef0","pricing_plan_id":"free"},{"bike_id":"384e313f-492c-4d83-a1a6-c31122558ed0","system_id":"levelo_inurba_marseille","lat":43.280382,"lon":5.369291,"is_reserved":false,"is_disabled":false,"rental_uris":{"android":"levelo://app?vid=384e313f-492c-4d83-a1a6-c31122558ed0","ios":"levelo://app?vid=384e313f-492c-4d83-a1a6-c31122558ed0"},"vehicle_type_id":"4","last_reported":1701477266,"current_range_meters":29200,"station_id":"ce4bha12rcd13ifvqef0","pricing_plan_id":"free"},{"bike_id":"129fccf5-4d46-4870-97dd-a8de44b13594","system_id":"levelo_inurba_marseille","lat":43.2904,"lon":5.399383,"is_reserved":false,"is_disabled":false,"rental_uris":{"android":"levelo://app?vid=129fccf5-4d46-4870-97dd-a8de44b13594","ios":"levelo://app?vid=129fccf5-4d46-4870-97dd-a8de44b13594"},"vehicle_type_id":"4","last_reported":1701477266,"current_range_meters":30000,"station_id":"ce4bh392rcd13ifvqdm0","pricing_plan_id":"free"},{"bike_id":"4d537adc-f0ff-4dae-8548-3af217d690f0","system_id":"levelo_inurba_marseille","lat":43.29052,"lon":5.39959,"is_reserved":false,"is_disabled":false,"rental_uris":{"android":"levelo://app?vid=4d537adc-f0ff-4dae-8548-3af217d690f0","ios":"levelo://app?vid=4d537adc-f0ff-4dae-8548-3af217d690f0"},"vehicle_type_id":"4","last_reported":1701477266,"current_range_meters":24400,"station_id":"ce4bh392rcd13ifvqdm0","pricing_plan_id":"free"},{"bike_id":"c9a457a2-57cc-41e1-b00f-64b88204b9c5","system_id":"levelo_inurba_marseille","lat":43.290385,"lon":5.399445,"is_reserved":false,"is_disabled":false,"rental_uris":{"android":"levelo://app?vid=c9a457a2-57cc-41e1-b00f-64b88204b9c5","ios":"levelo://app?vid=c9a457a2-57cc-41e1-b00f-64b88204b9c5"},"vehicle_type_id":"4","last_reported":1701477266,"current_range_meters":22000,"station_id":"ce4bh392rcd13ifvqdm0","pricing_plan_id":"free"},{"bike_id":"4efbe882-a394-444b-b940-c98897ea4e8b","system_id":"levelo_inurba_marseille","lat":43.290457,"lon":5.39965,"is_reserved":false,"is_disabled":false,"rental_uris":{"android":"levelo://app?vid=4efbe882-a394-444b-b940-c98897ea4e8b","ios":"levelo://app?vid=4efbe882-a394-444b-b940-c98897ea4e8b"},"vehicle_type_id":"4","last_reported":1701477266,"current_range_meters":27600,"station_id":"ce4bh392rcd13ifvqdm0","pricing_plan_id":"free"},{"bike_id":"20d6d6ec-905a-4d49-9fb9-0a23edeb10a7","system_id":"levelo_inurba_marseille","lat":43.290369,"lon":5.399576,"is_reserved":false,"is_disabled":false,"rental_uris":{"android":"levelo://app?vid=20d6d6ec-905a-4d49-9fb9-0a23edeb10a7","ios":"levelo://app?vid=20d6d6ec-905a-4d49-9fb9-0a23edeb10a7"},"vehicle_type_id":"4","last_reported":1701477266,"current_range_meters":30400,"station_id":"ce4bh392rcd13ifvqdm0","pricing_plan_id":"free"},{"bike_id":"e2e3ba20-3c82-4d04-8ba8-c1852807a4b8","system_id":"levelo_inurba_marseille","lat":43.290386,"lon":5.399636,"is_reserved":false,"is_disabled":false,"rental_uris":{"android":"levelo://app?vid=e2e3ba20-3c82-4d04-8ba8-c1852807a4b8","ios":"levelo://app?vid=e2e3ba20-3c82-4d04-8ba8-c1852807a4b8"},"vehicle_type_id":"4","last_reported":1701477266,"current_range_meters":26800,"station_id":"ce4bh392rcd13ifvqdm0","pricing_plan_id":"free"},{"bike_id":"3f9f2f00-3946-4ae9-a354-b81465dc8e7a","system_id":"levelo_inurba_marseille","lat":43.29038,"lon":5.39964,"is_reserved":false,"is_disabled":false,"rental_uris":{"android":"levelo://app?vid=3f9f2f00-3946-4ae9-a354-b81465dc8e7a","ios":"levelo://app?vid=3f9f2f00-3946-4ae9-a354-b81465dc8e7a"},"vehicle_type_id":"4","last_reported":1701477266,"current_range_meters":3200,"station_id":"ce4bh392rcd13ifvqdm0","pricing_plan_id":"free"},{"bike_id":"5e9cb994-11b1-4ffd-a0ac-b2cf63026ef2","system_id":"levelo_inurba_marseille","lat":43.29034,"lon":5.39963,"is_reserved":false,"is_disabled":false,"rental_uris":{"android":"levelo://app?vid=5e9cb994-11b1-4ffd-a0ac-b2cf63026ef2","ios":"levelo://app?vid=5e9cb994-11b1-4ffd-a0ac-b2cf63026ef2"},"vehicle_type_id":"4","last_reported":1701477266,"current_range_meters":29600,"station_id":"ce4bh392rcd13ifvqdm0","pricing_plan_id":"free"},{"bike_id":"7b627c65-1d10-46e0-bfe6-5e3d770571a1","system_id":"levelo_inurba_marseille","lat":43.29033,"lon":5.39965,"is_reserved":false,"is_disabled":false,"rental_uris":{"android":"levelo://app?vid=7b627c65-1d10-46e0-bfe6-5e3d770571a1","ios":"levelo://app?vid=7b627c65-1d10-46e0-bfe6-5e3d770571a1"},"vehicle_type_id":"4","last_reported":1701477266,"current_range_meters":29200,"station_id":"ce4bh392rcd13ifvqdm0","pricing_plan_id":"free"},{"bike_id":"b05ed7fd-bfe1-4a56-bda0-a4f185a5b466","system_id":"levelo_inurba_marseille","lat":43.29041,"lon":5.39977,"is_reserved":false,"is_disabled":false,"rental_uris":{"android":"levelo://app?vid=b05ed7fd-bfe1-4a56-bda0-a4f185a5b466","ios":"levelo://app?vid=b05ed7fd-bfe1-4a56-bda0-a4f185a5b466"},"vehicle_type_id":"4","last_reported":1701477266,"current_range_meters":28000,"station_id":"ce4bh392rcd13ifvqdm0","pricing_plan_id":"free"},{"bike_id":"d35e8eed-ff9a-4139-8a0e-ce367bedb3db","system_id":"levelo_inurba_marseille","lat":43.281044,"lon":5.378308,"is_reserved":false,"is_disabled":false,"rental_uris":{"android":"levelo://app?vid=d35e8eed-ff9a-4139-8a0e-ce367bedb3db","ios":"levelo://app?vid=d35e8eed-ff9a-4139-8a0e-ce367bedb3db"},"vehicle_type_id":"4","last_reported":1701477266,"current_range_meters":8000,"station_id":"ce4bha12rcd13ifvqee0","pricing_plan_id":"free"},{"bike_id":"0a35d642-f071-4392-8646-da8c032536ab","system_id":"levelo_inurba_marseille","lat":43.2903,"lon":5.39966,"is_reserved":false,"is_disabled":false,"rental_uris":{"android":"levelo://app?vid=0a35d642-f071-4392-8646-da8c032536ab","ios":"levelo://app?vid=0a35d642-f071-4392-8646-da8c032536ab"},"vehicle_type_id":"4","last_reported":1701477266,"current_range_meters":29200,"station_id":"ce4bh392rcd13ifvqdm0","pricing_plan_id":"free"},{"bike_id":"9c8180fb-1d24-4c58-b0fd-d40c70d6af41","system_id":"levelo_inurba_marseille","lat":43.29036,"lon":5.39974,"is_reserved":false,"is_disabled":false,"rental_uris":{"android":"levelo://app?vid=9c8180fb-1d24-4c58-b0fd-d40c70d6af41","ios":"levelo://app?vid=9c8180fb-1d24-4c58-b0fd-d40c70d6af41"},"vehicle_type_id":"4","last_reported":1701477266,"current_range_meters":11600,"station_id":"ce4bh392rcd13ifvqdm0","pricing_plan_id":"free"},{"bike_id":"c81d63d5-2efd-4b1d-9e0e-316ba3180473","system_id":"levelo_inurba_marseille","lat":43.296263,"lon":5.40601,"is_reserved":false,"is_disabled":false,"rental_uris":{"android":"levelo://app?vid=c81d63d5-2efd-4b1d-9e0e-316ba3180473","ios":"levelo://app?vid=c81d63d5-2efd-4b1d-9e0e-316ba3180473"},"vehicle_type_id":"4","last_reported":1701477266,"current_range_meters":3200,"station_id":"ce4bh0h2rcd13ifvqd60","pricing_plan_id":"free"},{"bike_id":"f30910b0-d3ff-46ab-a5df-96e52d9d6f51","system_id":"levelo_inurba_marseille","lat":43.290315,"lon":5.399775,"is_reserved":false,"is_disabled":false,"rental_uris":{"android":"levelo://app?vid=f30910b0-d3ff-46ab-a5df-96e52d9d6f51","ios":"levelo://app?vid=f30910b0-d3ff-46ab-a5df-96e52d9d6f51"},"vehicle_type_id":"4","last_reported":1701477266,"current_range_meters":28000,"station_id":"ce4bh392rcd13ifvqdm0","pricing_plan_id":"free"},{"bike_id":"b5e5815a-d0aa-4ab1-9c7c-6e03f1af9505","system_id":"levelo_inurba_marseille","lat":43.281044,"lon":5.378308,"is_reserved":false,"is_disabled":false,"rental_uris":{"android":"levelo://app?vid=b5e5815a-d0aa-4ab1-9c7c-6e03f1af9505","ios":"levelo://app?vid=b5e5815a-d0aa-4ab1-9c7c-6e03f1af9505"},"vehicle_type_id":"4","last_reported":1701477266,"current_range_meters":31200,"station_id":"ce4bha12rcd13ifvqee0","pricing_plan_id":"free"},{"bike_id":"2e7b3b68-060b-4e2c-83f1-eab7083b263d","system_id":"levelo_inurba_marseille","lat":43.285742,"lon":5.395004,"is_reserved":false,"is_disabled":false,"rental_uris":{"android":"levelo://app?vid=2e7b3b68-060b-4e2c-83f1-eab7083b263d","ios":"levelo://app?vid=2e7b3b68-060b-4e2c-83f1-eab7083b263d"},"vehicle_type_id":"4","last_reported":1701477266,"current_range_meters":0,"station_id":"ce4bh292rcd13ifvqdg0","pricing_plan_id":"free"},{"bike_id":"1cdf403b-a1de-493b-8322-39f550f5969d","system_id":"levelo_inurba_marseille","lat":43.28573,"lon":5.394992,"is_reserved":false,"is_disabled":false,"rental_uris":{"android":"levelo://app?vid=1cdf403b-a1de-493b-8322-39f550f5969d","ios":"levelo://app?vid=1cdf403b-a1de-493b-8322-39f550f5969d"},"vehicle_type_id":"4","last_reported":1701477266,"current_range_meters":7600,"station_id":"ce4bh292rcd13ifvqdg0","pricing_plan_id":"free"},{"bike_id":"c57c917a-e675-4cd3-bc55-1a4b865cab21","system_id":"levelo_inurba_marseille","lat":43.285742,"lon":5.395004,"is_reserved":false,"is_disabled":false,"rental_uris":{"android":"levelo://app?vid=c57c917a-e675-4cd3-bc55-1a4b865cab21","ios":"levelo://app?vid=c57c917a-e675-4cd3-bc55-1a4b865cab21"},"vehicle_type_id":"4","last_reported":1701477266,"current_range_meters":31200,"station_id":"ce4bh292rcd13ifvqdg0","pricing_plan_id":"free"},{"bike_id":"b3a83936-9830-4527-be31-08fc31f37344","system_id":"levelo_inurba_marseille","lat":43.28566,"lon":5.39509,"is_reserved":false,"is_disabled":false,"rental_uris":{"android":"levelo://app?vid=b3a83936-9830-4527-be31-08fc31f37344","ios":"levelo://app?vid=b3a83936-9830-4527-be31-08fc31f37344"},"vehicle_type_id":"4","last_reported":1701477266,"current_range_meters":17200,"station_id":"ce4bh292rcd13ifvqdg0","pricing_plan_id":"free"},{"bike_id":"a21486e2-11a6-4d34-816a-2c39176116b2","system_id":"levelo_inurba_marseille","lat":43.326605,"lon":5.409903,"is_reserved":false,"is_disabled":false,"rental_uris":{"android":"levelo://app?vid=a21486e2-11a6-4d34-816a-2c39176116b2","ios":"levelo://app?vid=a21486e2-11a6-4d34-816a-2c39176116b2"},"vehicle_type_id":"4","last_reported":1701477266,"current_range_meters":27200,"station_id":"ce4bhpp2rcd13ifvqhgg","pricing_plan_id":"free"},{"bike_id":"2c7b4f8a-24ea-48ac-a7da-1875d5ba77d0","system_id":"levelo_inurba_marseille","lat":43.304188,"lon":5.412904,"is_reserved":false,"is_disabled":false,"rental_uris":{"android":"levelo://app?vid=2c7b4f8a-24ea-48ac-a7da-1875d5ba77d0","ios":"levelo://app?vid=2c7b4f8a-24ea-48ac-a7da-1875d5ba77d0"},"vehicle_type_id":"4","last_reported":1701477266,"current_range_meters":30000,"station_id":"ce4bhop2rcd13ifvqh8g","pricing_plan_id":"free"},{"bike_id":"44b01b27-bfd5-491f-9e75-6434d7fa44f1","system_id":"levelo_inurba_marseille","lat":43.28718,"lon":5.399948,"is_reserved":false,"is_disabled":false,"rental_uris":{"android":"levelo://app?vid=44b01b27-bfd5-491f-9e75-6434d7fa44f1","ios":"levelo://app?vid=44b01b27-bfd5-491f-9e75-6434d7fa44f1"},"vehicle_type_id":"4","last_reported":1701477266,"current_range_meters":26000,"station_id":"ce4bho92rcd13ifvqh3g","pricing_plan_id":"free"},{"bike_id":"e5f72871-4ed6-49a7-8d1d-39d5c2fa2aaf","system_id":"levelo_inurba_marseille","lat":43.28698,"lon":5.3998,"is_reserved":false,"is_disabled":false,"rental_uris":{"android":"levelo://app?vid=e5f72871-4ed6-49a7-8d1d-39d5c2fa2aaf","ios":"levelo://app?vid=e5f72871-4ed6-49a7-8d1d-39d5c2fa2aaf"},"vehicle_type_id":"4","last_reported":1701477266,"current_range_meters":0,"station_id":"ce4bho92rcd13ifvqh3g","pricing_plan_id":"free"},{"bike_id":"8a52f236-9281-480c-9979-7539854aa237","system_id":"levelo_inurba_marseille","lat":43.287154,"lon":5.399979,"is_reserved":false,"is_disabled":false,"rental_uris":{"android":"levelo://app?vid=8a52f236-9281-480c-9979-7539854aa237","ios":"levelo://app?vid=8a52f236-9281-480c-9979-7539854aa237"},"vehicle_type_id":"4","last_reported":1701477266,"current_range_meters":22400,"station_id":"ce4bho92rcd13ifvqh3g","pricing_plan_id":"free"},{"bike_id":"c4cd0b9d-0c41-4d84-aa06-fab71e60a157","system_id":"levelo_inurba_marseille","lat":43.287154,"lon":5.399979,"is_reserved":false,"is_disabled":false,"rental_uris":{"android":"levelo://app?vid=c4cd0b9d-0c41-4d84-aa06-fab71e60a157","ios":"levelo://app?vid=c4cd0b9d-0c41-4d84-aa06-fab71e60a157"},"vehicle_type_id":"4","last_reported":1701477266,"current_range_meters":31200,"station_id":"ce4bho92rcd13ifvqh3g","pricing_plan_id":"free"},{"bike_id":"1c6c8a78-3bfe-4c87-a7c4-ff82bdccea9a","system_id":"levelo_inurba_marseille","lat":43.287154,"lon":5.399979,"is_reserved":false,"is_disabled":false,"rental_uris":{"android":"levelo://app?vid=1c6c8a78-3bfe-4c87-a7c4-ff82bdccea9a","ios":"levelo://app?vid=1c6c8a78-3bfe-4c87-a7c4-ff82bdccea9a"},"vehicle_type_id":"4","last_reported":1701477266,"current_range_meters":22400,"station_id":"ce4bho92rcd13ifvqh3g","pricing_plan_id":"free"},{"bike_id":"84670559-fe6e-4f57-871f-b282b2f07ee5","system_id":"levelo_inurba_marseille","lat":43.28657,"lon":5.400395,"is_reserved":false,"is_disabled":false,"rental_uris":{"android":"levelo://app?vid=84670559-fe6e-4f57-871f-b282b2f07ee5","ios":"levelo://app?vid=84670559-fe6e-4f57-871f-b282b2f07ee5"},"vehicle_type_id":"4","last_reported":1701477266,"current_range_meters":8400,"station_id":"","pricing_plan_id":"free"},{"bike_id":"98bbb64e-656e-4153-907a-e0dee92894ad","system_id":"levelo_inurba_marseille","lat":43.279742,"lon":5.38744,"is_reserved":false,"is_disabled":false,"rental_uris":{"android":"levelo://app?vid=98bbb64e-656e-4153-907a-e0dee92894ad","ios":"levelo://app?vid=98bbb64e-656e-4153-907a-e0dee92894ad"},"vehicle_type_id":"4","last_reported":1701477266,"current_range_meters":30400,"station_id":"ce4bhg12rcd13ifvqf80","pricing_plan_id":"free"},{"bike_id":"c774bb5b-536b-4996-9d71-188db7556f37","system_id":"levelo_inurba_marseille","lat":43.292571,"lon":5.409107,"is_reserved":false,"is_disabled":false,"rental_uris":{"android":"levelo://app?vid=c774bb5b-536b-4996-9d71-188db7556f37","ios":"levelo://app?vid=c774bb5b-536b-4996-9d71-188db7556f37"},"vehicle_type_id":"4","last_reported":1701477266,"current_range_meters":8800,"station_id":"ce4bh192rcd13ifvqdc0","pricing_plan_id":"free"},{"bike_id":"81c3d2e1-d711-4403-8a56-f859e0dd931b","system_id":"levelo_inurba_marseille","lat":43.292647,"lon":5.409162,"is_reserved":false,"is_disabled":false,"rental_uris":{"android":"levelo://app?vid=81c3d2e1-d711-4403-8a56-f859e0dd931b","ios":"levelo://app?vid=81c3d2e1-d711-4403-8a56-f859e0dd931b"},"vehicle_type_id":"4","last_reported":1701477266,"current_range_meters":22000,"station_id":"","pricing_plan_id":"free"},{"bike_id":"662d7ac0-b60c-4589-b775-59c466096683","system_id":"levelo_inurba_marseille","lat":43.325233,"lon":5.414318,"is_reserved":false,"is_disabled":false,"rental_uris":{"android":"levelo://app?vid=662d7ac0-b60c-4589-b775-59c466096683","ios":"levelo://app?vid=662d7ac0-b60c-4589-b775-59c466096683"},"vehicle_type_id":"4","last_reported":1701477266,"current_range_meters":29600,"station_id":"ce4bhq12rcd13ifvqhhg","pricing_plan_id":"free"},{"bike_id":"15637217-7bdf-4ace-8879-cdacb68e785b","system_id":"levelo_inurba_marseille","lat":43.276121,"lon":5.361118,"is_reserved":false,"is_disabled":false,"rental_uris":{"android":"levelo://app?vid=15637217-7bdf-4ace-8879-cdacb68e785b","ios":"levelo://app?vid=15637217-7bdf-4ace-8879-cdacb68e785b"},"vehicle_type_id":"4","last_reported":1701477266,"current_range_meters":20000,"station_id":"ce4bgj92rcd13ifvqbe0","pricing_plan_id":"free"},{"bike_id":"50f7840e-a9cf-4f40-b946-216ee75649a2","system_id":"levelo_inurba_marseille","lat":43.27611,"lon":5.36108,"is_reserved":false,"is_disabled":false,"rental_uris":{"android":"levelo://app?vid=50f7840e-a9cf-4f40-b946-216ee75649a2","ios":"levelo://app?vid=50f7840e-a9cf-4f40-b946-216ee75649a2"},"vehicle_type_id":"4","last_reported":1701477266,"current_range_meters":4400,"station_id":"ce4bgj92rcd13ifvqbe0","pricing_plan_id":"free"},{"bike_id":"bcdb50df-13be-4393-adc8-1a79a4e56c43","system_id":"levelo_inurba_marseille","lat":43.286122,"lon":5.404182,"is_reserved":false,"is_disabled":false,"rental_uris":{"android":"levelo://app?vid=bcdb50df-13be-4393-adc8-1a79a4e56c43","ios":"levelo://app?vid=bcdb50df-13be-4393-adc8-1a79a4e56c43"},"vehicle_type_id":"4","last_reported":1701477266,"current_range_meters":1600,"station_id":"","pricing_plan_id":"free"},{"bike_id":"86e7d7d4-9cc6-4c07-8b8c-a501053e5584","system_id":"levelo_inurba_marseille","lat":43.303837,"lon":5.418724,"is_reserved":false,"is_disabled":false,"rental_uris":{"android":"levelo://app?vid=86e7d7d4-9cc6-4c07-8b8c-a501053e5584","ios":"levelo://app?vid=86e7d7d4-9cc6-4c07-8b8c-a501053e5584"},"vehicle_type_id":"4","last_reported":1701477266,"current_range_meters":14800,"station_id":"ce4bhop2rcd13ifvqh7g","pricing_plan_id":"free"},{"bike_id":"dad9420d-36bf-47cb-8906-3c62e7ceb4b7","system_id":"levelo_inurba_marseille","lat":43.30355,"lon":5.41891,"is_reserved":false,"is_disabled":false,"rental_uris":{"android":"levelo://app?vid=dad9420d-36bf-47cb-8906-3c62e7ceb4b7","ios":"levelo://app?vid=dad9420d-36bf-47cb-8906-3c62e7ceb4b7"},"vehicle_type_id":"4","last_reported":1701477266,"current_range_meters":18800,"station_id":"ce4bhop2rcd13ifvqh7g","pricing_plan_id":"free"},{"bike_id":"edff782a-cd00-42d1-8865-63a8e381c23b","system_id":"levelo_inurba_marseille","lat":43.278399,"lon":5.392139,"is_reserved":false,"is_disabled":false,"rental_uris":{"android":"levelo://app?vid=edff782a-cd00-42d1-8865-63a8e381c23b","ios":"levelo://app?vid=edff782a-cd00-42d1-8865-63a8e381c23b"},"vehicle_type_id":"4","last_reported":1701477266,"current_range_meters":29200,"station_id":"ce4bhjp2rcd13ifvqga0","pricing_plan_id":"free"},{"bike_id":"1604b073-44b6-46d2-b360-c780a2e6c3c5","system_id":"levelo_inurba_marseille","lat":43.275625,"lon":5.384392,"is_reserved":false,"is_disabled":false,"rental_uris":{"android":"levelo://app?vid=1604b073-44b6-46d2-b360-c780a2e6c3c5","ios":"levelo://app?vid=1604b073-44b6-46d2-b360-c780a2e6c3c5"},"vehicle_type_id":"4","last_reported":1701477266,"current_range_meters":15200,"station_id":"ce4bhh92rcd13ifvqfi0","pricing_plan_id":"free"},{"bike_id":"975d9307-3328-456b-998b-a9c7d3275461","system_id":"levelo_inurba_marseille","lat":43.336148,"lon":5.410349,"is_reserved":false,"is_disabled":false,"rental_uris":{"android":"levelo://app?vid=975d9307-3328-456b-998b-a9c7d3275461","ios":"levelo://app?vid=975d9307-3328-456b-998b-a9c7d3275461"},"vehicle_type_id":"4","last_reported":1701477266,"current_range_meters":21600,"station_id":"ce4bhqh2rcd13ifvqhmg","pricing_plan_id":"free"},{"bike_id":"0256d9f5-c275-485b-a67b-c6d8e2bee501","system_id":"levelo_inurba_marseille","lat":43.317121,"lon":5.423936,"is_reserved":false,"is_disabled":false,"rental_uris":{"android":"levelo://app?vid=0256d9f5-c275-485b-a67b-c6d8e2bee501","ios":"levelo://app?vid=0256d9f5-c275-485b-a67b-c6d8e2bee501"},"vehicle_type_id":"4","last_reported":1701477266,"current_range_meters":20800,"station_id":"ce4bhp92rcd13ifvqhbg","pricing_plan_id":"free"},{"bike_id":"894f6494-585b-4b1b-a39f-39b137cf17d0","system_id":"levelo_inurba_marseille","lat":43.310785,"lon":5.424305,"is_reserved":false,"is_disabled":false,"rental_uris":{"android":"levelo://app?vid=894f6494-585b-4b1b-a39f-39b137cf17d0","ios":"levelo://app?vid=894f6494-585b-4b1b-a39f-39b137cf17d0"},"vehicle_type_id":"4","last_reported":1701477266,"current_range_meters":11600,"station_id":"ce4bhp92rcd13ifvqhag","pricing_plan_id":"free"},{"bike_id":"209aad89-6ad1-4be7-b24f-a81813d47839","system_id":"levelo_inurba_marseille","lat":43.340804,"lon":5.410219,"is_reserved":false,"is_disabled":false,"rental_uris":{"android":"levelo://app?vid=209aad89-6ad1-4be7-b24f-a81813d47839","ios":"levelo://app?vid=209aad89-6ad1-4be7-b24f-a81813d47839"},"vehicle_type_id":"4","last_reported":1701477266,"current_range_meters":10800,"station_id":"ce4bhqh2rcd13ifvqhlg","pricing_plan_id":"free"},{"bike_id":"ec8cda27-8133-4ca8-abd6-6a978c40f976","system_id":"levelo_inurba_marseille","lat":43.340804,"lon":5.410219,"is_reserved":false,"is_disabled":false,"rental_uris":{"android":"levelo://app?vid=ec8cda27-8133-4ca8-abd6-6a978c40f976","ios":"levelo://app?vid=ec8cda27-8133-4ca8-abd6-6a978c40f976"},"vehicle_type_id":"4","last_reported":1701477266,"current_range_meters":31200,"station_id":"ce4bhqh2rcd13ifvqhlg","pricing_plan_id":"free"},{"bike_id":"7729778a-d587-4a31-9e2a-fc6f9d799c22","system_id":"levelo_inurba_marseille","lat":43.340804,"lon":5.410219,"is_reserved":false,"is_disabled":false,"rental_uris":{"android":"levelo://app?vid=7729778a-d587-4a31-9e2a-fc6f9d799c22","ios":"levelo://app?vid=7729778a-d587-4a31-9e2a-fc6f9d799c22"},"vehicle_type_id":"4","last_reported":1701477266,"current_range_meters":29200,"station_id":"ce4bhqh2rcd13ifvqhlg","pricing_plan_id":"free"},{"bike_id":"77ea5544-221c-41d5-9d0d-96a805abb3d4","system_id":"levelo_inurba_marseille","lat":43.274103,"lon":5.394016,"is_reserved":false,"is_disabled":false,"rental_uris":{"android":"levelo://app?vid=77ea5544-221c-41d5-9d0d-96a805abb3d4","ios":"levelo://app?vid=77ea5544-221c-41d5-9d0d-96a805abb3d4"},"vehicle_type_id":"4","last_reported":1701477266,"current_range_meters":8000,"station_id":"ce4bhdp2rcd13ifvqf20","pricing_plan_id":"free"},{"bike_id":"7ed57e64-d5e4-414f-8eb1-b422e851258b","system_id":"levelo_inurba_marseille","lat":43.295523,"lon":5.422926,"is_reserved":false,"is_disabled":false,"rental_uris":{"android":"levelo://app?vid=7ed57e64-d5e4-414f-8eb1-b422e851258b","ios":"levelo://app?vid=7ed57e64-d5e4-414f-8eb1-b422e851258b"},"vehicle_type_id":"4","last_reported":1701477266,"current_range_meters":24800,"station_id":"ce4bhph2rcd13ifvqhdg","pricing_plan_id":"free"},{"bike_id":"2fd3642f-f043-47ed-8015-d904c8b402fd","system_id":"levelo_inurba_marseille","lat":43.27215,"lon":5.391335,"is_reserved":false,"is_disabled":false,"rental_uris":{"android":"levelo://app?vid=2fd3642f-f043-47ed-8015-d904c8b402fd","ios":"levelo://app?vid=2fd3642f-f043-47ed-8015-d904c8b402fd"},"vehicle_type_id":"4","last_reported":1701477266,"current_range_meters":0,"station_id":"ce4bhhp2rcd13ifvqfm0","pricing_plan_id":"free"},{"bike_id":"7723dc9e-db90-4a11-8a24-1e6cffd5daec","system_id":"levelo_inurba_marseille","lat":43.272116,"lon":5.391747,"is_reserved":false,"is_disabled":false,"rental_uris":{"android":"levelo://app?vid=7723dc9e-db90-4a11-8a24-1e6cffd5daec","ios":"levelo://app?vid=7723dc9e-db90-4a11-8a24-1e6cffd5daec"},"vehicle_type_id":"4","last_reported":1701477266,"current_range_meters":16000,"station_id":"ce4bhhp2rcd13ifvqfm0","pricing_plan_id":"free"},{"bike_id":"d783046e-c430-4080-a3fa-5cedff0852f8","system_id":"levelo_inurba_marseille","lat":43.278128,"lon":5.407195,"is_reserved":false,"is_disabled":false,"rental_uris":{"android":"levelo://app?vid=d783046e-c430-4080-a3fa-5cedff0852f8","ios":"levelo://app?vid=d783046e-c430-4080-a3fa-5cedff0852f8"},"vehicle_type_id":"4","last_reported":1701477266,"current_range_meters":31200,"station_id":"ce4bhnh2rcd13ifvqgtg","pricing_plan_id":"free"},{"bike_id":"f522ce7d-07b5-42b8-bdad-455eca864b7e","system_id":"levelo_inurba_marseille","lat":43.269467,"lon":5.386439,"is_reserved":false,"is_disabled":false,"rental_uris":{"android":"levelo://app?vid=f522ce7d-07b5-42b8-bdad-455eca864b7e","ios":"levelo://app?vid=f522ce7d-07b5-42b8-bdad-455eca864b7e"},"vehicle_type_id":"4","last_reported":1701477266,"current_range_meters":25200,"station_id":"ce4bhh92rcd13ifvqfh0","pricing_plan_id":"free"},{"bike_id":"b4033caa-cca3-4b9f-953b-b882336d98c1","system_id":"levelo_inurba_marseille","lat":43.27941,"lon":5.41054,"is_reserved":false,"is_disabled":false,"rental_uris":{"android":"levelo://app?vid=b4033caa-cca3-4b9f-953b-b882336d98c1","ios":"levelo://app?vid=b4033caa-cca3-4b9f-953b-b882336d98c1"},"vehicle_type_id":"4","last_reported":1701477266,"current_range_meters":23600,"station_id":"ce4bhnp2rcd13ifvqh0g","pricing_plan_id":"free"},{"bike_id":"bda00024-93cf-4224-9e5e-f465c3caf882","system_id":"levelo_inurba_marseille","lat":43.279465,"lon":5.410561,"is_reserved":false,"is_disabled":false,"rental_uris":{"android":"levelo://app?vid=bda00024-93cf-4224-9e5e-f465c3caf882","ios":"levelo://app?vid=bda00024-93cf-4224-9e5e-f465c3caf882"},"vehicle_type_id":"4","last_reported":1701477266,"current_range_meters":6000,"station_id":"ce4bhnp2rcd13ifvqh0g","pricing_plan_id":"free"},{"bike_id":"8a5a972f-0927-4808-b102-cafd69087f2d","system_id":"levelo_inurba_marseille","lat":43.279935,"lon":5.416548,"is_reserved":false,"is_disabled":false,"rental_uris":{"android":"levelo://app?vid=8a5a972f-0927-4808-b102-cafd69087f2d","ios":"levelo://app?vid=8a5a972f-0927-4808-b102-cafd69087f2d"},"vehicle_type_id":"4","last_reported":1701477266,"current_range_meters":14000,"station_id":"ce4bho12rcd13ifvqh1g","pricing_plan_id":"free"},{"bike_id":"a2d420dd-14be-462d-a1c6-cb06f97f2ed5","system_id":"levelo_inurba_marseille","lat":43.27996,"lon":5.416624,"is_reserved":false,"is_disabled":false,"rental_uris":{"android":"levelo://app?vid=a2d420dd-14be-462d-a1c6-cb06f97f2ed5","ios":"levelo://app?vid=a2d420dd-14be-462d-a1c6-cb06f97f2ed5"},"vehicle_type_id":"4","last_reported":1701477266,"current_range_meters":29600,"station_id":"ce4bho12rcd13ifvqh1g","pricing_plan_id":"free"},{"bike_id":"c94bdab6-c0bb-4f30-9981-718c69d71568","system_id":"levelo_inurba_marseille","lat":43.267966,"lon":5.393976,"is_reserved":false,"is_disabled":false,"rental_uris":{"android":"levelo://app?vid=c94bdab6-c0bb-4f30-9981-718c69d71568","ios":"levelo://app?vid=c94bdab6-c0bb-4f30-9981-718c69d71568"},"vehicle_type_id":"4","last_reported":1701477266,"current_range_meters":18800,"station_id":"ce4bhh12rcd13ifvqfg0","pricing_plan_id":"free"},{"bike_id":"ffc55f93-0e72-4e00-9db9-d0ccfda7b772","system_id":"levelo_inurba_marseille","lat":43.267966,"lon":5.393976,"is_reserved":false,"is_disabled":false,"rental_uris":{"android":"levelo://app?vid=ffc55f93-0e72-4e00-9db9-d0ccfda7b772","ios":"levelo://app?vid=ffc55f93-0e72-4e00-9db9-d0ccfda7b772"},"vehicle_type_id":"4","last_reported":1701477266,"current_range_meters":12000,"station_id":"ce4bhh12rcd13ifvqfg0","pricing_plan_id":"free"},{"bike_id":"55b33a5c-1177-4dd9-b3a0-e993463bd4e2","system_id":"levelo_inurba_marseille","lat":43.308051,"lon":5.43527,"is_reserved":false,"is_disabled":false,"rental_uris":{"android":"levelo://app?vid=55b33a5c-1177-4dd9-b3a0-e993463bd4e2","ios":"levelo://app?vid=55b33a5c-1177-4dd9-b3a0-e993463bd4e2"},"vehicle_type_id":"4","last_reported":1701477266,"current_range_meters":30400,"station_id":"ce4bhph2rcd13ifvqheg","pricing_plan_id":"free"},{"bike_id":"2b094887-341f-4a33-b3b2-861e693d9181","system_id":"levelo_inurba_marseille","lat":43.26939,"lon":5.40254,"is_reserved":false,"is_disabled":false,"rental_uris":{"android":"levelo://app?vid=2b094887-341f-4a33-b3b2-861e693d9181","ios":"levelo://app?vid=2b094887-341f-4a33-b3b2-861e693d9181"},"vehicle_type_id":"4","last_reported":1701477266,"current_range_meters":24800,"station_id":"cjm6bp8fraef2m0cb0m0","pricing_plan_id":"free"},{"bike_id":"c71160fc-c7b7-4c0b-8b7c-da5014dcb825","system_id":"levelo_inurba_marseille","lat":43.317104,"lon":5.436818,"is_reserved":false,"is_disabled":false,"rental_uris":{"android":"levelo://app?vid=c71160fc-c7b7-4c0b-8b7c-da5014dcb825","ios":"levelo://app?vid=c71160fc-c7b7-4c0b-8b7c-da5014dcb825"},"vehicle_type_id":"4","last_reported":1701477266,"current_range_meters":29600,"station_id":"ce4bhp92rcd13ifvqhcg","pricing_plan_id":"free"},{"bike_id":"a4124f48-25c9-4f2d-8b83-4f62a5b2e009","system_id":"levelo_inurba_marseille","lat":43.271388,"lon":5.409269,"is_reserved":false,"is_disabled":false,"rental_uris":{"android":"levelo://app?vid=a4124f48-25c9-4f2d-8b83-4f62a5b2e009","ios":"levelo://app?vid=a4124f48-25c9-4f2d-8b83-4f62a5b2e009"},"vehicle_type_id":"4","last_reported":1701477266,"current_range_meters":0,"station_id":"ce4bhl12rcd13ifvqgf0","pricing_plan_id":"free"},{"bike_id":"f9cac9a5-67a1-4158-a2a6-203ab176f26c","system_id":"levelo_inurba_marseille","lat":43.271388,"lon":5.409269,"is_reserved":false,"is_disabled":false,"rental_uris":{"android":"levelo://app?vid=f9cac9a5-67a1-4158-a2a6-203ab176f26c","ios":"levelo://app?vid=f9cac9a5-67a1-4158-a2a6-203ab176f26c"},"vehicle_type_id":"4","last_reported":1701477266,"current_range_meters":31600,"station_id":"ce4bhl12rcd13ifvqgf0","pricing_plan_id":"free"},{"bike_id":"2ba9db67-bc08-4181-91bc-5b87bbc9227d","system_id":"levelo_inurba_marseille","lat":43.26202,"lon":5.379299,"is_reserved":false,"is_disabled":false,"rental_uris":{"android":"levelo://app?vid=2ba9db67-bc08-4181-91bc-5b87bbc9227d","ios":"levelo://app?vid=2ba9db67-bc08-4181-91bc-5b87bbc9227d"},"vehicle_type_id":"4","last_reported":1701477266,"current_range_meters":27600,"station_id":"ce4bhjp2rcd13ifvqg90","pricing_plan_id":"free"},{"bike_id":"e023fcae-9e32-401b-a85c-78f48248b0bc","system_id":"levelo_inurba_marseille","lat":43.271368,"lon":5.40928,"is_reserved":false,"is_disabled":false,"rental_uris":{"android":"levelo://app?vid=e023fcae-9e32-401b-a85c-78f48248b0bc","ios":"levelo://app?vid=e023fcae-9e32-401b-a85c-78f48248b0bc"},"vehicle_type_id":"4","last_reported":1701477266,"current_range_meters":31200,"station_id":"ce4bhl12rcd13ifvqgf0","pricing_plan_id":"free"},{"bike_id":"f093fa9a-f7aa-44d2-b5e3-a1f52283c98b","system_id":"levelo_inurba_marseille","lat":43.239588,"lon":5.366238,"is_reserved":false,"is_disabled":false,"rental_uris":{"android":"levelo://app?vid=f093fa9a-f7aa-44d2-b5e3-a1f52283c98b","ios":"levelo://app?vid=f093fa9a-f7aa-44d2-b5e3-a1f52283c98b"},"vehicle_type_id":"4","last_reported":1701477266,"current_range_meters":13600,"station_id":"ce4bhi12rcd13ifvqfp0","pricing_plan_id":"free"},{"bike_id":"be554e14-baf6-4d39-bbf3-064c681b17e0","system_id":"levelo_inurba_marseille","lat":43.267959,"lon":5.402687,"is_reserved":false,"is_disabled":false,"rental_uris":{"android":"levelo://app?vid=be554e14-baf6-4d39-bbf3-064c681b17e0","ios":"levelo://app?vid=be554e14-baf6-4d39-bbf3-064c681b17e0"},"vehicle_type_id":"4","last_reported":1701477266,"current_range_meters":30000,"station_id":"ce501612rcd8frsf0b60","pricing_plan_id":"free"},{"bike_id":"012a091a-a741-425e-b75d-9972f4483093","system_id":"levelo_inurba_marseille","lat":43.298768,"lon":5.43643,"is_reserved":false,"is_disabled":false,"rental_uris":{"android":"levelo://app?vid=012a091a-a741-425e-b75d-9972f4483093","ios":"levelo://app?vid=012a091a-a741-425e-b75d-9972f4483093"},"vehicle_type_id":"4","last_reported":1701477266,"current_range_meters":22400,"station_id":"ce4bhpp2rcd13ifvqhfg","pricing_plan_id":"free"},{"bike_id":"aa32d31c-2cc3-4bda-a3f0-5b3d1a2f9ae5","system_id":"levelo_inurba_marseille","lat":43.28153,"lon":5.4264,"is_reserved":false,"is_disabled":false,"rental_uris":{"android":"levelo://app?vid=aa32d31c-2cc3-4bda-a3f0-5b3d1a2f9ae5","ios":"levelo://app?vid=aa32d31c-2cc3-4bda-a3f0-5b3d1a2f9ae5"},"vehicle_type_id":"4","last_reported":1701477266,"current_range_meters":6400,"station_id":"ce4bhnh2rcd13ifvqgug","pricing_plan_id":"free"},{"bike_id":"a265f57d-2203-4406-8278-bc194922c399","system_id":"levelo_inurba_marseille","lat":43.2815,"lon":5.426427,"is_reserved":false,"is_disabled":false,"rental_uris":{"android":"levelo://app?vid=a265f57d-2203-4406-8278-bc194922c399","ios":"levelo://app?vid=a265f57d-2203-4406-8278-bc194922c399"},"vehicle_type_id":"4","last_reported":1701477266,"current_range_meters":29600,"station_id":"ce4bhnh2rcd13ifvqgug","pricing_plan_id":"free"},{"bike_id":"d3df04f1-aa36-401c-b9f0-16ea3bba87de","system_id":"levelo_inurba_marseille","lat":43.281501,"lon":5.426459,"is_reserved":false,"is_disabled":false,"rental_uris":{"android":"levelo://app?vid=d3df04f1-aa36-401c-b9f0-16ea3bba87de","ios":"levelo://app?vid=d3df04f1-aa36-401c-b9f0-16ea3bba87de"},"vehicle_type_id":"4","last_reported":1701477266,"current_range_meters":15600,"station_id":"ce4bhnh2rcd13ifvqgug","pricing_plan_id":"free"},{"bike_id":"81f4f34a-8d36-4c09-961e-e42c57ef3483","system_id":"levelo_inurba_marseille","lat":43.28152,"lon":5.42648,"is_reserved":false,"is_disabled":false,"rental_uris":{"android":"levelo://app?vid=81f4f34a-8d36-4c09-961e-e42c57ef3483","ios":"levelo://app?vid=81f4f34a-8d36-4c09-961e-e42c57ef3483"},"vehicle_type_id":"4","last_reported":1701477266,"current_range_meters":2000,"station_id":"ce4bhnh2rcd13ifvqgug","pricing_plan_id":"free"},{"bike_id":"3de40b48-7293-4590-b1e4-a9c54e991d0a","system_id":"levelo_inurba_marseille","lat":43.281491,"lon":5.426475,"is_reserved":false,"is_disabled":false,"rental_uris":{"android":"levelo://app?vid=3de40b48-7293-4590-b1e4-a9c54e991d0a","ios":"levelo://app?vid=3de40b48-7293-4590-b1e4-a9c54e991d0a"},"vehicle_type_id":"4","last_reported":1701477266,"current_range_meters":17200,"station_id":"ce4bhnh2rcd13ifvqgug","pricing_plan_id":"free"},{"bike_id":"b802834e-51f4-41a4-96cb-c31681473515","system_id":"levelo_inurba_marseille","lat":43.281484,"lon":5.426508,"is_reserved":false,"is_disabled":false,"rental_uris":{"android":"levelo://app?vid=b802834e-51f4-41a4-96cb-c31681473515","ios":"levelo://app?vid=b802834e-51f4-41a4-96cb-c31681473515"},"vehicle_type_id":"4","last_reported":1701477266,"current_range_meters":31200,"station_id":"ce4bhnh2rcd13ifvqgug","pricing_plan_id":"free"},{"bike_id":"3532a786-7312-4db1-88be-2e5e8a274941","system_id":"levelo_inurba_marseille","lat":43.281471,"lon":5.426529,"is_reserved":false,"is_disabled":false,"rental_uris":{"android":"levelo://app?vid=3532a786-7312-4db1-88be-2e5e8a274941","ios":"levelo://app?vid=3532a786-7312-4db1-88be-2e5e8a274941"},"vehicle_type_id":"4","last_reported":1701477266,"current_range_meters":26000,"station_id":"ce4bhnh2rcd13ifvqgug","pricing_plan_id":"free"},{"bike_id":"994caf70-8e1f-40de-af4c-a7ce43a6b2d4","system_id":"levelo_inurba_marseille","lat":43.275028,"lon":5.424534,"is_reserved":false,"is_disabled":false,"rental_uris":{"android":"levelo://app?vid=994caf70-8e1f-40de-af4c-a7ce43a6b2d4","ios":"levelo://app?vid=994caf70-8e1f-40de-af4c-a7ce43a6b2d4"},"vehicle_type_id":"4","last_reported":1701477266,"current_range_meters":27200,"station_id":"ce4bhn92rcd13ifvqgrg","pricing_plan_id":"free"},{"bike_id":"b50e7963-680b-40e1-ab37-36504f3646f3","system_id":"levelo_inurba_marseille","lat":43.258224,"lon":5.394369,"is_reserved":false,"is_disabled":false,"rental_uris":{"android":"levelo://app?vid=b50e7963-680b-40e1-ab37-36504f3646f3","ios":"levelo://app?vid=b50e7963-680b-40e1-ab37-36504f3646f3"},"vehicle_type_id":"4","last_reported":1701477266,"current_range_meters":26400,"station_id":"ce4bhip2rcd13ifvqft0","pricing_plan_id":"free"},{"bike_id":"5f957d95-e4f6-4778-bd7f-a7990ab59efd","system_id":"levelo_inurba_marseille","lat":43.254947,"lon":5.376454,"is_reserved":false,"is_disabled":false,"rental_uris":{"android":"levelo://app?vid=5f957d95-e4f6-4778-bd7f-a7990ab59efd","ios":"levelo://app?vid=5f957d95-e4f6-4778-bd7f-a7990ab59efd"},"vehicle_type_id":"4","last_reported":1701477266,"current_range_meters":31200,"station_id":"ce4bhh12rcd13ifvqff0","pricing_plan_id":"free"},{"bike_id":"86c1bbfb-43d0-485a-8564-32eb4d98fae5","system_id":"levelo_inurba_marseille","lat":43.254947,"lon":5.376454,"is_reserved":false,"is_disabled":false,"rental_uris":{"android":"levelo://app?vid=86c1bbfb-43d0-485a-8564-32eb4d98fae5","ios":"levelo://app?vid=86c1bbfb-43d0-485a-8564-32eb4d98fae5"},"vehicle_type_id":"4","last_reported":1701477266,"current_range_meters":26400,"station_id":"ce4bhh12rcd13ifvqff0","pricing_plan_id":"free"},{"bike_id":"292a6f9a-7610-4701-bedc-5c382c13353c","system_id":"levelo_inurba_marseille","lat":43.2707,"lon":5.42282,"is_reserved":false,"is_disabled":false,"rental_uris":{"android":"levelo://app?vid=292a6f9a-7610-4701-bedc-5c382c13353c","ios":"levelo://app?vid=292a6f9a-7610-4701-bedc-5c382c13353c"},"vehicle_type_id":"4","last_reported":1701477266,"current_range_meters":18400,"station_id":"ce4bhk92rcd13ifvqgb0","pricing_plan_id":"free"},{"bike_id":"6b55de0b-bf22-4d3b-bb7b-9bfacee3cb65","system_id":"levelo_inurba_marseille","lat":43.270721,"lon":5.422764,"is_reserved":false,"is_disabled":false,"rental_uris":{"android":"levelo://app?vid=6b55de0b-bf22-4d3b-bb7b-9bfacee3cb65","ios":"levelo://app?vid=6b55de0b-bf22-4d3b-bb7b-9bfacee3cb65"},"vehicle_type_id":"4","last_reported":1701477266,"current_range_meters":27200,"station_id":"ce4bhk92rcd13ifvqgb0","pricing_plan_id":"free"},{"bike_id":"56de3f0e-b18c-485a-8c58-e4c4956ba711","system_id":"levelo_inurba_marseille","lat":43.270721,"lon":5.422764,"is_reserved":false,"is_disabled":false,"rental_uris":{"android":"levelo://app?vid=56de3f0e-b18c-485a-8c58-e4c4956ba711","ios":"levelo://app?vid=56de3f0e-b18c-485a-8c58-e4c4956ba711"},"vehicle_type_id":"4","last_reported":1701477266,"current_range_meters":26400,"station_id":"ce4bhk92rcd13ifvqgb0","pricing_plan_id":"free"},{"bike_id":"f88fd433-05bf-4de3-9f93-62a16ba6307d","system_id":"levelo_inurba_marseille","lat":43.259337,"lon":5.40914,"is_reserved":false,"is_disabled":false,"rental_uris":{"android":"levelo://app?vid=f88fd433-05bf-4de3-9f93-62a16ba6307d","ios":"levelo://app?vid=f88fd433-05bf-4de3-9f93-62a16ba6307d"},"vehicle_type_id":"4","last_reported":1701477266,"current_range_meters":15600,"station_id":"ce4bhm92rcd13ifvqglg","pricing_plan_id":"free"},{"bike_id":"f8e9fff3-f166-4bea-a648-6e46d3f91a95","system_id":"levelo_inurba_marseille","lat":43.25932,"lon":5.40914,"is_reserved":false,"is_disabled":false,"rental_uris":{"android":"levelo://app?vid=f8e9fff3-f166-4bea-a648-6e46d3f91a95","ios":"levelo://app?vid=f8e9fff3-f166-4bea-a648-6e46d3f91a95"},"vehicle_type_id":"4","last_reported":1701477266,"current_range_meters":10800,"station_id":"ce4bhm92rcd13ifvqglg","pricing_plan_id":"free"},{"bike_id":"8260938c-99a0-41e0-9eca-ebe62e09f8e6","system_id":"levelo_inurba_marseille","lat":43.259013,"lon":5.409301,"is_reserved":false,"is_disabled":false,"rental_uris":{"android":"levelo://app?vid=8260938c-99a0-41e0-9eca-ebe62e09f8e6","ios":"levelo://app?vid=8260938c-99a0-41e0-9eca-ebe62e09f8e6"},"vehicle_type_id":"4","last_reported":1701477266,"current_range_meters":22000,"station_id":"ce4bhm92rcd13ifvqglg","pricing_plan_id":"free"},{"bike_id":"ecaebf87-a69c-4311-b26f-93b4952b8f5f","system_id":"levelo_inurba_marseille","lat":43.257079,"lon":5.411051,"is_reserved":false,"is_disabled":false,"rental_uris":{"android":"levelo://app?vid=ecaebf87-a69c-4311-b26f-93b4952b8f5f","ios":"levelo://app?vid=ecaebf87-a69c-4311-b26f-93b4952b8f5f"},"vehicle_type_id":"4","last_reported":1701477266,"current_range_meters":2000,"station_id":"ce4bhkp2rcd13ifvqgd0","pricing_plan_id":"free"},{"bike_id":"99ee76bf-253b-45b6-98c6-870f3c2c3282","system_id":"levelo_inurba_marseille","lat":43.257079,"lon":5.411051,"is_reserved":false,"is_disabled":false,"rental_uris":{"android":"levelo://app?vid=99ee76bf-253b-45b6-98c6-870f3c2c3282","ios":"levelo://app?vid=99ee76bf-253b-45b6-98c6-870f3c2c3282"},"vehicle_type_id":"4","last_reported":1701477266,"current_range_meters":20000,"station_id":"ce4bhkp2rcd13ifvqgd0","pricing_plan_id":"free"},{"bike_id":"a1fc4424-2331-4034-b322-9dfd834ee21c","system_id":"levelo_inurba_marseille","lat":43.257079,"lon":5.411051,"is_reserved":false,"is_disabled":false,"rental_uris":{"android":"levelo://app?vid=a1fc4424-2331-4034-b322-9dfd834ee21c","ios":"levelo://app?vid=a1fc4424-2331-4034-b322-9dfd834ee21c"},"vehicle_type_id":"4","last_reported":1701477266,"current_range_meters":0,"station_id":"ce4bhkp2rcd13ifvqgd0","pricing_plan_id":"free"},{"bike_id":"fea23018-c3ad-4112-a137-f124be3feebd","system_id":"levelo_inurba_marseille","lat":43.257079,"lon":5.411051,"is_reserved":false,"is_disabled":false,"rental_uris":{"android":"levelo://app?vid=fea23018-c3ad-4112-a137-f124be3feebd","ios":"levelo://app?vid=fea23018-c3ad-4112-a137-f124be3feebd"},"vehicle_type_id":"4","last_reported":1701477266,"current_range_meters":30000,"station_id":"ce4bhkp2rcd13ifvqgd0","pricing_plan_id":"free"},{"bike_id":"53a59409-647f-4c73-bbb7-a8f04561501e","system_id":"levelo_inurba_marseille","lat":43.2479,"lon":5.374457,"is_reserved":false,"is_disabled":false,"rental_uris":{"android":"levelo://app?vid=53a59409-647f-4c73-bbb7-a8f04561501e","ios":"levelo://app?vid=53a59409-647f-4c73-bbb7-a8f04561501e"},"vehicle_type_id":"4","last_reported":1701477266,"current_range_meters":30800,"station_id":"ce4bhgh2rcd13ifvqfb0","pricing_plan_id":"free"},{"bike_id":"7b86737e-88b6-402e-953d-d66f821e4367","system_id":"levelo_inurba_marseille","lat":43.250775,"lon":5.395222,"is_reserved":false,"is_disabled":false,"rental_uris":{"android":"levelo://app?vid=7b86737e-88b6-402e-953d-d66f821e4367","ios":"levelo://app?vid=7b86737e-88b6-402e-953d-d66f821e4367"},"vehicle_type_id":"4","last_reported":1701477266,"current_range_meters":30400,"station_id":"ce4bhm12rcd13ifvqgkg","pricing_plan_id":"free"},{"bike_id":"278cf133-2e99-481a-883f-aaca6fd0dbdf","system_id":"levelo_inurba_marseille","lat":43.24693,"lon":5.382096,"is_reserved":false,"is_disabled":false,"rental_uris":{"android":"levelo://app?vid=278cf133-2e99-481a-883f-aaca6fd0dbdf","ios":"levelo://app?vid=278cf133-2e99-481a-883f-aaca6fd0dbdf"},"vehicle_type_id":"4","last_reported":1701477266,"current_range_meters":18000,"station_id":"ce4bhih2rcd13ifvqfr0","pricing_plan_id":"free"},{"bike_id":"fc5bbe81-0aa5-476b-aa30-f25c82b188da","system_id":"levelo_inurba_marseille","lat":43.25112,"lon":5.40321,"is_reserved":false,"is_disabled":false,"rental_uris":{"android":"levelo://app?vid=fc5bbe81-0aa5-476b-aa30-f25c82b188da","ios":"levelo://app?vid=fc5bbe81-0aa5-476b-aa30-f25c82b188da"},"vehicle_type_id":"4","last_reported":1701477266,"current_range_meters":25200,"station_id":"ce4bhlh2rcd13ifvqgig","pricing_plan_id":"free"},{"bike_id":"1d4676a2-3cde-486f-aa8e-7590ad29ddb5","system_id":"levelo_inurba_marseille","lat":43.25107,"lon":5.4033,"is_reserved":false,"is_disabled":false,"rental_uris":{"android":"levelo://app?vid=1d4676a2-3cde-486f-aa8e-7590ad29ddb5","ios":"levelo://app?vid=1d4676a2-3cde-486f-aa8e-7590ad29ddb5"},"vehicle_type_id":"4","last_reported":1701477266,"current_range_meters":31200,"station_id":"ce4bhlh2rcd13ifvqgig","pricing_plan_id":"free"},{"bike_id":"07ba852d-3fe7-4a67-9b3c-ee88cd49b892","system_id":"levelo_inurba_marseille","lat":43.24072,"lon":5.37764,"is_reserved":false,"is_disabled":false,"rental_uris":{"android":"levelo://app?vid=07ba852d-3fe7-4a67-9b3c-ee88cd49b892","ios":"levelo://app?vid=07ba852d-3fe7-4a67-9b3c-ee88cd49b892"},"vehicle_type_id":"4","last_reported":1701477266,"current_range_meters":4800,"station_id":"ce4bhnp2rcd13ifvqgvg","pricing_plan_id":"free"},{"bike_id":"3c5e02b2-ef01-4779-a37d-46310c45b2ee","system_id":"levelo_inurba_marseille","lat":43.240623,"lon":5.377642,"is_reserved":false,"is_disabled":false,"rental_uris":{"android":"levelo://app?vid=3c5e02b2-ef01-4779-a37d-46310c45b2ee","ios":"levelo://app?vid=3c5e02b2-ef01-4779-a37d-46310c45b2ee"},"vehicle_type_id":"4","last_reported":1701477266,"current_range_meters":20800,"station_id":"ce4bhnp2rcd13ifvqgvg","pricing_plan_id":"free"},{"bike_id":"b7fd427f-bd9d-4dcb-8aac-de32183b1a1b","system_id":"levelo_inurba_marseille","lat":43.240623,"lon":5.377642,"is_reserved":false,"is_disabled":false,"rental_uris":{"android":"levelo://app?vid=b7fd427f-bd9d-4dcb-8aac-de32183b1a1b","ios":"levelo://app?vid=b7fd427f-bd9d-4dcb-8aac-de32183b1a1b"},"vehicle_type_id":"4","last_reported":1701477266,"current_range_meters":30800,"station_id":"ce4bhnp2rcd13ifvqgvg","pricing_plan_id":"free"},{"bike_id":"b101f295-ac85-402a-8afe-c635c176f114","system_id":"levelo_inurba_marseille","lat":43.2852,"lon":5.46053,"is_reserved":false,"is_disabled":false,"rental_uris":{"android":"levelo://app?vid=b101f295-ac85-402a-8afe-c635c176f114","ios":"levelo://app?vid=b101f295-ac85-402a-8afe-c635c176f114"},"vehicle_type_id":"4","last_reported":1701477266,"current_range_meters":26000,"station_id":"","pricing_plan_id":"free"},{"bike_id":"85c90b44-b358-45aa-a3df-2901c7378147","system_id":"levelo_inurba_marseille","lat":43.241782,"lon":5.397261,"is_reserved":false,"is_disabled":false,"rental_uris":{"android":"levelo://app?vid=85c90b44-b358-45aa-a3df-2901c7378147","ios":"levelo://app?vid=85c90b44-b358-45aa-a3df-2901c7378147"},"vehicle_type_id":"4","last_reported":1701477266,"current_range_meters":20400,"station_id":"ce4bhn12rcd13ifvqgpg","pricing_plan_id":"free"},{"bike_id":"cd2806e3-7a91-44f5-9e97-e41c2a460e29","system_id":"levelo_inurba_marseille","lat":43.241782,"lon":5.397264,"is_reserved":false,"is_disabled":false,"rental_uris":{"android":"levelo://app?vid=cd2806e3-7a91-44f5-9e97-e41c2a460e29","ios":"levelo://app?vid=cd2806e3-7a91-44f5-9e97-e41c2a460e29"},"vehicle_type_id":"4","last_reported":1701477266,"current_range_meters":800,"station_id":"ce4bhn12rcd13ifvqgpg","pricing_plan_id":"free"},{"bike_id":"20bb21ba-22c2-4311-84b0-30b8ea245b7c","system_id":"levelo_inurba_marseille","lat":43.241782,"lon":5.397261,"is_reserved":false,"is_disabled":false,"rental_uris":{"android":"levelo://app?vid=20bb21ba-22c2-4311-84b0-30b8ea245b7c","ios":"levelo://app?vid=20bb21ba-22c2-4311-84b0-30b8ea245b7c"},