{"last_updated":1766067230,"ttl":60,"version":"2.2","data":{"bikes":[{"bike_id":"7497adb8-0897-4777-a764-e2ab600b97da","system_id":"levelo_inurba_marseille","lat":43.27174,"lon":5.40998,"is_reserved":false,"is_disabled":false,"rental_uris":{"android":"levelo://app?vid=7497adb8-0897-4777-a764-e2ab600b97da","ios":"levelo://app?vid=7497adb8-0897-4777-a764-e2ab600b97da"},"vehicle_type_id":"4","last_reported":1766067230,"current_range_meters":2800,"station_id":"ce4bhl12rcd13ifvqgf0","pricing_plan_id":"cebpf4jnsgd1na2vs0mg"},{"bike_id":"b147f415-51a0-425f-bb2d-544b352fc1c1","system_id":"levelo_inurba_marseille","lat":43.28398,"lon":5.37513,"is_reserved":false,"is_disabled":false,"rental_uris":{"android":"levelo://app?vid=b147f415-51a0-425f-bb2d-544b352fc1c1","ios":"levelo://app?vid=b147f415-51a0-425f-bb2d-544b352fc1c1"},"vehicle_type_id":"4","last_reported":1766067230,"current_range_meters":2800,"station_id":"ce4bh412rcd13ifvqds0","pricing_plan_id":"cebpf4jnsgd1na2vs0mg"},{"bike_id":"a7877468-4b4b-473f-a9f4-75f611d361cb","system_id":"levelo_inurba_marseille","lat":43.30912,"lon":5.36846,"is_reserved":false,"is_disabled":false,"rental_uris":{"android":"levelo://app?vid=a7877468-4b4b-473f-a9f4-75f611d361cb","ios":"levelo://app?vid=a7877468-4b4b-473f-a9f4-75f611d361cb"},"vehicle_type_id":"4","last_reported":1766067230,"current_range_meters":2800,"station_id":"ce4bgn92rcd13ifvqbvg","pricing_plan_id":"cebpf4jnsgd1na2vs0mg"},{"bike_id":"52a54e30-98ea-4cde-b62d-e76ff0fd87ba","system_id":"levelo_inurba_marseille","lat":43.27489,"lon":5.42442,"is_reserved":false,"is_disabled":true,"rental_uris":{"android":"levelo://app?vid=52a54e30-98ea-4cde-b62d-e76ff0fd87ba","ios":"levelo://app?vid=52a54e30-98ea-4cde-b62d-e76ff0fd87ba"},"vehicle_type_id":"4","last_reported":1766067230,"current_range_meters":2800,"station_id":"ce4bhn92rcd13ifvqgrg","pricing_plan_id":"cebpf4jnsgd1na2vs0mg"},{"bike_id":"14d9c5fa-8737-4f6b-b02a-78cb1942f6e9","system_id":"levelo_inurba_marseille","lat":43.30218,"lon":5.39463,"is_reserved":false,"is_disabled":false,"rental_uris":{"android":"levelo://app?vid=14d9c5fa-8737-4f6b-b02a-78cb1942f6e9","ios":"levelo://app?vid=14d9c5fa-8737-4f6b-b02a-78cb1942f6e9"},"vehicle_type_id":"4","last_reported":1766067230,"current_range_meters":2800,"station_id":"ce4bh0p2rcd13ifvqd70","pricing_plan_id":"cebpf4jnsgd1na2vs0mg"},{"bike_id":"1bd40e53-4601-4920-9b5f-b8857405cc90","system_id":"levelo_inurba_marseille","lat":43.23965,"lon":5.36625,"is_reserved":false,"is_disabled":false,"rental_uris":{"android":"levelo://app?vid=1bd40e53-4601-4920-9b5f-b8857405cc90","ios":"levelo://app?vid=1bd40e53-4601-4920-9b5f-b8857405cc90"},"vehicle_type_id":"4","last_reported":1766067230,"current_range_meters":2800,"station_id":"ce4bhi12rcd13ifvqfp0","pricing_plan_id":"cebpf4jnsgd1na2vs0mg"},{"bike_id":"dc1c66a1-ec6a-4a97-84f0-949967d8e557","system_id":"levelo_inurba_marseille","lat":43.31009,"lon":5.3936,"is_reserved":false,"is_disabled":false,"rental_uris":{"android":"levelo://app?vid=dc1c66a1-ec6a-4a97-84f0-949967d8e557","ios":"levelo://app?vid=dc1c66a1-ec6a-4a97-84f0-949967d8e557"},"vehicle_type_id":"4","last_reported":1766067230,"current_range_meters":2800,"station_id":"","pricing_plan_id":"cebpf4jnsgd1na2vs0mg"},{"bike_id":"08b08790-effd-4896-bbe4-08a744452616","system_id":"levelo_inurba_marseille","lat":43.286713,"lon":5.363451,"is_reserved":false,"is_disabled":false,"rental_uris":{"android":"levelo://app?vid=08b08790-effd-4896-bbe4-08a744452616","ios":"levelo://app?vid=08b08790-effd-4896-bbe4-08a744452616"},"vehicle_type_id":"4","last_reported":1766067230,"current_range_meters":2800,"station_id":"ce4bhah2rcd13ifvqej0","pricing_plan_id":"cebpf4jnsgd1na2vs0mg"},{"bike_id":"c87986e3-4e86-47a0-ab11-88287bd4cb16","system_id":"levelo_inurba_marseille","lat":43.23965,"lon":5.36631,"is_reserved":false,"is_disabled":false,"rental_uris":{"android":"levelo://app?vid=c87986e3-4e86-47a0-ab11-88287bd4cb16","ios":"levelo://app?vid=c87986e3-4e86-47a0-ab11-88287bd4cb16"},"vehicle_type_id":"4","last_reported":1766067230,"current_range_meters":3200,"station_id":"ce4bhi12rcd13ifvqfp0","pricing_plan_id":"cebpf4jnsgd1na2vs0mg"},{"bike_id":"2e95b54b-b23d-42ec-8292-60e1c749d49a","system_id":"levelo_inurba_marseille","lat":43.3004,"lon":5.40129,"is_reserved":false,"is_disabled":false,"rental_uris":{"android":"levelo://app?vid=2e95b54b-b23d-42ec-8292-60e1c749d49a","ios":"levelo://app?vid=2e95b54b-b23d-42ec-8292-60e1c749d49a"},"vehicle_type_id":"4","last_reported":1766067230,"current_range_meters":3200,"station_id":"","pricing_plan_id":"cebpf4jnsgd1na2vs0mg"},{"bike_id":"b837e29c-a49d-4037-8ffb-c58ec3701d59","system_id":"levelo_inurba_marseille","lat":43.31152,"lon":5.45411,"is_reserved":false,"is_disabled":false,"rental_uris":{"android":"levelo://app?vid=b837e29c-a49d-4037-8ffb-c58ec3701d59","ios":"levelo://app?vid=b837e29c-a49d-4037-8ffb-c58ec3701d59"},"vehicle_type_id":"4","last_reported":1766067230,"current_range_meters":3200,"station_id":"","pricing_plan_id":"cebpf4jnsgd1na2vs0mg"},{"bike_id":"3dde39a6-9631-4ad9-91c8-8bf86a414415","system_id":"levelo_inurba_marseille","lat":43.30022,"lon":5.37199,"is_reserved":false,"is_disabled":false,"rental_uris":{"android":"levelo://app?vid=3dde39a6-9631-4ad9-91c8-8bf86a414415","ios":"levelo://app?vid=3dde39a6-9631-4ad9-91c8-8bf86a414415"},"vehicle_type_id":"4","last_reported":1766067230,"current_range_meters":3200,"station_id":"","pricing_plan_id":"cebpf4jnsgd1na2vs0mg"},{"bike_id":"efa6fac4-5dc4-40d7-8dce-35fd9822819f","system_id":"levelo_inurba_marseille","lat":43.25825,"lon":5.39437,"is_reserved":false,"is_disabled":false,"rental_uris":{"android":"levelo://app?vid=efa6fac4-5dc4-40d7-8dce-35fd9822819f","ios":"levelo://app?vid=efa6fac4-5dc4-40d7-8dce-35fd9822819f"},"vehicle_type_id":"4","last_reported":1766067230,"current_range_meters":3200,"station_id":"ce4bhip2rcd13ifvqft0","pricing_plan_id":"cebpf4jnsgd1na2vs0mg"},{"bike_id":"ca0c278f-9e50-4f57-9c68-562a8b6c443a","system_id":"levelo_inurba_marseille","lat":43.23153,"lon":5.43707,"is_reserved":false,"is_disabled":false,"rental_uris":{"android":"levelo://app?vid=ca0c278f-9e50-4f57-9c68-562a8b6c443a","ios":"levelo://app?vid=ca0c278f-9e50-4f57-9c68-562a8b6c443a"},"vehicle_type_id":"4","last_reported":1766067230,"current_range_meters":3200,"station_id":"ce4bhmp2rcd13ifvqgog","pricing_plan_id":"cebpf4jnsgd1na2vs0mg"},{"bike_id":"b2d0d013-f6e6-454b-b77a-85dd2ef1cc3a","system_id":"levelo_inurba_marseille","lat":43.239618,"lon":5.366395,"is_reserved":false,"is_disabled":false,"rental_uris":{"android":"levelo://app?vid=b2d0d013-f6e6-454b-b77a-85dd2ef1cc3a","ios":"levelo://app?vid=b2d0d013-f6e6-454b-b77a-85dd2ef1cc3a"},"vehicle_type_id":"4","last_reported":1766067230,"current_range_meters":3200,"station_id":"","pricing_plan_id":"cebpf4jnsgd1na2vs0mg"},{"bike_id":"339d251b-5332-4901-aae2-eda8f9aa1d79","system_id":"levelo_inurba_marseille","lat":43.27073,"lon":5.42285,"is_reserved":false,"is_disabled":true,"rental_uris":{"android":"levelo://app?vid=339d251b-5332-4901-aae2-eda8f9aa1d79","ios":"levelo://app?vid=339d251b-5332-4901-aae2-eda8f9aa1d79"},"vehicle_type_id":"4","last_reported":1766067230,"current_range_meters":3600,"station_id":"ce4bhk92rcd13ifvqgb0","pricing_plan_id":"cebpf4jnsgd1na2vs0mg"},{"bike_id":"8d321c31-2ebe-45ab-b3e2-dce2428bd0f9","system_id":"levelo_inurba_marseille","lat":43.260327,"lon":5.375453,"is_reserved":false,"is_disabled":false,"rental_uris":{"android":"levelo://app?vid=8d321c31-2ebe-45ab-b3e2-dce2428bd0f9","ios":"levelo://app?vid=8d321c31-2ebe-45ab-b3e2-dce2428bd0f9"},"vehicle_type_id":"4","last_reported":1766067230,"current_range_meters":3600,"station_id":"ce4bhgh2rcd13ifvqfa0","pricing_plan_id":"cebpf4jnsgd1na2vs0mg"},{"bike_id":"6a1e8c6f-9735-480c-8ccd-17f0c2ebdfb8","system_id":"levelo_inurba_marseille","lat":43.30937,"lon":5.39044,"is_reserved":false,"is_disabled":false,"rental_uris":{"android":"levelo://app?vid=6a1e8c6f-9735-480c-8ccd-17f0c2ebdfb8","ios":"levelo://app?vid=6a1e8c6f-9735-480c-8ccd-17f0c2ebdfb8"},"vehicle_type_id":"4","last_reported":1766067230,"current_range_meters":3600,"station_id":"ce4bgup2rcd13ifvqco0","pricing_plan_id":"cebpf4jnsgd1na2vs0mg"},{"bike_id":"c39d345a-be58-400f-b22b-057cb73fed8f","system_id":"levelo_inurba_marseille","lat":43.29793,"lon":5.40401,"is_reserved":false,"is_disabled":false,"rental_uris":{"android":"levelo://app?vid=c39d345a-be58-400f-b22b-057cb73fed8f","ios":"levelo://app?vid=c39d345a-be58-400f-b22b-057cb73fed8f"},"vehicle_type_id":"4","last_reported":1766067230,"current_range_meters":3600,"station_id":"ce4bh112rcd13ifvqd90","pricing_plan_id":"cebpf4jnsgd1na2vs0mg"},{"bike_id":"2e08df65-c35b-4794-afe4-fbc75c417b79","system_id":"levelo_inurba_marseille","lat":43.2319,"lon":5.35561,"is_reserved":false,"is_disabled":false,"rental_uris":{"android":"levelo://app?vid=2e08df65-c35b-4794-afe4-fbc75c417b79","ios":"levelo://app?vid=2e08df65-c35b-4794-afe4-fbc75c417b79"},"vehicle_type_id":"4","last_reported":1766067230,"current_range_meters":3600,"station_id":"ce4bhu92rcd13ifvqi70","pricing_plan_id":"cebpf4jnsgd1na2vs0mg"},{"bike_id":"075753f2-03fc-482d-992a-1a659c9f27f8","system_id":"levelo_inurba_marseille","lat":43.28218,"lon":5.34909,"is_reserved":false,"is_disabled":false,"rental_uris":{"android":"levelo://app?vid=075753f2-03fc-482d-992a-1a659c9f27f8","ios":"levelo://app?vid=075753f2-03fc-482d-992a-1a659c9f27f8"},"vehicle_type_id":"4","last_reported":1766067230,"current_range_meters":4000,"station_id":"","pricing_plan_id":"cebpf4jnsgd1na2vs0mg"},{"bike_id":"3b173b9a-a163-4851-85c8-15a1febb57e7","system_id":"levelo_inurba_marseille","lat":43.29052,"lon":5.38132,"is_reserved":false,"is_disabled":false,"rental_uris":{"android":"levelo://app?vid=3b173b9a-a163-4851-85c8-15a1febb57e7","ios":"levelo://app?vid=3b173b9a-a163-4851-85c8-15a1febb57e7"},"vehicle_type_id":"4","last_reported":1766067230,"current_range_meters":4000,"station_id":"ce4bh4p2rcd13ifvqe1g","pricing_plan_id":"cebpf4jnsgd1na2vs0mg"},{"bike_id":"7f431ae6-2f3f-4d5b-9bd2-7a74ee500c2a","system_id":"levelo_inurba_marseille","lat":43.27369,"lon":5.36255,"is_reserved":false,"is_disabled":false,"rental_uris":{"android":"levelo://app?vid=7f431ae6-2f3f-4d5b-9bd2-7a74ee500c2a","ios":"levelo://app?vid=7f431ae6-2f3f-4d5b-9bd2-7a74ee500c2a"},"vehicle_type_id":"4","last_reported":1766067230,"current_range_meters":4000,"station_id":"ce4bhbh2rcd13ifvqeo0","pricing_plan_id":"cebpf4jnsgd1na2vs0mg"},{"bike_id":"cb179ec6-dd9c-4fab-91bc-d261e785e1b0","system_id":"levelo_inurba_marseille","lat":43.3117,"lon":5.38719,"is_reserved":false,"is_disabled":false,"rental_uris":{"android":"levelo://app?vid=cb179ec6-dd9c-4fab-91bc-d261e785e1b0","ios":"levelo://app?vid=cb179ec6-dd9c-4fab-91bc-d261e785e1b0"},"vehicle_type_id":"4","last_reported":1766067230,"current_range_meters":4000,"station_id":"ce4bgv12rcd13ifvqcp0","pricing_plan_id":"cebpf4jnsgd1na2vs0mg"},{"bike_id":"08a46a08-db79-4af1-90f0-dd853b10ad3e","system_id":"levelo_inurba_marseille","lat":43.24186,"lon":5.39736,"is_reserved":false,"is_disabled":false,"rental_uris":{"android":"levelo://app?vid=08a46a08-db79-4af1-90f0-dd853b10ad3e","ios":"levelo://app?vid=08a46a08-db79-4af1-90f0-dd853b10ad3e"},"vehicle_type_id":"4","last_reported":1766067230,"current_range_meters":4000,"station_id":"ce4bhn12rcd13ifvqgpg","pricing_plan_id":"cebpf4jnsgd1na2vs0mg"},{"bike_id":"925fc5dd-8f7a-4b90-a9de-bd3b8a65190d","system_id":"levelo_inurba_marseille","lat":43.29975,"lon":5.3849,"is_reserved":false,"is_disabled":false,"rental_uris":{"android":"levelo://app?vid=925fc5dd-8f7a-4b90-a9de-bd3b8a65190d","ios":"levelo://app?vid=925fc5dd-8f7a-4b90-a9de-bd3b8a65190d"},"vehicle_type_id":"4","last_reported":1766067230,"current_range_meters":4400,"station_id":"ce4bgj92rcd13ifvqbd0","pricing_plan_id":"cebpf4jnsgd1na2vs0mg"},{"bike_id":"d8a7fef2-72f4-4296-a870-17ff5ebeb160","system_id":"levelo_inurba_marseille","lat":43.292808,"lon":5.401151,"is_reserved":false,"is_disabled":false,"rental_uris":{"android":"levelo://app?vid=d8a7fef2-72f4-4296-a870-17ff5ebeb160","ios":"levelo://app?vid=d8a7fef2-72f4-4296-a870-17ff5ebeb160"},"vehicle_type_id":"4","last_reported":1766067230,"current_range_meters":4800,"station_id":"","pricing_plan_id":"cebpf4jnsgd1na2vs0mg"},{"bike_id":"846ba82f-b80b-4118-ba94-f1f7e836af7f","system_id":"levelo_inurba_marseille","lat":43.33757,"lon":5.374367,"is_reserved":false,"is_disabled":false,"rental_uris":{"android":"levelo://app?vid=846ba82f-b80b-4118-ba94-f1f7e836af7f","ios":"levelo://app?vid=846ba82f-b80b-4118-ba94-f1f7e836af7f"},"vehicle_type_id":"4","last_reported":1766067230,"current_range_meters":4800,"station_id":"","pricing_plan_id":"cebpf4jnsgd1na2vs0mg"},{"bike_id":"1234872a-39b1-4f90-a2b5-ff0589ee7faa","system_id":"levelo_inurba_marseille","lat":43.26942,"lon":5.40249,"is_reserved":false,"is_disabled":false,"rental_uris":{"android":"levelo://app?vid=1234872a-39b1-4f90-a2b5-ff0589ee7faa","ios":"levelo://app?vid=1234872a-39b1-4f90-a2b5-ff0589ee7faa"},"vehicle_type_id":"4","last_reported":1766067230,"current_range_meters":4800,"station_id":"cjm6bp8fraef2m0cb0m0","pricing_plan_id":"cebpf4jnsgd1na2vs0mg"},{"bike_id":"1140393d-f6f0-4c10-8ecd-8466d3c9a4a9","system_id":"levelo_inurba_marseille","lat":43.240662,"lon":5.378008,"is_reserved":false,"is_disabled":false,"rental_uris":{"android":"levelo://app?vid=1140393d-f6f0-4c10-8ecd-8466d3c9a4a9","ios":"levelo://app?vid=1140393d-f6f0-4c10-8ecd-8466d3c9a4a9"},"vehicle_type_id":"4","last_reported":1766067230,"current_range_meters":4800,"station_id":"ce4bhnp2rcd13ifvqgvg","pricing_plan_id":"cebpf4jnsgd1na2vs0mg"},{"bike_id":"85af97e3-1423-4cfb-ae81-091f2bb4b762","system_id":"levelo_inurba_marseille","lat":43.232819,"lon":5.39968,"is_reserved":false,"is_disabled":false,"rental_uris":{"android":"levelo://app?vid=85af97e3-1423-4cfb-ae81-091f2bb4b762","ios":"levelo://app?vid=85af97e3-1423-4cfb-ae81-091f2bb4b762"},"vehicle_type_id":"4","last_reported":1766067230,"current_range_meters":4800,"station_id":"ce4bhn12rcd13ifvqgqg","pricing_plan_id":"cebpf4jnsgd1na2vs0mg"},{"bike_id":"f1f74614-33ac-441f-af80-d784b5e55bd2","system_id":"levelo_inurba_marseille","lat":43.328946,"lon":5.399653,"is_reserved":false,"is_disabled":false,"rental_uris":{"android":"levelo://app?vid=f1f74614-33ac-441f-af80-d784b5e55bd2","ios":"levelo://app?vid=f1f74614-33ac-441f-af80-d784b5e55bd2"},"vehicle_type_id":"4","last_reported":1766067230,"current_range_meters":4800,"station_id":"","pricing_plan_id":"cebpf4jnsgd1na2vs0mg"},{"bike_id":"99da6bd4-e5cb-48de-97be-33bf72d397ce","system_id":"levelo_inurba_marseille","lat":43.265,"lon":5.39539,"is_reserved":false,"is_disabled":false,"rental_uris":{"android":"levelo://app?vid=99da6bd4-e5cb-48de-97be-33bf72d397ce","ios":"levelo://app?vid=99da6bd4-e5cb-48de-97be-33bf72d397ce"},"vehicle_type_id":"4","last_reported":1766067230,"current_range_meters":4800,"station_id":"ce4bhi12rcd13ifvqfq0","pricing_plan_id":"cebpf4jnsgd1na2vs0mg"},{"bike_id":"1df71c23-c2a8-4f7a-bf34-7d2c172c8a8b","system_id":"levelo_inurba_marseille","lat":43.30788,"lon":5.38151,"is_reserved":false,"is_disabled":false,"rental_uris":{"android":"levelo://app?vid=1df71c23-c2a8-4f7a-bf34-7d2c172c8a8b","ios":"levelo://app?vid=1df71c23-c2a8-4f7a-bf34-7d2c172c8a8b"},"vehicle_type_id":"4","last_reported":1766067230,"current_range_meters":4800,"station_id":"ce4bgt12rcd13ifvqce0","pricing_plan_id":"cebpf4jnsgd1na2vs0mg"},{"bike_id":"0f944abf-35a4-4494-8e81-7af56b809575","system_id":"levelo_inurba_marseille","lat":43.30209,"lon":5.39466,"is_reserved":false,"is_disabled":true,"rental_uris":{"android":"levelo://app?vid=0f944abf-35a4-4494-8e81-7af56b809575","ios":"levelo://app?vid=0f944abf-35a4-4494-8e81-7af56b809575"},"vehicle_type_id":"4","last_reported":1766067230,"current_range_meters":5600,"station_id":"ce4bh0p2rcd13ifvqd70","pricing_plan_id":"cebpf4jnsgd1na2vs0mg"},{"bike_id":"08acdc25-268c-41a4-9b7b-3c760066c768","system_id":"levelo_inurba_marseille","lat":43.29578,"lon":5.36753,"is_reserved":false,"is_disabled":false,"rental_uris":{"android":"levelo://app?vid=08acdc25-268c-41a4-9b7b-3c760066c768","ios":"levelo://app?vid=08acdc25-268c-41a4-9b7b-3c760066c768"},"vehicle_type_id":"4","last_reported":1766067230,"current_range_meters":5600,"station_id":"ce4bgph2rcd13ifvqc2g","pricing_plan_id":"cebpf4jnsgd1na2vs0mg"},{"bike_id":"3b312080-5db2-41e4-9444-d2838694608e","system_id":"levelo_inurba_marseille","lat":43.26063,"lon":5.39398,"is_reserved":false,"is_disabled":false,"rental_uris":{"android":"levelo://app?vid=3b312080-5db2-41e4-9444-d2838694608e","ios":"levelo://app?vid=3b312080-5db2-41e4-9444-d2838694608e"},"vehicle_type_id":"4","last_reported":1766067230,"current_range_meters":5600,"station_id":"ce4bhh92rcd13ifvqfj0","pricing_plan_id":"cebpf4jnsgd1na2vs0mg"},{"bike_id":"cb06ccde-d8f8-42ae-8370-8d8a66fccfc4","system_id":"levelo_inurba_marseille","lat":43.29554,"lon":5.42296,"is_reserved":false,"is_disabled":false,"rental_uris":{"android":"levelo://app?vid=cb06ccde-d8f8-42ae-8370-8d8a66fccfc4","ios":"levelo://app?vid=cb06ccde-d8f8-42ae-8370-8d8a66fccfc4"},"vehicle_type_id":"4","last_reported":1766067230,"current_range_meters":5600,"station_id":"ce4bhph2rcd13ifvqhdg","pricing_plan_id":"cebpf4jnsgd1na2vs0mg"},{"bike_id":"e03b03ff-dddc-47a1-a2a6-92726b9b50a0","system_id":"levelo_inurba_marseille","lat":43.29591,"lon":5.37726,"is_reserved":false,"is_disabled":false,"rental_uris":{"android":"levelo://app?vid=e03b03ff-dddc-47a1-a2a6-92726b9b50a0","ios":"levelo://app?vid=e03b03ff-dddc-47a1-a2a6-92726b9b50a0"},"vehicle_type_id":"4","last_reported":1766067230,"current_range_meters":5600,"station_id":"ce4bgi92rcd13ifvqb90","pricing_plan_id":"cebpf4jnsgd1na2vs0mg"},{"bike_id":"1106419b-536a-45e2-88ae-63d108fca18f","system_id":"levelo_inurba_marseille","lat":43.299802,"lon":5.384861,"is_reserved":false,"is_disabled":false,"rental_uris":{"android":"levelo://app?vid=1106419b-536a-45e2-88ae-63d108fca18f","ios":"levelo://app?vid=1106419b-536a-45e2-88ae-63d108fca18f"},"vehicle_type_id":"4","last_reported":1766067230,"current_range_meters":6000,"station_id":"","pricing_plan_id":"cebpf4jnsgd1na2vs0mg"},{"bike_id":"421429dd-cc7d-47ec-9c23-d069c5b26c89","system_id":"levelo_inurba_marseille","lat":43.29726,"lon":5.37097,"is_reserved":false,"is_disabled":false,"rental_uris":{"android":"levelo://app?vid=421429dd-cc7d-47ec-9c23-d069c5b26c89","ios":"levelo://app?vid=421429dd-cc7d-47ec-9c23-d069c5b26c89"},"vehicle_type_id":"4","last_reported":1766067230,"current_range_meters":6000,"station_id":"","pricing_plan_id":"cebpf4jnsgd1na2vs0mg"},{"bike_id":"7e918e53-fa70-43c9-8cae-e1394e8a3b97","system_id":"levelo_inurba_marseille","lat":43.341376,"lon":5.409221,"is_reserved":false,"is_disabled":false,"rental_uris":{"android":"levelo://app?vid=7e918e53-fa70-43c9-8cae-e1394e8a3b97","ios":"levelo://app?vid=7e918e53-fa70-43c9-8cae-e1394e8a3b97"},"vehicle_type_id":"4","last_reported":1766067230,"current_range_meters":6000,"station_id":"ce4bhqh2rcd13ifvqhlg","pricing_plan_id":"cebpf4jnsgd1na2vs0mg"},{"bike_id":"f0c5eaa0-7ffa-4f96-be5d-71a2a68eb154","system_id":"levelo_inurba_marseille","lat":43.297982,"lon":5.381146,"is_reserved":false,"is_disabled":false,"rental_uris":{"android":"levelo://app?vid=f0c5eaa0-7ffa-4f96-be5d-71a2a68eb154","ios":"levelo://app?vid=f0c5eaa0-7ffa-4f96-be5d-71a2a68eb154"},"vehicle_type_id":"4","last_reported":1766067230,"current_range_meters":6000,"station_id":"ce4bgip2rcd13ifvqbb0","pricing_plan_id":"cebpf4jnsgd1na2vs0mg"},{"bike_id":"0bb4aea0-cd2d-4260-9073-2602e9e1b1df","system_id":"levelo_inurba_marseille","lat":43.22532,"lon":5.34859,"is_reserved":false,"is_disabled":false,"rental_uris":{"android":"levelo://app?vid=0bb4aea0-cd2d-4260-9073-2602e9e1b1df","ios":"levelo://app?vid=0bb4aea0-cd2d-4260-9073-2602e9e1b1df"},"vehicle_type_id":"4","last_reported":1766067230,"current_range_meters":6400,"station_id":"","pricing_plan_id":"cebpf4jnsgd1na2vs0mg"},{"bike_id":"643369cf-45b1-4ad7-9660-a9bc10be2f76","system_id":"levelo_inurba_marseille","lat":43.28353,"lon":5.38106,"is_reserved":false,"is_disabled":false,"rental_uris":{"android":"levelo://app?vid=643369cf-45b1-4ad7-9660-a9bc10be2f76","ios":"levelo://app?vid=643369cf-45b1-4ad7-9660-a9bc10be2f76"},"vehicle_type_id":"4","last_reported":1766067230,"current_range_meters":6400,"station_id":"ce4bh412rcd13ifvqdr0","pricing_plan_id":"cebpf4jnsgd1na2vs0mg"},{"bike_id":"0f5787f4-8bc7-4894-8d56-064426733f78","system_id":"levelo_inurba_marseille","lat":43.31215,"lon":5.36843,"is_reserved":false,"is_disabled":false,"rental_uris":{"android":"levelo://app?vid=0f5787f4-8bc7-4894-8d56-064426733f78","ios":"levelo://app?vid=0f5787f4-8bc7-4894-8d56-064426733f78"},"vehicle_type_id":"4","last_reported":1766067230,"current_range_meters":6400,"station_id":"ce4bgl92rcd13ifvqbq0","pricing_plan_id":"cebpf4jnsgd1na2vs0mg"},{"bike_id":"60331a34-05ec-4851-9d95-d9fbf5d3ab1f","system_id":"levelo_inurba_marseille","lat":43.26943,"lon":5.40247,"is_reserved":false,"is_disabled":false,"rental_uris":{"android":"levelo://app?vid=60331a34-05ec-4851-9d95-d9fbf5d3ab1f","ios":"levelo://app?vid=60331a34-05ec-4851-9d95-d9fbf5d3ab1f"},"vehicle_type_id":"4","last_reported":1766067230,"current_range_meters":6800,"station_id":"cjm6bp8fraef2m0cb0m0","pricing_plan_id":"cebpf4jnsgd1na2vs0mg"},{"bike_id":"1a1bf77b-85a1-4d50-bfe8-4eb8e28e8ddd","system_id":"levelo_inurba_marseille","lat":43.26577,"lon":5.39044,"is_reserved":false,"is_disabled":false,"rental_uris":{"android":"levelo://app?vid=1a1bf77b-85a1-4d50-bfe8-4eb8e28e8ddd","ios":"levelo://app?vid=1a1bf77b-85a1-4d50-bfe8-4eb8e28e8ddd"},"vehicle_type_id":"4","last_reported":1766067230,"current_range_meters":6800,"station_id":"ce4bhe12rcd13ifvqf30","pricing_plan_id":"cebpf4jnsgd1na2vs0mg"},{"bike_id":"85db6c0a-3845-439c-9efa-2efc303f44c8","system_id":"levelo_inurba_marseille","lat":43.28858,"lon":5.42525,"is_reserved":false,"is_disabled":false,"rental_uris":{"android":"levelo://app?vid=85db6c0a-3845-439c-9efa-2efc303f44c8","ios":"levelo://app?vid=85db6c0a-3845-439c-9efa-2efc303f44c8"},"vehicle_type_id":"4","last_reported":1766067230,"current_range_meters":6800,"station_id":"st_d3b462108ojc7389ooeg","pricing_plan_id":"cebpf4jnsgd1na2vs0mg"},{"bike_id":"88031236-6a40-4d32-a503-adc00e8f1b31","system_id":"levelo_inurba_marseille","lat":43.33767,"lon":5.374479,"is_reserved":false,"is_disabled":false,"rental_uris":{"android":"levelo://app?vid=88031236-6a40-4d32-a503-adc00e8f1b31","ios":"levelo://app?vid=88031236-6a40-4d32-a503-adc00e8f1b31"},"vehicle_type_id":"4","last_reported":1766067230,"current_range_meters":6800,"station_id":"","pricing_plan_id":"cebpf4jnsgd1na2vs0mg"},{"bike_id":"9a737a0a-f019-4a49-9ed2-7657818547dc","system_id":"levelo_inurba_marseille","lat":43.29604,"lon":5.38101,"is_reserved":false,"is_disabled":false,"rental_uris":{"android":"levelo://app?vid=9a737a0a-f019-4a49-9ed2-7657818547dc","ios":"levelo://app?vid=9a737a0a-f019-4a49-9ed2-7657818547dc"},"vehicle_type_id":"4","last_reported":1766067230,"current_range_meters":6800,"station_id":"ce4bgl12rcd13ifvqbo0","pricing_plan_id":"cebpf4jnsgd1na2vs0mg"},{"bike_id":"417ff298-484e-4aa6-bde9-9ac30065618a","system_id":"levelo_inurba_marseille","lat":43.30637,"lon":5.40103,"is_reserved":false,"is_disabled":false,"rental_uris":{"android":"levelo://app?vid=417ff298-484e-4aa6-bde9-9ac30065618a","ios":"levelo://app?vid=417ff298-484e-4aa6-bde9-9ac30065618a"},"vehicle_type_id":"4","last_reported":1766067230,"current_range_meters":6800,"station_id":"ce4bh112rcd13ifvqda0","pricing_plan_id":"cebpf4jnsgd1na2vs0mg"},{"bike_id":"cc178787-4e27-477e-85ac-bb874f1df1de","system_id":"levelo_inurba_marseille","lat":43.2733,"lon":5.41054,"is_reserved":false,"is_disabled":false,"rental_uris":{"android":"levelo://app?vid=cc178787-4e27-477e-85ac-bb874f1df1de","ios":"levelo://app?vid=cc178787-4e27-477e-85ac-bb874f1df1de"},"vehicle_type_id":"4","last_reported":1766067230,"current_range_meters":6800,"station_id":"","pricing_plan_id":"cebpf4jnsgd1na2vs0mg"},{"bike_id":"ff1c3c3b-6b36-400c-8f99-273122a67ef4","system_id":"levelo_inurba_marseille","lat":43.2905,"lon":5.35913,"is_reserved":false,"is_disabled":false,"rental_uris":{"android":"levelo://app?vid=ff1c3c3b-6b36-400c-8f99-273122a67ef4","ios":"levelo://app?vid=ff1c3c3b-6b36-400c-8f99-273122a67ef4"},"vehicle_type_id":"4","last_reported":1766067230,"current_range_meters":6800,"station_id":"ce4bha92rcd13ifvqeg0","pricing_plan_id":"cebpf4jnsgd1na2vs0mg"},{"bike_id":"3bfd6c2a-2e96-4c66-b7ba-58180062dbeb","system_id":"levelo_inurba_marseille","lat":43.29375,"lon":5.37837,"is_reserved":false,"is_disabled":false,"rental_uris":{"android":"levelo://app?vid=3bfd6c2a-2e96-4c66-b7ba-58180062dbeb","ios":"levelo://app?vid=3bfd6c2a-2e96-4c66-b7ba-58180062dbeb"},"vehicle_type_id":"4","last_reported":1766067230,"current_range_meters":7200,"station_id":"ce4bgjh2rcd13ifvqbf0","pricing_plan_id":"cebpf4jnsgd1na2vs0mg"},{"bike_id":"7e16a29b-1fbf-412f-80f7-d54ff217a3bb","system_id":"levelo_inurba_marseille","lat":43.32481,"lon":5.36569,"is_reserved":false,"is_disabled":false,"rental_uris":{"android":"levelo://app?vid=7e16a29b-1fbf-412f-80f7-d54ff217a3bb","ios":"levelo://app?vid=7e16a29b-1fbf-412f-80f7-d54ff217a3bb"},"vehicle_type_id":"4","last_reported":1766067230,"current_range_meters":7200,"station_id":"ce4bhs12rcd13ifvqhvg","pricing_plan_id":"cebpf4jnsgd1na2vs0mg"},{"bike_id":"91c77ff2-3b95-4277-ae31-83f4ff52016e","system_id":"levelo_inurba_marseille","lat":43.30932,"lon":5.40141,"is_reserved":false,"is_disabled":false,"rental_uris":{"android":"levelo://app?vid=91c77ff2-3b95-4277-ae31-83f4ff52016e","ios":"levelo://app?vid=91c77ff2-3b95-4277-ae31-83f4ff52016e"},"vehicle_type_id":"4","last_reported":1766067230,"current_range_meters":7200,"station_id":"ce4bgvp2rcd13ifvqct0","pricing_plan_id":"cebpf4jnsgd1na2vs0mg"},{"bike_id":"b9e289e9-e1d8-4db9-8eeb-d4ae6610e1bb","system_id":"levelo_inurba_marseille","lat":43.288643,"lon":5.425245,"is_reserved":false,"is_disabled":false,"rental_uris":{"android":"levelo://app?vid=b9e289e9-e1d8-4db9-8eeb-d4ae6610e1bb","ios":"levelo://app?vid=b9e289e9-e1d8-4db9-8eeb-d4ae6610e1bb"},"vehicle_type_id":"4","last_reported":1766067230,"current_range_meters":7200,"station_id":"st_d3b462108ojc7389ooeg","pricing_plan_id":"cebpf4jnsgd1na2vs0mg"},{"bike_id":"c6ca5e55-e66f-40f7-accf-0e738c9c802b","system_id":"levelo_inurba_marseille","lat":43.29777,"lon":5.3711,"is_reserved":false,"is_disabled":false,"rental_uris":{"android":"levelo://app?vid=c6ca5e55-e66f-40f7-accf-0e738c9c802b","ios":"levelo://app?vid=c6ca5e55-e66f-40f7-accf-0e738c9c802b"},"vehicle_type_id":"4","last_reported":1766067230,"current_range_meters":7200,"station_id":"ce4bgop2rcd13ifvqc1g","pricing_plan_id":"cebpf4jnsgd1na2vs0mg"},{"bike_id":"50e6eefe-8aea-4054-ab8f-87d6e301ff34","system_id":"levelo_inurba_marseille","lat":43.242969,"lon":5.438283,"is_reserved":false,"is_disabled":false,"rental_uris":{"android":"levelo://app?vid=50e6eefe-8aea-4054-ab8f-87d6e301ff34","ios":"levelo://app?vid=50e6eefe-8aea-4054-ab8f-87d6e301ff34"},"vehicle_type_id":"4","last_reported":1766067230,"current_range_meters":7200,"station_id":"","pricing_plan_id":"cebpf4jnsgd1na2vs0mg"},{"bike_id":"a1ac0ba7-1483-464e-9caa-755fc64f46a4","system_id":"levelo_inurba_marseille","lat":43.24055,"lon":5.37843,"is_reserved":false,"is_disabled":false,"rental_uris":{"android":"levelo://app?vid=a1ac0ba7-1483-464e-9caa-755fc64f46a4","ios":"levelo://app?vid=a1ac0ba7-1483-464e-9caa-755fc64f46a4"},"vehicle_type_id":"4","last_reported":1766067230,"current_range_meters":7200,"station_id":"","pricing_plan_id":"cebpf4jnsgd1na2vs0mg"},{"bike_id":"bdbcadfa-3273-463b-927e-fefe51c8dd05","system_id":"levelo_inurba_marseille","lat":43.29603,"lon":5.37719,"is_reserved":false,"is_disabled":false,"rental_uris":{"android":"levelo://app?vid=bdbcadfa-3273-463b-927e-fefe51c8dd05","ios":"levelo://app?vid=bdbcadfa-3273-463b-927e-fefe51c8dd05"},"vehicle_type_id":"4","last_reported":1766067230,"current_range_meters":7200,"station_id":"ce4bgi92rcd13ifvqb90","pricing_plan_id":"cebpf4jnsgd1na2vs0mg"},{"bike_id":"05c11225-843a-47cc-ae7a-625ff555981b","system_id":"levelo_inurba_marseille","lat":43.2379,"lon":5.36636,"is_reserved":false,"is_disabled":false,"rental_uris":{"android":"levelo://app?vid=05c11225-843a-47cc-ae7a-625ff555981b","ios":"levelo://app?vid=05c11225-843a-47cc-ae7a-625ff555981b"},"vehicle_type_id":"4","last_reported":1766067230,"current_range_meters":8000,"station_id":"st_d3nk18o9ro0c73en2l3g","pricing_plan_id":"cebpf4jnsgd1na2vs0mg"},{"bike_id":"2804a5d3-faa8-4e3b-a458-ce91cd4919af","system_id":"levelo_inurba_marseille","lat":43.292249,"lon":5.360657,"is_reserved":false,"is_disabled":false,"rental_uris":{"android":"levelo://app?vid=2804a5d3-faa8-4e3b-a458-ce91cd4919af","ios":"levelo://app?vid=2804a5d3-faa8-4e3b-a458-ce91cd4919af"},"vehicle_type_id":"4","last_reported":1766067230,"current_range_meters":8000,"station_id":"ce4bhbh2rcd13ifvqeqg","pricing_plan_id":"cebpf4jnsgd1na2vs0mg"},{"bike_id":"07102bbf-8e43-4cc8-abfb-b7bffaf00185","system_id":"levelo_inurba_marseille","lat":43.29384,"lon":5.36276,"is_reserved":false,"is_disabled":false,"rental_uris":{"android":"levelo://app?vid=07102bbf-8e43-4cc8-abfb-b7bffaf00185","ios":"levelo://app?vid=07102bbf-8e43-4cc8-abfb-b7bffaf00185"},"vehicle_type_id":"4","last_reported":1766067230,"current_range_meters":8000,"station_id":"","pricing_plan_id":"cebpf4jnsgd1na2vs0mg"},{"bike_id":"c7e5daf3-a6b0-4ffc-8e95-134c47362fa1","system_id":"levelo_inurba_marseille","lat":43.30119,"lon":5.36858,"is_reserved":false,"is_disabled":false,"rental_uris":{"android":"levelo://app?vid=c7e5daf3-a6b0-4ffc-8e95-134c47362fa1","ios":"levelo://app?vid=c7e5daf3-a6b0-4ffc-8e95-134c47362fa1"},"vehicle_type_id":"4","last_reported":1766067230,"current_range_meters":8000,"station_id":"","pricing_plan_id":"cebpf4jnsgd1na2vs0mg"},{"bike_id":"9cb52630-f8b4-4ff3-9ddb-fd021bf763e2","system_id":"levelo_inurba_marseille","lat":43.29872,"lon":5.37173,"is_reserved":false,"is_disabled":false,"rental_uris":{"android":"levelo://app?vid=9cb52630-f8b4-4ff3-9ddb-fd021bf763e2","ios":"levelo://app?vid=9cb52630-f8b4-4ff3-9ddb-fd021bf763e2"},"vehicle_type_id":"4","last_reported":1766067230,"current_range_meters":8000,"station_id":"","pricing_plan_id":"cebpf4jnsgd1na2vs0mg"},{"bike_id":"5c58f512-48c4-429a-99dd-26f455ed726f","system_id":"levelo_inurba_marseille","lat":43.337944,"lon":5.374329,"is_reserved":false,"is_disabled":false,"rental_uris":{"android":"levelo://app?vid=5c58f512-48c4-429a-99dd-26f455ed726f","ios":"levelo://app?vid=5c58f512-48c4-429a-99dd-26f455ed726f"},"vehicle_type_id":"4","last_reported":1766067230,"current_range_meters":8000,"station_id":"","pricing_plan_id":"cebpf4jnsgd1na2vs0mg"},{"bike_id":"2823b4ca-2c59-4063-b2e9-c35cc4559fe6","system_id":"levelo_inurba_marseille","lat":43.28205,"lon":5.39062,"is_reserved":false,"is_disabled":false,"rental_uris":{"android":"levelo://app?vid=2823b4ca-2c59-4063-b2e9-c35cc4559fe6","ios":"levelo://app?vid=2823b4ca-2c59-4063-b2e9-c35cc4559fe6"},"vehicle_type_id":"4","last_reported":1766067230,"current_range_meters":8400,"station_id":"ce4bhn92rcd13ifvqgsg","pricing_plan_id":"cebpf4jnsgd1na2vs0mg"},{"bike_id":"d34df350-ece2-4189-8693-a2aaec5c10c7","system_id":"levelo_inurba_marseille","lat":43.27928,"lon":5.41039,"is_reserved":false,"is_disabled":false,"rental_uris":{"android":"levelo://app?vid=d34df350-ece2-4189-8693-a2aaec5c10c7","ios":"levelo://app?vid=d34df350-ece2-4189-8693-a2aaec5c10c7"},"vehicle_type_id":"4","last_reported":1766067230,"current_range_meters":8400,"station_id":"ce4bhnp2rcd13ifvqh0g","pricing_plan_id":"cebpf4jnsgd1na2vs0mg"},{"bike_id":"e68edb33-f119-4668-a648-2630e687f520","system_id":"levelo_inurba_marseille","lat":43.29943,"lon":5.37459,"is_reserved":false,"is_disabled":false,"rental_uris":{"android":"levelo://app?vid=e68edb33-f119-4668-a648-2630e687f520","ios":"levelo://app?vid=e68edb33-f119-4668-a648-2630e687f520"},"vehicle_type_id":"4","last_reported":1766067230,"current_range_meters":8400,"station_id":"ce4bgjh2rcd13ifvqbg0","pricing_plan_id":"cebpf4jnsgd1na2vs0mg"},{"bike_id":"63f9ea4f-27a6-4fc8-9c24-c0490f1e37d6","system_id":"levelo_inurba_marseille","lat":43.29709,"lon":5.38111,"is_reserved":false,"is_disabled":false,"rental_uris":{"android":"levelo://app?vid=63f9ea4f-27a6-4fc8-9c24-c0490f1e37d6","ios":"levelo://app?vid=63f9ea4f-27a6-4fc8-9c24-c0490f1e37d6"},"vehicle_type_id":"4","last_reported":1766067230,"current_range_meters":8400,"station_id":"","pricing_plan_id":"cebpf4jnsgd1na2vs0mg"},{"bike_id":"bd6e3456-1d79-4a46-8638-9f36c62b99d3","system_id":"levelo_inurba_marseille","lat":43.25582,"lon":5.38254,"is_reserved":false,"is_disabled":false,"rental_uris":{"android":"levelo://app?vid=bd6e3456-1d79-4a46-8638-9f36c62b99d3","ios":"levelo://app?vid=bd6e3456-1d79-4a46-8638-9f36c62b99d3"},"vehicle_type_id":"4","last_reported":1766067230,"current_range_meters":8400,"station_id":"ce4bhih2rcd13ifvqfs0","pricing_plan_id":"cebpf4jnsgd1na2vs0mg"},{"bike_id":"03d973ff-b149-44f9-be40-0898b2d50963","system_id":"levelo_inurba_marseille","lat":43.30174,"lon":5.38079,"is_reserved":false,"is_disabled":false,"rental_uris":{"android":"levelo://app?vid=03d973ff-b149-44f9-be40-0898b2d50963","ios":"levelo://app?vid=03d973ff-b149-44f9-be40-0898b2d50963"},"vehicle_type_id":"4","last_reported":1766067230,"current_range_meters":8800,"station_id":"ce4bgjp2rcd13ifvqbh0","pricing_plan_id":"cebpf4jnsgd1na2vs0mg"},{"bike_id":"00fd2dcb-6faf-4c7a-8c99-525909084655","system_id":"levelo_inurba_marseille","lat":43.28143,"lon":5.42635,"is_reserved":false,"is_disabled":true,"rental_uris":{"android":"levelo://app?vid=00fd2dcb-6faf-4c7a-8c99-525909084655","ios":"levelo://app?vid=00fd2dcb-6faf-4c7a-8c99-525909084655"},"vehicle_type_id":"4","last_reported":1766067230,"current_range_meters":8800,"station_id":"ce4bhnh2rcd13ifvqgug","pricing_plan_id":"cebpf4jnsgd1na2vs0mg"},{"bike_id":"dadfa29a-27d5-4e26-a7b0-c5625b56c265","system_id":"levelo_inurba_marseille","lat":43.28481,"lon":5.384189,"is_reserved":false,"is_disabled":false,"rental_uris":{"android":"levelo://app?vid=dadfa29a-27d5-4e26-a7b0-c5625b56c265","ios":"levelo://app?vid=dadfa29a-27d5-4e26-a7b0-c5625b56c265"},"vehicle_type_id":"4","last_reported":1766067230,"current_range_meters":8800,"station_id":"","pricing_plan_id":"cebpf4jnsgd1na2vs0mg"},{"bike_id":"dd949de6-c853-484c-8147-b97600cc921b","system_id":"levelo_inurba_marseille","lat":43.24388,"lon":5.37056,"is_reserved":false,"is_disabled":false,"rental_uris":{"android":"levelo://app?vid=dd949de6-c853-484c-8147-b97600cc921b","ios":"levelo://app?vid=dd949de6-c853-484c-8147-b97600cc921b"},"vehicle_type_id":"4","last_reported":1766067230,"current_range_meters":8800,"station_id":"ce4bhhh2rcd13ifvqfk0","pricing_plan_id":"cebpf4jnsgd1na2vs0mg"},{"bike_id":"c1a13173-0834-4842-8f7a-134dbbd54b34","system_id":"levelo_inurba_marseille","lat":43.29601,"lon":5.381,"is_reserved":false,"is_disabled":false,"rental_uris":{"android":"levelo://app?vid=c1a13173-0834-4842-8f7a-134dbbd54b34","ios":"levelo://app?vid=c1a13173-0834-4842-8f7a-134dbbd54b34"},"vehicle_type_id":"4","last_reported":1766067230,"current_range_meters":8800,"station_id":"ce4bgl12rcd13ifvqbo0","pricing_plan_id":"cebpf4jnsgd1na2vs0mg"},{"bike_id":"a9adc8bf-52f1-4c31-a2de-42743dd086bf","system_id":"levelo_inurba_marseille","lat":43.33723,"lon":5.3748,"is_reserved":false,"is_disabled":false,"rental_uris":{"android":"levelo://app?vid=a9adc8bf-52f1-4c31-a2de-42743dd086bf","ios":"levelo://app?vid=a9adc8bf-52f1-4c31-a2de-42743dd086bf"},"vehicle_type_id":"4","last_reported":1766067230,"current_range_meters":8800,"station_id":"","pricing_plan_id":"cebpf4jnsgd1na2vs0mg"},{"bike_id":"e83b8d17-76e6-4834-acc9-aef4df9c5f88","system_id":"levelo_inurba_marseille","lat":43.265553,"lon":5.40482,"is_reserved":false,"is_disabled":false,"rental_uris":{"android":"levelo://app?vid=e83b8d17-76e6-4834-acc9-aef4df9c5f88","ios":"levelo://app?vid=e83b8d17-76e6-4834-acc9-aef4df9c5f88"},"vehicle_type_id":"4","last_reported":1766067230,"current_range_meters":8800,"station_id":"ce4bh4p2rcd13ifvqe1g","pricing_plan_id":"cebpf4jnsgd1na2vs0mg"},{"bike_id":"f173e5a9-6748-47b5-be76-d440d2eba6ab","system_id":"levelo_inurba_marseille","lat":43.24542,"lon":5.3954,"is_reserved":false,"is_disabled":false,"rental_uris":{"android":"levelo://app?vid=f173e5a9-6748-47b5-be76-d440d2eba6ab","ios":"levelo://app?vid=f173e5a9-6748-47b5-be76-d440d2eba6ab"},"vehicle_type_id":"4","last_reported":1766067230,"current_range_meters":8800,"station_id":"ce4bhlp2rcd13ifvqgjg","pricing_plan_id":"cebpf4jnsgd1na2vs0mg"},{"bike_id":"cdb567bc-196e-49d5-916c-b15d1d71e972","system_id":"levelo_inurba_marseille","lat":43.24663,"lon":5.3817,"is_reserved":false,"is_disabled":false,"rental_uris":{"android":"levelo://app?vid=cdb567bc-196e-49d5-916c-b15d1d71e972","ios":"levelo://app?vid=cdb567bc-196e-49d5-916c-b15d1d71e972"},"vehicle_type_id":"4","last_reported":1766067230,"current_range_meters":8800,"station_id":"ce4bhih2rcd13ifvqfr0","pricing_plan_id":"cebpf4jnsgd1na2vs0mg"},{"bike_id":"841d74f8-3712-4553-a3ee-de453401a216","system_id":"levelo_inurba_marseille","lat":43.28056,"lon":5.393773,"is_reserved":false,"is_disabled":false,"rental_uris":{"android":"levelo://app?vid=841d74f8-3712-4553-a3ee-de453401a216","ios":"levelo://app?vid=841d74f8-3712-4553-a3ee-de453401a216"},"vehicle_type_id":"4","last_reported":1766067230,"current_range_meters":8800,"station_id":"","pricing_plan_id":"cebpf4jnsgd1na2vs0mg"},{"bike_id":"18693ba9-e70c-4712-b809-f92059e0abc5","system_id":"levelo_inurba_marseille","lat":43.25242,"lon":5.37984,"is_reserved":false,"is_disabled":false,"rental_uris":{"android":"levelo://app?vid=18693ba9-e70c-4712-b809-f92059e0abc5","ios":"levelo://app?vid=18693ba9-e70c-4712-b809-f92059e0abc5"},"vehicle_type_id":"4","last_reported":1766067230,"current_range_meters":8800,"station_id":"","pricing_plan_id":"cebpf4jnsgd1na2vs0mg"},{"bike_id":"c986acb9-3b91-4c05-a291-855a8bfaeaa5","system_id":"levelo_inurba_marseille","lat":43.30918,"lon":5.36864,"is_reserved":false,"is_disabled":false,"rental_uris":{"android":"levelo://app?vid=c986acb9-3b91-4c05-a291-855a8bfaeaa5","ios":"levelo://app?vid=c986acb9-3b91-4c05-a291-855a8bfaeaa5"},"vehicle_type_id":"4","last_reported":1766067230,"current_range_meters":9200,"station_id":"ce4bgn92rcd13ifvqbvg","pricing_plan_id":"cebpf4jnsgd1na2vs0mg"},{"bike_id":"ffdeb232-3eba-4cca-8280-112e2506557f","system_id":"levelo_inurba_marseille","lat":43.30186,"lon":5.3663,"is_reserved":false,"is_disabled":false,"rental_uris":{"android":"levelo://app?vid=ffdeb232-3eba-4cca-8280-112e2506557f","ios":"levelo://app?vid=ffdeb232-3eba-4cca-8280-112e2506557f"},"vehicle_type_id":"4","last_reported":1766067230,"current_range_meters":9200,"station_id":"ce4bgrh2rcd13ifvqc8g","pricing_plan_id":"cebpf4jnsgd1na2vs0mg"},{"bike_id":"18e325b2-92f2-4991-9321-b31333b419cf","system_id":"levelo_inurba_marseille","lat":43.30204,"lon":5.39466,"is_reserved":false,"is_disabled":false,"rental_uris":{"android":"levelo://app?vid=18e325b2-92f2-4991-9321-b31333b419cf","ios":"levelo://app?vid=18e325b2-92f2-4991-9321-b31333b419cf"},"vehicle_type_id":"4","last_reported":1766067230,"current_range_meters":9200,"station_id":"ce4bh0p2rcd13ifvqd70","pricing_plan_id":"cebpf4jnsgd1na2vs0mg"},{"bike_id":"9cd0b5cd-982d-46c9-b94d-972458c0583a","system_id":"levelo_inurba_marseille","lat":43.306257,"lon":5.373717,"is_reserved":false,"is_disabled":false,"rental_uris":{"android":"levelo://app?vid=9cd0b5cd-982d-46c9-b94d-972458c0583a","ios":"levelo://app?vid=9cd0b5cd-982d-46c9-b94d-972458c0583a"},"vehicle_type_id":"4","last_reported":1766067230,"current_range_meters":9200,"station_id":"","pricing_plan_id":"cebpf4jnsgd1na2vs0mg"},{"bike_id":"a474f569-93b6-408e-90c8-4c5a2064fccb","system_id":"levelo_inurba_marseille","lat":43.25004,"lon":5.38912,"is_reserved":false,"is_disabled":false,"rental_uris":{"android":"levelo://app?vid=a474f569-93b6-408e-90c8-4c5a2064fccb","ios":"levelo://app?vid=a474f569-93b6-408e-90c8-4c5a2064fccb"},"vehicle_type_id":"4","last_reported":1766067230,"current_range_meters":9200,"station_id":"ce4bhgp2rcd13ifvqfd0","pricing_plan_id":"cebpf4jnsgd1na2vs0mg"},{"bike_id":"ecf301cd-5b51-4fd9-bc00-bcfed897ad29","system_id":"levelo_inurba_marseille","lat":43.29574,"lon":5.3752,"is_reserved":false,"is_disabled":false,"rental_uris":{"android":"levelo://app?vid=ecf301cd-5b51-4fd9-bc00-bcfed897ad29","ios":"levelo://app?vid=ecf301cd-5b51-4fd9-bc00-bcfed897ad29"},"vehicle_type_id":"4","last_reported":1766067230,"current_range_meters":9200,"station_id":"ce4bgh92rcd13ifvqb50","pricing_plan_id":"cebpf4jnsgd1na2vs0mg"},{"bike_id":"dd1f78ce-d5e8-4572-945e-bd9bfa04432b","system_id":"levelo_inurba_marseille","lat":43.30599,"lon":5.37239,"is_reserved":false,"is_disabled":false,"rental_uris":{"android":"levelo://app?vid=dd1f78ce-d5e8-4572-945e-bd9bfa04432b","ios":"levelo://app?vid=dd1f78ce-d5e8-4572-945e-bd9bfa04432b"},"vehicle_type_id":"4","last_reported":1766067230,"current_range_meters":9200,"station_id":"ce4bgqh2rcd13ifvqc4g","pricing_plan_id":"cebpf4jnsgd1na2vs0mg"},{"bike_id":"a0a1e7b3-b896-40ca-a15a-f7fd69a5dac4","system_id":"levelo_inurba_marseille","lat":43.24074,"lon":5.37756,"is_reserved":false,"is_disabled":false,"rental_uris":{"android":"levelo://app?vid=a0a1e7b3-b896-40ca-a15a-f7fd69a5dac4","ios":"levelo://app?vid=a0a1e7b3-b896-40ca-a15a-f7fd69a5dac4"},"vehicle_type_id":"4","last_reported":1766067230,"current_range_meters":9200,"station_id":"ce4bhnp2rcd13ifvqgvg","pricing_plan_id":"cebpf4jnsgd1na2vs0mg"},{"bike_id":"7ab85ca7-5479-4fa9-97a7-4b6e66aa28e6","system_id":"levelo_inurba_marseille","lat":43.26067,"lon":5.39397,"is_reserved":false,"is_disabled":false,"rental_uris":{"android":"levelo://app?vid=7ab85ca7-5479-4fa9-97a7-4b6e66aa28e6","ios":"levelo://app?vid=7ab85ca7-5479-4fa9-97a7-4b6e66aa28e6"},"vehicle_type_id":"4","last_reported":1766067230,"current_range_meters":9200,"station_id":"ce4bhh92rcd13ifvqfj0","pricing_plan_id":"cebpf4jnsgd1na2vs0mg"},{"bike_id":"5614cec6-e3b0-4365-88b4-7cc34436ed87","system_id":"levelo_inurba_marseille","lat":43.30316,"lon":5.37705,"is_reserved":false,"is_disabled":false,"rental_uris":{"android":"levelo://app?vid=5614cec6-e3b0-4365-88b4-7cc34436ed87","ios":"levelo://app?vid=5614cec6-e3b0-4365-88b4-7cc34436ed87"},"vehicle_type_id":"4","last_reported":1766067230,"current_range_meters":9200,"station_id":"ce4bguh2rcd13ifvqcj0","pricing_plan_id":"cebpf4jnsgd1na2vs0mg"},{"bike_id":"20716b40-09be-44d5-978b-3c6f70da4533","system_id":"levelo_inurba_marseille","lat":43.29841,"lon":5.36272,"is_reserved":false,"is_disabled":false,"rental_uris":{"android":"levelo://app?vid=20716b40-09be-44d5-978b-3c6f70da4533","ios":"levelo://app?vid=20716b40-09be-44d5-978b-3c6f70da4533"},"vehicle_type_id":"4","last_reported":1766067230,"current_range_meters":9600,"station_id":"ce4bgpp2rcd13ifvqc3g","pricing_plan_id":"cebpf4jnsgd1na2vs0mg"},{"bike_id":"ae5dc859-80a2-4096-841b-24efe62cfd9c","system_id":"levelo_inurba_marseille","lat":43.30909,"lon":5.36849,"is_reserved":false,"is_disabled":false,"rental_uris":{"android":"levelo://app?vid=ae5dc859-80a2-4096-841b-24efe62cfd9c","ios":"levelo://app?vid=ae5dc859-80a2-4096-841b-24efe62cfd9c"},"vehicle_type_id":"4","last_reported":1766067230,"current_range_meters":9600,"station_id":"ce4bgn92rcd13ifvqbvg","pricing_plan_id":"cebpf4jnsgd1na2vs0mg"},{"bike_id":"0f033089-1424-4fb4-b3dd-976abb0af258","system_id":"levelo_inurba_marseille","lat":43.24069,"lon":5.37733,"is_reserved":false,"is_disabled":false,"rental_uris":{"android":"levelo://app?vid=0f033089-1424-4fb4-b3dd-976abb0af258","ios":"levelo://app?vid=0f033089-1424-4fb4-b3dd-976abb0af258"},"vehicle_type_id":"4","last_reported":1766067230,"current_range_meters":9600,"station_id":"ce4bhnp2rcd13ifvqgvg","pricing_plan_id":"cebpf4jnsgd1na2vs0mg"},{"bike_id":"444f71b8-a38e-4539-b803-38dd71b427da","system_id":"levelo_inurba_marseille","lat":43.290178,"lon":5.381239,"is_reserved":false,"is_disabled":false,"rental_uris":{"android":"levelo://app?vid=444f71b8-a38e-4539-b803-38dd71b427da","ios":"levelo://app?vid=444f71b8-a38e-4539-b803-38dd71b427da"},"vehicle_type_id":"4","last_reported":1766067230,"current_range_meters":10000,"station_id":"ce4bh4p2rcd13ifvqe1g","pricing_plan_id":"cebpf4jnsgd1na2vs0mg"},{"bike_id":"2662ceb0-290d-4ce4-b329-341d7f8526ec","system_id":"levelo_inurba_marseille","lat":43.245555,"lon":5.395013,"is_reserved":false,"is_disabled":false,"rental_uris":{"android":"levelo://app?vid=2662ceb0-290d-4ce4-b329-341d7f8526ec","ios":"levelo://app?vid=2662ceb0-290d-4ce4-b329-341d7f8526ec"},"vehicle_type_id":"4","last_reported":1766067230,"current_range_meters":10000,"station_id":"","pricing_plan_id":"cebpf4jnsgd1na2vs0mg"},{"bike_id":"3cde007c-a409-4597-91e7-ca2461274ad1","system_id":"levelo_inurba_marseille","lat":43.26563,"lon":5.40219,"is_reserved":false,"is_disabled":false,"rental_uris":{"android":"levelo://app?vid=3cde007c-a409-4597-91e7-ca2461274ad1","ios":"levelo://app?vid=3cde007c-a409-4597-91e7-ca2461274ad1"},"vehicle_type_id":"4","last_reported":1766067230,"current_range_meters":10000,"station_id":"","pricing_plan_id":"cebpf4jnsgd1na2vs0mg"},{"bike_id":"a24ee5b6-572d-4941-9ef3-a9d89c28bd82","system_id":"levelo_inurba_marseille","lat":43.30549,"lon":5.36702,"is_reserved":false,"is_disabled":false,"rental_uris":{"android":"levelo://app?vid=a24ee5b6-572d-4941-9ef3-a9d89c28bd82","ios":"levelo://app?vid=a24ee5b6-572d-4941-9ef3-a9d89c28bd82"},"vehicle_type_id":"4","last_reported":1766067230,"current_range_meters":10000,"station_id":"ce4bgrp2rcd13ifvqc9g","pricing_plan_id":"cebpf4jnsgd1na2vs0mg"},{"bike_id":"7a217e04-e527-4f4b-ace2-648f28f70b0e","system_id":"levelo_inurba_marseille","lat":43.25576,"lon":5.3823,"is_reserved":false,"is_disabled":false,"rental_uris":{"android":"levelo://app?vid=7a217e04-e527-4f4b-ace2-648f28f70b0e","ios":"levelo://app?vid=7a217e04-e527-4f4b-ace2-648f28f70b0e"},"vehicle_type_id":"4","last_reported":1766067230,"current_range_meters":10000,"station_id":"ce4bhih2rcd13ifvqfs0","pricing_plan_id":"cebpf4jnsgd1na2vs0mg"},{"bike_id":"f7f5c04a-22b5-4669-9293-4e0da7df3812","system_id":"levelo_inurba_marseille","lat":43.30118,"lon":5.39857,"is_reserved":false,"is_disabled":false,"rental_uris":{"android":"levelo://app?vid=f7f5c04a-22b5-4669-9293-4e0da7df3812","ios":"levelo://app?vid=f7f5c04a-22b5-4669-9293-4e0da7df3812"},"vehicle_type_id":"4","last_reported":1766067230,"current_range_meters":10000,"station_id":"ce4bh0h2rcd13ifvqd40","pricing_plan_id":"cebpf4jnsgd1na2vs0mg"},{"bike_id":"e3e53fe2-9141-448c-bd17-d451259458d8","system_id":"levelo_inurba_marseille","lat":43.24066,"lon":5.3776,"is_reserved":false,"is_disabled":false,"rental_uris":{"android":"levelo://app?vid=e3e53fe2-9141-448c-bd17-d451259458d8","ios":"levelo://app?vid=e3e53fe2-9141-448c-bd17-d451259458d8"},"vehicle_type_id":"4","last_reported":1766067230,"current_range_meters":10000,"station_id":"ce4bhnp2rcd13ifvqgvg","pricing_plan_id":"cebpf4jnsgd1na2vs0mg"},{"bike_id":"77dab691-c6f9-433b-aa90-082c7a8f6c6d","system_id":"levelo_inurba_marseille","lat":43.23791,"lon":5.36634,"is_reserved":false,"is_disabled":false,"rental_uris":{"android":"levelo://app?vid=77dab691-c6f9-433b-aa90-082c7a8f6c6d","ios":"levelo://app?vid=77dab691-c6f9-433b-aa90-082c7a8f6c6d"},"vehicle_type_id":"4","last_reported":1766067230,"current_range_meters":10000,"station_id":"st_d3nk18o9ro0c73en2l3g","pricing_plan_id":"cebpf4jnsgd1na2vs0mg"},{"bike_id":"1d959034-8c3b-4194-8f03-ba31b683013e","system_id":"levelo_inurba_marseille","lat":43.33538,"lon":5.37468,"is_reserved":false,"is_disabled":false,"rental_uris":{"android":"levelo://app?vid=1d959034-8c3b-4194-8f03-ba31b683013e","ios":"levelo://app?vid=1d959034-8c3b-4194-8f03-ba31b683013e"},"vehicle_type_id":"4","last_reported":1766067230,"current_range_meters":10000,"station_id":"st_d46tts09ee8s73dlu43g","pricing_plan_id":"cebpf4jnsgd1na2vs0mg"},{"bike_id":"237819cf-461f-4af5-a45e-0d37dcef7b8b","system_id":"levelo_inurba_marseille","lat":43.292915,"lon":5.376937,"is_reserved":false,"is_disabled":false,"rental_uris":{"android":"levelo://app?vid=237819cf-461f-4af5-a45e-0d37dcef7b8b","ios":"levelo://app?vid=237819cf-461f-4af5-a45e-0d37dcef7b8b"},"vehicle_type_id":"4","last_reported":1766067230,"current_range_meters":10000,"station_id":"ce4bgi12rcd13ifvqb80","pricing_plan_id":"cebpf4jnsgd1na2vs0mg"},{"bike_id":"63f2a6e5-fe2c-4d66-8246-b5377cabfb10","system_id":"levelo_inurba_marseille","lat":43.27658,"lon":5.38947,"is_reserved":false,"is_disabled":false,"rental_uris":{"android":"levelo://app?vid=63f2a6e5-fe2c-4d66-8246-b5377cabfb10","ios":"levelo://app?vid=63f2a6e5-fe2c-4d66-8246-b5377cabfb10"},"vehicle_type_id":"4","last_reported":1766067230,"current_range_meters":10800,"station_id":"","pricing_plan_id":"cebpf4jnsgd1na2vs0mg"},{"bike_id":"64f89ee4-d340-4d44-b767-ad9b14888bc1","system_id":"levelo_inurba_marseille","lat":43.26946,"lon":5.3863,"is_reserved":false,"is_disabled":false,"rental_uris":{"android":"levelo://app?vid=64f89ee4-d340-4d44-b767-ad9b14888bc1","ios":"levelo://app?vid=64f89ee4-d340-4d44-b767-ad9b14888bc1"},"vehicle_type_id":"4","last_reported":1766067230,"current_range_meters":10800,"station_id":"ce4bhh92rcd13ifvqfh0","pricing_plan_id":"cebpf4jnsgd1na2vs0mg"},{"bike_id":"7e5e3878-901e-4cf9-bd85-774bfec7564a","system_id":"levelo_inurba_marseille","lat":43.310686,"lon":5.371811,"is_reserved":false,"is_disabled":false,"rental_uris":{"android":"levelo://app?vid=7e5e3878-901e-4cf9-bd85-774bfec7564a","ios":"levelo://app?vid=7e5e3878-901e-4cf9-bd85-774bfec7564a"},"vehicle_type_id":"4","last_reported":1766067230,"current_range_meters":10800,"station_id":"st_d4kl2rp97mjs73e7tdfg","pricing_plan_id":"cebpf4jnsgd1na2vs0mg"},{"bike_id":"81508f0a-e327-4705-ae72-228165570b37","system_id":"levelo_inurba_marseille","lat":43.25096,"lon":5.38976,"is_reserved":false,"is_disabled":false,"rental_uris":{"android":"levelo://app?vid=81508f0a-e327-4705-ae72-228165570b37","ios":"levelo://app?vid=81508f0a-e327-4705-ae72-228165570b37"},"vehicle_type_id":"4","last_reported":1766067230,"current_range_meters":10800,"station_id":"","pricing_plan_id":"cebpf4jnsgd1na2vs0mg"},{"bike_id":"d530aabd-67d9-4ce5-a96c-8278143245ac","system_id":"levelo_inurba_marseille","lat":43.290005,"lon":5.356092,"is_reserved":false,"is_disabled":false,"rental_uris":{"android":"levelo://app?vid=d530aabd-67d9-4ce5-a96c-8278143245ac","ios":"levelo://app?vid=d530aabd-67d9-4ce5-a96c-8278143245ac"},"vehicle_type_id":"4","last_reported":1766067230,"current_range_meters":10800,"station_id":"ce4bhb92rcd13ifvqen0","pricing_plan_id":"cebpf4jnsgd1na2vs0mg"},{"bike_id":"11f01633-1467-48d4-a58d-38bd78112852","system_id":"levelo_inurba_marseille","lat":43.27545,"lon":5.38438,"is_reserved":false,"is_disabled":false,"rental_uris":{"android":"levelo://app?vid=11f01633-1467-48d4-a58d-38bd78112852","ios":"levelo://app?vid=11f01633-1467-48d4-a58d-38bd78112852"},"vehicle_type_id":"4","last_reported":1766067230,"current_range_meters":10800,"station_id":"ce4bhh92rcd13ifvqfi0","pricing_plan_id":"cebpf4jnsgd1na2vs0mg"},{"bike_id":"f87a7598-e6b9-4feb-a6e3-d98d4acd6941","system_id":"levelo_inurba_marseille","lat":43.24174,"lon":5.36407,"is_reserved":false,"is_disabled":false,"rental_uris":{"android":"levelo://app?vid=f87a7598-e6b9-4feb-a6e3-d98d4acd6941","ios":"levelo://app?vid=f87a7598-e6b9-4feb-a6e3-d98d4acd6941"},"vehicle_type_id":"4","last_reported":1766067230,"current_range_meters":10800,"station_id":"cpo36qri1sfpv3e86is0","pricing_plan_id":"cebpf4jnsgd1na2vs0mg"},{"bike_id":"9c10a177-9935-4a1a-982e-4841575bfa35","system_id":"levelo_inurba_marseille","lat":43.286132,"lon":5.35107,"is_reserved":false,"is_disabled":false,"rental_uris":{"android":"levelo://app?vid=9c10a177-9935-4a1a-982e-4841575bfa35","ios":"levelo://app?vid=9c10a177-9935-4a1a-982e-4841575bfa35"},"vehicle_type_id":"4","last_reported":1766067230,"current_range_meters":10800,"station_id":"ce4bhb92rcd13ifvqen0","pricing_plan_id":"cebpf4jnsgd1na2vs0mg"},{"bike_id":"cd4b798f-ef73-462b-a871-c0e46f70c7b6","system_id":"levelo_inurba_marseille","lat":43.29714,"lon":5.37707,"is_reserved":false,"is_disabled":false,"rental_uris":{"android":"levelo://app?vid=cd4b798f-ef73-462b-a871-c0e46f70c7b6","ios":"levelo://app?vid=cd4b798f-ef73-462b-a871-c0e46f70c7b6"},"vehicle_type_id":"4","last_reported":1766067230,"current_range_meters":11200,"station_id":"ce4bgkh2rcd13ifvqbl0","pricing_plan_id":"cebpf4jnsgd1na2vs0mg"},{"bike_id":"50bb104f-bdbe-4eab-bd19-f33b1d1b4be5","system_id":"levelo_inurba_marseille","lat":43.253355,"lon":5.421733,"is_reserved":false,"is_disabled":false,"rental_uris":{"android":"levelo://app?vid=50bb104f-bdbe-4eab-bd19-f33b1d1b4be5","ios":"levelo://app?vid=50bb104f-bdbe-4eab-bd19-f33b1d1b4be5"},"vehicle_type_id":"4","last_reported":1766067230,"current_range_meters":11200,"station_id":"st_d2m65c5bi1j21697t3ng","pricing_plan_id":"cebpf4jnsgd1na2vs0mg"},{"bike_id":"345527b9-e5b3-41dc-86fa-0725a99c666a","system_id":"levelo_inurba_marseille","lat":43.32073,"lon":5.37317,"is_reserved":false,"is_disabled":false,"rental_uris":{"android":"levelo://app?vid=345527b9-e5b3-41dc-86fa-0725a99c666a","ios":"levelo://app?vid=345527b9-e5b3-41dc-86fa-0725a99c666a"},"vehicle_type_id":"4","last_reported":1766067230,"current_range_meters":11200,"station_id":"","pricing_plan_id":"cebpf4jnsgd1na2vs0mg"},{"bike_id":"c8ae05dc-be68-4290-a207-222d34083f3e","system_id":"levelo_inurba_marseille","lat":43.28306,"lon":5.38919,"is_reserved":false,"is_disabled":false,"rental_uris":{"android":"levelo://app?vid=c8ae05dc-be68-4290-a207-222d34083f3e","ios":"levelo://app?vid=c8ae05dc-be68-4290-a207-222d34083f3e"},"vehicle_type_id":"4","last_reported":1766067230,"current_range_meters":11200,"station_id":"","pricing_plan_id":"cebpf4jnsgd1na2vs0mg"},{"bike_id":"fe023a00-195e-468b-afd1-a308711e61cf","system_id":"levelo_inurba_marseille","lat":43.27666,"lon":5.38933,"is_reserved":false,"is_disabled":false,"rental_uris":{"android":"levelo://app?vid=fe023a00-195e-468b-afd1-a308711e61cf","ios":"levelo://app?vid=fe023a00-195e-468b-afd1-a308711e61cf"},"vehicle_type_id":"4","last_reported":1766067230,"current_range_meters":11200,"station_id":"ce4bhi12rcd13ifvqfo0","pricing_plan_id":"cebpf4jnsgd1na2vs0mg"},{"bike_id":"51f43a5f-2a5a-4c8a-847c-1c5481be0271","system_id":"levelo_inurba_marseille","lat":43.30801,"lon":5.36808,"is_reserved":false,"is_disabled":true,"rental_uris":{"android":"levelo://app?vid=51f43a5f-2a5a-4c8a-847c-1c5481be0271","ios":"levelo://app?vid=51f43a5f-2a5a-4c8a-847c-1c5481be0271"},"vehicle_type_id":"4","last_reported":1766067230,"current_range_meters":11200,"station_id":"","pricing_plan_id":"cebpf4jnsgd1na2vs0mg"},{"bike_id":"1ce0f5c0-25df-445b-ba92-26de3010da50","system_id":"levelo_inurba_marseille","lat":43.33164,"lon":5.37687,"is_reserved":false,"is_disabled":false,"rental_uris":{"android":"levelo://app?vid=1ce0f5c0-25df-445b-ba92-26de3010da50","ios":"levelo://app?vid=1ce0f5c0-25df-445b-ba92-26de3010da50"},"vehicle_type_id":"4","last_reported":1766067230,"current_range_meters":11200,"station_id":"st_d46cu089ee8s73dldbu0","pricing_plan_id":"cebpf4jnsgd1na2vs0mg"},{"bike_id":"f06f8882-fb3f-40b8-802c-88e195674bd0","system_id":"levelo_inurba_marseille","lat":43.22928,"lon":5.35377,"is_reserved":false,"is_disabled":false,"rental_uris":{"android":"levelo://app?vid=f06f8882-fb3f-40b8-802c-88e195674bd0","ios":"levelo://app?vid=f06f8882-fb3f-40b8-802c-88e195674bd0"},"vehicle_type_id":"4","last_reported":1766067230,"current_range_meters":11200,"station_id":"cpo3532slgdg3j2ikp40","pricing_plan_id":"cebpf4jnsgd1na2vs0mg"},{"bike_id":"1c783e39-3092-489d-97e8-0a4c367392b3","system_id":"levelo_inurba_marseille","lat":43.30604,"lon":5.37223,"is_reserved":false,"is_disabled":false,"rental_uris":{"android":"levelo://app?vid=1c783e39-3092-489d-97e8-0a4c367392b3","ios":"levelo://app?vid=1c783e39-3092-489d-97e8-0a4c367392b3"},"vehicle_type_id":"4","last_reported":1766067230,"current_range_meters":11600,"station_id":"ce4bgqh2rcd13ifvqc4g","pricing_plan_id":"cebpf4jnsgd1na2vs0mg"},{"bike_id":"b3560ba4-c43e-4fb4-9705-d7ab1ea7fdc6","system_id":"levelo_inurba_marseille","lat":43.28202,"lon":5.3907,"is_reserved":false,"is_disabled":false,"rental_uris":{"android":"levelo://app?vid=b3560ba4-c43e-4fb4-9705-d7ab1ea7fdc6","ios":"levelo://app?vid=b3560ba4-c43e-4fb4-9705-d7ab1ea7fdc6"},"vehicle_type_id":"4","last_reported":1766067230,"current_range_meters":11600,"station_id":"ce4bhn92rcd13ifvqgsg","pricing_plan_id":"cebpf4jnsgd1na2vs0mg"},{"bike_id":"38d5bbe5-85ce-4ef0-a09a-30d465a65053","system_id":"levelo_inurba_marseille","lat":43.29605,"lon":5.37682,"is_reserved":false,"is_disabled":false,"rental_uris":{"android":"levelo://app?vid=38d5bbe5-85ce-4ef0-a09a-30d465a65053","ios":"levelo://app?vid=38d5bbe5-85ce-4ef0-a09a-30d465a65053"},"vehicle_type_id":"4","last_reported":1766067230,"current_range_meters":11600,"station_id":"ce4bgi92rcd13ifvqb90","pricing_plan_id":"cebpf4jnsgd1na2vs0mg"},{"bike_id":"38cf53a6-ff03-4245-b99b-a3c30164292b","system_id":"levelo_inurba_marseille","lat":43.29598,"lon":5.380981,"is_reserved":false,"is_disabled":true,"rental_uris":{"android":"levelo://app?vid=38cf53a6-ff03-4245-b99b-a3c30164292b","ios":"levelo://app?vid=38cf53a6-ff03-4245-b99b-a3c30164292b"},"vehicle_type_id":"4","last_reported":1766067230,"current_range_meters":11600,"station_id":"ce4bgl12rcd13ifvqbo0","pricing_plan_id":"cebpf4jnsgd1na2vs0mg"},{"bike_id":"2a7cb992-0930-4ad6-8e4f-da52676eb138","system_id":"levelo_inurba_marseille","lat":43.273732,"lon":5.362687,"is_reserved":false,"is_disabled":false,"rental_uris":{"android":"levelo://app?vid=2a7cb992-0930-4ad6-8e4f-da52676eb138","ios":"levelo://app?vid=2a7cb992-0930-4ad6-8e4f-da52676eb138"},"vehicle_type_id":"4","last_reported":1766067230,"current_range_meters":11600,"station_id":"ce4bhbh2rcd13ifvqeo0","pricing_plan_id":"cebpf4jnsgd1na2vs0mg"},{"bike_id":"2154a936-f819-49ae-b7ae-2734365f2c42","system_id":"levelo_inurba_marseille","lat":43.33513,"lon":5.37471,"is_reserved":false,"is_disabled":false,"rental_uris":{"android":"levelo://app?vid=2154a936-f819-49ae-b7ae-2734365f2c42","ios":"levelo://app?vid=2154a936-f819-49ae-b7ae-2734365f2c42"},"vehicle_type_id":"4","last_reported":1766067230,"current_range_meters":11600,"station_id":"st_d46tts09ee8s73dlu43g","pricing_plan_id":"cebpf4jnsgd1na2vs0mg"},{"bike_id":"6a1e1967-fdaf-4e65-ae26-1571d7f0290c","system_id":"levelo_inurba_marseille","lat":43.337605,"lon":5.374353,"is_reserved":false,"is_disabled":false,"rental_uris":{"android":"levelo://app?vid=6a1e1967-fdaf-4e65-ae26-1571d7f0290c","ios":"levelo://app?vid=6a1e1967-fdaf-4e65-ae26-1571d7f0290c"},"vehicle_type_id":"4","last_reported":1766067230,"current_range_meters":11600,"station_id":"","pricing_plan_id":"cebpf4jnsgd1na2vs0mg"},{"bike_id":"bca3ef8f-a76c-47e8-92d5-6c1a5ece9b4d","system_id":"levelo_inurba_marseille","lat":43.237831,"lon":5.366576,"is_reserved":false,"is_disabled":false,"rental_uris":{"android":"levelo://app?vid=bca3ef8f-a76c-47e8-92d5-6c1a5ece9b4d","ios":"levelo://app?vid=bca3ef8f-a76c-47e8-92d5-6c1a5ece9b4d"},"vehicle_type_id":"4","last_reported":1766067230,"current_range_meters":11600,"station_id":"st_d3nk18o9ro0c73en2l3g","pricing_plan_id":"cebpf4jnsgd1na2vs0mg"},{"bike_id":"876ecd0e-be16-4157-b9fc-b7eaaebb0f3f","system_id":"levelo_inurba_marseille","lat":43.29189,"lon":5.39316,"is_reserved":false,"is_disabled":false,"rental_uris":{"android":"levelo://app?vid=876ecd0e-be16-4157-b9fc-b7eaaebb0f3f","ios":"levelo://app?vid=876ecd0e-be16-4157-b9fc-b7eaaebb0f3f"},"vehicle_type_id":"4","last_reported":1766067230,"current_range_meters":11600,"station_id":"ce4bh192rcd13ifvqdd0","pricing_plan_id":"cebpf4jnsgd1na2vs0mg"},{"bike_id":"1b3c2c60-6ff2-4726-98a5-0e15725bfce9","system_id":"levelo_inurba_marseille","lat":43.29574,"lon":5.36755,"is_reserved":false,"is_disabled":false,"rental_uris":{"android":"levelo://app?vid=1b3c2c60-6ff2-4726-98a5-0e15725bfce9","ios":"levelo://app?vid=1b3c2c60-6ff2-4726-98a5-0e15725bfce9"},"vehicle_type_id":"4","last_reported":1766067230,"current_range_meters":11600,"station_id":"ce4bgph2rcd13ifvqc2g","pricing_plan_id":"cebpf4jnsgd1na2vs0mg"},{"bike_id":"cf0e2dfe-8751-4251-bbd3-3ad00be9f3ad","system_id":"levelo_inurba_marseille","lat":43.284812,"lon":5.483987,"is_reserved":false,"is_disabled":false,"rental_uris":{"android":"levelo://app?vid=cf0e2dfe-8751-4251-bbd3-3ad00be9f3ad","ios":"levelo://app?vid=cf0e2dfe-8751-4251-bbd3-3ad00be9f3ad"},"vehicle_type_id":"4","last_reported":1766067230,"current_range_meters":11600,"station_id":"st_d3svhcjqgbts73a3dn0g","pricing_plan_id":"cebpf4jnsgd1na2vs0mg"},{"bike_id":"b64e874a-c151-4464-8fd7-ae87de091c28","system_id":"levelo_inurba_marseille","lat":43.31276,"lon":5.40173,"is_reserved":false,"is_disabled":false,"rental_uris":{"android":"levelo://app?vid=b64e874a-c151-4464-8fd7-ae87de091c28","ios":"levelo://app?vid=b64e874a-c151-4464-8fd7-ae87de091c28"},"vehicle_type_id":"4","last_reported":1766067230,"current_range_meters":11600,"station_id":"ce4bh092rcd13ifvqd30","pricing_plan_id":"cebpf4jnsgd1na2vs0mg"},{"bike_id":"92d28f34-f1f6-46e1-85a5-e7fa752486b4","system_id":"levelo_inurba_marseille","lat":43.2606,"lon":5.39401,"is_reserved":false,"is_disabled":false,"rental_uris":{"android":"levelo://app?vid=92d28f34-f1f6-46e1-85a5-e7fa752486b4","ios":"levelo://app?vid=92d28f34-f1f6-46e1-85a5-e7fa752486b4"},"vehicle_type_id":"4","last_reported":1766067230,"current_range_meters":11600,"station_id":"ce4bhh92rcd13ifvqfj0","pricing_plan_id":"cebpf4jnsgd1na2vs0mg"},{"bike_id":"0e5605a0-8a9b-4110-930b-7d8a6198266d","system_id":"levelo_inurba_marseille","lat":43.32351,"lon":5.385,"is_reserved":false,"is_disabled":false,"rental_uris":{"android":"levelo://app?vid=0e5605a0-8a9b-4110-930b-7d8a6198266d","ios":"levelo://app?vid=0e5605a0-8a9b-4110-930b-7d8a6198266d"},"vehicle_type_id":"4","last_reported":1766067230,"current_range_meters":11600,"station_id":"st_d45171o9ee8s73djdqug","pricing_plan_id":"cebpf4jnsgd1na2vs0mg"},{"bike_id":"53b4f7a5-d4a3-4ba7-a32f-24fcc5f84365","system_id":"levelo_inurba_marseille","lat":43.27371,"lon":5.36263,"is_reserved":false,"is_disabled":false,"rental_uris":{"android":"levelo://app?vid=53b4f7a5-d4a3-4ba7-a32f-24fcc5f84365","ios":"levelo://app?vid=53b4f7a5-d4a3-4ba7-a32f-24fcc5f84365"},"vehicle_type_id":"4","last_reported":1766067230,"current_range_meters":11600,"station_id":"ce4bhbh2rcd13ifvqeo0","pricing_plan_id":"cebpf4jnsgd1na2vs0mg"},{"bike_id":"4a614ce4-d61c-499d-8955-0569e02f377b","system_id":"levelo_inurba_marseille","lat":43.275135,"lon":5.372765,"is_reserved":false,"is_disabled":false,"rental_uris":{"android":"levelo://app?vid=4a614ce4-d61c-499d-8955-0569e02f377b","ios":"levelo://app?vid=4a614ce4-d61c-499d-8955-0569e02f377b"},"vehicle_type_id":"4","last_reported":1766067230,"current_range_meters":12000,"station_id":"","pricing_plan_id":"cebpf4jnsgd1na2vs0mg"},{"bike_id":"ee6f7e5c-24b4-4046-a3ec-072080785116","system_id":"levelo_inurba_marseille","lat":43.21736,"lon":5.34567,"is_reserved":false,"is_disabled":true,"rental_uris":{"android":"levelo://app?vid=ee6f7e5c-24b4-4046-a3ec-072080785116","ios":"levelo://app?vid=ee6f7e5c-24b4-4046-a3ec-072080785116"},"vehicle_type_id":"4","last_reported":1766067230,"current_range_meters":12000,"station_id":"st_cvj6r9ubvosntc0bgbag","pricing_plan_id":"cebpf4jnsgd1na2vs0mg"},{"bike_id":"81f6165e-5859-46c9-9f73-0b5c85d5ab09","system_id":"levelo_inurba_marseille","lat":43.27502,"lon":5.42452,"is_reserved":false,"is_disabled":false,"rental_uris":{"android":"levelo://app?vid=81f6165e-5859-46c9-9f73-0b5c85d5ab09","ios":"levelo://app?vid=81f6165e-5859-46c9-9f73-0b5c85d5ab09"},"vehicle_type_id":"4","last_reported":1766067230,"current_range_meters":12000,"station_id":"ce4bhn92rcd13ifvqgrg","pricing_plan_id":"cebpf4jnsgd1na2vs0mg"},{"bike_id":"f0552324-7f16-45f2-af53-7d50398c0e4b","system_id":"levelo_inurba_marseille","lat":43.29189,"lon":5.39324,"is_reserved":false,"is_disabled":true,"rental_uris":{"android":"levelo://app?vid=f0552324-7f16-45f2-af53-7d50398c0e4b","ios":"levelo://app?vid=f0552324-7f16-45f2-af53-7d50398c0e4b"},"vehicle_type_id":"4","last_reported":1766067230,"current_range_meters":12000,"station_id":"ce4bh192rcd13ifvqdd0","pricing_plan_id":"cebpf4jnsgd1na2vs0mg"},{"bike_id":"8716a47c-e7f6-45ed-b291-a4146dee0804","system_id":"levelo_inurba_marseille","lat":43.29026,"lon":5.3756,"is_reserved":false,"is_disabled":false,"rental_uris":{"android":"levelo://app?vid=8716a47c-e7f6-45ed-b291-a4146dee0804","ios":"levelo://app?vid=8716a47c-e7f6-45ed-b291-a4146dee0804"},"vehicle_type_id":"4","last_reported":1766067230,"current_range_meters":12000,"station_id":"ce4bh692rcd13ifvqe90","pricing_plan_id":"cebpf4jnsgd1na2vs0mg"},{"bike_id":"2704a896-1b81-4eb2-9ff3-afb57e76d700","system_id":"levelo_inurba_marseille","lat":43.2985,"lon":5.36277,"is_reserved":false,"is_disabled":false,"rental_uris":{"android":"levelo://app?vid=2704a896-1b81-4eb2-9ff3-afb57e76d700","ios":"levelo://app?vid=2704a896-1b81-4eb2-9ff3-afb57e76d700"},"vehicle_type_id":"4","last_reported":1766067230,"current_range_meters":12400,"station_id":"ce4bgpp2rcd13ifvqc3g","pricing_plan_id":"cebpf4jnsgd1na2vs0mg"},{"bike_id":"436e467e-3ef8-4484-b12e-82fd46509f97","system_id":"levelo_inurba_marseille","lat":43.23277,"lon":5.44381,"is_reserved":false,"is_disabled":false,"rental_uris":{"android":"levelo://app?vid=436e467e-3ef8-4484-b12e-82fd46509f97","ios":"levelo://app?vid=436e467e-3ef8-4484-b12e-82fd46509f97"},"vehicle_type_id":"4","last_reported":1766067230,"current_range_meters":12400,"station_id":"","pricing_plan_id":"cebpf4jnsgd1na2vs0mg"},{"bike_id":"9f4fbfdb-69e0-4fdb-835d-ba33db325026","system_id":"levelo_inurba_marseille","lat":43.296234,"lon":5.371882,"is_reserved":false,"is_disabled":false,"rental_uris":{"android":"levelo://app?vid=9f4fbfdb-69e0-4fdb-835d-ba33db325026","ios":"levelo://app?vid=9f4fbfdb-69e0-4fdb-835d-ba33db325026"},"vehicle_type_id":"4","last_reported":1766067230,"current_range_meters":12400,"station_id":"ce4bgnh2rcd13ifvqc0g","pricing_plan_id":"cebpf4jnsgd1na2vs0mg"},{"bike_id":"9d054196-cd6f-4325-bb1d-fbfbbc9318d2","system_id":"levelo_inurba_marseille","lat":43.30114,"lon":5.43122,"is_reserved":false,"is_disabled":false,"rental_uris":{"android":"levelo://app?vid=9d054196-cd6f-4325-bb1d-fbfbbc9318d2","ios":"levelo://app?vid=9d054196-cd6f-4325-bb1d-fbfbbc9318d2"},"vehicle_type_id":"4","last_reported":1766067230,"current_range_meters":12400,"station_id":"st_d3js3co5814s73ftftug","pricing_plan_id":"cebpf4jnsgd1na2vs0mg"},{"bike_id":"615849e9-647f-4599-b9b7-110aad5055d0","system_id":"levelo_inurba_marseille","lat":43.29622,"lon":5.37171,"is_reserved":false,"is_disabled":false,"rental_uris":{"android":"levelo://app?vid=615849e9-647f-4599-b9b7-110aad5055d0","ios":"levelo://app?vid=615849e9-647f-4599-b9b7-110aad5055d0"},"vehicle_type_id":"4","last_reported":1766067230,"current_range_meters":12400,"station_id":"ce4bgnh2rcd13ifvqc0g","pricing_plan_id":"cebpf4jnsgd1na2vs0mg"},{"bike_id":"875c0926-7566-42f1-9d60-20eaee8b344e","system_id":"levelo_inurba_marseille","lat":43.295767,"lon":5.375001,"is_reserved":false,"is_disabled":false,"rental_uris":{"android":"levelo://app?vid=875c0926-7566-42f1-9d60-20eaee8b344e","ios":"levelo://app?vid=875c0926-7566-42f1-9d60-20eaee8b344e"},"vehicle_type_id":"4","last_reported":1766067230,"current_range_meters":12400,"station_id":"ce4bgh92rcd13ifvqb50","pricing_plan_id":"cebpf4jnsgd1na2vs0mg"},{"bike_id":"778d9648-fd97-4408-8b44-dc72af41a7c5","system_id":"levelo_inurba_marseille","lat":43.25505,"lon":5.37651,"is_reserved":false,"is_disabled":false,"rental_uris":{"android":"levelo://app?vid=778d9648-fd97-4408-8b44-dc72af41a7c5","ios":"levelo://app?vid=778d9648-fd97-4408-8b44-dc72af41a7c5"},"vehicle_type_id":"4","last_reported":1766067230,"current_range_meters":12400,"station_id":"ce4bhh12rcd13ifvqff0","pricing_plan_id":"cebpf4jnsgd1na2vs0mg"},{"bike_id":"9a4090b1-3af1-4620-96cb-2dd026585aca","system_id":"levelo_inurba_marseille","lat":43.32389,"lon":5.36547,"is_reserved":false,"is_disabled":false,"rental_uris":{"android":"levelo://app?vid=9a4090b1-3af1-4620-96cb-2dd026585aca","ios":"levelo://app?vid=9a4090b1-3af1-4620-96cb-2dd026585aca"},"vehicle_type_id":"4","last_reported":1766067230,"current_range_meters":12400,"station_id":"","pricing_plan_id":"cebpf4jnsgd1na2vs0mg"},{"bike_id":"b7ea4e20-faaf-42e5-9ca6-e0d3232c1f5a","system_id":"levelo_inurba_marseille","lat":43.28958,"lon":5.36634,"is_reserved":false,"is_disabled":false,"rental_uris":{"android":"levelo://app?vid=b7ea4e20-faaf-42e5-9ca6-e0d3232c1f5a","ios":"levelo://app?vid=b7ea4e20-faaf-42e5-9ca6-e0d3232c1f5a"},"vehicle_type_id":"4","last_reported":1766067230,"current_range_meters":12400,"station_id":"ce4bhap2rcd13ifvqek0","pricing_plan_id":"cebpf4jnsgd1na2vs0mg"},{"bike_id":"435abd7b-9e35-4120-933c-0d12c72818c5","system_id":"levelo_inurba_marseille","lat":43.28611,"lon":5.35106,"is_reserved":false,"is_disabled":false,"rental_uris":{"android":"levelo://app?vid=435abd7b-9e35-4120-933c-0d12c72818c5","ios":"levelo://app?vid=435abd7b-9e35-4120-933c-0d12c72818c5"},"vehicle_type_id":"4","last_reported":1766067230,"current_range_meters":12400,"station_id":"ce4bhch2rcd13ifvqeug","pricing_plan_id":"cebpf4jnsgd1na2vs0mg"},{"bike_id":"a6bb7fde-2db0-447e-8cac-38a0c3844ce6","system_id":"levelo_inurba_marseille","lat":43.27751,"lon":5.38822,"is_reserved":false,"is_disabled":false,"rental_uris":{"android":"levelo://app?vid=a6bb7fde-2db0-447e-8cac-38a0c3844ce6","ios":"levelo://app?vid=a6bb7fde-2db0-447e-8cac-38a0c3844ce6"},"vehicle_type_id":"4","last_reported":1766067230,"current_range_meters":12800,"station_id":"","pricing_plan_id":"cebpf4jnsgd1na2vs0mg"},{"bike_id":"b6521d11-99b8-43ca-a853-a51747d5db82","system_id":"levelo_inurba_marseille","lat":43.301253,"lon":5.431195,"is_reserved":false,"is_disabled":false,"rental_uris":{"android":"levelo://app?vid=b6521d11-99b8-43ca-a853-a51747d5db82","ios":"levelo://app?vid=b6521d11-99b8-43ca-a853-a51747d5db82"},"vehicle_type_id":"4","last_reported":1766067230,"current_range_meters":12800,"station_id":"st_d3js3co5814s73ftftug","pricing_plan_id":"cebpf4jnsgd1na2vs0mg"},{"bike_id":"85f12ccf-5b46-4628-894a-c4095346a940","system_id":"levelo_inurba_marseille","lat":43.27923,"lon":5.41032,"is_reserved":false,"is_disabled":true,"rental_uris":{"android":"levelo://app?vid=85f12ccf-5b46-4628-894a-c4095346a940","ios":"levelo://app?vid=85f12ccf-5b46-4628-894a-c4095346a940"},"vehicle_type_id":"4","last_reported":1766067230,"current_range_meters":12800,"station_id":"ce4bhnp2rcd13ifvqh0g","pricing_plan_id":"cebpf4jnsgd1na2vs0mg"},{"bike_id":"f429f49e-c6f5-47a7-bb14-f64dda91fa20","system_id":"levelo_inurba_marseille","lat":43.2768,"lon":5.38867,"is_reserved":false,"is_disabled":false,"rental_uris":{"android":"levelo://app?vid=f429f49e-c6f5-47a7-bb14-f64dda91fa20","ios":"levelo://app?vid=f429f49e-c6f5-47a7-bb14-f64dda91fa20"},"vehicle_type_id":"4","last_reported":1766067230,"current_range_meters":12800,"station_id":"ce4bhi12rcd13ifvqfo0","pricing_plan_id":"cebpf4jnsgd1na2vs0mg"},{"bike_id":"52b61354-da80-471d-a0ef-682891b3f0eb","system_id":"levelo_inurba_marseille","lat":43.24387,"lon":5.37088,"is_reserved":false,"is_disabled":true,"rental_uris":{"android":"levelo://app?vid=52b61354-da80-471d-a0ef-682891b3f0eb","ios":"levelo://app?vid=52b61354-da80-471d-a0ef-682891b3f0eb"},"vehicle_type_id":"4","last_reported":1766067230,"current_range_meters":12800,"station_id":"ce4bhhh2rcd13ifvqfk0","pricing_plan_id":"cebpf4jnsgd1na2vs0mg"},{"bike_id":"0d76f9ec-36de-4311-a1ef-897de10e0d0d","system_id":"levelo_inurba_marseille","lat":43.29816,"lon":5.44077,"is_reserved":false,"is_disabled":false,"rental_uris":{"android":"levelo://app?vid=0d76f9ec-36de-4311-a1ef-897de10e0d0d","ios":"levelo://app?vid=0d76f9ec-36de-4311-a1ef-897de10e0d0d"},"vehicle_type_id":"4","last_reported":1766067230,"current_range_meters":12800,"station_id":"st_d3jp68qikq2c7381ktn0","pricing_plan_id":"cebpf4jnsgd1na2vs0mg"},{"bike_id":"ebcd0d10-df3c-4e1d-91fb-3b7f9f34f179","system_id":"levelo_inurba_marseille","lat":43.29899,"lon":5.39751,"is_reserved":false,"is_disabled":false,"rental_uris":{"android":"levelo://app?vid=ebcd0d10-df3c-4e1d-91fb-3b7f9f34f179","ios":"levelo://app?vid=ebcd0d10-df3c-4e1d-91fb-3b7f9f34f179"},"vehicle_type_id":"4","last_reported":1766067230,"current_range_meters":12800,"station_id":"ce4bh0h2rcd13ifvqd50","pricing_plan_id":"cebpf4jnsgd1na2vs0mg"},{"bike_id":"228ed5e4-a793-4f90-a46f-1e70b2793524","system_id":"levelo_inurba_marseille","lat":43.28612,"lon":5.39898,"is_reserved":false,"is_disabled":true,"rental_uris":{"android":"levelo://app?vid=228ed5e4-a793-4f90-a46f-1e70b2793524","ios":"levelo://app?vid=228ed5e4-a793-4f90-a46f-1e70b2793524"},"vehicle_type_id":"4","last_reported":1766067230,"current_range_meters":12800,"station_id":"st_d4a7ka997mjs738ck50g","pricing_plan_id":"cebpf4jnsgd1na2vs0mg"},{"bike_id":"1c296f85-b870-4ee1-ba78-54f6afe7fe1c","system_id":"levelo_inurba_marseille","lat":43.24069,"lon":5.37771,"is_reserved":false,"is_disabled":false,"rental_uris":{"android":"levelo://app?vid=1c296f85-b870-4ee1-ba78-54f6afe7fe1c","ios":"levelo://app?vid=1c296f85-b870-4ee1-ba78-54f6afe7fe1c"},"vehicle_type_id":"4","last_reported":1766067230,"current_range_meters":12800,"station_id":"ce4bhnp2rcd13ifvqgvg","pricing_plan_id":"cebpf4jnsgd1na2vs0mg"},{"bike_id":"7d66c6df-8513-4be7-ae50-4718cfeb6a90","system_id":"levelo_inurba_marseille","lat":43.32356,"lon":5.36736,"is_reserved":false,"is_disabled":false,"rental_uris":{"android":"levelo://app?vid=7d66c6df-8513-4be7-ae50-4718cfeb6a90","ios":"levelo://app?vid=7d66c6df-8513-4be7-ae50-4718cfeb6a90"},"vehicle_type_id":"4","last_reported":1766067230,"current_range_meters":12800,"station_id":"ce4bhsh2rcd13ifvqi2g","pricing_plan_id":"cebpf4jnsgd1na2vs0mg"},{"bike_id":"c5365846-c619-4f12-8c92-97c9f9725a15","system_id":"levelo_inurba_marseille","lat":43.29511,"lon":5.37928,"is_reserved":false,"is_disabled":false,"rental_uris":{"android":"levelo://app?vid=c5365846-c619-4f12-8c92-97c9f9725a15","ios":"levelo://app?vid=c5365846-c619-4f12-8c92-97c9f9725a15"},"vehicle_type_id":"4","last_reported":1766067230,"current_range_meters":12800,"station_id":"","pricing_plan_id":"cebpf4jnsgd1na2vs0mg"},{"bike_id":"28e7ea25-d676-49ca-8be6-ac1c19bc94ea","system_id":"levelo_inurba_marseille","lat":43.33409,"lon":5.40078,"is_reserved":false,"is_disabled":false,"rental_uris":{"android":"levelo://app?vid=28e7ea25-d676-49ca-8be6-ac1c19bc94ea","ios":"levelo://app?vid=28e7ea25-d676-49ca-8be6-ac1c19bc94ea"},"vehicle_type_id":"4","last_reported":1766067230,"current_range_meters":12800,"station_id":"","pricing_plan_id":"cebpf4jnsgd1na2vs0mg"},{"bike_id":"9d69d969-80ac-4208-a742-5bc89bcc7fbb","system_id":"levelo_inurba_marseille","lat":43.255753,"lon":5.382347,"is_reserved":false,"is_disabled":false,"rental_uris":{"android":"levelo://app?vid=9d69d969-80ac-4208-a742-5bc89bcc7fbb","ios":"levelo://app?vid=9d69d969-80ac-4208-a742-5bc89bcc7fbb"},"vehicle_type_id":"4","last_reported":1766067230,"current_range_meters":12800,"station_id":"ce4bhih2rcd13ifvqfs0","pricing_plan_id":"cebpf4jnsgd1na2vs0mg"},{"bike_id":"e79f34f4-a454-46bc-b7bd-c453550482db","system_id":"levelo_inurba_marseille","lat":43.30532,"lon":5.36718,"is_reserved":false,"is_disabled":false,"rental_uris":{"android":"levelo://app?vid=e79f34f4-a454-46bc-b7bd-c453550482db","ios":"levelo://app?vid=e79f34f4-a454-46bc-b7bd-c453550482db"},"vehicle_type_id":"4","last_reported":1766067230,"current_range_meters":12800,"station_id":"ce4bgrp2rcd13ifvqc9g","pricing_plan_id":"cebpf4jnsgd1na2vs0mg"},{"bike_id":"539a15a5-ea1f-433a-b280-748c300e9855","system_id":"levelo_inurba_marseille","lat":43.232789,"lon":5.399677,"is_reserved":false,"is_disabled":false,"rental_uris":{"android":"levelo://app?vid=539a15a5-ea1f-433a-b280-748c300e9855","ios":"levelo://app?vid=539a15a5-ea1f-433a-b280-748c300e9855"},"vehicle_type_id":"4","last_reported":1766067230,"current_range_meters":12800,"station_id":"ce4bhn12rcd13ifvqgqg","pricing_plan_id":"cebpf4jnsgd1na2vs0mg"},{"bike_id":"a12aec62-cb0e-4bf9-9011-6b7a9ceb2f31","system_id":"levelo_inurba_marseille","lat":43.25006,"lon":5.38946,"is_reserved":false,"is_disabled":false,"rental_uris":{"android":"levelo://app?vid=a12aec62-cb0e-4bf9-9011-6b7a9ceb2f31","ios":"levelo://app?vid=a12aec62-cb0e-4bf9-9011-6b7a9ceb2f31"},"vehicle_type_id":"4","last_reported":1766067230,"current_range_meters":13600,"station_id":"ce4bhgp2rcd13ifvqfd0","pricing_plan_id":"cebpf4jnsgd1na2vs0mg"},{"bike_id":"d50867a0-a974-4546-a28c-eba4c2e0b399","system_id":"levelo_inurba_marseille","lat":43.23184,"lon":5.35557,"is_reserved":false,"is_disabled":false,"rental_uris":{"android":"levelo://app?vid=d50867a0-a974-4546-a28c-eba4c2e0b399","ios":"levelo://app?vid=d50867a0-a974-4546-a28c-eba4c2e0b399"},"vehicle_type_id":"4","last_reported":1766067230,"current_range_meters":13600,"station_id":"ce4bhu92rcd13ifvqi70","pricing_plan_id":"cebpf4jnsgd1na2vs0mg"},{"bike_id":"63c41449-76cb-4593-a116-d53f025be3ec","system_id":"levelo_inurba_marseille","lat":43.266506,"lon":5.408219,"is_reserved":false,"is_disabled":false,"rental_uris":{"android":"levelo://app?vid=63c41449-76cb-4593-a116-d53f025be3ec","ios":"levelo://app?vid=63c41449-76cb-4593-a116-d53f025be3ec"},"vehicle_type_id":"4","last_reported":1766067230,"current_range_meters":13600,"station_id":"","pricing_plan_id":"cebpf4jnsgd1na2vs0mg"},{"bike_id":"1f8bf9e3-c9bd-4c05-9201-34f9580d25af","system_id":"levelo_inurba_marseille","lat":43.212,"lon":5.35087,"is_reserved":false,"is_disabled":false,"rental_uris":{"android":"levelo://app?vid=1f8bf9e3-c9bd-4c05-9201-34f9580d25af","ios":"levelo://app?vid=1f8bf9e3-c9bd-4c05-9201-34f9580d25af"},"vehicle_type_id":"4","last_reported":1766067230,"current_range_meters":13600,"station_id":"st_cvj6sg6p6f1abm77japg","pricing_plan_id":"cebpf4jnsgd1na2vs0mg"},{"bike_id":"ee6e64c0-a924-4f96-8689-db48260b708d","system_id":"levelo_inurba_marseille","lat":43.30005,"lon":5.38509,"is_reserved":false,"is_disabled":false,"rental_uris":{"android":"levelo://app?vid=ee6e64c0-a924-4f96-8689-db48260b708d","ios":"levelo://app?vid=ee6e64c0-a924-4f96-8689-db48260b708d"},"vehicle_type_id":"4","last_reported":1766067230,"current_range_meters":13600,"station_id":"ce4bgj92rcd13ifvqbd0","pricing_plan_id":"cebpf4jnsgd1na2vs0mg"},{"bike_id":"539ac7f8-cbfa-4eaf-a599-a27073f3eab8","system_id":"levelo_inurba_marseille","lat":43.25928,"lon":5.40916,"is_reserved":false,"is_disabled":false,"rental_uris":{"android":"levelo://app?vid=539ac7f8-cbfa-4eaf-a599-a27073f3eab8","ios":"levelo://app?vid=539ac7f8-cbfa-4eaf-a599-a27073f3eab8"},"vehicle_type_id":"4","last_reported":1766067230,"current_range_meters":13600,"station_id":"ce4bhm92rcd13ifvqglg","pricing_plan_id":"cebpf4jnsgd1na2vs0mg"},{"bike_id":"5016f860-973b-4de0-b0cf-76783dc82886","system_id":"levelo_inurba_marseille","lat":43.237868,"lon":5.366349,"is_reserved":false,"is_disabled":false,"rental_uris":{"android":"levelo://app?vid=5016f860-973b-4de0-b0cf-76783dc82886","ios":"levelo://app?vid=5016f860-973b-4de0-b0cf-76783dc82886"},"vehicle_type_id":"4","last_reported":1766067230,"current_range_meters":13600,"station_id":"st_d3nk18o9ro0c73en2l3g","pricing_plan_id":"cebpf4jnsgd1na2vs0mg"},{"bike_id":"fade1f76-6248-43fe-aeb9-7f93aeff737b","system_id":"levelo_inurba_marseille","lat":43.27918,"lon":5.395755,"is_reserved":false,"is_disabled":true,"rental_uris":{"android":"levelo://app?vid=fade1f76-6248-43fe-aeb9-7f93aeff737b","ios":"levelo://app?vid=fade1f76-6248-43fe-aeb9-7f93aeff737b"},"vehicle_type_id":"4","last_reported":1766067230,"current_range_meters":13600,"station_id":"ce4bhf92rcd13ifvqf40","pricing_plan_id":"cebpf4jnsgd1na2vs0mg"},{"bike_id":"fee29f30-60dc-4795-b535-0950dc0b0aca","system_id":"levelo_inurba_marseille","lat":43.31234,"lon":5.36884,"is_reserved":false,"is_disabled":false,"rental_uris":{"android":"levelo://app?vid=fee29f30-60dc-4795-b535-0950dc0b0aca","ios":"levelo://app?vid=fee29f30-60dc-4795-b535-0950dc0b0aca"},"vehicle_type_id":"4","last_reported":1766067230,"current_range_meters":13600,"station_id":"ce4bgl92rcd13ifvqbq0","pricing_plan_id":"cebpf4jnsgd1na2vs0mg"},{"bike_id":"9603892a-0b8c-49c3-8596-a3c441b3b397","system_id":"levelo_inurba_marseille","lat":43.30547,"lon":5.36551,"is_reserved":false,"is_disabled":false,"rental_uris":{"android":"levelo://app?vid=9603892a-0b8c-49c3-8596-a3c441b3b397","ios":"levelo://app?vid=9603892a-0b8c-49c3-8596-a3c441b3b397"},"vehicle_type_id":"4","last_reported":1766067230,"current_range_meters":13600,"station_id":"ce4bgs12rcd13ifvqcag","pricing_plan_id":"cebpf4jnsgd1na2vs0mg"},{"bike_id":"98df3c79-a09d-4fcd-8e72-1d835e48117a","system_id":"levelo_inurba_marseille","lat":43.31411,"lon":5.40325,"is_reserved":false,"is_disabled":false,"rental_uris":{"android":"levelo://app?vid=98df3c79-a09d-4fcd-8e72-1d835e48117a","ios":"levelo://app?vid=98df3c79-a09d-4fcd-8e72-1d835e48117a"},"vehicle_type_id":"4","last_reported":1766067230,"current_range_meters":13600,"station_id":"","pricing_plan_id":"cebpf4jnsgd1na2vs0mg"},{"bike_id":"0de50e14-dc05-48db-b2b3-c6b99664dcd7","system_id":"levelo_inurba_marseille","lat":43.23195,"lon":5.35548,"is_reserved":false,"is_disabled":false,"rental_uris":{"android":"levelo://app?vid=0de50e14-dc05-48db-b2b3-c6b99664dcd7","ios":"levelo://app?vid=0de50e14-dc05-48db-b2b3-c6b99664dcd7"},"vehicle_type_id":"4","last_reported":1766067230,"current_range_meters":14000,"station_id":"ce4bhu92rcd13ifvqi70","pricing_plan_id":"cebpf4jnsgd1na2vs0mg"},{"bike_id":"f30df188-b87b-4af7-86dc-8061b161f18a","system_id":"levelo_inurba_marseille","lat":43.29992,"lon":5.38479,"is_reserved":false,"is_disabled":false,"rental_uris":{"android":"levelo://app?vid=f30df188-b87b-4af7-86dc-8061b161f18a","ios":"levelo://app?vid=f30df188-b87b-4af7-86dc-8061b161f18a"},"vehicle_type_id":"4","last_reported":1766067230,"current_range_meters":14000,"station_id":"ce4bgj92rcd13ifvqbd0","pricing_plan_id":"cebpf4jnsgd1na2vs0mg"},{"bike_id":"e021dafe-b1f9-403c-bd19-c846f9798435","system_id":"levelo_inurba_marseille","lat":43.24078,"lon":5.37759,"is_reserved":false,"is_disabled":false,"rental_uris":{"android":"levelo://app?vid=e021dafe-b1f9-403c-bd19-c846f9798435","ios":"levelo://app?vid=e021dafe-b1f9-403c-bd19-c846f9798435"},"vehicle_type_id":"4","last_reported":1766067230,"current_range_meters":14000,"station_id":"ce4bhnp2rcd13ifvqgvg","pricing_plan_id":"cebpf4jnsgd1na2vs0mg"},{"bike_id":"d235767a-3e44-44c9-893e-7ebda15e5a64","system_id":"levelo_inurba_marseille","lat":43.25432,"lon":5.38519,"is_reserved":false,"is_disabled":false,"rental_uris":{"android":"levelo://app?vid=d235767a-3e44-44c9-893e-7ebda15e5a64","ios":"levelo://app?vid=d235767a-3e44-44c9-893e-7ebda15e5a64"},"vehicle_type_id":"4","last_reported":1766067230,"current_range_meters":14000,"station_id":"","pricing_plan_id":"cebpf4jnsgd1na2vs0mg"},{"bike_id":"5d65cceb-4b3a-42ef-a9d8-44a2e8fcd9c4","system_id":"levelo_inurba_marseille","lat":43.237955,"lon":5.36636,"is_reserved":false,"is_disabled":false,"rental_uris":{"android":"levelo://app?vid=5d65cceb-4b3a-42ef-a9d8-44a2e8fcd9c4","ios":"levelo://app?vid=5d65cceb-4b3a-42ef-a9d8-44a2e8fcd9c4"},"vehicle_type_id":"4","last_reported":1766067230,"current_range_meters":14000,"station_id":"st_d3nk18o9ro0c73en2l3g","pricing_plan_id":"cebpf4jnsgd1na2vs0mg"},{"bike_id":"38d5de4d-7a0b-4e15-baba-a01d15e92556","system_id":"levelo_inurba_marseille","lat":43.29269,"lon":5.36844,"is_reserved":false,"is_disabled":false,"rental_uris":{"android":"levelo://app?vid=38d5de4d-7a0b-4e15-baba-a01d15e92556","ios":"levelo://app?vid=38d5de4d-7a0b-4e15-baba-a01d15e92556"},"vehicle_type_id":"4","last_reported":1766067230,"current_range_meters":14000,"station_id":"ce4bhbp2rcd13ifvqesg","pricing_plan_id":"cebpf4jnsgd1na2vs0mg"},{"bike_id":"03a674ea-657c-4035-8e69-54a23edb2670","system_id":"levelo_inurba_marseille","lat":43.264016,"lon":5.410743,"is_reserved":false,"is_disabled":false,"rental_uris":{"android":"levelo://app?vid=03a674ea-657c-4035-8e69-54a23edb2670","ios":"levelo://app?vid=03a674ea-657c-4035-8e69-54a23edb2670"},"vehicle_type_id":"4","last_reported":1766067230,"current_range_meters":14000,"station_id":"st_d4e5ca6na9uc73bfl5fg","pricing_plan_id":"cebpf4jnsgd1na2vs0mg"},{"bike_id":"368a8ed5-63c0-46da-8b41-df8c47ab74e5","system_id":"levelo_inurba_marseille","lat":43.308873,"lon":5.396614,"is_reserved":false,"is_disabled":false,"rental_uris":{"android":"levelo://app?vid=368a8ed5-63c0-46da-8b41-df8c47ab74e5","ios":"levelo://app?vid=368a8ed5-63c0-46da-8b41-df8c47ab74e5"},"vehicle_type_id":"4","last_reported":1766067230,"current_range_meters":14400,"station_id":"ce4bh012rcd13ifvqcv0","pricing_plan_id":"cebpf4jnsgd1na2vs0mg"},{"bike_id":"9f6c9975-15d6-48de-a383-d85662191ef8","system_id":"levelo_inurba_marseille","lat":43.21189,"lon":5.35138,"is_reserved":false,"is_disabled":false,"rental_uris":{"android":"levelo://app?vid=9f6c9975-15d6-48de-a383-d85662191ef8","ios":"levelo://app?vid=9f6c9975-15d6-48de-a383-d85662191ef8"},"vehicle_type_id":"4","last_reported":1766067230,"current_range_meters":14400,"station_id":"st_cvj6sg6p6f1abm77japg","pricing_plan_id":"cebpf4jnsgd1na2vs0mg"},{"bike_id":"1d07838f-da7d-479c-916e-372000b4b0aa","system_id":"levelo_inurba_marseille","lat":43.30293,"lon":5.37717,"is_reserved":false,"is_disabled":false,"rental_uris":{"android":"levelo://app?vid=1d07838f-da7d-479c-916e-372000b4b0aa","ios":"levelo://app?vid=1d07838f-da7d-479c-916e-372000b4b0aa"},"vehicle_type_id":"4","last_reported":1766067230,"current_range_meters":14400,"station_id":"ce4bguh2rcd13ifvqcj0","pricing_plan_id":"cebpf4jnsgd1na2vs0mg"},{"bike_id":"6ceac0d8-15f4-4360-ade7-9959a947ae30","system_id":"levelo_inurba_marseille","lat":43.29262,"lon":5.37636,"is_reserved":false,"is_disabled":false,"rental_uris":{"android":"levelo://app?vid=6ceac0d8-15f4-4360-ade7-9959a947ae30","ios":"levelo://app?vid=6ceac0d8-15f4-4360-ade7-9959a947ae30"},"vehicle_type_id":"4","last_reported":1766067230,"current_range_meters":14400,"station_id":"ce4bgi12rcd13ifvqb80","pricing_plan_id":"cebpf4jnsgd1na2vs0mg"},{"bike_id":"f621baf8-0b1d-4915-82f5-f14757f2e678","system_id":"levelo_inurba_marseille","lat":43.26673,"lon":5.38269,"is_reserved":false,"is_disabled":false,"rental_uris":{"android":"levelo://app?vid=f621baf8-0b1d-4915-82f5-f14757f2e678","ios":"levelo://app?vid=f621baf8-0b1d-4915-82f5-f14757f2e678"},"vehicle_type_id":"4","last_reported":1766067230,"current_range_meters":14400,"station_id":"ce4bhg92rcd13ifvqf90","pricing_plan_id":"cebpf4jnsgd1na2vs0mg"},{"bike_id":"e552fbf9-6830-4645-85da-646734ac4fcd","system_id":"levelo_inurba_marseille","lat":43.30213,"lon":5.39465,"is_reserved":false,"is_disabled":false,"rental_uris":{"android":"levelo://app?vid=e552fbf9-6830-4645-85da-646734ac4fcd","ios":"levelo://app?vid=e552fbf9-6830-4645-85da-646734ac4fcd"},"vehicle_type_id":"4","last_reported":1766067230,"current_range_meters":14400,"station_id":"ce4bh0p2rcd13ifvqd70","pricing_plan_id":"cebpf4jnsgd1na2vs0mg"},{"bike_id":"58f48cd4-5565-4b3a-920c-4bdb38c8447d","system_id":"levelo_inurba_marseille","lat":43.30117,"lon":5.39872,"is_reserved":false,"is_disabled":false,"rental_uris":{"android":"levelo://app?vid=58f48cd4-5565-4b3a-920c-4bdb38c8447d","ios":"levelo://app?vid=58f48cd4-5565-4b3a-920c-4bdb38c8447d"},"vehicle_type_id":"4","last_reported":1766067230,"current_range_meters":14400,"station_id":"ce4bh0h2rcd13ifvqd40","pricing_plan_id":"cebpf4jnsgd1na2vs0mg"},{"bike_id":"2029c855-dcdb-4970-bac2-bc6c1ffd0882","system_id":"levelo_inurba_marseille","lat":43.266812,"lon":5.38273,"is_reserved":false,"is_disabled":false,"rental_uris":{"android":"levelo://app?vid=2029c855-dcdb-4970-bac2-bc6c1ffd0882","ios":"levelo://app?vid=2029c855-dcdb-4970-bac2-bc6c1ffd0882"},"vehicle_type_id":"4","last_reported":1766067230,"current_range_meters":14400,"station_id":"","pricing_plan_id":"cebpf4jnsgd1na2vs0mg"},{"bike_id":"28b25816-bf58-499a-8442-99c9ee305652","system_id":"levelo_inurba_marseille","lat":43.25939,"lon":5.40897,"is_reserved":false,"is_disabled":false,"rental_uris":{"android":"levelo://app?vid=28b25816-bf58-499a-8442-99c9ee305652","ios":"levelo://app?vid=28b25816-bf58-499a-8442-99c9ee305652"},"vehicle_type_id":"4","last_reported":1766067230,"current_range_meters":14400,"station_id":"ce4bhm92rcd13ifvqglg","pricing_plan_id":"cebpf4jnsgd1na2vs0mg"},{"bike_id":"0e831b8a-ba65-4401-84c3-afd3e8869534","system_id":"levelo_inurba_marseille","lat":43.29624,"lon":5.37209,"is_reserved":false,"is_disabled":false,"rental_uris":{"android":"levelo://app?vid=0e831b8a-ba65-4401-84c3-afd3e8869534","ios":"levelo://app?vid=0e831b8a-ba65-4401-84c3-afd3e8869534"},"vehicle_type_id":"4","last_reported":1766067230,"current_range_meters":14400,"station_id":"ce4bgk12rcd13ifvqbj0","pricing_plan_id":"cebpf4jnsgd1na2vs0mg"},{"bike_id":"5df7c2b5-328b-4cf1-a7f3-c3abbb4ce075","system_id":"levelo_inurba_marseille","lat":43.23798,"lon":5.36633,"is_reserved":false,"is_disabled":false,"rental_uris":{"android":"levelo://app?vid=5df7c2b5-328b-4cf1-a7f3-c3abbb4ce075","ios":"levelo://app?vid=5df7c2b5-328b-4cf1-a7f3-c3abbb4ce075"},"vehicle_type_id":"4","last_reported":1766067230,"current_range_meters":14400,"station_id":"st_d3nk18o9ro0c73en2l3g","pricing_plan_id":"cebpf4jnsgd1na2vs0mg"},{"bike_id":"4218c3f6-4764-47cf-93fc-c76838aefb78","system_id":"levelo_inurba_marseille","lat":43.2416,"lon":5.36397,"is_reserved":false,"is_disabled":false,"rental_uris":{"android":"levelo://app?vid=4218c3f6-4764-47cf-93fc-c76838aefb78","ios":"levelo://app?vid=4218c3f6-4764-47cf-93fc-c76838aefb78"},"vehicle_type_id":"4","last_reported":1766067230,"current_range_meters":14800,"station_id":"cpo36qri1sfpv3e86is0","pricing_plan_id":"cebpf4jnsgd1na2vs0mg"},{"bike_id":"eac78c98-095f-4d78-8e98-87b6e0773649","system_id":"levelo_inurba_marseille","lat":43.23186,"lon":5.35561,"is_reserved":false,"is_disabled":false,"rental_uris":{"android":"levelo://app?vid=eac78c98-095f-4d78-8e98-87b6e0773649","ios":"levelo://app?vid=eac78c98-095f-4d78-8e98-87b6e0773649"},"vehicle_type_id":"4","last_reported":1766067230,"current_range_meters":14800,"station_id":"ce4bhu92rcd13ifvqi70","pricing_plan_id":"cebpf4jnsgd1na2vs0mg"},{"bike_id":"7d6fe6f1-794f-47e5-97db-d78e9cd6a959","system_id":"levelo_inurba_marseille","lat":43.29311,"lon":5.3718,"is_reserved":false,"is_disabled":false,"rental_uris":{"android":"levelo://app?vid=7d6fe6f1-794f-47e5-97db-d78e9cd6a959","ios":"levelo://app?vid=7d6fe6f1-794f-47e5-97db-d78e9cd6a959"},"vehicle_type_id":"4","last_reported":1766067230,"current_range_meters":14800,"station_id":"ce4bgh92rcd13ifvqb40","pricing_plan_id":"cebpf4jnsgd1na2vs0mg"},{"bike_id":"54b699d7-65f2-4a7a-9f83-f79492606b86","system_id":"levelo_inurba_marseille","lat":43.30557,"lon":5.36544,"is_reserved":false,"is_disabled":false,"rental_uris":{"android":"levelo://app?vid=54b699d7-65f2-4a7a-9f83-f79492606b86","ios":"levelo://app?vid=54b699d7-65f2-4a7a-9f83-f79492606b86"},"vehicle_type_id":"4","last_reported":1766067230,"current_range_meters":14800,"station_id":"ce4bgs12rcd13ifvqcag","pricing_plan_id":"cebpf4jnsgd1na2vs0mg"},{"bike_id":"313a044d-6bba-48e4-acaf-41d1a51462dc","system_id":"levelo_inurba_marseille","lat":43.28514,"lon":5.38846,"is_reserved":false,"is_disabled":false,"rental_uris":{"android":"levelo://app?vid=313a044d-6bba-48e4-acaf-41d1a51462dc","ios":"levelo://app?vid=313a044d-6bba-48e4-acaf-41d1a51462dc"},"vehicle_type_id":"4","last_reported":1766067230,"current_range_meters":14800,"station_id":"","pricing_plan_id":"cebpf4jnsgd1na2vs0mg"},{"bike_id":"d0591e5b-3d70-427e-8f9c-2b7eb3479936","system_id":"levelo_inurba_marseille","lat":43.30531,"lon":5.3654,"is_reserved":false,"is_disabled":false,"rental_uris":{"android":"levelo://app?vid=d0591e5b-3d70-427e-8f9c-2b7eb3479936","ios":"levelo://app?vid=d0591e5b-3d70-427e-8f9c-2b7eb3479936"},"vehicle_type_id":"4","last_reported":1766067230,"current_range_meters":14800,"station_id":"ce4bgs12rcd13ifvqcag","pricing_plan_id":"cebpf4jnsgd1na2vs0mg"},{"bike_id":"99388d30-6150-4902-b411-afb179f8f4e2","system_id":"levelo_inurba_marseille","lat":43.28925,"lon":5.36627,"is_reserved":false,"is_disabled":false,"rental_uris":{"android":"levelo://app?vid=99388d30-6150-4902-b411-afb179f8f4e2","ios":"levelo://app?vid=99388d30-6150-4902-b411-afb179f8f4e2"},"vehicle_type_id":"4","last_reported":1766067230,"current_range_meters":14800,"station_id":"ce4bhap2rcd13ifvqek0","pricing_plan_id":"cebpf4jnsgd1na2vs0mg"},{"bike_id":"efdb4ea8-52f5-4429-97d5-2ee6f068a982","system_id":"levelo_inurba_marseille","lat":43.28412,"lon":5.37528,"is_reserved":false,"is_disabled":false,"rental_uris":{"android":"levelo://app?vid=efdb4ea8-52f5-4429-97d5-2ee6f068a982","ios":"levelo://app?vid=efdb4ea8-52f5-4429-97d5-2ee6f068a982"},"vehicle_type_id":"4","last_reported":1766067230,"current_range_meters":14800,"station_id":"ce4bh412rcd13ifvqds0","pricing_plan_id":"cebpf4jnsgd1na2vs0mg"},{"bike_id":"6bdb7b78-283a-497a-9416-941a4a02872a","system_id":"levelo_inurba_marseille","lat":43.33542,"lon":5.374712,"is_reserved":false,"is_disabled":false,"rental_uris":{"android":"levelo://app?vid=6bdb7b78-283a-497a-9416-941a4a02872a","ios":"levelo://app?vid=6bdb7b78-283a-497a-9416-941a4a02872a"},"vehicle_type_id":"4","last_reported":1766067230,"current_range_meters":14800,"station_id":"st_d46tts09ee8s73dlu43g","pricing_plan_id":"cebpf4jnsgd1na2vs0mg"},{"bike_id":"40f607c3-acf5-4c2c-9a74-964dde2f9f3e","system_id":"levelo_inurba_marseille","lat":43.31354,"lon":5.36711,"is_reserved":false,"is_disabled":false,"rental_uris":{"android":"levelo://app?vid=40f607c3-acf5-4c2c-9a74-964dde2f9f3e","ios":"levelo://app?vid=40f607c3-acf5-4c2c-9a74-964dde2f9f3e"},"vehicle_type_id":"4","last_reported":1766067230,"current_range_meters":14800,"station_id":"ce4bgr92rcd13ifvqc6g","pricing_plan_id":"cebpf4jnsgd1na2vs0mg"},{"bike_id":"40d715e1-d8bd-4f17-adf2-57137c7d4a8d","system_id":"levelo_inurba_marseille","lat":43.28854,"lon":5.35849,"is_reserved":false,"is_disabled":false,"rental_uris":{"android":"levelo://app?vid=40d715e1-d8bd-4f17-adf2-57137c7d4a8d","ios":"levelo://app?vid=40d715e1-d8bd-4f17-adf2-57137c7d4a8d"},"vehicle_type_id":"4","last_reported":1766067230,"current_range_meters":14800,"station_id":"ce4bhb12rcd13ifvqem0","pricing_plan_id":"cebpf4jnsgd1na2vs0mg"},{"bike_id":"1f056b37-e3f2-4d39-81cb-848d585f8a47","system_id":"levelo_inurba_marseille","lat":43.24171,"lon":5.364035,"is_reserved":false,"is_disabled":false,"rental_uris":{"android":"levelo://app?vid=1f056b37-e3f2-4d39-81cb-848d585f8a47","ios":"levelo://app?vid=1f056b37-e3f2-4d39-81cb-848d585f8a47"},"vehicle_type_id":"4","last_reported":1766067230,"current_range_meters":14800,"station_id":"cpo36qri1sfpv3e86is0","pricing_plan_id":"cebpf4jnsgd1na2vs0mg"},{"bike_id":"acdb6905-2e88-4ba3-8611-6513ba3fc45e","system_id":"levelo_inurba_marseille","lat":43.30474,"lon":5.37905,"is_reserved":false,"is_disabled":false,"rental_uris":{"android":"levelo://app?vid=acdb6905-2e88-4ba3-8611-6513ba3fc45e","ios":"levelo://app?vid=acdb6905-2e88-4ba3-8611-6513ba3fc45e"},"vehicle_type_id":"4","last_reported":1766067230,"current_range_meters":15200,"station_id":"ce4bgup2rcd13ifvqcn0","pricing_plan_id":"cebpf4jnsgd1na2vs0mg"},{"bike_id":"29ff8d65-fbca-42c1-b12e-cd4dc579808a","system_id":"levelo_inurba_marseille","lat":43.301407,"lon":5.374218,"is_reserved":false,"is_disabled":false,"rental_uris":{"android":"levelo://app?vid=29ff8d65-fbca-42c1-b12e-cd4dc579808a","ios":"levelo://app?vid=29ff8d65-fbca-42c1-b12e-cd4dc579808a"},"vehicle_type_id":"4","last_reported":1766067230,"current_range_meters":15200,"station_id":"ce4bh392rcd13ifvqdl0","pricing_plan_id":"cebpf4jnsgd1na2vs0mg"},{"bike_id":"4ed32140-14b3-441c-896c-b4fdb80f56bf","system_id":"levelo_inurba_marseille","lat":43.29022,"lon":5.38657,"is_reserved":false,"is_disabled":false,"rental_uris":{"android":"levelo://app?vid=4ed32140-14b3-441c-896c-b4fdb80f56bf","ios":"levelo://app?vid=4ed32140-14b3-441c-896c-b4fdb80f56bf"},"vehicle_type_id":"4","last_reported":1766067230,"current_range_meters":15200,"station_id":"ce4bh4p2rcd13ifvqe0g","pricing_plan_id":"cebpf4jnsgd1na2vs0mg"},{"bike_id":"d0dd282f-2c05-49dd-834d-6d93cee6c88a","system_id":"levelo_inurba_marseille","lat":43.30203,"lon":5.36624,"is_reserved":false,"is_disabled":true,"rental_uris":{"android":"levelo://app?vid=d0dd282f-2c05-49dd-834d-6d93cee6c88a","ios":"levelo://app?vid=d0dd282f-2c05-49dd-834d-6d93cee6c88a"},"vehicle_type_id":"4","last_reported":1766067230,"current_range_meters":15200,"station_id":"ce4bgrh2rcd13ifvqc8g","pricing_plan_id":"cebpf4jnsgd1na2vs0mg"},{"bike_id":"cf5eb2c1-c87d-4ae3-9256-41d8d82f1276","system_id":"levelo_inurba_marseille","lat":43.29222,"lon":5.36067,"is_reserved":false,"is_disabled":false,"rental_uris":{"android":"levelo://app?vid=cf5eb2c1-c87d-4ae3-9256-41d8d82f1276","ios":"levelo://app?vid=cf5eb2c1-c87d-4ae3-9256-41d8d82f1276"},"vehicle_type_id":"4","last_reported":1766067230,"current_range_meters":15200,"station_id":"ce4bhbh2rcd13ifvqeqg","pricing_plan_id":"cebpf4jnsgd1na2vs0mg"},{"bike_id":"31a8a530-d875-470f-bb82-c3f6f0a5a4e2","system_id":"levelo_inurba_marseille","lat":43.2949,"lon":5.43292,"is_reserved":false,"is_disabled":false,"rental_uris":{"android":"levelo://app?vid=31a8a530-d875-470f-bb82-c3f6f0a5a4e2","ios":"levelo://app?vid=31a8a530-d875-470f-bb82-c3f6f0a5a4e2"},"vehicle_type_id":"4","last_reported":1766067230,"current_range_meters":15200,"station_id":"st_d3j5ugp08ojc73fj9d10","pricing_plan_id":"cebpf4jnsgd1na2vs0mg"},{"bike_id":"e7dfab09-bfd4-4367-ac6a-0fd9a0169d94","system_id":"levelo_inurba_marseille","lat":43.301431,"lon":5.374145,"is_reserved":false,"is_disabled":false,"rental_uris":{"android":"levelo://app?vid=e7dfab09-bfd4-4367-ac6a-0fd9a0169d94","ios":"levelo://app?vid=e7dfab09-bfd4-4367-ac6a-0fd9a0169d94"},"vehicle_type_id":"4","last_reported":1766067230,"current_range_meters":15200,"station_id":"ce4bgs92rcd13ifvqcc0","pricing_plan_id":"cebpf4jnsgd1na2vs0mg"},{"bike_id":"f3a4c2fd-c27a-4ca6-bbe5-3949d2a88808","system_id":"levelo_inurba_marseille","lat":43.28583,"lon":5.43005,"is_reserved":false,"is_disabled":false,"rental_uris":{"android":"levelo://app?vid=f3a4c2fd-c27a-4ca6-bbe5-3949d2a88808","ios":"levelo://app?vid=f3a4c2fd-c27a-4ca6-bbe5-3949d2a88808"},"vehicle_type_id":"4","last_reported":1766067230,"current_range_meters":15200,"station_id":"","pricing_plan_id":"cebpf4jnsgd1na2vs0mg"},{"bike_id":"5a84f0aa-409b-45aa-8e27-c273c8289e1a","system_id":"levelo_inurba_marseille","lat":43.2979,"lon":5.37104,"is_reserved":false,"is_disabled":false,"rental_uris":{"android":"levelo://app?vid=5a84f0aa-409b-45aa-8e27-c273c8289e1a","ios":"levelo://app?vid=5a84f0aa-409b-45aa-8e27-c273c8289e1a"},"vehicle_type_id":"4","last_reported":1766067230,"current_range_meters":15200,"station_id":"ce4bgop2rcd13ifvqc1g","pricing_plan_id":"cebpf4jnsgd1na2vs0mg"},{"bike_id":"17a49efb-d179-4b85-b20c-4afe87c0613f","system_id":"levelo_inurba_marseille","lat":43.310533,"lon":5.371743,"is_reserved":false,"is_disabled":true,"rental_uris":{"android":"levelo://app?vid=17a49efb-d179-4b85-b20c-4afe87c0613f","ios":"levelo://app?vid=17a49efb-d179-4b85-b20c-4afe87c0613f"},"vehicle_type_id":"4","last_reported":1766067230,"current_range_meters":15200,"station_id":"st_d4kl2rp97mjs73e7tdfg","pricing_plan_id":"cebpf4jnsgd1na2vs0mg"},{"bike_id":"907c6bab-d04b-4a2f-a93b-74499e90fd68","system_id":"levelo_inurba_marseille","lat":43.31227,"lon":5.36878,"is_reserved":false,"is_disabled":false,"rental_uris":{"android":"levelo://app?vid=907c6bab-d04b-4a2f-a93b-74499e90fd68","ios":"levelo://app?vid=907c6bab-d04b-4a2f-a93b-74499e90fd68"},"vehicle_type_id":"4","last_reported":1766067230,"current_range_meters":16000,"station_id":"ce4bgl92rcd13ifvqbq0","pricing_plan_id":"cebpf4jnsgd1na2vs0mg"},