{"last_updated":1743149591,"ttl":60,"version":"2.2","data":{"bikes":[{"bike_id":"84ed44a8-6883-404f-8fa2-66236d5541e2","system_id":"levelo_inurba_marseille","lat":43.29903,"lon":5.37483,"is_reserved":false,"is_disabled":false,"rental_uris":{"android":"levelo://app?vid=84ed44a8-6883-404f-8fa2-66236d5541e2","ios":"levelo://app?vid=84ed44a8-6883-404f-8fa2-66236d5541e2"},"vehicle_type_id":"4","last_reported":1743149591,"current_range_meters":2800,"station_id":"ce4bgjh2rcd13ifvqbg0","pricing_plan_id":"cebpf4jnsgd1na2vs0mg"},{"bike_id":"d305e8e3-3818-47eb-adfd-64f4d3e4cb0f","system_id":"levelo_inurba_marseille","lat":43.2808,"lon":5.39659,"is_reserved":false,"is_disabled":false,"rental_uris":{"android":"levelo://app?vid=d305e8e3-3818-47eb-adfd-64f4d3e4cb0f","ios":"levelo://app?vid=d305e8e3-3818-47eb-adfd-64f4d3e4cb0f"},"vehicle_type_id":"4","last_reported":1743149591,"current_range_meters":2800,"station_id":"ce4bho12rcd13ifvqh2g","pricing_plan_id":"cebpf4jnsgd1na2vs0mg"},{"bike_id":"243afbfe-feac-4729-8196-a3bb6f2477ff","system_id":"levelo_inurba_marseille","lat":43.29102,"lon":5.38137,"is_reserved":false,"is_disabled":false,"rental_uris":{"android":"levelo://app?vid=243afbfe-feac-4729-8196-a3bb6f2477ff","ios":"levelo://app?vid=243afbfe-feac-4729-8196-a3bb6f2477ff"},"vehicle_type_id":"4","last_reported":1743149591,"current_range_meters":2000,"station_id":"ce4bh512rcd13ifvqe2g","pricing_plan_id":"cebpf4jnsgd1na2vs0mg"},{"bike_id":"3c4648ed-1e95-4d80-ad2a-0fb1526188bc","system_id":"levelo_inurba_marseille","lat":43.30546,"lon":5.36712,"is_reserved":false,"is_disabled":false,"rental_uris":{"android":"levelo://app?vid=3c4648ed-1e95-4d80-ad2a-0fb1526188bc","ios":"levelo://app?vid=3c4648ed-1e95-4d80-ad2a-0fb1526188bc"},"vehicle_type_id":"4","last_reported":1743149591,"current_range_meters":2800,"station_id":"ce4bgrp2rcd13ifvqc9g","pricing_plan_id":"cebpf4jnsgd1na2vs0mg"},{"bike_id":"9b0db4f1-c6a1-4ca7-86c5-ec1daffe0ea2","system_id":"levelo_inurba_marseille","lat":43.25114,"lon":5.39541,"is_reserved":false,"is_disabled":false,"rental_uris":{"android":"levelo://app?vid=9b0db4f1-c6a1-4ca7-86c5-ec1daffe0ea2","ios":"levelo://app?vid=9b0db4f1-c6a1-4ca7-86c5-ec1daffe0ea2"},"vehicle_type_id":"4","last_reported":1743149591,"current_range_meters":2800,"station_id":"ce4bhm12rcd13ifvqgkg","pricing_plan_id":"cebpf4jnsgd1na2vs0mg"},{"bike_id":"b6029839-fcd9-4133-b3d6-49460e1fb1ec","system_id":"levelo_inurba_marseille","lat":43.26678,"lon":5.38267,"is_reserved":false,"is_disabled":false,"rental_uris":{"android":"levelo://app?vid=b6029839-fcd9-4133-b3d6-49460e1fb1ec","ios":"levelo://app?vid=b6029839-fcd9-4133-b3d6-49460e1fb1ec"},"vehicle_type_id":"4","last_reported":1743149591,"current_range_meters":3200,"station_id":"ce4bhg92rcd13ifvqf90","pricing_plan_id":"cebpf4jnsgd1na2vs0mg"},{"bike_id":"fb2c7e3d-5daa-47d5-8693-2228fe118790","system_id":"levelo_inurba_marseille","lat":43.28491,"lon":5.38574,"is_reserved":false,"is_disabled":false,"rental_uris":{"android":"levelo://app?vid=fb2c7e3d-5daa-47d5-8693-2228fe118790","ios":"levelo://app?vid=fb2c7e3d-5daa-47d5-8693-2228fe118790"},"vehicle_type_id":"4","last_reported":1743149591,"current_range_meters":3200,"station_id":"ce4bh8p2rcd13ifvqeb0","pricing_plan_id":"cebpf4jnsgd1na2vs0mg"},{"bike_id":"c9b2c00c-c382-4db2-8582-a86a0684c224","system_id":"levelo_inurba_marseille","lat":43.31495,"lon":5.37312,"is_reserved":false,"is_disabled":false,"rental_uris":{"android":"levelo://app?vid=c9b2c00c-c382-4db2-8582-a86a0684c224","ios":"levelo://app?vid=c9b2c00c-c382-4db2-8582-a86a0684c224"},"vehicle_type_id":"4","last_reported":1743149591,"current_range_meters":3200,"station_id":"ce4bgt12rcd13ifvqcd0","pricing_plan_id":"cebpf4jnsgd1na2vs0mg"},{"bike_id":"431173a4-f49d-408e-bec4-fc5a6d668771","system_id":"levelo_inurba_marseille","lat":43.29089,"lon":5.38145,"is_reserved":false,"is_disabled":false,"rental_uris":{"android":"levelo://app?vid=431173a4-f49d-408e-bec4-fc5a6d668771","ios":"levelo://app?vid=431173a4-f49d-408e-bec4-fc5a6d668771"},"vehicle_type_id":"4","last_reported":1743149591,"current_range_meters":3200,"station_id":"ce4bh512rcd13ifvqe2g","pricing_plan_id":"cebpf4jnsgd1na2vs0mg"},{"bike_id":"6f410645-8702-49d1-bf25-008fa74e4d66","system_id":"levelo_inurba_marseille","lat":43.293,"lon":5.37467,"is_reserved":false,"is_disabled":false,"rental_uris":{"android":"levelo://app?vid=6f410645-8702-49d1-bf25-008fa74e4d66","ios":"levelo://app?vid=6f410645-8702-49d1-bf25-008fa74e4d66"},"vehicle_type_id":"4","last_reported":1743149591,"current_range_meters":3200,"station_id":"ce4bgi12rcd13ifvqb70","pricing_plan_id":"cebpf4jnsgd1na2vs0mg"},{"bike_id":"dc8ccdc9-a018-4504-b0a9-676297905591","system_id":"levelo_inurba_marseille","lat":43.29294,"lon":5.3698,"is_reserved":false,"is_disabled":false,"rental_uris":{"android":"levelo://app?vid=dc8ccdc9-a018-4504-b0a9-676297905591","ios":"levelo://app?vid=dc8ccdc9-a018-4504-b0a9-676297905591"},"vehicle_type_id":"4","last_reported":1743149591,"current_range_meters":3200,"station_id":"","pricing_plan_id":"cebpf4jnsgd1na2vs0mg"},{"bike_id":"39fdae9f-305a-4402-8f8a-6e1b4aa6bc8f","system_id":"levelo_inurba_marseille","lat":43.28727,"lon":5.37938,"is_reserved":false,"is_disabled":false,"rental_uris":{"android":"levelo://app?vid=39fdae9f-305a-4402-8f8a-6e1b4aa6bc8f","ios":"levelo://app?vid=39fdae9f-305a-4402-8f8a-6e1b4aa6bc8f"},"vehicle_type_id":"4","last_reported":1743149591,"current_range_meters":3200,"station_id":"ce4bh9p2rcd13ifvqec0","pricing_plan_id":"cebpf4jnsgd1na2vs0mg"},{"bike_id":"365b14fd-de40-4f30-ab63-9228fc45bfc5","system_id":"levelo_inurba_marseille","lat":43.30218,"lon":5.39462,"is_reserved":false,"is_disabled":false,"rental_uris":{"android":"levelo://app?vid=365b14fd-de40-4f30-ab63-9228fc45bfc5","ios":"levelo://app?vid=365b14fd-de40-4f30-ab63-9228fc45bfc5"},"vehicle_type_id":"4","last_reported":1743149591,"current_range_meters":3200,"station_id":"ce4bh0p2rcd13ifvqd70","pricing_plan_id":"cebpf4jnsgd1na2vs0mg"},{"bike_id":"0928f9e4-3d73-4c0b-b2bc-66077c22ff8c","system_id":"levelo_inurba_marseille","lat":43.24178,"lon":5.39735,"is_reserved":false,"is_disabled":false,"rental_uris":{"android":"levelo://app?vid=0928f9e4-3d73-4c0b-b2bc-66077c22ff8c","ios":"levelo://app?vid=0928f9e4-3d73-4c0b-b2bc-66077c22ff8c"},"vehicle_type_id":"4","last_reported":1743149591,"current_range_meters":3200,"station_id":"ce4bhn12rcd13ifvqgpg","pricing_plan_id":"cebpf4jnsgd1na2vs0mg"},{"bike_id":"c30b4351-a752-4c84-8bf9-e20988da7341","system_id":"levelo_inurba_marseille","lat":43.31507,"lon":5.37301,"is_reserved":false,"is_disabled":false,"rental_uris":{"android":"levelo://app?vid=c30b4351-a752-4c84-8bf9-e20988da7341","ios":"levelo://app?vid=c30b4351-a752-4c84-8bf9-e20988da7341"},"vehicle_type_id":"4","last_reported":1743149591,"current_range_meters":3200,"station_id":"ce4bgt12rcd13ifvqcd0","pricing_plan_id":"cebpf4jnsgd1na2vs0mg"},{"bike_id":"745db27b-7d09-42e9-857e-1a3c13cd5302","system_id":"levelo_inurba_marseille","lat":43.23197,"lon":5.35551,"is_reserved":false,"is_disabled":false,"rental_uris":{"android":"levelo://app?vid=745db27b-7d09-42e9-857e-1a3c13cd5302","ios":"levelo://app?vid=745db27b-7d09-42e9-857e-1a3c13cd5302"},"vehicle_type_id":"4","last_reported":1743149591,"current_range_meters":3600,"station_id":"ce4bhu92rcd13ifvqi70","pricing_plan_id":"cebpf4jnsgd1na2vs0mg"},{"bike_id":"83499b64-5aff-4b86-83b7-9242d8770044","system_id":"levelo_inurba_marseille","lat":43.32364,"lon":5.3888,"is_reserved":false,"is_disabled":false,"rental_uris":{"android":"levelo://app?vid=83499b64-5aff-4b86-83b7-9242d8770044","ios":"levelo://app?vid=83499b64-5aff-4b86-83b7-9242d8770044"},"vehicle_type_id":"4","last_reported":1743149591,"current_range_meters":3600,"station_id":"ce4bhqp2rcd13ifvqhog","pricing_plan_id":"cebpf4jnsgd1na2vs0mg"},{"bike_id":"4b439ecd-5ee9-4b56-927e-9ae0a89ac5d2","system_id":"levelo_inurba_marseille","lat":43.29855,"lon":5.39747,"is_reserved":false,"is_disabled":false,"rental_uris":{"android":"levelo://app?vid=4b439ecd-5ee9-4b56-927e-9ae0a89ac5d2","ios":"levelo://app?vid=4b439ecd-5ee9-4b56-927e-9ae0a89ac5d2"},"vehicle_type_id":"4","last_reported":1743149591,"current_range_meters":3600,"station_id":"ce4bh0h2rcd13ifvqd50","pricing_plan_id":"cebpf4jnsgd1na2vs0mg"},{"bike_id":"2b72decb-b621-46dc-a57e-9d8e95d89b27","system_id":"levelo_inurba_marseille","lat":43.30948,"lon":5.39031,"is_reserved":false,"is_disabled":false,"rental_uris":{"android":"levelo://app?vid=2b72decb-b621-46dc-a57e-9d8e95d89b27","ios":"levelo://app?vid=2b72decb-b621-46dc-a57e-9d8e95d89b27"},"vehicle_type_id":"4","last_reported":1743149591,"current_range_meters":3600,"station_id":"ce4bgup2rcd13ifvqco0","pricing_plan_id":"cebpf4jnsgd1na2vs0mg"},{"bike_id":"cbe10be4-dc58-42ba-99c6-72cf3b3ebcae","system_id":"levelo_inurba_marseille","lat":43.29031,"lon":5.39977,"is_reserved":false,"is_disabled":false,"rental_uris":{"android":"levelo://app?vid=cbe10be4-dc58-42ba-99c6-72cf3b3ebcae","ios":"levelo://app?vid=cbe10be4-dc58-42ba-99c6-72cf3b3ebcae"},"vehicle_type_id":"4","last_reported":1743149591,"current_range_meters":3600,"station_id":"ce4bh392rcd13ifvqdm0","pricing_plan_id":"cebpf4jnsgd1na2vs0mg"},{"bike_id":"7af5af8d-0ade-47ab-9243-72a977ca2327","system_id":"levelo_inurba_marseille","lat":43.23202,"lon":5.39969,"is_reserved":false,"is_disabled":true,"rental_uris":{"android":"levelo://app?vid=7af5af8d-0ade-47ab-9243-72a977ca2327","ios":"levelo://app?vid=7af5af8d-0ade-47ab-9243-72a977ca2327"},"vehicle_type_id":"4","last_reported":1743149591,"current_range_meters":4000,"station_id":"ce4bhn12rcd13ifvqgqg","pricing_plan_id":"cebpf4jnsgd1na2vs0mg"},{"bike_id":"c752cc87-456e-4134-9a44-62eff5dadbd0","system_id":"levelo_inurba_marseille","lat":43.27823,"lon":5.40718,"is_reserved":false,"is_disabled":false,"rental_uris":{"android":"levelo://app?vid=c752cc87-456e-4134-9a44-62eff5dadbd0","ios":"levelo://app?vid=c752cc87-456e-4134-9a44-62eff5dadbd0"},"vehicle_type_id":"4","last_reported":1743149591,"current_range_meters":4000,"station_id":"ce4bhnh2rcd13ifvqgtg","pricing_plan_id":"cebpf4jnsgd1na2vs0mg"},{"bike_id":"13776368-2a9b-4d56-a608-4ec6f6f77780","system_id":"levelo_inurba_marseille","lat":43.24387,"lon":5.3706,"is_reserved":false,"is_disabled":false,"rental_uris":{"android":"levelo://app?vid=13776368-2a9b-4d56-a608-4ec6f6f77780","ios":"levelo://app?vid=13776368-2a9b-4d56-a608-4ec6f6f77780"},"vehicle_type_id":"4","last_reported":1743149591,"current_range_meters":4000,"station_id":"ce4bhhh2rcd13ifvqfk0","pricing_plan_id":"cebpf4jnsgd1na2vs0mg"},{"bike_id":"a49bc79d-3c1c-41aa-a0ba-40d5ff70cdad","system_id":"levelo_inurba_marseille","lat":43.27057,"lon":5.40261,"is_reserved":false,"is_disabled":false,"rental_uris":{"android":"levelo://app?vid=a49bc79d-3c1c-41aa-a0ba-40d5ff70cdad","ios":"levelo://app?vid=a49bc79d-3c1c-41aa-a0ba-40d5ff70cdad"},"vehicle_type_id":"4","last_reported":1743149591,"current_range_meters":4000,"station_id":"ce4bhk92rcd13ifvqgc0","pricing_plan_id":"cebpf4jnsgd1na2vs0mg"},{"bike_id":"aa7c2e22-86c3-413e-9872-8513d57b9e13","system_id":"levelo_inurba_marseille","lat":43.23049,"lon":5.35504,"is_reserved":false,"is_disabled":false,"rental_uris":{"android":"levelo://app?vid=aa7c2e22-86c3-413e-9872-8513d57b9e13","ios":"levelo://app?vid=aa7c2e22-86c3-413e-9872-8513d57b9e13"},"vehicle_type_id":"4","last_reported":1743149591,"current_range_meters":4000,"station_id":"cpo3342slgdg3j2ifvpg","pricing_plan_id":"cebpf4jnsgd1na2vs0mg"},{"bike_id":"38b6247d-7a08-4407-867b-6e9cb2228b7f","system_id":"levelo_inurba_marseille","lat":43.24043,"lon":5.37715,"is_reserved":false,"is_disabled":false,"rental_uris":{"android":"levelo://app?vid=38b6247d-7a08-4407-867b-6e9cb2228b7f","ios":"levelo://app?vid=38b6247d-7a08-4407-867b-6e9cb2228b7f"},"vehicle_type_id":"4","last_reported":1743149591,"current_range_meters":4000,"station_id":"ce4bhnp2rcd13ifvqgvg","pricing_plan_id":"cebpf4jnsgd1na2vs0mg"},{"bike_id":"03a93cde-8c32-42a9-a378-1dd1d25ba3e5","system_id":"levelo_inurba_marseille","lat":43.24999,"lon":5.38922,"is_reserved":false,"is_disabled":false,"rental_uris":{"android":"levelo://app?vid=03a93cde-8c32-42a9-a378-1dd1d25ba3e5","ios":"levelo://app?vid=03a93cde-8c32-42a9-a378-1dd1d25ba3e5"},"vehicle_type_id":"4","last_reported":1743149591,"current_range_meters":4000,"station_id":"ce4bhgp2rcd13ifvqfd0","pricing_plan_id":"cebpf4jnsgd1na2vs0mg"},{"bike_id":"35839a26-4f2a-4f6b-b055-dfb39b8593a4","system_id":"levelo_inurba_marseille","lat":43.24072,"lon":5.37763,"is_reserved":false,"is_disabled":false,"rental_uris":{"android":"levelo://app?vid=35839a26-4f2a-4f6b-b055-dfb39b8593a4","ios":"levelo://app?vid=35839a26-4f2a-4f6b-b055-dfb39b8593a4"},"vehicle_type_id":"4","last_reported":1743149591,"current_range_meters":4000,"station_id":"ce4bhnp2rcd13ifvqgvg","pricing_plan_id":"cebpf4jnsgd1na2vs0mg"},{"bike_id":"84a7a785-5392-42bc-8088-fb903bcc7f5c","system_id":"levelo_inurba_marseille","lat":43.2307,"lon":5.35495,"is_reserved":false,"is_disabled":false,"rental_uris":{"android":"levelo://app?vid=84a7a785-5392-42bc-8088-fb903bcc7f5c","ios":"levelo://app?vid=84a7a785-5392-42bc-8088-fb903bcc7f5c"},"vehicle_type_id":"4","last_reported":1743149591,"current_range_meters":4400,"station_id":"cpo3342slgdg3j2ifvpg","pricing_plan_id":"cebpf4jnsgd1na2vs0mg"},{"bike_id":"6025edd6-25a7-4bca-8a73-6df655e7bdd7","system_id":"levelo_inurba_marseille","lat":43.25719,"lon":5.41115,"is_reserved":false,"is_disabled":false,"rental_uris":{"android":"levelo://app?vid=6025edd6-25a7-4bca-8a73-6df655e7bdd7","ios":"levelo://app?vid=6025edd6-25a7-4bca-8a73-6df655e7bdd7"},"vehicle_type_id":"4","last_reported":1743149591,"current_range_meters":4000,"station_id":"ce4bhkp2rcd13ifvqgd0","pricing_plan_id":"cebpf4jnsgd1na2vs0mg"},{"bike_id":"d1797f73-ae9c-4592-ab89-7802d90a739e","system_id":"levelo_inurba_marseille","lat":43.262045,"lon":5.379255,"is_reserved":false,"is_disabled":false,"rental_uris":{"android":"levelo://app?vid=d1797f73-ae9c-4592-ab89-7802d90a739e","ios":"levelo://app?vid=d1797f73-ae9c-4592-ab89-7802d90a739e"},"vehicle_type_id":"4","last_reported":1743149591,"current_range_meters":4400,"station_id":"ce4bhjp2rcd13ifvqg90","pricing_plan_id":"cebpf4jnsgd1na2vs0mg"},{"bike_id":"1480555f-1248-4ead-8131-93a0e352e223","system_id":"levelo_inurba_marseille","lat":43.25934,"lon":5.4089,"is_reserved":false,"is_disabled":false,"rental_uris":{"android":"levelo://app?vid=1480555f-1248-4ead-8131-93a0e352e223","ios":"levelo://app?vid=1480555f-1248-4ead-8131-93a0e352e223"},"vehicle_type_id":"4","last_reported":1743149591,"current_range_meters":4400,"station_id":"ce4bhm92rcd13ifvqglg","pricing_plan_id":"cebpf4jnsgd1na2vs0mg"},{"bike_id":"c8ed968d-27c4-45d9-862b-b51428b463a0","system_id":"levelo_inurba_marseille","lat":43.30146,"lon":5.38087,"is_reserved":false,"is_disabled":false,"rental_uris":{"android":"levelo://app?vid=c8ed968d-27c4-45d9-862b-b51428b463a0","ios":"levelo://app?vid=c8ed968d-27c4-45d9-862b-b51428b463a0"},"vehicle_type_id":"4","last_reported":1743149591,"current_range_meters":4400,"station_id":"ce4bgjp2rcd13ifvqbh0","pricing_plan_id":"cebpf4jnsgd1na2vs0mg"},{"bike_id":"85193cb9-20ef-44ed-b625-63591c84cb8d","system_id":"levelo_inurba_marseille","lat":43.28859,"lon":5.35854,"is_reserved":false,"is_disabled":false,"rental_uris":{"android":"levelo://app?vid=85193cb9-20ef-44ed-b625-63591c84cb8d","ios":"levelo://app?vid=85193cb9-20ef-44ed-b625-63591c84cb8d"},"vehicle_type_id":"4","last_reported":1743149591,"current_range_meters":4000,"station_id":"ce4bhb12rcd13ifvqem0","pricing_plan_id":"cebpf4jnsgd1na2vs0mg"},{"bike_id":"8193ba27-4a12-47a5-9ef9-135d7cfa7f9c","system_id":"levelo_inurba_marseille","lat":43.29916,"lon":5.37491,"is_reserved":false,"is_disabled":false,"rental_uris":{"android":"levelo://app?vid=8193ba27-4a12-47a5-9ef9-135d7cfa7f9c","ios":"levelo://app?vid=8193ba27-4a12-47a5-9ef9-135d7cfa7f9c"},"vehicle_type_id":"4","last_reported":1743149591,"current_range_meters":4800,"station_id":"ce4bgjh2rcd13ifvqbg0","pricing_plan_id":"cebpf4jnsgd1na2vs0mg"},{"bike_id":"27fc9238-2b8f-4229-927e-8c8225f2bd86","system_id":"levelo_inurba_marseille","lat":43.293855,"lon":5.378582,"is_reserved":false,"is_disabled":false,"rental_uris":{"android":"levelo://app?vid=27fc9238-2b8f-4229-927e-8c8225f2bd86","ios":"levelo://app?vid=27fc9238-2b8f-4229-927e-8c8225f2bd86"},"vehicle_type_id":"4","last_reported":1743149591,"current_range_meters":4800,"station_id":"ce4bgjh2rcd13ifvqbf0","pricing_plan_id":"cebpf4jnsgd1na2vs0mg"},{"bike_id":"72407b9c-71b7-4feb-83e9-97e5f2a36163","system_id":"levelo_inurba_marseille","lat":43.24164,"lon":5.36395,"is_reserved":false,"is_disabled":false,"rental_uris":{"android":"levelo://app?vid=72407b9c-71b7-4feb-83e9-97e5f2a36163","ios":"levelo://app?vid=72407b9c-71b7-4feb-83e9-97e5f2a36163"},"vehicle_type_id":"4","last_reported":1743149591,"current_range_meters":5600,"station_id":"cpo36qri1sfpv3e86is0","pricing_plan_id":"cebpf4jnsgd1na2vs0mg"},{"bike_id":"ca1a6c50-0178-49a6-87ee-c0bb57eebc7b","system_id":"levelo_inurba_marseille","lat":43.292454,"lon":5.376242,"is_reserved":false,"is_disabled":false,"rental_uris":{"android":"levelo://app?vid=ca1a6c50-0178-49a6-87ee-c0bb57eebc7b","ios":"levelo://app?vid=ca1a6c50-0178-49a6-87ee-c0bb57eebc7b"},"vehicle_type_id":"4","last_reported":1743149591,"current_range_meters":5600,"station_id":"ce4bgi12rcd13ifvqb80","pricing_plan_id":"cebpf4jnsgd1na2vs0mg"},{"bike_id":"ab6fea12-912d-4ef2-9783-0c2c721a3656","system_id":"levelo_inurba_marseille","lat":43.30913,"lon":5.36851,"is_reserved":false,"is_disabled":false,"rental_uris":{"android":"levelo://app?vid=ab6fea12-912d-4ef2-9783-0c2c721a3656","ios":"levelo://app?vid=ab6fea12-912d-4ef2-9783-0c2c721a3656"},"vehicle_type_id":"4","last_reported":1743149591,"current_range_meters":5600,"station_id":"ce4bgn92rcd13ifvqbvg","pricing_plan_id":"cebpf4jnsgd1na2vs0mg"},{"bike_id":"1d4de964-f83b-41b3-8f1b-4de8a467c9ae","system_id":"levelo_inurba_marseille","lat":43.28938,"lon":5.3962,"is_reserved":false,"is_disabled":false,"rental_uris":{"android":"levelo://app?vid=1d4de964-f83b-41b3-8f1b-4de8a467c9ae","ios":"levelo://app?vid=1d4de964-f83b-41b3-8f1b-4de8a467c9ae"},"vehicle_type_id":"4","last_reported":1743149591,"current_range_meters":5600,"station_id":"ce4bh3h2rcd13ifvqdn0","pricing_plan_id":"cebpf4jnsgd1na2vs0mg"},{"bike_id":"30278c55-3e57-4dfb-b24a-c1a195a6a2f6","system_id":"levelo_inurba_marseille","lat":43.28402,"lon":5.37519,"is_reserved":false,"is_disabled":false,"rental_uris":{"android":"levelo://app?vid=30278c55-3e57-4dfb-b24a-c1a195a6a2f6","ios":"levelo://app?vid=30278c55-3e57-4dfb-b24a-c1a195a6a2f6"},"vehicle_type_id":"4","last_reported":1743149591,"current_range_meters":5600,"station_id":"ce4bh412rcd13ifvqds0","pricing_plan_id":"cebpf4jnsgd1na2vs0mg"},{"bike_id":"91f264ff-de65-406f-aec6-05614adc60c2","system_id":"levelo_inurba_marseille","lat":43.302795,"lon":5.397777,"is_reserved":false,"is_disabled":false,"rental_uris":{"android":"levelo://app?vid=91f264ff-de65-406f-aec6-05614adc60c2","ios":"levelo://app?vid=91f264ff-de65-406f-aec6-05614adc60c2"},"vehicle_type_id":"4","last_reported":1743149591,"current_range_meters":5600,"station_id":"ce4bgrp2rcd13ifvqc9g","pricing_plan_id":"cebpf4jnsgd1na2vs0mg"},{"bike_id":"b2d9411a-8e43-4af1-ad0c-67d1577d2b3d","system_id":"levelo_inurba_marseille","lat":43.30139,"lon":5.37434,"is_reserved":false,"is_disabled":false,"rental_uris":{"android":"levelo://app?vid=b2d9411a-8e43-4af1-ad0c-67d1577d2b3d","ios":"levelo://app?vid=b2d9411a-8e43-4af1-ad0c-67d1577d2b3d"},"vehicle_type_id":"4","last_reported":1743149591,"current_range_meters":5600,"station_id":"ce4bgs92rcd13ifvqcc0","pricing_plan_id":"cebpf4jnsgd1na2vs0mg"},{"bike_id":"13f7f80f-6657-4cb1-a777-c6629ae311a0","system_id":"levelo_inurba_marseille","lat":43.30153,"lon":5.38089,"is_reserved":false,"is_disabled":false,"rental_uris":{"android":"levelo://app?vid=13f7f80f-6657-4cb1-a777-c6629ae311a0","ios":"levelo://app?vid=13f7f80f-6657-4cb1-a777-c6629ae311a0"},"vehicle_type_id":"4","last_reported":1743149591,"current_range_meters":6000,"station_id":"ce4bgjp2rcd13ifvqbh0","pricing_plan_id":"cebpf4jnsgd1na2vs0mg"},{"bike_id":"c97c28c1-e7cb-4889-9178-00aaca494e86","system_id":"levelo_inurba_marseille","lat":43.29613,"lon":5.38097,"is_reserved":false,"is_disabled":false,"rental_uris":{"android":"levelo://app?vid=c97c28c1-e7cb-4889-9178-00aaca494e86","ios":"levelo://app?vid=c97c28c1-e7cb-4889-9178-00aaca494e86"},"vehicle_type_id":"4","last_reported":1743149591,"current_range_meters":6000,"station_id":"ce4bgl12rcd13ifvqbo0","pricing_plan_id":"cebpf4jnsgd1na2vs0mg"},{"bike_id":"57e471ca-fbe6-4128-bb9a-fbbeaa26b637","system_id":"levelo_inurba_marseille","lat":43.29031,"lon":5.37578,"is_reserved":false,"is_disabled":false,"rental_uris":{"android":"levelo://app?vid=57e471ca-fbe6-4128-bb9a-fbbeaa26b637","ios":"levelo://app?vid=57e471ca-fbe6-4128-bb9a-fbbeaa26b637"},"vehicle_type_id":"4","last_reported":1743149591,"current_range_meters":6000,"station_id":"ce4bh692rcd13ifvqe90","pricing_plan_id":"cebpf4jnsgd1na2vs0mg"},{"bike_id":"603306ab-7212-482c-be9a-f190cc44c0e4","system_id":"levelo_inurba_marseille","lat":43.30147,"lon":5.38089,"is_reserved":false,"is_disabled":false,"rental_uris":{"android":"levelo://app?vid=603306ab-7212-482c-be9a-f190cc44c0e4","ios":"levelo://app?vid=603306ab-7212-482c-be9a-f190cc44c0e4"},"vehicle_type_id":"4","last_reported":1743149591,"current_range_meters":6000,"station_id":"ce4bgjp2rcd13ifvqbh0","pricing_plan_id":"cebpf4jnsgd1na2vs0mg"},{"bike_id":"0e173472-5a4b-4021-b0c5-dd55f1f57390","system_id":"levelo_inurba_marseille","lat":43.25085,"lon":5.39514,"is_reserved":false,"is_disabled":false,"rental_uris":{"android":"levelo://app?vid=0e173472-5a4b-4021-b0c5-dd55f1f57390","ios":"levelo://app?vid=0e173472-5a4b-4021-b0c5-dd55f1f57390"},"vehicle_type_id":"4","last_reported":1743149591,"current_range_meters":6000,"station_id":"ce4bhm12rcd13ifvqgkg","pricing_plan_id":"cebpf4jnsgd1na2vs0mg"},{"bike_id":"8a3b71e0-e9af-42e8-ba18-9fedf3139055","system_id":"levelo_inurba_marseille","lat":43.24065,"lon":5.37734,"is_reserved":false,"is_disabled":false,"rental_uris":{"android":"levelo://app?vid=8a3b71e0-e9af-42e8-ba18-9fedf3139055","ios":"levelo://app?vid=8a3b71e0-e9af-42e8-ba18-9fedf3139055"},"vehicle_type_id":"4","last_reported":1743149591,"current_range_meters":6000,"station_id":"ce4bhnp2rcd13ifvqgvg","pricing_plan_id":"cebpf4jnsgd1na2vs0mg"},{"bike_id":"40046afd-c6aa-43ea-88bd-183a4d2ec61c","system_id":"levelo_inurba_marseille","lat":43.31598,"lon":5.41657,"is_reserved":false,"is_disabled":false,"rental_uris":{"android":"levelo://app?vid=40046afd-c6aa-43ea-88bd-183a4d2ec61c","ios":"levelo://app?vid=40046afd-c6aa-43ea-88bd-183a4d2ec61c"},"vehicle_type_id":"4","last_reported":1743149591,"current_range_meters":6400,"station_id":"","pricing_plan_id":"cebpf4jnsgd1na2vs0mg"},{"bike_id":"4ea2dc4a-53b8-4d21-b056-faf850ab7b24","system_id":"levelo_inurba_marseille","lat":43.29564,"lon":5.42276,"is_reserved":false,"is_disabled":false,"rental_uris":{"android":"levelo://app?vid=4ea2dc4a-53b8-4d21-b056-faf850ab7b24","ios":"levelo://app?vid=4ea2dc4a-53b8-4d21-b056-faf850ab7b24"},"vehicle_type_id":"4","last_reported":1743149591,"current_range_meters":6400,"station_id":"ce4bhph2rcd13ifvqhdg","pricing_plan_id":"cebpf4jnsgd1na2vs0mg"},{"bike_id":"67372431-a0a3-4e95-b53b-6e36bdd9f44f","system_id":"levelo_inurba_marseille","lat":43.31481,"lon":5.37285,"is_reserved":false,"is_disabled":false,"rental_uris":{"android":"levelo://app?vid=67372431-a0a3-4e95-b53b-6e36bdd9f44f","ios":"levelo://app?vid=67372431-a0a3-4e95-b53b-6e36bdd9f44f"},"vehicle_type_id":"4","last_reported":1743149591,"current_range_meters":6400,"station_id":"ce4bgt12rcd13ifvqcd0","pricing_plan_id":"cebpf4jnsgd1na2vs0mg"},{"bike_id":"4e6faa15-fb9c-4955-93bf-3fbbc874f1da","system_id":"levelo_inurba_marseille","lat":43.27975,"lon":5.38699,"is_reserved":false,"is_disabled":false,"rental_uris":{"android":"levelo://app?vid=4e6faa15-fb9c-4955-93bf-3fbbc874f1da","ios":"levelo://app?vid=4e6faa15-fb9c-4955-93bf-3fbbc874f1da"},"vehicle_type_id":"4","last_reported":1743149591,"current_range_meters":6400,"station_id":"ce4bhg12rcd13ifvqf80","pricing_plan_id":"cebpf4jnsgd1na2vs0mg"},{"bike_id":"6f7ae2bd-45e1-438a-9160-7e3528920888","system_id":"levelo_inurba_marseille","lat":43.25576,"lon":5.38238,"is_reserved":false,"is_disabled":false,"rental_uris":{"android":"levelo://app?vid=6f7ae2bd-45e1-438a-9160-7e3528920888","ios":"levelo://app?vid=6f7ae2bd-45e1-438a-9160-7e3528920888"},"vehicle_type_id":"4","last_reported":1743149591,"current_range_meters":6400,"station_id":"ce4bhih2rcd13ifvqfs0","pricing_plan_id":"cebpf4jnsgd1na2vs0mg"},{"bike_id":"47164329-372c-4058-9060-a67b38c37c44","system_id":"levelo_inurba_marseille","lat":43.2315,"lon":5.43705,"is_reserved":false,"is_disabled":false,"rental_uris":{"android":"levelo://app?vid=47164329-372c-4058-9060-a67b38c37c44","ios":"levelo://app?vid=47164329-372c-4058-9060-a67b38c37c44"},"vehicle_type_id":"4","last_reported":1743149591,"current_range_meters":6400,"station_id":"ce4bhmp2rcd13ifvqgog","pricing_plan_id":"cebpf4jnsgd1na2vs0mg"},{"bike_id":"46c92c67-a9e1-4996-b4c8-2976ff580333","system_id":"levelo_inurba_marseille","lat":43.24095,"lon":5.37764,"is_reserved":false,"is_disabled":false,"rental_uris":{"android":"levelo://app?vid=46c92c67-a9e1-4996-b4c8-2976ff580333","ios":"levelo://app?vid=46c92c67-a9e1-4996-b4c8-2976ff580333"},"vehicle_type_id":"4","last_reported":1743149591,"current_range_meters":6400,"station_id":"ce4bhnp2rcd13ifvqgvg","pricing_plan_id":"cebpf4jnsgd1na2vs0mg"},{"bike_id":"2e79b411-e3a5-4664-92e4-c5b08854e29b","system_id":"levelo_inurba_marseille","lat":43.29796,"lon":5.38118,"is_reserved":false,"is_disabled":false,"rental_uris":{"android":"levelo://app?vid=2e79b411-e3a5-4664-92e4-c5b08854e29b","ios":"levelo://app?vid=2e79b411-e3a5-4664-92e4-c5b08854e29b"},"vehicle_type_id":"4","last_reported":1743149591,"current_range_meters":6400,"station_id":"ce4bgip2rcd13ifvqbb0","pricing_plan_id":"cebpf4jnsgd1na2vs0mg"},{"bike_id":"58bbe779-0bb3-4285-9a89-5310df6eee00","system_id":"levelo_inurba_marseille","lat":43.2984,"lon":5.3627,"is_reserved":false,"is_disabled":false,"rental_uris":{"android":"levelo://app?vid=58bbe779-0bb3-4285-9a89-5310df6eee00","ios":"levelo://app?vid=58bbe779-0bb3-4285-9a89-5310df6eee00"},"vehicle_type_id":"4","last_reported":1743149591,"current_range_meters":6000,"station_id":"ce4bgpp2rcd13ifvqc3g","pricing_plan_id":"cebpf4jnsgd1na2vs0mg"},{"bike_id":"c18155db-65c7-4d5a-8c5b-923eb75c675d","system_id":"levelo_inurba_marseille","lat":43.32104,"lon":5.36784,"is_reserved":false,"is_disabled":false,"rental_uris":{"android":"levelo://app?vid=c18155db-65c7-4d5a-8c5b-923eb75c675d","ios":"levelo://app?vid=c18155db-65c7-4d5a-8c5b-923eb75c675d"},"vehicle_type_id":"4","last_reported":1743149591,"current_range_meters":6400,"station_id":"ce4bhrh2rcd13ifvqhug","pricing_plan_id":"cebpf4jnsgd1na2vs0mg"},{"bike_id":"27b21e06-28c3-4316-8913-c1642119c8d8","system_id":"levelo_inurba_marseille","lat":43.30535,"lon":5.36694,"is_reserved":false,"is_disabled":false,"rental_uris":{"android":"levelo://app?vid=27b21e06-28c3-4316-8913-c1642119c8d8","ios":"levelo://app?vid=27b21e06-28c3-4316-8913-c1642119c8d8"},"vehicle_type_id":"4","last_reported":1743149591,"current_range_meters":6400,"station_id":"ce4bgrp2rcd13ifvqc9g","pricing_plan_id":"cebpf4jnsgd1na2vs0mg"},{"bike_id":"c994c6bb-69ff-414c-9a0b-7056cc0e86b8","system_id":"levelo_inurba_marseille","lat":43.29271,"lon":5.40124,"is_reserved":false,"is_disabled":false,"rental_uris":{"android":"levelo://app?vid=c994c6bb-69ff-414c-9a0b-7056cc0e86b8","ios":"levelo://app?vid=c994c6bb-69ff-414c-9a0b-7056cc0e86b8"},"vehicle_type_id":"4","last_reported":1743149591,"current_range_meters":6400,"station_id":"ce4bh312rcd13ifvqdk0","pricing_plan_id":"cebpf4jnsgd1na2vs0mg"},{"bike_id":"9977c981-ac38-492f-bd3f-1adae569fe18","system_id":"levelo_inurba_marseille","lat":43.29913,"lon":5.37466,"is_reserved":false,"is_disabled":false,"rental_uris":{"android":"levelo://app?vid=9977c981-ac38-492f-bd3f-1adae569fe18","ios":"levelo://app?vid=9977c981-ac38-492f-bd3f-1adae569fe18"},"vehicle_type_id":"4","last_reported":1743149591,"current_range_meters":6400,"station_id":"ce4bgjh2rcd13ifvqbg0","pricing_plan_id":"cebpf4jnsgd1na2vs0mg"},{"bike_id":"f6df5df7-0c6d-4f12-bd8f-6f8eaeb807d7","system_id":"levelo_inurba_marseille","lat":43.27959,"lon":5.41047,"is_reserved":false,"is_disabled":false,"rental_uris":{"android":"levelo://app?vid=f6df5df7-0c6d-4f12-bd8f-6f8eaeb807d7","ios":"levelo://app?vid=f6df5df7-0c6d-4f12-bd8f-6f8eaeb807d7"},"vehicle_type_id":"4","last_reported":1743149591,"current_range_meters":6400,"station_id":"ce4bhnp2rcd13ifvqh0g","pricing_plan_id":"cebpf4jnsgd1na2vs0mg"},{"bike_id":"da11e873-8731-4153-a3ab-5e5a7f846d22","system_id":"levelo_inurba_marseille","lat":43.28707,"lon":5.39985,"is_reserved":false,"is_disabled":false,"rental_uris":{"android":"levelo://app?vid=da11e873-8731-4153-a3ab-5e5a7f846d22","ios":"levelo://app?vid=da11e873-8731-4153-a3ab-5e5a7f846d22"},"vehicle_type_id":"4","last_reported":1743149591,"current_range_meters":6400,"station_id":"ce4bho92rcd13ifvqh3g","pricing_plan_id":"cebpf4jnsgd1na2vs0mg"},{"bike_id":"da76ef48-2f92-41cb-b7ea-11e6bb0bc372","system_id":"levelo_inurba_marseille","lat":43.25932,"lon":5.40913,"is_reserved":false,"is_disabled":false,"rental_uris":{"android":"levelo://app?vid=da76ef48-2f92-41cb-b7ea-11e6bb0bc372","ios":"levelo://app?vid=da76ef48-2f92-41cb-b7ea-11e6bb0bc372"},"vehicle_type_id":"4","last_reported":1743149591,"current_range_meters":6800,"station_id":"ce4bhm92rcd13ifvqglg","pricing_plan_id":"cebpf4jnsgd1na2vs0mg"},{"bike_id":"6ce9e7ee-804a-4b60-864b-56790ac76bd2","system_id":"levelo_inurba_marseille","lat":43.31227,"lon":5.36863,"is_reserved":false,"is_disabled":false,"rental_uris":{"android":"levelo://app?vid=6ce9e7ee-804a-4b60-864b-56790ac76bd2","ios":"levelo://app?vid=6ce9e7ee-804a-4b60-864b-56790ac76bd2"},"vehicle_type_id":"4","last_reported":1743149591,"current_range_meters":6800,"station_id":"ce4bgl92rcd13ifvqbq0","pricing_plan_id":"cebpf4jnsgd1na2vs0mg"},{"bike_id":"6737211b-f2ae-4895-bfc7-f244bd452108","system_id":"levelo_inurba_marseille","lat":43.324518,"lon":5.365605,"is_reserved":false,"is_disabled":false,"rental_uris":{"android":"levelo://app?vid=6737211b-f2ae-4895-bfc7-f244bd452108","ios":"levelo://app?vid=6737211b-f2ae-4895-bfc7-f244bd452108"},"vehicle_type_id":"4","last_reported":1743149591,"current_range_meters":6800,"station_id":"ce4bhs12rcd13ifvqhvg","pricing_plan_id":"cebpf4jnsgd1na2vs0mg"},{"bike_id":"ad68bb84-3d68-4128-8805-42c8860dcca1","system_id":"levelo_inurba_marseille","lat":43.2926,"lon":5.37616,"is_reserved":false,"is_disabled":false,"rental_uris":{"android":"levelo://app?vid=ad68bb84-3d68-4128-8805-42c8860dcca1","ios":"levelo://app?vid=ad68bb84-3d68-4128-8805-42c8860dcca1"},"vehicle_type_id":"4","last_reported":1743149591,"current_range_meters":6800,"station_id":"ce4bgi12rcd13ifvqb80","pricing_plan_id":"cebpf4jnsgd1na2vs0mg"},{"bike_id":"30cd612a-8cb0-4fab-9e3a-cd08e9fc22b5","system_id":"levelo_inurba_marseille","lat":43.29552,"lon":5.39427,"is_reserved":false,"is_disabled":true,"rental_uris":{"android":"levelo://app?vid=30cd612a-8cb0-4fab-9e3a-cd08e9fc22b5","ios":"levelo://app?vid=30cd612a-8cb0-4fab-9e3a-cd08e9fc22b5"},"vehicle_type_id":"4","last_reported":1743149591,"current_range_meters":6800,"station_id":"ce4bh292rcd13ifvqdf0","pricing_plan_id":"cebpf4jnsgd1na2vs0mg"},{"bike_id":"88753c20-1be7-4d37-b663-7fcc34f696c6","system_id":"levelo_inurba_marseille","lat":43.24998,"lon":5.38936,"is_reserved":false,"is_disabled":false,"rental_uris":{"android":"levelo://app?vid=88753c20-1be7-4d37-b663-7fcc34f696c6","ios":"levelo://app?vid=88753c20-1be7-4d37-b663-7fcc34f696c6"},"vehicle_type_id":"4","last_reported":1743149591,"current_range_meters":6800,"station_id":"ce4bhgp2rcd13ifvqfd0","pricing_plan_id":"cebpf4jnsgd1na2vs0mg"},{"bike_id":"299bc18a-8d87-4dc4-849b-724bad443a1b","system_id":"levelo_inurba_marseille","lat":43.32534,"lon":5.41423,"is_reserved":false,"is_disabled":false,"rental_uris":{"android":"levelo://app?vid=299bc18a-8d87-4dc4-849b-724bad443a1b","ios":"levelo://app?vid=299bc18a-8d87-4dc4-849b-724bad443a1b"},"vehicle_type_id":"4","last_reported":1743149591,"current_range_meters":7200,"station_id":"ce4bhq12rcd13ifvqhhg","pricing_plan_id":"cebpf4jnsgd1na2vs0mg"},{"bike_id":"918a58ed-e860-41ef-bd73-9cdbd97e19d1","system_id":"levelo_inurba_marseille","lat":43.240718,"lon":5.377646,"is_reserved":false,"is_disabled":false,"rental_uris":{"android":"levelo://app?vid=918a58ed-e860-41ef-bd73-9cdbd97e19d1","ios":"levelo://app?vid=918a58ed-e860-41ef-bd73-9cdbd97e19d1"},"vehicle_type_id":"4","last_reported":1743149591,"current_range_meters":7200,"station_id":"ce4bhnp2rcd13ifvqgvg","pricing_plan_id":"cebpf4jnsgd1na2vs0mg"},{"bike_id":"2079e143-15fb-4fca-b428-1dcdbd2da2aa","system_id":"levelo_inurba_marseille","lat":43.27831,"lon":5.40717,"is_reserved":false,"is_disabled":false,"rental_uris":{"android":"levelo://app?vid=2079e143-15fb-4fca-b428-1dcdbd2da2aa","ios":"levelo://app?vid=2079e143-15fb-4fca-b428-1dcdbd2da2aa"},"vehicle_type_id":"4","last_reported":1743149591,"current_range_meters":7200,"station_id":"ce4bhnh2rcd13ifvqgtg","pricing_plan_id":"cebpf4jnsgd1na2vs0mg"},{"bike_id":"a605bea9-7cde-4e7a-9197-ac85e4bbbfe8","system_id":"levelo_inurba_marseille","lat":43.30152,"lon":5.38081,"is_reserved":false,"is_disabled":false,"rental_uris":{"android":"levelo://app?vid=a605bea9-7cde-4e7a-9197-ac85e4bbbfe8","ios":"levelo://app?vid=a605bea9-7cde-4e7a-9197-ac85e4bbbfe8"},"vehicle_type_id":"4","last_reported":1743149591,"current_range_meters":7200,"station_id":"ce4bgjp2rcd13ifvqbh0","pricing_plan_id":"cebpf4jnsgd1na2vs0mg"},{"bike_id":"0d268bc8-088b-4f54-90a0-0d14ccc60ae3","system_id":"levelo_inurba_marseille","lat":43.293021,"lon":5.374506,"is_reserved":false,"is_disabled":true,"rental_uris":{"android":"levelo://app?vid=0d268bc8-088b-4f54-90a0-0d14ccc60ae3","ios":"levelo://app?vid=0d268bc8-088b-4f54-90a0-0d14ccc60ae3"},"vehicle_type_id":"4","last_reported":1743149591,"current_range_meters":7200,"station_id":"ce4bgi12rcd13ifvqb70","pricing_plan_id":"cebpf4jnsgd1na2vs0mg"},{"bike_id":"a49216a6-eb3c-4816-83d9-2230879544b5","system_id":"levelo_inurba_marseille","lat":43.24179,"lon":5.39729,"is_reserved":false,"is_disabled":false,"rental_uris":{"android":"levelo://app?vid=a49216a6-eb3c-4816-83d9-2230879544b5","ios":"levelo://app?vid=a49216a6-eb3c-4816-83d9-2230879544b5"},"vehicle_type_id":"4","last_reported":1743149591,"current_range_meters":7200,"station_id":"ce4bhn12rcd13ifvqgpg","pricing_plan_id":"cebpf4jnsgd1na2vs0mg"},{"bike_id":"c5d17eb8-cde1-49a3-9672-ac8d8cf34632","system_id":"levelo_inurba_marseille","lat":43.33442,"lon":5.40013,"is_reserved":false,"is_disabled":false,"rental_uris":{"android":"levelo://app?vid=c5d17eb8-cde1-49a3-9672-ac8d8cf34632","ios":"levelo://app?vid=c5d17eb8-cde1-49a3-9672-ac8d8cf34632"},"vehicle_type_id":"4","last_reported":1743149591,"current_range_meters":7200,"station_id":"","pricing_plan_id":"cebpf4jnsgd1na2vs0mg"},{"bike_id":"f75906aa-a18b-4286-807b-d5151ae88e38","system_id":"levelo_inurba_marseille","lat":43.292993,"lon":5.374571,"is_reserved":false,"is_disabled":false,"rental_uris":{"android":"levelo://app?vid=f75906aa-a18b-4286-807b-d5151ae88e38","ios":"levelo://app?vid=f75906aa-a18b-4286-807b-d5151ae88e38"},"vehicle_type_id":"4","last_reported":1743149591,"current_range_meters":7200,"station_id":"ce4bgi12rcd13ifvqb70","pricing_plan_id":"cebpf4jnsgd1na2vs0mg"},{"bike_id":"fc8e8371-f4e9-4721-bc19-563801e389dc","system_id":"levelo_inurba_marseille","lat":43.337444,"lon":5.374475,"is_reserved":false,"is_disabled":false,"rental_uris":{"android":"levelo://app?vid=fc8e8371-f4e9-4721-bc19-563801e389dc","ios":"levelo://app?vid=fc8e8371-f4e9-4721-bc19-563801e389dc"},"vehicle_type_id":"4","last_reported":1743149591,"current_range_meters":7200,"station_id":"","pricing_plan_id":"cebpf4jnsgd1na2vs0mg"},{"bike_id":"3a9bdcca-abab-46db-a40a-336182c98f57","system_id":"levelo_inurba_marseille","lat":43.27813,"lon":5.40719,"is_reserved":false,"is_disabled":false,"rental_uris":{"android":"levelo://app?vid=3a9bdcca-abab-46db-a40a-336182c98f57","ios":"levelo://app?vid=3a9bdcca-abab-46db-a40a-336182c98f57"},"vehicle_type_id":"4","last_reported":1743149591,"current_range_meters":8000,"station_id":"ce4bhnh2rcd13ifvqgtg","pricing_plan_id":"cebpf4jnsgd1na2vs0mg"},{"bike_id":"09a227f9-e81f-4ae4-8d74-65daf422601e","system_id":"levelo_inurba_marseille","lat":43.248136,"lon":5.374606,"is_reserved":false,"is_disabled":false,"rental_uris":{"android":"levelo://app?vid=09a227f9-e81f-4ae4-8d74-65daf422601e","ios":"levelo://app?vid=09a227f9-e81f-4ae4-8d74-65daf422601e"},"vehicle_type_id":"4","last_reported":1743149591,"current_range_meters":8000,"station_id":"ce4bhgh2rcd13ifvqfb0","pricing_plan_id":"cebpf4jnsgd1na2vs0mg"},{"bike_id":"14047aa8-f0ab-4e97-9be1-0de655be94b5","system_id":"levelo_inurba_marseille","lat":43.2594,"lon":5.409,"is_reserved":false,"is_disabled":false,"rental_uris":{"android":"levelo://app?vid=14047aa8-f0ab-4e97-9be1-0de655be94b5","ios":"levelo://app?vid=14047aa8-f0ab-4e97-9be1-0de655be94b5"},"vehicle_type_id":"4","last_reported":1743149591,"current_range_meters":8000,"station_id":"ce4bhm92rcd13ifvqglg","pricing_plan_id":"cebpf4jnsgd1na2vs0mg"},{"bike_id":"83d5c7e2-d0f3-454f-a357-cd5f0b5613b3","system_id":"levelo_inurba_marseille","lat":43.30553,"lon":5.36709,"is_reserved":false,"is_disabled":false,"rental_uris":{"android":"levelo://app?vid=83d5c7e2-d0f3-454f-a357-cd5f0b5613b3","ios":"levelo://app?vid=83d5c7e2-d0f3-454f-a357-cd5f0b5613b3"},"vehicle_type_id":"4","last_reported":1743149591,"current_range_meters":8000,"station_id":"ce4bgrp2rcd13ifvqc9g","pricing_plan_id":"cebpf4jnsgd1na2vs0mg"},{"bike_id":"ce7d09e2-dc25-44e9-a514-8b98cd6619e1","system_id":"levelo_inurba_marseille","lat":43.28704,"lon":5.399897,"is_reserved":false,"is_disabled":false,"rental_uris":{"android":"levelo://app?vid=ce7d09e2-dc25-44e9-a514-8b98cd6619e1","ios":"levelo://app?vid=ce7d09e2-dc25-44e9-a514-8b98cd6619e1"},"vehicle_type_id":"4","last_reported":1743149591,"current_range_meters":8000,"station_id":"ce4bho92rcd13ifvqh3g","pricing_plan_id":"cebpf4jnsgd1na2vs0mg"},{"bike_id":"bf3d14fb-b7ff-47ab-a4b1-fc6b5f67af6b","system_id":"levelo_inurba_marseille","lat":43.24073,"lon":5.37756,"is_reserved":false,"is_disabled":false,"rental_uris":{"android":"levelo://app?vid=bf3d14fb-b7ff-47ab-a4b1-fc6b5f67af6b","ios":"levelo://app?vid=bf3d14fb-b7ff-47ab-a4b1-fc6b5f67af6b"},"vehicle_type_id":"4","last_reported":1743149591,"current_range_meters":8000,"station_id":"ce4bhnp2rcd13ifvqgvg","pricing_plan_id":"cebpf4jnsgd1na2vs0mg"},{"bike_id":"3dd691de-19a8-4db5-8853-83ae91ff9c7b","system_id":"levelo_inurba_marseille","lat":43.30532,"lon":5.36557,"is_reserved":false,"is_disabled":false,"rental_uris":{"android":"levelo://app?vid=3dd691de-19a8-4db5-8853-83ae91ff9c7b","ios":"levelo://app?vid=3dd691de-19a8-4db5-8853-83ae91ff9c7b"},"vehicle_type_id":"4","last_reported":1743149591,"current_range_meters":8000,"station_id":"ce4bgs12rcd13ifvqcag","pricing_plan_id":"cebpf4jnsgd1na2vs0mg"},{"bike_id":"7cee71f2-f8e1-47f8-9ab5-110dd7322ca7","system_id":"levelo_inurba_marseille","lat":43.33608,"lon":5.41031,"is_reserved":false,"is_disabled":false,"rental_uris":{"android":"levelo://app?vid=7cee71f2-f8e1-47f8-9ab5-110dd7322ca7","ios":"levelo://app?vid=7cee71f2-f8e1-47f8-9ab5-110dd7322ca7"},"vehicle_type_id":"4","last_reported":1743149591,"current_range_meters":8000,"station_id":"ce4bhqh2rcd13ifvqhmg","pricing_plan_id":"cebpf4jnsgd1na2vs0mg"},{"bike_id":"b6277294-9c97-4bd2-bb72-519bd900d431","system_id":"levelo_inurba_marseille","lat":43.29314,"lon":5.37466,"is_reserved":false,"is_disabled":true,"rental_uris":{"android":"levelo://app?vid=b6277294-9c97-4bd2-bb72-519bd900d431","ios":"levelo://app?vid=b6277294-9c97-4bd2-bb72-519bd900d431"},"vehicle_type_id":"4","last_reported":1743149591,"current_range_meters":8400,"station_id":"ce4bgi12rcd13ifvqb70","pricing_plan_id":"cebpf4jnsgd1na2vs0mg"},{"bike_id":"ec940620-2a09-4eae-aace-1a0a72b62180","system_id":"levelo_inurba_marseille","lat":43.30275,"lon":5.40064,"is_reserved":false,"is_disabled":false,"rental_uris":{"android":"levelo://app?vid=ec940620-2a09-4eae-aace-1a0a72b62180","ios":"levelo://app?vid=ec940620-2a09-4eae-aace-1a0a72b62180"},"vehicle_type_id":"4","last_reported":1743149591,"current_range_meters":8400,"station_id":"ce4bgvh2rcd13ifvqcs0","pricing_plan_id":"cebpf4jnsgd1na2vs0mg"},{"bike_id":"bc3f138a-3af0-4b4e-9b07-2d2a8e540795","system_id":"levelo_inurba_marseille","lat":43.26516,"lon":5.39569,"is_reserved":false,"is_disabled":true,"rental_uris":{"android":"levelo://app?vid=bc3f138a-3af0-4b4e-9b07-2d2a8e540795","ios":"levelo://app?vid=bc3f138a-3af0-4b4e-9b07-2d2a8e540795"},"vehicle_type_id":"4","last_reported":1743149591,"current_range_meters":8400,"station_id":"ce4bhi12rcd13ifvqfq0","pricing_plan_id":"cebpf4jnsgd1na2vs0mg"},{"bike_id":"9395923a-61d4-41d6-adf6-6feb4b99671c","system_id":"levelo_inurba_marseille","lat":43.24081,"lon":5.37753,"is_reserved":false,"is_disabled":false,"rental_uris":{"android":"levelo://app?vid=9395923a-61d4-41d6-adf6-6feb4b99671c","ios":"levelo://app?vid=9395923a-61d4-41d6-adf6-6feb4b99671c"},"vehicle_type_id":"4","last_reported":1743149591,"current_range_meters":8400,"station_id":"ce4bhnp2rcd13ifvqgvg","pricing_plan_id":"cebpf4jnsgd1na2vs0mg"},{"bike_id":"0ac88cdf-dd3a-494f-aaa5-2b24d1ce393f","system_id":"levelo_inurba_marseille","lat":43.23185,"lon":5.35588,"is_reserved":false,"is_disabled":false,"rental_uris":{"android":"levelo://app?vid=0ac88cdf-dd3a-494f-aaa5-2b24d1ce393f","ios":"levelo://app?vid=0ac88cdf-dd3a-494f-aaa5-2b24d1ce393f"},"vehicle_type_id":"4","last_reported":1743149591,"current_range_meters":8400,"station_id":"ce4bhu92rcd13ifvqi70","pricing_plan_id":"cebpf4jnsgd1na2vs0mg"},{"bike_id":"19221227-42ec-4f4b-8f04-42a0818e22f5","system_id":"levelo_inurba_marseille","lat":43.32093,"lon":5.36777,"is_reserved":false,"is_disabled":false,"rental_uris":{"android":"levelo://app?vid=19221227-42ec-4f4b-8f04-42a0818e22f5","ios":"levelo://app?vid=19221227-42ec-4f4b-8f04-42a0818e22f5"},"vehicle_type_id":"4","last_reported":1743149591,"current_range_meters":8400,"station_id":"ce4bhrh2rcd13ifvqhug","pricing_plan_id":"cebpf4jnsgd1na2vs0mg"},{"bike_id":"64f0ea86-1180-4755-95e1-3cbc9c8d4cf5","system_id":"levelo_inurba_marseille","lat":43.32997,"lon":5.43866,"is_reserved":false,"is_disabled":true,"rental_uris":{"android":"levelo://app?vid=64f0ea86-1180-4755-95e1-3cbc9c8d4cf5","ios":"levelo://app?vid=64f0ea86-1180-4755-95e1-3cbc9c8d4cf5"},"vehicle_type_id":"4","last_reported":1743149591,"current_range_meters":8400,"station_id":"","pricing_plan_id":"cebpf4jnsgd1na2vs0mg"},{"bike_id":"5e7b5ecc-9efb-494c-9b7d-951359200b50","system_id":"levelo_inurba_marseille","lat":43.30944,"lon":5.39038,"is_reserved":false,"is_disabled":false,"rental_uris":{"android":"levelo://app?vid=5e7b5ecc-9efb-494c-9b7d-951359200b50","ios":"levelo://app?vid=5e7b5ecc-9efb-494c-9b7d-951359200b50"},"vehicle_type_id":"4","last_reported":1743149591,"current_range_meters":8400,"station_id":"ce4bgup2rcd13ifvqco0","pricing_plan_id":"cebpf4jnsgd1na2vs0mg"},{"bike_id":"303920cf-dcc2-4aeb-a93f-f88634be239b","system_id":"levelo_inurba_marseille","lat":43.26955,"lon":5.38641,"is_reserved":false,"is_disabled":false,"rental_uris":{"android":"levelo://app?vid=303920cf-dcc2-4aeb-a93f-f88634be239b","ios":"levelo://app?vid=303920cf-dcc2-4aeb-a93f-f88634be239b"},"vehicle_type_id":"4","last_reported":1743149591,"current_range_meters":8800,"station_id":"ce4bhh92rcd13ifvqfh0","pricing_plan_id":"cebpf4jnsgd1na2vs0mg"},{"bike_id":"cdb2f517-4546-4a6f-868b-2214dbe00e77","system_id":"levelo_inurba_marseille","lat":43.28501,"lon":5.38548,"is_reserved":false,"is_disabled":false,"rental_uris":{"android":"levelo://app?vid=cdb2f517-4546-4a6f-868b-2214dbe00e77","ios":"levelo://app?vid=cdb2f517-4546-4a6f-868b-2214dbe00e77"},"vehicle_type_id":"4","last_reported":1743149591,"current_range_meters":8800,"station_id":"ce4bh8p2rcd13ifvqeb0","pricing_plan_id":"cebpf4jnsgd1na2vs0mg"},{"bike_id":"25c93242-72e6-4525-aea7-7d96e2cd1825","system_id":"levelo_inurba_marseille","lat":43.33062,"lon":5.40848,"is_reserved":false,"is_disabled":false,"rental_uris":{"android":"levelo://app?vid=25c93242-72e6-4525-aea7-7d96e2cd1825","ios":"levelo://app?vid=25c93242-72e6-4525-aea7-7d96e2cd1825"},"vehicle_type_id":"4","last_reported":1743149591,"current_range_meters":8800,"station_id":"","pricing_plan_id":"cebpf4jnsgd1na2vs0mg"},{"bike_id":"1d717155-e0ce-4b7c-a88e-43c8c5394296","system_id":"levelo_inurba_marseille","lat":43.29517,"lon":5.422858,"is_reserved":false,"is_disabled":false,"rental_uris":{"android":"levelo://app?vid=1d717155-e0ce-4b7c-a88e-43c8c5394296","ios":"levelo://app?vid=1d717155-e0ce-4b7c-a88e-43c8c5394296"},"vehicle_type_id":"4","last_reported":1743149591,"current_range_meters":8800,"station_id":"ce4bhph2rcd13ifvqhdg","pricing_plan_id":"cebpf4jnsgd1na2vs0mg"},{"bike_id":"37dde103-dac7-438f-959f-8470c1bff91b","system_id":"levelo_inurba_marseille","lat":43.29534,"lon":5.3751,"is_reserved":false,"is_disabled":false,"rental_uris":{"android":"levelo://app?vid=37dde103-dac7-438f-959f-8470c1bff91b","ios":"levelo://app?vid=37dde103-dac7-438f-959f-8470c1bff91b"},"vehicle_type_id":"4","last_reported":1743149591,"current_range_meters":8800,"station_id":"ce4bgkp2rcd13ifvqbmg","pricing_plan_id":"cebpf4jnsgd1na2vs0mg"},{"bike_id":"0a16b8ea-a517-456b-917a-06541594dc5b","system_id":"levelo_inurba_marseille","lat":43.30277,"lon":5.37717,"is_reserved":false,"is_disabled":false,"rental_uris":{"android":"levelo://app?vid=0a16b8ea-a517-456b-917a-06541594dc5b","ios":"levelo://app?vid=0a16b8ea-a517-456b-917a-06541594dc5b"},"vehicle_type_id":"4","last_reported":1743149591,"current_range_meters":8800,"station_id":"ce4bguh2rcd13ifvqcj0","pricing_plan_id":"cebpf4jnsgd1na2vs0mg"},{"bike_id":"13fab953-6a5b-48c3-a17b-350607d5e06f","system_id":"levelo_inurba_marseille","lat":43.27969,"lon":5.38737,"is_reserved":false,"is_disabled":false,"rental_uris":{"android":"levelo://app?vid=13fab953-6a5b-48c3-a17b-350607d5e06f","ios":"levelo://app?vid=13fab953-6a5b-48c3-a17b-350607d5e06f"},"vehicle_type_id":"4","last_reported":1743149591,"current_range_meters":8800,"station_id":"ce4bhg12rcd13ifvqf80","pricing_plan_id":"cebpf4jnsgd1na2vs0mg"},{"bike_id":"813634ed-e21d-4b9e-88e8-aa8b87581eb3","system_id":"levelo_inurba_marseille","lat":43.32113,"lon":5.36785,"is_reserved":false,"is_disabled":false,"rental_uris":{"android":"levelo://app?vid=813634ed-e21d-4b9e-88e8-aa8b87581eb3","ios":"levelo://app?vid=813634ed-e21d-4b9e-88e8-aa8b87581eb3"},"vehicle_type_id":"4","last_reported":1743149591,"current_range_meters":9200,"station_id":"ce4bhrh2rcd13ifvqhug","pricing_plan_id":"cebpf4jnsgd1na2vs0mg"},{"bike_id":"f00e0bf1-e77c-4752-8f1b-63a2e565cf51","system_id":"levelo_inurba_marseille","lat":43.27963,"lon":5.38731,"is_reserved":false,"is_disabled":true,"rental_uris":{"android":"levelo://app?vid=f00e0bf1-e77c-4752-8f1b-63a2e565cf51","ios":"levelo://app?vid=f00e0bf1-e77c-4752-8f1b-63a2e565cf51"},"vehicle_type_id":"4","last_reported":1743149591,"current_range_meters":9200,"station_id":"ce4bhg12rcd13ifvqf80","pricing_plan_id":"cebpf4jnsgd1na2vs0mg"},{"bike_id":"364c967b-8ec0-4ffb-9c1f-f3dcbe8f35a4","system_id":"levelo_inurba_marseille","lat":43.29035,"lon":5.39957,"is_reserved":false,"is_disabled":false,"rental_uris":{"android":"levelo://app?vid=364c967b-8ec0-4ffb-9c1f-f3dcbe8f35a4","ios":"levelo://app?vid=364c967b-8ec0-4ffb-9c1f-f3dcbe8f35a4"},"vehicle_type_id":"4","last_reported":1743149591,"current_range_meters":9200,"station_id":"ce4bh392rcd13ifvqdm0","pricing_plan_id":"cebpf4jnsgd1na2vs0mg"},{"bike_id":"827f9267-91f2-4b6e-a994-aa0a9f511e2b","system_id":"levelo_inurba_marseille","lat":43.308929,"lon":5.36842,"is_reserved":false,"is_disabled":false,"rental_uris":{"android":"levelo://app?vid=827f9267-91f2-4b6e-a994-aa0a9f511e2b","ios":"levelo://app?vid=827f9267-91f2-4b6e-a994-aa0a9f511e2b"},"vehicle_type_id":"4","last_reported":1743149591,"current_range_meters":9200,"station_id":"ce4bhg12rcd13ifvqf60","pricing_plan_id":"cebpf4jnsgd1na2vs0mg"},{"bike_id":"bc77c38e-7ac8-4135-8642-96b1dae3bdef","system_id":"levelo_inurba_marseille","lat":43.27963,"lon":5.38718,"is_reserved":false,"is_disabled":false,"rental_uris":{"android":"levelo://app?vid=bc77c38e-7ac8-4135-8642-96b1dae3bdef","ios":"levelo://app?vid=bc77c38e-7ac8-4135-8642-96b1dae3bdef"},"vehicle_type_id":"4","last_reported":1743149591,"current_range_meters":9200,"station_id":"ce4bhg12rcd13ifvqf80","pricing_plan_id":"cebpf4jnsgd1na2vs0mg"},{"bike_id":"c7347774-7a12-4d41-94eb-c1205378f995","system_id":"levelo_inurba_marseille","lat":43.26692,"lon":5.382917,"is_reserved":false,"is_disabled":false,"rental_uris":{"android":"levelo://app?vid=c7347774-7a12-4d41-94eb-c1205378f995","ios":"levelo://app?vid=c7347774-7a12-4d41-94eb-c1205378f995"},"vehicle_type_id":"4","last_reported":1743149591,"current_range_meters":8800,"station_id":"ce4bhg92rcd13ifvqf90","pricing_plan_id":"cebpf4jnsgd1na2vs0mg"},{"bike_id":"e8d201f1-9aa9-4ae6-a427-58a645e166df","system_id":"levelo_inurba_marseille","lat":43.29872,"lon":5.39736,"is_reserved":false,"is_disabled":false,"rental_uris":{"android":"levelo://app?vid=e8d201f1-9aa9-4ae6-a427-58a645e166df","ios":"levelo://app?vid=e8d201f1-9aa9-4ae6-a427-58a645e166df"},"vehicle_type_id":"4","last_reported":1743149591,"current_range_meters":9200,"station_id":"ce4bh0h2rcd13ifvqd50","pricing_plan_id":"cebpf4jnsgd1na2vs0mg"},{"bike_id":"706a1c19-2815-4115-881f-f39c33bbc89c","system_id":"levelo_inurba_marseille","lat":43.25931,"lon":5.40901,"is_reserved":false,"is_disabled":false,"rental_uris":{"android":"levelo://app?vid=706a1c19-2815-4115-881f-f39c33bbc89c","ios":"levelo://app?vid=706a1c19-2815-4115-881f-f39c33bbc89c"},"vehicle_type_id":"4","last_reported":1743149591,"current_range_meters":9600,"station_id":"ce4bhm92rcd13ifvqglg","pricing_plan_id":"cebpf4jnsgd1na2vs0mg"},{"bike_id":"b5fb04b0-36e0-4476-9ac0-b3cd6f541b22","system_id":"levelo_inurba_marseille","lat":43.312328,"lon":5.368188,"is_reserved":false,"is_disabled":false,"rental_uris":{"android":"levelo://app?vid=b5fb04b0-36e0-4476-9ac0-b3cd6f541b22","ios":"levelo://app?vid=b5fb04b0-36e0-4476-9ac0-b3cd6f541b22"},"vehicle_type_id":"4","last_reported":1743149591,"current_range_meters":9600,"station_id":"ce4bgl92rcd13ifvqbq0","pricing_plan_id":"cebpf4jnsgd1na2vs0mg"},{"bike_id":"2572e6e3-dd66-4d2f-adbc-7c4ae747f503","system_id":"levelo_inurba_marseille","lat":43.2904,"lon":5.39959,"is_reserved":false,"is_disabled":false,"rental_uris":{"android":"levelo://app?vid=2572e6e3-dd66-4d2f-adbc-7c4ae747f503","ios":"levelo://app?vid=2572e6e3-dd66-4d2f-adbc-7c4ae747f503"},"vehicle_type_id":"4","last_reported":1743149591,"current_range_meters":9600,"station_id":"ce4bh392rcd13ifvqdm0","pricing_plan_id":"cebpf4jnsgd1na2vs0mg"},{"bike_id":"2e919ca5-ce98-4c47-a9d7-66e6ab7584e4","system_id":"levelo_inurba_marseille","lat":43.32117,"lon":5.36765,"is_reserved":false,"is_disabled":false,"rental_uris":{"android":"levelo://app?vid=2e919ca5-ce98-4c47-a9d7-66e6ab7584e4","ios":"levelo://app?vid=2e919ca5-ce98-4c47-a9d7-66e6ab7584e4"},"vehicle_type_id":"4","last_reported":1743149591,"current_range_meters":9600,"station_id":"ce4bhrh2rcd13ifvqhug","pricing_plan_id":"cebpf4jnsgd1na2vs0mg"},{"bike_id":"88a5784f-6807-415e-8139-a442d7119eb7","system_id":"levelo_inurba_marseille","lat":43.30611,"lon":5.39362,"is_reserved":false,"is_disabled":true,"rental_uris":{"android":"levelo://app?vid=88a5784f-6807-415e-8139-a442d7119eb7","ios":"levelo://app?vid=88a5784f-6807-415e-8139-a442d7119eb7"},"vehicle_type_id":"4","last_reported":1743149591,"current_range_meters":9600,"station_id":"ce4bh0p2rcd13ifvqd80","pricing_plan_id":"cebpf4jnsgd1na2vs0mg"},{"bike_id":"4a74370e-ca92-4e0a-83cf-7fbe9f339599","system_id":"levelo_inurba_marseille","lat":43.29268,"lon":5.40914,"is_reserved":false,"is_disabled":false,"rental_uris":{"android":"levelo://app?vid=4a74370e-ca92-4e0a-83cf-7fbe9f339599","ios":"levelo://app?vid=4a74370e-ca92-4e0a-83cf-7fbe9f339599"},"vehicle_type_id":"4","last_reported":1743149591,"current_range_meters":9600,"station_id":"ce4bh192rcd13ifvqdc0","pricing_plan_id":"cebpf4jnsgd1na2vs0mg"},{"bike_id":"bc022cf2-ffb2-42dc-a1a9-7c699c7a87b9","system_id":"levelo_inurba_marseille","lat":43.29598,"lon":5.38113,"is_reserved":false,"is_disabled":false,"rental_uris":{"android":"levelo://app?vid=bc022cf2-ffb2-42dc-a1a9-7c699c7a87b9","ios":"levelo://app?vid=bc022cf2-ffb2-42dc-a1a9-7c699c7a87b9"},"vehicle_type_id":"4","last_reported":1743149591,"current_range_meters":9600,"station_id":"ce4bgl12rcd13ifvqbo0","pricing_plan_id":"cebpf4jnsgd1na2vs0mg"},{"bike_id":"1f0101d6-7c09-4b54-ad86-fbb8ffa92c84","system_id":"levelo_inurba_marseille","lat":43.28938,"lon":5.36648,"is_reserved":false,"is_disabled":false,"rental_uris":{"android":"levelo://app?vid=1f0101d6-7c09-4b54-ad86-fbb8ffa92c84","ios":"levelo://app?vid=1f0101d6-7c09-4b54-ad86-fbb8ffa92c84"},"vehicle_type_id":"4","last_reported":1743149591,"current_range_meters":9600,"station_id":"ce4bhap2rcd13ifvqek0","pricing_plan_id":"cebpf4jnsgd1na2vs0mg"},{"bike_id":"d75f9f5e-4772-4de2-8f78-058b650907ab","system_id":"levelo_inurba_marseille","lat":43.24166,"lon":5.36404,"is_reserved":false,"is_disabled":true,"rental_uris":{"android":"levelo://app?vid=d75f9f5e-4772-4de2-8f78-058b650907ab","ios":"levelo://app?vid=d75f9f5e-4772-4de2-8f78-058b650907ab"},"vehicle_type_id":"4","last_reported":1743149591,"current_range_meters":9600,"station_id":"cpo36qri1sfpv3e86is0","pricing_plan_id":"cebpf4jnsgd1na2vs0mg"},{"bike_id":"d2d4ec15-da64-4305-85c8-c60dd8964b05","system_id":"levelo_inurba_marseille","lat":43.30145,"lon":5.37412,"is_reserved":false,"is_disabled":false,"rental_uris":{"android":"levelo://app?vid=d2d4ec15-da64-4305-85c8-c60dd8964b05","ios":"levelo://app?vid=d2d4ec15-da64-4305-85c8-c60dd8964b05"},"vehicle_type_id":"4","last_reported":1743149591,"current_range_meters":9600,"station_id":"ce4bgs92rcd13ifvqcc0","pricing_plan_id":"cebpf4jnsgd1na2vs0mg"},{"bike_id":"941a7cd2-43fa-4ecf-a602-0ab3bd907d37","system_id":"levelo_inurba_marseille","lat":43.29027,"lon":5.38648,"is_reserved":false,"is_disabled":false,"rental_uris":{"android":"levelo://app?vid=941a7cd2-43fa-4ecf-a602-0ab3bd907d37","ios":"levelo://app?vid=941a7cd2-43fa-4ecf-a602-0ab3bd907d37"},"vehicle_type_id":"4","last_reported":1743149591,"current_range_meters":9600,"station_id":"ce4bh4p2rcd13ifvqe0g","pricing_plan_id":"cebpf4jnsgd1na2vs0mg"},{"bike_id":"4a42ca1e-41e4-4233-a4bb-a180f04564d6","system_id":"levelo_inurba_marseille","lat":43.29178,"lon":5.37162,"is_reserved":false,"is_disabled":true,"rental_uris":{"android":"levelo://app?vid=4a42ca1e-41e4-4233-a4bb-a180f04564d6","ios":"levelo://app?vid=4a42ca1e-41e4-4233-a4bb-a180f04564d6"},"vehicle_type_id":"4","last_reported":1743149591,"current_range_meters":10000,"station_id":"ce4bha92rcd13ifvqeh0","pricing_plan_id":"cebpf4jnsgd1na2vs0mg"},{"bike_id":"37523f2c-80ab-4b86-8f58-ec89dea5dfde","system_id":"levelo_inurba_marseille","lat":43.28935,"lon":5.36643,"is_reserved":false,"is_disabled":false,"rental_uris":{"android":"levelo://app?vid=37523f2c-80ab-4b86-8f58-ec89dea5dfde","ios":"levelo://app?vid=37523f2c-80ab-4b86-8f58-ec89dea5dfde"},"vehicle_type_id":"4","last_reported":1743149591,"current_range_meters":9600,"station_id":"ce4bhap2rcd13ifvqek0","pricing_plan_id":"cebpf4jnsgd1na2vs0mg"},{"bike_id":"ed3f340d-7b56-49a7-952a-c79c8daa5f0f","system_id":"levelo_inurba_marseille","lat":43.30158,"lon":5.38783,"is_reserved":false,"is_disabled":true,"rental_uris":{"android":"levelo://app?vid=ed3f340d-7b56-49a7-952a-c79c8daa5f0f","ios":"levelo://app?vid=ed3f340d-7b56-49a7-952a-c79c8daa5f0f"},"vehicle_type_id":"4","last_reported":1743149591,"current_range_meters":10000,"station_id":"ce4bghh2rcd13ifvqb60","pricing_plan_id":"cebpf4jnsgd1na2vs0mg"},{"bike_id":"14e8351b-7d71-46ca-82eb-d58cf3fecc4a","system_id":"levelo_inurba_marseille","lat":43.24651,"lon":5.38917,"is_reserved":false,"is_disabled":false,"rental_uris":{"android":"levelo://app?vid=14e8351b-7d71-46ca-82eb-d58cf3fecc4a","ios":"levelo://app?vid=14e8351b-7d71-46ca-82eb-d58cf3fecc4a"},"vehicle_type_id":"4","last_reported":1743149591,"current_range_meters":10000,"station_id":"ce4bhg12rcd13ifvqf60","pricing_plan_id":"cebpf4jnsgd1na2vs0mg"},{"bike_id":"66451a7a-9a44-498f-a6bd-9db70a2b158b","system_id":"levelo_inurba_marseille","lat":43.24072,"lon":5.37764,"is_reserved":false,"is_disabled":false,"rental_uris":{"android":"levelo://app?vid=66451a7a-9a44-498f-a6bd-9db70a2b158b","ios":"levelo://app?vid=66451a7a-9a44-498f-a6bd-9db70a2b158b"},"vehicle_type_id":"4","last_reported":1743149591,"current_range_meters":10000,"station_id":"ce4bhnp2rcd13ifvqgvg","pricing_plan_id":"cebpf4jnsgd1na2vs0mg"},{"bike_id":"74bb3be4-214a-4907-a0a6-cb5edcf13a83","system_id":"levelo_inurba_marseille","lat":43.297149,"lon":5.365995,"is_reserved":false,"is_disabled":true,"rental_uris":{"android":"levelo://app?vid=74bb3be4-214a-4907-a0a6-cb5edcf13a83","ios":"levelo://app?vid=74bb3be4-214a-4907-a0a6-cb5edcf13a83"},"vehicle_type_id":"4","last_reported":1743149591,"current_range_meters":10000,"station_id":"ce4bgn12rcd13ifvqbt0","pricing_plan_id":"cebpf4jnsgd1na2vs0mg"},{"bike_id":"bfa018d7-4766-430e-8a9d-9b17e9a65a71","system_id":"levelo_inurba_marseille","lat":43.25094,"lon":5.39528,"is_reserved":false,"is_disabled":false,"rental_uris":{"android":"levelo://app?vid=bfa018d7-4766-430e-8a9d-9b17e9a65a71","ios":"levelo://app?vid=bfa018d7-4766-430e-8a9d-9b17e9a65a71"},"vehicle_type_id":"4","last_reported":1743149591,"current_range_meters":10000,"station_id":"ce4bhm12rcd13ifvqgkg","pricing_plan_id":"cebpf4jnsgd1na2vs0mg"},{"bike_id":"39bd3213-cb54-452a-82c9-76db17bf74d5","system_id":"levelo_inurba_marseille","lat":43.30519,"lon":5.36564,"is_reserved":false,"is_disabled":false,"rental_uris":{"android":"levelo://app?vid=39bd3213-cb54-452a-82c9-76db17bf74d5","ios":"levelo://app?vid=39bd3213-cb54-452a-82c9-76db17bf74d5"},"vehicle_type_id":"4","last_reported":1743149591,"current_range_meters":10000,"station_id":"ce4bgs12rcd13ifvqcag","pricing_plan_id":"cebpf4jnsgd1na2vs0mg"},{"bike_id":"1c14bf9c-ada4-4a36-8853-740a1a2c000a","system_id":"levelo_inurba_marseille","lat":43.231965,"lon":5.355484,"is_reserved":false,"is_disabled":false,"rental_uris":{"android":"levelo://app?vid=1c14bf9c-ada4-4a36-8853-740a1a2c000a","ios":"levelo://app?vid=1c14bf9c-ada4-4a36-8853-740a1a2c000a"},"vehicle_type_id":"4","last_reported":1743149591,"current_range_meters":10000,"station_id":"ce4bhu92rcd13ifvqi70","pricing_plan_id":"cebpf4jnsgd1na2vs0mg"},{"bike_id":"b30f95ac-b828-44d6-b742-4883a6572fc6","system_id":"levelo_inurba_marseille","lat":43.271,"lon":5.42743,"is_reserved":false,"is_disabled":false,"rental_uris":{"android":"levelo://app?vid=b30f95ac-b828-44d6-b742-4883a6572fc6","ios":"levelo://app?vid=b30f95ac-b828-44d6-b742-4883a6572fc6"},"vehicle_type_id":"4","last_reported":1743149591,"current_range_meters":10800,"station_id":"","pricing_plan_id":"cebpf4jnsgd1na2vs0mg"},{"bike_id":"0c7c8c97-c432-41cd-96f5-01a03f56e852","system_id":"levelo_inurba_marseille","lat":43.24164,"lon":5.36389,"is_reserved":false,"is_disabled":false,"rental_uris":{"android":"levelo://app?vid=0c7c8c97-c432-41cd-96f5-01a03f56e852","ios":"levelo://app?vid=0c7c8c97-c432-41cd-96f5-01a03f56e852"},"vehicle_type_id":"4","last_reported":1743149591,"current_range_meters":10800,"station_id":"cpo36qri1sfpv3e86is0","pricing_plan_id":"cebpf4jnsgd1na2vs0mg"},{"bike_id":"2c92ebbb-33b4-465d-8008-bd23bd61b80c","system_id":"levelo_inurba_marseille","lat":43.29603,"lon":5.38105,"is_reserved":false,"is_disabled":false,"rental_uris":{"android":"levelo://app?vid=2c92ebbb-33b4-465d-8008-bd23bd61b80c","ios":"levelo://app?vid=2c92ebbb-33b4-465d-8008-bd23bd61b80c"},"vehicle_type_id":"4","last_reported":1743149591,"current_range_meters":10800,"station_id":"ce4bgl12rcd13ifvqbo0","pricing_plan_id":"cebpf4jnsgd1na2vs0mg"},{"bike_id":"14e00f19-48fc-4b76-bb6e-3eee4c46cff1","system_id":"levelo_inurba_marseille","lat":43.313293,"lon":5.367474,"is_reserved":false,"is_disabled":false,"rental_uris":{"android":"levelo://app?vid=14e00f19-48fc-4b76-bb6e-3eee4c46cff1","ios":"levelo://app?vid=14e00f19-48fc-4b76-bb6e-3eee4c46cff1"},"vehicle_type_id":"4","last_reported":1743149591,"current_range_meters":10800,"station_id":"ce4bgr92rcd13ifvqc6g","pricing_plan_id":"cebpf4jnsgd1na2vs0mg"},{"bike_id":"9ef42804-2b13-43c8-9419-a09a6310f258","system_id":"levelo_inurba_marseille","lat":43.2904,"lon":5.39982,"is_reserved":false,"is_disabled":false,"rental_uris":{"android":"levelo://app?vid=9ef42804-2b13-43c8-9419-a09a6310f258","ios":"levelo://app?vid=9ef42804-2b13-43c8-9419-a09a6310f258"},"vehicle_type_id":"4","last_reported":1743149591,"current_range_meters":10800,"station_id":"ce4bh392rcd13ifvqdm0","pricing_plan_id":"cebpf4jnsgd1na2vs0mg"},{"bike_id":"2487664b-6ca6-4300-b86d-a9ce75c31f9e","system_id":"levelo_inurba_marseille","lat":43.30544,"lon":5.36553,"is_reserved":false,"is_disabled":false,"rental_uris":{"android":"levelo://app?vid=2487664b-6ca6-4300-b86d-a9ce75c31f9e","ios":"levelo://app?vid=2487664b-6ca6-4300-b86d-a9ce75c31f9e"},"vehicle_type_id":"4","last_reported":1743149591,"current_range_meters":10800,"station_id":"ce4bgs12rcd13ifvqcag","pricing_plan_id":"cebpf4jnsgd1na2vs0mg"},{"bike_id":"f8edcb5c-8682-4d8c-ad8d-9fd94d110c55","system_id":"levelo_inurba_marseille","lat":43.29271,"lon":5.40124,"is_reserved":false,"is_disabled":false,"rental_uris":{"android":"levelo://app?vid=f8edcb5c-8682-4d8c-ad8d-9fd94d110c55","ios":"levelo://app?vid=f8edcb5c-8682-4d8c-ad8d-9fd94d110c55"},"vehicle_type_id":"4","last_reported":1743149591,"current_range_meters":10800,"station_id":"ce4bh312rcd13ifvqdk0","pricing_plan_id":"cebpf4jnsgd1na2vs0mg"},{"bike_id":"69f21335-20e3-41d0-bf9b-2e9d69dd0a52","system_id":"levelo_inurba_marseille","lat":43.28662,"lon":5.38662,"is_reserved":false,"is_disabled":false,"rental_uris":{"android":"levelo://app?vid=69f21335-20e3-41d0-bf9b-2e9d69dd0a52","ios":"levelo://app?vid=69f21335-20e3-41d0-bf9b-2e9d69dd0a52"},"vehicle_type_id":"4","last_reported":1743149591,"current_range_meters":10800,"station_id":"ce4bh492rcd13ifvqdug","pricing_plan_id":"cebpf4jnsgd1na2vs0mg"},{"bike_id":"736fcfd0-33ad-488c-9fba-47df89b31c17","system_id":"levelo_inurba_marseille","lat":43.29965,"lon":5.38503,"is_reserved":false,"is_disabled":false,"rental_uris":{"android":"levelo://app?vid=736fcfd0-33ad-488c-9fba-47df89b31c17","ios":"levelo://app?vid=736fcfd0-33ad-488c-9fba-47df89b31c17"},"vehicle_type_id":"4","last_reported":1743149591,"current_range_meters":10000,"station_id":"ce4bgj92rcd13ifvqbd0","pricing_plan_id":"cebpf4jnsgd1na2vs0mg"},{"bike_id":"a639ef38-684d-4c27-b5e4-98a5b11042e3","system_id":"levelo_inurba_marseille","lat":43.24079,"lon":5.37755,"is_reserved":false,"is_disabled":false,"rental_uris":{"android":"levelo://app?vid=a639ef38-684d-4c27-b5e4-98a5b11042e3","ios":"levelo://app?vid=a639ef38-684d-4c27-b5e4-98a5b11042e3"},"vehicle_type_id":"4","last_reported":1743149591,"current_range_meters":11200,"station_id":"ce4bhnp2rcd13ifvqgvg","pricing_plan_id":"cebpf4jnsgd1na2vs0mg"},{"bike_id":"18cf2e35-ced7-456c-9cdf-6c3d31d9091d","system_id":"levelo_inurba_marseille","lat":43.23195,"lon":5.35553,"is_reserved":false,"is_disabled":false,"rental_uris":{"android":"levelo://app?vid=18cf2e35-ced7-456c-9cdf-6c3d31d9091d","ios":"levelo://app?vid=18cf2e35-ced7-456c-9cdf-6c3d31d9091d"},"vehicle_type_id":"4","last_reported":1743149591,"current_range_meters":11200,"station_id":"ce4bhu92rcd13ifvqi70","pricing_plan_id":"cebpf4jnsgd1na2vs0mg"},{"bike_id":"1004a28b-0ec2-4d8e-b53e-1e9b1b1db526","system_id":"levelo_inurba_marseille","lat":43.29565,"lon":5.39973,"is_reserved":false,"is_disabled":false,"rental_uris":{"android":"levelo://app?vid=1004a28b-0ec2-4d8e-b53e-1e9b1b1db526","ios":"levelo://app?vid=1004a28b-0ec2-4d8e-b53e-1e9b1b1db526"},"vehicle_type_id":"4","last_reported":1743149591,"current_range_meters":10800,"station_id":"ce4bh312rcd13ifvqdj0","pricing_plan_id":"cebpf4jnsgd1na2vs0mg"},{"bike_id":"4e59dfed-3b0a-4cc3-93e7-14a94ec189be","system_id":"levelo_inurba_marseille","lat":43.28467,"lon":5.38422,"is_reserved":false,"is_disabled":false,"rental_uris":{"android":"levelo://app?vid=4e59dfed-3b0a-4cc3-93e7-14a94ec189be","ios":"levelo://app?vid=4e59dfed-3b0a-4cc3-93e7-14a94ec189be"},"vehicle_type_id":"4","last_reported":1743149591,"current_range_meters":11200,"station_id":"ce4bh512rcd13ifvqe3g","pricing_plan_id":"cebpf4jnsgd1na2vs0mg"},{"bike_id":"b3e7a910-d0a2-4ee6-bf1d-61008af6cd7b","system_id":"levelo_inurba_marseille","lat":43.31214,"lon":5.36874,"is_reserved":false,"is_disabled":false,"rental_uris":{"android":"levelo://app?vid=b3e7a910-d0a2-4ee6-bf1d-61008af6cd7b","ios":"levelo://app?vid=b3e7a910-d0a2-4ee6-bf1d-61008af6cd7b"},"vehicle_type_id":"4","last_reported":1743149591,"current_range_meters":11200,"station_id":"ce4bgl92rcd13ifvqbq0","pricing_plan_id":"cebpf4jnsgd1na2vs0mg"},{"bike_id":"5ba87120-c80a-4eaa-9d67-7ff6e783e515","system_id":"levelo_inurba_marseille","lat":43.26792,"lon":5.3941,"is_reserved":false,"is_disabled":false,"rental_uris":{"android":"levelo://app?vid=5ba87120-c80a-4eaa-9d67-7ff6e783e515","ios":"levelo://app?vid=5ba87120-c80a-4eaa-9d67-7ff6e783e515"},"vehicle_type_id":"4","last_reported":1743149591,"current_range_meters":11200,"station_id":"ce4bhh12rcd13ifvqfg0","pricing_plan_id":"cebpf4jnsgd1na2vs0mg"},{"bike_id":"0f1f83e7-db71-4d69-bca1-763d2105909b","system_id":"levelo_inurba_marseille","lat":43.30322,"lon":5.40447,"is_reserved":false,"is_disabled":false,"rental_uris":{"android":"levelo://app?vid=0f1f83e7-db71-4d69-bca1-763d2105909b","ios":"levelo://app?vid=0f1f83e7-db71-4d69-bca1-763d2105909b"},"vehicle_type_id":"4","last_reported":1743149591,"current_range_meters":11200,"station_id":"ce4bh012rcd13ifvqd10","pricing_plan_id":"cebpf4jnsgd1na2vs0mg"},{"bike_id":"32a26601-876e-446b-9cd6-57aab3decca3","system_id":"levelo_inurba_marseille","lat":43.24079,"lon":5.37759,"is_reserved":false,"is_disabled":false,"rental_uris":{"android":"levelo://app?vid=32a26601-876e-446b-9cd6-57aab3decca3","ios":"levelo://app?vid=32a26601-876e-446b-9cd6-57aab3decca3"},"vehicle_type_id":"4","last_reported":1743149591,"current_range_meters":11200,"station_id":"ce4bhnp2rcd13ifvqgvg","pricing_plan_id":"cebpf4jnsgd1na2vs0mg"},{"bike_id":"06599078-8d3c-4fc3-a42a-a2f2b001382c","system_id":"levelo_inurba_marseille","lat":43.3054,"lon":5.3654,"is_reserved":false,"is_disabled":false,"rental_uris":{"android":"levelo://app?vid=06599078-8d3c-4fc3-a42a-a2f2b001382c","ios":"levelo://app?vid=06599078-8d3c-4fc3-a42a-a2f2b001382c"},"vehicle_type_id":"4","last_reported":1743149591,"current_range_meters":11200,"station_id":"ce4bgs12rcd13ifvqcag","pricing_plan_id":"cebpf4jnsgd1na2vs0mg"},{"bike_id":"c5b747b8-0a33-4be6-a6c0-180ceea5e00d","system_id":"levelo_inurba_marseille","lat":43.28077,"lon":5.39663,"is_reserved":false,"is_disabled":true,"rental_uris":{"android":"levelo://app?vid=c5b747b8-0a33-4be6-a6c0-180ceea5e00d","ios":"levelo://app?vid=c5b747b8-0a33-4be6-a6c0-180ceea5e00d"},"vehicle_type_id":"4","last_reported":1743149591,"current_range_meters":11200,"station_id":"ce4bho12rcd13ifvqh2g","pricing_plan_id":"cebpf4jnsgd1na2vs0mg"},{"bike_id":"6595f76a-1b41-498b-80f2-bf0cec45725b","system_id":"levelo_inurba_marseille","lat":43.30203,"lon":5.36632,"is_reserved":false,"is_disabled":false,"rental_uris":{"android":"levelo://app?vid=6595f76a-1b41-498b-80f2-bf0cec45725b","ios":"levelo://app?vid=6595f76a-1b41-498b-80f2-bf0cec45725b"},"vehicle_type_id":"4","last_reported":1743149591,"current_range_meters":11200,"station_id":"ce4bgrh2rcd13ifvqc8g","pricing_plan_id":"cebpf4jnsgd1na2vs0mg"},{"bike_id":"401ad98b-504b-439e-a2c1-ed1028804652","system_id":"levelo_inurba_marseille","lat":43.30526,"lon":5.36543,"is_reserved":false,"is_disabled":false,"rental_uris":{"android":"levelo://app?vid=401ad98b-504b-439e-a2c1-ed1028804652","ios":"levelo://app?vid=401ad98b-504b-439e-a2c1-ed1028804652"},"vehicle_type_id":"4","last_reported":1743149591,"current_range_meters":11600,"station_id":"ce4bgs12rcd13ifvqcag","pricing_plan_id":"cebpf4jnsgd1na2vs0mg"},{"bike_id":"d678a08e-4ff8-4b68-b00a-6138b93608fe","system_id":"levelo_inurba_marseille","lat":43.24172,"lon":5.39724,"is_reserved":false,"is_disabled":false,"rental_uris":{"android":"levelo://app?vid=d678a08e-4ff8-4b68-b00a-6138b93608fe","ios":"levelo://app?vid=d678a08e-4ff8-4b68-b00a-6138b93608fe"},"vehicle_type_id":"4","last_reported":1743149591,"current_range_meters":11600,"station_id":"ce4bhn12rcd13ifvqgpg","pricing_plan_id":"cebpf4jnsgd1na2vs0mg"},{"bike_id":"3fbcdfd8-5176-471d-aa84-e8e20bb4418e","system_id":"levelo_inurba_marseille","lat":43.32106,"lon":5.36778,"is_reserved":false,"is_disabled":false,"rental_uris":{"android":"levelo://app?vid=3fbcdfd8-5176-471d-aa84-e8e20bb4418e","ios":"levelo://app?vid=3fbcdfd8-5176-471d-aa84-e8e20bb4418e"},"vehicle_type_id":"4","last_reported":1743149591,"current_range_meters":11600,"station_id":"ce4bhrh2rcd13ifvqhug","pricing_plan_id":"cebpf4jnsgd1na2vs0mg"},{"bike_id":"ed1d9d9d-daf5-4cec-aa3c-6abf72257d10","system_id":"levelo_inurba_marseille","lat":43.28939,"lon":5.36621,"is_reserved":false,"is_disabled":false,"rental_uris":{"android":"levelo://app?vid=ed1d9d9d-daf5-4cec-aa3c-6abf72257d10","ios":"levelo://app?vid=ed1d9d9d-daf5-4cec-aa3c-6abf72257d10"},"vehicle_type_id":"4","last_reported":1743149591,"current_range_meters":11600,"station_id":"","pricing_plan_id":"cebpf4jnsgd1na2vs0mg"},{"bike_id":"aeee719e-56c9-4414-9561-e5b2a78b28a9","system_id":"levelo_inurba_marseille","lat":43.25087,"lon":5.39527,"is_reserved":false,"is_disabled":false,"rental_uris":{"android":"levelo://app?vid=aeee719e-56c9-4414-9561-e5b2a78b28a9","ios":"levelo://app?vid=aeee719e-56c9-4414-9561-e5b2a78b28a9"},"vehicle_type_id":"4","last_reported":1743149591,"current_range_meters":11600,"station_id":"ce4bhm12rcd13ifvqgkg","pricing_plan_id":"cebpf4jnsgd1na2vs0mg"},{"bike_id":"63c6d78f-71e5-4b7a-92d3-67112d7c7bef","system_id":"levelo_inurba_marseille","lat":43.29285,"lon":5.37462,"is_reserved":false,"is_disabled":false,"rental_uris":{"android":"levelo://app?vid=63c6d78f-71e5-4b7a-92d3-67112d7c7bef","ios":"levelo://app?vid=63c6d78f-71e5-4b7a-92d3-67112d7c7bef"},"vehicle_type_id":"4","last_reported":1743149591,"current_range_meters":11600,"station_id":"ce4bgi12rcd13ifvqb70","pricing_plan_id":"cebpf4jnsgd1na2vs0mg"},{"bike_id":"afc079d9-3245-4316-afa1-51a12b6ebb19","system_id":"levelo_inurba_marseille","lat":43.270518,"lon":5.407405,"is_reserved":false,"is_disabled":false,"rental_uris":{"android":"levelo://app?vid=afc079d9-3245-4316-afa1-51a12b6ebb19","ios":"levelo://app?vid=afc079d9-3245-4316-afa1-51a12b6ebb19"},"vehicle_type_id":"4","last_reported":1743149591,"current_range_meters":11200,"station_id":"ce4bhn92rcd13ifvqgrg","pricing_plan_id":"cebpf4jnsgd1na2vs0mg"},{"bike_id":"ac776cf5-d9af-47cc-83cc-cf37e00c8684","system_id":"levelo_inurba_marseille","lat":43.30107,"lon":5.39141,"is_reserved":false,"is_disabled":false,"rental_uris":{"android":"levelo://app?vid=ac776cf5-d9af-47cc-83cc-cf37e00c8684","ios":"levelo://app?vid=ac776cf5-d9af-47cc-83cc-cf37e00c8684"},"vehicle_type_id":"4","last_reported":1743149591,"current_range_meters":11600,"station_id":"","pricing_plan_id":"cebpf4jnsgd1na2vs0mg"},{"bike_id":"a1cafbf3-55e5-4094-9893-ad5606b86fbd","system_id":"levelo_inurba_marseille","lat":43.312305,"lon":5.368672,"is_reserved":false,"is_disabled":false,"rental_uris":{"android":"levelo://app?vid=a1cafbf3-55e5-4094-9893-ad5606b86fbd","ios":"levelo://app?vid=a1cafbf3-55e5-4094-9893-ad5606b86fbd"},"vehicle_type_id":"4","last_reported":1743149591,"current_range_meters":11600,"station_id":"ce4bgl92rcd13ifvqbq0","pricing_plan_id":"cebpf4jnsgd1na2vs0mg"},{"bike_id":"6cbddcc1-9609-4503-9874-4b78c26df24e","system_id":"levelo_inurba_marseille","lat":43.32132,"lon":5.36759,"is_reserved":false,"is_disabled":false,"rental_uris":{"android":"levelo://app?vid=6cbddcc1-9609-4503-9874-4b78c26df24e","ios":"levelo://app?vid=6cbddcc1-9609-4503-9874-4b78c26df24e"},"vehicle_type_id":"4","last_reported":1743149591,"current_range_meters":12000,"station_id":"ce4bhrh2rcd13ifvqhug","pricing_plan_id":"cebpf4jnsgd1na2vs0mg"},{"bike_id":"61613b28-34a0-421f-b65b-423c062a459d","system_id":"levelo_inurba_marseille","lat":43.310838,"lon":5.424288,"is_reserved":false,"is_disabled":false,"rental_uris":{"android":"levelo://app?vid=61613b28-34a0-421f-b65b-423c062a459d","ios":"levelo://app?vid=61613b28-34a0-421f-b65b-423c062a459d"},"vehicle_type_id":"4","last_reported":1743149591,"current_range_meters":12000,"station_id":"ce4bgs92rcd13ifvqcc0","pricing_plan_id":"cebpf4jnsgd1na2vs0mg"},{"bike_id":"0acc56b6-5c95-4a52-91fe-99c1c1d4f622","system_id":"levelo_inurba_marseille","lat":43.28492,"lon":5.38556,"is_reserved":false,"is_disabled":false,"rental_uris":{"android":"levelo://app?vid=0acc56b6-5c95-4a52-91fe-99c1c1d4f622","ios":"levelo://app?vid=0acc56b6-5c95-4a52-91fe-99c1c1d4f622"},"vehicle_type_id":"4","last_reported":1743149591,"current_range_meters":12000,"station_id":"ce4bh8p2rcd13ifvqeb0","pricing_plan_id":"cebpf4jnsgd1na2vs0mg"},{"bike_id":"68e9fc26-8998-4bf7-8da8-af47209f9b7c","system_id":"levelo_inurba_marseille","lat":43.32105,"lon":5.367974,"is_reserved":false,"is_disabled":false,"rental_uris":{"android":"levelo://app?vid=68e9fc26-8998-4bf7-8da8-af47209f9b7c","ios":"levelo://app?vid=68e9fc26-8998-4bf7-8da8-af47209f9b7c"},"vehicle_type_id":"4","last_reported":1743149591,"current_range_meters":12000,"station_id":"ce4bhrh2rcd13ifvqhug","pricing_plan_id":"cebpf4jnsgd1na2vs0mg"},{"bike_id":"ed5b343e-8271-4d1b-9996-58c77ddfc219","system_id":"levelo_inurba_marseille","lat":43.25934,"lon":5.40907,"is_reserved":false,"is_disabled":false,"rental_uris":{"android":"levelo://app?vid=ed5b343e-8271-4d1b-9996-58c77ddfc219","ios":"levelo://app?vid=ed5b343e-8271-4d1b-9996-58c77ddfc219"},"vehicle_type_id":"4","last_reported":1743149591,"current_range_meters":12000,"station_id":"ce4bhm92rcd13ifvqglg","pricing_plan_id":"cebpf4jnsgd1na2vs0mg"},{"bike_id":"65c86302-8ef0-46f4-ab6e-bac7149a2865","system_id":"levelo_inurba_marseille","lat":43.32117,"lon":5.36781,"is_reserved":false,"is_disabled":false,"rental_uris":{"android":"levelo://app?vid=65c86302-8ef0-46f4-ab6e-bac7149a2865","ios":"levelo://app?vid=65c86302-8ef0-46f4-ab6e-bac7149a2865"},"vehicle_type_id":"4","last_reported":1743149591,"current_range_meters":12000,"station_id":"ce4bhrh2rcd13ifvqhug","pricing_plan_id":"cebpf4jnsgd1na2vs0mg"},{"bike_id":"58643b71-d571-418b-bdee-cb649d06c3ca","system_id":"levelo_inurba_marseille","lat":43.29026,"lon":5.39972,"is_reserved":false,"is_disabled":false,"rental_uris":{"android":"levelo://app?vid=58643b71-d571-418b-bdee-cb649d06c3ca","ios":"levelo://app?vid=58643b71-d571-418b-bdee-cb649d06c3ca"},"vehicle_type_id":"4","last_reported":1743149591,"current_range_meters":12000,"station_id":"ce4bh392rcd13ifvqdm0","pricing_plan_id":"cebpf4jnsgd1na2vs0mg"},{"bike_id":"dbf28a62-638d-49e6-a63b-eeb7b8d93bf7","system_id":"levelo_inurba_marseille","lat":43.2796,"lon":5.38742,"is_reserved":false,"is_disabled":false,"rental_uris":{"android":"levelo://app?vid=dbf28a62-638d-49e6-a63b-eeb7b8d93bf7","ios":"levelo://app?vid=dbf28a62-638d-49e6-a63b-eeb7b8d93bf7"},"vehicle_type_id":"4","last_reported":1743149591,"current_range_meters":12000,"station_id":"ce4bhg12rcd13ifvqf80","pricing_plan_id":"cebpf4jnsgd1na2vs0mg"},{"bike_id":"e6c17d3c-9c18-404e-916c-fed90568fee2","system_id":"levelo_inurba_marseille","lat":43.31374,"lon":5.36697,"is_reserved":false,"is_disabled":false,"rental_uris":{"android":"levelo://app?vid=e6c17d3c-9c18-404e-916c-fed90568fee2","ios":"levelo://app?vid=e6c17d3c-9c18-404e-916c-fed90568fee2"},"vehicle_type_id":"4","last_reported":1743149591,"current_range_meters":12000,"station_id":"ce4bgr92rcd13ifvqc6g","pricing_plan_id":"cebpf4jnsgd1na2vs0mg"},{"bike_id":"b1c6b5eb-b3e3-44e4-ab47-ce04ca5e2364","system_id":"levelo_inurba_marseille","lat":43.241791,"lon":5.397254,"is_reserved":false,"is_disabled":false,"rental_uris":{"android":"levelo://app?vid=b1c6b5eb-b3e3-44e4-ab47-ce04ca5e2364","ios":"levelo://app?vid=b1c6b5eb-b3e3-44e4-ab47-ce04ca5e2364"},"vehicle_type_id":"4","last_reported":1743149591,"current_range_meters":12400,"station_id":"ce4bhn12rcd13ifvqgpg","pricing_plan_id":"cebpf4jnsgd1na2vs0mg"},{"bike_id":"c527ac51-4362-4d1f-b9e1-306c1ebece74","system_id":"levelo_inurba_marseille","lat":43.29901,"lon":5.43684,"is_reserved":false,"is_disabled":false,"rental_uris":{"android":"levelo://app?vid=c527ac51-4362-4d1f-b9e1-306c1ebece74","ios":"levelo://app?vid=c527ac51-4362-4d1f-b9e1-306c1ebece74"},"vehicle_type_id":"4","last_reported":1743149591,"current_range_meters":12400,"station_id":"ce4bhpp2rcd13ifvqhfg","pricing_plan_id":"cebpf4jnsgd1na2vs0mg"},{"bike_id":"09c7d7fe-5f38-4c9c-8139-ebed1c3ab803","system_id":"levelo_inurba_marseille","lat":43.25936,"lon":5.40905,"is_reserved":false,"is_disabled":false,"rental_uris":{"android":"levelo://app?vid=09c7d7fe-5f38-4c9c-8139-ebed1c3ab803","ios":"levelo://app?vid=09c7d7fe-5f38-4c9c-8139-ebed1c3ab803"},"vehicle_type_id":"4","last_reported":1743149591,"current_range_meters":12400,"station_id":"ce4bhm92rcd13ifvqglg","pricing_plan_id":"cebpf4jnsgd1na2vs0mg"},{"bike_id":"6082a6d8-29f3-4441-bd82-d0f95ead75d7","system_id":"levelo_inurba_marseille","lat":43.23186,"lon":5.35574,"is_reserved":false,"is_disabled":false,"rental_uris":{"android":"levelo://app?vid=6082a6d8-29f3-4441-bd82-d0f95ead75d7","ios":"levelo://app?vid=6082a6d8-29f3-4441-bd82-d0f95ead75d7"},"vehicle_type_id":"4","last_reported":1743149591,"current_range_meters":12400,"station_id":"ce4bhu92rcd13ifvqi70","pricing_plan_id":"cebpf4jnsgd1na2vs0mg"},{"bike_id":"67fed4e3-1acb-48c1-9e11-11d9c5d5413b","system_id":"levelo_inurba_marseille","lat":43.23144,"lon":5.43723,"is_reserved":false,"is_disabled":false,"rental_uris":{"android":"levelo://app?vid=67fed4e3-1acb-48c1-9e11-11d9c5d5413b","ios":"levelo://app?vid=67fed4e3-1acb-48c1-9e11-11d9c5d5413b"},"vehicle_type_id":"4","last_reported":1743149591,"current_range_meters":12400,"station_id":"ce4bhmp2rcd13ifvqgog","pricing_plan_id":"cebpf4jnsgd1na2vs0mg"},{"bike_id":"76265638-2c2d-475b-b655-ccffc71b9390","system_id":"levelo_inurba_marseille","lat":43.25937,"lon":5.40904,"is_reserved":false,"is_disabled":false,"rental_uris":{"android":"levelo://app?vid=76265638-2c2d-475b-b655-ccffc71b9390","ios":"levelo://app?vid=76265638-2c2d-475b-b655-ccffc71b9390"},"vehicle_type_id":"4","last_reported":1743149591,"current_range_meters":12400,"station_id":"ce4bhm92rcd13ifvqglg","pricing_plan_id":"cebpf4jnsgd1na2vs0mg"},{"bike_id":"9f2583cf-461d-4d57-8c37-99ef1e89cade","system_id":"levelo_inurba_marseille","lat":43.23203,"lon":5.35556,"is_reserved":false,"is_disabled":false,"rental_uris":{"android":"levelo://app?vid=9f2583cf-461d-4d57-8c37-99ef1e89cade","ios":"levelo://app?vid=9f2583cf-461d-4d57-8c37-99ef1e89cade"},"vehicle_type_id":"4","last_reported":1743149591,"current_range_meters":12400,"station_id":"ce4bhu92rcd13ifvqi70","pricing_plan_id":"cebpf4jnsgd1na2vs0mg"},{"bike_id":"90abd429-0584-4e8e-a91a-b15d0c48ba98","system_id":"levelo_inurba_marseille","lat":43.28941,"lon":5.39638,"is_reserved":false,"is_disabled":false,"rental_uris":{"android":"levelo://app?vid=90abd429-0584-4e8e-a91a-b15d0c48ba98","ios":"levelo://app?vid=90abd429-0584-4e8e-a91a-b15d0c48ba98"},"vehicle_type_id":"4","last_reported":1743149591,"current_range_meters":12400,"station_id":"ce4bh3h2rcd13ifvqdn0","pricing_plan_id":"cebpf4jnsgd1na2vs0mg"},{"bike_id":"ca7e0dc1-95b1-41ee-bfb6-6f7d653c8926","system_id":"levelo_inurba_marseille","lat":43.30328,"lon":5.37535,"is_reserved":false,"is_disabled":true,"rental_uris":{"android":"levelo://app?vid=ca7e0dc1-95b1-41ee-bfb6-6f7d653c8926","ios":"levelo://app?vid=ca7e0dc1-95b1-41ee-bfb6-6f7d653c8926"},"vehicle_type_id":"4","last_reported":1743149591,"current_range_meters":12800,"station_id":"","pricing_plan_id":"cebpf4jnsgd1na2vs0mg"},{"bike_id":"fb348b09-6abb-47a4-a266-91f2eeaee291","system_id":"levelo_inurba_marseille","lat":43.32073,"lon":5.36789,"is_reserved":false,"is_disabled":false,"rental_uris":{"android":"levelo://app?vid=fb348b09-6abb-47a4-a266-91f2eeaee291","ios":"levelo://app?vid=fb348b09-6abb-47a4-a266-91f2eeaee291"},"vehicle_type_id":"4","last_reported":1743149591,"current_range_meters":12800,"station_id":"ce4bhrh2rcd13ifvqhug","pricing_plan_id":"cebpf4jnsgd1na2vs0mg"},{"bike_id":"c452779f-1869-468a-bc1a-a1c333da66e1","system_id":"levelo_inurba_marseille","lat":43.30759,"lon":5.37664,"is_reserved":false,"is_disabled":false,"rental_uris":{"android":"levelo://app?vid=c452779f-1869-468a-bc1a-a1c333da66e1","ios":"levelo://app?vid=c452779f-1869-468a-bc1a-a1c333da66e1"},"vehicle_type_id":"4","last_reported":1743149591,"current_range_meters":12800,"station_id":"ce4bgv92rcd13ifvqcq0","pricing_plan_id":"cebpf4jnsgd1na2vs0mg"},{"bike_id":"ab79c7bb-1730-4a4c-b7ca-6d520982e325","system_id":"levelo_inurba_marseille","lat":43.2407,"lon":5.37751,"is_reserved":false,"is_disabled":false,"rental_uris":{"android":"levelo://app?vid=ab79c7bb-1730-4a4c-b7ca-6d520982e325","ios":"levelo://app?vid=ab79c7bb-1730-4a4c-b7ca-6d520982e325"},"vehicle_type_id":"4","last_reported":1743149591,"current_range_meters":12800,"station_id":"ce4bhnp2rcd13ifvqgvg","pricing_plan_id":"cebpf4jnsgd1na2vs0mg"},{"bike_id":"b0e58752-d151-4446-9b1b-4d8b4235b96c","system_id":"levelo_inurba_marseille","lat":43.26943,"lon":5.38644,"is_reserved":false,"is_disabled":false,"rental_uris":{"android":"levelo://app?vid=b0e58752-d151-4446-9b1b-4d8b4235b96c","ios":"levelo://app?vid=b0e58752-d151-4446-9b1b-4d8b4235b96c"},"vehicle_type_id":"4","last_reported":1743149591,"current_range_meters":12400,"station_id":"ce4bhh92rcd13ifvqfh0","pricing_plan_id":"cebpf4jnsgd1na2vs0mg"},{"bike_id":"89d1e7b1-a268-487f-bedc-84c7c4b58b0e","system_id":"levelo_inurba_marseille","lat":43.30463,"lon":5.37902,"is_reserved":false,"is_disabled":false,"rental_uris":{"android":"levelo://app?vid=89d1e7b1-a268-487f-bedc-84c7c4b58b0e","ios":"levelo://app?vid=89d1e7b1-a268-487f-bedc-84c7c4b58b0e"},"vehicle_type_id":"4","last_reported":1743149591,"current_range_meters":12800,"station_id":"ce4bgup2rcd13ifvqcn0","pricing_plan_id":"cebpf4jnsgd1na2vs0mg"},{"bike_id":"aed2caaf-e63e-4d9f-9fab-effd4b56045d","system_id":"levelo_inurba_marseille","lat":43.26225,"lon":5.40463,"is_reserved":false,"is_disabled":false,"rental_uris":{"android":"levelo://app?vid=aed2caaf-e63e-4d9f-9fab-effd4b56045d","ios":"levelo://app?vid=aed2caaf-e63e-4d9f-9fab-effd4b56045d"},"vehicle_type_id":"4","last_reported":1743149591,"current_range_meters":12800,"station_id":"ce4bhmh2rcd13ifvqgmg","pricing_plan_id":"cebpf4jnsgd1na2vs0mg"},{"bike_id":"fcd657db-e8fd-4af8-8db4-b00fe6babcc0","system_id":"levelo_inurba_marseille","lat":43.32471,"lon":5.36556,"is_reserved":false,"is_disabled":false,"rental_uris":{"android":"levelo://app?vid=fcd657db-e8fd-4af8-8db4-b00fe6babcc0","ios":"levelo://app?vid=fcd657db-e8fd-4af8-8db4-b00fe6babcc0"},"vehicle_type_id":"4","last_reported":1743149591,"current_range_meters":12800,"station_id":"ce4bhs12rcd13ifvqhvg","pricing_plan_id":"cebpf4jnsgd1na2vs0mg"},{"bike_id":"9462a91b-8b4b-430a-ac7a-4612f1bebb31","system_id":"levelo_inurba_marseille","lat":43.29111,"lon":5.3815,"is_reserved":false,"is_disabled":true,"rental_uris":{"android":"levelo://app?vid=9462a91b-8b4b-430a-ac7a-4612f1bebb31","ios":"levelo://app?vid=9462a91b-8b4b-430a-ac7a-4612f1bebb31"},"vehicle_type_id":"4","last_reported":1743149591,"current_range_meters":12800,"station_id":"ce4bh512rcd13ifvqe2g","pricing_plan_id":"cebpf4jnsgd1na2vs0mg"},{"bike_id":"a805ce19-e2cd-467e-88c9-cbd42ac61988","system_id":"levelo_inurba_marseille","lat":43.31329,"lon":5.39694,"is_reserved":false,"is_disabled":false,"rental_uris":{"android":"levelo://app?vid=a805ce19-e2cd-467e-88c9-cbd42ac61988","ios":"levelo://app?vid=a805ce19-e2cd-467e-88c9-cbd42ac61988"},"vehicle_type_id":"4","last_reported":1743149591,"current_range_meters":12800,"station_id":"ce4bhh12rcd13ifvqfg0","pricing_plan_id":"cebpf4jnsgd1na2vs0mg"},{"bike_id":"e6edd587-41df-46b2-b0cb-080dae2363e0","system_id":"levelo_inurba_marseille","lat":43.23162,"lon":5.43696,"is_reserved":false,"is_disabled":false,"rental_uris":{"android":"levelo://app?vid=e6edd587-41df-46b2-b0cb-080dae2363e0","ios":"levelo://app?vid=e6edd587-41df-46b2-b0cb-080dae2363e0"},"vehicle_type_id":"4","last_reported":1743149591,"current_range_meters":13600,"station_id":"ce4bhmp2rcd13ifvqgog","pricing_plan_id":"cebpf4jnsgd1na2vs0mg"},{"bike_id":"52d3653b-04a8-4ed6-bc62-5cef2a068b3e","system_id":"levelo_inurba_marseille","lat":43.29013,"lon":5.39995,"is_reserved":false,"is_disabled":false,"rental_uris":{"android":"levelo://app?vid=52d3653b-04a8-4ed6-bc62-5cef2a068b3e","ios":"levelo://app?vid=52d3653b-04a8-4ed6-bc62-5cef2a068b3e"},"vehicle_type_id":"4","last_reported":1743149591,"current_range_meters":13600,"station_id":"ce4bh392rcd13ifvqdm0","pricing_plan_id":"cebpf4jnsgd1na2vs0mg"},{"bike_id":"7f9d4433-4e2b-4ff0-b944-2dadd6027623","system_id":"levelo_inurba_marseille","lat":43.32108,"lon":5.36766,"is_reserved":false,"is_disabled":false,"rental_uris":{"android":"levelo://app?vid=7f9d4433-4e2b-4ff0-b944-2dadd6027623","ios":"levelo://app?vid=7f9d4433-4e2b-4ff0-b944-2dadd6027623"},"vehicle_type_id":"4","last_reported":1743149591,"current_range_meters":13600,"station_id":"ce4bhrh2rcd13ifvqhug","pricing_plan_id":"cebpf4jnsgd1na2vs0mg"},{"bike_id":"390d23c3-c57f-4ad2-9f32-9ae1fd6068fb","system_id":"levelo_inurba_marseille","lat":43.3028,"lon":5.37715,"is_reserved":false,"is_disabled":false,"rental_uris":{"android":"levelo://app?vid=390d23c3-c57f-4ad2-9f32-9ae1fd6068fb","ios":"levelo://app?vid=390d23c3-c57f-4ad2-9f32-9ae1fd6068fb"},"vehicle_type_id":"4","last_reported":1743149591,"current_range_meters":13600,"station_id":"ce4bguh2rcd13ifvqcj0","pricing_plan_id":"cebpf4jnsgd1na2vs0mg"},{"bike_id":"c6c8fb31-86de-4758-859b-e74b70125ab7","system_id":"levelo_inurba_marseille","lat":43.32118,"lon":5.36807,"is_reserved":false,"is_disabled":false,"rental_uris":{"android":"levelo://app?vid=c6c8fb31-86de-4758-859b-e74b70125ab7","ios":"levelo://app?vid=c6c8fb31-86de-4758-859b-e74b70125ab7"},"vehicle_type_id":"4","last_reported":1743149591,"current_range_meters":13600,"station_id":"ce4bhrh2rcd13ifvqhug","pricing_plan_id":"cebpf4jnsgd1na2vs0mg"},{"bike_id":"ae8b4031-cc55-4e87-ae66-01c45e1af411","system_id":"levelo_inurba_marseille","lat":43.26785,"lon":5.39412,"is_reserved":false,"is_disabled":false,"rental_uris":{"android":"levelo://app?vid=ae8b4031-cc55-4e87-ae66-01c45e1af411","ios":"levelo://app?vid=ae8b4031-cc55-4e87-ae66-01c45e1af411"},"vehicle_type_id":"4","last_reported":1743149591,"current_range_meters":13600,"station_id":"ce4bhh12rcd13ifvqfg0","pricing_plan_id":"cebpf4jnsgd1na2vs0mg"},{"bike_id":"673fa731-e09e-459a-9603-bfb4e18d6fde","system_id":"levelo_inurba_marseille","lat":43.3089,"lon":5.37192,"is_reserved":false,"is_disabled":false,"rental_uris":{"android":"levelo://app?vid=673fa731-e09e-459a-9603-bfb4e18d6fde","ios":"levelo://app?vid=673fa731-e09e-459a-9603-bfb4e18d6fde"},"vehicle_type_id":"4","last_reported":1743149591,"current_range_meters":13600,"station_id":"ce4bguh2rcd13ifvqckg","pricing_plan_id":"cebpf4jnsgd1na2vs0mg"},{"bike_id":"907e1912-ff11-4629-a19a-d604276b4e59","system_id":"levelo_inurba_marseille","lat":43.25017,"lon":5.38952,"is_reserved":false,"is_disabled":false,"rental_uris":{"android":"levelo://app?vid=907e1912-ff11-4629-a19a-d604276b4e59","ios":"levelo://app?vid=907e1912-ff11-4629-a19a-d604276b4e59"},"vehicle_type_id":"4","last_reported":1743149591,"current_range_meters":13600,"station_id":"ce4bhgp2rcd13ifvqfd0","pricing_plan_id":"cebpf4jnsgd1na2vs0mg"},{"bike_id":"58fd1940-9cf1-4793-bc47-cf84e832236d","system_id":"levelo_inurba_marseille","lat":43.273528,"lon":5.393043,"is_reserved":false,"is_disabled":false,"rental_uris":{"android":"levelo://app?vid=58fd1940-9cf1-4793-bc47-cf84e832236d","ios":"levelo://app?vid=58fd1940-9cf1-4793-bc47-cf84e832236d"},"vehicle_type_id":"4","last_reported":1743149591,"current_range_meters":14000,"station_id":"ce4bhdp2rcd13ifvqf20","pricing_plan_id":"cebpf4jnsgd1na2vs0mg"},{"bike_id":"e4cda1a5-ed5a-4080-bd26-0b718e550ad4","system_id":"levelo_inurba_marseille","lat":43.28153,"lon":5.42639,"is_reserved":false,"is_disabled":false,"rental_uris":{"android":"levelo://app?vid=e4cda1a5-ed5a-4080-bd26-0b718e550ad4","ios":"levelo://app?vid=e4cda1a5-ed5a-4080-bd26-0b718e550ad4"},"vehicle_type_id":"4","last_reported":1743149591,"current_range_meters":14000,"station_id":"ce4bhnh2rcd13ifvqgug","pricing_plan_id":"cebpf4jnsgd1na2vs0mg"},{"bike_id":"d9eb9a56-65e2-4a8a-a47a-b0649ad76140","system_id":"levelo_inurba_marseille","lat":43.24084,"lon":5.37756,"is_reserved":false,"is_disabled":false,"rental_uris":{"android":"levelo://app?vid=d9eb9a56-65e2-4a8a-a47a-b0649ad76140","ios":"levelo://app?vid=d9eb9a56-65e2-4a8a-a47a-b0649ad76140"},"vehicle_type_id":"4","last_reported":1743149591,"current_range_meters":14000,"station_id":"ce4bhnp2rcd13ifvqgvg","pricing_plan_id":"cebpf4jnsgd1na2vs0mg"},{"bike_id":"b167f564-f669-414f-bc71-254c81de072c","system_id":"levelo_inurba_marseille","lat":43.301712,"lon":5.380772,"is_reserved":false,"is_disabled":false,"rental_uris":{"android":"levelo://app?vid=b167f564-f669-414f-bc71-254c81de072c","ios":"levelo://app?vid=b167f564-f669-414f-bc71-254c81de072c"},"vehicle_type_id":"4","last_reported":1743149591,"current_range_meters":14000,"station_id":"ce4bgjp2rcd13ifvqbh0","pricing_plan_id":"cebpf4jnsgd1na2vs0mg"},{"bike_id":"48dd7881-b216-4c26-9e5c-294574a74387","system_id":"levelo_inurba_marseille","lat":43.2397,"lon":5.36622,"is_reserved":false,"is_disabled":false,"rental_uris":{"android":"levelo://app?vid=48dd7881-b216-4c26-9e5c-294574a74387","ios":"levelo://app?vid=48dd7881-b216-4c26-9e5c-294574a74387"},"vehicle_type_id":"4","last_reported":1743149591,"current_range_meters":14000,"station_id":"ce4bhi12rcd13ifvqfp0","pricing_plan_id":"cebpf4jnsgd1na2vs0mg"},{"bike_id":"57c3868a-b388-4ba6-9519-a197f53ab340","system_id":"levelo_inurba_marseille","lat":43.32529,"lon":5.41456,"is_reserved":false,"is_disabled":false,"rental_uris":{"android":"levelo://app?vid=57c3868a-b388-4ba6-9519-a197f53ab340","ios":"levelo://app?vid=57c3868a-b388-4ba6-9519-a197f53ab340"},"vehicle_type_id":"4","last_reported":1743149591,"current_range_meters":14000,"station_id":"ce4bhq12rcd13ifvqhhg","pricing_plan_id":"cebpf4jnsgd1na2vs0mg"},{"bike_id":"9b15fa77-4434-4050-940a-b8138f7ebdf9","system_id":"levelo_inurba_marseille","lat":43.27975,"lon":5.3874,"is_reserved":false,"is_disabled":false,"rental_uris":{"android":"levelo://app?vid=9b15fa77-4434-4050-940a-b8138f7ebdf9","ios":"levelo://app?vid=9b15fa77-4434-4050-940a-b8138f7ebdf9"},"vehicle_type_id":"4","last_reported":1743149591,"current_range_meters":13600,"station_id":"ce4bhg12rcd13ifvqf80","pricing_plan_id":"cebpf4jnsgd1na2vs0mg"},{"bike_id":"61d133ca-8783-436d-b1a4-b8d23be77206","system_id":"levelo_inurba_marseille","lat":43.30249,"lon":5.4007,"is_reserved":false,"is_disabled":false,"rental_uris":{"android":"levelo://app?vid=61d133ca-8783-436d-b1a4-b8d23be77206","ios":"levelo://app?vid=61d133ca-8783-436d-b1a4-b8d23be77206"},"vehicle_type_id":"4","last_reported":1743149591,"current_range_meters":14000,"station_id":"ce4bgvh2rcd13ifvqcs0","pricing_plan_id":"cebpf4jnsgd1na2vs0mg"},{"bike_id":"1a8f1305-a6f2-4b3c-9ba2-5fcf4d3809dc","system_id":"levelo_inurba_marseille","lat":43.25116,"lon":5.40325,"is_reserved":false,"is_disabled":false,"rental_uris":{"android":"levelo://app?vid=1a8f1305-a6f2-4b3c-9ba2-5fcf4d3809dc","ios":"levelo://app?vid=1a8f1305-a6f2-4b3c-9ba2-5fcf4d3809dc"},"vehicle_type_id":"4","last_reported":1743149591,"current_range_meters":14400,"station_id":"ce4bhlh2rcd13ifvqgig","pricing_plan_id":"cebpf4jnsgd1na2vs0mg"},{"bike_id":"c14b619a-d8da-4bbf-846f-02b7c7eb6274","system_id":"levelo_inurba_marseille","lat":43.32125,"lon":5.36733,"is_reserved":false,"is_disabled":false,"rental_uris":{"android":"levelo://app?vid=c14b619a-d8da-4bbf-846f-02b7c7eb6274","ios":"levelo://app?vid=c14b619a-d8da-4bbf-846f-02b7c7eb6274"},"vehicle_type_id":"4","last_reported":1743149591,"current_range_meters":14400,"station_id":"ce4bhrh2rcd13ifvqhug","pricing_plan_id":"cebpf4jnsgd1na2vs0mg"},{"bike_id":"2069114f-a483-4b58-b6e7-fe6695da5f18","system_id":"levelo_inurba_marseille","lat":43.285425,"lon":5.400074,"is_reserved":false,"is_disabled":false,"rental_uris":{"android":"levelo://app?vid=2069114f-a483-4b58-b6e7-fe6695da5f18","ios":"levelo://app?vid=2069114f-a483-4b58-b6e7-fe6695da5f18"},"vehicle_type_id":"4","last_reported":1743149591,"current_range_meters":14400,"station_id":"","pricing_plan_id":"cebpf4jnsgd1na2vs0mg"},{"bike_id":"57c03374-e2e3-466b-a358-3b7ab41c163e","system_id":"levelo_inurba_marseille","lat":43.30426,"lon":5.41318,"is_reserved":false,"is_disabled":false,"rental_uris":{"android":"levelo://app?vid=57c03374-e2e3-466b-a358-3b7ab41c163e","ios":"levelo://app?vid=57c03374-e2e3-466b-a358-3b7ab41c163e"},"vehicle_type_id":"4","last_reported":1743149591,"current_range_meters":14400,"station_id":"ce4bhop2rcd13ifvqh8g","pricing_plan_id":"cebpf4jnsgd1na2vs0mg"},{"bike_id":"87efeea0-37a5-4c94-a7ad-55e9180ec413","system_id":"levelo_inurba_marseille","lat":43.337444,"lon":5.374475,"is_reserved":false,"is_disabled":false,"rental_uris":{"android":"levelo://app?vid=87efeea0-37a5-4c94-a7ad-55e9180ec413","ios":"levelo://app?vid=87efeea0-37a5-4c94-a7ad-55e9180ec413"},"vehicle_type_id":"4","last_reported":1743149591,"current_range_meters":14400,"station_id":"","pricing_plan_id":"cebpf4jnsgd1na2vs0mg"},{"bike_id":"e8be0c7f-0b06-4d18-a0a5-7b0d358f3498","system_id":"levelo_inurba_marseille","lat":43.290329,"lon":5.386463,"is_reserved":false,"is_disabled":false,"rental_uris":{"android":"levelo://app?vid=e8be0c7f-0b06-4d18-a0a5-7b0d358f3498","ios":"levelo://app?vid=e8be0c7f-0b06-4d18-a0a5-7b0d358f3498"},"vehicle_type_id":"4","last_reported":1743149591,"current_range_meters":14400,"station_id":"ce4bh4p2rcd13ifvqe0g","pricing_plan_id":"cebpf4jnsgd1na2vs0mg"},{"bike_id":"ccf73504-7381-45f5-9749-7127d50e2340","system_id":"levelo_inurba_marseille","lat":43.29273,"lon":5.36847,"is_reserved":false,"is_disabled":false,"rental_uris":{"android":"levelo://app?vid=ccf73504-7381-45f5-9749-7127d50e2340","ios":"levelo://app?vid=ccf73504-7381-45f5-9749-7127d50e2340"},"vehicle_type_id":"4","last_reported":1743149591,"current_range_meters":14400,"station_id":"ce4bhbp2rcd13ifvqesg","pricing_plan_id":"cebpf4jnsgd1na2vs0mg"},{"bike_id":"78e15e74-3315-4ccd-afab-ef4e34b4ae70","system_id":"levelo_inurba_marseille","lat":43.33602,"lon":5.41033,"is_reserved":false,"is_disabled":false,"rental_uris":{"android":"levelo://app?vid=78e15e74-3315-4ccd-afab-ef4e34b4ae70","ios":"levelo://app?vid=78e15e74-3315-4ccd-afab-ef4e34b4ae70"},"vehicle_type_id":"4","last_reported":1743149591,"current_range_meters":14800,"station_id":"ce4bhqh2rcd13ifvqhmg","pricing_plan_id":"cebpf4jnsgd1na2vs0mg"},{"bike_id":"853bbda1-a4b2-4c1d-b835-5a936102dbb0","system_id":"levelo_inurba_marseille","lat":43.292845,"lon":5.401132,"is_reserved":false,"is_disabled":false,"rental_uris":{"android":"levelo://app?vid=853bbda1-a4b2-4c1d-b835-5a936102dbb0","ios":"levelo://app?vid=853bbda1-a4b2-4c1d-b835-5a936102dbb0"},"vehicle_type_id":"4","last_reported":1743149591,"current_range_meters":14800,"station_id":"ce4bh012rcd13ifvqcv0","pricing_plan_id":"cebpf4jnsgd1na2vs0mg"},{"bike_id":"e9edb85d-33ab-4505-abd4-4908998c9ab5","system_id":"levelo_inurba_marseille","lat":43.27937,"lon":5.41051,"is_reserved":false,"is_disabled":false,"rental_uris":{"android":"levelo://app?vid=e9edb85d-33ab-4505-abd4-4908998c9ab5","ios":"levelo://app?vid=e9edb85d-33ab-4505-abd4-4908998c9ab5"},"vehicle_type_id":"4","last_reported":1743149591,"current_range_meters":14800,"station_id":"ce4bhnp2rcd13ifvqh0g","pricing_plan_id":"cebpf4jnsgd1na2vs0mg"},{"bike_id":"212c8e98-dbd0-430f-965c-a5211ae16902","system_id":"levelo_inurba_marseille","lat":43.25102,"lon":5.3953,"is_reserved":false,"is_disabled":false,"rental_uris":{"android":"levelo://app?vid=212c8e98-dbd0-430f-965c-a5211ae16902","ios":"levelo://app?vid=212c8e98-dbd0-430f-965c-a5211ae16902"},"vehicle_type_id":"4","last_reported":1743149591,"current_range_meters":14800,"station_id":"ce4bhm12rcd13ifvqgkg","pricing_plan_id":"cebpf4jnsgd1na2vs0mg"},{"bike_id":"279b8783-93c4-4dcd-a0fc-1fcf498bef1d","system_id":"levelo_inurba_marseille","lat":43.28453,"lon":5.35895,"is_reserved":false,"is_disabled":false,"rental_uris":{"android":"levelo://app?vid=279b8783-93c4-4dcd-a0fc-1fcf498bef1d","ios":"levelo://app?vid=279b8783-93c4-4dcd-a0fc-1fcf498bef1d"},"vehicle_type_id":"4","last_reported":1743149591,"current_range_meters":14800,"station_id":"ce4bhah2rcd13ifvqei0","pricing_plan_id":"cebpf4jnsgd1na2vs0mg"},{"bike_id":"aceadaa2-db7b-4a54-8776-2e3d27bd71ec","system_id":"levelo_inurba_marseille","lat":43.25933,"lon":5.40911,"is_reserved":false,"is_disabled":false,"rental_uris":{"android":"levelo://app?vid=aceadaa2-db7b-4a54-8776-2e3d27bd71ec","ios":"levelo://app?vid=aceadaa2-db7b-4a54-8776-2e3d27bd71ec"},"vehicle_type_id":"4","last_reported":1743149591,"current_range_meters":14800,"station_id":"ce4bhm92rcd13ifvqglg","pricing_plan_id":"cebpf4jnsgd1na2vs0mg"},{"bike_id":"7a706e84-a84e-4e55-ab9c-a00468e1e6c5","system_id":"levelo_inurba_marseille","lat":43.262077,"lon":5.374408,"is_reserved":false,"is_disabled":false,"rental_uris":{"android":"levelo://app?vid=7a706e84-a84e-4e55-ab9c-a00468e1e6c5","ios":"levelo://app?vid=7a706e84-a84e-4e55-ab9c-a00468e1e6c5"},"vehicle_type_id":"4","last_reported":1743149591,"current_range_meters":14800,"station_id":"ce4bh2p2rcd13ifvqdi0","pricing_plan_id":"cebpf4jnsgd1na2vs0mg"},{"bike_id":"983c4c9f-ee1a-4d13-8ce7-bfd36c479f46","system_id":"levelo_inurba_marseille","lat":43.24168,"lon":5.36398,"is_reserved":false,"is_disabled":false,"rental_uris":{"android":"levelo://app?vid=983c4c9f-ee1a-4d13-8ce7-bfd36c479f46","ios":"levelo://app?vid=983c4c9f-ee1a-4d13-8ce7-bfd36c479f46"},"vehicle_type_id":"4","last_reported":1743149591,"current_range_meters":15200,"station_id":"cpo36qri1sfpv3e86is0","pricing_plan_id":"cebpf4jnsgd1na2vs0mg"},{"bike_id":"d67d8652-0f04-45a0-b34d-bbd8839b9d56","system_id":"levelo_inurba_marseille","lat":43.26261,"lon":5.38831,"is_reserved":false,"is_disabled":false,"rental_uris":{"android":"levelo://app?vid=d67d8652-0f04-45a0-b34d-bbd8839b9d56","ios":"levelo://app?vid=d67d8652-0f04-45a0-b34d-bbd8839b9d56"},"vehicle_type_id":"4","last_reported":1743149591,"current_range_meters":15200,"station_id":"","pricing_plan_id":"cebpf4jnsgd1na2vs0mg"},{"bike_id":"851a1d8a-f7d9-4aa9-a4b0-c434796b3fbf","system_id":"levelo_inurba_marseille","lat":43.23149,"lon":5.43712,"is_reserved":false,"is_disabled":false,"rental_uris":{"android":"levelo://app?vid=851a1d8a-f7d9-4aa9-a4b0-c434796b3fbf","ios":"levelo://app?vid=851a1d8a-f7d9-4aa9-a4b0-c434796b3fbf"},"vehicle_type_id":"4","last_reported":1743149591,"current_range_meters":15200,"station_id":"ce4bhmp2rcd13ifvqgog","pricing_plan_id":"cebpf4jnsgd1na2vs0mg"},{"bike_id":"64837c1d-4023-49ba-9c13-8dcdcacb590c","system_id":"levelo_inurba_marseille","lat":43.2408,"lon":5.3775,"is_reserved":false,"is_disabled":false,"rental_uris":{"android":"levelo://app?vid=64837c1d-4023-49ba-9c13-8dcdcacb590c","ios":"levelo://app?vid=64837c1d-4023-49ba-9c13-8dcdcacb590c"},"vehicle_type_id":"4","last_reported":1743149591,"current_range_meters":15200,"station_id":"ce4bhnp2rcd13ifvqgvg","pricing_plan_id":"cebpf4jnsgd1na2vs0mg"},