{"last_updated":1691096733,"ttl":30,"version":"2.2","data":{"bikes":[{"bike_id":"9205c172-124c-45f0-81ac-fe956897bf66","system_id":"levelo_inurba_marseille","lat":43.313391,"lon":5.36706,"is_reserved":false,"is_disabled":false,"rental_uris":{"android":"levelo://app?vid=9205c172-124c-45f0-81ac-fe956897bf66","ios":"levelo://app?vid=9205c172-124c-45f0-81ac-fe956897bf66"},"vehicle_type_id":"4","last_reported":1691096734,"current_range_meters":9200,"station_id":"ce4bgr92rcd13ifvqc6g","pricing_plan_id":"free"},{"bike_id":"bada824d-5c18-4880-a5af-82f306019580","system_id":"levelo_inurba_marseille","lat":43.312239,"lon":5.368562,"is_reserved":false,"is_disabled":false,"rental_uris":{"android":"levelo://app?vid=bada824d-5c18-4880-a5af-82f306019580","ios":"levelo://app?vid=bada824d-5c18-4880-a5af-82f306019580"},"vehicle_type_id":"4","last_reported":1691096734,"current_range_meters":2400,"station_id":"ce4bgl92rcd13ifvqbq0","pricing_plan_id":"free"},{"bike_id":"30178e20-0b31-48d4-bfe6-01a515fe0475","system_id":"levelo_inurba_marseille","lat":43.312239,"lon":5.368562,"is_reserved":false,"is_disabled":false,"rental_uris":{"android":"levelo://app?vid=30178e20-0b31-48d4-bfe6-01a515fe0475","ios":"levelo://app?vid=30178e20-0b31-48d4-bfe6-01a515fe0475"},"vehicle_type_id":"4","last_reported":1691096734,"current_range_meters":3200,"station_id":"ce4bgl92rcd13ifvqbq0","pricing_plan_id":"free"},{"bike_id":"fbcbcd64-b712-4603-890b-40a4dd0ceede","system_id":"levelo_inurba_marseille","lat":43.309076,"lon":5.368465,"is_reserved":false,"is_disabled":false,"rental_uris":{"android":"levelo://app?vid=fbcbcd64-b712-4603-890b-40a4dd0ceede","ios":"levelo://app?vid=fbcbcd64-b712-4603-890b-40a4dd0ceede"},"vehicle_type_id":"4","last_reported":1691096734,"current_range_meters":21200,"station_id":"ce4bgn92rcd13ifvqbvg","pricing_plan_id":"free"},{"bike_id":"a8d6d3d4-a724-4003-8851-c354e13dd34e","system_id":"levelo_inurba_marseille","lat":43.309076,"lon":5.368465,"is_reserved":false,"is_disabled":false,"rental_uris":{"android":"levelo://app?vid=a8d6d3d4-a724-4003-8851-c354e13dd34e","ios":"levelo://app?vid=a8d6d3d4-a724-4003-8851-c354e13dd34e"},"vehicle_type_id":"4","last_reported":1691096734,"current_range_meters":1600,"station_id":"ce4bgn92rcd13ifvqbvg","pricing_plan_id":"free"},{"bike_id":"526e190a-110d-45ab-ab20-01862287d613","system_id":"levelo_inurba_marseille","lat":43.314811,"lon":5.373104,"is_reserved":false,"is_disabled":false,"rental_uris":{"android":"levelo://app?vid=526e190a-110d-45ab-ab20-01862287d613","ios":"levelo://app?vid=526e190a-110d-45ab-ab20-01862287d613"},"vehicle_type_id":"4","last_reported":1691096734,"current_range_meters":18400,"station_id":"ce4bgt12rcd13ifvqcd0","pricing_plan_id":"free"},{"bike_id":"a09e5bb2-a8f4-4aa8-893c-effbedc110d9","system_id":"levelo_inurba_marseille","lat":43.314811,"lon":5.373104,"is_reserved":false,"is_disabled":false,"rental_uris":{"android":"levelo://app?vid=a09e5bb2-a8f4-4aa8-893c-effbedc110d9","ios":"levelo://app?vid=a09e5bb2-a8f4-4aa8-893c-effbedc110d9"},"vehicle_type_id":"4","last_reported":1691096734,"current_range_meters":21600,"station_id":"ce4bgt12rcd13ifvqcd0","pricing_plan_id":"free"},{"bike_id":"838ab520-7ba0-4db7-85c9-31230d943ebd","system_id":"levelo_inurba_marseille","lat":43.309039,"lon":5.371797,"is_reserved":false,"is_disabled":false,"rental_uris":{"android":"levelo://app?vid=838ab520-7ba0-4db7-85c9-31230d943ebd","ios":"levelo://app?vid=838ab520-7ba0-4db7-85c9-31230d943ebd"},"vehicle_type_id":"4","last_reported":1691096734,"current_range_meters":30800,"station_id":"ce4bguh2rcd13ifvqckg","pricing_plan_id":"free"},{"bike_id":"6fd05439-eec5-4c60-861e-ff81b9fabcf7","system_id":"levelo_inurba_marseille","lat":43.30885,"lon":5.3718,"is_reserved":false,"is_disabled":false,"rental_uris":{"android":"levelo://app?vid=6fd05439-eec5-4c60-861e-ff81b9fabcf7","ios":"levelo://app?vid=6fd05439-eec5-4c60-861e-ff81b9fabcf7"},"vehicle_type_id":"4","last_reported":1691096734,"current_range_meters":5200,"station_id":"ce4bguh2rcd13ifvqckg","pricing_plan_id":"free"},{"bike_id":"c4156d17-1eed-443c-84b9-c5d05b4bbcd2","system_id":"levelo_inurba_marseille","lat":43.309039,"lon":5.371797,"is_reserved":false,"is_disabled":false,"rental_uris":{"android":"levelo://app?vid=c4156d17-1eed-443c-84b9-c5d05b4bbcd2","ios":"levelo://app?vid=c4156d17-1eed-443c-84b9-c5d05b4bbcd2"},"vehicle_type_id":"4","last_reported":1691096734,"current_range_meters":10400,"station_id":"ce4bguh2rcd13ifvqckg","pricing_plan_id":"free"},{"bike_id":"7cfb81a3-fd7f-41d1-987d-c1037b7c6b4a","system_id":"levelo_inurba_marseille","lat":43.31456,"lon":5.37478,"is_reserved":false,"is_disabled":false,"rental_uris":{"android":"levelo://app?vid=7cfb81a3-fd7f-41d1-987d-c1037b7c6b4a","ios":"levelo://app?vid=7cfb81a3-fd7f-41d1-987d-c1037b7c6b4a"},"vehicle_type_id":"4","last_reported":1691096734,"current_range_meters":20800,"station_id":"","pricing_plan_id":"free"},{"bike_id":"f77edcce-ede0-437b-bcb0-af213fb41cb3","system_id":"levelo_inurba_marseille","lat":43.305706,"lon":5.365654,"is_reserved":false,"is_disabled":false,"rental_uris":{"android":"levelo://app?vid=f77edcce-ede0-437b-bcb0-af213fb41cb3","ios":"levelo://app?vid=f77edcce-ede0-437b-bcb0-af213fb41cb3"},"vehicle_type_id":"4","last_reported":1691096734,"current_range_meters":12000,"station_id":"ce4bgs12rcd13ifvqcag","pricing_plan_id":"free"},{"bike_id":"f20ea888-8740-440b-bfeb-8eb2a7c1f652","system_id":"levelo_inurba_marseille","lat":43.305989,"lon":5.37225,"is_reserved":false,"is_disabled":false,"rental_uris":{"android":"levelo://app?vid=f20ea888-8740-440b-bfeb-8eb2a7c1f652","ios":"levelo://app?vid=f20ea888-8740-440b-bfeb-8eb2a7c1f652"},"vehicle_type_id":"4","last_reported":1691096734,"current_range_meters":31200,"station_id":"ce4bgqh2rcd13ifvqc4g","pricing_plan_id":"free"},{"bike_id":"7f2206c0-8416-4460-b585-8cd7843a5a4e","system_id":"levelo_inurba_marseille","lat":43.311125,"lon":5.377624,"is_reserved":false,"is_disabled":false,"rental_uris":{"android":"levelo://app?vid=7f2206c0-8416-4460-b585-8cd7843a5a4e","ios":"levelo://app?vid=7f2206c0-8416-4460-b585-8cd7843a5a4e"},"vehicle_type_id":"4","last_reported":1691096734,"current_range_meters":11200,"station_id":"ce4bgt92rcd13ifvqcg0","pricing_plan_id":"free"},{"bike_id":"9e217681-566c-4e88-93b0-69ff2ed16c17","system_id":"levelo_inurba_marseille","lat":43.311131,"lon":5.377651,"is_reserved":false,"is_disabled":false,"rental_uris":{"android":"levelo://app?vid=9e217681-566c-4e88-93b0-69ff2ed16c17","ios":"levelo://app?vid=9e217681-566c-4e88-93b0-69ff2ed16c17"},"vehicle_type_id":"4","last_reported":1691096734,"current_range_meters":21600,"station_id":"ce4bgt92rcd13ifvqcg0","pricing_plan_id":"free"},{"bike_id":"6f36d6df-2f14-45a6-8c82-2876f4cbac18","system_id":"levelo_inurba_marseille","lat":43.311131,"lon":5.377651,"is_reserved":false,"is_disabled":false,"rental_uris":{"android":"levelo://app?vid=6f36d6df-2f14-45a6-8c82-2876f4cbac18","ios":"levelo://app?vid=6f36d6df-2f14-45a6-8c82-2876f4cbac18"},"vehicle_type_id":"4","last_reported":1691096734,"current_range_meters":1200,"station_id":"ce4bgt92rcd13ifvqcg0","pricing_plan_id":"free"},{"bike_id":"c44dddb3-9b93-4d00-96df-650b067307cd","system_id":"levelo_inurba_marseille","lat":43.311125,"lon":5.377624,"is_reserved":false,"is_disabled":false,"rental_uris":{"android":"levelo://app?vid=c44dddb3-9b93-4d00-96df-650b067307cd","ios":"levelo://app?vid=c44dddb3-9b93-4d00-96df-650b067307cd"},"vehicle_type_id":"4","last_reported":1691096734,"current_range_meters":27600,"station_id":"ce4bgt92rcd13ifvqcg0","pricing_plan_id":"free"},{"bike_id":"cba957ca-0c0e-4e77-b7f4-e29174a3a85a","system_id":"levelo_inurba_marseille","lat":43.311125,"lon":5.377624,"is_reserved":false,"is_disabled":false,"rental_uris":{"android":"levelo://app?vid=cba957ca-0c0e-4e77-b7f4-e29174a3a85a","ios":"levelo://app?vid=cba957ca-0c0e-4e77-b7f4-e29174a3a85a"},"vehicle_type_id":"4","last_reported":1691096734,"current_range_meters":18800,"station_id":"ce4bgt92rcd13ifvqcg0","pricing_plan_id":"free"},{"bike_id":"178a679f-0232-4d75-a76f-f2456dc0c718","system_id":"levelo_inurba_marseille","lat":43.311125,"lon":5.377624,"is_reserved":false,"is_disabled":false,"rental_uris":{"android":"levelo://app?vid=178a679f-0232-4d75-a76f-f2456dc0c718","ios":"levelo://app?vid=178a679f-0232-4d75-a76f-f2456dc0c718"},"vehicle_type_id":"4","last_reported":1691096734,"current_range_meters":10000,"station_id":"ce4bgt92rcd13ifvqcg0","pricing_plan_id":"free"},{"bike_id":"5187998b-3924-4c9e-b415-df4ed4cb8223","system_id":"levelo_inurba_marseille","lat":43.307945,"lon":5.376487,"is_reserved":false,"is_disabled":false,"rental_uris":{"android":"levelo://app?vid=5187998b-3924-4c9e-b415-df4ed4cb8223","ios":"levelo://app?vid=5187998b-3924-4c9e-b415-df4ed4cb8223"},"vehicle_type_id":"4","last_reported":1691096734,"current_range_meters":19200,"station_id":"ce4bgv92rcd13ifvqcq0","pricing_plan_id":"free"},{"bike_id":"6e13717e-9914-4817-b446-8ca53f78e166","system_id":"levelo_inurba_marseille","lat":43.307945,"lon":5.376487,"is_reserved":false,"is_disabled":false,"rental_uris":{"android":"levelo://app?vid=6e13717e-9914-4817-b446-8ca53f78e166","ios":"levelo://app?vid=6e13717e-9914-4817-b446-8ca53f78e166"},"vehicle_type_id":"4","last_reported":1691096734,"current_range_meters":7200,"station_id":"ce4bgv92rcd13ifvqcq0","pricing_plan_id":"free"},{"bike_id":"740acca2-d7a2-4410-aa65-7b7281183141","system_id":"levelo_inurba_marseille","lat":43.30785,"lon":5.37653,"is_reserved":false,"is_disabled":false,"rental_uris":{"android":"levelo://app?vid=740acca2-d7a2-4410-aa65-7b7281183141","ios":"levelo://app?vid=740acca2-d7a2-4410-aa65-7b7281183141"},"vehicle_type_id":"4","last_reported":1691096734,"current_range_meters":30000,"station_id":"ce4bgv92rcd13ifvqcq0","pricing_plan_id":"free"},{"bike_id":"cfac6340-2b0e-4511-9eaa-8d0430840b78","system_id":"levelo_inurba_marseille","lat":43.307945,"lon":5.376487,"is_reserved":false,"is_disabled":false,"rental_uris":{"android":"levelo://app?vid=cfac6340-2b0e-4511-9eaa-8d0430840b78","ios":"levelo://app?vid=cfac6340-2b0e-4511-9eaa-8d0430840b78"},"vehicle_type_id":"4","last_reported":1691096734,"current_range_meters":11200,"station_id":"ce4bgv92rcd13ifvqcq0","pricing_plan_id":"free"},{"bike_id":"0f2902ef-403c-458f-92a9-dfbe4b28e1b1","system_id":"levelo_inurba_marseille","lat":43.317075,"lon":5.377367,"is_reserved":false,"is_disabled":false,"rental_uris":{"android":"levelo://app?vid=0f2902ef-403c-458f-92a9-dfbe4b28e1b1","ios":"levelo://app?vid=0f2902ef-403c-458f-92a9-dfbe4b28e1b1"},"vehicle_type_id":"4","last_reported":1691096734,"current_range_meters":8800,"station_id":"ce4bgth2rcd13ifvqch0","pricing_plan_id":"free"},{"bike_id":"6ec4bb7e-8606-49b4-a556-2cb681532bba","system_id":"levelo_inurba_marseille","lat":43.317075,"lon":5.377367,"is_reserved":false,"is_disabled":false,"rental_uris":{"android":"levelo://app?vid=6ec4bb7e-8606-49b4-a556-2cb681532bba","ios":"levelo://app?vid=6ec4bb7e-8606-49b4-a556-2cb681532bba"},"vehicle_type_id":"4","last_reported":1691096734,"current_range_meters":31200,"station_id":"ce4bgth2rcd13ifvqch0","pricing_plan_id":"free"},{"bike_id":"84c9ada1-381a-4fb9-941f-7a726aae932b","system_id":"levelo_inurba_marseille","lat":43.317075,"lon":5.377367,"is_reserved":false,"is_disabled":false,"rental_uris":{"android":"levelo://app?vid=84c9ada1-381a-4fb9-941f-7a726aae932b","ios":"levelo://app?vid=84c9ada1-381a-4fb9-941f-7a726aae932b"},"vehicle_type_id":"4","last_reported":1691096734,"current_range_meters":25200,"station_id":"ce4bgth2rcd13ifvqch0","pricing_plan_id":"free"},{"bike_id":"0dff48cc-499a-4aa6-94ce-ceb187762db7","system_id":"levelo_inurba_marseille","lat":43.313571,"lon":5.384829,"is_reserved":false,"is_disabled":false,"rental_uris":{"android":"levelo://app?vid=0dff48cc-499a-4aa6-94ce-ceb187762db7","ios":"levelo://app?vid=0dff48cc-499a-4aa6-94ce-ceb187762db7"},"vehicle_type_id":"4","last_reported":1691096734,"current_range_meters":30000,"station_id":"ce4bgt92rcd13ifvqcf0","pricing_plan_id":"free"},{"bike_id":"ca03c504-734e-402b-8597-fb77a9549039","system_id":"levelo_inurba_marseille","lat":43.31528,"lon":5.38041,"is_reserved":false,"is_disabled":false,"rental_uris":{"android":"levelo://app?vid=ca03c504-734e-402b-8597-fb77a9549039","ios":"levelo://app?vid=ca03c504-734e-402b-8597-fb77a9549039"},"vehicle_type_id":"4","last_reported":1691096734,"current_range_meters":30400,"station_id":"ce4bhsp2rcd13ifvqi50","pricing_plan_id":"free"},{"bike_id":"ca9e71d2-d7c5-4590-b0fe-199706b7ec93","system_id":"levelo_inurba_marseille","lat":43.30184,"lon":5.36617,"is_reserved":false,"is_disabled":false,"rental_uris":{"android":"levelo://app?vid=ca9e71d2-d7c5-4590-b0fe-199706b7ec93","ios":"levelo://app?vid=ca9e71d2-d7c5-4590-b0fe-199706b7ec93"},"vehicle_type_id":"4","last_reported":1691096734,"current_range_meters":29200,"station_id":"ce4bgrh2rcd13ifvqc8g","pricing_plan_id":"free"},{"bike_id":"40d42811-e04d-4a94-a2dc-4b4f6a1f3819","system_id":"levelo_inurba_marseille","lat":43.304606,"lon":5.379026,"is_reserved":false,"is_disabled":false,"rental_uris":{"android":"levelo://app?vid=40d42811-e04d-4a94-a2dc-4b4f6a1f3819","ios":"levelo://app?vid=40d42811-e04d-4a94-a2dc-4b4f6a1f3819"},"vehicle_type_id":"4","last_reported":1691096734,"current_range_meters":0,"station_id":"ce4bgup2rcd13ifvqcn0","pricing_plan_id":"free"},{"bike_id":"69efd253-fbbb-4a73-9ba0-16d8244fa080","system_id":"levelo_inurba_marseille","lat":43.304586,"lon":5.379065,"is_reserved":false,"is_disabled":false,"rental_uris":{"android":"levelo://app?vid=69efd253-fbbb-4a73-9ba0-16d8244fa080","ios":"levelo://app?vid=69efd253-fbbb-4a73-9ba0-16d8244fa080"},"vehicle_type_id":"4","last_reported":1691096734,"current_range_meters":31200,"station_id":"ce4bgup2rcd13ifvqcn0","pricing_plan_id":"free"},{"bike_id":"4d195947-7840-43c6-8ce6-ccb5b609969c","system_id":"levelo_inurba_marseille","lat":43.319935,"lon":5.381699,"is_reserved":false,"is_disabled":false,"rental_uris":{"android":"levelo://app?vid=4d195947-7840-43c6-8ce6-ccb5b609969c","ios":"levelo://app?vid=4d195947-7840-43c6-8ce6-ccb5b609969c"},"vehicle_type_id":"4","last_reported":1691096734,"current_range_meters":10800,"station_id":"ce4bhr12rcd13ifvqhpg","pricing_plan_id":"free"},{"bike_id":"791aecf0-48e6-4775-bc04-3b9f8a573be3","system_id":"levelo_inurba_marseille","lat":43.32002,"lon":5.38158,"is_reserved":false,"is_disabled":false,"rental_uris":{"android":"levelo://app?vid=791aecf0-48e6-4775-bc04-3b9f8a573be3","ios":"levelo://app?vid=791aecf0-48e6-4775-bc04-3b9f8a573be3"},"vehicle_type_id":"4","last_reported":1691096734,"current_range_meters":10000,"station_id":"ce4bhr12rcd13ifvqhpg","pricing_plan_id":"free"},{"bike_id":"dac54eb1-a107-4483-ae6c-ee7237f93a9d","system_id":"levelo_inurba_marseille","lat":43.319935,"lon":5.381699,"is_reserved":false,"is_disabled":false,"rental_uris":{"android":"levelo://app?vid=dac54eb1-a107-4483-ae6c-ee7237f93a9d","ios":"levelo://app?vid=dac54eb1-a107-4483-ae6c-ee7237f93a9d"},"vehicle_type_id":"4","last_reported":1691096734,"current_range_meters":20400,"station_id":"ce4bhr12rcd13ifvqhpg","pricing_plan_id":"free"},{"bike_id":"c7059f7a-3ca0-4048-86b9-db8753925632","system_id":"levelo_inurba_marseille","lat":43.313571,"lon":5.384829,"is_reserved":false,"is_disabled":false,"rental_uris":{"android":"levelo://app?vid=c7059f7a-3ca0-4048-86b9-db8753925632","ios":"levelo://app?vid=c7059f7a-3ca0-4048-86b9-db8753925632"},"vehicle_type_id":"4","last_reported":1691096734,"current_range_meters":1600,"station_id":"ce4bgt92rcd13ifvqcf0","pricing_plan_id":"free"},{"bike_id":"8fdb73d1-69c9-42f4-bdf1-e4511d7a9c3a","system_id":"levelo_inurba_marseille","lat":43.313571,"lon":5.384829,"is_reserved":false,"is_disabled":false,"rental_uris":{"android":"levelo://app?vid=8fdb73d1-69c9-42f4-bdf1-e4511d7a9c3a","ios":"levelo://app?vid=8fdb73d1-69c9-42f4-bdf1-e4511d7a9c3a"},"vehicle_type_id":"4","last_reported":1691096734,"current_range_meters":9200,"station_id":"ce4bgt92rcd13ifvqcf0","pricing_plan_id":"free"},{"bike_id":"f5b1ceff-a875-4d0b-9e22-6a863bf3e1c1","system_id":"levelo_inurba_marseille","lat":43.31362,"lon":5.385,"is_reserved":false,"is_disabled":false,"rental_uris":{"android":"levelo://app?vid=f5b1ceff-a875-4d0b-9e22-6a863bf3e1c1","ios":"levelo://app?vid=f5b1ceff-a875-4d0b-9e22-6a863bf3e1c1"},"vehicle_type_id":"4","last_reported":1691096734,"current_range_meters":13600,"station_id":"ce4bgt92rcd13ifvqcf0","pricing_plan_id":"free"},{"bike_id":"c1756c1e-2cca-4ed1-9e81-e88fa189cc6b","system_id":"levelo_inurba_marseille","lat":43.313571,"lon":5.384829,"is_reserved":false,"is_disabled":false,"rental_uris":{"android":"levelo://app?vid=c1756c1e-2cca-4ed1-9e81-e88fa189cc6b","ios":"levelo://app?vid=c1756c1e-2cca-4ed1-9e81-e88fa189cc6b"},"vehicle_type_id":"4","last_reported":1691096734,"current_range_meters":23600,"station_id":"ce4bgt92rcd13ifvqcf0","pricing_plan_id":"free"},{"bike_id":"7ce5d17d-5040-4f4f-82f9-2a811b57edb1","system_id":"levelo_inurba_marseille","lat":43.29983,"lon":5.3718,"is_reserved":false,"is_disabled":false,"rental_uris":{"android":"levelo://app?vid=7ce5d17d-5040-4f4f-82f9-2a811b57edb1","ios":"levelo://app?vid=7ce5d17d-5040-4f4f-82f9-2a811b57edb1"},"vehicle_type_id":"4","last_reported":1691096734,"current_range_meters":8400,"station_id":"ce4bgr92rcd13ifvqc7g","pricing_plan_id":"free"},{"bike_id":"3cb7fd70-121e-4eb5-9a01-ecc8718aa1bb","system_id":"levelo_inurba_marseille","lat":43.2993,"lon":5.36549,"is_reserved":false,"is_disabled":false,"rental_uris":{"android":"levelo://app?vid=3cb7fd70-121e-4eb5-9a01-ecc8718aa1bb","ios":"levelo://app?vid=3cb7fd70-121e-4eb5-9a01-ecc8718aa1bb"},"vehicle_type_id":"4","last_reported":1691096734,"current_range_meters":30800,"station_id":"ce4bgm92rcd13ifvqbr0","pricing_plan_id":"free"},{"bike_id":"a2ba15e7-9d70-445a-8936-80b735de3f6e","system_id":"levelo_inurba_marseille","lat":43.29976,"lon":5.37202,"is_reserved":false,"is_disabled":false,"rental_uris":{"android":"levelo://app?vid=a2ba15e7-9d70-445a-8936-80b735de3f6e","ios":"levelo://app?vid=a2ba15e7-9d70-445a-8936-80b735de3f6e"},"vehicle_type_id":"4","last_reported":1691096734,"current_range_meters":15200,"station_id":"ce4bgr92rcd13ifvqc7g","pricing_plan_id":"free"},{"bike_id":"e3041c7e-125d-4595-b231-60bb0c656f65","system_id":"levelo_inurba_marseille","lat":43.30543,"lon":5.38424,"is_reserved":false,"is_disabled":false,"rental_uris":{"android":"levelo://app?vid=e3041c7e-125d-4595-b231-60bb0c656f65","ios":"levelo://app?vid=e3041c7e-125d-4595-b231-60bb0c656f65"},"vehicle_type_id":"4","last_reported":1691096734,"current_range_meters":30400,"station_id":"ce4bgg92rcd13ifvqb30","pricing_plan_id":"free"},{"bike_id":"6d330c4b-7a52-48c2-9f71-93503d247d24","system_id":"levelo_inurba_marseille","lat":43.29848,"lon":5.36284,"is_reserved":false,"is_disabled":false,"rental_uris":{"android":"levelo://app?vid=6d330c4b-7a52-48c2-9f71-93503d247d24","ios":"levelo://app?vid=6d330c4b-7a52-48c2-9f71-93503d247d24"},"vehicle_type_id":"4","last_reported":1691096734,"current_range_meters":22800,"station_id":"","pricing_plan_id":"free"},{"bike_id":"30537d43-af02-4a10-b928-7b9b8cf633d2","system_id":"levelo_inurba_marseille","lat":43.30545,"lon":5.38429,"is_reserved":false,"is_disabled":false,"rental_uris":{"android":"levelo://app?vid=30537d43-af02-4a10-b928-7b9b8cf633d2","ios":"levelo://app?vid=30537d43-af02-4a10-b928-7b9b8cf633d2"},"vehicle_type_id":"4","last_reported":1691096734,"current_range_meters":28400,"station_id":"ce4bgg92rcd13ifvqb30","pricing_plan_id":"free"},{"bike_id":"e3c1dd5e-121b-4920-8f86-4d47aafcaa52","system_id":"levelo_inurba_marseille","lat":43.30539,"lon":5.38428,"is_reserved":false,"is_disabled":false,"rental_uris":{"android":"levelo://app?vid=e3c1dd5e-121b-4920-8f86-4d47aafcaa52","ios":"levelo://app?vid=e3c1dd5e-121b-4920-8f86-4d47aafcaa52"},"vehicle_type_id":"4","last_reported":1691096734,"current_range_meters":7200,"station_id":"ce4bgg92rcd13ifvqb30","pricing_plan_id":"free"},{"bike_id":"0493e0ad-b294-4bd6-92f4-9f3bd951e4bc","system_id":"levelo_inurba_marseille","lat":43.299243,"lon":5.37481,"is_reserved":false,"is_disabled":false,"rental_uris":{"android":"levelo://app?vid=0493e0ad-b294-4bd6-92f4-9f3bd951e4bc","ios":"levelo://app?vid=0493e0ad-b294-4bd6-92f4-9f3bd951e4bc"},"vehicle_type_id":"4","last_reported":1691096734,"current_range_meters":4000,"station_id":"ce4bgjh2rcd13ifvqbg0","pricing_plan_id":"free"},{"bike_id":"2af1a7e1-c7a3-4871-b210-ed23f32f53db","system_id":"levelo_inurba_marseille","lat":43.30532,"lon":5.38427,"is_reserved":false,"is_disabled":false,"rental_uris":{"android":"levelo://app?vid=2af1a7e1-c7a3-4871-b210-ed23f32f53db","ios":"levelo://app?vid=2af1a7e1-c7a3-4871-b210-ed23f32f53db"},"vehicle_type_id":"4","last_reported":1691096734,"current_range_meters":19600,"station_id":"ce4bgg92rcd13ifvqb30","pricing_plan_id":"free"},{"bike_id":"cd1aa34e-ac88-4a5d-908c-f2421f3727d7","system_id":"levelo_inurba_marseille","lat":43.299243,"lon":5.37481,"is_reserved":false,"is_disabled":false,"rental_uris":{"android":"levelo://app?vid=cd1aa34e-ac88-4a5d-908c-f2421f3727d7","ios":"levelo://app?vid=cd1aa34e-ac88-4a5d-908c-f2421f3727d7"},"vehicle_type_id":"4","last_reported":1691096734,"current_range_meters":1600,"station_id":"ce4bgjh2rcd13ifvqbg0","pricing_plan_id":"free"},{"bike_id":"c8f881e6-fc84-428b-81fe-9dbcb8465a23","system_id":"levelo_inurba_marseille","lat":43.30538,"lon":5.38434,"is_reserved":false,"is_disabled":false,"rental_uris":{"android":"levelo://app?vid=c8f881e6-fc84-428b-81fe-9dbcb8465a23","ios":"levelo://app?vid=c8f881e6-fc84-428b-81fe-9dbcb8465a23"},"vehicle_type_id":"4","last_reported":1691096734,"current_range_meters":6800,"station_id":"ce4bgg92rcd13ifvqb30","pricing_plan_id":"free"},{"bike_id":"ebc523c0-2f69-490e-b4c2-af74345955b4","system_id":"levelo_inurba_marseille","lat":43.299243,"lon":5.37481,"is_reserved":false,"is_disabled":false,"rental_uris":{"android":"levelo://app?vid=ebc523c0-2f69-490e-b4c2-af74345955b4","ios":"levelo://app?vid=ebc523c0-2f69-490e-b4c2-af74345955b4"},"vehicle_type_id":"4","last_reported":1691096734,"current_range_meters":8000,"station_id":"ce4bgjh2rcd13ifvqbg0","pricing_plan_id":"free"},{"bike_id":"6eb6ead0-d563-434e-9d56-3823b1758e32","system_id":"levelo_inurba_marseille","lat":43.311722,"lon":5.387247,"is_reserved":false,"is_disabled":false,"rental_uris":{"android":"levelo://app?vid=6eb6ead0-d563-434e-9d56-3823b1758e32","ios":"levelo://app?vid=6eb6ead0-d563-434e-9d56-3823b1758e32"},"vehicle_type_id":"4","last_reported":1691096734,"current_range_meters":29200,"station_id":"ce4bgv12rcd13ifvqcp0","pricing_plan_id":"free"},{"bike_id":"4b1e7c26-7b64-4159-8c32-e67f82ce8370","system_id":"levelo_inurba_marseille","lat":43.31168,"lon":5.38714,"is_reserved":false,"is_disabled":false,"rental_uris":{"android":"levelo://app?vid=4b1e7c26-7b64-4159-8c32-e67f82ce8370","ios":"levelo://app?vid=4b1e7c26-7b64-4159-8c32-e67f82ce8370"},"vehicle_type_id":"4","last_reported":1691096734,"current_range_meters":30400,"station_id":"ce4bgv12rcd13ifvqcp0","pricing_plan_id":"free"},{"bike_id":"7fabe51b-f91c-4ab2-8de3-8aafce9f5964","system_id":"levelo_inurba_marseille","lat":43.30524,"lon":5.3844,"is_reserved":false,"is_disabled":false,"rental_uris":{"android":"levelo://app?vid=7fabe51b-f91c-4ab2-8de3-8aafce9f5964","ios":"levelo://app?vid=7fabe51b-f91c-4ab2-8de3-8aafce9f5964"},"vehicle_type_id":"4","last_reported":1691096734,"current_range_meters":7600,"station_id":"ce4bgg92rcd13ifvqb30","pricing_plan_id":"free"},{"bike_id":"a127ccec-d3a5-482a-839c-e89c4fc5b819","system_id":"levelo_inurba_marseille","lat":43.311131,"lon":5.377651,"is_reserved":false,"is_disabled":false,"rental_uris":{"android":"levelo://app?vid=a127ccec-d3a5-482a-839c-e89c4fc5b819","ios":"levelo://app?vid=a127ccec-d3a5-482a-839c-e89c4fc5b819"},"vehicle_type_id":"4","last_reported":1691096734,"current_range_meters":5600,"station_id":"ce4bgt92rcd13ifvqcg0","pricing_plan_id":"free"},{"bike_id":"7cf1aab8-38a1-47db-af16-2123c0ca6e97","system_id":"levelo_inurba_marseille","lat":43.32295,"lon":5.38267,"is_reserved":false,"is_disabled":false,"rental_uris":{"android":"levelo://app?vid=7cf1aab8-38a1-47db-af16-2123c0ca6e97","ios":"levelo://app?vid=7cf1aab8-38a1-47db-af16-2123c0ca6e97"},"vehicle_type_id":"4","last_reported":1691096734,"current_range_meters":19600,"station_id":"ce4bhr12rcd13ifvqhqg","pricing_plan_id":"free"},{"bike_id":"ac3f9995-623d-4785-8a45-5d221a9c2fa0","system_id":"levelo_inurba_marseille","lat":43.32828,"lon":5.36693,"is_reserved":false,"is_disabled":false,"rental_uris":{"android":"levelo://app?vid=ac3f9995-623d-4785-8a45-5d221a9c2fa0","ios":"levelo://app?vid=ac3f9995-623d-4785-8a45-5d221a9c2fa0"},"vehicle_type_id":"4","last_reported":1691096734,"current_range_meters":17200,"station_id":"ce4bhs92rcd13ifvqi0g","pricing_plan_id":"free"},{"bike_id":"bcdc03eb-e50d-43f7-8cdb-322543d75932","system_id":"levelo_inurba_marseille","lat":43.32828,"lon":5.3669,"is_reserved":false,"is_disabled":false,"rental_uris":{"android":"levelo://app?vid=bcdc03eb-e50d-43f7-8cdb-322543d75932","ios":"levelo://app?vid=bcdc03eb-e50d-43f7-8cdb-322543d75932"},"vehicle_type_id":"4","last_reported":1691096734,"current_range_meters":1600,"station_id":"ce4bhs92rcd13ifvqi0g","pricing_plan_id":"free"},{"bike_id":"ca641f54-3d5a-4364-a5e2-fb3efce404d3","system_id":"levelo_inurba_marseille","lat":43.32828,"lon":5.36681,"is_reserved":false,"is_disabled":false,"rental_uris":{"android":"levelo://app?vid=ca641f54-3d5a-4364-a5e2-fb3efce404d3","ios":"levelo://app?vid=ca641f54-3d5a-4364-a5e2-fb3efce404d3"},"vehicle_type_id":"4","last_reported":1691096734,"current_range_meters":8000,"station_id":"ce4bhs92rcd13ifvqi0g","pricing_plan_id":"free"},{"bike_id":"c818fda6-d3a8-4581-8e5f-963e17e4e50b","system_id":"levelo_inurba_marseille","lat":43.32829,"lon":5.36693,"is_reserved":false,"is_disabled":false,"rental_uris":{"android":"levelo://app?vid=c818fda6-d3a8-4581-8e5f-963e17e4e50b","ios":"levelo://app?vid=c818fda6-d3a8-4581-8e5f-963e17e4e50b"},"vehicle_type_id":"4","last_reported":1691096734,"current_range_meters":11200,"station_id":"ce4bhs92rcd13ifvqi0g","pricing_plan_id":"free"},{"bike_id":"fb4f6003-5761-4aa1-83e7-9bec0069ec17","system_id":"levelo_inurba_marseille","lat":43.328371,"lon":5.366909,"is_reserved":false,"is_disabled":false,"rental_uris":{"android":"levelo://app?vid=fb4f6003-5761-4aa1-83e7-9bec0069ec17","ios":"levelo://app?vid=fb4f6003-5761-4aa1-83e7-9bec0069ec17"},"vehicle_type_id":"4","last_reported":1691096734,"current_range_meters":4400,"station_id":"ce4bhs92rcd13ifvqi0g","pricing_plan_id":"free"},{"bike_id":"dd789220-e7b5-42c1-b9dc-dc4243148021","system_id":"levelo_inurba_marseille","lat":43.297163,"lon":5.365866,"is_reserved":false,"is_disabled":false,"rental_uris":{"android":"levelo://app?vid=dd789220-e7b5-42c1-b9dc-dc4243148021","ios":"levelo://app?vid=dd789220-e7b5-42c1-b9dc-dc4243148021"},"vehicle_type_id":"4","last_reported":1691096734,"current_range_meters":31200,"station_id":"ce4bgn12rcd13ifvqbt0","pricing_plan_id":"free"},{"bike_id":"81467de6-2847-473e-9e69-32a4899f3166","system_id":"levelo_inurba_marseille","lat":43.328371,"lon":5.366909,"is_reserved":false,"is_disabled":false,"rental_uris":{"android":"levelo://app?vid=81467de6-2847-473e-9e69-32a4899f3166","ios":"levelo://app?vid=81467de6-2847-473e-9e69-32a4899f3166"},"vehicle_type_id":"4","last_reported":1691096734,"current_range_meters":11600,"station_id":"ce4bhs92rcd13ifvqi0g","pricing_plan_id":"free"},{"bike_id":"1a73e4a2-7699-4f0b-82a6-3213ef41b29d","system_id":"levelo_inurba_marseille","lat":43.29695,"lon":5.37289,"is_reserved":false,"is_disabled":false,"rental_uris":{"android":"levelo://app?vid=1a73e4a2-7699-4f0b-82a6-3213ef41b29d","ios":"levelo://app?vid=1a73e4a2-7699-4f0b-82a6-3213ef41b29d"},"vehicle_type_id":"4","last_reported":1691096734,"current_range_meters":1200,"station_id":"ce4bgk12rcd13ifvqbj0","pricing_plan_id":"free"},{"bike_id":"f5d5175a-aff8-4a38-b359-8f25f16a199f","system_id":"levelo_inurba_marseille","lat":43.29686,"lon":5.37292,"is_reserved":false,"is_disabled":false,"rental_uris":{"android":"levelo://app?vid=f5d5175a-aff8-4a38-b359-8f25f16a199f","ios":"levelo://app?vid=f5d5175a-aff8-4a38-b359-8f25f16a199f"},"vehicle_type_id":"4","last_reported":1691096734,"current_range_meters":19200,"station_id":"","pricing_plan_id":"free"},{"bike_id":"98b1bbca-23b1-4475-8179-1840351ee800","system_id":"levelo_inurba_marseille","lat":43.299028,"lon":5.381509,"is_reserved":false,"is_disabled":false,"rental_uris":{"android":"levelo://app?vid=98b1bbca-23b1-4475-8179-1840351ee800","ios":"levelo://app?vid=98b1bbca-23b1-4475-8179-1840351ee800"},"vehicle_type_id":"4","last_reported":1691096734,"current_range_meters":25600,"station_id":"ce4bgj12rcd13ifvqbc0","pricing_plan_id":"free"},{"bike_id":"5832512c-6d1c-4aff-a0ed-53f89273c702","system_id":"levelo_inurba_marseille","lat":43.309589,"lon":5.390258,"is_reserved":false,"is_disabled":false,"rental_uris":{"android":"levelo://app?vid=5832512c-6d1c-4aff-a0ed-53f89273c702","ios":"levelo://app?vid=5832512c-6d1c-4aff-a0ed-53f89273c702"},"vehicle_type_id":"4","last_reported":1691096734,"current_range_meters":23200,"station_id":"ce4bgup2rcd13ifvqco0","pricing_plan_id":"free"},{"bike_id":"f0b1921d-8fc5-42f6-8214-26455e772ce5","system_id":"levelo_inurba_marseille","lat":43.309589,"lon":5.390258,"is_reserved":false,"is_disabled":false,"rental_uris":{"android":"levelo://app?vid=f0b1921d-8fc5-42f6-8214-26455e772ce5","ios":"levelo://app?vid=f0b1921d-8fc5-42f6-8214-26455e772ce5"},"vehicle_type_id":"4","last_reported":1691096734,"current_range_meters":26800,"station_id":"ce4bgup2rcd13ifvqco0","pricing_plan_id":"free"},{"bike_id":"c1066db3-31fa-407b-a45f-eec66168b11e","system_id":"levelo_inurba_marseille","lat":43.31759,"lon":5.39011,"is_reserved":false,"is_disabled":false,"rental_uris":{"android":"levelo://app?vid=c1066db3-31fa-407b-a45f-eec66168b11e","ios":"levelo://app?vid=c1066db3-31fa-407b-a45f-eec66168b11e"},"vehicle_type_id":"4","last_reported":1691096734,"current_range_meters":3600,"station_id":"ce4bhqp2rcd13ifvqhng","pricing_plan_id":"free"},{"bike_id":"33e2c390-800e-493e-b560-bc238e79e704","system_id":"levelo_inurba_marseille","lat":43.317557,"lon":5.390173,"is_reserved":false,"is_disabled":false,"rental_uris":{"android":"levelo://app?vid=33e2c390-800e-493e-b560-bc238e79e704","ios":"levelo://app?vid=33e2c390-800e-493e-b560-bc238e79e704"},"vehicle_type_id":"4","last_reported":1691096734,"current_range_meters":22000,"station_id":"ce4bhqp2rcd13ifvqhng","pricing_plan_id":"free"},{"bike_id":"a2732b9d-f669-48a3-9640-a486c2759fce","system_id":"levelo_inurba_marseille","lat":43.317557,"lon":5.390173,"is_reserved":false,"is_disabled":false,"rental_uris":{"android":"levelo://app?vid=a2732b9d-f669-48a3-9640-a486c2759fce","ios":"levelo://app?vid=a2732b9d-f669-48a3-9640-a486c2759fce"},"vehicle_type_id":"4","last_reported":1691096734,"current_range_meters":28000,"station_id":"ce4bhqp2rcd13ifvqhng","pricing_plan_id":"free"},{"bike_id":"2ab24d27-4c93-4a9b-b53d-00bd8147d826","system_id":"levelo_inurba_marseille","lat":43.30437,"lon":5.38888,"is_reserved":false,"is_disabled":false,"rental_uris":{"android":"levelo://app?vid=2ab24d27-4c93-4a9b-b53d-00bd8147d826","ios":"levelo://app?vid=2ab24d27-4c93-4a9b-b53d-00bd8147d826"},"vehicle_type_id":"4","last_reported":1691096734,"current_range_meters":6000,"station_id":"ce4bgk12rcd13ifvqbi0","pricing_plan_id":"free"},{"bike_id":"047973e6-2675-4415-b2f2-f7087ae1c681","system_id":"levelo_inurba_marseille","lat":43.30423,"lon":5.38881,"is_reserved":false,"is_disabled":false,"rental_uris":{"android":"levelo://app?vid=047973e6-2675-4415-b2f2-f7087ae1c681","ios":"levelo://app?vid=047973e6-2675-4415-b2f2-f7087ae1c681"},"vehicle_type_id":"4","last_reported":1691096734,"current_range_meters":14800,"station_id":"ce4bgk12rcd13ifvqbi0","pricing_plan_id":"free"},{"bike_id":"8f840c65-fb61-4c3c-bc19-535989aee353","system_id":"levelo_inurba_marseille","lat":43.30431,"lon":5.38893,"is_reserved":false,"is_disabled":false,"rental_uris":{"android":"levelo://app?vid=8f840c65-fb61-4c3c-bc19-535989aee353","ios":"levelo://app?vid=8f840c65-fb61-4c3c-bc19-535989aee353"},"vehicle_type_id":"4","last_reported":1691096734,"current_range_meters":4800,"station_id":"ce4bgk12rcd13ifvqbi0","pricing_plan_id":"free"},{"bike_id":"6af8eadd-eb1e-4f09-b9b6-f9a692513b15","system_id":"levelo_inurba_marseille","lat":43.29566,"lon":5.37519,"is_reserved":false,"is_disabled":false,"rental_uris":{"android":"levelo://app?vid=6af8eadd-eb1e-4f09-b9b6-f9a692513b15","ios":"levelo://app?vid=6af8eadd-eb1e-4f09-b9b6-f9a692513b15"},"vehicle_type_id":"4","last_reported":1691096734,"current_range_meters":12400,"station_id":"ce4bgh92rcd13ifvqb50","pricing_plan_id":"free"},{"bike_id":"fbb4d08f-7e48-404d-9e7e-d4b03cb75520","system_id":"levelo_inurba_marseille","lat":43.30421,"lon":5.38891,"is_reserved":false,"is_disabled":false,"rental_uris":{"android":"levelo://app?vid=fbb4d08f-7e48-404d-9e7e-d4b03cb75520","ios":"levelo://app?vid=fbb4d08f-7e48-404d-9e7e-d4b03cb75520"},"vehicle_type_id":"4","last_reported":1691096734,"current_range_meters":0,"station_id":"ce4bgk12rcd13ifvqbi0","pricing_plan_id":"free"},{"bike_id":"82c3a599-f9f1-4cb5-b9ba-89ef6a9b25ab","system_id":"levelo_inurba_marseille","lat":43.296277,"lon":5.377108,"is_reserved":false,"is_disabled":false,"rental_uris":{"android":"levelo://app?vid=82c3a599-f9f1-4cb5-b9ba-89ef6a9b25ab","ios":"levelo://app?vid=82c3a599-f9f1-4cb5-b9ba-89ef6a9b25ab"},"vehicle_type_id":"4","last_reported":1691096734,"current_range_meters":7600,"station_id":"ce4bgi92rcd13ifvqb90","pricing_plan_id":"free"},{"bike_id":"2bb606fe-80b2-4ce2-bb55-c061e382958f","system_id":"levelo_inurba_marseille","lat":43.295713,"lon":5.399639,"is_reserved":false,"is_disabled":false,"rental_uris":{"android":"levelo://app?vid=2bb606fe-80b2-4ce2-bb55-c061e382958f","ios":"levelo://app?vid=2bb606fe-80b2-4ce2-bb55-c061e382958f"},"vehicle_type_id":"4","last_reported":1691096734,"current_range_meters":14000,"station_id":"ce4bh312rcd13ifvqdj0","pricing_plan_id":"free"},{"bike_id":"08ae3b8d-2fe3-45b0-8d6d-1ac5ba2f0dec","system_id":"levelo_inurba_marseille","lat":43.296277,"lon":5.377108,"is_reserved":false,"is_disabled":false,"rental_uris":{"android":"levelo://app?vid=08ae3b8d-2fe3-45b0-8d6d-1ac5ba2f0dec","ios":"levelo://app?vid=08ae3b8d-2fe3-45b0-8d6d-1ac5ba2f0dec"},"vehicle_type_id":"4","last_reported":1691096734,"current_range_meters":13200,"station_id":"ce4bgi92rcd13ifvqb90","pricing_plan_id":"free"},{"bike_id":"fc6a58d7-5d70-4867-9469-a84657a56f49","system_id":"levelo_inurba_marseille","lat":43.299707,"lon":5.384859,"is_reserved":false,"is_disabled":false,"rental_uris":{"android":"levelo://app?vid=fc6a58d7-5d70-4867-9469-a84657a56f49","ios":"levelo://app?vid=fc6a58d7-5d70-4867-9469-a84657a56f49"},"vehicle_type_id":"4","last_reported":1691096734,"current_range_meters":4000,"station_id":"ce4bgj92rcd13ifvqbd0","pricing_plan_id":"free"},{"bike_id":"4eb34e8f-e59e-40e2-b499-4f7465e0a900","system_id":"levelo_inurba_marseille","lat":43.299707,"lon":5.384859,"is_reserved":false,"is_disabled":false,"rental_uris":{"android":"levelo://app?vid=4eb34e8f-e59e-40e2-b499-4f7465e0a900","ios":"levelo://app?vid=4eb34e8f-e59e-40e2-b499-4f7465e0a900"},"vehicle_type_id":"4","last_reported":1691096734,"current_range_meters":23200,"station_id":"ce4bgj92rcd13ifvqbd0","pricing_plan_id":"free"},{"bike_id":"50ef0488-67e5-4988-8513-f16ec77521de","system_id":"levelo_inurba_marseille","lat":43.299707,"lon":5.384859,"is_reserved":false,"is_disabled":false,"rental_uris":{"android":"levelo://app?vid=50ef0488-67e5-4988-8513-f16ec77521de","ios":"levelo://app?vid=50ef0488-67e5-4988-8513-f16ec77521de"},"vehicle_type_id":"4","last_reported":1691096734,"current_range_meters":1600,"station_id":"ce4bgj92rcd13ifvqbd0","pricing_plan_id":"free"},{"bike_id":"be3b9c7a-ef73-47f2-8a40-38431e709cbe","system_id":"levelo_inurba_marseille","lat":43.32354,"lon":5.38872,"is_reserved":false,"is_disabled":false,"rental_uris":{"android":"levelo://app?vid=be3b9c7a-ef73-47f2-8a40-38431e709cbe","ios":"levelo://app?vid=be3b9c7a-ef73-47f2-8a40-38431e709cbe"},"vehicle_type_id":"4","last_reported":1691096734,"current_range_meters":30800,"station_id":"ce4bhqp2rcd13ifvqhog","pricing_plan_id":"free"},{"bike_id":"3205d0e9-dc07-44ba-8cfe-0b5a882e32d0","system_id":"levelo_inurba_marseille","lat":43.32367,"lon":5.388836,"is_reserved":false,"is_disabled":false,"rental_uris":{"android":"levelo://app?vid=3205d0e9-dc07-44ba-8cfe-0b5a882e32d0","ios":"levelo://app?vid=3205d0e9-dc07-44ba-8cfe-0b5a882e32d0"},"vehicle_type_id":"4","last_reported":1691096734,"current_range_meters":30000,"station_id":"ce4bhqp2rcd13ifvqhog","pricing_plan_id":"free"},{"bike_id":"ee373f4b-d04e-43ef-92b8-3105e264ba5d","system_id":"levelo_inurba_marseille","lat":43.32362,"lon":5.38878,"is_reserved":false,"is_disabled":false,"rental_uris":{"android":"levelo://app?vid=ee373f4b-d04e-43ef-92b8-3105e264ba5d","ios":"levelo://app?vid=ee373f4b-d04e-43ef-92b8-3105e264ba5d"},"vehicle_type_id":"4","last_reported":1691096734,"current_range_meters":30800,"station_id":"ce4bhqp2rcd13ifvqhog","pricing_plan_id":"free"},{"bike_id":"153806a9-c106-4acb-8efe-f81ba29b58d3","system_id":"levelo_inurba_marseille","lat":43.32368,"lon":5.38875,"is_reserved":false,"is_disabled":false,"rental_uris":{"android":"levelo://app?vid=153806a9-c106-4acb-8efe-f81ba29b58d3","ios":"levelo://app?vid=153806a9-c106-4acb-8efe-f81ba29b58d3"},"vehicle_type_id":"4","last_reported":1691096734,"current_range_meters":30400,"station_id":"ce4bhqp2rcd13ifvqhog","pricing_plan_id":"free"},{"bike_id":"e7413cb7-8520-4af3-81db-d2b3ba5a040f","system_id":"levelo_inurba_marseille","lat":43.32351,"lon":5.38892,"is_reserved":false,"is_disabled":false,"rental_uris":{"android":"levelo://app?vid=e7413cb7-8520-4af3-81db-d2b3ba5a040f","ios":"levelo://app?vid=e7413cb7-8520-4af3-81db-d2b3ba5a040f"},"vehicle_type_id":"4","last_reported":1691096734,"current_range_meters":800,"station_id":"ce4bhqp2rcd13ifvqhog","pricing_plan_id":"free"},{"bike_id":"5f1c231d-5549-420b-a974-1b1406435a60","system_id":"levelo_inurba_marseille","lat":43.32367,"lon":5.388836,"is_reserved":false,"is_disabled":false,"rental_uris":{"android":"levelo://app?vid=5f1c231d-5549-420b-a974-1b1406435a60","ios":"levelo://app?vid=5f1c231d-5549-420b-a974-1b1406435a60"},"vehicle_type_id":"4","last_reported":1691096734,"current_range_meters":30000,"station_id":"ce4bhqp2rcd13ifvqhog","pricing_plan_id":"free"},{"bike_id":"8302eeba-1a7c-4b0b-af87-29f1cf9b8a06","system_id":"levelo_inurba_marseille","lat":43.32367,"lon":5.388836,"is_reserved":false,"is_disabled":false,"rental_uris":{"android":"levelo://app?vid=8302eeba-1a7c-4b0b-af87-29f1cf9b8a06","ios":"levelo://app?vid=8302eeba-1a7c-4b0b-af87-29f1cf9b8a06"},"vehicle_type_id":"4","last_reported":1691096734,"current_range_meters":30400,"station_id":"ce4bhqp2rcd13ifvqhog","pricing_plan_id":"free"},{"bike_id":"83cbeb62-988f-4ba1-ad60-d05472bccfe3","system_id":"levelo_inurba_marseille","lat":43.32365,"lon":5.38884,"is_reserved":false,"is_disabled":false,"rental_uris":{"android":"levelo://app?vid=83cbeb62-988f-4ba1-ad60-d05472bccfe3","ios":"levelo://app?vid=83cbeb62-988f-4ba1-ad60-d05472bccfe3"},"vehicle_type_id":"4","last_reported":1691096734,"current_range_meters":800,"station_id":"ce4bhqp2rcd13ifvqhog","pricing_plan_id":"free"},{"bike_id":"b0c7ca86-ee56-4d5b-8ef5-0c1132701ee5","system_id":"levelo_inurba_marseille","lat":43.32365,"lon":5.38884,"is_reserved":false,"is_disabled":false,"rental_uris":{"android":"levelo://app?vid=b0c7ca86-ee56-4d5b-8ef5-0c1132701ee5","ios":"levelo://app?vid=b0c7ca86-ee56-4d5b-8ef5-0c1132701ee5"},"vehicle_type_id":"4","last_reported":1691096734,"current_range_meters":30000,"station_id":"ce4bhqp2rcd13ifvqhog","pricing_plan_id":"free"},{"bike_id":"07531f33-29bc-4432-9204-831fa945154d","system_id":"levelo_inurba_marseille","lat":43.32365,"lon":5.38884,"is_reserved":false,"is_disabled":false,"rental_uris":{"android":"levelo://app?vid=07531f33-29bc-4432-9204-831fa945154d","ios":"levelo://app?vid=07531f33-29bc-4432-9204-831fa945154d"},"vehicle_type_id":"4","last_reported":1691096734,"current_range_meters":30400,"station_id":"ce4bhqp2rcd13ifvqhog","pricing_plan_id":"free"},{"bike_id":"83e40035-5ae5-4bb2-89ae-adf2ef147026","system_id":"levelo_inurba_marseille","lat":43.323676,"lon":5.388816,"is_reserved":false,"is_disabled":false,"rental_uris":{"android":"levelo://app?vid=83e40035-5ae5-4bb2-89ae-adf2ef147026","ios":"levelo://app?vid=83e40035-5ae5-4bb2-89ae-adf2ef147026"},"vehicle_type_id":"4","last_reported":1691096734,"current_range_meters":14000,"station_id":"","pricing_plan_id":"free"},{"bike_id":"0096218a-32f1-4ad1-a7f6-a83210e4e020","system_id":"levelo_inurba_marseille","lat":43.32367,"lon":5.388836,"is_reserved":false,"is_disabled":false,"rental_uris":{"android":"levelo://app?vid=0096218a-32f1-4ad1-a7f6-a83210e4e020","ios":"levelo://app?vid=0096218a-32f1-4ad1-a7f6-a83210e4e020"},"vehicle_type_id":"4","last_reported":1691096734,"current_range_meters":31200,"station_id":"ce4bhqp2rcd13ifvqhog","pricing_plan_id":"free"},{"bike_id":"3d2edb57-516f-41bc-985e-42a721904578","system_id":"levelo_inurba_marseille","lat":43.32366,"lon":5.38888,"is_reserved":false,"is_disabled":false,"rental_uris":{"android":"levelo://app?vid=3d2edb57-516f-41bc-985e-42a721904578","ios":"levelo://app?vid=3d2edb57-516f-41bc-985e-42a721904578"},"vehicle_type_id":"4","last_reported":1691096734,"current_range_meters":29200,"station_id":"ce4bhqp2rcd13ifvqhog","pricing_plan_id":"free"},{"bike_id":"6be534a9-96c6-4989-b3bb-e9dea76376c4","system_id":"levelo_inurba_marseille","lat":43.32367,"lon":5.388836,"is_reserved":false,"is_disabled":false,"rental_uris":{"android":"levelo://app?vid=6be534a9-96c6-4989-b3bb-e9dea76376c4","ios":"levelo://app?vid=6be534a9-96c6-4989-b3bb-e9dea76376c4"},"vehicle_type_id":"4","last_reported":1691096734,"current_range_meters":14800,"station_id":"ce4bhqp2rcd13ifvqhog","pricing_plan_id":"free"},{"bike_id":"660de016-7b00-4735-9d75-3ae99d5de62d","system_id":"levelo_inurba_marseille","lat":43.32364,"lon":5.38891,"is_reserved":false,"is_disabled":false,"rental_uris":{"android":"levelo://app?vid=660de016-7b00-4735-9d75-3ae99d5de62d","ios":"levelo://app?vid=660de016-7b00-4735-9d75-3ae99d5de62d"},"vehicle_type_id":"4","last_reported":1691096734,"current_range_meters":30000,"station_id":"ce4bhqp2rcd13ifvqhog","pricing_plan_id":"free"},{"bike_id":"ea8035d1-28fe-43e1-9f00-12a102f9e97f","system_id":"levelo_inurba_marseille","lat":43.32367,"lon":5.388836,"is_reserved":false,"is_disabled":false,"rental_uris":{"android":"levelo://app?vid=ea8035d1-28fe-43e1-9f00-12a102f9e97f","ios":"levelo://app?vid=ea8035d1-28fe-43e1-9f00-12a102f9e97f"},"vehicle_type_id":"4","last_reported":1691096734,"current_range_meters":27200,"station_id":"ce4bhqp2rcd13ifvqhog","pricing_plan_id":"free"},{"bike_id":"8726dd29-053e-4f78-9c47-2df4e02b2b6b","system_id":"levelo_inurba_marseille","lat":43.29607,"lon":5.38102,"is_reserved":false,"is_disabled":false,"rental_uris":{"android":"levelo://app?vid=8726dd29-053e-4f78-9c47-2df4e02b2b6b","ios":"levelo://app?vid=8726dd29-053e-4f78-9c47-2df4e02b2b6b"},"vehicle_type_id":"4","last_reported":1691096734,"current_range_meters":22400,"station_id":"ce4bgl12rcd13ifvqbo0","pricing_plan_id":"free"},{"bike_id":"e646e225-31c7-48db-a6df-531e4bda14e7","system_id":"levelo_inurba_marseille","lat":43.29602,"lon":5.381084,"is_reserved":false,"is_disabled":false,"rental_uris":{"android":"levelo://app?vid=e646e225-31c7-48db-a6df-531e4bda14e7","ios":"levelo://app?vid=e646e225-31c7-48db-a6df-531e4bda14e7"},"vehicle_type_id":"4","last_reported":1691096734,"current_range_meters":0,"station_id":"ce4bgl12rcd13ifvqbo0","pricing_plan_id":"free"},{"bike_id":"863ff27f-86c8-4f5c-9873-be8175fb09c8","system_id":"levelo_inurba_marseille","lat":43.29844,"lon":5.38541,"is_reserved":false,"is_disabled":false,"rental_uris":{"android":"levelo://app?vid=863ff27f-86c8-4f5c-9873-be8175fb09c8","ios":"levelo://app?vid=863ff27f-86c8-4f5c-9873-be8175fb09c8"},"vehicle_type_id":"4","last_reported":1691096734,"current_range_meters":8400,"station_id":"","pricing_plan_id":"free"},{"bike_id":"865d94af-a8d5-4bc8-aacc-66a0c1a6cc38","system_id":"levelo_inurba_marseille","lat":43.305994,"lon":5.393687,"is_reserved":false,"is_disabled":false,"rental_uris":{"android":"levelo://app?vid=865d94af-a8d5-4bc8-aacc-66a0c1a6cc38","ios":"levelo://app?vid=865d94af-a8d5-4bc8-aacc-66a0c1a6cc38"},"vehicle_type_id":"4","last_reported":1691096734,"current_range_meters":21200,"station_id":"ce4bh0p2rcd13ifvqd80","pricing_plan_id":"free"},{"bike_id":"18bfeed2-d689-49be-a3d6-7e7708ec2b59","system_id":"levelo_inurba_marseille","lat":43.305994,"lon":5.393687,"is_reserved":false,"is_disabled":false,"rental_uris":{"android":"levelo://app?vid=18bfeed2-d689-49be-a3d6-7e7708ec2b59","ios":"levelo://app?vid=18bfeed2-d689-49be-a3d6-7e7708ec2b59"},"vehicle_type_id":"4","last_reported":1691096734,"current_range_meters":30000,"station_id":"ce4bh0p2rcd13ifvqd80","pricing_plan_id":"free"},{"bike_id":"791e1b7e-1449-4643-9120-3259b29c1b30","system_id":"levelo_inurba_marseille","lat":43.2936,"lon":5.37835,"is_reserved":false,"is_disabled":false,"rental_uris":{"android":"levelo://app?vid=791e1b7e-1449-4643-9120-3259b29c1b30","ios":"levelo://app?vid=791e1b7e-1449-4643-9120-3259b29c1b30"},"vehicle_type_id":"4","last_reported":1691096734,"current_range_meters":11600,"station_id":"ce4bgjh2rcd13ifvqbf0","pricing_plan_id":"free"},{"bike_id":"e636b527-edcb-482f-b5da-9da1f5b957f7","system_id":"levelo_inurba_marseille","lat":43.2936,"lon":5.37835,"is_reserved":false,"is_disabled":false,"rental_uris":{"android":"levelo://app?vid=e636b527-edcb-482f-b5da-9da1f5b957f7","ios":"levelo://app?vid=e636b527-edcb-482f-b5da-9da1f5b957f7"},"vehicle_type_id":"4","last_reported":1691096734,"current_range_meters":0,"station_id":"ce4bgjh2rcd13ifvqbf0","pricing_plan_id":"free"},{"bike_id":"495f6546-1158-4f19-a278-7c372023827b","system_id":"levelo_inurba_marseille","lat":43.300852,"lon":5.390859,"is_reserved":false,"is_disabled":false,"rental_uris":{"android":"levelo://app?vid=495f6546-1158-4f19-a278-7c372023827b","ios":"levelo://app?vid=495f6546-1158-4f19-a278-7c372023827b"},"vehicle_type_id":"4","last_reported":1691096734,"current_range_meters":10400,"station_id":"ce4bh192rcd13ifvqdb0","pricing_plan_id":"free"},{"bike_id":"adf73a7c-9663-46b2-9cb4-6d2b0799a470","system_id":"levelo_inurba_marseille","lat":43.30085,"lon":5.390856,"is_reserved":false,"is_disabled":false,"rental_uris":{"android":"levelo://app?vid=adf73a7c-9663-46b2-9cb4-6d2b0799a470","ios":"levelo://app?vid=adf73a7c-9663-46b2-9cb4-6d2b0799a470"},"vehicle_type_id":"4","last_reported":1691096734,"current_range_meters":12800,"station_id":"ce4bh192rcd13ifvqdb0","pricing_plan_id":"free"},{"bike_id":"7bdfd421-c477-4f4b-9f13-917a6527cf43","system_id":"levelo_inurba_marseille","lat":43.300852,"lon":5.390859,"is_reserved":false,"is_disabled":false,"rental_uris":{"android":"levelo://app?vid=7bdfd421-c477-4f4b-9f13-917a6527cf43","ios":"levelo://app?vid=7bdfd421-c477-4f4b-9f13-917a6527cf43"},"vehicle_type_id":"4","last_reported":1691096734,"current_range_meters":8800,"station_id":"ce4bh192rcd13ifvqdb0","pricing_plan_id":"free"},{"bike_id":"32fda799-4d18-481b-adab-af168b3bf6a3","system_id":"levelo_inurba_marseille","lat":43.29882,"lon":5.38908,"is_reserved":false,"is_disabled":false,"rental_uris":{"android":"levelo://app?vid=32fda799-4d18-481b-adab-af168b3bf6a3","ios":"levelo://app?vid=32fda799-4d18-481b-adab-af168b3bf6a3"},"vehicle_type_id":"4","last_reported":1691096734,"current_range_meters":0,"station_id":"ce4bh392rcd13ifvqdl0","pricing_plan_id":"free"},{"bike_id":"e837ccf2-5f5b-4c96-9a29-379741018371","system_id":"levelo_inurba_marseille","lat":43.291675,"lon":5.371583,"is_reserved":false,"is_disabled":false,"rental_uris":{"android":"levelo://app?vid=e837ccf2-5f5b-4c96-9a29-379741018371","ios":"levelo://app?vid=e837ccf2-5f5b-4c96-9a29-379741018371"},"vehicle_type_id":"4","last_reported":1691096734,"current_range_meters":26000,"station_id":"ce4bha92rcd13ifvqeh0","pricing_plan_id":"free"},{"bike_id":"400b4f97-f048-4fd4-a452-a36ffa17b9eb","system_id":"levelo_inurba_marseille","lat":43.30894,"lon":5.39619,"is_reserved":false,"is_disabled":false,"rental_uris":{"android":"levelo://app?vid=400b4f97-f048-4fd4-a452-a36ffa17b9eb","ios":"levelo://app?vid=400b4f97-f048-4fd4-a452-a36ffa17b9eb"},"vehicle_type_id":"4","last_reported":1691096734,"current_range_meters":1600,"station_id":"ce4bh012rcd13ifvqcv0","pricing_plan_id":"free"},{"bike_id":"6892b0b6-a11f-494e-89c9-02e8f6fb3c65","system_id":"levelo_inurba_marseille","lat":43.31329,"lon":5.39691,"is_reserved":false,"is_disabled":false,"rental_uris":{"android":"levelo://app?vid=6892b0b6-a11f-494e-89c9-02e8f6fb3c65","ios":"levelo://app?vid=6892b0b6-a11f-494e-89c9-02e8f6fb3c65"},"vehicle_type_id":"4","last_reported":1691096734,"current_range_meters":15200,"station_id":"ce4bgvp2rcd13ifvqcu0","pricing_plan_id":"free"},{"bike_id":"4a7ec550-5e53-4bba-8b15-c2745ab92b83","system_id":"levelo_inurba_marseille","lat":43.31328,"lon":5.39692,"is_reserved":false,"is_disabled":false,"rental_uris":{"android":"levelo://app?vid=4a7ec550-5e53-4bba-8b15-c2745ab92b83","ios":"levelo://app?vid=4a7ec550-5e53-4bba-8b15-c2745ab92b83"},"vehicle_type_id":"4","last_reported":1691096734,"current_range_meters":6400,"station_id":"ce4bgvp2rcd13ifvqcu0","pricing_plan_id":"free"},{"bike_id":"79109456-6153-4364-99c0-03b94a5a0196","system_id":"levelo_inurba_marseille","lat":43.30882,"lon":5.39648,"is_reserved":false,"is_disabled":false,"rental_uris":{"android":"levelo://app?vid=79109456-6153-4364-99c0-03b94a5a0196","ios":"levelo://app?vid=79109456-6153-4364-99c0-03b94a5a0196"},"vehicle_type_id":"4","last_reported":1691096734,"current_range_meters":2400,"station_id":"ce4bh012rcd13ifvqcv0","pricing_plan_id":"free"},{"bike_id":"c192acaa-0fb8-43a8-b6ff-c5a39515f26a","system_id":"levelo_inurba_marseille","lat":43.30884,"lon":5.39655,"is_reserved":false,"is_disabled":false,"rental_uris":{"android":"levelo://app?vid=c192acaa-0fb8-43a8-b6ff-c5a39515f26a","ios":"levelo://app?vid=c192acaa-0fb8-43a8-b6ff-c5a39515f26a"},"vehicle_type_id":"4","last_reported":1691096734,"current_range_meters":27200,"station_id":"ce4bh012rcd13ifvqcv0","pricing_plan_id":"free"},{"bike_id":"c6d51ee1-15e1-46de-8313-32d3220fe0bb","system_id":"levelo_inurba_marseille","lat":43.31324,"lon":5.39703,"is_reserved":false,"is_disabled":false,"rental_uris":{"android":"levelo://app?vid=c6d51ee1-15e1-46de-8313-32d3220fe0bb","ios":"levelo://app?vid=c6d51ee1-15e1-46de-8313-32d3220fe0bb"},"vehicle_type_id":"4","last_reported":1691096734,"current_range_meters":14000,"station_id":"ce4bgvp2rcd13ifvqcu0","pricing_plan_id":"free"},{"bike_id":"afbf3bf9-fbc3-4906-9e21-e5ab49839864","system_id":"levelo_inurba_marseille","lat":43.308912,"lon":5.396602,"is_reserved":false,"is_disabled":false,"rental_uris":{"android":"levelo://app?vid=afbf3bf9-fbc3-4906-9e21-e5ab49839864","ios":"levelo://app?vid=afbf3bf9-fbc3-4906-9e21-e5ab49839864"},"vehicle_type_id":"4","last_reported":1691096734,"current_range_meters":0,"station_id":"","pricing_plan_id":"free"},{"bike_id":"06d10a03-29d8-4d49-90fa-3a1469df04d5","system_id":"levelo_inurba_marseille","lat":43.3089,"lon":5.39661,"is_reserved":false,"is_disabled":false,"rental_uris":{"android":"levelo://app?vid=06d10a03-29d8-4d49-90fa-3a1469df04d5","ios":"levelo://app?vid=06d10a03-29d8-4d49-90fa-3a1469df04d5"},"vehicle_type_id":"4","last_reported":1691096734,"current_range_meters":23600,"station_id":"ce4bh012rcd13ifvqcv0","pricing_plan_id":"free"},{"bike_id":"980205b1-fee9-47c9-b877-9eaf9f378842","system_id":"levelo_inurba_marseille","lat":43.3089,"lon":5.39664,"is_reserved":false,"is_disabled":false,"rental_uris":{"android":"levelo://app?vid=980205b1-fee9-47c9-b877-9eaf9f378842","ios":"levelo://app?vid=980205b1-fee9-47c9-b877-9eaf9f378842"},"vehicle_type_id":"4","last_reported":1691096734,"current_range_meters":3200,"station_id":"ce4bh012rcd13ifvqcv0","pricing_plan_id":"free"},{"bike_id":"02ac20eb-a4fe-47d8-a4b9-2bf13574753a","system_id":"levelo_inurba_marseille","lat":43.29532,"lon":5.38546,"is_reserved":false,"is_disabled":false,"rental_uris":{"android":"levelo://app?vid=02ac20eb-a4fe-47d8-a4b9-2bf13574753a","ios":"levelo://app?vid=02ac20eb-a4fe-47d8-a4b9-2bf13574753a"},"vehicle_type_id":"4","last_reported":1691096734,"current_range_meters":29200,"station_id":"ce4bgih2rcd13ifvqba0","pricing_plan_id":"free"},{"bike_id":"d3208826-00c8-45f1-a98f-c04197a20686","system_id":"levelo_inurba_marseille","lat":43.302008,"lon":5.394694,"is_reserved":false,"is_disabled":false,"rental_uris":{"android":"levelo://app?vid=d3208826-00c8-45f1-a98f-c04197a20686","ios":"levelo://app?vid=d3208826-00c8-45f1-a98f-c04197a20686"},"vehicle_type_id":"4","last_reported":1691096734,"current_range_meters":17200,"station_id":"ce4bh0p2rcd13ifvqd70","pricing_plan_id":"free"},{"bike_id":"6d4f6d7d-6f99-429b-852e-9374b39a7275","system_id":"levelo_inurba_marseille","lat":43.302008,"lon":5.394694,"is_reserved":false,"is_disabled":false,"rental_uris":{"android":"levelo://app?vid=6d4f6d7d-6f99-429b-852e-9374b39a7275","ios":"levelo://app?vid=6d4f6d7d-6f99-429b-852e-9374b39a7275"},"vehicle_type_id":"4","last_reported":1691096734,"current_range_meters":26800,"station_id":"ce4bh0p2rcd13ifvqd70","pricing_plan_id":"free"},{"bike_id":"23c1024a-4a9e-4b49-b892-8bcd10392f08","system_id":"levelo_inurba_marseille","lat":43.290631,"lon":5.359244,"is_reserved":false,"is_disabled":false,"rental_uris":{"android":"levelo://app?vid=23c1024a-4a9e-4b49-b892-8bcd10392f08","ios":"levelo://app?vid=23c1024a-4a9e-4b49-b892-8bcd10392f08"},"vehicle_type_id":"4","last_reported":1691096734,"current_range_meters":30400,"station_id":"ce4bha92rcd13ifvqeg0","pricing_plan_id":"free"},{"bike_id":"8662809b-c63b-434a-844d-de954153963b","system_id":"levelo_inurba_marseille","lat":43.290327,"lon":5.375711,"is_reserved":false,"is_disabled":false,"rental_uris":{"android":"levelo://app?vid=8662809b-c63b-434a-844d-de954153963b","ios":"levelo://app?vid=8662809b-c63b-434a-844d-de954153963b"},"vehicle_type_id":"4","last_reported":1691096734,"current_range_meters":29200,"station_id":"ce4bh692rcd13ifvqe90","pricing_plan_id":"free"},{"bike_id":"73be5fff-ef58-4dd7-9c96-0fac6cf85922","system_id":"levelo_inurba_marseille","lat":43.292642,"lon":5.384254,"is_reserved":false,"is_disabled":false,"rental_uris":{"android":"levelo://app?vid=73be5fff-ef58-4dd7-9c96-0fac6cf85922","ios":"levelo://app?vid=73be5fff-ef58-4dd7-9c96-0fac6cf85922"},"vehicle_type_id":"4","last_reported":1691096734,"current_range_meters":14000,"station_id":"ce4bh692rcd13ifvqea0","pricing_plan_id":"free"},{"bike_id":"cbc49bcd-6805-4ff2-ab06-975a6ae0d294","system_id":"levelo_inurba_marseille","lat":43.292642,"lon":5.384254,"is_reserved":false,"is_disabled":false,"rental_uris":{"android":"levelo://app?vid=cbc49bcd-6805-4ff2-ab06-975a6ae0d294","ios":"levelo://app?vid=cbc49bcd-6805-4ff2-ab06-975a6ae0d294"},"vehicle_type_id":"4","last_reported":1691096734,"current_range_meters":9600,"station_id":"ce4bh692rcd13ifvqea0","pricing_plan_id":"free"},{"bike_id":"da98b74b-cdd1-43d0-8d20-b09237948c3d","system_id":"levelo_inurba_marseille","lat":43.292644,"lon":5.384257,"is_reserved":false,"is_disabled":false,"rental_uris":{"android":"levelo://app?vid=da98b74b-cdd1-43d0-8d20-b09237948c3d","ios":"levelo://app?vid=da98b74b-cdd1-43d0-8d20-b09237948c3d"},"vehicle_type_id":"4","last_reported":1691096734,"current_range_meters":21600,"station_id":"ce4bh692rcd13ifvqea0","pricing_plan_id":"free"},{"bike_id":"b089f71a-3086-4aff-b71c-26cdd2bb93dd","system_id":"levelo_inurba_marseille","lat":43.304296,"lon":5.397513,"is_reserved":false,"is_disabled":false,"rental_uris":{"android":"levelo://app?vid=b089f71a-3086-4aff-b71c-26cdd2bb93dd","ios":"levelo://app?vid=b089f71a-3086-4aff-b71c-26cdd2bb93dd"},"vehicle_type_id":"4","last_reported":1691096734,"current_range_meters":26000,"station_id":"ce4bh092rcd13ifvqd20","pricing_plan_id":"free"},{"bike_id":"88a191cf-c911-4248-b3d8-5c16b3ce0771","system_id":"levelo_inurba_marseille","lat":43.292644,"lon":5.384257,"is_reserved":false,"is_disabled":false,"rental_uris":{"android":"levelo://app?vid=88a191cf-c911-4248-b3d8-5c16b3ce0771","ios":"levelo://app?vid=88a191cf-c911-4248-b3d8-5c16b3ce0771"},"vehicle_type_id":"4","last_reported":1691096734,"current_range_meters":10400,"station_id":"ce4bh692rcd13ifvqea0","pricing_plan_id":"free"},{"bike_id":"f4bc8a00-6af3-4c4e-ae51-c50872ebd14f","system_id":"levelo_inurba_marseille","lat":43.292644,"lon":5.384257,"is_reserved":false,"is_disabled":false,"rental_uris":{"android":"levelo://app?vid=f4bc8a00-6af3-4c4e-ae51-c50872ebd14f","ios":"levelo://app?vid=f4bc8a00-6af3-4c4e-ae51-c50872ebd14f"},"vehicle_type_id":"4","last_reported":1691096734,"current_range_meters":31200,"station_id":"ce4bh692rcd13ifvqea0","pricing_plan_id":"free"},{"bike_id":"278809b7-9b3b-4c32-b952-4818250200e6","system_id":"levelo_inurba_marseille","lat":43.292642,"lon":5.384254,"is_reserved":false,"is_disabled":false,"rental_uris":{"android":"levelo://app?vid=278809b7-9b3b-4c32-b952-4818250200e6","ios":"levelo://app?vid=278809b7-9b3b-4c32-b952-4818250200e6"},"vehicle_type_id":"4","last_reported":1691096734,"current_range_meters":27200,"station_id":"ce4bh692rcd13ifvqea0","pricing_plan_id":"free"},{"bike_id":"4bee3a3b-33ff-412d-af3c-38e4d959688a","system_id":"levelo_inurba_marseille","lat":43.292642,"lon":5.384254,"is_reserved":false,"is_disabled":false,"rental_uris":{"android":"levelo://app?vid=4bee3a3b-33ff-412d-af3c-38e4d959688a","ios":"levelo://app?vid=4bee3a3b-33ff-412d-af3c-38e4d959688a"},"vehicle_type_id":"4","last_reported":1691096734,"current_range_meters":20000,"station_id":"ce4bh692rcd13ifvqea0","pricing_plan_id":"free"},{"bike_id":"ae4b9ec7-ef3b-4ea7-8e13-3c20b90dc675","system_id":"levelo_inurba_marseille","lat":43.292644,"lon":5.384257,"is_reserved":false,"is_disabled":false,"rental_uris":{"android":"levelo://app?vid=ae4b9ec7-ef3b-4ea7-8e13-3c20b90dc675","ios":"levelo://app?vid=ae4b9ec7-ef3b-4ea7-8e13-3c20b90dc675"},"vehicle_type_id":"4","last_reported":1691096734,"current_range_meters":18400,"station_id":"ce4bh692rcd13ifvqea0","pricing_plan_id":"free"},{"bike_id":"b564c512-c9e4-43e5-94e7-8580413234c1","system_id":"levelo_inurba_marseille","lat":43.292641,"lon":5.384479,"is_reserved":false,"is_disabled":false,"rental_uris":{"android":"levelo://app?vid=b564c512-c9e4-43e5-94e7-8580413234c1","ios":"levelo://app?vid=b564c512-c9e4-43e5-94e7-8580413234c1"},"vehicle_type_id":"4","last_reported":1691096734,"current_range_meters":31200,"station_id":"ce4bh692rcd13ifvqea0","pricing_plan_id":"free"},{"bike_id":"69414931-ec81-4a05-93b2-6f636d39f154","system_id":"levelo_inurba_marseille","lat":43.292644,"lon":5.384257,"is_reserved":false,"is_disabled":false,"rental_uris":{"android":"levelo://app?vid=69414931-ec81-4a05-93b2-6f636d39f154","ios":"levelo://app?vid=69414931-ec81-4a05-93b2-6f636d39f154"},"vehicle_type_id":"4","last_reported":1691096734,"current_range_meters":31200,"station_id":"ce4bh692rcd13ifvqea0","pricing_plan_id":"free"},{"bike_id":"727e7c04-7079-4a39-8b76-6fa2ee2e028e","system_id":"levelo_inurba_marseille","lat":43.292642,"lon":5.384254,"is_reserved":false,"is_disabled":false,"rental_uris":{"android":"levelo://app?vid=727e7c04-7079-4a39-8b76-6fa2ee2e028e","ios":"levelo://app?vid=727e7c04-7079-4a39-8b76-6fa2ee2e028e"},"vehicle_type_id":"4","last_reported":1691096734,"current_range_meters":30800,"station_id":"ce4bh692rcd13ifvqea0","pricing_plan_id":"free"},{"bike_id":"16d1d761-d43a-441e-ac6d-37909787bbdd","system_id":"levelo_inurba_marseille","lat":43.292644,"lon":5.384257,"is_reserved":false,"is_disabled":false,"rental_uris":{"android":"levelo://app?vid=16d1d761-d43a-441e-ac6d-37909787bbdd","ios":"levelo://app?vid=16d1d761-d43a-441e-ac6d-37909787bbdd"},"vehicle_type_id":"4","last_reported":1691096734,"current_range_meters":27200,"station_id":"ce4bh692rcd13ifvqea0","pricing_plan_id":"free"},{"bike_id":"374a2f11-748b-4402-a5b6-4f63bc984c9b","system_id":"levelo_inurba_marseille","lat":43.292644,"lon":5.384257,"is_reserved":false,"is_disabled":false,"rental_uris":{"android":"levelo://app?vid=374a2f11-748b-4402-a5b6-4f63bc984c9b","ios":"levelo://app?vid=374a2f11-748b-4402-a5b6-4f63bc984c9b"},"vehicle_type_id":"4","last_reported":1691096734,"current_range_meters":23600,"station_id":"ce4bh692rcd13ifvqea0","pricing_plan_id":"free"},{"bike_id":"3533d38f-a3e5-4a35-9c5d-06ae3dbaa5d7","system_id":"levelo_inurba_marseille","lat":43.292644,"lon":5.384257,"is_reserved":false,"is_disabled":false,"rental_uris":{"android":"levelo://app?vid=3533d38f-a3e5-4a35-9c5d-06ae3dbaa5d7","ios":"levelo://app?vid=3533d38f-a3e5-4a35-9c5d-06ae3dbaa5d7"},"vehicle_type_id":"4","last_reported":1691096734,"current_range_meters":31200,"station_id":"ce4bh692rcd13ifvqea0","pricing_plan_id":"free"},{"bike_id":"00b2dcdc-2882-40a1-9132-89c3ec15cf18","system_id":"levelo_inurba_marseille","lat":43.33039,"lon":5.38916,"is_reserved":false,"is_disabled":false,"rental_uris":{"android":"levelo://app?vid=00b2dcdc-2882-40a1-9132-89c3ec15cf18","ios":"levelo://app?vid=00b2dcdc-2882-40a1-9132-89c3ec15cf18"},"vehicle_type_id":"4","last_reported":1691096734,"current_range_meters":22400,"station_id":"ce4bhr92rcd13ifvqhrg","pricing_plan_id":"free"},{"bike_id":"f67edc25-bcc7-41fb-8431-1add679b0933","system_id":"levelo_inurba_marseille","lat":43.33042,"lon":5.38915,"is_reserved":false,"is_disabled":false,"rental_uris":{"android":"levelo://app?vid=f67edc25-bcc7-41fb-8431-1add679b0933","ios":"levelo://app?vid=f67edc25-bcc7-41fb-8431-1add679b0933"},"vehicle_type_id":"4","last_reported":1691096734,"current_range_meters":23600,"station_id":"ce4bhr92rcd13ifvqhrg","pricing_plan_id":"free"},{"bike_id":"976f718a-bfdb-4480-a757-e5b9a5d1a5d6","system_id":"levelo_inurba_marseille","lat":43.33045,"lon":5.38912,"is_reserved":false,"is_disabled":false,"rental_uris":{"android":"levelo://app?vid=976f718a-bfdb-4480-a757-e5b9a5d1a5d6","ios":"levelo://app?vid=976f718a-bfdb-4480-a757-e5b9a5d1a5d6"},"vehicle_type_id":"4","last_reported":1691096734,"current_range_meters":16400,"station_id":"ce4bhr92rcd13ifvqhrg","pricing_plan_id":"free"},{"bike_id":"2f2d42a2-8de0-405f-9429-d3eae654394c","system_id":"levelo_inurba_marseille","lat":43.33047,"lon":5.3891,"is_reserved":false,"is_disabled":false,"rental_uris":{"android":"levelo://app?vid=2f2d42a2-8de0-405f-9429-d3eae654394c","ios":"levelo://app?vid=2f2d42a2-8de0-405f-9429-d3eae654394c"},"vehicle_type_id":"4","last_reported":1691096734,"current_range_meters":24800,"station_id":"ce4bhr92rcd13ifvqhrg","pricing_plan_id":"free"},{"bike_id":"20cf3f6d-acf4-4653-bf24-baa04253f77a","system_id":"levelo_inurba_marseille","lat":43.33043,"lon":5.38918,"is_reserved":false,"is_disabled":false,"rental_uris":{"android":"levelo://app?vid=20cf3f6d-acf4-4653-bf24-baa04253f77a","ios":"levelo://app?vid=20cf3f6d-acf4-4653-bf24-baa04253f77a"},"vehicle_type_id":"4","last_reported":1691096734,"current_range_meters":22400,"station_id":"ce4bhr92rcd13ifvqhrg","pricing_plan_id":"free"},{"bike_id":"16bb14ed-7d88-467c-ab3f-857c5a303700","system_id":"levelo_inurba_marseille","lat":43.33053,"lon":5.389206,"is_reserved":false,"is_disabled":false,"rental_uris":{"android":"levelo://app?vid=16bb14ed-7d88-467c-ab3f-857c5a303700","ios":"levelo://app?vid=16bb14ed-7d88-467c-ab3f-857c5a303700"},"vehicle_type_id":"4","last_reported":1691096734,"current_range_meters":6000,"station_id":"ce4bhr92rcd13ifvqhrg","pricing_plan_id":"free"},{"bike_id":"05bf2cc0-c80b-4d3b-9303-5cea93148e89","system_id":"levelo_inurba_marseille","lat":43.29099,"lon":5.38132,"is_reserved":false,"is_disabled":false,"rental_uris":{"android":"levelo://app?vid=05bf2cc0-c80b-4d3b-9303-5cea93148e89","ios":"levelo://app?vid=05bf2cc0-c80b-4d3b-9303-5cea93148e89"},"vehicle_type_id":"4","last_reported":1691096734,"current_range_meters":31200,"station_id":"ce4bh512rcd13ifvqe2g","pricing_plan_id":"free"},{"bike_id":"b4d7f601-832a-460a-9f00-b78576a05795","system_id":"levelo_inurba_marseille","lat":43.290995,"lon":5.381361,"is_reserved":false,"is_disabled":false,"rental_uris":{"android":"levelo://app?vid=b4d7f601-832a-460a-9f00-b78576a05795","ios":"levelo://app?vid=b4d7f601-832a-460a-9f00-b78576a05795"},"vehicle_type_id":"4","last_reported":1691096734,"current_range_meters":12000,"station_id":"ce4bh512rcd13ifvqe2g","pricing_plan_id":"free"},{"bike_id":"59e25e42-197b-4bf0-98e5-6ba627c6ac13","system_id":"levelo_inurba_marseille","lat":43.297815,"lon":5.393548,"is_reserved":false,"is_disabled":false,"rental_uris":{"android":"levelo://app?vid=59e25e42-197b-4bf0-98e5-6ba627c6ac13","ios":"levelo://app?vid=59e25e42-197b-4bf0-98e5-6ba627c6ac13"},"vehicle_type_id":"4","last_reported":1691096734,"current_range_meters":7600,"station_id":"chh1huq6cuj3fo74tm60","pricing_plan_id":"free"},{"bike_id":"f1bf9832-1816-4af4-a5a1-e603cfceeed9","system_id":"levelo_inurba_marseille","lat":43.297815,"lon":5.393548,"is_reserved":false,"is_disabled":false,"rental_uris":{"android":"levelo://app?vid=f1bf9832-1816-4af4-a5a1-e603cfceeed9","ios":"levelo://app?vid=f1bf9832-1816-4af4-a5a1-e603cfceeed9"},"vehicle_type_id":"4","last_reported":1691096734,"current_range_meters":22400,"station_id":"chh1huq6cuj3fo74tm60","pricing_plan_id":"free"},{"bike_id":"7321b7b4-733b-4c6d-a14a-c2082eabca9f","system_id":"levelo_inurba_marseille","lat":43.289741,"lon":5.378306,"is_reserved":false,"is_disabled":false,"rental_uris":{"android":"levelo://app?vid=7321b7b4-733b-4c6d-a14a-c2082eabca9f","ios":"levelo://app?vid=7321b7b4-733b-4c6d-a14a-c2082eabca9f"},"vehicle_type_id":"4","last_reported":1691096734,"current_range_meters":6400,"station_id":"ce4bh9p2rcd13ifvqed0","pricing_plan_id":"free"},{"bike_id":"4a7fc4d7-54a3-4474-be2d-818eeab1eea6","system_id":"levelo_inurba_marseille","lat":43.28977,"lon":5.37846,"is_reserved":false,"is_disabled":false,"rental_uris":{"android":"levelo://app?vid=4a7fc4d7-54a3-4474-be2d-818eeab1eea6","ios":"levelo://app?vid=4a7fc4d7-54a3-4474-be2d-818eeab1eea6"},"vehicle_type_id":"4","last_reported":1691096734,"current_range_meters":31200,"station_id":"ce4bh9p2rcd13ifvqed0","pricing_plan_id":"free"},{"bike_id":"294e6eb2-ee64-435d-81b0-540efc55ab4a","system_id":"levelo_inurba_marseille","lat":43.29032,"lon":5.38142,"is_reserved":false,"is_disabled":false,"rental_uris":{"android":"levelo://app?vid=294e6eb2-ee64-435d-81b0-540efc55ab4a","ios":"levelo://app?vid=294e6eb2-ee64-435d-81b0-540efc55ab4a"},"vehicle_type_id":"4","last_reported":1691096734,"current_range_meters":5200,"station_id":"ce4bh4p2rcd13ifvqe1g","pricing_plan_id":"free"},{"bike_id":"0f284c9a-b71c-4112-b68a-45d60b77c87a","system_id":"levelo_inurba_marseille","lat":43.309371,"lon":5.401449,"is_reserved":false,"is_disabled":false,"rental_uris":{"android":"levelo://app?vid=0f284c9a-b71c-4112-b68a-45d60b77c87a","ios":"levelo://app?vid=0f284c9a-b71c-4112-b68a-45d60b77c87a"},"vehicle_type_id":"4","last_reported":1691096734,"current_range_meters":2000,"station_id":"ce4bgvp2rcd13ifvqct0","pricing_plan_id":"free"},{"bike_id":"850fdc32-3aee-42a2-bf86-499dc7646f02","system_id":"levelo_inurba_marseille","lat":43.33756,"lon":5.37478,"is_reserved":false,"is_disabled":false,"rental_uris":{"android":"levelo://app?vid=850fdc32-3aee-42a2-bf86-499dc7646f02","ios":"levelo://app?vid=850fdc32-3aee-42a2-bf86-499dc7646f02"},"vehicle_type_id":"4","last_reported":1691096734,"current_range_meters":19200,"station_id":"","pricing_plan_id":"free"},{"bike_id":"1056c3a1-74f5-4926-be69-e4bc0d68c190","system_id":"levelo_inurba_marseille","lat":43.33759,"lon":5.37479,"is_reserved":false,"is_disabled":false,"rental_uris":{"android":"levelo://app?vid=1056c3a1-74f5-4926-be69-e4bc0d68c190","ios":"levelo://app?vid=1056c3a1-74f5-4926-be69-e4bc0d68c190"},"vehicle_type_id":"4","last_reported":1691096734,"current_range_meters":30400,"station_id":"","pricing_plan_id":"free"},{"bike_id":"1f9201be-b44c-4316-9454-40212873ae7f","system_id":"levelo_inurba_marseille","lat":43.33757,"lon":5.37494,"is_reserved":false,"is_disabled":false,"rental_uris":{"android":"levelo://app?vid=1f9201be-b44c-4316-9454-40212873ae7f","ios":"levelo://app?vid=1f9201be-b44c-4316-9454-40212873ae7f"},"vehicle_type_id":"4","last_reported":1691096734,"current_range_meters":31200,"station_id":"","pricing_plan_id":"free"},{"bike_id":"fb0f9bc1-4ef7-4281-8516-1e3a8858835a","system_id":"levelo_inurba_marseille","lat":43.33758,"lon":5.37493,"is_reserved":false,"is_disabled":false,"rental_uris":{"android":"levelo://app?vid=fb0f9bc1-4ef7-4281-8516-1e3a8858835a","ios":"levelo://app?vid=fb0f9bc1-4ef7-4281-8516-1e3a8858835a"},"vehicle_type_id":"4","last_reported":1691096734,"current_range_meters":27200,"station_id":"","pricing_plan_id":"free"},{"bike_id":"f6198eea-596f-43bd-8d44-fe02429ed013","system_id":"levelo_inurba_marseille","lat":43.33759,"lon":5.37501,"is_reserved":false,"is_disabled":false,"rental_uris":{"android":"levelo://app?vid=f6198eea-596f-43bd-8d44-fe02429ed013","ios":"levelo://app?vid=f6198eea-596f-43bd-8d44-fe02429ed013"},"vehicle_type_id":"4","last_reported":1691096734,"current_range_meters":12800,"station_id":"","pricing_plan_id":"free"},{"bike_id":"51fb9891-86c5-4d0b-8b1f-fa446de6a5a5","system_id":"levelo_inurba_marseille","lat":43.33761,"lon":5.37502,"is_reserved":false,"is_disabled":false,"rental_uris":{"android":"levelo://app?vid=51fb9891-86c5-4d0b-8b1f-fa446de6a5a5","ios":"levelo://app?vid=51fb9891-86c5-4d0b-8b1f-fa446de6a5a5"},"vehicle_type_id":"4","last_reported":1691096734,"current_range_meters":27200,"station_id":"","pricing_plan_id":"free"},{"bike_id":"d615a9ee-dc67-417e-bf7d-5ccf03126185","system_id":"levelo_inurba_marseille","lat":43.33776,"lon":5.37445,"is_reserved":false,"is_disabled":false,"rental_uris":{"android":"levelo://app?vid=d615a9ee-dc67-417e-bf7d-5ccf03126185","ios":"levelo://app?vid=d615a9ee-dc67-417e-bf7d-5ccf03126185"},"vehicle_type_id":"4","last_reported":1691096734,"current_range_meters":31200,"station_id":"","pricing_plan_id":"free"},{"bike_id":"cafa9dfd-7ac0-4a10-a37a-69442daedb4a","system_id":"levelo_inurba_marseille","lat":43.301117,"lon":5.398795,"is_reserved":false,"is_disabled":false,"rental_uris":{"android":"levelo://app?vid=cafa9dfd-7ac0-4a10-a37a-69442daedb4a","ios":"levelo://app?vid=cafa9dfd-7ac0-4a10-a37a-69442daedb4a"},"vehicle_type_id":"4","last_reported":1691096734,"current_range_meters":3200,"station_id":"ce4bh0h2rcd13ifvqd40","pricing_plan_id":"free"},{"bike_id":"b9a00f88-544c-4482-a100-6d042bc171cf","system_id":"levelo_inurba_marseille","lat":43.30132,"lon":5.39882,"is_reserved":false,"is_disabled":false,"rental_uris":{"android":"levelo://app?vid=b9a00f88-544c-4482-a100-6d042bc171cf","ios":"levelo://app?vid=b9a00f88-544c-4482-a100-6d042bc171cf"},"vehicle_type_id":"4","last_reported":1691096734,"current_range_meters":0,"station_id":"ce4bh0h2rcd13ifvqd40","pricing_plan_id":"free"},{"bike_id":"c4d8e5e8-5beb-4015-bd61-1b838c13e7f4","system_id":"levelo_inurba_marseille","lat":43.29178,"lon":5.38836,"is_reserved":false,"is_disabled":false,"rental_uris":{"android":"levelo://app?vid=c4d8e5e8-5beb-4015-bd61-1b838c13e7f4","ios":"levelo://app?vid=c4d8e5e8-5beb-4015-bd61-1b838c13e7f4"},"vehicle_type_id":"4","last_reported":1691096734,"current_range_meters":24000,"station_id":"","pricing_plan_id":"free"},{"bike_id":"75199276-b705-4ad7-b6a9-49aeaa84628a","system_id":"levelo_inurba_marseille","lat":43.286591,"lon":5.363346,"is_reserved":false,"is_disabled":false,"rental_uris":{"android":"levelo://app?vid=75199276-b705-4ad7-b6a9-49aeaa84628a","ios":"levelo://app?vid=75199276-b705-4ad7-b6a9-49aeaa84628a"},"vehicle_type_id":"4","last_reported":1691096734,"current_range_meters":31600,"station_id":"ce4bhah2rcd13ifvqej0","pricing_plan_id":"free"},{"bike_id":"e2137bde-116d-4840-a615-82b46edd5d65","system_id":"levelo_inurba_marseille","lat":43.286591,"lon":5.363346,"is_reserved":false,"is_disabled":false,"rental_uris":{"android":"levelo://app?vid=e2137bde-116d-4840-a615-82b46edd5d65","ios":"levelo://app?vid=e2137bde-116d-4840-a615-82b46edd5d65"},"vehicle_type_id":"4","last_reported":1691096734,"current_range_meters":20800,"station_id":"ce4bhah2rcd13ifvqej0","pricing_plan_id":"free"},{"bike_id":"2a240652-64f9-41c1-9897-dc1d0d55eb96","system_id":"levelo_inurba_marseille","lat":43.298681,"lon":5.397225,"is_reserved":false,"is_disabled":false,"rental_uris":{"android":"levelo://app?vid=2a240652-64f9-41c1-9897-dc1d0d55eb96","ios":"levelo://app?vid=2a240652-64f9-41c1-9897-dc1d0d55eb96"},"vehicle_type_id":"4","last_reported":1691096734,"current_range_meters":11600,"station_id":"ce4bh0h2rcd13ifvqd50","pricing_plan_id":"free"},{"bike_id":"5e49c031-c5fe-4ed3-b31f-6998eccdd588","system_id":"levelo_inurba_marseille","lat":43.298681,"lon":5.397225,"is_reserved":false,"is_disabled":false,"rental_uris":{"android":"levelo://app?vid=5e49c031-c5fe-4ed3-b31f-6998eccdd588","ios":"levelo://app?vid=5e49c031-c5fe-4ed3-b31f-6998eccdd588"},"vehicle_type_id":"4","last_reported":1691096734,"current_range_meters":6000,"station_id":"ce4bh0h2rcd13ifvqd50","pricing_plan_id":"free"},{"bike_id":"893d59a8-596a-4617-a72c-23874817ec33","system_id":"levelo_inurba_marseille","lat":43.286961,"lon":5.373785,"is_reserved":false,"is_disabled":false,"rental_uris":{"android":"levelo://app?vid=893d59a8-596a-4617-a72c-23874817ec33","ios":"levelo://app?vid=893d59a8-596a-4617-a72c-23874817ec33"},"vehicle_type_id":"4","last_reported":1691096734,"current_range_meters":30800,"station_id":"ce4bh3p2rcd13ifvqdq0","pricing_plan_id":"free"},{"bike_id":"e512daf6-ca25-4c1d-b741-f785bb3d4f90","system_id":"levelo_inurba_marseille","lat":43.286961,"lon":5.373785,"is_reserved":false,"is_disabled":false,"rental_uris":{"android":"levelo://app?vid=e512daf6-ca25-4c1d-b741-f785bb3d4f90","ios":"levelo://app?vid=e512daf6-ca25-4c1d-b741-f785bb3d4f90"},"vehicle_type_id":"4","last_reported":1691096734,"current_range_meters":28800,"station_id":"ce4bh3p2rcd13ifvqdq0","pricing_plan_id":"free"},{"bike_id":"20076c1d-cf3b-4a12-b9aa-b3c9ec4c68fa","system_id":"levelo_inurba_marseille","lat":43.286591,"lon":5.363346,"is_reserved":false,"is_disabled":false,"rental_uris":{"android":"levelo://app?vid=20076c1d-cf3b-4a12-b9aa-b3c9ec4c68fa","ios":"levelo://app?vid=20076c1d-cf3b-4a12-b9aa-b3c9ec4c68fa"},"vehicle_type_id":"4","last_reported":1691096734,"current_range_meters":16000,"station_id":"ce4bhah2rcd13ifvqej0","pricing_plan_id":"free"},{"bike_id":"cbcbd585-e4f7-4572-abb0-6ff33efc2f91","system_id":"levelo_inurba_marseille","lat":43.286961,"lon":5.373785,"is_reserved":false,"is_disabled":false,"rental_uris":{"android":"levelo://app?vid=cbcbd585-e4f7-4572-abb0-6ff33efc2f91","ios":"levelo://app?vid=cbcbd585-e4f7-4572-abb0-6ff33efc2f91"},"vehicle_type_id":"4","last_reported":1691096734,"current_range_meters":9600,"station_id":"ce4bh3p2rcd13ifvqdq0","pricing_plan_id":"free"},{"bike_id":"547c86a7-f304-4bba-b84e-b832ccd0fb0e","system_id":"levelo_inurba_marseille","lat":43.295196,"lon":5.39397,"is_reserved":false,"is_disabled":false,"rental_uris":{"android":"levelo://app?vid=547c86a7-f304-4bba-b84e-b832ccd0fb0e","ios":"levelo://app?vid=547c86a7-f304-4bba-b84e-b832ccd0fb0e"},"vehicle_type_id":"4","last_reported":1691096734,"current_range_meters":27600,"station_id":"ce4bh292rcd13ifvqdf0","pricing_plan_id":"free"},{"bike_id":"883ced4e-3720-4d37-be89-4468d7d697b6","system_id":"levelo_inurba_marseille","lat":43.286591,"lon":5.363346,"is_reserved":false,"is_disabled":false,"rental_uris":{"android":"levelo://app?vid=883ced4e-3720-4d37-be89-4468d7d697b6","ios":"levelo://app?vid=883ced4e-3720-4d37-be89-4468d7d697b6"},"vehicle_type_id":"4","last_reported":1691096734,"current_range_meters":19600,"station_id":"ce4bhah2rcd13ifvqej0","pricing_plan_id":"free"},{"bike_id":"4fc18c00-5df7-47a8-a77d-5c6bb7b53b74","system_id":"levelo_inurba_marseille","lat":43.286593,"lon":5.363346,"is_reserved":false,"is_disabled":false,"rental_uris":{"android":"levelo://app?vid=4fc18c00-5df7-47a8-a77d-5c6bb7b53b74","ios":"levelo://app?vid=4fc18c00-5df7-47a8-a77d-5c6bb7b53b74"},"vehicle_type_id":"4","last_reported":1691096734,"current_range_meters":22400,"station_id":"ce4bhah2rcd13ifvqej0","pricing_plan_id":"free"},{"bike_id":"d02e6528-1cf6-4429-a793-c9b3a2478b1d","system_id":"levelo_inurba_marseille","lat":43.295196,"lon":5.39397,"is_reserved":false,"is_disabled":false,"rental_uris":{"android":"levelo://app?vid=d02e6528-1cf6-4429-a793-c9b3a2478b1d","ios":"levelo://app?vid=d02e6528-1cf6-4429-a793-c9b3a2478b1d"},"vehicle_type_id":"4","last_reported":1691096734,"current_range_meters":8800,"station_id":"ce4bh292rcd13ifvqdf0","pricing_plan_id":"free"},{"bike_id":"d4a154b4-2ad7-470c-ba3b-9b351dd25496","system_id":"levelo_inurba_marseille","lat":43.295196,"lon":5.39397,"is_reserved":false,"is_disabled":false,"rental_uris":{"android":"levelo://app?vid=d4a154b4-2ad7-470c-ba3b-9b351dd25496","ios":"levelo://app?vid=d4a154b4-2ad7-470c-ba3b-9b351dd25496"},"vehicle_type_id":"4","last_reported":1691096734,"current_range_meters":2400,"station_id":"ce4bh292rcd13ifvqdf0","pricing_plan_id":"free"},{"bike_id":"d2fc9eb3-4a1d-488d-b03d-8e34d5428896","system_id":"levelo_inurba_marseille","lat":43.295196,"lon":5.39397,"is_reserved":false,"is_disabled":false,"rental_uris":{"android":"levelo://app?vid=d2fc9eb3-4a1d-488d-b03d-8e34d5428896","ios":"levelo://app?vid=d2fc9eb3-4a1d-488d-b03d-8e34d5428896"},"vehicle_type_id":"4","last_reported":1691096734,"current_range_meters":28800,"station_id":"ce4bh292rcd13ifvqdf0","pricing_plan_id":"free"},{"bike_id":"7e1b3fc6-18eb-4cb4-b8c6-688dd1e95388","system_id":"levelo_inurba_marseille","lat":43.286961,"lon":5.373785,"is_reserved":false,"is_disabled":false,"rental_uris":{"android":"levelo://app?vid=7e1b3fc6-18eb-4cb4-b8c6-688dd1e95388","ios":"levelo://app?vid=7e1b3fc6-18eb-4cb4-b8c6-688dd1e95388"},"vehicle_type_id":"4","last_reported":1691096734,"current_range_meters":8000,"station_id":"ce4bh3p2rcd13ifvqdq0","pricing_plan_id":"free"},{"bike_id":"64726253-c89b-4fdb-a80f-44341e363421","system_id":"levelo_inurba_marseille","lat":43.295196,"lon":5.39397,"is_reserved":false,"is_disabled":false,"rental_uris":{"android":"levelo://app?vid=64726253-c89b-4fdb-a80f-44341e363421","ios":"levelo://app?vid=64726253-c89b-4fdb-a80f-44341e363421"},"vehicle_type_id":"4","last_reported":1691096734,"current_range_meters":16800,"station_id":"ce4bh292rcd13ifvqdf0","pricing_plan_id":"free"},{"bike_id":"375033c6-1484-4608-bd6f-532f806067fc","system_id":"levelo_inurba_marseille","lat":43.295196,"lon":5.39397,"is_reserved":false,"is_disabled":false,"rental_uris":{"android":"levelo://app?vid=375033c6-1484-4608-bd6f-532f806067fc","ios":"levelo://app?vid=375033c6-1484-4608-bd6f-532f806067fc"},"vehicle_type_id":"4","last_reported":1691096734,"current_range_meters":20000,"station_id":"ce4bh292rcd13ifvqdf0","pricing_plan_id":"free"},{"bike_id":"29f44838-13b9-48aa-bdd1-d07a9fd93f13","system_id":"levelo_inurba_marseille","lat":43.302759,"lon":5.400793,"is_reserved":false,"is_disabled":false,"rental_uris":{"android":"levelo://app?vid=29f44838-13b9-48aa-bdd1-d07a9fd93f13","ios":"levelo://app?vid=29f44838-13b9-48aa-bdd1-d07a9fd93f13"},"vehicle_type_id":"4","last_reported":1691096734,"current_range_meters":8800,"station_id":"ce4bgvh2rcd13ifvqcs0","pricing_plan_id":"free"},{"bike_id":"706e6fc4-9c96-495b-b7d5-a752cc70fe9d","system_id":"levelo_inurba_marseille","lat":43.290345,"lon":5.38646,"is_reserved":false,"is_disabled":false,"rental_uris":{"android":"levelo://app?vid=706e6fc4-9c96-495b-b7d5-a752cc70fe9d","ios":"levelo://app?vid=706e6fc4-9c96-495b-b7d5-a752cc70fe9d"},"vehicle_type_id":"4","last_reported":1691096734,"current_range_meters":31200,"station_id":"ce4bh4p2rcd13ifvqe0g","pricing_plan_id":"free"},{"bike_id":"d00b381e-0070-4139-91a4-16168ddb5697","system_id":"levelo_inurba_marseille","lat":43.290345,"lon":5.38646,"is_reserved":false,"is_disabled":false,"rental_uris":{"android":"levelo://app?vid=d00b381e-0070-4139-91a4-16168ddb5697","ios":"levelo://app?vid=d00b381e-0070-4139-91a4-16168ddb5697"},"vehicle_type_id":"4","last_reported":1691096734,"current_range_meters":31200,"station_id":"ce4bh4p2rcd13ifvqe0g","pricing_plan_id":"free"},{"bike_id":"7b9e2d57-7c2f-4652-8ec0-ee4d147afe24","system_id":"levelo_inurba_marseille","lat":43.302548,"lon":5.400568,"is_reserved":false,"is_disabled":false,"rental_uris":{"android":"levelo://app?vid=7b9e2d57-7c2f-4652-8ec0-ee4d147afe24","ios":"levelo://app?vid=7b9e2d57-7c2f-4652-8ec0-ee4d147afe24"},"vehicle_type_id":"4","last_reported":1691096734,"current_range_meters":17200,"station_id":"","pricing_plan_id":"free"},{"bike_id":"0e1793df-58b4-4907-8bff-acd649e8696d","system_id":"levelo_inurba_marseille","lat":43.29023,"lon":5.38631,"is_reserved":false,"is_disabled":false,"rental_uris":{"android":"levelo://app?vid=0e1793df-58b4-4907-8bff-acd649e8696d","ios":"levelo://app?vid=0e1793df-58b4-4907-8bff-acd649e8696d"},"vehicle_type_id":"4","last_reported":1691096734,"current_range_meters":31200,"station_id":"ce4bh4p2rcd13ifvqe0g","pricing_plan_id":"free"},{"bike_id":"ef3f2435-08bf-4d30-b87b-89d073a91d37","system_id":"levelo_inurba_marseille","lat":43.290345,"lon":5.38646,"is_reserved":false,"is_disabled":false,"rental_uris":{"android":"levelo://app?vid=ef3f2435-08bf-4d30-b87b-89d073a91d37","ios":"levelo://app?vid=ef3f2435-08bf-4d30-b87b-89d073a91d37"},"vehicle_type_id":"4","last_reported":1691096734,"current_range_meters":21600,"station_id":"ce4bh4p2rcd13ifvqe0g","pricing_plan_id":"free"},{"bike_id":"280a4491-2d6e-4882-9ab7-2f6a565684c8","system_id":"levelo_inurba_marseille","lat":43.290336,"lon":5.386425,"is_reserved":false,"is_disabled":false,"rental_uris":{"android":"levelo://app?vid=280a4491-2d6e-4882-9ab7-2f6a565684c8","ios":"levelo://app?vid=280a4491-2d6e-4882-9ab7-2f6a565684c8"},"vehicle_type_id":"4","last_reported":1691096734,"current_range_meters":31200,"station_id":"ce4bh4p2rcd13ifvqe0g","pricing_plan_id":"free"},{"bike_id":"a1e6e7cc-01d4-4494-b06c-63184b79e35c","system_id":"levelo_inurba_marseille","lat":43.286039,"lon":5.370681,"is_reserved":false,"is_disabled":false,"rental_uris":{"android":"levelo://app?vid=a1e6e7cc-01d4-4494-b06c-63184b79e35c","ios":"levelo://app?vid=a1e6e7cc-01d4-4494-b06c-63184b79e35c"},"vehicle_type_id":"4","last_reported":1691096734,"current_range_meters":6400,"station_id":"ce4bht12rcd13ifvqi60","pricing_plan_id":"free"},{"bike_id":"ef31030a-2324-43f9-a600-45e1ac5319cd","system_id":"levelo_inurba_marseille","lat":43.287185,"lon":5.379373,"is_reserved":false,"is_disabled":false,"rental_uris":{"android":"levelo://app?vid=ef31030a-2324-43f9-a600-45e1ac5319cd","ios":"levelo://app?vid=ef31030a-2324-43f9-a600-45e1ac5319cd"},"vehicle_type_id":"4","last_reported":1691096734,"current_range_meters":26000,"station_id":"ce4bh9p2rcd13ifvqec0","pricing_plan_id":"free"},{"bike_id":"2f94e159-a909-4ce8-a7df-bf33d5e0ace8","system_id":"levelo_inurba_marseille","lat":43.287184,"lon":5.37937,"is_reserved":false,"is_disabled":false,"rental_uris":{"android":"levelo://app?vid=2f94e159-a909-4ce8-a7df-bf33d5e0ace8","ios":"levelo://app?vid=2f94e159-a909-4ce8-a7df-bf33d5e0ace8"},"vehicle_type_id":"4","last_reported":1691096734,"current_range_meters":28400,"station_id":"ce4bh9p2rcd13ifvqec0","pricing_plan_id":"free"},{"bike_id":"e903b02d-848c-477c-bdc3-eed524ed64a6","system_id":"levelo_inurba_marseille","lat":43.287185,"lon":5.379373,"is_reserved":false,"is_disabled":false,"rental_uris":{"android":"levelo://app?vid=e903b02d-848c-477c-bdc3-eed524ed64a6","ios":"levelo://app?vid=e903b02d-848c-477c-bdc3-eed524ed64a6"},"vehicle_type_id":"4","last_reported":1691096734,"current_range_meters":23600,"station_id":"ce4bh9p2rcd13ifvqec0","pricing_plan_id":"free"},{"bike_id":"50c9e5d3-98cb-408a-bf4c-c44966a391e9","system_id":"levelo_inurba_marseille","lat":43.287184,"lon":5.37937,"is_reserved":false,"is_disabled":false,"rental_uris":{"android":"levelo://app?vid=50c9e5d3-98cb-408a-bf4c-c44966a391e9","ios":"levelo://app?vid=50c9e5d3-98cb-408a-bf4c-c44966a391e9"},"vehicle_type_id":"4","last_reported":1691096734,"current_range_meters":18800,"station_id":"ce4bh9p2rcd13ifvqec0","pricing_plan_id":"free"},{"bike_id":"67f1e737-ce15-487e-b104-d616b41718f3","system_id":"levelo_inurba_marseille","lat":43.316449,"lon":5.404328,"is_reserved":false,"is_disabled":false,"rental_uris":{"android":"levelo://app?vid=67f1e737-ce15-487e-b104-d616b41718f3","ios":"levelo://app?vid=67f1e737-ce15-487e-b104-d616b41718f3"},"vehicle_type_id":"4","last_reported":1691096734,"current_range_meters":9200,"station_id":"ce4bh012rcd13ifvqd00","pricing_plan_id":"free"},{"bike_id":"dd64ce83-b8c1-4ba9-bbd0-6d959221921c","system_id":"levelo_inurba_marseille","lat":43.31643,"lon":5.40435,"is_reserved":false,"is_disabled":false,"rental_uris":{"android":"levelo://app?vid=dd64ce83-b8c1-4ba9-bbd0-6d959221921c","ios":"levelo://app?vid=dd64ce83-b8c1-4ba9-bbd0-6d959221921c"},"vehicle_type_id":"4","last_reported":1691096734,"current_range_meters":0,"station_id":"ce4bh012rcd13ifvqd00","pricing_plan_id":"free"},{"bike_id":"505579c6-72ba-4c58-83d0-fb23fcb3bfdd","system_id":"levelo_inurba_marseille","lat":43.31643,"lon":5.40436,"is_reserved":false,"is_disabled":false,"rental_uris":{"android":"levelo://app?vid=505579c6-72ba-4c58-83d0-fb23fcb3bfdd","ios":"levelo://app?vid=505579c6-72ba-4c58-83d0-fb23fcb3bfdd"},"vehicle_type_id":"4","last_reported":1691096734,"current_range_meters":27200,"station_id":"ce4bh012rcd13ifvqd00","pricing_plan_id":"free"},{"bike_id":"3474ff5f-0a50-4146-9c1e-000370ac4fe0","system_id":"levelo_inurba_marseille","lat":43.31647,"lon":5.40437,"is_reserved":false,"is_disabled":false,"rental_uris":{"android":"levelo://app?vid=3474ff5f-0a50-4146-9c1e-000370ac4fe0","ios":"levelo://app?vid=3474ff5f-0a50-4146-9c1e-000370ac4fe0"},"vehicle_type_id":"4","last_reported":1691096734,"current_range_meters":11600,"station_id":"ce4bh012rcd13ifvqd00","pricing_plan_id":"free"},{"bike_id":"48ad477d-1b86-462a-a335-912be81d5676","system_id":"levelo_inurba_marseille","lat":43.316517,"lon":5.404375,"is_reserved":false,"is_disabled":false,"rental_uris":{"android":"levelo://app?vid=48ad477d-1b86-462a-a335-912be81d5676","ios":"levelo://app?vid=48ad477d-1b86-462a-a335-912be81d5676"},"vehicle_type_id":"4","last_reported":1691096734,"current_range_meters":24800,"station_id":"ce4bh012rcd13ifvqd00","pricing_plan_id":"free"},{"bike_id":"99ef77c8-5f24-48f8-b499-d5f3fc911ee4","system_id":"levelo_inurba_marseille","lat":43.29243,"lon":5.39426,"is_reserved":false,"is_disabled":false,"rental_uris":{"android":"levelo://app?vid=99ef77c8-5f24-48f8-b499-d5f3fc911ee4","ios":"levelo://app?vid=99ef77c8-5f24-48f8-b499-d5f3fc911ee4"},"vehicle_type_id":"4","last_reported":1691096734,"current_range_meters":17600,"station_id":"","pricing_plan_id":"free"},{"bike_id":"0bcf6c2d-b423-420c-8bf2-5b8ee3b4c7ea","system_id":"levelo_inurba_marseille","lat":43.28467,"lon":5.35894,"is_reserved":false,"is_disabled":false,"rental_uris":{"android":"levelo://app?vid=0bcf6c2d-b423-420c-8bf2-5b8ee3b4c7ea","ios":"levelo://app?vid=0bcf6c2d-b423-420c-8bf2-5b8ee3b4c7ea"},"vehicle_type_id":"4","last_reported":1691096734,"current_range_meters":26800,"station_id":"ce4bhah2rcd13ifvqei0","pricing_plan_id":"free"},{"bike_id":"23ab9a18-9ed3-4267-8d82-b838ea023682","system_id":"levelo_inurba_marseille","lat":43.284534,"lon":5.358662,"is_reserved":false,"is_disabled":false,"rental_uris":{"android":"levelo://app?vid=23ab9a18-9ed3-4267-8d82-b838ea023682","ios":"levelo://app?vid=23ab9a18-9ed3-4267-8d82-b838ea023682"},"vehicle_type_id":"4","last_reported":1691096734,"current_range_meters":17200,"station_id":"ce4bhah2rcd13ifvqei0","pricing_plan_id":"free"},{"bike_id":"f3f30c8c-1414-4558-9ffc-2374753c31eb","system_id":"levelo_inurba_marseille","lat":43.28464,"lon":5.35892,"is_reserved":false,"is_disabled":false,"rental_uris":{"android":"levelo://app?vid=f3f30c8c-1414-4558-9ffc-2374753c31eb","ios":"levelo://app?vid=f3f30c8c-1414-4558-9ffc-2374753c31eb"},"vehicle_type_id":"4","last_reported":1691096734,"current_range_meters":20800,"station_id":"ce4bhah2rcd13ifvqei0","pricing_plan_id":"free"},{"bike_id":"0fad56f5-1e54-4911-bffb-4fd9d9294521","system_id":"levelo_inurba_marseille","lat":43.29189,"lon":5.39405,"is_reserved":false,"is_disabled":false,"rental_uris":{"android":"levelo://app?vid=0fad56f5-1e54-4911-bffb-4fd9d9294521","ios":"levelo://app?vid=0fad56f5-1e54-4911-bffb-4fd9d9294521"},"vehicle_type_id":"4","last_reported":1691096734,"current_range_meters":7200,"station_id":"","pricing_plan_id":"free"},{"bike_id":"636185a4-d17f-410e-91da-28ed820b7f63","system_id":"levelo_inurba_marseille","lat":43.2846,"lon":5.35881,"is_reserved":false,"is_disabled":false,"rental_uris":{"android":"levelo://app?vid=636185a4-d17f-410e-91da-28ed820b7f63","ios":"levelo://app?vid=636185a4-d17f-410e-91da-28ed820b7f63"},"vehicle_type_id":"4","last_reported":1691096734,"current_range_meters":9200,"station_id":"ce4bhah2rcd13ifvqei0","pricing_plan_id":"free"},{"bike_id":"ffc7537c-5df0-4de0-b29c-d5979f7b6bdf","system_id":"levelo_inurba_marseille","lat":43.284534,"lon":5.358662,"is_reserved":false,"is_disabled":false,"rental_uris":{"android":"levelo://app?vid=ffc7537c-5df0-4de0-b29c-d5979f7b6bdf","ios":"levelo://app?vid=ffc7537c-5df0-4de0-b29c-d5979f7b6bdf"},"vehicle_type_id":"4","last_reported":1691096734,"current_range_meters":8000,"station_id":"ce4bhah2rcd13ifvqei0","pricing_plan_id":"free"},{"bike_id":"0f6da66b-64fc-4d76-8436-ade472adf2f6","system_id":"levelo_inurba_marseille","lat":43.284534,"lon":5.358662,"is_reserved":false,"is_disabled":false,"rental_uris":{"android":"levelo://app?vid=0f6da66b-64fc-4d76-8436-ade472adf2f6","ios":"levelo://app?vid=0f6da66b-64fc-4d76-8436-ade472adf2f6"},"vehicle_type_id":"4","last_reported":1691096734,"current_range_meters":0,"station_id":"ce4bhah2rcd13ifvqei0","pricing_plan_id":"free"},{"bike_id":"aea62c68-a825-41c5-8df1-1b4a68f2c1bd","system_id":"levelo_inurba_marseille","lat":43.28419,"lon":5.3751,"is_reserved":false,"is_disabled":false,"rental_uris":{"android":"levelo://app?vid=aea62c68-a825-41c5-8df1-1b4a68f2c1bd","ios":"levelo://app?vid=aea62c68-a825-41c5-8df1-1b4a68f2c1bd"},"vehicle_type_id":"4","last_reported":1691096734,"current_range_meters":0,"station_id":"ce4bh412rcd13ifvqds0","pricing_plan_id":"free"},{"bike_id":"39293f85-bb74-477c-8f92-eafd69f90d57","system_id":"levelo_inurba_marseille","lat":43.295713,"lon":5.399639,"is_reserved":false,"is_disabled":false,"rental_uris":{"android":"levelo://app?vid=39293f85-bb74-477c-8f92-eafd69f90d57","ios":"levelo://app?vid=39293f85-bb74-477c-8f92-eafd69f90d57"},"vehicle_type_id":"4","last_reported":1691096734,"current_range_meters":16800,"station_id":"ce4bh312rcd13ifvqdj0","pricing_plan_id":"free"},{"bike_id":"00a7288e-6abe-4c5d-a458-183f65b0f9f2","system_id":"levelo_inurba_marseille","lat":43.295713,"lon":5.399639,"is_reserved":false,"is_disabled":false,"rental_uris":{"android":"levelo://app?vid=00a7288e-6abe-4c5d-a458-183f65b0f9f2","ios":"levelo://app?vid=00a7288e-6abe-4c5d-a458-183f65b0f9f2"},"vehicle_type_id":"4","last_reported":1691096734,"current_range_meters":1200,"station_id":"ce4bh312rcd13ifvqdj0","pricing_plan_id":"free"},{"bike_id":"08e61131-ed5a-4503-99f4-10a87afc7eb0","system_id":"levelo_inurba_marseille","lat":43.295713,"lon":5.399639,"is_reserved":false,"is_disabled":false,"rental_uris":{"android":"levelo://app?vid=08e61131-ed5a-4503-99f4-10a87afc7eb0","ios":"levelo://app?vid=08e61131-ed5a-4503-99f4-10a87afc7eb0"},"vehicle_type_id":"4","last_reported":1691096734,"current_range_meters":16400,"station_id":"ce4bh312rcd13ifvqdj0","pricing_plan_id":"free"},{"bike_id":"a9623265-b40f-4e3c-8425-7b15533d8208","system_id":"levelo_inurba_marseille","lat":43.295713,"lon":5.399639,"is_reserved":false,"is_disabled":false,"rental_uris":{"android":"levelo://app?vid=a9623265-b40f-4e3c-8425-7b15533d8208","ios":"levelo://app?vid=a9623265-b40f-4e3c-8425-7b15533d8208"},"vehicle_type_id":"4","last_reported":1691096734,"current_range_meters":8400,"station_id":"ce4bh312rcd13ifvqdj0","pricing_plan_id":"free"},{"bike_id":"8acdbe64-3306-4539-9227-595f7abfea40","system_id":"levelo_inurba_marseille","lat":43.28572,"lon":5.35069,"is_reserved":false,"is_disabled":false,"rental_uris":{"android":"levelo://app?vid=8acdbe64-3306-4539-9227-595f7abfea40","ios":"levelo://app?vid=8acdbe64-3306-4539-9227-595f7abfea40"},"vehicle_type_id":"4","last_reported":1691096734,"current_range_meters":6800,"station_id":"","pricing_plan_id":"free"},{"bike_id":"ba287ebe-4447-4a36-828c-f29cf77df723","system_id":"levelo_inurba_marseille","lat":43.286595,"lon":5.386795,"is_reserved":false,"is_disabled":false,"rental_uris":{"android":"levelo://app?vid=ba287ebe-4447-4a36-828c-f29cf77df723","ios":"levelo://app?vid=ba287ebe-4447-4a36-828c-f29cf77df723"},"vehicle_type_id":"4","last_reported":1691096734,"current_range_meters":24800,"station_id":"ce4bh492rcd13ifvqdug","pricing_plan_id":"free"},{"bike_id":"40799fcc-cd09-418d-9666-c83c4348f7ef","system_id":"levelo_inurba_marseille","lat":43.319179,"lon":5.407725,"is_reserved":false,"is_disabled":false,"rental_uris":{"android":"levelo://app?vid=40799fcc-cd09-418d-9666-c83c4348f7ef","ios":"levelo://app?vid=40799fcc-cd09-418d-9666-c83c4348f7ef"},"vehicle_type_id":"4","last_reported":1691096734,"current_range_meters":3600,"station_id":"ce4bhq12rcd13ifvqhig","pricing_plan_id":"free"},{"bike_id":"c59f30af-b7c9-4762-b544-56156d6a8a97","system_id":"levelo_inurba_marseille","lat":43.33716,"lon":5.39176,"is_reserved":false,"is_disabled":false,"rental_uris":{"android":"levelo://app?vid=c59f30af-b7c9-4762-b544-56156d6a8a97","ios":"levelo://app?vid=c59f30af-b7c9-4762-b544-56156d6a8a97"},"vehicle_type_id":"4","last_reported":1691096734,"current_range_meters":23200,"station_id":"ce4bhr92rcd13ifvqhsg","pricing_plan_id":"free"},{"bike_id":"65e7209e-43de-4472-85bf-edccad84c81f","system_id":"levelo_inurba_marseille","lat":43.33717,"lon":5.391857,"is_reserved":false,"is_disabled":false,"rental_uris":{"android":"levelo://app?vid=65e7209e-43de-4472-85bf-edccad84c81f","ios":"levelo://app?vid=65e7209e-43de-4472-85bf-edccad84c81f"},"vehicle_type_id":"4","last_reported":1691096734,"current_range_meters":30000,"station_id":"ce4bhr92rcd13ifvqhsg","pricing_plan_id":"free"},{"bike_id":"3e563380-a985-451c-801d-2783d7714294","system_id":"levelo_inurba_marseille","lat":43.33718,"lon":5.39181,"is_reserved":false,"is_disabled":false,"rental_uris":{"android":"levelo://app?vid=3e563380-a985-451c-801d-2783d7714294","ios":"levelo://app?vid=3e563380-a985-451c-801d-2783d7714294"},"vehicle_type_id":"4","last_reported":1691096734,"current_range_meters":19600,"station_id":"ce4bhr92rcd13ifvqhsg","pricing_plan_id":"free"},{"bike_id":"1f5722b0-5667-43f6-9dad-3a3b818c5a69","system_id":"levelo_inurba_marseille","lat":43.3372,"lon":5.39183,"is_reserved":false,"is_disabled":false,"rental_uris":{"android":"levelo://app?vid=1f5722b0-5667-43f6-9dad-3a3b818c5a69","ios":"levelo://app?vid=1f5722b0-5667-43f6-9dad-3a3b818c5a69"},"vehicle_type_id":"4","last_reported":1691096734,"current_range_meters":6800,"station_id":"ce4bhr92rcd13ifvqhsg","pricing_plan_id":"free"},{"bike_id":"5fd6a347-0a02-4efa-ab4a-06802493ed56","system_id":"levelo_inurba_marseille","lat":43.33721,"lon":5.39186,"is_reserved":false,"is_disabled":false,"rental_uris":{"android":"levelo://app?vid=5fd6a347-0a02-4efa-ab4a-06802493ed56","ios":"levelo://app?vid=5fd6a347-0a02-4efa-ab4a-06802493ed56"},"vehicle_type_id":"4","last_reported":1691096734,"current_range_meters":19200,"station_id":"ce4bhr92rcd13ifvqhsg","pricing_plan_id":"free"},{"bike_id":"9be39f6c-974f-4a4e-90c3-357a4d8fdcc8","system_id":"levelo_inurba_marseille","lat":43.323464,"lon":5.406297,"is_reserved":false,"is_disabled":false,"rental_uris":{"android":"levelo://app?vid=9be39f6c-974f-4a4e-90c3-357a4d8fdcc8","ios":"levelo://app?vid=9be39f6c-974f-4a4e-90c3-357a4d8fdcc8"},"vehicle_type_id":"4","last_reported":1691096734,"current_range_meters":3200,"station_id":"ce4bhq92rcd13ifvqhjg","pricing_plan_id":"free"},{"bike_id":"9d8dc018-8295-487e-aae9-79ce0f469cdf","system_id":"levelo_inurba_marseille","lat":43.33725,"lon":5.39184,"is_reserved":false,"is_disabled":false,"rental_uris":{"android":"levelo://app?vid=9d8dc018-8295-487e-aae9-79ce0f469cdf","ios":"levelo://app?vid=9d8dc018-8295-487e-aae9-79ce0f469cdf"},"vehicle_type_id":"4","last_reported":1691096734,"current_range_meters":29200,"station_id":"ce4bhr92rcd13ifvqhsg","pricing_plan_id":"free"},{"bike_id":"23dafe58-bc58-41ce-843c-2b5e651c84c2","system_id":"levelo_inurba_marseille","lat":43.323464,"lon":5.406297,"is_reserved":false,"is_disabled":false,"rental_uris":{"android":"levelo://app?vid=23dafe58-bc58-41ce-843c-2b5e651c84c2","ios":"levelo://app?vid=23dafe58-bc58-41ce-843c-2b5e651c84c2"},"vehicle_type_id":"4","last_reported":1691096734,"current_range_meters":11600,"station_id":"ce4bhq92rcd13ifvqhjg","pricing_plan_id":"free"},{"bike_id":"939edbe6-adcc-4f97-ad69-99748df4073d","system_id":"levelo_inurba_marseille","lat":43.33727,"lon":5.39181,"is_reserved":false,"is_disabled":false,"rental_uris":{"android":"levelo://app?vid=939edbe6-adcc-4f97-ad69-99748df4073d","ios":"levelo://app?vid=939edbe6-adcc-4f97-ad69-99748df4073d"},"vehicle_type_id":"4","last_reported":1691096734,"current_range_meters":29200,"station_id":"ce4bhr92rcd13ifvqhsg","pricing_plan_id":"free"},{"bike_id":"9ed5c8cd-5716-467d-9a0b-e5002dcb5a2c","system_id":"levelo_inurba_marseille","lat":43.33717,"lon":5.391857,"is_reserved":false,"is_disabled":false,"rental_uris":{"android":"levelo://app?vid=9ed5c8cd-5716-467d-9a0b-e5002dcb5a2c","ios":"levelo://app?vid=9ed5c8cd-5716-467d-9a0b-e5002dcb5a2c"},"vehicle_type_id":"4","last_reported":1691096734,"current_range_meters":4800,"station_id":"ce4bhr92rcd13ifvqhsg","pricing_plan_id":"free"},{"bike_id":"df82d2f9-f688-4670-ac84-3e543122cedb","system_id":"levelo_inurba_marseille","lat":43.33727,"lon":5.39182,"is_reserved":false,"is_disabled":false,"rental_uris":{"android":"levelo://app?vid=df82d2f9-f688-4670-ac84-3e543122cedb","ios":"levelo://app?vid=df82d2f9-f688-4670-ac84-3e543122cedb"},"vehicle_type_id":"4","last_reported":1691096734,"current_range_meters":17600,"station_id":"ce4bhr92rcd13ifvqhsg","pricing_plan_id":"free"},{"bike_id":"3a1d0e1a-cf7b-4b1e-8bd5-6fc799344919","system_id":"levelo_inurba_marseille","lat":43.28494,"lon":5.38419,"is_reserved":false,"is_disabled":false,"rental_uris":{"android":"levelo://app?vid=3a1d0e1a-cf7b-4b1e-8bd5-6fc799344919","ios":"levelo://app?vid=3a1d0e1a-cf7b-4b1e-8bd5-6fc799344919"},"vehicle_type_id":"4","last_reported":1691096734,"current_range_meters":31200,"station_id":"ce4bh512rcd13ifvqe3g","pricing_plan_id":"free"},{"bike_id":"041087eb-839e-446c-b04b-47410f0ba3df","system_id":"levelo_inurba_marseille","lat":43.28488,"lon":5.38424,"is_reserved":false,"is_disabled":false,"rental_uris":{"android":"levelo://app?vid=041087eb-839e-446c-b04b-47410f0ba3df","ios":"levelo://app?vid=041087eb-839e-446c-b04b-47410f0ba3df"},"vehicle_type_id":"4","last_reported":1691096734,"current_range_meters":31200,"station_id":"ce4bh512rcd13ifvqe3g","pricing_plan_id":"free"},{"bike_id":"a7da466d-3215-4108-b566-9d864ba3aef6","system_id":"levelo_inurba_marseille","lat":43.2849,"lon":5.38433,"is_reserved":false,"is_disabled":false,"rental_uris":{"android":"levelo://app?vid=a7da466d-3215-4108-b566-9d864ba3aef6","ios":"levelo://app?vid=a7da466d-3215-4108-b566-9d864ba3aef6"},"vehicle_type_id":"4","last_reported":1691096734,"current_range_meters":31200,"station_id":"ce4bh512rcd13ifvqe3g","pricing_plan_id":"free"},{"bike_id":"9958aa33-d03c-4630-a13a-f2ff38e1ab8f","system_id":"levelo_inurba_marseille","lat":43.28475,"lon":5.38405,"is_reserved":false,"is_disabled":false,"rental_uris":{"android":"levelo://app?vid=9958aa33-d03c-4630-a13a-f2ff38e1ab8f","ios":"levelo://app?vid=9958aa33-d03c-4630-a13a-f2ff38e1ab8f"},"vehicle_type_id":"4","last_reported":1691096734,"current_range_meters":0,"station_id":"ce4bh512rcd13ifvqe3g","pricing_plan_id":"free"},