{"last_updated":1736284091,"ttl":60,"version":"2.2","data":{"bikes":[{"bike_id":"89421f62-06fd-4b68-bcb1-b94fd7ea6d26","system_id":"levelo_inurba_marseille","lat":43.32363,"lon":5.388915,"is_reserved":false,"is_disabled":false,"rental_uris":{"android":"levelo://app?vid=89421f62-06fd-4b68-bcb1-b94fd7ea6d26","ios":"levelo://app?vid=89421f62-06fd-4b68-bcb1-b94fd7ea6d26"},"vehicle_type_id":"4","last_reported":1736284091,"current_range_meters":22000,"station_id":"ce4bhqp2rcd13ifvqhog","pricing_plan_id":"cebpf4jnsgd1na2vs0mg"},{"bike_id":"e5028c33-9f8e-4ac3-a14c-e67e8c232bdb","system_id":"levelo_inurba_marseille","lat":43.27821,"lon":5.40703,"is_reserved":false,"is_disabled":false,"rental_uris":{"android":"levelo://app?vid=e5028c33-9f8e-4ac3-a14c-e67e8c232bdb","ios":"levelo://app?vid=e5028c33-9f8e-4ac3-a14c-e67e8c232bdb"},"vehicle_type_id":"4","last_reported":1736284091,"current_range_meters":28800,"station_id":"ce4bhnh2rcd13ifvqgtg","pricing_plan_id":"cebpf4jnsgd1na2vs0mg"},{"bike_id":"2cd7da98-beb8-4895-acea-89cb723504ca","system_id":"levelo_inurba_marseille","lat":43.28267,"lon":5.3507,"is_reserved":false,"is_disabled":false,"rental_uris":{"android":"levelo://app?vid=2cd7da98-beb8-4895-acea-89cb723504ca","ios":"levelo://app?vid=2cd7da98-beb8-4895-acea-89cb723504ca"},"vehicle_type_id":"4","last_reported":1736284091,"current_range_meters":24800,"station_id":"ce4bhbp2rcd13ifvqerg","pricing_plan_id":"cebpf4jnsgd1na2vs0mg"},{"bike_id":"f9aababe-afdf-4fd3-a1be-fb744037173a","system_id":"levelo_inurba_marseille","lat":43.29867,"lon":5.39729,"is_reserved":false,"is_disabled":false,"rental_uris":{"android":"levelo://app?vid=f9aababe-afdf-4fd3-a1be-fb744037173a","ios":"levelo://app?vid=f9aababe-afdf-4fd3-a1be-fb744037173a"},"vehicle_type_id":"4","last_reported":1736284091,"current_range_meters":16400,"station_id":"ce4bh0h2rcd13ifvqd50","pricing_plan_id":"cebpf4jnsgd1na2vs0mg"},{"bike_id":"4a732246-ae68-4ce5-81e6-c1c0fdd801cc","system_id":"levelo_inurba_marseille","lat":43.29058,"lon":5.37156,"is_reserved":false,"is_disabled":false,"rental_uris":{"android":"levelo://app?vid=4a732246-ae68-4ce5-81e6-c1c0fdd801cc","ios":"levelo://app?vid=4a732246-ae68-4ce5-81e6-c1c0fdd801cc"},"vehicle_type_id":"4","last_reported":1736284091,"current_range_meters":16000,"station_id":"ce4bh5p2rcd13ifvqe4g","pricing_plan_id":"cebpf4jnsgd1na2vs0mg"},{"bike_id":"1c2c3464-8b3a-4eab-9fdd-fd6c6e2d5657","system_id":"levelo_inurba_marseille","lat":43.28669,"lon":5.38643,"is_reserved":false,"is_disabled":false,"rental_uris":{"android":"levelo://app?vid=1c2c3464-8b3a-4eab-9fdd-fd6c6e2d5657","ios":"levelo://app?vid=1c2c3464-8b3a-4eab-9fdd-fd6c6e2d5657"},"vehicle_type_id":"4","last_reported":1736284091,"current_range_meters":38800,"station_id":"ce4bh492rcd13ifvqdug","pricing_plan_id":"cebpf4jnsgd1na2vs0mg"},{"bike_id":"a289fb1b-5f21-48af-a806-ce60b8382da2","system_id":"levelo_inurba_marseille","lat":43.22936,"lon":5.35376,"is_reserved":false,"is_disabled":false,"rental_uris":{"android":"levelo://app?vid=a289fb1b-5f21-48af-a806-ce60b8382da2","ios":"levelo://app?vid=a289fb1b-5f21-48af-a806-ce60b8382da2"},"vehicle_type_id":"4","last_reported":1736284091,"current_range_meters":8000,"station_id":"cpo3532slgdg3j2ikp40","pricing_plan_id":"cebpf4jnsgd1na2vs0mg"},{"bike_id":"0c06f679-85b2-4f8b-8237-3c1bdba6d34d","system_id":"levelo_inurba_marseille","lat":43.271953,"lon":5.40982,"is_reserved":false,"is_disabled":false,"rental_uris":{"android":"levelo://app?vid=0c06f679-85b2-4f8b-8237-3c1bdba6d34d","ios":"levelo://app?vid=0c06f679-85b2-4f8b-8237-3c1bdba6d34d"},"vehicle_type_id":"4","last_reported":1736284091,"current_range_meters":39200,"station_id":"ce4bhl12rcd13ifvqgf0","pricing_plan_id":"cebpf4jnsgd1na2vs0mg"},{"bike_id":"05a2c15a-fb68-455c-8082-fdf747a62fe7","system_id":"levelo_inurba_marseille","lat":43.27847,"lon":5.40726,"is_reserved":false,"is_disabled":false,"rental_uris":{"android":"levelo://app?vid=05a2c15a-fb68-455c-8082-fdf747a62fe7","ios":"levelo://app?vid=05a2c15a-fb68-455c-8082-fdf747a62fe7"},"vehicle_type_id":"4","last_reported":1736284091,"current_range_meters":38400,"station_id":"ce4bhnh2rcd13ifvqgtg","pricing_plan_id":"cebpf4jnsgd1na2vs0mg"},{"bike_id":"e5378f9f-c1fa-4845-820f-6ca38787ef63","system_id":"levelo_inurba_marseille","lat":43.27615,"lon":5.36111,"is_reserved":false,"is_disabled":false,"rental_uris":{"android":"levelo://app?vid=e5378f9f-c1fa-4845-820f-6ca38787ef63","ios":"levelo://app?vid=e5378f9f-c1fa-4845-820f-6ca38787ef63"},"vehicle_type_id":"4","last_reported":1736284091,"current_range_meters":31200,"station_id":"ce4bgj92rcd13ifvqbe0","pricing_plan_id":"cebpf4jnsgd1na2vs0mg"},{"bike_id":"2d8e34d9-b80c-45b2-a371-14e66d0ae48a","system_id":"levelo_inurba_marseille","lat":43.24163,"lon":5.39724,"is_reserved":false,"is_disabled":false,"rental_uris":{"android":"levelo://app?vid=2d8e34d9-b80c-45b2-a371-14e66d0ae48a","ios":"levelo://app?vid=2d8e34d9-b80c-45b2-a371-14e66d0ae48a"},"vehicle_type_id":"4","last_reported":1736284091,"current_range_meters":38800,"station_id":"ce4bhn12rcd13ifvqgpg","pricing_plan_id":"cebpf4jnsgd1na2vs0mg"},{"bike_id":"f357d330-5bc7-4567-8dd3-ae3b269aeff7","system_id":"levelo_inurba_marseille","lat":43.28669,"lon":5.41443,"is_reserved":false,"is_disabled":false,"rental_uris":{"android":"levelo://app?vid=f357d330-5bc7-4567-8dd3-ae3b269aeff7","ios":"levelo://app?vid=f357d330-5bc7-4567-8dd3-ae3b269aeff7"},"vehicle_type_id":"4","last_reported":1736284091,"current_range_meters":19200,"station_id":"ce4bhph2rcd13ifvqhdg","pricing_plan_id":"cebpf4jnsgd1na2vs0mg"},{"bike_id":"3fd4e529-bf86-415d-b820-50c8dbc3ecb7","system_id":"levelo_inurba_marseille","lat":43.28663,"lon":5.36359,"is_reserved":false,"is_disabled":false,"rental_uris":{"android":"levelo://app?vid=3fd4e529-bf86-415d-b820-50c8dbc3ecb7","ios":"levelo://app?vid=3fd4e529-bf86-415d-b820-50c8dbc3ecb7"},"vehicle_type_id":"4","last_reported":1736284091,"current_range_meters":39200,"station_id":"ce4bhah2rcd13ifvqej0","pricing_plan_id":"cebpf4jnsgd1na2vs0mg"},{"bike_id":"2e3020fc-739e-484f-aff1-968aa18f2ac1","system_id":"levelo_inurba_marseille","lat":43.27991,"lon":5.41647,"is_reserved":false,"is_disabled":true,"rental_uris":{"android":"levelo://app?vid=2e3020fc-739e-484f-aff1-968aa18f2ac1","ios":"levelo://app?vid=2e3020fc-739e-484f-aff1-968aa18f2ac1"},"vehicle_type_id":"4","last_reported":1736284091,"current_range_meters":34000,"station_id":"ce4bho12rcd13ifvqh1g","pricing_plan_id":"cebpf4jnsgd1na2vs0mg"},{"bike_id":"43f00f40-77d6-41ae-bb5c-4d927940db7e","system_id":"levelo_inurba_marseille","lat":43.31172,"lon":5.3871,"is_reserved":false,"is_disabled":false,"rental_uris":{"android":"levelo://app?vid=43f00f40-77d6-41ae-bb5c-4d927940db7e","ios":"levelo://app?vid=43f00f40-77d6-41ae-bb5c-4d927940db7e"},"vehicle_type_id":"4","last_reported":1736284091,"current_range_meters":38800,"station_id":"ce4bgv12rcd13ifvqcp0","pricing_plan_id":"cebpf4jnsgd1na2vs0mg"},{"bike_id":"508712e8-c246-4ef4-9b9e-20f18ed4e9a4","system_id":"levelo_inurba_marseille","lat":43.27497,"lon":5.42445,"is_reserved":false,"is_disabled":false,"rental_uris":{"android":"levelo://app?vid=508712e8-c246-4ef4-9b9e-20f18ed4e9a4","ios":"levelo://app?vid=508712e8-c246-4ef4-9b9e-20f18ed4e9a4"},"vehicle_type_id":"4","last_reported":1736284091,"current_range_meters":18800,"station_id":"ce4bhn92rcd13ifvqgrg","pricing_plan_id":"cebpf4jnsgd1na2vs0mg"},{"bike_id":"06246fda-bba2-4ab9-829d-600d72921eaf","system_id":"levelo_inurba_marseille","lat":43.306,"lon":5.39313,"is_reserved":false,"is_disabled":true,"rental_uris":{"android":"levelo://app?vid=06246fda-bba2-4ab9-829d-600d72921eaf","ios":"levelo://app?vid=06246fda-bba2-4ab9-829d-600d72921eaf"},"vehicle_type_id":"4","last_reported":1736284091,"current_range_meters":800,"station_id":"ce4bh012rcd13ifvqcv0","pricing_plan_id":"cebpf4jnsgd1na2vs0mg"},{"bike_id":"baafeb05-7705-4cf5-abb7-072797f23939","system_id":"levelo_inurba_marseille","lat":43.3117,"lon":5.38715,"is_reserved":false,"is_disabled":false,"rental_uris":{"android":"levelo://app?vid=baafeb05-7705-4cf5-abb7-072797f23939","ios":"levelo://app?vid=baafeb05-7705-4cf5-abb7-072797f23939"},"vehicle_type_id":"4","last_reported":1736284091,"current_range_meters":18000,"station_id":"ce4bgv12rcd13ifvqcp0","pricing_plan_id":"cebpf4jnsgd1na2vs0mg"},{"bike_id":"8b7b03a4-76c0-429d-86c4-2cba528f75db","system_id":"levelo_inurba_marseille","lat":43.32372,"lon":5.38883,"is_reserved":false,"is_disabled":true,"rental_uris":{"android":"levelo://app?vid=8b7b03a4-76c0-429d-86c4-2cba528f75db","ios":"levelo://app?vid=8b7b03a4-76c0-429d-86c4-2cba528f75db"},"vehicle_type_id":"4","last_reported":1736284091,"current_range_meters":4000,"station_id":"ce4bhqp2rcd13ifvqhog","pricing_plan_id":"cebpf4jnsgd1na2vs0mg"},{"bike_id":"07ba838a-cac9-436d-bde2-39f5016b7c20","system_id":"levelo_inurba_marseille","lat":43.2781,"lon":5.40701,"is_reserved":false,"is_disabled":false,"rental_uris":{"android":"levelo://app?vid=07ba838a-cac9-436d-bde2-39f5016b7c20","ios":"levelo://app?vid=07ba838a-cac9-436d-bde2-39f5016b7c20"},"vehicle_type_id":"4","last_reported":1736284091,"current_range_meters":36800,"station_id":"ce4bhnh2rcd13ifvqgtg","pricing_plan_id":"cebpf4jnsgd1na2vs0mg"},{"bike_id":"e1d67e76-e9ef-43a5-b307-2704c03519b0","system_id":"levelo_inurba_marseille","lat":43.28915,"lon":5.39657,"is_reserved":false,"is_disabled":false,"rental_uris":{"android":"levelo://app?vid=e1d67e76-e9ef-43a5-b307-2704c03519b0","ios":"levelo://app?vid=e1d67e76-e9ef-43a5-b307-2704c03519b0"},"vehicle_type_id":"4","last_reported":1736284091,"current_range_meters":22000,"station_id":"ce4bh3h2rcd13ifvqdn0","pricing_plan_id":"cebpf4jnsgd1na2vs0mg"},{"bike_id":"ad34d3c3-f703-46ca-92c3-8e056f95de84","system_id":"levelo_inurba_marseille","lat":43.28452,"lon":5.35877,"is_reserved":false,"is_disabled":false,"rental_uris":{"android":"levelo://app?vid=ad34d3c3-f703-46ca-92c3-8e056f95de84","ios":"levelo://app?vid=ad34d3c3-f703-46ca-92c3-8e056f95de84"},"vehicle_type_id":"4","last_reported":1736284091,"current_range_meters":12000,"station_id":"ce4bhah2rcd13ifvqei0","pricing_plan_id":"cebpf4jnsgd1na2vs0mg"},{"bike_id":"8d65b2b1-927b-45d9-8b22-6f75685ab908","system_id":"levelo_inurba_marseille","lat":43.2315,"lon":5.43706,"is_reserved":false,"is_disabled":false,"rental_uris":{"android":"levelo://app?vid=8d65b2b1-927b-45d9-8b22-6f75685ab908","ios":"levelo://app?vid=8d65b2b1-927b-45d9-8b22-6f75685ab908"},"vehicle_type_id":"4","last_reported":1736284091,"current_range_meters":38800,"station_id":"ce4bhmp2rcd13ifvqgog","pricing_plan_id":"cebpf4jnsgd1na2vs0mg"},{"bike_id":"f9af2b24-9bf6-497f-b409-d490cf2de712","system_id":"levelo_inurba_marseille","lat":43.28615,"lon":5.35107,"is_reserved":false,"is_disabled":false,"rental_uris":{"android":"levelo://app?vid=f9af2b24-9bf6-497f-b409-d490cf2de712","ios":"levelo://app?vid=f9af2b24-9bf6-497f-b409-d490cf2de712"},"vehicle_type_id":"4","last_reported":1736284091,"current_range_meters":31200,"station_id":"ce4bhch2rcd13ifvqeug","pricing_plan_id":"cebpf4jnsgd1na2vs0mg"},{"bike_id":"8a4c045a-dd75-4b08-85b8-01a9f1b5d499","system_id":"levelo_inurba_marseille","lat":43.31074,"lon":5.38353,"is_reserved":false,"is_disabled":false,"rental_uris":{"android":"levelo://app?vid=8a4c045a-dd75-4b08-85b8-01a9f1b5d499","ios":"levelo://app?vid=8a4c045a-dd75-4b08-85b8-01a9f1b5d499"},"vehicle_type_id":"4","last_reported":1736284091,"current_range_meters":20800,"station_id":"ce4bgv92rcd13ifvqcr0","pricing_plan_id":"cebpf4jnsgd1na2vs0mg"},{"bike_id":"8e69fd07-fa50-4941-a1e0-41e0e871c852","system_id":"levelo_inurba_marseille","lat":43.28415,"lon":5.37511,"is_reserved":false,"is_disabled":false,"rental_uris":{"android":"levelo://app?vid=8e69fd07-fa50-4941-a1e0-41e0e871c852","ios":"levelo://app?vid=8e69fd07-fa50-4941-a1e0-41e0e871c852"},"vehicle_type_id":"4","last_reported":1736284091,"current_range_meters":8000,"station_id":"ce4bh412rcd13ifvqds0","pricing_plan_id":"cebpf4jnsgd1na2vs0mg"},{"bike_id":"e234c05e-ad7c-4a80-b77e-0f5f2642c720","system_id":"levelo_inurba_marseille","lat":43.28473,"lon":5.35877,"is_reserved":false,"is_disabled":false,"rental_uris":{"android":"levelo://app?vid=e234c05e-ad7c-4a80-b77e-0f5f2642c720","ios":"levelo://app?vid=e234c05e-ad7c-4a80-b77e-0f5f2642c720"},"vehicle_type_id":"4","last_reported":1736284091,"current_range_meters":24000,"station_id":"ce4bhah2rcd13ifvqei0","pricing_plan_id":"cebpf4jnsgd1na2vs0mg"},{"bike_id":"c023aed8-c4af-47de-bf55-7ec6cfb1c879","system_id":"levelo_inurba_marseille","lat":43.26193,"lon":5.3744,"is_reserved":false,"is_disabled":true,"rental_uris":{"android":"levelo://app?vid=c023aed8-c4af-47de-bf55-7ec6cfb1c879","ios":"levelo://app?vid=c023aed8-c4af-47de-bf55-7ec6cfb1c879"},"vehicle_type_id":"4","last_reported":1736284091,"current_range_meters":26000,"station_id":"ce4bhgp2rcd13ifvqfc0","pricing_plan_id":"cebpf4jnsgd1na2vs0mg"},{"bike_id":"85a69695-8910-4e9b-be2e-1c4e4b65a0e7","system_id":"levelo_inurba_marseille","lat":43.24645,"lon":5.38888,"is_reserved":false,"is_disabled":false,"rental_uris":{"android":"levelo://app?vid=85a69695-8910-4e9b-be2e-1c4e4b65a0e7","ios":"levelo://app?vid=85a69695-8910-4e9b-be2e-1c4e4b65a0e7"},"vehicle_type_id":"4","last_reported":1736284091,"current_range_meters":39200,"station_id":"ce4bhg12rcd13ifvqf60","pricing_plan_id":"cebpf4jnsgd1na2vs0mg"},{"bike_id":"f5477bd9-ae2b-4f4a-90d2-43e1d2905a20","system_id":"levelo_inurba_marseille","lat":43.28419,"lon":5.34989,"is_reserved":false,"is_disabled":false,"rental_uris":{"android":"levelo://app?vid=f5477bd9-ae2b-4f4a-90d2-43e1d2905a20","ios":"levelo://app?vid=f5477bd9-ae2b-4f4a-90d2-43e1d2905a20"},"vehicle_type_id":"4","last_reported":1736284091,"current_range_meters":17200,"station_id":"ce4bhbh2rcd13ifvqepg","pricing_plan_id":"cebpf4jnsgd1na2vs0mg"},{"bike_id":"ad036647-e9f4-4246-953d-37ee6601db50","system_id":"levelo_inurba_marseille","lat":43.24682,"lon":5.3816,"is_reserved":false,"is_disabled":false,"rental_uris":{"android":"levelo://app?vid=ad036647-e9f4-4246-953d-37ee6601db50","ios":"levelo://app?vid=ad036647-e9f4-4246-953d-37ee6601db50"},"vehicle_type_id":"4","last_reported":1736284091,"current_range_meters":15200,"station_id":"ce4bhih2rcd13ifvqfr0","pricing_plan_id":"cebpf4jnsgd1na2vs0mg"},{"bike_id":"d74fc36d-2f1d-494c-b9e6-e714c99e8537","system_id":"levelo_inurba_marseille","lat":43.26566,"lon":5.37276,"is_reserved":false,"is_disabled":false,"rental_uris":{"android":"levelo://app?vid=d74fc36d-2f1d-494c-b9e6-e714c99e8537","ios":"levelo://app?vid=d74fc36d-2f1d-494c-b9e6-e714c99e8537"},"vehicle_type_id":"4","last_reported":1736284091,"current_range_meters":28000,"station_id":"ce4bhg12rcd13ifvqf70","pricing_plan_id":"cebpf4jnsgd1na2vs0mg"},{"bike_id":"dfcf855f-5812-4baf-aa89-8e83805791f7","system_id":"levelo_inurba_marseille","lat":43.275586,"lon":5.384152,"is_reserved":false,"is_disabled":false,"rental_uris":{"android":"levelo://app?vid=dfcf855f-5812-4baf-aa89-8e83805791f7","ios":"levelo://app?vid=dfcf855f-5812-4baf-aa89-8e83805791f7"},"vehicle_type_id":"4","last_reported":1736284091,"current_range_meters":22400,"station_id":"ce4bhh92rcd13ifvqfi0","pricing_plan_id":"cebpf4jnsgd1na2vs0mg"},{"bike_id":"83d61421-4a96-4675-8cf7-7779890541e6","system_id":"levelo_inurba_marseille","lat":43.31529,"lon":5.38021,"is_reserved":false,"is_disabled":false,"rental_uris":{"android":"levelo://app?vid=83d61421-4a96-4675-8cf7-7779890541e6","ios":"levelo://app?vid=83d61421-4a96-4675-8cf7-7779890541e6"},"vehicle_type_id":"4","last_reported":1736284091,"current_range_meters":39200,"station_id":"ce4bhsp2rcd13ifvqi50","pricing_plan_id":"cebpf4jnsgd1na2vs0mg"},{"bike_id":"00d350c9-c7d5-42f7-a3e1-74afb7d6252b","system_id":"levelo_inurba_marseille","lat":43.3022,"lon":5.39465,"is_reserved":false,"is_disabled":false,"rental_uris":{"android":"levelo://app?vid=00d350c9-c7d5-42f7-a3e1-74afb7d6252b","ios":"levelo://app?vid=00d350c9-c7d5-42f7-a3e1-74afb7d6252b"},"vehicle_type_id":"4","last_reported":1736284091,"current_range_meters":33200,"station_id":"ce4bh0p2rcd13ifvqd70","pricing_plan_id":"cebpf4jnsgd1na2vs0mg"},{"bike_id":"c736efc7-bdd4-4760-a57b-96851815e95f","system_id":"levelo_inurba_marseille","lat":43.26507,"lon":5.39528,"is_reserved":false,"is_disabled":true,"rental_uris":{"android":"levelo://app?vid=c736efc7-bdd4-4760-a57b-96851815e95f","ios":"levelo://app?vid=c736efc7-bdd4-4760-a57b-96851815e95f"},"vehicle_type_id":"4","last_reported":1736284091,"current_range_meters":38800,"station_id":"ce4bhi12rcd13ifvqfq0","pricing_plan_id":"cebpf4jnsgd1na2vs0mg"},{"bike_id":"a1ceaab5-cc98-4739-8fba-923512224dcf","system_id":"levelo_inurba_marseille","lat":43.23191,"lon":5.35554,"is_reserved":false,"is_disabled":false,"rental_uris":{"android":"levelo://app?vid=a1ceaab5-cc98-4739-8fba-923512224dcf","ios":"levelo://app?vid=a1ceaab5-cc98-4739-8fba-923512224dcf"},"vehicle_type_id":"4","last_reported":1736284091,"current_range_meters":38000,"station_id":"ce4bhu92rcd13ifvqi70","pricing_plan_id":"cebpf4jnsgd1na2vs0mg"},{"bike_id":"0071a927-f6f8-433a-a051-21a458c8608f","system_id":"levelo_inurba_marseille","lat":43.27208,"lon":5.4098,"is_reserved":false,"is_disabled":false,"rental_uris":{"android":"levelo://app?vid=0071a927-f6f8-433a-a051-21a458c8608f","ios":"levelo://app?vid=0071a927-f6f8-433a-a051-21a458c8608f"},"vehicle_type_id":"4","last_reported":1736284091,"current_range_meters":28400,"station_id":"ce4bhl12rcd13ifvqgf0","pricing_plan_id":"cebpf4jnsgd1na2vs0mg"},{"bike_id":"c3b15153-f019-432b-89af-f6657ff93fcd","system_id":"levelo_inurba_marseille","lat":43.30135,"lon":5.39859,"is_reserved":false,"is_disabled":false,"rental_uris":{"android":"levelo://app?vid=c3b15153-f019-432b-89af-f6657ff93fcd","ios":"levelo://app?vid=c3b15153-f019-432b-89af-f6657ff93fcd"},"vehicle_type_id":"4","last_reported":1736284091,"current_range_meters":22400,"station_id":"ce4bh0h2rcd13ifvqd40","pricing_plan_id":"cebpf4jnsgd1na2vs0mg"},{"bike_id":"448c8712-f610-49a8-9ae4-bbeb6e649d67","system_id":"levelo_inurba_marseille","lat":43.29875,"lon":5.39725,"is_reserved":false,"is_disabled":false,"rental_uris":{"android":"levelo://app?vid=448c8712-f610-49a8-9ae4-bbeb6e649d67","ios":"levelo://app?vid=448c8712-f610-49a8-9ae4-bbeb6e649d67"},"vehicle_type_id":"4","last_reported":1736284091,"current_range_meters":28000,"station_id":"ce4bh0h2rcd13ifvqd50","pricing_plan_id":"cebpf4jnsgd1na2vs0mg"},{"bike_id":"20cb66c8-b6a1-4da7-82ad-c31d7b50be65","system_id":"levelo_inurba_marseille","lat":43.29564,"lon":5.39976,"is_reserved":false,"is_disabled":false,"rental_uris":{"android":"levelo://app?vid=20cb66c8-b6a1-4da7-82ad-c31d7b50be65","ios":"levelo://app?vid=20cb66c8-b6a1-4da7-82ad-c31d7b50be65"},"vehicle_type_id":"4","last_reported":1736284091,"current_range_meters":38800,"station_id":"ce4bh312rcd13ifvqdj0","pricing_plan_id":"cebpf4jnsgd1na2vs0mg"},{"bike_id":"0d869571-702b-474e-9734-e51fa36b8db2","system_id":"levelo_inurba_marseille","lat":43.29192,"lon":5.39309,"is_reserved":false,"is_disabled":true,"rental_uris":{"android":"levelo://app?vid=0d869571-702b-474e-9734-e51fa36b8db2","ios":"levelo://app?vid=0d869571-702b-474e-9734-e51fa36b8db2"},"vehicle_type_id":"4","last_reported":1736284091,"current_range_meters":6400,"station_id":"ce4bh192rcd13ifvqdd0","pricing_plan_id":"cebpf4jnsgd1na2vs0mg"},{"bike_id":"884e5eef-e784-4e2f-b2b4-cbe24b9ec4af","system_id":"levelo_inurba_marseille","lat":43.31333,"lon":5.39697,"is_reserved":false,"is_disabled":false,"rental_uris":{"android":"levelo://app?vid=884e5eef-e784-4e2f-b2b4-cbe24b9ec4af","ios":"levelo://app?vid=884e5eef-e784-4e2f-b2b4-cbe24b9ec4af"},"vehicle_type_id":"4","last_reported":1736284091,"current_range_meters":6800,"station_id":"ce4bgvp2rcd13ifvqcu0","pricing_plan_id":"cebpf4jnsgd1na2vs0mg"},{"bike_id":"46b86b97-e7a4-473e-a5e7-7343aa64ab57","system_id":"levelo_inurba_marseille","lat":43.30254,"lon":5.40062,"is_reserved":false,"is_disabled":false,"rental_uris":{"android":"levelo://app?vid=46b86b97-e7a4-473e-a5e7-7343aa64ab57","ios":"levelo://app?vid=46b86b97-e7a4-473e-a5e7-7343aa64ab57"},"vehicle_type_id":"4","last_reported":1736284091,"current_range_meters":17200,"station_id":"ce4bgvh2rcd13ifvqcs0","pricing_plan_id":"cebpf4jnsgd1na2vs0mg"},{"bike_id":"ac1b97d2-d9c7-4a14-8fc5-b716f5c38a8e","system_id":"levelo_inurba_marseille","lat":43.31522,"lon":5.38036,"is_reserved":false,"is_disabled":false,"rental_uris":{"android":"levelo://app?vid=ac1b97d2-d9c7-4a14-8fc5-b716f5c38a8e","ios":"levelo://app?vid=ac1b97d2-d9c7-4a14-8fc5-b716f5c38a8e"},"vehicle_type_id":"4","last_reported":1736284091,"current_range_meters":26000,"station_id":"ce4bhsp2rcd13ifvqi50","pricing_plan_id":"cebpf4jnsgd1na2vs0mg"},{"bike_id":"c366f40b-0b52-4424-ab28-4a9b8b88d572","system_id":"levelo_inurba_marseille","lat":43.26704,"lon":5.38235,"is_reserved":false,"is_disabled":false,"rental_uris":{"android":"levelo://app?vid=c366f40b-0b52-4424-ab28-4a9b8b88d572","ios":"levelo://app?vid=c366f40b-0b52-4424-ab28-4a9b8b88d572"},"vehicle_type_id":"4","last_reported":1736284091,"current_range_meters":38800,"station_id":"ce4bhg92rcd13ifvqf90","pricing_plan_id":"cebpf4jnsgd1na2vs0mg"},{"bike_id":"55c241a2-fb34-41f8-a8f0-e4c4bf4de0bc","system_id":"levelo_inurba_marseille","lat":43.28357,"lon":5.38625,"is_reserved":false,"is_disabled":false,"rental_uris":{"android":"levelo://app?vid=55c241a2-fb34-41f8-a8f0-e4c4bf4de0bc","ios":"levelo://app?vid=55c241a2-fb34-41f8-a8f0-e4c4bf4de0bc"},"vehicle_type_id":"4","last_reported":1736284091,"current_range_meters":20400,"station_id":"ce4bh492rcd13ifvqdvg","pricing_plan_id":"cebpf4jnsgd1na2vs0mg"},{"bike_id":"dada21a7-a209-487a-ad57-7381db842b67","system_id":"levelo_inurba_marseille","lat":43.2978,"lon":5.371,"is_reserved":false,"is_disabled":false,"rental_uris":{"android":"levelo://app?vid=dada21a7-a209-487a-ad57-7381db842b67","ios":"levelo://app?vid=dada21a7-a209-487a-ad57-7381db842b67"},"vehicle_type_id":"4","last_reported":1736284091,"current_range_meters":27200,"station_id":"ce4bgop2rcd13ifvqc1g","pricing_plan_id":"cebpf4jnsgd1na2vs0mg"},{"bike_id":"cabdabd1-99bb-4664-9e5d-c96e1ae4a2f8","system_id":"levelo_inurba_marseille","lat":43.29452,"lon":5.39743,"is_reserved":false,"is_disabled":false,"rental_uris":{"android":"levelo://app?vid=cabdabd1-99bb-4664-9e5d-c96e1ae4a2f8","ios":"levelo://app?vid=cabdabd1-99bb-4664-9e5d-c96e1ae4a2f8"},"vehicle_type_id":"4","last_reported":1736284091,"current_range_meters":27600,"station_id":"ce4bh3h2rcd13ifvqdo0","pricing_plan_id":"cebpf4jnsgd1na2vs0mg"},{"bike_id":"4f1ef750-2e4b-4992-a976-9cd83f145c67","system_id":"levelo_inurba_marseille","lat":43.30214,"lon":5.39468,"is_reserved":false,"is_disabled":false,"rental_uris":{"android":"levelo://app?vid=4f1ef750-2e4b-4992-a976-9cd83f145c67","ios":"levelo://app?vid=4f1ef750-2e4b-4992-a976-9cd83f145c67"},"vehicle_type_id":"4","last_reported":1736284091,"current_range_meters":39200,"station_id":"ce4bh0p2rcd13ifvqd70","pricing_plan_id":"cebpf4jnsgd1na2vs0mg"},{"bike_id":"5cf5d467-316b-44fa-8fb8-856da6a44a4c","system_id":"levelo_inurba_marseille","lat":43.24653,"lon":5.37778,"is_reserved":false,"is_disabled":true,"rental_uris":{"android":"levelo://app?vid=5cf5d467-316b-44fa-8fb8-856da6a44a4c","ios":"levelo://app?vid=5cf5d467-316b-44fa-8fb8-856da6a44a4c"},"vehicle_type_id":"4","last_reported":1736284091,"current_range_meters":0,"station_id":"","pricing_plan_id":"cebpf4jnsgd1na2vs0mg"},{"bike_id":"37557093-6491-4690-b370-7a12c47f238b","system_id":"levelo_inurba_marseille","lat":43.27958,"lon":5.41034,"is_reserved":false,"is_disabled":false,"rental_uris":{"android":"levelo://app?vid=37557093-6491-4690-b370-7a12c47f238b","ios":"levelo://app?vid=37557093-6491-4690-b370-7a12c47f238b"},"vehicle_type_id":"4","last_reported":1736284091,"current_range_meters":8000,"station_id":"ce4bhnp2rcd13ifvqh0g","pricing_plan_id":"cebpf4jnsgd1na2vs0mg"},{"bike_id":"a8acd766-c8b6-49fa-a448-d51110da8e25","system_id":"levelo_inurba_marseille","lat":43.25128,"lon":5.40319,"is_reserved":false,"is_disabled":false,"rental_uris":{"android":"levelo://app?vid=a8acd766-c8b6-49fa-a448-d51110da8e25","ios":"levelo://app?vid=a8acd766-c8b6-49fa-a448-d51110da8e25"},"vehicle_type_id":"4","last_reported":1736284091,"current_range_meters":10000,"station_id":"ce4bhlh2rcd13ifvqgig","pricing_plan_id":"cebpf4jnsgd1na2vs0mg"},{"bike_id":"b47dd2b6-9afa-434e-9ef2-8da3a637e038","system_id":"levelo_inurba_marseille","lat":43.24806,"lon":5.37452,"is_reserved":false,"is_disabled":false,"rental_uris":{"android":"levelo://app?vid=b47dd2b6-9afa-434e-9ef2-8da3a637e038","ios":"levelo://app?vid=b47dd2b6-9afa-434e-9ef2-8da3a637e038"},"vehicle_type_id":"4","last_reported":1736284091,"current_range_meters":24000,"station_id":"ce4bhgh2rcd13ifvqfb0","pricing_plan_id":"cebpf4jnsgd1na2vs0mg"},{"bike_id":"4c79f864-3da8-4813-a506-a9595819fe25","system_id":"levelo_inurba_marseille","lat":43.25859,"lon":5.39889,"is_reserved":false,"is_disabled":false,"rental_uris":{"android":"levelo://app?vid=4c79f864-3da8-4813-a506-a9595819fe25","ios":"levelo://app?vid=4c79f864-3da8-4813-a506-a9595819fe25"},"vehicle_type_id":"4","last_reported":1736284091,"current_range_meters":38800,"station_id":"ce4bhl92rcd13ifvqghg","pricing_plan_id":"cebpf4jnsgd1na2vs0mg"},{"bike_id":"840e3f90-17d0-4c94-88a0-c5120c40cdea","system_id":"levelo_inurba_marseille","lat":43.25726,"lon":5.41106,"is_reserved":false,"is_disabled":true,"rental_uris":{"android":"levelo://app?vid=840e3f90-17d0-4c94-88a0-c5120c40cdea","ios":"levelo://app?vid=840e3f90-17d0-4c94-88a0-c5120c40cdea"},"vehicle_type_id":"4","last_reported":1736284091,"current_range_meters":38400,"station_id":"ce4bhkp2rcd13ifvqgd0","pricing_plan_id":"cebpf4jnsgd1na2vs0mg"},{"bike_id":"18989a28-842c-4216-9b41-9977ee09c012","system_id":"levelo_inurba_marseille","lat":43.27173,"lon":5.40956,"is_reserved":false,"is_disabled":false,"rental_uris":{"android":"levelo://app?vid=18989a28-842c-4216-9b41-9977ee09c012","ios":"levelo://app?vid=18989a28-842c-4216-9b41-9977ee09c012"},"vehicle_type_id":"4","last_reported":1736284091,"current_range_meters":39200,"station_id":"ce4bhl12rcd13ifvqgf0","pricing_plan_id":"cebpf4jnsgd1na2vs0mg"},{"bike_id":"2f68cdef-bffc-4037-b844-7b9747e6cb93","system_id":"levelo_inurba_marseille","lat":43.24395,"lon":5.37048,"is_reserved":false,"is_disabled":false,"rental_uris":{"android":"levelo://app?vid=2f68cdef-bffc-4037-b844-7b9747e6cb93","ios":"levelo://app?vid=2f68cdef-bffc-4037-b844-7b9747e6cb93"},"vehicle_type_id":"4","last_reported":1736284091,"current_range_meters":37600,"station_id":"ce4bhhh2rcd13ifvqfk0","pricing_plan_id":"cebpf4jnsgd1na2vs0mg"},{"bike_id":"90f8216f-fbb9-4598-9bab-eadf2338867f","system_id":"levelo_inurba_marseille","lat":43.23925,"lon":5.3668,"is_reserved":false,"is_disabled":false,"rental_uris":{"android":"levelo://app?vid=90f8216f-fbb9-4598-9bab-eadf2338867f","ios":"levelo://app?vid=90f8216f-fbb9-4598-9bab-eadf2338867f"},"vehicle_type_id":"4","last_reported":1736284091,"current_range_meters":28000,"station_id":"","pricing_plan_id":"cebpf4jnsgd1na2vs0mg"},{"bike_id":"410d2916-f558-4d13-a5f4-9cf5855b7b04","system_id":"levelo_inurba_marseille","lat":43.31165,"lon":5.38722,"is_reserved":false,"is_disabled":false,"rental_uris":{"android":"levelo://app?vid=410d2916-f558-4d13-a5f4-9cf5855b7b04","ios":"levelo://app?vid=410d2916-f558-4d13-a5f4-9cf5855b7b04"},"vehicle_type_id":"4","last_reported":1736284091,"current_range_meters":31200,"station_id":"ce4bgv12rcd13ifvqcp0","pricing_plan_id":"cebpf4jnsgd1na2vs0mg"},{"bike_id":"e17ac5d8-0dad-428c-8e18-f61456c149f3","system_id":"levelo_inurba_marseille","lat":43.284576,"lon":5.358961,"is_reserved":false,"is_disabled":false,"rental_uris":{"android":"levelo://app?vid=e17ac5d8-0dad-428c-8e18-f61456c149f3","ios":"levelo://app?vid=e17ac5d8-0dad-428c-8e18-f61456c149f3"},"vehicle_type_id":"4","last_reported":1736284091,"current_range_meters":22000,"station_id":"ce4bhah2rcd13ifvqei0","pricing_plan_id":"cebpf4jnsgd1na2vs0mg"},{"bike_id":"f315f1f6-15a6-45f1-b66d-ebc071343df0","system_id":"levelo_inurba_marseille","lat":43.29357,"lon":5.37847,"is_reserved":false,"is_disabled":true,"rental_uris":{"android":"levelo://app?vid=f315f1f6-15a6-45f1-b66d-ebc071343df0","ios":"levelo://app?vid=f315f1f6-15a6-45f1-b66d-ebc071343df0"},"vehicle_type_id":"4","last_reported":1736284091,"current_range_meters":35600,"station_id":"ce4bgjh2rcd13ifvqbf0","pricing_plan_id":"cebpf4jnsgd1na2vs0mg"},{"bike_id":"514d218d-b1d9-4d7b-9fa0-8ced26e21a3c","system_id":"levelo_inurba_marseille","lat":43.27213,"lon":5.40983,"is_reserved":false,"is_disabled":false,"rental_uris":{"android":"levelo://app?vid=514d218d-b1d9-4d7b-9fa0-8ced26e21a3c","ios":"levelo://app?vid=514d218d-b1d9-4d7b-9fa0-8ced26e21a3c"},"vehicle_type_id":"4","last_reported":1736284091,"current_range_meters":9200,"station_id":"ce4bhl12rcd13ifvqgf0","pricing_plan_id":"cebpf4jnsgd1na2vs0mg"},{"bike_id":"502b9a2d-7119-4752-a288-d02d6d3527f6","system_id":"levelo_inurba_marseille","lat":43.28468,"lon":5.35886,"is_reserved":false,"is_disabled":false,"rental_uris":{"android":"levelo://app?vid=502b9a2d-7119-4752-a288-d02d6d3527f6","ios":"levelo://app?vid=502b9a2d-7119-4752-a288-d02d6d3527f6"},"vehicle_type_id":"4","last_reported":1736284091,"current_range_meters":28400,"station_id":"ce4bhah2rcd13ifvqei0","pricing_plan_id":"cebpf4jnsgd1na2vs0mg"},{"bike_id":"c65db85f-c41b-4aea-96dd-1adc84049510","system_id":"levelo_inurba_marseille","lat":43.3169,"lon":5.40472,"is_reserved":false,"is_disabled":false,"rental_uris":{"android":"levelo://app?vid=c65db85f-c41b-4aea-96dd-1adc84049510","ios":"levelo://app?vid=c65db85f-c41b-4aea-96dd-1adc84049510"},"vehicle_type_id":"4","last_reported":1736284091,"current_range_meters":14800,"station_id":"ce4bh012rcd13ifvqd00","pricing_plan_id":"cebpf4jnsgd1na2vs0mg"},{"bike_id":"186bc04a-e627-48ec-bc84-8b718f462832","system_id":"levelo_inurba_marseille","lat":43.26479,"lon":5.39565,"is_reserved":false,"is_disabled":false,"rental_uris":{"android":"levelo://app?vid=186bc04a-e627-48ec-bc84-8b718f462832","ios":"levelo://app?vid=186bc04a-e627-48ec-bc84-8b718f462832"},"vehicle_type_id":"4","last_reported":1736284091,"current_range_meters":12400,"station_id":"ce4bhi12rcd13ifvqfq0","pricing_plan_id":"cebpf4jnsgd1na2vs0mg"},{"bike_id":"de77c04a-e189-4114-8dcf-0064c4147977","system_id":"levelo_inurba_marseille","lat":43.30422,"lon":5.41286,"is_reserved":false,"is_disabled":false,"rental_uris":{"android":"levelo://app?vid=de77c04a-e189-4114-8dcf-0064c4147977","ios":"levelo://app?vid=de77c04a-e189-4114-8dcf-0064c4147977"},"vehicle_type_id":"4","last_reported":1736284091,"current_range_meters":27200,"station_id":"ce4bhop2rcd13ifvqh8g","pricing_plan_id":"cebpf4jnsgd1na2vs0mg"},{"bike_id":"15bb3280-a48e-44f3-998c-09cc0aee946e","system_id":"levelo_inurba_marseille","lat":43.28472,"lon":5.35878,"is_reserved":false,"is_disabled":false,"rental_uris":{"android":"levelo://app?vid=15bb3280-a48e-44f3-998c-09cc0aee946e","ios":"levelo://app?vid=15bb3280-a48e-44f3-998c-09cc0aee946e"},"vehicle_type_id":"4","last_reported":1736284091,"current_range_meters":18000,"station_id":"ce4bhah2rcd13ifvqei0","pricing_plan_id":"cebpf4jnsgd1na2vs0mg"},{"bike_id":"4c01c68e-cb70-44cf-846c-f9de5e5ded9c","system_id":"levelo_inurba_marseille","lat":43.29569,"lon":5.39972,"is_reserved":false,"is_disabled":false,"rental_uris":{"android":"levelo://app?vid=4c01c68e-cb70-44cf-846c-f9de5e5ded9c","ios":"levelo://app?vid=4c01c68e-cb70-44cf-846c-f9de5e5ded9c"},"vehicle_type_id":"4","last_reported":1736284091,"current_range_meters":37600,"station_id":"ce4bh312rcd13ifvqdj0","pricing_plan_id":"cebpf4jnsgd1na2vs0mg"},{"bike_id":"bc86f23c-4371-4721-b514-43c753cee659","system_id":"levelo_inurba_marseille","lat":43.28001,"lon":5.40011,"is_reserved":false,"is_disabled":false,"rental_uris":{"android":"levelo://app?vid=bc86f23c-4371-4721-b514-43c753cee659","ios":"levelo://app?vid=bc86f23c-4371-4721-b514-43c753cee659"},"vehicle_type_id":"4","last_reported":1736284091,"current_range_meters":39200,"station_id":"ce4bho92rcd13ifvqh4g","pricing_plan_id":"cebpf4jnsgd1na2vs0mg"},{"bike_id":"ccefbdf4-df27-4947-9b01-eba3707af800","system_id":"levelo_inurba_marseille","lat":43.29537,"lon":5.38545,"is_reserved":false,"is_disabled":true,"rental_uris":{"android":"levelo://app?vid=ccefbdf4-df27-4947-9b01-eba3707af800","ios":"levelo://app?vid=ccefbdf4-df27-4947-9b01-eba3707af800"},"vehicle_type_id":"4","last_reported":1736284091,"current_range_meters":18800,"station_id":"ce4bgih2rcd13ifvqba0","pricing_plan_id":"cebpf4jnsgd1na2vs0mg"},{"bike_id":"ea60edce-76ab-4155-8e79-99022a30bcac","system_id":"levelo_inurba_marseille","lat":43.29546,"lon":5.42291,"is_reserved":false,"is_disabled":false,"rental_uris":{"android":"levelo://app?vid=ea60edce-76ab-4155-8e79-99022a30bcac","ios":"levelo://app?vid=ea60edce-76ab-4155-8e79-99022a30bcac"},"vehicle_type_id":"4","last_reported":1736284091,"current_range_meters":12800,"station_id":"ce4bhph2rcd13ifvqhdg","pricing_plan_id":"cebpf4jnsgd1na2vs0mg"},{"bike_id":"dca59e96-f9c4-48f8-8eb0-dd28ac186a97","system_id":"levelo_inurba_marseille","lat":43.30301,"lon":5.39211,"is_reserved":false,"is_disabled":false,"rental_uris":{"android":"levelo://app?vid=dca59e96-f9c4-48f8-8eb0-dd28ac186a97","ios":"levelo://app?vid=dca59e96-f9c4-48f8-8eb0-dd28ac186a97"},"vehicle_type_id":"4","last_reported":1736284091,"current_range_meters":20400,"station_id":"ce4bgkh2rcd13ifvqbk0","pricing_plan_id":"cebpf4jnsgd1na2vs0mg"},{"bike_id":"21c69aac-4a7e-475d-b515-36553bb5bf0e","system_id":"levelo_inurba_marseille","lat":43.29533,"lon":5.39034,"is_reserved":false,"is_disabled":false,"rental_uris":{"android":"levelo://app?vid=21c69aac-4a7e-475d-b515-36553bb5bf0e","ios":"levelo://app?vid=21c69aac-4a7e-475d-b515-36553bb5bf0e"},"vehicle_type_id":"4","last_reported":1736284091,"current_range_meters":38800,"station_id":"ce4bh3p2rcd13ifvqdp0","pricing_plan_id":"cebpf4jnsgd1na2vs0mg"},{"bike_id":"cbd2e76c-881c-4903-85d5-3e956be06ddd","system_id":"levelo_inurba_marseille","lat":43.29808,"lon":5.4039,"is_reserved":false,"is_disabled":false,"rental_uris":{"android":"levelo://app?vid=cbd2e76c-881c-4903-85d5-3e956be06ddd","ios":"levelo://app?vid=cbd2e76c-881c-4903-85d5-3e956be06ddd"},"vehicle_type_id":"4","last_reported":1736284091,"current_range_meters":38800,"station_id":"ce4bh112rcd13ifvqd90","pricing_plan_id":"cebpf4jnsgd1na2vs0mg"},{"bike_id":"95cc5ce5-aaa6-4e26-9dfd-a1aa159c85df","system_id":"levelo_inurba_marseille","lat":43.29793,"lon":5.39336,"is_reserved":false,"is_disabled":false,"rental_uris":{"android":"levelo://app?vid=95cc5ce5-aaa6-4e26-9dfd-a1aa159c85df","ios":"levelo://app?vid=95cc5ce5-aaa6-4e26-9dfd-a1aa159c85df"},"vehicle_type_id":"4","last_reported":1736284091,"current_range_meters":38400,"station_id":"chh1huq6cuj3fo74tm60","pricing_plan_id":"cebpf4jnsgd1na2vs0mg"},{"bike_id":"b13965eb-7a3e-487c-8f4f-1d2936af4009","system_id":"levelo_inurba_marseille","lat":43.25825,"lon":5.39408,"is_reserved":false,"is_disabled":true,"rental_uris":{"android":"levelo://app?vid=b13965eb-7a3e-487c-8f4f-1d2936af4009","ios":"levelo://app?vid=b13965eb-7a3e-487c-8f4f-1d2936af4009"},"vehicle_type_id":"4","last_reported":1736284091,"current_range_meters":1600,"station_id":"ce4bhip2rcd13ifvqft0","pricing_plan_id":"cebpf4jnsgd1na2vs0mg"},{"bike_id":"2caa7ff0-56a0-4a66-805c-847ccd11c31b","system_id":"levelo_inurba_marseille","lat":43.31329,"lon":5.39682,"is_reserved":false,"is_disabled":false,"rental_uris":{"android":"levelo://app?vid=2caa7ff0-56a0-4a66-805c-847ccd11c31b","ios":"levelo://app?vid=2caa7ff0-56a0-4a66-805c-847ccd11c31b"},"vehicle_type_id":"4","last_reported":1736284091,"current_range_meters":38800,"station_id":"ce4bgvp2rcd13ifvqcu0","pricing_plan_id":"cebpf4jnsgd1na2vs0mg"},{"bike_id":"7ed041a4-7bdf-4f3c-bce0-af2e72da1242","system_id":"levelo_inurba_marseille","lat":43.25579,"lon":5.38245,"is_reserved":false,"is_disabled":false,"rental_uris":{"android":"levelo://app?vid=7ed041a4-7bdf-4f3c-bce0-af2e72da1242","ios":"levelo://app?vid=7ed041a4-7bdf-4f3c-bce0-af2e72da1242"},"vehicle_type_id":"4","last_reported":1736284091,"current_range_meters":7200,"station_id":"ce4bhih2rcd13ifvqfs0","pricing_plan_id":"cebpf4jnsgd1na2vs0mg"},{"bike_id":"3ad0f3ed-1061-459e-b238-515ecfd1abd9","system_id":"levelo_inurba_marseille","lat":43.30788,"lon":5.37653,"is_reserved":false,"is_disabled":false,"rental_uris":{"android":"levelo://app?vid=3ad0f3ed-1061-459e-b238-515ecfd1abd9","ios":"levelo://app?vid=3ad0f3ed-1061-459e-b238-515ecfd1abd9"},"vehicle_type_id":"4","last_reported":1736284091,"current_range_meters":39200,"station_id":"ce4bgv92rcd13ifvqcq0","pricing_plan_id":"cebpf4jnsgd1na2vs0mg"},{"bike_id":"637c9e25-6ec5-4d5c-9ec9-ed6c73dcb821","system_id":"levelo_inurba_marseille","lat":43.31713,"lon":5.37748,"is_reserved":false,"is_disabled":false,"rental_uris":{"android":"levelo://app?vid=637c9e25-6ec5-4d5c-9ec9-ed6c73dcb821","ios":"levelo://app?vid=637c9e25-6ec5-4d5c-9ec9-ed6c73dcb821"},"vehicle_type_id":"4","last_reported":1736284091,"current_range_meters":34000,"station_id":"ce4bgth2rcd13ifvqch0","pricing_plan_id":"cebpf4jnsgd1na2vs0mg"},{"bike_id":"348e1602-1bb0-4b51-9ba3-012118339c74","system_id":"levelo_inurba_marseille","lat":43.2717,"lon":5.40949,"is_reserved":false,"is_disabled":false,"rental_uris":{"android":"levelo://app?vid=348e1602-1bb0-4b51-9ba3-012118339c74","ios":"levelo://app?vid=348e1602-1bb0-4b51-9ba3-012118339c74"},"vehicle_type_id":"4","last_reported":1736284091,"current_range_meters":35200,"station_id":"ce4bhl12rcd13ifvqgf0","pricing_plan_id":"cebpf4jnsgd1na2vs0mg"},{"bike_id":"b02fab9b-85e2-4691-a949-9c3558950865","system_id":"levelo_inurba_marseille","lat":43.31332,"lon":5.39698,"is_reserved":false,"is_disabled":false,"rental_uris":{"android":"levelo://app?vid=b02fab9b-85e2-4691-a949-9c3558950865","ios":"levelo://app?vid=b02fab9b-85e2-4691-a949-9c3558950865"},"vehicle_type_id":"4","last_reported":1736284091,"current_range_meters":38000,"station_id":"ce4bgvp2rcd13ifvqcu0","pricing_plan_id":"cebpf4jnsgd1na2vs0mg"},{"bike_id":"be418997-7c9d-4737-98e3-b90706366001","system_id":"levelo_inurba_marseille","lat":43.315264,"lon":5.380334,"is_reserved":false,"is_disabled":false,"rental_uris":{"android":"levelo://app?vid=be418997-7c9d-4737-98e3-b90706366001","ios":"levelo://app?vid=be418997-7c9d-4737-98e3-b90706366001"},"vehicle_type_id":"4","last_reported":1736284091,"current_range_meters":27600,"station_id":"ce4bhsp2rcd13ifvqi50","pricing_plan_id":"cebpf4jnsgd1na2vs0mg"},{"bike_id":"5671a7cc-1094-4b46-906d-b97f733ad9e2","system_id":"levelo_inurba_marseille","lat":43.30318,"lon":5.40439,"is_reserved":false,"is_disabled":true,"rental_uris":{"android":"levelo://app?vid=5671a7cc-1094-4b46-906d-b97f733ad9e2","ios":"levelo://app?vid=5671a7cc-1094-4b46-906d-b97f733ad9e2"},"vehicle_type_id":"4","last_reported":1736284091,"current_range_meters":36000,"station_id":"ce4bh012rcd13ifvqd10","pricing_plan_id":"cebpf4jnsgd1na2vs0mg"},{"bike_id":"39b43ba6-0256-4c8f-b96b-d9500d716617","system_id":"levelo_inurba_marseille","lat":43.26804,"lon":5.40262,"is_reserved":false,"is_disabled":false,"rental_uris":{"android":"levelo://app?vid=39b43ba6-0256-4c8f-b96b-d9500d716617","ios":"levelo://app?vid=39b43ba6-0256-4c8f-b96b-d9500d716617"},"vehicle_type_id":"4","last_reported":1736284091,"current_range_meters":38800,"station_id":"ce501612rcd8frsf0b60","pricing_plan_id":"cebpf4jnsgd1na2vs0mg"},{"bike_id":"beb0f8f6-6b97-4754-a562-6cc20c2e53f0","system_id":"levelo_inurba_marseille","lat":43.2893,"lon":5.36384,"is_reserved":false,"is_disabled":false,"rental_uris":{"android":"levelo://app?vid=beb0f8f6-6b97-4754-a562-6cc20c2e53f0","ios":"levelo://app?vid=beb0f8f6-6b97-4754-a562-6cc20c2e53f0"},"vehicle_type_id":"4","last_reported":1736284091,"current_range_meters":29600,"station_id":"ce4bhc92rcd13ifvqetg","pricing_plan_id":"cebpf4jnsgd1na2vs0mg"},{"bike_id":"005c2044-0c78-410b-b1cd-e1e9feaa0e05","system_id":"levelo_inurba_marseille","lat":43.23975,"lon":5.36597,"is_reserved":false,"is_disabled":false,"rental_uris":{"android":"levelo://app?vid=005c2044-0c78-410b-b1cd-e1e9feaa0e05","ios":"levelo://app?vid=005c2044-0c78-410b-b1cd-e1e9feaa0e05"},"vehicle_type_id":"4","last_reported":1736284091,"current_range_meters":16800,"station_id":"ce4bhi12rcd13ifvqfp0","pricing_plan_id":"cebpf4jnsgd1na2vs0mg"},{"bike_id":"db190856-6440-4075-89bd-6bb8e507459d","system_id":"levelo_inurba_marseille","lat":43.23968,"lon":5.36625,"is_reserved":false,"is_disabled":false,"rental_uris":{"android":"levelo://app?vid=db190856-6440-4075-89bd-6bb8e507459d","ios":"levelo://app?vid=db190856-6440-4075-89bd-6bb8e507459d"},"vehicle_type_id":"4","last_reported":1736284091,"current_range_meters":11600,"station_id":"ce4bhi12rcd13ifvqfp0","pricing_plan_id":"cebpf4jnsgd1na2vs0mg"},{"bike_id":"d9a07ef6-087e-4a9e-aa1e-dd5b0fa1016f","system_id":"levelo_inurba_marseille","lat":43.31375,"lon":5.38501,"is_reserved":false,"is_disabled":false,"rental_uris":{"android":"levelo://app?vid=d9a07ef6-087e-4a9e-aa1e-dd5b0fa1016f","ios":"levelo://app?vid=d9a07ef6-087e-4a9e-aa1e-dd5b0fa1016f"},"vehicle_type_id":"4","last_reported":1736284091,"current_range_meters":38400,"station_id":"ce4bgt92rcd13ifvqcf0","pricing_plan_id":"cebpf4jnsgd1na2vs0mg"},{"bike_id":"de58ab02-629a-46e0-8591-d91315e360fd","system_id":"levelo_inurba_marseille","lat":43.26482,"lon":5.39543,"is_reserved":false,"is_disabled":false,"rental_uris":{"android":"levelo://app?vid=de58ab02-629a-46e0-8591-d91315e360fd","ios":"levelo://app?vid=de58ab02-629a-46e0-8591-d91315e360fd"},"vehicle_type_id":"4","last_reported":1736284091,"current_range_meters":38800,"station_id":"ce4bhi12rcd13ifvqfq0","pricing_plan_id":"cebpf4jnsgd1na2vs0mg"},{"bike_id":"3ab628e7-3c3e-48ed-8b68-50e0ec1e2c0c","system_id":"levelo_inurba_marseille","lat":43.30252,"lon":5.40058,"is_reserved":false,"is_disabled":false,"rental_uris":{"android":"levelo://app?vid=3ab628e7-3c3e-48ed-8b68-50e0ec1e2c0c","ios":"levelo://app?vid=3ab628e7-3c3e-48ed-8b68-50e0ec1e2c0c"},"vehicle_type_id":"4","last_reported":1736284091,"current_range_meters":31200,"station_id":"ce4bgvh2rcd13ifvqcs0","pricing_plan_id":"cebpf4jnsgd1na2vs0mg"},{"bike_id":"94ae9d8d-339e-41f5-bf14-1e9df4322647","system_id":"levelo_inurba_marseille","lat":43.27501,"lon":5.42443,"is_reserved":false,"is_disabled":true,"rental_uris":{"android":"levelo://app?vid=94ae9d8d-339e-41f5-bf14-1e9df4322647","ios":"levelo://app?vid=94ae9d8d-339e-41f5-bf14-1e9df4322647"},"vehicle_type_id":"4","last_reported":1736284091,"current_range_meters":35200,"station_id":"ce4bhn92rcd13ifvqgrg","pricing_plan_id":"cebpf4jnsgd1na2vs0mg"},{"bike_id":"6a595de3-0911-46a9-bdbf-4cca5437105e","system_id":"levelo_inurba_marseille","lat":43.231993,"lon":5.355479,"is_reserved":false,"is_disabled":false,"rental_uris":{"android":"levelo://app?vid=6a595de3-0911-46a9-bdbf-4cca5437105e","ios":"levelo://app?vid=6a595de3-0911-46a9-bdbf-4cca5437105e"},"vehicle_type_id":"4","last_reported":1736284091,"current_range_meters":14800,"station_id":"ce4bhu92rcd13ifvqi70","pricing_plan_id":"cebpf4jnsgd1na2vs0mg"},{"bike_id":"641d8acc-50b2-4173-ab23-c70f2a11d28e","system_id":"levelo_inurba_marseille","lat":43.28154,"lon":5.4263,"is_reserved":false,"is_disabled":true,"rental_uris":{"android":"levelo://app?vid=641d8acc-50b2-4173-ab23-c70f2a11d28e","ios":"levelo://app?vid=641d8acc-50b2-4173-ab23-c70f2a11d28e"},"vehicle_type_id":"4","last_reported":1736284091,"current_range_meters":22800,"station_id":"ce4bhnh2rcd13ifvqgug","pricing_plan_id":"cebpf4jnsgd1na2vs0mg"},{"bike_id":"71070e26-a9d7-4eae-99da-f42f1907a4db","system_id":"levelo_inurba_marseille","lat":43.27569,"lon":5.38416,"is_reserved":false,"is_disabled":false,"rental_uris":{"android":"levelo://app?vid=71070e26-a9d7-4eae-99da-f42f1907a4db","ios":"levelo://app?vid=71070e26-a9d7-4eae-99da-f42f1907a4db"},"vehicle_type_id":"4","last_reported":1736284091,"current_range_meters":38000,"station_id":"ce4bhh92rcd13ifvqfi0","pricing_plan_id":"cebpf4jnsgd1na2vs0mg"},{"bike_id":"15e503f5-1d52-42d6-a98f-33a61fd8b554","system_id":"levelo_inurba_marseille","lat":43.28468,"lon":5.35866,"is_reserved":false,"is_disabled":true,"rental_uris":{"android":"levelo://app?vid=15e503f5-1d52-42d6-a98f-33a61fd8b554","ios":"levelo://app?vid=15e503f5-1d52-42d6-a98f-33a61fd8b554"},"vehicle_type_id":"4","last_reported":1736284091,"current_range_meters":14400,"station_id":"ce4bhah2rcd13ifvqei0","pricing_plan_id":"cebpf4jnsgd1na2vs0mg"},{"bike_id":"a0ea706c-52a9-47ae-b5d9-ab0e73c25377","system_id":"levelo_inurba_marseille","lat":43.30881,"lon":5.37186,"is_reserved":false,"is_disabled":false,"rental_uris":{"android":"levelo://app?vid=a0ea706c-52a9-47ae-b5d9-ab0e73c25377","ios":"levelo://app?vid=a0ea706c-52a9-47ae-b5d9-ab0e73c25377"},"vehicle_type_id":"4","last_reported":1736284091,"current_range_meters":37600,"station_id":"ce4bguh2rcd13ifvqckg","pricing_plan_id":"cebpf4jnsgd1na2vs0mg"},{"bike_id":"e6fc5c41-e7d8-48a1-8612-f652fb7a4e85","system_id":"levelo_inurba_marseille","lat":43.29417,"lon":5.38621,"is_reserved":false,"is_disabled":false,"rental_uris":{"android":"levelo://app?vid=e6fc5c41-e7d8-48a1-8612-f652fb7a4e85","ios":"levelo://app?vid=e6fc5c41-e7d8-48a1-8612-f652fb7a4e85"},"vehicle_type_id":"4","last_reported":1736284091,"current_range_meters":38800,"station_id":"ce4bh2h2rcd13ifvqdh0","pricing_plan_id":"cebpf4jnsgd1na2vs0mg"},{"bike_id":"2efc3d70-beec-4b72-95a6-75bd5ab3438d","system_id":"levelo_inurba_marseille","lat":43.30797,"lon":5.37649,"is_reserved":false,"is_disabled":false,"rental_uris":{"android":"levelo://app?vid=2efc3d70-beec-4b72-95a6-75bd5ab3438d","ios":"levelo://app?vid=2efc3d70-beec-4b72-95a6-75bd5ab3438d"},"vehicle_type_id":"4","last_reported":1736284091,"current_range_meters":38800,"station_id":"ce4bgv92rcd13ifvqcq0","pricing_plan_id":"cebpf4jnsgd1na2vs0mg"},{"bike_id":"44ab28fa-0b3d-469d-97ff-06319e1159ef","system_id":"levelo_inurba_marseille","lat":43.23967,"lon":5.36635,"is_reserved":false,"is_disabled":false,"rental_uris":{"android":"levelo://app?vid=44ab28fa-0b3d-469d-97ff-06319e1159ef","ios":"levelo://app?vid=44ab28fa-0b3d-469d-97ff-06319e1159ef"},"vehicle_type_id":"4","last_reported":1736284091,"current_range_meters":17600,"station_id":"ce4bhi12rcd13ifvqfp0","pricing_plan_id":"cebpf4jnsgd1na2vs0mg"},{"bike_id":"a5180145-a807-483d-a45b-ef2f16240458","system_id":"levelo_inurba_marseille","lat":43.3026,"lon":5.40082,"is_reserved":false,"is_disabled":false,"rental_uris":{"android":"levelo://app?vid=a5180145-a807-483d-a45b-ef2f16240458","ios":"levelo://app?vid=a5180145-a807-483d-a45b-ef2f16240458"},"vehicle_type_id":"4","last_reported":1736284091,"current_range_meters":39200,"station_id":"ce4bgvh2rcd13ifvqcs0","pricing_plan_id":"cebpf4jnsgd1na2vs0mg"},{"bike_id":"5da25934-6d18-47f1-9814-e42b3a4c77ef","system_id":"levelo_inurba_marseille","lat":43.25825,"lon":5.39429,"is_reserved":false,"is_disabled":false,"rental_uris":{"android":"levelo://app?vid=5da25934-6d18-47f1-9814-e42b3a4c77ef","ios":"levelo://app?vid=5da25934-6d18-47f1-9814-e42b3a4c77ef"},"vehicle_type_id":"4","last_reported":1736284091,"current_range_meters":38800,"station_id":"ce4bhip2rcd13ifvqft0","pricing_plan_id":"cebpf4jnsgd1na2vs0mg"},{"bike_id":"fa5f3748-a4e1-4850-b297-ba06d910ebea","system_id":"levelo_inurba_marseille","lat":43.29567,"lon":5.39974,"is_reserved":false,"is_disabled":false,"rental_uris":{"android":"levelo://app?vid=fa5f3748-a4e1-4850-b297-ba06d910ebea","ios":"levelo://app?vid=fa5f3748-a4e1-4850-b297-ba06d910ebea"},"vehicle_type_id":"4","last_reported":1736284091,"current_range_meters":32400,"station_id":"ce4bh312rcd13ifvqdj0","pricing_plan_id":"cebpf4jnsgd1na2vs0mg"},{"bike_id":"21979858-6bd4-4623-93e3-10a15afddce5","system_id":"levelo_inurba_marseille","lat":43.292991,"lon":5.374633,"is_reserved":false,"is_disabled":true,"rental_uris":{"android":"levelo://app?vid=21979858-6bd4-4623-93e3-10a15afddce5","ios":"levelo://app?vid=21979858-6bd4-4623-93e3-10a15afddce5"},"vehicle_type_id":"4","last_reported":1736284091,"current_range_meters":34800,"station_id":"ce4bh5p2rcd13ifvqe4g","pricing_plan_id":"cebpf4jnsgd1na2vs0mg"},{"bike_id":"6d88bbf0-f428-4bd4-ab8a-2ee8d5e7c74e","system_id":"levelo_inurba_marseille","lat":43.230726,"lon":5.354917,"is_reserved":false,"is_disabled":false,"rental_uris":{"android":"levelo://app?vid=6d88bbf0-f428-4bd4-ab8a-2ee8d5e7c74e","ios":"levelo://app?vid=6d88bbf0-f428-4bd4-ab8a-2ee8d5e7c74e"},"vehicle_type_id":"4","last_reported":1736284091,"current_range_meters":37600,"station_id":"cpo3342slgdg3j2ifvpg","pricing_plan_id":"cebpf4jnsgd1na2vs0mg"},{"bike_id":"167c24b2-cea6-4450-aa93-c6475e41dac0","system_id":"levelo_inurba_marseille","lat":43.28202,"lon":5.39048,"is_reserved":false,"is_disabled":false,"rental_uris":{"android":"levelo://app?vid=167c24b2-cea6-4450-aa93-c6475e41dac0","ios":"levelo://app?vid=167c24b2-cea6-4450-aa93-c6475e41dac0"},"vehicle_type_id":"4","last_reported":1736284091,"current_range_meters":14000,"station_id":"","pricing_plan_id":"cebpf4jnsgd1na2vs0mg"},{"bike_id":"fc28be46-23fe-4f09-821c-8a3bd21ca77c","system_id":"levelo_inurba_marseille","lat":43.25595,"lon":5.38271,"is_reserved":false,"is_disabled":false,"rental_uris":{"android":"levelo://app?vid=fc28be46-23fe-4f09-821c-8a3bd21ca77c","ios":"levelo://app?vid=fc28be46-23fe-4f09-821c-8a3bd21ca77c"},"vehicle_type_id":"4","last_reported":1736284091,"current_range_meters":38800,"station_id":"ce4bhih2rcd13ifvqfs0","pricing_plan_id":"cebpf4jnsgd1na2vs0mg"},{"bike_id":"d9b94877-260c-43f6-ac03-3acaec49d5bb","system_id":"levelo_inurba_marseille","lat":43.29431,"lon":5.38619,"is_reserved":false,"is_disabled":false,"rental_uris":{"android":"levelo://app?vid=d9b94877-260c-43f6-ac03-3acaec49d5bb","ios":"levelo://app?vid=d9b94877-260c-43f6-ac03-3acaec49d5bb"},"vehicle_type_id":"4","last_reported":1736284091,"current_range_meters":23200,"station_id":"ce4bh2h2rcd13ifvqdh0","pricing_plan_id":"cebpf4jnsgd1na2vs0mg"},{"bike_id":"7d344767-f4f5-40b5-a242-f05d74af3616","system_id":"levelo_inurba_marseille","lat":43.28724,"lon":5.37944,"is_reserved":false,"is_disabled":false,"rental_uris":{"android":"levelo://app?vid=7d344767-f4f5-40b5-a242-f05d74af3616","ios":"levelo://app?vid=7d344767-f4f5-40b5-a242-f05d74af3616"},"vehicle_type_id":"4","last_reported":1736284091,"current_range_meters":24000,"station_id":"ce4bh9p2rcd13ifvqec0","pricing_plan_id":"cebpf4jnsgd1na2vs0mg"},{"bike_id":"104cbb78-94d6-4c16-8937-3293b0d5b094","system_id":"levelo_inurba_marseille","lat":43.29531,"lon":5.38538,"is_reserved":false,"is_disabled":false,"rental_uris":{"android":"levelo://app?vid=104cbb78-94d6-4c16-8937-3293b0d5b094","ios":"levelo://app?vid=104cbb78-94d6-4c16-8937-3293b0d5b094"},"vehicle_type_id":"4","last_reported":1736284091,"current_range_meters":28400,"station_id":"ce4bgih2rcd13ifvqba0","pricing_plan_id":"cebpf4jnsgd1na2vs0mg"},{"bike_id":"768e9c78-d0a3-4809-a132-8653852c97b2","system_id":"levelo_inurba_marseille","lat":43.27502,"lon":5.42457,"is_reserved":false,"is_disabled":false,"rental_uris":{"android":"levelo://app?vid=768e9c78-d0a3-4809-a132-8653852c97b2","ios":"levelo://app?vid=768e9c78-d0a3-4809-a132-8653852c97b2"},"vehicle_type_id":"4","last_reported":1736284091,"current_range_meters":22400,"station_id":"ce4bhn92rcd13ifvqgrg","pricing_plan_id":"cebpf4jnsgd1na2vs0mg"},{"bike_id":"c8bdbac6-7625-4761-9fb5-560335ecaa40","system_id":"levelo_inurba_marseille","lat":43.29033,"lon":5.37559,"is_reserved":false,"is_disabled":false,"rental_uris":{"android":"levelo://app?vid=c8bdbac6-7625-4761-9fb5-560335ecaa40","ios":"levelo://app?vid=c8bdbac6-7625-4761-9fb5-560335ecaa40"},"vehicle_type_id":"4","last_reported":1736284091,"current_range_meters":38800,"station_id":"ce4bh692rcd13ifvqe90","pricing_plan_id":"cebpf4jnsgd1na2vs0mg"},{"bike_id":"3a4fd31b-2034-4305-bd96-b8ee7498ba97","system_id":"levelo_inurba_marseille","lat":43.28942,"lon":5.39636,"is_reserved":false,"is_disabled":false,"rental_uris":{"android":"levelo://app?vid=3a4fd31b-2034-4305-bd96-b8ee7498ba97","ios":"levelo://app?vid=3a4fd31b-2034-4305-bd96-b8ee7498ba97"},"vehicle_type_id":"4","last_reported":1736284091,"current_range_meters":12000,"station_id":"ce4bh3h2rcd13ifvqdn0","pricing_plan_id":"cebpf4jnsgd1na2vs0mg"},{"bike_id":"f4485267-9cb2-445f-b45d-ced2f7f46376","system_id":"levelo_inurba_marseille","lat":43.28668,"lon":5.36351,"is_reserved":false,"is_disabled":false,"rental_uris":{"android":"levelo://app?vid=f4485267-9cb2-445f-b45d-ced2f7f46376","ios":"levelo://app?vid=f4485267-9cb2-445f-b45d-ced2f7f46376"},"vehicle_type_id":"4","last_reported":1736284091,"current_range_meters":37600,"station_id":"ce4bhah2rcd13ifvqej0","pricing_plan_id":"cebpf4jnsgd1na2vs0mg"},{"bike_id":"d0f7f7c9-5d11-43e5-ac3d-598fa4404ec8","system_id":"levelo_inurba_marseille","lat":43.23235,"lon":5.39969,"is_reserved":false,"is_disabled":false,"rental_uris":{"android":"levelo://app?vid=d0f7f7c9-5d11-43e5-ac3d-598fa4404ec8","ios":"levelo://app?vid=d0f7f7c9-5d11-43e5-ac3d-598fa4404ec8"},"vehicle_type_id":"4","last_reported":1736284091,"current_range_meters":21600,"station_id":"","pricing_plan_id":"cebpf4jnsgd1na2vs0mg"},{"bike_id":"7cb6f5cc-452f-419e-9da1-f27fcae37391","system_id":"levelo_inurba_marseille","lat":43.28637,"lon":5.36381,"is_reserved":false,"is_disabled":false,"rental_uris":{"android":"levelo://app?vid=7cb6f5cc-452f-419e-9da1-f27fcae37391","ios":"levelo://app?vid=7cb6f5cc-452f-419e-9da1-f27fcae37391"},"vehicle_type_id":"4","last_reported":1736284091,"current_range_meters":38800,"station_id":"ce4bhah2rcd13ifvqej0","pricing_plan_id":"cebpf4jnsgd1na2vs0mg"},{"bike_id":"664c9e1f-b826-49b9-9392-47dc504cd46e","system_id":"levelo_inurba_marseille","lat":43.287055,"lon":5.399903,"is_reserved":false,"is_disabled":false,"rental_uris":{"android":"levelo://app?vid=664c9e1f-b826-49b9-9392-47dc504cd46e","ios":"levelo://app?vid=664c9e1f-b826-49b9-9392-47dc504cd46e"},"vehicle_type_id":"4","last_reported":1736284091,"current_range_meters":30000,"station_id":"ce4bho92rcd13ifvqh3g","pricing_plan_id":"cebpf4jnsgd1na2vs0mg"},{"bike_id":"b3e74576-3661-44a1-9920-c9d87eb9988a","system_id":"levelo_inurba_marseille","lat":43.32657,"lon":5.40991,"is_reserved":false,"is_disabled":false,"rental_uris":{"android":"levelo://app?vid=b3e74576-3661-44a1-9920-c9d87eb9988a","ios":"levelo://app?vid=b3e74576-3661-44a1-9920-c9d87eb9988a"},"vehicle_type_id":"4","last_reported":1736284091,"current_range_meters":20400,"station_id":"ce4bhpp2rcd13ifvqhgg","pricing_plan_id":"cebpf4jnsgd1na2vs0mg"},{"bike_id":"46601624-4642-4090-b267-fe48ebb0857a","system_id":"levelo_inurba_marseille","lat":43.30248,"lon":5.40073,"is_reserved":false,"is_disabled":false,"rental_uris":{"android":"levelo://app?vid=46601624-4642-4090-b267-fe48ebb0857a","ios":"levelo://app?vid=46601624-4642-4090-b267-fe48ebb0857a"},"vehicle_type_id":"4","last_reported":1736284091,"current_range_meters":37600,"station_id":"ce4bgvh2rcd13ifvqcs0","pricing_plan_id":"cebpf4jnsgd1na2vs0mg"},{"bike_id":"257c7a47-4074-4a91-b13c-b76f6fa570cc","system_id":"levelo_inurba_marseille","lat":43.25568,"lon":5.38221,"is_reserved":false,"is_disabled":false,"rental_uris":{"android":"levelo://app?vid=257c7a47-4074-4a91-b13c-b76f6fa570cc","ios":"levelo://app?vid=257c7a47-4074-4a91-b13c-b76f6fa570cc"},"vehicle_type_id":"4","last_reported":1736284091,"current_range_meters":30000,"station_id":"ce4bhih2rcd13ifvqfs0","pricing_plan_id":"cebpf4jnsgd1na2vs0mg"},{"bike_id":"cdfea266-e5fd-4018-a292-1ba3701f72dd","system_id":"levelo_inurba_marseille","lat":43.25488,"lon":5.37638,"is_reserved":false,"is_disabled":false,"rental_uris":{"android":"levelo://app?vid=cdfea266-e5fd-4018-a292-1ba3701f72dd","ios":"levelo://app?vid=cdfea266-e5fd-4018-a292-1ba3701f72dd"},"vehicle_type_id":"4","last_reported":1736284091,"current_range_meters":30400,"station_id":"ce4bhh12rcd13ifvqff0","pricing_plan_id":"cebpf4jnsgd1na2vs0mg"},{"bike_id":"67d1058b-5c38-4a0a-aa24-783a66cd9fd3","system_id":"levelo_inurba_marseille","lat":43.3041,"lon":5.41276,"is_reserved":false,"is_disabled":false,"rental_uris":{"android":"levelo://app?vid=67d1058b-5c38-4a0a-aa24-783a66cd9fd3","ios":"levelo://app?vid=67d1058b-5c38-4a0a-aa24-783a66cd9fd3"},"vehicle_type_id":"4","last_reported":1736284091,"current_range_meters":38800,"station_id":"ce4bhop2rcd13ifvqh8g","pricing_plan_id":"cebpf4jnsgd1na2vs0mg"},{"bike_id":"d17d631b-7434-4c3f-a667-cb43ae2fd84f","system_id":"levelo_inurba_marseille","lat":43.28824,"lon":5.3584,"is_reserved":false,"is_disabled":false,"rental_uris":{"android":"levelo://app?vid=d17d631b-7434-4c3f-a667-cb43ae2fd84f","ios":"levelo://app?vid=d17d631b-7434-4c3f-a667-cb43ae2fd84f"},"vehicle_type_id":"4","last_reported":1736284091,"current_range_meters":32800,"station_id":"ce4bhb12rcd13ifvqem0","pricing_plan_id":"cebpf4jnsgd1na2vs0mg"},{"bike_id":"cf55238d-3e2d-485d-8238-c5609593f49b","system_id":"levelo_inurba_marseille","lat":43.26746,"lon":5.38151,"is_reserved":false,"is_disabled":true,"rental_uris":{"android":"levelo://app?vid=cf55238d-3e2d-485d-8238-c5609593f49b","ios":"levelo://app?vid=cf55238d-3e2d-485d-8238-c5609593f49b"},"vehicle_type_id":"4","last_reported":1736284091,"current_range_meters":24800,"station_id":"ce4bhg92rcd13ifvqf90","pricing_plan_id":"cebpf4jnsgd1na2vs0mg"},{"bike_id":"336be5b4-41be-4c93-8b79-276dcd225506","system_id":"levelo_inurba_marseille","lat":43.29203,"lon":5.36015,"is_reserved":false,"is_disabled":true,"rental_uris":{"android":"levelo://app?vid=336be5b4-41be-4c93-8b79-276dcd225506","ios":"levelo://app?vid=336be5b4-41be-4c93-8b79-276dcd225506"},"vehicle_type_id":"4","last_reported":1736284091,"current_range_meters":28800,"station_id":"","pricing_plan_id":"cebpf4jnsgd1na2vs0mg"},{"bike_id":"e755b915-8295-4482-af40-2672f6d45ee4","system_id":"levelo_inurba_marseille","lat":43.29034,"lon":5.38646,"is_reserved":false,"is_disabled":false,"rental_uris":{"android":"levelo://app?vid=e755b915-8295-4482-af40-2672f6d45ee4","ios":"levelo://app?vid=e755b915-8295-4482-af40-2672f6d45ee4"},"vehicle_type_id":"4","last_reported":1736284091,"current_range_meters":8400,"station_id":"ce4bh4p2rcd13ifvqe0g","pricing_plan_id":"cebpf4jnsgd1na2vs0mg"},{"bike_id":"f69b77cd-6d5e-4725-bf20-65ce5cc10847","system_id":"levelo_inurba_marseille","lat":43.29921,"lon":5.39729,"is_reserved":false,"is_disabled":false,"rental_uris":{"android":"levelo://app?vid=f69b77cd-6d5e-4725-bf20-65ce5cc10847","ios":"levelo://app?vid=f69b77cd-6d5e-4725-bf20-65ce5cc10847"},"vehicle_type_id":"4","last_reported":1736284091,"current_range_meters":38800,"station_id":"ce4bh0h2rcd13ifvqd50","pricing_plan_id":"cebpf4jnsgd1na2vs0mg"},{"bike_id":"a9832cae-9c90-4e32-b592-d87dfcb6ad90","system_id":"levelo_inurba_marseille","lat":43.30877,"lon":5.39648,"is_reserved":false,"is_disabled":false,"rental_uris":{"android":"levelo://app?vid=a9832cae-9c90-4e32-b592-d87dfcb6ad90","ios":"levelo://app?vid=a9832cae-9c90-4e32-b592-d87dfcb6ad90"},"vehicle_type_id":"4","last_reported":1736284091,"current_range_meters":10800,"station_id":"ce4bh012rcd13ifvqcv0","pricing_plan_id":"cebpf4jnsgd1na2vs0mg"},{"bike_id":"359c99d3-e9a6-4317-9ff6-fe07a6e6fedd","system_id":"levelo_inurba_marseille","lat":43.32051,"lon":5.41538,"is_reserved":false,"is_disabled":false,"rental_uris":{"android":"levelo://app?vid=359c99d3-e9a6-4317-9ff6-fe07a6e6fedd","ios":"levelo://app?vid=359c99d3-e9a6-4317-9ff6-fe07a6e6fedd"},"vehicle_type_id":"4","last_reported":1736284091,"current_range_meters":38800,"station_id":"ce4bhq92rcd13ifvqhkg","pricing_plan_id":"cebpf4jnsgd1na2vs0mg"},{"bike_id":"311e38b6-ab5a-4a2c-8b41-6425f4338753","system_id":"levelo_inurba_marseille","lat":43.32366,"lon":5.38881,"is_reserved":false,"is_disabled":false,"rental_uris":{"android":"levelo://app?vid=311e38b6-ab5a-4a2c-8b41-6425f4338753","ios":"levelo://app?vid=311e38b6-ab5a-4a2c-8b41-6425f4338753"},"vehicle_type_id":"4","last_reported":1736284091,"current_range_meters":28800,"station_id":"ce4bhqp2rcd13ifvqhog","pricing_plan_id":"cebpf4jnsgd1na2vs0mg"},{"bike_id":"fcd2c318-5c55-45fd-b389-48b39f003420","system_id":"levelo_inurba_marseille","lat":43.29534,"lon":5.38542,"is_reserved":false,"is_disabled":false,"rental_uris":{"android":"levelo://app?vid=fcd2c318-5c55-45fd-b389-48b39f003420","ios":"levelo://app?vid=fcd2c318-5c55-45fd-b389-48b39f003420"},"vehicle_type_id":"4","last_reported":1736284091,"current_range_meters":39200,"station_id":"ce4bgih2rcd13ifvqba0","pricing_plan_id":"cebpf4jnsgd1na2vs0mg"},{"bike_id":"888a8d03-e6ea-46d6-ac93-b28aafef49da","system_id":"levelo_inurba_marseille","lat":43.28465,"lon":5.35887,"is_reserved":false,"is_disabled":false,"rental_uris":{"android":"levelo://app?vid=888a8d03-e6ea-46d6-ac93-b28aafef49da","ios":"levelo://app?vid=888a8d03-e6ea-46d6-ac93-b28aafef49da"},"vehicle_type_id":"4","last_reported":1736284091,"current_range_meters":21600,"station_id":"ce4bhah2rcd13ifvqei0","pricing_plan_id":"cebpf4jnsgd1na2vs0mg"},{"bike_id":"12195799-3bdd-4f45-bf33-c82043eac899","system_id":"levelo_inurba_marseille","lat":43.31888,"lon":5.4073,"is_reserved":false,"is_disabled":false,"rental_uris":{"android":"levelo://app?vid=12195799-3bdd-4f45-bf33-c82043eac899","ios":"levelo://app?vid=12195799-3bdd-4f45-bf33-c82043eac899"},"vehicle_type_id":"4","last_reported":1736284091,"current_range_meters":38800,"station_id":"ce4bhq12rcd13ifvqhig","pricing_plan_id":"cebpf4jnsgd1na2vs0mg"},{"bike_id":"9571ed17-4581-4658-b5b9-d5fdfdd8240b","system_id":"levelo_inurba_marseille","lat":43.29032,"lon":5.38626,"is_reserved":false,"is_disabled":false,"rental_uris":{"android":"levelo://app?vid=9571ed17-4581-4658-b5b9-d5fdfdd8240b","ios":"levelo://app?vid=9571ed17-4581-4658-b5b9-d5fdfdd8240b"},"vehicle_type_id":"4","last_reported":1736284091,"current_range_meters":39200,"station_id":"ce4bh4p2rcd13ifvqe0g","pricing_plan_id":"cebpf4jnsgd1na2vs0mg"},{"bike_id":"a4dec33a-3574-46ab-bf07-5ce5a74a1fd6","system_id":"levelo_inurba_marseille","lat":43.286205,"lon":5.35102,"is_reserved":false,"is_disabled":false,"rental_uris":{"android":"levelo://app?vid=a4dec33a-3574-46ab-bf07-5ce5a74a1fd6","ios":"levelo://app?vid=a4dec33a-3574-46ab-bf07-5ce5a74a1fd6"},"vehicle_type_id":"4","last_reported":1736284091,"current_range_meters":28800,"station_id":"ce4bhch2rcd13ifvqeug","pricing_plan_id":"cebpf4jnsgd1na2vs0mg"},{"bike_id":"1ab3c24e-721d-44a5-82f0-e7490a066076","system_id":"levelo_inurba_marseille","lat":43.2586,"lon":5.39886,"is_reserved":false,"is_disabled":false,"rental_uris":{"android":"levelo://app?vid=1ab3c24e-721d-44a5-82f0-e7490a066076","ios":"levelo://app?vid=1ab3c24e-721d-44a5-82f0-e7490a066076"},"vehicle_type_id":"4","last_reported":1736284091,"current_range_meters":38800,"station_id":"ce4bhl92rcd13ifvqghg","pricing_plan_id":"cebpf4jnsgd1na2vs0mg"},{"bike_id":"38c8b37c-4e8f-436e-b523-6676011d4bb5","system_id":"levelo_inurba_marseille","lat":43.29574,"lon":5.39967,"is_reserved":false,"is_disabled":false,"rental_uris":{"android":"levelo://app?vid=38c8b37c-4e8f-436e-b523-6676011d4bb5","ios":"levelo://app?vid=38c8b37c-4e8f-436e-b523-6676011d4bb5"},"vehicle_type_id":"4","last_reported":1736284091,"current_range_meters":16800,"station_id":"ce4bh312rcd13ifvqdj0","pricing_plan_id":"cebpf4jnsgd1na2vs0mg"},{"bike_id":"f3d1f244-18c3-434d-87c1-4500012e65af","system_id":"levelo_inurba_marseille","lat":43.337444,"lon":5.374475,"is_reserved":false,"is_disabled":false,"rental_uris":{"android":"levelo://app?vid=f3d1f244-18c3-434d-87c1-4500012e65af","ios":"levelo://app?vid=f3d1f244-18c3-434d-87c1-4500012e65af"},"vehicle_type_id":"4","last_reported":1736284091,"current_range_meters":26000,"station_id":"","pricing_plan_id":"cebpf4jnsgd1na2vs0mg"},{"bike_id":"1e522e28-7523-4705-8e1d-17ba87fdcdd7","system_id":"levelo_inurba_marseille","lat":43.25826,"lon":5.39438,"is_reserved":false,"is_disabled":false,"rental_uris":{"android":"levelo://app?vid=1e522e28-7523-4705-8e1d-17ba87fdcdd7","ios":"levelo://app?vid=1e522e28-7523-4705-8e1d-17ba87fdcdd7"},"vehicle_type_id":"4","last_reported":1736284091,"current_range_meters":22000,"station_id":"ce4bhip2rcd13ifvqft0","pricing_plan_id":"cebpf4jnsgd1na2vs0mg"},{"bike_id":"ddd4468a-dab6-4d1a-a590-08ccd8c8d91a","system_id":"levelo_inurba_marseille","lat":43.29075,"lon":5.37379,"is_reserved":false,"is_disabled":false,"rental_uris":{"android":"levelo://app?vid=ddd4468a-dab6-4d1a-a590-08ccd8c8d91a","ios":"levelo://app?vid=ddd4468a-dab6-4d1a-a590-08ccd8c8d91a"},"vehicle_type_id":"4","last_reported":1736284091,"current_range_meters":38800,"station_id":"","pricing_plan_id":"cebpf4jnsgd1na2vs0mg"},{"bike_id":"30add41c-1c89-4c0e-8350-e2c7f794d882","system_id":"levelo_inurba_marseille","lat":43.28582,"lon":5.39463,"is_reserved":false,"is_disabled":false,"rental_uris":{"android":"levelo://app?vid=30add41c-1c89-4c0e-8350-e2c7f794d882","ios":"levelo://app?vid=30add41c-1c89-4c0e-8350-e2c7f794d882"},"vehicle_type_id":"4","last_reported":1736284091,"current_range_meters":2800,"station_id":"ce4bh292rcd13ifvqdg0","pricing_plan_id":"cebpf4jnsgd1na2vs0mg"},{"bike_id":"39a66161-6256-4a44-9ff8-9ec79f8478c8","system_id":"levelo_inurba_marseille","lat":43.28618,"lon":5.35098,"is_reserved":false,"is_disabled":false,"rental_uris":{"android":"levelo://app?vid=39a66161-6256-4a44-9ff8-9ec79f8478c8","ios":"levelo://app?vid=39a66161-6256-4a44-9ff8-9ec79f8478c8"},"vehicle_type_id":"4","last_reported":1736284091,"current_range_meters":19600,"station_id":"ce4bhch2rcd13ifvqeug","pricing_plan_id":"cebpf4jnsgd1na2vs0mg"},{"bike_id":"b39644bc-bc3d-44b9-9efd-ad39a82efd47","system_id":"levelo_inurba_marseille","lat":43.2922,"lon":5.39314,"is_reserved":false,"is_disabled":false,"rental_uris":{"android":"levelo://app?vid=b39644bc-bc3d-44b9-9efd-ad39a82efd47","ios":"levelo://app?vid=b39644bc-bc3d-44b9-9efd-ad39a82efd47"},"vehicle_type_id":"4","last_reported":1736284091,"current_range_meters":27200,"station_id":"ce4bh192rcd13ifvqdd0","pricing_plan_id":"cebpf4jnsgd1na2vs0mg"},{"bike_id":"d45d0089-5e8c-41ac-a04c-9866c8dc94cc","system_id":"levelo_inurba_marseille","lat":43.232064,"lon":5.355463,"is_reserved":false,"is_disabled":false,"rental_uris":{"android":"levelo://app?vid=d45d0089-5e8c-41ac-a04c-9866c8dc94cc","ios":"levelo://app?vid=d45d0089-5e8c-41ac-a04c-9866c8dc94cc"},"vehicle_type_id":"4","last_reported":1736284091,"current_range_meters":38000,"station_id":"ce4bhu92rcd13ifvqi70","pricing_plan_id":"cebpf4jnsgd1na2vs0mg"},{"bike_id":"62bba582-f76b-42f4-8f20-438f3c4cd87e","system_id":"levelo_inurba_marseille","lat":43.24071,"lon":5.37722,"is_reserved":false,"is_disabled":false,"rental_uris":{"android":"levelo://app?vid=62bba582-f76b-42f4-8f20-438f3c4cd87e","ios":"levelo://app?vid=62bba582-f76b-42f4-8f20-438f3c4cd87e"},"vehicle_type_id":"4","last_reported":1736284091,"current_range_meters":8800,"station_id":"ce4bhnp2rcd13ifvqgvg","pricing_plan_id":"cebpf4jnsgd1na2vs0mg"},{"bike_id":"aa33a53e-f806-43a8-ad7e-8e2bd9644426","system_id":"levelo_inurba_marseille","lat":43.32345,"lon":5.40629,"is_reserved":false,"is_disabled":true,"rental_uris":{"android":"levelo://app?vid=aa33a53e-f806-43a8-ad7e-8e2bd9644426","ios":"levelo://app?vid=aa33a53e-f806-43a8-ad7e-8e2bd9644426"},"vehicle_type_id":"4","last_reported":1736284091,"current_range_meters":0,"station_id":"ce4bhq92rcd13ifvqhjg","pricing_plan_id":"cebpf4jnsgd1na2vs0mg"},{"bike_id":"6ffd9d07-65c1-4ee7-9622-4023bc94e4c7","system_id":"levelo_inurba_marseille","lat":43.28568,"lon":5.39496,"is_reserved":false,"is_disabled":false,"rental_uris":{"android":"levelo://app?vid=6ffd9d07-65c1-4ee7-9622-4023bc94e4c7","ios":"levelo://app?vid=6ffd9d07-65c1-4ee7-9622-4023bc94e4c7"},"vehicle_type_id":"4","last_reported":1736284091,"current_range_meters":24800,"station_id":"ce4bh292rcd13ifvqdg0","pricing_plan_id":"cebpf4jnsgd1na2vs0mg"},{"bike_id":"28706a8a-e4d8-40e9-a34b-f308bb4cb4ca","system_id":"levelo_inurba_marseille","lat":43.31331,"lon":5.39686,"is_reserved":false,"is_disabled":false,"rental_uris":{"android":"levelo://app?vid=28706a8a-e4d8-40e9-a34b-f308bb4cb4ca","ios":"levelo://app?vid=28706a8a-e4d8-40e9-a34b-f308bb4cb4ca"},"vehicle_type_id":"4","last_reported":1736284091,"current_range_meters":38800,"station_id":"ce4bgvp2rcd13ifvqcu0","pricing_plan_id":"cebpf4jnsgd1na2vs0mg"},{"bike_id":"72e0e536-26f1-4692-9d71-00df2072ae44","system_id":"levelo_inurba_marseille","lat":43.24681,"lon":5.38141,"is_reserved":false,"is_disabled":false,"rental_uris":{"android":"levelo://app?vid=72e0e536-26f1-4692-9d71-00df2072ae44","ios":"levelo://app?vid=72e0e536-26f1-4692-9d71-00df2072ae44"},"vehicle_type_id":"4","last_reported":1736284091,"current_range_meters":18800,"station_id":"ce4bhih2rcd13ifvqfr0","pricing_plan_id":"cebpf4jnsgd1na2vs0mg"},{"bike_id":"44063715-2a3a-46a5-ac00-84ece06df486","system_id":"levelo_inurba_marseille","lat":43.28429,"lon":5.39182,"is_reserved":false,"is_disabled":false,"rental_uris":{"android":"levelo://app?vid=44063715-2a3a-46a5-ac00-84ece06df486","ios":"levelo://app?vid=44063715-2a3a-46a5-ac00-84ece06df486"},"vehicle_type_id":"4","last_reported":1736284091,"current_range_meters":17200,"station_id":"ce4bhoh2rcd13ifvqh5g","pricing_plan_id":"cebpf4jnsgd1na2vs0mg"},{"bike_id":"4040af94-3f70-4863-bf6a-de8d1807fa84","system_id":"levelo_inurba_marseille","lat":43.2991,"lon":5.37457,"is_reserved":false,"is_disabled":false,"rental_uris":{"android":"levelo://app?vid=4040af94-3f70-4863-bf6a-de8d1807fa84","ios":"levelo://app?vid=4040af94-3f70-4863-bf6a-de8d1807fa84"},"vehicle_type_id":"4","last_reported":1736284091,"current_range_meters":36800,"station_id":"ce4bgjh2rcd13ifvqbg0","pricing_plan_id":"cebpf4jnsgd1na2vs0mg"},{"bike_id":"be457d0e-e951-4c20-92b5-c162743063cd","system_id":"levelo_inurba_marseille","lat":43.33023,"lon":5.39035,"is_reserved":false,"is_disabled":false,"rental_uris":{"android":"levelo://app?vid=be457d0e-e951-4c20-92b5-c162743063cd","ios":"levelo://app?vid=be457d0e-e951-4c20-92b5-c162743063cd"},"vehicle_type_id":"4","last_reported":1736284091,"current_range_meters":15200,"station_id":"ce4bhr92rcd13ifvqhrg","pricing_plan_id":"cebpf4jnsgd1na2vs0mg"},{"bike_id":"5a610a92-ec66-4c09-b8f2-d292ab86e791","system_id":"levelo_inurba_marseille","lat":43.30137,"lon":5.37409,"is_reserved":false,"is_disabled":true,"rental_uris":{"android":"levelo://app?vid=5a610a92-ec66-4c09-b8f2-d292ab86e791","ios":"levelo://app?vid=5a610a92-ec66-4c09-b8f2-d292ab86e791"},"vehicle_type_id":"4","last_reported":1736284091,"current_range_meters":38400,"station_id":"ce4bgs92rcd13ifvqcc0","pricing_plan_id":"cebpf4jnsgd1na2vs0mg"},{"bike_id":"a17bcdce-fbe1-45ba-9230-a6f804b11b05","system_id":"levelo_inurba_marseille","lat":43.28375,"lon":5.39334,"is_reserved":false,"is_disabled":false,"rental_uris":{"android":"levelo://app?vid=a17bcdce-fbe1-45ba-9230-a6f804b11b05","ios":"levelo://app?vid=a17bcdce-fbe1-45ba-9230-a6f804b11b05"},"vehicle_type_id":"4","last_reported":1736284091,"current_range_meters":14800,"station_id":"ce4bhoh2rcd13ifvqh5g","pricing_plan_id":"cebpf4jnsgd1na2vs0mg"},{"bike_id":"433a9107-7100-40b5-9067-064d1c340628","system_id":"levelo_inurba_marseille","lat":43.317065,"lon":5.377345,"is_reserved":false,"is_disabled":false,"rental_uris":{"android":"levelo://app?vid=433a9107-7100-40b5-9067-064d1c340628","ios":"levelo://app?vid=433a9107-7100-40b5-9067-064d1c340628"},"vehicle_type_id":"4","last_reported":1736284091,"current_range_meters":30000,"station_id":"ce4bgth2rcd13ifvqch0","pricing_plan_id":"cebpf4jnsgd1na2vs0mg"},{"bike_id":"d9d0ffde-9391-45f7-87f2-b2eb55ddba18","system_id":"levelo_inurba_marseille","lat":43.29615,"lon":5.37157,"is_reserved":false,"is_disabled":false,"rental_uris":{"android":"levelo://app?vid=d9d0ffde-9391-45f7-87f2-b2eb55ddba18","ios":"levelo://app?vid=d9d0ffde-9391-45f7-87f2-b2eb55ddba18"},"vehicle_type_id":"4","last_reported":1736284091,"current_range_meters":38800,"station_id":"ce4bgnh2rcd13ifvqc0g","pricing_plan_id":"cebpf4jnsgd1na2vs0mg"},{"bike_id":"afd51f91-b383-402c-b520-382bbc48c2f6","system_id":"levelo_inurba_marseille","lat":43.28703,"lon":5.39984,"is_reserved":false,"is_disabled":false,"rental_uris":{"android":"levelo://app?vid=afd51f91-b383-402c-b520-382bbc48c2f6","ios":"levelo://app?vid=afd51f91-b383-402c-b520-382bbc48c2f6"},"vehicle_type_id":"4","last_reported":1736284091,"current_range_meters":24800,"station_id":"ce4bho92rcd13ifvqh3g","pricing_plan_id":"cebpf4jnsgd1na2vs0mg"},{"bike_id":"4063b34e-f483-4c10-bdad-a759b3d89011","system_id":"levelo_inurba_marseille","lat":43.27803,"lon":5.40718,"is_reserved":false,"is_disabled":false,"rental_uris":{"android":"levelo://app?vid=4063b34e-f483-4c10-bdad-a759b3d89011","ios":"levelo://app?vid=4063b34e-f483-4c10-bdad-a759b3d89011"},"vehicle_type_id":"4","last_reported":1736284091,"current_range_meters":11200,"station_id":"ce4bhnh2rcd13ifvqgtg","pricing_plan_id":"cebpf4jnsgd1na2vs0mg"},{"bike_id":"1e4b11b9-aef6-4e3d-9c15-1a4a39f3f31a","system_id":"levelo_inurba_marseille","lat":43.29813,"lon":5.38096,"is_reserved":false,"is_disabled":true,"rental_uris":{"android":"levelo://app?vid=1e4b11b9-aef6-4e3d-9c15-1a4a39f3f31a","ios":"levelo://app?vid=1e4b11b9-aef6-4e3d-9c15-1a4a39f3f31a"},"vehicle_type_id":"4","last_reported":1736284091,"current_range_meters":37600,"station_id":"ce4bgip2rcd13ifvqbb0","pricing_plan_id":"cebpf4jnsgd1na2vs0mg"},{"bike_id":"b611d04a-68fa-4e69-89f5-f5abfb42c0c2","system_id":"levelo_inurba_marseille","lat":43.27366,"lon":5.36254,"is_reserved":false,"is_disabled":false,"rental_uris":{"android":"levelo://app?vid=b611d04a-68fa-4e69-89f5-f5abfb42c0c2","ios":"levelo://app?vid=b611d04a-68fa-4e69-89f5-f5abfb42c0c2"},"vehicle_type_id":"4","last_reported":1736284091,"current_range_meters":37600,"station_id":"ce4bhbh2rcd13ifvqeo0","pricing_plan_id":"cebpf4jnsgd1na2vs0mg"},{"bike_id":"829275f0-aea8-4809-a077-515af42d186f","system_id":"levelo_inurba_marseille","lat":43.33605,"lon":5.41033,"is_reserved":false,"is_disabled":false,"rental_uris":{"android":"levelo://app?vid=829275f0-aea8-4809-a077-515af42d186f","ios":"levelo://app?vid=829275f0-aea8-4809-a077-515af42d186f"},"vehicle_type_id":"4","last_reported":1736284091,"current_range_meters":22000,"station_id":"ce4bhqh2rcd13ifvqhmg","pricing_plan_id":"cebpf4jnsgd1na2vs0mg"},{"bike_id":"3f86cc4e-c4fd-40a8-a7f2-03738bc004c2","system_id":"levelo_inurba_marseille","lat":43.2846,"lon":5.35891,"is_reserved":false,"is_disabled":false,"rental_uris":{"android":"levelo://app?vid=3f86cc4e-c4fd-40a8-a7f2-03738bc004c2","ios":"levelo://app?vid=3f86cc4e-c4fd-40a8-a7f2-03738bc004c2"},"vehicle_type_id":"4","last_reported":1736284091,"current_range_meters":39200,"station_id":"ce4bhah2rcd13ifvqei0","pricing_plan_id":"cebpf4jnsgd1na2vs0mg"},{"bike_id":"b924455e-37b2-46a2-b63a-6a011c655d11","system_id":"levelo_inurba_marseille","lat":43.29894,"lon":5.38885,"is_reserved":false,"is_disabled":false,"rental_uris":{"android":"levelo://app?vid=b924455e-37b2-46a2-b63a-6a011c655d11","ios":"levelo://app?vid=b924455e-37b2-46a2-b63a-6a011c655d11"},"vehicle_type_id":"4","last_reported":1736284091,"current_range_meters":35200,"station_id":"ce4bh392rcd13ifvqdl0","pricing_plan_id":"cebpf4jnsgd1na2vs0mg"},{"bike_id":"c83aa1f0-f576-4ae9-bd5a-2cd21c831de7","system_id":"levelo_inurba_marseille","lat":43.28931,"lon":5.36384,"is_reserved":false,"is_disabled":false,"rental_uris":{"android":"levelo://app?vid=c83aa1f0-f576-4ae9-bd5a-2cd21c831de7","ios":"levelo://app?vid=c83aa1f0-f576-4ae9-bd5a-2cd21c831de7"},"vehicle_type_id":"4","last_reported":1736284091,"current_range_meters":38800,"station_id":"ce4bhc92rcd13ifvqetg","pricing_plan_id":"cebpf4jnsgd1na2vs0mg"},{"bike_id":"bbf998ea-d252-4590-8711-16d78ff4b07c","system_id":"levelo_inurba_marseille","lat":43.246486,"lon":5.38892,"is_reserved":false,"is_disabled":false,"rental_uris":{"android":"levelo://app?vid=bbf998ea-d252-4590-8711-16d78ff4b07c","ios":"levelo://app?vid=bbf998ea-d252-4590-8711-16d78ff4b07c"},"vehicle_type_id":"4","last_reported":1736284091,"current_range_meters":25200,"station_id":"ce4bhg12rcd13ifvqf60","pricing_plan_id":"cebpf4jnsgd1na2vs0mg"},{"bike_id":"7569dafb-5c4b-47a5-ab2d-693417291c49","system_id":"levelo_inurba_marseille","lat":43.29315,"lon":5.37165,"is_reserved":false,"is_disabled":false,"rental_uris":{"android":"levelo://app?vid=7569dafb-5c4b-47a5-ab2d-693417291c49","ios":"levelo://app?vid=7569dafb-5c4b-47a5-ab2d-693417291c49"},"vehicle_type_id":"4","last_reported":1736284091,"current_range_meters":32400,"station_id":"ce4bgh92rcd13ifvqb40","pricing_plan_id":"cebpf4jnsgd1na2vs0mg"},{"bike_id":"5d6ff56e-829a-464d-bc9f-3f50101b0f82","system_id":"levelo_inurba_marseille","lat":43.30553,"lon":5.36553,"is_reserved":false,"is_disabled":false,"rental_uris":{"android":"levelo://app?vid=5d6ff56e-829a-464d-bc9f-3f50101b0f82","ios":"levelo://app?vid=5d6ff56e-829a-464d-bc9f-3f50101b0f82"},"vehicle_type_id":"4","last_reported":1736284091,"current_range_meters":19600,"station_id":"ce4bgs12rcd13ifvqcag","pricing_plan_id":"cebpf4jnsgd1na2vs0mg"},{"bike_id":"876bad65-6b50-4eed-b354-4c99b33882cf","system_id":"levelo_inurba_marseille","lat":43.31696,"lon":5.40465,"is_reserved":false,"is_disabled":false,"rental_uris":{"android":"levelo://app?vid=876bad65-6b50-4eed-b354-4c99b33882cf","ios":"levelo://app?vid=876bad65-6b50-4eed-b354-4c99b33882cf"},"vehicle_type_id":"4","last_reported":1736284091,"current_range_meters":22000,"station_id":"ce4bh012rcd13ifvqd00","pricing_plan_id":"cebpf4jnsgd1na2vs0mg"},{"bike_id":"1f3279ad-7688-4d1e-817a-428a5253b908","system_id":"levelo_inurba_marseille","lat":43.31322,"lon":5.39701,"is_reserved":false,"is_disabled":false,"rental_uris":{"android":"levelo://app?vid=1f3279ad-7688-4d1e-817a-428a5253b908","ios":"levelo://app?vid=1f3279ad-7688-4d1e-817a-428a5253b908"},"vehicle_type_id":"4","last_reported":1736284091,"current_range_meters":32800,"station_id":"ce4bgvp2rcd13ifvqcu0","pricing_plan_id":"cebpf4jnsgd1na2vs0mg"},{"bike_id":"341ad1a4-cb0d-426d-be23-6c9d3ee02074","system_id":"levelo_inurba_marseille","lat":43.25584,"lon":5.38228,"is_reserved":false,"is_disabled":false,"rental_uris":{"android":"levelo://app?vid=341ad1a4-cb0d-426d-be23-6c9d3ee02074","ios":"levelo://app?vid=341ad1a4-cb0d-426d-be23-6c9d3ee02074"},"vehicle_type_id":"4","last_reported":1736284091,"current_range_meters":24000,"station_id":"ce4bhih2rcd13ifvqfs0","pricing_plan_id":"cebpf4jnsgd1na2vs0mg"},{"bike_id":"7501b46c-f34a-4d33-9c30-ec6840e8af9c","system_id":"levelo_inurba_marseille","lat":43.28362,"lon":5.38109,"is_reserved":false,"is_disabled":true,"rental_uris":{"android":"levelo://app?vid=7501b46c-f34a-4d33-9c30-ec6840e8af9c","ios":"levelo://app?vid=7501b46c-f34a-4d33-9c30-ec6840e8af9c"},"vehicle_type_id":"4","last_reported":1736284091,"current_range_meters":7200,"station_id":"ce4bh412rcd13ifvqdr0","pricing_plan_id":"cebpf4jnsgd1na2vs0mg"},{"bike_id":"5ad5153a-9cc7-4301-b75f-a2dded67227b","system_id":"levelo_inurba_marseille","lat":43.28108,"lon":5.37835,"is_reserved":false,"is_disabled":false,"rental_uris":{"android":"levelo://app?vid=5ad5153a-9cc7-4301-b75f-a2dded67227b","ios":"levelo://app?vid=5ad5153a-9cc7-4301-b75f-a2dded67227b"},"vehicle_type_id":"4","last_reported":1736284091,"current_range_meters":35600,"station_id":"ce4bha12rcd13ifvqee0","pricing_plan_id":"cebpf4jnsgd1na2vs0mg"},{"bike_id":"bc2873b0-9774-491c-a2de-b95e350f7bdb","system_id":"levelo_inurba_marseille","lat":43.27759,"lon":5.39905,"is_reserved":false,"is_disabled":true,"rental_uris":{"android":"levelo://app?vid=bc2873b0-9774-491c-a2de-b95e350f7bdb","ios":"levelo://app?vid=bc2873b0-9774-491c-a2de-b95e350f7bdb"},"vehicle_type_id":"4","last_reported":1736284091,"current_range_meters":1200,"station_id":"","pricing_plan_id":"cebpf4jnsgd1na2vs0mg"},{"bike_id":"c00b7047-30e3-4fd6-ae7e-1d0066952646","system_id":"levelo_inurba_marseille","lat":43.295263,"lon":5.390387,"is_reserved":false,"is_disabled":false,"rental_uris":{"android":"levelo://app?vid=c00b7047-30e3-4fd6-ae7e-1d0066952646","ios":"levelo://app?vid=c00b7047-30e3-4fd6-ae7e-1d0066952646"},"vehicle_type_id":"4","last_reported":1736284091,"current_range_meters":37600,"station_id":"ce4bh3p2rcd13ifvqdp0","pricing_plan_id":"cebpf4jnsgd1na2vs0mg"},{"bike_id":"74942fe7-3e6e-4a0f-84df-8d76dcc310a7","system_id":"levelo_inurba_marseille","lat":43.29557,"lon":5.42272,"is_reserved":false,"is_disabled":false,"rental_uris":{"android":"levelo://app?vid=74942fe7-3e6e-4a0f-84df-8d76dcc310a7","ios":"levelo://app?vid=74942fe7-3e6e-4a0f-84df-8d76dcc310a7"},"vehicle_type_id":"4","last_reported":1736284091,"current_range_meters":4400,"station_id":"ce4bhph2rcd13ifvqhdg","pricing_plan_id":"cebpf4jnsgd1na2vs0mg"},{"bike_id":"d66fa23c-9061-45b0-afac-bee93436838c","system_id":"levelo_inurba_marseille","lat":43.31531,"lon":5.38036,"is_reserved":false,"is_disabled":false,"rental_uris":{"android":"levelo://app?vid=d66fa23c-9061-45b0-afac-bee93436838c","ios":"levelo://app?vid=d66fa23c-9061-45b0-afac-bee93436838c"},"vehicle_type_id":"4","last_reported":1736284091,"current_range_meters":24400,"station_id":"ce4bhsp2rcd13ifvqi50","pricing_plan_id":"cebpf4jnsgd1na2vs0mg"},{"bike_id":"1e297576-65d7-4d7e-82e0-d872b833f39a","system_id":"levelo_inurba_marseille","lat":43.30861,"lon":5.36858,"is_reserved":false,"is_disabled":false,"rental_uris":{"android":"levelo://app?vid=1e297576-65d7-4d7e-82e0-d872b833f39a","ios":"levelo://app?vid=1e297576-65d7-4d7e-82e0-d872b833f39a"},"vehicle_type_id":"4","last_reported":1736284091,"current_range_meters":24000,"station_id":"","pricing_plan_id":"cebpf4jnsgd1na2vs0mg"},{"bike_id":"dc05b672-3694-44a5-80f7-8b52b23fe0ed","system_id":"levelo_inurba_marseille","lat":43.25578,"lon":5.38224,"is_reserved":false,"is_disabled":false,"rental_uris":{"android":"levelo://app?vid=dc05b672-3694-44a5-80f7-8b52b23fe0ed","ios":"levelo://app?vid=dc05b672-3694-44a5-80f7-8b52b23fe0ed"},"vehicle_type_id":"4","last_reported":1736284091,"current_range_meters":38800,"station_id":"ce4bhih2rcd13ifvqfs0","pricing_plan_id":"cebpf4jnsgd1na2vs0mg"},{"bike_id":"250265ea-6bea-4eb5-b14e-5105bdc71aae","system_id":"levelo_inurba_marseille","lat":43.29025,"lon":5.3756,"is_reserved":false,"is_disabled":false,"rental_uris":{"android":"levelo://app?vid=250265ea-6bea-4eb5-b14e-5105bdc71aae","ios":"levelo://app?vid=250265ea-6bea-4eb5-b14e-5105bdc71aae"},"vehicle_type_id":"4","last_reported":1736284091,"current_range_meters":35200,"station_id":"ce4bh692rcd13ifvqe90","pricing_plan_id":"cebpf4jnsgd1na2vs0mg"},{"bike_id":"f3068faf-6ea3-45c0-943e-8f5eb9fecb3c","system_id":"levelo_inurba_marseille","lat":43.23964,"lon":5.36613,"is_reserved":false,"is_disabled":false,"rental_uris":{"android":"levelo://app?vid=f3068faf-6ea3-45c0-943e-8f5eb9fecb3c","ios":"levelo://app?vid=f3068faf-6ea3-45c0-943e-8f5eb9fecb3c"},"vehicle_type_id":"4","last_reported":1736284091,"current_range_meters":36400,"station_id":"ce4bhi12rcd13ifvqfp0","pricing_plan_id":"cebpf4jnsgd1na2vs0mg"},{"bike_id":"6ab3cad9-47b9-4798-a758-202f34e11792","system_id":"levelo_inurba_marseille","lat":43.23199,"lon":5.39949,"is_reserved":false,"is_disabled":false,"rental_uris":{"android":"levelo://app?vid=6ab3cad9-47b9-4798-a758-202f34e11792","ios":"levelo://app?vid=6ab3cad9-47b9-4798-a758-202f34e11792"},"vehicle_type_id":"4","last_reported":1736284091,"current_range_meters":26000,"station_id":"ce4bhn12rcd13ifvqgqg","pricing_plan_id":"cebpf4jnsgd1na2vs0mg"},{"bike_id":"23a66e3f-8e17-4ad8-b689-a42d7cb5191e","system_id":"levelo_inurba_marseille","lat":43.27845,"lon":5.39254,"is_reserved":false,"is_disabled":true,"rental_uris":{"android":"levelo://app?vid=23a66e3f-8e17-4ad8-b689-a42d7cb5191e","ios":"levelo://app?vid=23a66e3f-8e17-4ad8-b689-a42d7cb5191e"},"vehicle_type_id":"4","last_reported":1736284091,"current_range_meters":4000,"station_id":"","pricing_plan_id":"cebpf4jnsgd1na2vs0mg"},{"bike_id":"2937c8f0-6f06-4c7f-8240-41ad44bc55fa","system_id":"levelo_inurba_marseille","lat":43.23186,"lon":5.39987,"is_reserved":false,"is_disabled":false,"rental_uris":{"android":"levelo://app?vid=2937c8f0-6f06-4c7f-8240-41ad44bc55fa","ios":"levelo://app?vid=2937c8f0-6f06-4c7f-8240-41ad44bc55fa"},"vehicle_type_id":"4","last_reported":1736284091,"current_range_meters":9200,"station_id":"ce4bhn12rcd13ifvqgqg","pricing_plan_id":"cebpf4jnsgd1na2vs0mg"},{"bike_id":"c67f86a7-d1e6-4e2d-a762-5d292001711c","system_id":"levelo_inurba_marseille","lat":43.33017,"lon":5.39038,"is_reserved":false,"is_disabled":false,"rental_uris":{"android":"levelo://app?vid=c67f86a7-d1e6-4e2d-a762-5d292001711c","ios":"levelo://app?vid=c67f86a7-d1e6-4e2d-a762-5d292001711c"},"vehicle_type_id":"4","last_reported":1736284091,"current_range_meters":38800,"station_id":"ce4bhr92rcd13ifvqhrg","pricing_plan_id":"cebpf4jnsgd1na2vs0mg"},{"bike_id":"a922db1a-e7f7-468d-bd9f-ba12b812c160","system_id":"levelo_inurba_marseille","lat":43.28859,"lon":5.39314,"is_reserved":false,"is_disabled":false,"rental_uris":{"android":"levelo://app?vid=a922db1a-e7f7-468d-bd9f-ba12b812c160","ios":"levelo://app?vid=a922db1a-e7f7-468d-bd9f-ba12b812c160"},"vehicle_type_id":"4","last_reported":1736284091,"current_range_meters":14800,"station_id":"ce4bh2p2rcd13ifvqdi0","pricing_plan_id":"cebpf4jnsgd1na2vs0mg"},{"bike_id":"90cb15c2-a4df-4d03-afd9-c68d13c3dbba","system_id":"levelo_inurba_marseille","lat":43.29014,"lon":5.37567,"is_reserved":false,"is_disabled":false,"rental_uris":{"android":"levelo://app?vid=90cb15c2-a4df-4d03-afd9-c68d13c3dbba","ios":"levelo://app?vid=90cb15c2-a4df-4d03-afd9-c68d13c3dbba"},"vehicle_type_id":"4","last_reported":1736284091,"current_range_meters":17600,"station_id":"ce4bh692rcd13ifvqe90","pricing_plan_id":"cebpf4jnsgd1na2vs0mg"},{"bike_id":"6cb2454f-e31a-4981-a1bc-e8425a6d5cb8","system_id":"levelo_inurba_marseille","lat":43.29247,"lon":5.40899,"is_reserved":false,"is_disabled":false,"rental_uris":{"android":"levelo://app?vid=6cb2454f-e31a-4981-a1bc-e8425a6d5cb8","ios":"levelo://app?vid=6cb2454f-e31a-4981-a1bc-e8425a6d5cb8"},"vehicle_type_id":"4","last_reported":1736284091,"current_range_meters":38800,"station_id":"ce4bh192rcd13ifvqdc0","pricing_plan_id":"cebpf4jnsgd1na2vs0mg"},{"bike_id":"1345d40d-94bc-4aa7-8376-c7823ff8552c","system_id":"levelo_inurba_marseille","lat":43.30423,"lon":5.39737,"is_reserved":false,"is_disabled":false,"rental_uris":{"android":"levelo://app?vid=1345d40d-94bc-4aa7-8376-c7823ff8552c","ios":"levelo://app?vid=1345d40d-94bc-4aa7-8376-c7823ff8552c"},"vehicle_type_id":"4","last_reported":1736284091,"current_range_meters":20800,"station_id":"ce4bh092rcd13ifvqd20","pricing_plan_id":"cebpf4jnsgd1na2vs0mg"},{"bike_id":"b4c92795-30bd-48f5-b0ae-1c8ac5115428","system_id":"levelo_inurba_marseille","lat":43.28874,"lon":5.3588,"is_reserved":false,"is_disabled":false,"rental_uris":{"android":"levelo://app?vid=b4c92795-30bd-48f5-b0ae-1c8ac5115428","ios":"levelo://app?vid=b4c92795-30bd-48f5-b0ae-1c8ac5115428"},"vehicle_type_id":"4","last_reported":1736284091,"current_range_meters":38800,"station_id":"ce4bhb12rcd13ifvqem0","pricing_plan_id":"cebpf4jnsgd1na2vs0mg"},{"bike_id":"d014f699-d84d-436b-b3bf-8c059d18ea89","system_id":"levelo_inurba_marseille","lat":43.2294,"lon":5.35346,"is_reserved":false,"is_disabled":false,"rental_uris":{"android":"levelo://app?vid=d014f699-d84d-436b-b3bf-8c059d18ea89","ios":"levelo://app?vid=d014f699-d84d-436b-b3bf-8c059d18ea89"},"vehicle_type_id":"4","last_reported":1736284091,"current_range_meters":6800,"station_id":"cpo3532slgdg3j2ikp40","pricing_plan_id":"cebpf4jnsgd1na2vs0mg"},{"bike_id":"85db0274-aa0a-4f9a-b691-02cfca5d3623","system_id":"levelo_inurba_marseille","lat":43.29841,"lon":5.36267,"is_reserved":false,"is_disabled":false,"rental_uris":{"android":"levelo://app?vid=85db0274-aa0a-4f9a-b691-02cfca5d3623","ios":"levelo://app?vid=85db0274-aa0a-4f9a-b691-02cfca5d3623"},"vehicle_type_id":"4","last_reported":1736284091,"current_range_meters":38800,"station_id":"ce4bgpp2rcd13ifvqc3g","pricing_plan_id":"cebpf4jnsgd1na2vs0mg"},{"bike_id":"5af085c0-3ca4-4667-bd76-a0d9b5581479","system_id":"levelo_inurba_marseille","lat":43.2827,"lon":5.35079,"is_reserved":false,"is_disabled":false,"rental_uris":{"android":"levelo://app?vid=5af085c0-3ca4-4667-bd76-a0d9b5581479","ios":"levelo://app?vid=5af085c0-3ca4-4667-bd76-a0d9b5581479"},"vehicle_type_id":"4","last_reported":1736284091,"current_range_meters":26000,"station_id":"ce4bhbp2rcd13ifvqerg","pricing_plan_id":"cebpf4jnsgd1na2vs0mg"},{"bike_id":"955387a8-4a47-4691-946f-78754c88504b","system_id":"levelo_inurba_marseille","lat":43.23203,"lon":5.35544,"is_reserved":false,"is_disabled":false,"rental_uris":{"android":"levelo://app?vid=955387a8-4a47-4691-946f-78754c88504b","ios":"levelo://app?vid=955387a8-4a47-4691-946f-78754c88504b"},"vehicle_type_id":"4","last_reported":1736284091,"current_range_meters":36000,"station_id":"ce4bhu92rcd13ifvqi70","pricing_plan_id":"cebpf4jnsgd1na2vs0mg"},{"bike_id":"85c233a5-ad6d-4af1-866c-c8c7aa0fe22f","system_id":"levelo_inurba_marseille","lat":43.27952,"lon":5.4104,"is_reserved":false,"is_disabled":false,"rental_uris":{"android":"levelo://app?vid=85c233a5-ad6d-4af1-866c-c8c7aa0fe22f","ios":"levelo://app?vid=85c233a5-ad6d-4af1-866c-c8c7aa0fe22f"},"vehicle_type_id":"4","last_reported":1736284091,"current_range_meters":19600,"station_id":"ce4bhnp2rcd13ifvqh0g","pricing_plan_id":"cebpf4jnsgd1na2vs0mg"},{"bike_id":"f949af9a-2683-4ec9-b4bf-168b31b3bcb2","system_id":"levelo_inurba_marseille","lat":43.24645,"lon":5.38886,"is_reserved":false,"is_disabled":false,"rental_uris":{"android":"levelo://app?vid=f949af9a-2683-4ec9-b4bf-168b31b3bcb2","ios":"levelo://app?vid=f949af9a-2683-4ec9-b4bf-168b31b3bcb2"},"vehicle_type_id":"4","last_reported":1736284091,"current_range_meters":17200,"station_id":"ce4bhg12rcd13ifvqf60","pricing_plan_id":"cebpf4jnsgd1na2vs0mg"},{"bike_id":"fca90e5a-922d-42ef-a0cf-05559f03df72","system_id":"levelo_inurba_marseille","lat":43.28711,"lon":5.37385,"is_reserved":false,"is_disabled":false,"rental_uris":{"android":"levelo://app?vid=fca90e5a-922d-42ef-a0cf-05559f03df72","ios":"levelo://app?vid=fca90e5a-922d-42ef-a0cf-05559f03df72"},"vehicle_type_id":"4","last_reported":1736284091,"current_range_meters":35200,"station_id":"ce4bh3p2rcd13ifvqdq0","pricing_plan_id":"cebpf4jnsgd1na2vs0mg"},{"bike_id":"6699c68e-3132-4815-93fd-766be48268a2","system_id":"levelo_inurba_marseille","lat":43.33903,"lon":5.39128,"is_reserved":false,"is_disabled":false,"rental_uris":{"android":"levelo://app?vid=6699c68e-3132-4815-93fd-766be48268a2","ios":"levelo://app?vid=6699c68e-3132-4815-93fd-766be48268a2"},"vehicle_type_id":"4","last_reported":1736284091,"current_range_meters":24400,"station_id":"","pricing_plan_id":"cebpf4jnsgd1na2vs0mg"},{"bike_id":"de06af8b-af0f-4f6f-87ba-de29a59b5256","system_id":"levelo_inurba_marseille","lat":43.29809,"lon":5.37087,"is_reserved":false,"is_disabled":false,"rental_uris":{"android":"levelo://app?vid=de06af8b-af0f-4f6f-87ba-de29a59b5256","ios":"levelo://app?vid=de06af8b-af0f-4f6f-87ba-de29a59b5256"},"vehicle_type_id":"4","last_reported":1736284091,"current_range_meters":38400,"station_id":"ce4bgop2rcd13ifvqc1g","pricing_plan_id":"cebpf4jnsgd1na2vs0mg"},{"bike_id":"4422deb5-d0e7-4ba5-b3eb-ffb876d4d603","system_id":"levelo_inurba_marseille","lat":43.29003,"lon":5.3561,"is_reserved":false,"is_disabled":false,"rental_uris":{"android":"levelo://app?vid=4422deb5-d0e7-4ba5-b3eb-ffb876d4d603","ios":"levelo://app?vid=4422deb5-d0e7-4ba5-b3eb-ffb876d4d603"},"vehicle_type_id":"4","last_reported":1736284091,"current_range_meters":38000,"station_id":"ce4bhb92rcd13ifvqen0","pricing_plan_id":"cebpf4jnsgd1na2vs0mg"},{"bike_id":"a48d2ebf-c83d-4251-b56e-81e157062b4b","system_id":"levelo_inurba_marseille","lat":43.28618,"lon":5.35104,"is_reserved":false,"is_disabled":false,"rental_uris":{"android":"levelo://app?vid=a48d2ebf-c83d-4251-b56e-81e157062b4b","ios":"levelo://app?vid=a48d2ebf-c83d-4251-b56e-81e157062b4b"},"vehicle_type_id":"4","last_reported":1736284091,"current_range_meters":16400,"station_id":"ce4bhch2rcd13ifvqeug","pricing_plan_id":"cebpf4jnsgd1na2vs0mg"},{"bike_id":"a27077f1-5945-4fa9-9a01-6722c6a3e554","system_id":"levelo_inurba_marseille","lat":43.29421,"lon":5.38621,"is_reserved":false,"is_disabled":false,"rental_uris":{"android":"levelo://app?vid=a27077f1-5945-4fa9-9a01-6722c6a3e554","ios":"levelo://app?vid=a27077f1-5945-4fa9-9a01-6722c6a3e554"},"vehicle_type_id":"4","last_reported":1736284091,"current_range_meters":24000,"station_id":"ce4bh2h2rcd13ifvqdh0","pricing_plan_id":"cebpf4jnsgd1na2vs0mg"},{"bike_id":"a344e607-2212-45d5-b6de-a9033a6aa79f","system_id":"levelo_inurba_marseille","lat":43.26208,"lon":5.37916,"is_reserved":false,"is_disabled":false,"rental_uris":{"android":"levelo://app?vid=a344e607-2212-45d5-b6de-a9033a6aa79f","ios":"levelo://app?vid=a344e607-2212-45d5-b6de-a9033a6aa79f"},"vehicle_type_id":"4","last_reported":1736284091,"current_range_meters":38000,"station_id":"ce4bhjp2rcd13ifvqg90","pricing_plan_id":"cebpf4jnsgd1na2vs0mg"},{"bike_id":"6321ac1b-185f-4bc9-8912-b80675c4e704","system_id":"levelo_inurba_marseille","lat":43.29566,"lon":5.39974,"is_reserved":false,"is_disabled":false,"rental_uris":{"android":"levelo://app?vid=6321ac1b-185f-4bc9-8912-b80675c4e704","ios":"levelo://app?vid=6321ac1b-185f-4bc9-8912-b80675c4e704"},"vehicle_type_id":"4","last_reported":1736284091,"current_range_meters":30800,"station_id":"ce4bh312rcd13ifvqdj0","pricing_plan_id":"cebpf4jnsgd1na2vs0mg"},{"bike_id":"b5b67869-f06d-4d65-8b50-e23c241a7aa3","system_id":"levelo_inurba_marseille","lat":43.31755,"lon":5.39022,"is_reserved":false,"is_disabled":false,"rental_uris":{"android":"levelo://app?vid=b5b67869-f06d-4d65-8b50-e23c241a7aa3","ios":"levelo://app?vid=b5b67869-f06d-4d65-8b50-e23c241a7aa3"},"vehicle_type_id":"4","last_reported":1736284091,"current_range_meters":10800,"station_id":"ce4bhqp2rcd13ifvqhng","pricing_plan_id":"cebpf4jnsgd1na2vs0mg"},{"bike_id":"89833d99-607f-4836-858e-b5d526d47570","system_id":"levelo_inurba_marseille","lat":43.3031,"lon":5.36885,"is_reserved":false,"is_disabled":false,"rental_uris":{"android":"levelo://app?vid=89833d99-607f-4836-858e-b5d526d47570","ios":"levelo://app?vid=89833d99-607f-4836-858e-b5d526d47570"},"vehicle_type_id":"4","last_reported":1736284091,"current_range_meters":33600,"station_id":"ce4bgqh2rcd13ifvqc5g","pricing_plan_id":"cebpf4jnsgd1na2vs0mg"},{"bike_id":"761d165d-f444-4b88-8a90-c1b0c76f3158","system_id":"levelo_inurba_marseille","lat":43.25121,"lon":5.40313,"is_reserved":false,"is_disabled":false,"rental_uris":{"android":"levelo://app?vid=761d165d-f444-4b88-8a90-c1b0c76f3158","ios":"levelo://app?vid=761d165d-f444-4b88-8a90-c1b0c76f3158"},"vehicle_type_id":"4","last_reported":1736284091,"current_range_meters":35600,"station_id":"ce4bhlh2rcd13ifvqgig","pricing_plan_id":"cebpf4jnsgd1na2vs0mg"},{"bike_id":"2cac112a-19df-44f0-8ce7-3be7bf881544","system_id":"levelo_inurba_marseille","lat":43.28273,"lon":5.35071,"is_reserved":false,"is_disabled":false,"rental_uris":{"android":"levelo://app?vid=2cac112a-19df-44f0-8ce7-3be7bf881544","ios":"levelo://app?vid=2cac112a-19df-44f0-8ce7-3be7bf881544"},"vehicle_type_id":"4","last_reported":1736284091,"current_range_meters":28400,"station_id":"ce4bhbp2rcd13ifvqerg","pricing_plan_id":"cebpf4jnsgd1na2vs0mg"},{"bike_id":"ebef3c2c-525d-4acb-b33c-022596666309","system_id":"levelo_inurba_marseille","lat":43.30824,"lon":5.43543,"is_reserved":false,"is_disabled":true,"rental_uris":{"android":"levelo://app?vid=ebef3c2c-525d-4acb-b33c-022596666309","ios":"levelo://app?vid=ebef3c2c-525d-4acb-b33c-022596666309"},"vehicle_type_id":"4","last_reported":1736284091,"current_range_meters":1600,"station_id":"ce4bhph2rcd13ifvqheg","pricing_plan_id":"cebpf4jnsgd1na2vs0mg"},{"bike_id":"9bd209af-9300-42ba-a770-5f69490097fe","system_id":"levelo_inurba_marseille","lat":43.29259,"lon":5.40899,"is_reserved":false,"is_disabled":false,"rental_uris":{"android":"levelo://app?vid=9bd209af-9300-42ba-a770-5f69490097fe","ios":"levelo://app?vid=9bd209af-9300-42ba-a770-5f69490097fe"},"vehicle_type_id":"4","last_reported":1736284091,"current_range_meters":23200,"station_id":"ce4bh192rcd13ifvqdc0","pricing_plan_id":"cebpf4jnsgd1na2vs0mg"},{"bike_id":"578dc93c-9cb6-44e9-9674-3bdc3e25afad","system_id":"levelo_inurba_marseille","lat":43.30802,"lon":5.43526,"is_reserved":false,"is_disabled":false,"rental_uris":{"android":"levelo://app?vid=578dc93c-9cb6-44e9-9674-3bdc3e25afad","ios":"levelo://app?vid=578dc93c-9cb6-44e9-9674-3bdc3e25afad"},"vehicle_type_id":"4","last_reported":1736284091,"current_range_meters":22000,"station_id":"ce4bhph2rcd13ifvqheg","pricing_plan_id":"cebpf4jnsgd1na2vs0mg"},{"bike_id":"a0f6036a-5401-4667-beb1-c12911e1f446","system_id":"levelo_inurba_marseille","lat":43.287249,"lon":5.360816,"is_reserved":false,"is_disabled":false,"rental_uris":{"android":"levelo://app?vid=a0f6036a-5401-4667-beb1-c12911e1f446","ios":"levelo://app?vid=a0f6036a-5401-4667-beb1-c12911e1f446"},"vehicle_type_id":"4","last_reported":1736284091,"current_range_meters":22000,"station_id":"cki0cbj6b192h4jlfktg","pricing_plan_id":"cebpf4jnsgd1na2vs0mg"},{"bike_id":"85655732-1841-4a53-ad8f-4e08e8b50f96","system_id":"levelo_inurba_marseille","lat":43.29748,"lon":5.3709,"is_reserved":false,"is_disabled":false,"rental_uris":{"android":"levelo://app?vid=85655732-1841-4a53-ad8f-4e08e8b50f96","ios":"levelo://app?vid=85655732-1841-4a53-ad8f-4e08e8b50f96"},"vehicle_type_id":"4","last_reported":1736284091,"current_range_meters":36400,"station_id":"ce4bgop2rcd13ifvqc1g","pricing_plan_id":"cebpf4jnsgd1na2vs0mg"},{"bike_id":"4349e322-e54f-4a7c-8de9-2ce06a16918d","system_id":"levelo_inurba_marseille","lat":43.279488,"lon":5.41048,"is_reserved":false,"is_disabled":false,"rental_uris":{"android":"levelo://app?vid=4349e322-e54f-4a7c-8de9-2ce06a16918d","ios":"levelo://app?vid=4349e322-e54f-4a7c-8de9-2ce06a16918d"},"vehicle_type_id":"4","last_reported":1736284091,"current_range_meters":38800,"station_id":"ce4bhnp2rcd13ifvqh0g","pricing_plan_id":"cebpf4jnsgd1na2vs0mg"},{"bike_id":"41fdbc2b-0c94-4370-8c01-0a942709cc9f","system_id":"levelo_inurba_marseille","lat":43.292635,"lon":5.40922,"is_reserved":false,"is_disabled":false,"rental_uris":{"android":"levelo://app?vid=41fdbc2b-0c94-4370-8c01-0a942709cc9f","ios":"levelo://app?vid=41fdbc2b-0c94-4370-8c01-0a942709cc9f"},"vehicle_type_id":"4","last_reported":1736284091,"current_range_meters":38800,"station_id":"ce4bh192rcd13ifvqdc0","pricing_plan_id":"cebpf4jnsgd1na2vs0mg"},{"bike_id":"8d601397-a46c-42b4-b4d4-5570414bbfdc","system_id":"levelo_inurba_marseille","lat":43.31703,"lon":5.40446,"is_reserved":false,"is_disabled":true,"rental_uris":{"android":"levelo://app?vid=8d601397-a46c-42b4-b4d4-5570414bbfdc","ios":"levelo://app?vid=8d601397-a46c-42b4-b4d4-5570414bbfdc"},"vehicle_type_id":"4","last_reported":1736284091,"current_range_meters":31200,"station_id":"ce4bh012rcd13ifvqd00","pricing_plan_id":"cebpf4jnsgd1na2vs0mg"},{"bike_id":"73f0050d-4e0f-4a61-8b2b-8791090cf9b5","system_id":"levelo_inurba_marseille","lat":43.28933,"lon":5.36625,"is_reserved":false,"is_disabled":false,"rental_uris":{"android":"levelo://app?vid=73f0050d-4e0f-4a61-8b2b-8791090cf9b5","ios":"levelo://app?vid=73f0050d-4e0f-4a61-8b2b-8791090cf9b5"},"vehicle_type_id":"4","last_reported":1736284091,"current_range_meters":23200,"station_id":"ce4bhap2rcd13ifvqek0","pricing_plan_id":"cebpf4jnsgd1na2vs0mg"},{"bike_id":"c5cd14ba-a894-4df6-9c35-21af1d022402","system_id":"levelo_inurba_marseille","lat":43.29539,"lon":5.38536,"is_reserved":false,"is_disabled":false,"rental_uris":{"android":"levelo://app?vid=c5cd14ba-a894-4df6-9c35-21af1d022402","ios":"levelo://app?vid=c5cd14ba-a894-4df6-9c35-21af1d022402"},"vehicle_type_id":"4","last_reported":1736284091,"current_range_meters":38800,"station_id":"ce4bgih2rcd13ifvqba0","pricing_plan_id":"cebpf4jnsgd1na2vs0mg"},{"bike_id":"8073e6cc-9e8c-4732-83d8-316d4ce5e958","system_id":"levelo_inurba_marseille","lat":43.31721,"lon":5.4239,"is_reserved":false,"is_disabled":false,"rental_uris":{"android":"levelo://app?vid=8073e6cc-9e8c-4732-83d8-316d4ce5e958","ios":"levelo://app?vid=8073e6cc-9e8c-4732-83d8-316d4ce5e958"},"vehicle_type_id":"4","last_reported":1736284091,"current_range_meters":28400,"station_id":"ce4bhp92rcd13ifvqhbg","pricing_plan_id":"cebpf4jnsgd1na2vs0mg"},