{"last_updated":1724699255,"ttl":30,"version":"2.2","data":{"bikes":[{"bike_id":"73c341e4-4fa8-480c-b136-5dc5421a09f9","system_id":"levelo_inurba_marseille","lat":43.31354,"lon":5.36714,"is_reserved":false,"is_disabled":false,"rental_uris":{"android":"levelo://app?vid=73c341e4-4fa8-480c-b136-5dc5421a09f9","ios":"levelo://app?vid=73c341e4-4fa8-480c-b136-5dc5421a09f9"},"vehicle_type_id":"4","last_reported":1724699255,"current_range_meters":10000,"station_id":"ce4bgr92rcd13ifvqc6g","pricing_plan_id":"cebpf4jnsgd1na2vs0mg"},{"bike_id":"195e3bde-048f-47b3-8dc1-91b194bfd8c0","system_id":"levelo_inurba_marseille","lat":43.312239,"lon":5.368562,"is_reserved":false,"is_disabled":false,"rental_uris":{"android":"levelo://app?vid=195e3bde-048f-47b3-8dc1-91b194bfd8c0","ios":"levelo://app?vid=195e3bde-048f-47b3-8dc1-91b194bfd8c0"},"vehicle_type_id":"4","last_reported":1724699255,"current_range_meters":30000,"station_id":"ce4bgl92rcd13ifvqbq0","pricing_plan_id":"cebpf4jnsgd1na2vs0mg"},{"bike_id":"f8ebd61c-b636-4ba1-8df3-3ff902197e41","system_id":"levelo_inurba_marseille","lat":43.312239,"lon":5.368562,"is_reserved":false,"is_disabled":false,"rental_uris":{"android":"levelo://app?vid=f8ebd61c-b636-4ba1-8df3-3ff902197e41","ios":"levelo://app?vid=f8ebd61c-b636-4ba1-8df3-3ff902197e41"},"vehicle_type_id":"4","last_reported":1724699255,"current_range_meters":800,"station_id":"ce4bgl92rcd13ifvqbq0","pricing_plan_id":"cebpf4jnsgd1na2vs0mg"},{"bike_id":"480b08b0-fb82-4a27-a89f-14b36234a8e6","system_id":"levelo_inurba_marseille","lat":43.309039,"lon":5.371797,"is_reserved":false,"is_disabled":false,"rental_uris":{"android":"levelo://app?vid=480b08b0-fb82-4a27-a89f-14b36234a8e6","ios":"levelo://app?vid=480b08b0-fb82-4a27-a89f-14b36234a8e6"},"vehicle_type_id":"4","last_reported":1724699255,"current_range_meters":2000,"station_id":"ce4bguh2rcd13ifvqckg","pricing_plan_id":"cebpf4jnsgd1na2vs0mg"},{"bike_id":"42616c2c-844e-46c1-a43e-c6662e73fbd2","system_id":"levelo_inurba_marseille","lat":43.309034,"lon":5.371783,"is_reserved":false,"is_disabled":false,"rental_uris":{"android":"levelo://app?vid=42616c2c-844e-46c1-a43e-c6662e73fbd2","ios":"levelo://app?vid=42616c2c-844e-46c1-a43e-c6662e73fbd2"},"vehicle_type_id":"4","last_reported":1724699255,"current_range_meters":0,"station_id":"ce4bguh2rcd13ifvqckg","pricing_plan_id":"cebpf4jnsgd1na2vs0mg"},{"bike_id":"bb493553-6ee4-40be-8562-5503eca70d20","system_id":"levelo_inurba_marseille","lat":43.30905,"lon":5.37497,"is_reserved":false,"is_disabled":false,"rental_uris":{"android":"levelo://app?vid=bb493553-6ee4-40be-8562-5503eca70d20","ios":"levelo://app?vid=bb493553-6ee4-40be-8562-5503eca70d20"},"vehicle_type_id":"4","last_reported":1724699255,"current_range_meters":3200,"station_id":"","pricing_plan_id":"cebpf4jnsgd1na2vs0mg"},{"bike_id":"ee8659d8-43a4-44c2-bda7-b6d09077d9d8","system_id":"levelo_inurba_marseille","lat":43.30537,"lon":5.367345,"is_reserved":false,"is_disabled":false,"rental_uris":{"android":"levelo://app?vid=ee8659d8-43a4-44c2-bda7-b6d09077d9d8","ios":"levelo://app?vid=ee8659d8-43a4-44c2-bda7-b6d09077d9d8"},"vehicle_type_id":"4","last_reported":1724699255,"current_range_meters":11200,"station_id":"ce4bgrp2rcd13ifvqc9g","pricing_plan_id":"cebpf4jnsgd1na2vs0mg"},{"bike_id":"e92cbc87-0ee8-473d-95bb-286f226f778a","system_id":"levelo_inurba_marseille","lat":43.30531,"lon":5.36706,"is_reserved":false,"is_disabled":false,"rental_uris":{"android":"levelo://app?vid=e92cbc87-0ee8-473d-95bb-286f226f778a","ios":"levelo://app?vid=e92cbc87-0ee8-473d-95bb-286f226f778a"},"vehicle_type_id":"4","last_reported":1724699255,"current_range_meters":0,"station_id":"ce4bgrp2rcd13ifvqc9g","pricing_plan_id":"cebpf4jnsgd1na2vs0mg"},{"bike_id":"5f98d60c-fba1-4752-a0ac-a5121cba2496","system_id":"levelo_inurba_marseille","lat":43.31117,"lon":5.37769,"is_reserved":false,"is_disabled":false,"rental_uris":{"android":"levelo://app?vid=5f98d60c-fba1-4752-a0ac-a5121cba2496","ios":"levelo://app?vid=5f98d60c-fba1-4752-a0ac-a5121cba2496"},"vehicle_type_id":"4","last_reported":1724699255,"current_range_meters":0,"station_id":"ce4bgt92rcd13ifvqcg0","pricing_plan_id":"cebpf4jnsgd1na2vs0mg"},{"bike_id":"f3a34e05-144d-4829-824d-10ee952fde50","system_id":"levelo_inurba_marseille","lat":43.311125,"lon":5.377624,"is_reserved":false,"is_disabled":false,"rental_uris":{"android":"levelo://app?vid=f3a34e05-144d-4829-824d-10ee952fde50","ios":"levelo://app?vid=f3a34e05-144d-4829-824d-10ee952fde50"},"vehicle_type_id":"4","last_reported":1724699255,"current_range_meters":0,"station_id":"ce4bgt92rcd13ifvqcg0","pricing_plan_id":"cebpf4jnsgd1na2vs0mg"},{"bike_id":"80ad20d0-c62b-4692-90d2-cb2af2143146","system_id":"levelo_inurba_marseille","lat":43.307945,"lon":5.376487,"is_reserved":false,"is_disabled":false,"rental_uris":{"android":"levelo://app?vid=80ad20d0-c62b-4692-90d2-cb2af2143146","ios":"levelo://app?vid=80ad20d0-c62b-4692-90d2-cb2af2143146"},"vehicle_type_id":"4","last_reported":1724699255,"current_range_meters":1200,"station_id":"ce4bgv92rcd13ifvqcq0","pricing_plan_id":"cebpf4jnsgd1na2vs0mg"},{"bike_id":"41c7bed9-732f-4177-a86d-8f9fafcc2d67","system_id":"levelo_inurba_marseille","lat":43.307945,"lon":5.376487,"is_reserved":false,"is_disabled":false,"rental_uris":{"android":"levelo://app?vid=41c7bed9-732f-4177-a86d-8f9fafcc2d67","ios":"levelo://app?vid=41c7bed9-732f-4177-a86d-8f9fafcc2d67"},"vehicle_type_id":"4","last_reported":1724699255,"current_range_meters":7200,"station_id":"ce4bgv92rcd13ifvqcq0","pricing_plan_id":"cebpf4jnsgd1na2vs0mg"},{"bike_id":"fe668357-f0a2-4a50-9d81-865191d1fbc3","system_id":"levelo_inurba_marseille","lat":43.307945,"lon":5.376487,"is_reserved":false,"is_disabled":false,"rental_uris":{"android":"levelo://app?vid=fe668357-f0a2-4a50-9d81-865191d1fbc3","ios":"levelo://app?vid=fe668357-f0a2-4a50-9d81-865191d1fbc3"},"vehicle_type_id":"4","last_reported":1724699255,"current_range_meters":0,"station_id":"ce4bgv92rcd13ifvqcq0","pricing_plan_id":"cebpf4jnsgd1na2vs0mg"},{"bike_id":"4dd90972-ec68-4bb3-af11-a982f2621b7e","system_id":"levelo_inurba_marseille","lat":43.307945,"lon":5.376487,"is_reserved":false,"is_disabled":false,"rental_uris":{"android":"levelo://app?vid=4dd90972-ec68-4bb3-af11-a982f2621b7e","ios":"levelo://app?vid=4dd90972-ec68-4bb3-af11-a982f2621b7e"},"vehicle_type_id":"4","last_reported":1724699255,"current_range_meters":10400,"station_id":"ce4bgv92rcd13ifvqcq0","pricing_plan_id":"cebpf4jnsgd1na2vs0mg"},{"bike_id":"7b37d908-4207-4642-8166-6945ff82e35f","system_id":"levelo_inurba_marseille","lat":43.30794,"lon":5.37664,"is_reserved":false,"is_disabled":false,"rental_uris":{"android":"levelo://app?vid=7b37d908-4207-4642-8166-6945ff82e35f","ios":"levelo://app?vid=7b37d908-4207-4642-8166-6945ff82e35f"},"vehicle_type_id":"4","last_reported":1724699255,"current_range_meters":4400,"station_id":"ce4bgv92rcd13ifvqcq0","pricing_plan_id":"cebpf4jnsgd1na2vs0mg"},{"bike_id":"60c3ce07-6192-4c73-9978-79cf6a671293","system_id":"levelo_inurba_marseille","lat":43.317075,"lon":5.377367,"is_reserved":false,"is_disabled":false,"rental_uris":{"android":"levelo://app?vid=60c3ce07-6192-4c73-9978-79cf6a671293","ios":"levelo://app?vid=60c3ce07-6192-4c73-9978-79cf6a671293"},"vehicle_type_id":"4","last_reported":1724699255,"current_range_meters":0,"station_id":"ce4bgth2rcd13ifvqch0","pricing_plan_id":"cebpf4jnsgd1na2vs0mg"},{"bike_id":"a317ce07-bd13-4a13-ae26-07e690c65a2c","system_id":"levelo_inurba_marseille","lat":43.31182,"lon":5.37892,"is_reserved":false,"is_disabled":false,"rental_uris":{"android":"levelo://app?vid=a317ce07-bd13-4a13-ae26-07e690c65a2c","ios":"levelo://app?vid=a317ce07-bd13-4a13-ae26-07e690c65a2c"},"vehicle_type_id":"4","last_reported":1724699255,"current_range_meters":400,"station_id":"","pricing_plan_id":"cebpf4jnsgd1na2vs0mg"},{"bike_id":"5dab08de-2d98-4845-bbfa-c8dc7977a3bf","system_id":"levelo_inurba_marseille","lat":43.317075,"lon":5.377367,"is_reserved":false,"is_disabled":false,"rental_uris":{"android":"levelo://app?vid=5dab08de-2d98-4845-bbfa-c8dc7977a3bf","ios":"levelo://app?vid=5dab08de-2d98-4845-bbfa-c8dc7977a3bf"},"vehicle_type_id":"4","last_reported":1724699255,"current_range_meters":24800,"station_id":"ce4bgth2rcd13ifvqch0","pricing_plan_id":"cebpf4jnsgd1na2vs0mg"},{"bike_id":"96d4f294-416c-4af6-bbec-d417057e7ba3","system_id":"levelo_inurba_marseille","lat":43.317075,"lon":5.377367,"is_reserved":false,"is_disabled":false,"rental_uris":{"android":"levelo://app?vid=96d4f294-416c-4af6-bbec-d417057e7ba3","ios":"levelo://app?vid=96d4f294-416c-4af6-bbec-d417057e7ba3"},"vehicle_type_id":"4","last_reported":1724699255,"current_range_meters":7600,"station_id":"ce4bgth2rcd13ifvqch0","pricing_plan_id":"cebpf4jnsgd1na2vs0mg"},{"bike_id":"666bf85a-78fd-46ff-9078-bdddac3e3f4d","system_id":"levelo_inurba_marseille","lat":43.317075,"lon":5.377367,"is_reserved":false,"is_disabled":false,"rental_uris":{"android":"levelo://app?vid=666bf85a-78fd-46ff-9078-bdddac3e3f4d","ios":"levelo://app?vid=666bf85a-78fd-46ff-9078-bdddac3e3f4d"},"vehicle_type_id":"4","last_reported":1724699255,"current_range_meters":13200,"station_id":"ce4bgth2rcd13ifvqch0","pricing_plan_id":"cebpf4jnsgd1na2vs0mg"},{"bike_id":"49c3511f-86c5-4879-ad94-d894776ae9b6","system_id":"levelo_inurba_marseille","lat":43.317075,"lon":5.377367,"is_reserved":false,"is_disabled":false,"rental_uris":{"android":"levelo://app?vid=49c3511f-86c5-4879-ad94-d894776ae9b6","ios":"levelo://app?vid=49c3511f-86c5-4879-ad94-d894776ae9b6"},"vehicle_type_id":"4","last_reported":1724699255,"current_range_meters":1600,"station_id":"ce4bgth2rcd13ifvqch0","pricing_plan_id":"cebpf4jnsgd1na2vs0mg"},{"bike_id":"76396786-201d-4f53-9bb5-aab4100bf121","system_id":"levelo_inurba_marseille","lat":43.279742,"lon":5.38744,"is_reserved":false,"is_disabled":false,"rental_uris":{"android":"levelo://app?vid=76396786-201d-4f53-9bb5-aab4100bf121","ios":"levelo://app?vid=76396786-201d-4f53-9bb5-aab4100bf121"},"vehicle_type_id":"4","last_reported":1724699255,"current_range_meters":18400,"station_id":"ce4bhg12rcd13ifvqf80","pricing_plan_id":"cebpf4jnsgd1na2vs0mg"},{"bike_id":"5751834e-699d-4508-bf51-d76f6d85f1ef","system_id":"levelo_inurba_marseille","lat":43.303046,"lon":5.368981,"is_reserved":false,"is_disabled":false,"rental_uris":{"android":"levelo://app?vid=5751834e-699d-4508-bf51-d76f6d85f1ef","ios":"levelo://app?vid=5751834e-699d-4508-bf51-d76f6d85f1ef"},"vehicle_type_id":"4","last_reported":1724699255,"current_range_meters":9200,"station_id":"ce4bgqh2rcd13ifvqc5g","pricing_plan_id":"cebpf4jnsgd1na2vs0mg"},{"bike_id":"241e89de-46e9-42c4-86c6-4acd4ff70069","system_id":"levelo_inurba_marseille","lat":43.303046,"lon":5.368981,"is_reserved":false,"is_disabled":false,"rental_uris":{"android":"levelo://app?vid=241e89de-46e9-42c4-86c6-4acd4ff70069","ios":"levelo://app?vid=241e89de-46e9-42c4-86c6-4acd4ff70069"},"vehicle_type_id":"4","last_reported":1724699255,"current_range_meters":14000,"station_id":"ce4bgqh2rcd13ifvqc5g","pricing_plan_id":"cebpf4jnsgd1na2vs0mg"},{"bike_id":"d11929d8-5602-44a9-9fa3-e24969e5a509","system_id":"levelo_inurba_marseille","lat":43.30304,"lon":5.368987,"is_reserved":false,"is_disabled":false,"rental_uris":{"android":"levelo://app?vid=d11929d8-5602-44a9-9fa3-e24969e5a509","ios":"levelo://app?vid=d11929d8-5602-44a9-9fa3-e24969e5a509"},"vehicle_type_id":"4","last_reported":1724699255,"current_range_meters":12000,"station_id":"ce4bgqh2rcd13ifvqc5g","pricing_plan_id":"cebpf4jnsgd1na2vs0mg"},{"bike_id":"8a2dd73a-e0ce-40fa-ab22-deb914d554dd","system_id":"levelo_inurba_marseille","lat":43.31525,"lon":5.38039,"is_reserved":false,"is_disabled":false,"rental_uris":{"android":"levelo://app?vid=8a2dd73a-e0ce-40fa-ab22-deb914d554dd","ios":"levelo://app?vid=8a2dd73a-e0ce-40fa-ab22-deb914d554dd"},"vehicle_type_id":"4","last_reported":1724699255,"current_range_meters":7600,"station_id":"ce4bhsp2rcd13ifvqi50","pricing_plan_id":"cebpf4jnsgd1na2vs0mg"},{"bike_id":"6a832923-ec80-4c95-9d83-08f498a1876b","system_id":"levelo_inurba_marseille","lat":43.30269,"lon":5.36871,"is_reserved":false,"is_disabled":false,"rental_uris":{"android":"levelo://app?vid=6a832923-ec80-4c95-9d83-08f498a1876b","ios":"levelo://app?vid=6a832923-ec80-4c95-9d83-08f498a1876b"},"vehicle_type_id":"4","last_reported":1724699255,"current_range_meters":22000,"station_id":"ce4bgqh2rcd13ifvqc5g","pricing_plan_id":"cebpf4jnsgd1na2vs0mg"},{"bike_id":"00981a4a-d604-4cf3-aadb-c332f303f719","system_id":"levelo_inurba_marseille","lat":43.301939,"lon":5.366286,"is_reserved":false,"is_disabled":false,"rental_uris":{"android":"levelo://app?vid=00981a4a-d604-4cf3-aadb-c332f303f719","ios":"levelo://app?vid=00981a4a-d604-4cf3-aadb-c332f303f719"},"vehicle_type_id":"4","last_reported":1724699255,"current_range_meters":21600,"station_id":"ce4bgrh2rcd13ifvqc8g","pricing_plan_id":"cebpf4jnsgd1na2vs0mg"},{"bike_id":"3912ee9c-ccda-4243-81d3-48c4158a9b7d","system_id":"levelo_inurba_marseille","lat":43.301939,"lon":5.366286,"is_reserved":false,"is_disabled":false,"rental_uris":{"android":"levelo://app?vid=3912ee9c-ccda-4243-81d3-48c4158a9b7d","ios":"levelo://app?vid=3912ee9c-ccda-4243-81d3-48c4158a9b7d"},"vehicle_type_id":"4","last_reported":1724699255,"current_range_meters":0,"station_id":"ce4bgrh2rcd13ifvqc8g","pricing_plan_id":"cebpf4jnsgd1na2vs0mg"},{"bike_id":"b920b1b8-a500-4323-b0e0-024061a01c39","system_id":"levelo_inurba_marseille","lat":43.30177,"lon":5.36607,"is_reserved":false,"is_disabled":false,"rental_uris":{"android":"levelo://app?vid=b920b1b8-a500-4323-b0e0-024061a01c39","ios":"levelo://app?vid=b920b1b8-a500-4323-b0e0-024061a01c39"},"vehicle_type_id":"4","last_reported":1724699255,"current_range_meters":7600,"station_id":"ce4bgrh2rcd13ifvqc8g","pricing_plan_id":"cebpf4jnsgd1na2vs0mg"},{"bike_id":"632f6572-2396-4ab8-82b2-3d962c7424c7","system_id":"levelo_inurba_marseille","lat":43.30789,"lon":5.38139,"is_reserved":false,"is_disabled":false,"rental_uris":{"android":"levelo://app?vid=632f6572-2396-4ab8-82b2-3d962c7424c7","ios":"levelo://app?vid=632f6572-2396-4ab8-82b2-3d962c7424c7"},"vehicle_type_id":"4","last_reported":1724699255,"current_range_meters":9200,"station_id":"ce4bgt12rcd13ifvqce0","pricing_plan_id":"cebpf4jnsgd1na2vs0mg"},{"bike_id":"419c3218-a8cd-4f4b-9b4c-52dfead4aa51","system_id":"levelo_inurba_marseille","lat":43.308012,"lon":5.381511,"is_reserved":false,"is_disabled":false,"rental_uris":{"android":"levelo://app?vid=419c3218-a8cd-4f4b-9b4c-52dfead4aa51","ios":"levelo://app?vid=419c3218-a8cd-4f4b-9b4c-52dfead4aa51"},"vehicle_type_id":"4","last_reported":1724699255,"current_range_meters":18800,"station_id":"ce4bgt12rcd13ifvqce0","pricing_plan_id":"cebpf4jnsgd1na2vs0mg"},{"bike_id":"b80d6b80-3058-4958-ba31-dd38303b59d5","system_id":"levelo_inurba_marseille","lat":43.30807,"lon":5.3816,"is_reserved":false,"is_disabled":false,"rental_uris":{"android":"levelo://app?vid=b80d6b80-3058-4958-ba31-dd38303b59d5","ios":"levelo://app?vid=b80d6b80-3058-4958-ba31-dd38303b59d5"},"vehicle_type_id":"4","last_reported":1724699255,"current_range_meters":0,"station_id":"ce4bgt12rcd13ifvqce0","pricing_plan_id":"cebpf4jnsgd1na2vs0mg"},{"bike_id":"c01d883b-9b8b-450e-89e9-567c7710355c","system_id":"levelo_inurba_marseille","lat":43.30793,"lon":5.38154,"is_reserved":false,"is_disabled":false,"rental_uris":{"android":"levelo://app?vid=c01d883b-9b8b-450e-89e9-567c7710355c","ios":"levelo://app?vid=c01d883b-9b8b-450e-89e9-567c7710355c"},"vehicle_type_id":"4","last_reported":1724699255,"current_range_meters":16000,"station_id":"ce4bgt12rcd13ifvqce0","pricing_plan_id":"cebpf4jnsgd1na2vs0mg"},{"bike_id":"274d4e0e-07cb-43fa-b1a3-ecba01b92388","system_id":"levelo_inurba_marseille","lat":43.324771,"lon":5.36557,"is_reserved":false,"is_disabled":false,"rental_uris":{"android":"levelo://app?vid=274d4e0e-07cb-43fa-b1a3-ecba01b92388","ios":"levelo://app?vid=274d4e0e-07cb-43fa-b1a3-ecba01b92388"},"vehicle_type_id":"4","last_reported":1724699255,"current_range_meters":17200,"station_id":"ce4bhs12rcd13ifvqhvg","pricing_plan_id":"cebpf4jnsgd1na2vs0mg"},{"bike_id":"00aaa01b-3e40-4e8a-b9a9-b5e9709c183b","system_id":"levelo_inurba_marseille","lat":43.32476,"lon":5.36568,"is_reserved":false,"is_disabled":false,"rental_uris":{"android":"levelo://app?vid=00aaa01b-3e40-4e8a-b9a9-b5e9709c183b","ios":"levelo://app?vid=00aaa01b-3e40-4e8a-b9a9-b5e9709c183b"},"vehicle_type_id":"4","last_reported":1724699255,"current_range_meters":0,"station_id":"ce4bhs12rcd13ifvqhvg","pricing_plan_id":"cebpf4jnsgd1na2vs0mg"},{"bike_id":"aeb4909e-1ddb-4b97-bdef-665881af26ff","system_id":"levelo_inurba_marseille","lat":43.3107,"lon":5.38347,"is_reserved":false,"is_disabled":false,"rental_uris":{"android":"levelo://app?vid=aeb4909e-1ddb-4b97-bdef-665881af26ff","ios":"levelo://app?vid=aeb4909e-1ddb-4b97-bdef-665881af26ff"},"vehicle_type_id":"4","last_reported":1724699255,"current_range_meters":2000,"station_id":"ce4bgv92rcd13ifvqcr0","pricing_plan_id":"cebpf4jnsgd1na2vs0mg"},{"bike_id":"584c18ba-be8d-4093-a579-76576239dfc1","system_id":"levelo_inurba_marseille","lat":43.301429,"lon":5.37413,"is_reserved":false,"is_disabled":false,"rental_uris":{"android":"levelo://app?vid=584c18ba-be8d-4093-a579-76576239dfc1","ios":"levelo://app?vid=584c18ba-be8d-4093-a579-76576239dfc1"},"vehicle_type_id":"4","last_reported":1724699255,"current_range_meters":11600,"station_id":"ce4bgs92rcd13ifvqcc0","pricing_plan_id":"cebpf4jnsgd1na2vs0mg"},{"bike_id":"ff2e2f17-e53a-4360-9800-37c28492171b","system_id":"levelo_inurba_marseille","lat":43.31966,"lon":5.38148,"is_reserved":false,"is_disabled":false,"rental_uris":{"android":"levelo://app?vid=ff2e2f17-e53a-4360-9800-37c28492171b","ios":"levelo://app?vid=ff2e2f17-e53a-4360-9800-37c28492171b"},"vehicle_type_id":"4","last_reported":1724699255,"current_range_meters":6000,"station_id":"ce4bhr12rcd13ifvqhpg","pricing_plan_id":"cebpf4jnsgd1na2vs0mg"},{"bike_id":"117cda6a-1261-45f1-aa8c-f5aabee24375","system_id":"levelo_inurba_marseille","lat":43.32537,"lon":5.364093,"is_reserved":false,"is_disabled":false,"rental_uris":{"android":"levelo://app?vid=117cda6a-1261-45f1-aa8c-f5aabee24375","ios":"levelo://app?vid=117cda6a-1261-45f1-aa8c-f5aabee24375"},"vehicle_type_id":"4","last_reported":1724699255,"current_range_meters":10000,"station_id":"","pricing_plan_id":"cebpf4jnsgd1na2vs0mg"},{"bike_id":"1c7b2eab-55ea-499f-865b-add70a9cee7e","system_id":"levelo_inurba_marseille","lat":43.313571,"lon":5.384829,"is_reserved":false,"is_disabled":false,"rental_uris":{"android":"levelo://app?vid=1c7b2eab-55ea-499f-865b-add70a9cee7e","ios":"levelo://app?vid=1c7b2eab-55ea-499f-865b-add70a9cee7e"},"vehicle_type_id":"4","last_reported":1724699255,"current_range_meters":19200,"station_id":"ce4bgt92rcd13ifvqcf0","pricing_plan_id":"cebpf4jnsgd1na2vs0mg"},{"bike_id":"0dc039d6-fc3e-41cf-a128-2da03fa34878","system_id":"levelo_inurba_marseille","lat":43.313571,"lon":5.384829,"is_reserved":false,"is_disabled":false,"rental_uris":{"android":"levelo://app?vid=0dc039d6-fc3e-41cf-a128-2da03fa34878","ios":"levelo://app?vid=0dc039d6-fc3e-41cf-a128-2da03fa34878"},"vehicle_type_id":"4","last_reported":1724699255,"current_range_meters":12800,"station_id":"ce4bgt92rcd13ifvqcf0","pricing_plan_id":"cebpf4jnsgd1na2vs0mg"},{"bike_id":"d384c0e6-a4ea-404e-a4fb-693230effd49","system_id":"levelo_inurba_marseille","lat":43.299724,"lon":5.371829,"is_reserved":false,"is_disabled":false,"rental_uris":{"android":"levelo://app?vid=d384c0e6-a4ea-404e-a4fb-693230effd49","ios":"levelo://app?vid=d384c0e6-a4ea-404e-a4fb-693230effd49"},"vehicle_type_id":"4","last_reported":1724699255,"current_range_meters":15600,"station_id":"ce4bgr92rcd13ifvqc7g","pricing_plan_id":"cebpf4jnsgd1na2vs0mg"},{"bike_id":"fa08da4f-8099-4bf4-a72c-0451d62568d9","system_id":"levelo_inurba_marseille","lat":43.29972,"lon":5.37174,"is_reserved":false,"is_disabled":false,"rental_uris":{"android":"levelo://app?vid=fa08da4f-8099-4bf4-a72c-0451d62568d9","ios":"levelo://app?vid=fa08da4f-8099-4bf4-a72c-0451d62568d9"},"vehicle_type_id":"4","last_reported":1724699255,"current_range_meters":1600,"station_id":"ce4bgr92rcd13ifvqc7g","pricing_plan_id":"cebpf4jnsgd1na2vs0mg"},{"bike_id":"507babf3-25ed-482d-9748-56ce378590ee","system_id":"levelo_inurba_marseille","lat":43.299724,"lon":5.371829,"is_reserved":false,"is_disabled":false,"rental_uris":{"android":"levelo://app?vid=507babf3-25ed-482d-9748-56ce378590ee","ios":"levelo://app?vid=507babf3-25ed-482d-9748-56ce378590ee"},"vehicle_type_id":"4","last_reported":1724699255,"current_range_meters":5200,"station_id":"ce4bgr92rcd13ifvqc7g","pricing_plan_id":"cebpf4jnsgd1na2vs0mg"},{"bike_id":"9e54f3d0-0815-466a-933f-e1b0189dab8e","system_id":"levelo_inurba_marseille","lat":43.299222,"lon":5.365554,"is_reserved":false,"is_disabled":false,"rental_uris":{"android":"levelo://app?vid=9e54f3d0-0815-466a-933f-e1b0189dab8e","ios":"levelo://app?vid=9e54f3d0-0815-466a-933f-e1b0189dab8e"},"vehicle_type_id":"4","last_reported":1724699255,"current_range_meters":6400,"station_id":"ce4bgm92rcd13ifvqbr0","pricing_plan_id":"cebpf4jnsgd1na2vs0mg"},{"bike_id":"bac05021-748b-455b-9acd-3e33ee909e27","system_id":"levelo_inurba_marseille","lat":43.299724,"lon":5.371829,"is_reserved":false,"is_disabled":false,"rental_uris":{"android":"levelo://app?vid=bac05021-748b-455b-9acd-3e33ee909e27","ios":"levelo://app?vid=bac05021-748b-455b-9acd-3e33ee909e27"},"vehicle_type_id":"4","last_reported":1724699255,"current_range_meters":28400,"station_id":"ce4bgr92rcd13ifvqc7g","pricing_plan_id":"cebpf4jnsgd1na2vs0mg"},{"bike_id":"8d413bcc-e08c-4a09-bbc8-5fba68c3713e","system_id":"levelo_inurba_marseille","lat":43.30576,"lon":5.38352,"is_reserved":false,"is_disabled":false,"rental_uris":{"android":"levelo://app?vid=8d413bcc-e08c-4a09-bbc8-5fba68c3713e","ios":"levelo://app?vid=8d413bcc-e08c-4a09-bbc8-5fba68c3713e"},"vehicle_type_id":"4","last_reported":1724699255,"current_range_meters":15200,"station_id":"","pricing_plan_id":"cebpf4jnsgd1na2vs0mg"},{"bike_id":"d5642eaa-d75a-4b2b-8c69-be75d7edfc7a","system_id":"levelo_inurba_marseille","lat":43.305364,"lon":5.384119,"is_reserved":false,"is_disabled":false,"rental_uris":{"android":"levelo://app?vid=d5642eaa-d75a-4b2b-8c69-be75d7edfc7a","ios":"levelo://app?vid=d5642eaa-d75a-4b2b-8c69-be75d7edfc7a"},"vehicle_type_id":"4","last_reported":1724699255,"current_range_meters":400,"station_id":"ce4bgg92rcd13ifvqb30","pricing_plan_id":"cebpf4jnsgd1na2vs0mg"},{"bike_id":"79964310-178c-4698-9456-b831f278a340","system_id":"levelo_inurba_marseille","lat":43.298433,"lon":5.362774,"is_reserved":false,"is_disabled":false,"rental_uris":{"android":"levelo://app?vid=79964310-178c-4698-9456-b831f278a340","ios":"levelo://app?vid=79964310-178c-4698-9456-b831f278a340"},"vehicle_type_id":"4","last_reported":1724699255,"current_range_meters":0,"station_id":"ce4bgpp2rcd13ifvqc3g","pricing_plan_id":"cebpf4jnsgd1na2vs0mg"},{"bike_id":"6e4795e3-0ee9-4c7e-a221-0acd2202a243","system_id":"levelo_inurba_marseille","lat":43.298433,"lon":5.362774,"is_reserved":false,"is_disabled":false,"rental_uris":{"android":"levelo://app?vid=6e4795e3-0ee9-4c7e-a221-0acd2202a243","ios":"levelo://app?vid=6e4795e3-0ee9-4c7e-a221-0acd2202a243"},"vehicle_type_id":"4","last_reported":1724699255,"current_range_meters":22000,"station_id":"ce4bgpp2rcd13ifvqc3g","pricing_plan_id":"cebpf4jnsgd1na2vs0mg"},{"bike_id":"dee9e8e9-1dcc-45c5-847f-56755d252584","system_id":"levelo_inurba_marseille","lat":43.299243,"lon":5.37481,"is_reserved":false,"is_disabled":false,"rental_uris":{"android":"levelo://app?vid=dee9e8e9-1dcc-45c5-847f-56755d252584","ios":"levelo://app?vid=dee9e8e9-1dcc-45c5-847f-56755d252584"},"vehicle_type_id":"4","last_reported":1724699255,"current_range_meters":20800,"station_id":"ce4bgjh2rcd13ifvqbg0","pricing_plan_id":"cebpf4jnsgd1na2vs0mg"},{"bike_id":"88462038-a32e-4a30-9897-fe105fa58b83","system_id":"levelo_inurba_marseille","lat":43.299243,"lon":5.374807,"is_reserved":false,"is_disabled":false,"rental_uris":{"android":"levelo://app?vid=88462038-a32e-4a30-9897-fe105fa58b83","ios":"levelo://app?vid=88462038-a32e-4a30-9897-fe105fa58b83"},"vehicle_type_id":"4","last_reported":1724699255,"current_range_meters":3600,"station_id":"ce4bgjh2rcd13ifvqbg0","pricing_plan_id":"cebpf4jnsgd1na2vs0mg"},{"bike_id":"0c6579aa-2c61-4b3f-a850-10f038e00d20","system_id":"levelo_inurba_marseille","lat":43.301417,"lon":5.3809,"is_reserved":false,"is_disabled":false,"rental_uris":{"android":"levelo://app?vid=0c6579aa-2c61-4b3f-a850-10f038e00d20","ios":"levelo://app?vid=0c6579aa-2c61-4b3f-a850-10f038e00d20"},"vehicle_type_id":"4","last_reported":1724699255,"current_range_meters":27200,"station_id":"ce4bgjp2rcd13ifvqbh0","pricing_plan_id":"cebpf4jnsgd1na2vs0mg"},{"bike_id":"3882ecf5-d40a-4718-9964-242abc071169","system_id":"levelo_inurba_marseille","lat":43.301417,"lon":5.3809,"is_reserved":false,"is_disabled":false,"rental_uris":{"android":"levelo://app?vid=3882ecf5-d40a-4718-9964-242abc071169","ios":"levelo://app?vid=3882ecf5-d40a-4718-9964-242abc071169"},"vehicle_type_id":"4","last_reported":1724699255,"current_range_meters":0,"station_id":"ce4bgjp2rcd13ifvqbh0","pricing_plan_id":"cebpf4jnsgd1na2vs0mg"},{"bike_id":"6620c18c-e539-494a-b633-92cac3f2bd47","system_id":"levelo_inurba_marseille","lat":43.32292,"lon":5.38249,"is_reserved":false,"is_disabled":false,"rental_uris":{"android":"levelo://app?vid=6620c18c-e539-494a-b633-92cac3f2bd47","ios":"levelo://app?vid=6620c18c-e539-494a-b633-92cac3f2bd47"},"vehicle_type_id":"4","last_reported":1724699255,"current_range_meters":19600,"station_id":"ce4bhr12rcd13ifvqhqg","pricing_plan_id":"cebpf4jnsgd1na2vs0mg"},{"bike_id":"90d37695-c612-4384-92d0-977df80ac5dd","system_id":"levelo_inurba_marseille","lat":43.32288,"lon":5.38267,"is_reserved":false,"is_disabled":false,"rental_uris":{"android":"levelo://app?vid=90d37695-c612-4384-92d0-977df80ac5dd","ios":"levelo://app?vid=90d37695-c612-4384-92d0-977df80ac5dd"},"vehicle_type_id":"4","last_reported":1724699255,"current_range_meters":12800,"station_id":"ce4bhr12rcd13ifvqhqg","pricing_plan_id":"cebpf4jnsgd1na2vs0mg"},{"bike_id":"cc5f092b-bc6b-4053-a307-ee40a330776d","system_id":"levelo_inurba_marseille","lat":43.297794,"lon":5.370888,"is_reserved":false,"is_disabled":false,"rental_uris":{"android":"levelo://app?vid=cc5f092b-bc6b-4053-a307-ee40a330776d","ios":"levelo://app?vid=cc5f092b-bc6b-4053-a307-ee40a330776d"},"vehicle_type_id":"4","last_reported":1724699255,"current_range_meters":22800,"station_id":"ce4bgop2rcd13ifvqc1g","pricing_plan_id":"cebpf4jnsgd1na2vs0mg"},{"bike_id":"736517f6-f4f8-4370-8951-4060eb786127","system_id":"levelo_inurba_marseille","lat":43.322225,"lon":5.383465,"is_reserved":false,"is_disabled":false,"rental_uris":{"android":"levelo://app?vid=736517f6-f4f8-4370-8951-4060eb786127","ios":"levelo://app?vid=736517f6-f4f8-4370-8951-4060eb786127"},"vehicle_type_id":"4","last_reported":1724699255,"current_range_meters":0,"station_id":"","pricing_plan_id":"cebpf4jnsgd1na2vs0mg"},{"bike_id":"1f46cdb1-c5b0-4041-b087-3ba88a6910ab","system_id":"levelo_inurba_marseille","lat":43.322872,"lon":5.382756,"is_reserved":false,"is_disabled":false,"rental_uris":{"android":"levelo://app?vid=1f46cdb1-c5b0-4041-b087-3ba88a6910ab","ios":"levelo://app?vid=1f46cdb1-c5b0-4041-b087-3ba88a6910ab"},"vehicle_type_id":"4","last_reported":1724699255,"current_range_meters":15200,"station_id":"ce4bhr12rcd13ifvqhqg","pricing_plan_id":"cebpf4jnsgd1na2vs0mg"},{"bike_id":"75091bd9-94e7-4fc0-aeec-5c527dc37e29","system_id":"levelo_inurba_marseille","lat":43.322872,"lon":5.382756,"is_reserved":false,"is_disabled":false,"rental_uris":{"android":"levelo://app?vid=75091bd9-94e7-4fc0-aeec-5c527dc37e29","ios":"levelo://app?vid=75091bd9-94e7-4fc0-aeec-5c527dc37e29"},"vehicle_type_id":"4","last_reported":1724699255,"current_range_meters":18800,"station_id":"ce4bhr12rcd13ifvqhqg","pricing_plan_id":"cebpf4jnsgd1na2vs0mg"},{"bike_id":"ed54e480-112c-41bb-8547-c66739596545","system_id":"levelo_inurba_marseille","lat":43.297163,"lon":5.365866,"is_reserved":false,"is_disabled":false,"rental_uris":{"android":"levelo://app?vid=ed54e480-112c-41bb-8547-c66739596545","ios":"levelo://app?vid=ed54e480-112c-41bb-8547-c66739596545"},"vehicle_type_id":"4","last_reported":1724699255,"current_range_meters":8400,"station_id":"ce4bgn12rcd13ifvqbt0","pricing_plan_id":"cebpf4jnsgd1na2vs0mg"},{"bike_id":"56010ab8-0847-46ac-9d87-bf0c121232e7","system_id":"levelo_inurba_marseille","lat":43.29933,"lon":5.38083,"is_reserved":false,"is_disabled":false,"rental_uris":{"android":"levelo://app?vid=56010ab8-0847-46ac-9d87-bf0c121232e7","ios":"levelo://app?vid=56010ab8-0847-46ac-9d87-bf0c121232e7"},"vehicle_type_id":"4","last_reported":1724699255,"current_range_meters":17600,"station_id":"","pricing_plan_id":"cebpf4jnsgd1na2vs0mg"},{"bike_id":"06f99f78-cae0-402f-b903-62c86f306b63","system_id":"levelo_inurba_marseille","lat":43.29607,"lon":5.36152,"is_reserved":false,"is_disabled":false,"rental_uris":{"android":"levelo://app?vid=06f99f78-cae0-402f-b903-62c86f306b63","ios":"levelo://app?vid=06f99f78-cae0-402f-b903-62c86f306b63"},"vehicle_type_id":"4","last_reported":1724699255,"current_range_meters":12400,"station_id":"","pricing_plan_id":"cebpf4jnsgd1na2vs0mg"},{"bike_id":"d5f413e6-9d54-45df-9d36-8a652ddda108","system_id":"levelo_inurba_marseille","lat":43.299028,"lon":5.381509,"is_reserved":false,"is_disabled":false,"rental_uris":{"android":"levelo://app?vid=d5f413e6-9d54-45df-9d36-8a652ddda108","ios":"levelo://app?vid=d5f413e6-9d54-45df-9d36-8a652ddda108"},"vehicle_type_id":"4","last_reported":1724699255,"current_range_meters":0,"station_id":"ce4bgj12rcd13ifvqbc0","pricing_plan_id":"cebpf4jnsgd1na2vs0mg"},{"bike_id":"ccfd0da5-8776-4fa8-9e13-f0bec39c28da","system_id":"levelo_inurba_marseille","lat":43.299028,"lon":5.381509,"is_reserved":false,"is_disabled":false,"rental_uris":{"android":"levelo://app?vid=ccfd0da5-8776-4fa8-9e13-f0bec39c28da","ios":"levelo://app?vid=ccfd0da5-8776-4fa8-9e13-f0bec39c28da"},"vehicle_type_id":"4","last_reported":1724699255,"current_range_meters":13600,"station_id":"ce4bgj12rcd13ifvqbc0","pricing_plan_id":"cebpf4jnsgd1na2vs0mg"},{"bike_id":"a27c5b55-3b12-47ca-8ef5-64621e363ed0","system_id":"levelo_inurba_marseille","lat":43.299028,"lon":5.381509,"is_reserved":false,"is_disabled":false,"rental_uris":{"android":"levelo://app?vid=a27c5b55-3b12-47ca-8ef5-64621e363ed0","ios":"levelo://app?vid=a27c5b55-3b12-47ca-8ef5-64621e363ed0"},"vehicle_type_id":"4","last_reported":1724699255,"current_range_meters":1600,"station_id":"ce4bgj12rcd13ifvqbc0","pricing_plan_id":"cebpf4jnsgd1na2vs0mg"},{"bike_id":"f5704cf5-4b70-4eb9-9224-46fd40182539","system_id":"levelo_inurba_marseille","lat":43.299028,"lon":5.381509,"is_reserved":false,"is_disabled":false,"rental_uris":{"android":"levelo://app?vid=f5704cf5-4b70-4eb9-9224-46fd40182539","ios":"levelo://app?vid=f5704cf5-4b70-4eb9-9224-46fd40182539"},"vehicle_type_id":"4","last_reported":1724699255,"current_range_meters":29600,"station_id":"ce4bgj12rcd13ifvqbc0","pricing_plan_id":"cebpf4jnsgd1na2vs0mg"},{"bike_id":"02d92a04-4401-44c9-8cd2-52ad60b40761","system_id":"levelo_inurba_marseille","lat":43.309589,"lon":5.390258,"is_reserved":false,"is_disabled":false,"rental_uris":{"android":"levelo://app?vid=02d92a04-4401-44c9-8cd2-52ad60b40761","ios":"levelo://app?vid=02d92a04-4401-44c9-8cd2-52ad60b40761"},"vehicle_type_id":"4","last_reported":1724699255,"current_range_meters":0,"station_id":"ce4bgup2rcd13ifvqco0","pricing_plan_id":"cebpf4jnsgd1na2vs0mg"},{"bike_id":"9e5aa10d-8797-4471-9df2-7050ff47925e","system_id":"levelo_inurba_marseille","lat":43.317557,"lon":5.390173,"is_reserved":false,"is_disabled":false,"rental_uris":{"android":"levelo://app?vid=9e5aa10d-8797-4471-9df2-7050ff47925e","ios":"levelo://app?vid=9e5aa10d-8797-4471-9df2-7050ff47925e"},"vehicle_type_id":"4","last_reported":1724699255,"current_range_meters":4400,"station_id":"ce4bhqp2rcd13ifvqhng","pricing_plan_id":"cebpf4jnsgd1na2vs0mg"},{"bike_id":"407a4b83-4185-42ea-8b14-e0f03efbdd98","system_id":"levelo_inurba_marseille","lat":43.317557,"lon":5.390173,"is_reserved":false,"is_disabled":false,"rental_uris":{"android":"levelo://app?vid=407a4b83-4185-42ea-8b14-e0f03efbdd98","ios":"levelo://app?vid=407a4b83-4185-42ea-8b14-e0f03efbdd98"},"vehicle_type_id":"4","last_reported":1724699255,"current_range_meters":0,"station_id":"ce4bhqp2rcd13ifvqhng","pricing_plan_id":"cebpf4jnsgd1na2vs0mg"},{"bike_id":"99af8703-a510-4361-83bb-88f0fd907950","system_id":"levelo_inurba_marseille","lat":43.317557,"lon":5.390173,"is_reserved":false,"is_disabled":false,"rental_uris":{"android":"levelo://app?vid=99af8703-a510-4361-83bb-88f0fd907950","ios":"levelo://app?vid=99af8703-a510-4361-83bb-88f0fd907950"},"vehicle_type_id":"4","last_reported":1724699255,"current_range_meters":21600,"station_id":"ce4bhqp2rcd13ifvqhng","pricing_plan_id":"cebpf4jnsgd1na2vs0mg"},{"bike_id":"c37808e6-0e10-4967-8b39-b44381f4b994","system_id":"levelo_inurba_marseille","lat":43.298037,"lon":5.381066,"is_reserved":false,"is_disabled":false,"rental_uris":{"android":"levelo://app?vid=c37808e6-0e10-4967-8b39-b44381f4b994","ios":"levelo://app?vid=c37808e6-0e10-4967-8b39-b44381f4b994"},"vehicle_type_id":"4","last_reported":1724699255,"current_range_meters":7200,"station_id":"ce4bgip2rcd13ifvqbb0","pricing_plan_id":"cebpf4jnsgd1na2vs0mg"},{"bike_id":"3b4fcd09-6605-4468-90c6-c3e2d6de2eed","system_id":"levelo_inurba_marseille","lat":43.29577,"lon":5.37514,"is_reserved":false,"is_disabled":false,"rental_uris":{"android":"levelo://app?vid=3b4fcd09-6605-4468-90c6-c3e2d6de2eed","ios":"levelo://app?vid=3b4fcd09-6605-4468-90c6-c3e2d6de2eed"},"vehicle_type_id":"4","last_reported":1724699255,"current_range_meters":4000,"station_id":"ce4bgh92rcd13ifvqb50","pricing_plan_id":"cebpf4jnsgd1na2vs0mg"},{"bike_id":"3e5079e9-51c0-4eac-a93f-baa43ef5b2a1","system_id":"levelo_inurba_marseille","lat":43.29578,"lon":5.3752,"is_reserved":false,"is_disabled":false,"rental_uris":{"android":"levelo://app?vid=3e5079e9-51c0-4eac-a93f-baa43ef5b2a1","ios":"levelo://app?vid=3e5079e9-51c0-4eac-a93f-baa43ef5b2a1"},"vehicle_type_id":"4","last_reported":1724699255,"current_range_meters":17600,"station_id":"ce4bgh92rcd13ifvqb50","pricing_plan_id":"cebpf4jnsgd1na2vs0mg"},{"bike_id":"092f9de0-93e3-4792-bea2-fc0f34a9aaee","system_id":"levelo_inurba_marseille","lat":43.304274,"lon":5.388873,"is_reserved":false,"is_disabled":false,"rental_uris":{"android":"levelo://app?vid=092f9de0-93e3-4792-bea2-fc0f34a9aaee","ios":"levelo://app?vid=092f9de0-93e3-4792-bea2-fc0f34a9aaee"},"vehicle_type_id":"4","last_reported":1724699255,"current_range_meters":2800,"station_id":"ce4bgk12rcd13ifvqbi0","pricing_plan_id":"cebpf4jnsgd1na2vs0mg"},{"bike_id":"8f831166-cd59-485a-b19e-5cc3db376001","system_id":"levelo_inurba_marseille","lat":43.304274,"lon":5.388873,"is_reserved":false,"is_disabled":false,"rental_uris":{"android":"levelo://app?vid=8f831166-cd59-485a-b19e-5cc3db376001","ios":"levelo://app?vid=8f831166-cd59-485a-b19e-5cc3db376001"},"vehicle_type_id":"4","last_reported":1724699255,"current_range_meters":31200,"station_id":"ce4bgk12rcd13ifvqbi0","pricing_plan_id":"cebpf4jnsgd1na2vs0mg"},{"bike_id":"ce3946ee-ffc2-4f34-b132-95c71d560b56","system_id":"levelo_inurba_marseille","lat":43.29566,"lon":5.37512,"is_reserved":false,"is_disabled":false,"rental_uris":{"android":"levelo://app?vid=ce3946ee-ffc2-4f34-b132-95c71d560b56","ios":"levelo://app?vid=ce3946ee-ffc2-4f34-b132-95c71d560b56"},"vehicle_type_id":"4","last_reported":1724699255,"current_range_meters":400,"station_id":"ce4bgh92rcd13ifvqb50","pricing_plan_id":"cebpf4jnsgd1na2vs0mg"},{"bike_id":"02edd66c-9200-44cd-80df-8faa0f31c3f7","system_id":"levelo_inurba_marseille","lat":43.29617,"lon":5.37708,"is_reserved":false,"is_disabled":false,"rental_uris":{"android":"levelo://app?vid=02edd66c-9200-44cd-80df-8faa0f31c3f7","ios":"levelo://app?vid=02edd66c-9200-44cd-80df-8faa0f31c3f7"},"vehicle_type_id":"4","last_reported":1724699255,"current_range_meters":0,"station_id":"ce4bgi92rcd13ifvqb90","pricing_plan_id":"cebpf4jnsgd1na2vs0mg"},{"bike_id":"d7279f72-7c45-4c4c-92e7-96949e882cd3","system_id":"levelo_inurba_marseille","lat":43.29611,"lon":5.37733,"is_reserved":false,"is_disabled":false,"rental_uris":{"android":"levelo://app?vid=d7279f72-7c45-4c4c-92e7-96949e882cd3","ios":"levelo://app?vid=d7279f72-7c45-4c4c-92e7-96949e882cd3"},"vehicle_type_id":"4","last_reported":1724699255,"current_range_meters":0,"station_id":"ce4bgi92rcd13ifvqb90","pricing_plan_id":"cebpf4jnsgd1na2vs0mg"},{"bike_id":"4d14278c-414a-464c-9e3c-560ae596a76f","system_id":"levelo_inurba_marseille","lat":43.296277,"lon":5.377108,"is_reserved":false,"is_disabled":false,"rental_uris":{"android":"levelo://app?vid=4d14278c-414a-464c-9e3c-560ae596a76f","ios":"levelo://app?vid=4d14278c-414a-464c-9e3c-560ae596a76f"},"vehicle_type_id":"4","last_reported":1724699255,"current_range_meters":10800,"station_id":"ce4bgi92rcd13ifvqb90","pricing_plan_id":"cebpf4jnsgd1na2vs0mg"},{"bike_id":"c6f8bebf-849a-4e81-82b1-39c9e2131fb6","system_id":"levelo_inurba_marseille","lat":43.295279,"lon":5.375048,"is_reserved":false,"is_disabled":false,"rental_uris":{"android":"levelo://app?vid=c6f8bebf-849a-4e81-82b1-39c9e2131fb6","ios":"levelo://app?vid=c6f8bebf-849a-4e81-82b1-39c9e2131fb6"},"vehicle_type_id":"4","last_reported":1724699255,"current_range_meters":4400,"station_id":"ce4bgkp2rcd13ifvqbmg","pricing_plan_id":"cebpf4jnsgd1na2vs0mg"},{"bike_id":"1c2bb20b-6021-4418-adf9-fc61634bfa3c","system_id":"levelo_inurba_marseille","lat":43.29516,"lon":5.37443,"is_reserved":false,"is_disabled":false,"rental_uris":{"android":"levelo://app?vid=1c2bb20b-6021-4418-adf9-fc61634bfa3c","ios":"levelo://app?vid=1c2bb20b-6021-4418-adf9-fc61634bfa3c"},"vehicle_type_id":"4","last_reported":1724699255,"current_range_meters":0,"station_id":"","pricing_plan_id":"cebpf4jnsgd1na2vs0mg"},{"bike_id":"0a15a969-7a00-46f6-9f5b-0a7321e5de91","system_id":"levelo_inurba_marseille","lat":43.299707,"lon":5.384859,"is_reserved":false,"is_disabled":false,"rental_uris":{"android":"levelo://app?vid=0a15a969-7a00-46f6-9f5b-0a7321e5de91","ios":"levelo://app?vid=0a15a969-7a00-46f6-9f5b-0a7321e5de91"},"vehicle_type_id":"4","last_reported":1724699255,"current_range_meters":14000,"station_id":"ce4bgj92rcd13ifvqbd0","pricing_plan_id":"cebpf4jnsgd1na2vs0mg"},{"bike_id":"cef81b92-c1df-4216-b675-2fec79efd026","system_id":"levelo_inurba_marseille","lat":43.299707,"lon":5.384859,"is_reserved":false,"is_disabled":false,"rental_uris":{"android":"levelo://app?vid=cef81b92-c1df-4216-b675-2fec79efd026","ios":"levelo://app?vid=cef81b92-c1df-4216-b675-2fec79efd026"},"vehicle_type_id":"4","last_reported":1724699255,"current_range_meters":2000,"station_id":"ce4bgj92rcd13ifvqbd0","pricing_plan_id":"cebpf4jnsgd1na2vs0mg"},{"bike_id":"1de95bae-2539-464d-8c4d-8f99b9b630e4","system_id":"levelo_inurba_marseille","lat":43.295279,"lon":5.375048,"is_reserved":false,"is_disabled":false,"rental_uris":{"android":"levelo://app?vid=1de95bae-2539-464d-8c4d-8f99b9b630e4","ios":"levelo://app?vid=1de95bae-2539-464d-8c4d-8f99b9b630e4"},"vehicle_type_id":"4","last_reported":1724699255,"current_range_meters":5600,"station_id":"ce4bgkp2rcd13ifvqbmg","pricing_plan_id":"cebpf4jnsgd1na2vs0mg"},{"bike_id":"400afc51-ac9a-401d-a418-4a3d4f5957ce","system_id":"levelo_inurba_marseille","lat":43.295279,"lon":5.375048,"is_reserved":false,"is_disabled":false,"rental_uris":{"android":"levelo://app?vid=400afc51-ac9a-401d-a418-4a3d4f5957ce","ios":"levelo://app?vid=400afc51-ac9a-401d-a418-4a3d4f5957ce"},"vehicle_type_id":"4","last_reported":1724699255,"current_range_meters":7600,"station_id":"ce4bgkp2rcd13ifvqbmg","pricing_plan_id":"cebpf4jnsgd1na2vs0mg"},{"bike_id":"5accd1e6-716a-4a7a-9c2f-9e13c20f4cb4","system_id":"levelo_inurba_marseille","lat":43.299724,"lon":5.384848,"is_reserved":false,"is_disabled":false,"rental_uris":{"android":"levelo://app?vid=5accd1e6-716a-4a7a-9c2f-9e13c20f4cb4","ios":"levelo://app?vid=5accd1e6-716a-4a7a-9c2f-9e13c20f4cb4"},"vehicle_type_id":"4","last_reported":1724699255,"current_range_meters":25600,"station_id":"ce4bgj92rcd13ifvqbd0","pricing_plan_id":"cebpf4jnsgd1na2vs0mg"},{"bike_id":"d7f8daa8-a7e5-42bc-b1de-4de1688e62a4","system_id":"levelo_inurba_marseille","lat":43.295279,"lon":5.375048,"is_reserved":false,"is_disabled":false,"rental_uris":{"android":"levelo://app?vid=d7f8daa8-a7e5-42bc-b1de-4de1688e62a4","ios":"levelo://app?vid=d7f8daa8-a7e5-42bc-b1de-4de1688e62a4"},"vehicle_type_id":"4","last_reported":1724699255,"current_range_meters":18400,"station_id":"ce4bgkp2rcd13ifvqbmg","pricing_plan_id":"cebpf4jnsgd1na2vs0mg"},{"bike_id":"67317a26-a19a-4e18-91c0-4f8a88896469","system_id":"levelo_inurba_marseille","lat":43.298375,"lon":5.38327,"is_reserved":false,"is_disabled":false,"rental_uris":{"android":"levelo://app?vid=67317a26-a19a-4e18-91c0-4f8a88896469","ios":"levelo://app?vid=67317a26-a19a-4e18-91c0-4f8a88896469"},"vehicle_type_id":"4","last_reported":1724699255,"current_range_meters":0,"station_id":"","pricing_plan_id":"cebpf4jnsgd1na2vs0mg"},{"bike_id":"195bc427-3e51-421f-9cc2-de1eb9a0ad9f","system_id":"levelo_inurba_marseille","lat":43.295279,"lon":5.375048,"is_reserved":false,"is_disabled":false,"rental_uris":{"android":"levelo://app?vid=195bc427-3e51-421f-9cc2-de1eb9a0ad9f","ios":"levelo://app?vid=195bc427-3e51-421f-9cc2-de1eb9a0ad9f"},"vehicle_type_id":"4","last_reported":1724699255,"current_range_meters":2800,"station_id":"ce4bgkp2rcd13ifvqbmg","pricing_plan_id":"cebpf4jnsgd1na2vs0mg"},{"bike_id":"0e21a499-9f8a-4484-8338-73235c072e27","system_id":"levelo_inurba_marseille","lat":43.322057,"lon":5.389389,"is_reserved":false,"is_disabled":false,"rental_uris":{"android":"levelo://app?vid=0e21a499-9f8a-4484-8338-73235c072e27","ios":"levelo://app?vid=0e21a499-9f8a-4484-8338-73235c072e27"},"vehicle_type_id":"4","last_reported":1724699255,"current_range_meters":14800,"station_id":"","pricing_plan_id":"cebpf4jnsgd1na2vs0mg"},{"bike_id":"3c43d6df-fc11-4701-aaa2-463628367bbb","system_id":"levelo_inurba_marseille","lat":43.27618,"lon":5.361009,"is_reserved":false,"is_disabled":false,"rental_uris":{"android":"levelo://app?vid=3c43d6df-fc11-4701-aaa2-463628367bbb","ios":"levelo://app?vid=3c43d6df-fc11-4701-aaa2-463628367bbb"},"vehicle_type_id":"4","last_reported":1724699255,"current_range_meters":22000,"station_id":"ce4bgj92rcd13ifvqbe0","pricing_plan_id":"cebpf4jnsgd1na2vs0mg"},{"bike_id":"946b0fbf-1fa5-4991-abdb-017cb330a355","system_id":"levelo_inurba_marseille","lat":43.30136,"lon":5.38775,"is_reserved":false,"is_disabled":false,"rental_uris":{"android":"levelo://app?vid=946b0fbf-1fa5-4991-abdb-017cb330a355","ios":"levelo://app?vid=946b0fbf-1fa5-4991-abdb-017cb330a355"},"vehicle_type_id":"4","last_reported":1724699255,"current_range_meters":1200,"station_id":"ce4bghh2rcd13ifvqb60","pricing_plan_id":"cebpf4jnsgd1na2vs0mg"},{"bike_id":"2a5a7dde-3059-4d3e-b915-d93de392e560","system_id":"levelo_inurba_marseille","lat":43.30139,"lon":5.38788,"is_reserved":false,"is_disabled":false,"rental_uris":{"android":"levelo://app?vid=2a5a7dde-3059-4d3e-b915-d93de392e560","ios":"levelo://app?vid=2a5a7dde-3059-4d3e-b915-d93de392e560"},"vehicle_type_id":"4","last_reported":1724699255,"current_range_meters":0,"station_id":"ce4bghh2rcd13ifvqb60","pricing_plan_id":"cebpf4jnsgd1na2vs0mg"},{"bike_id":"c723b8a9-b714-42ee-9af6-34bf764d3fd0","system_id":"levelo_inurba_marseille","lat":43.30125,"lon":5.3878,"is_reserved":false,"is_disabled":false,"rental_uris":{"android":"levelo://app?vid=c723b8a9-b714-42ee-9af6-34bf764d3fd0","ios":"levelo://app?vid=c723b8a9-b714-42ee-9af6-34bf764d3fd0"},"vehicle_type_id":"4","last_reported":1724699255,"current_range_meters":4400,"station_id":"ce4bghh2rcd13ifvqb60","pricing_plan_id":"cebpf4jnsgd1na2vs0mg"},{"bike_id":"b7523cd1-7beb-4a76-b237-dbb400895b40","system_id":"levelo_inurba_marseille","lat":43.301206,"lon":5.387904,"is_reserved":false,"is_disabled":false,"rental_uris":{"android":"levelo://app?vid=b7523cd1-7beb-4a76-b237-dbb400895b40","ios":"levelo://app?vid=b7523cd1-7beb-4a76-b237-dbb400895b40"},"vehicle_type_id":"4","last_reported":1724699255,"current_range_meters":19200,"station_id":"ce4bghh2rcd13ifvqb60","pricing_plan_id":"cebpf4jnsgd1na2vs0mg"},{"bike_id":"f34e9ff8-5944-40ad-ade0-f55b513d3797","system_id":"levelo_inurba_marseille","lat":43.32366,"lon":5.38886,"is_reserved":false,"is_disabled":false,"rental_uris":{"android":"levelo://app?vid=f34e9ff8-5944-40ad-ade0-f55b513d3797","ios":"levelo://app?vid=f34e9ff8-5944-40ad-ade0-f55b513d3797"},"vehicle_type_id":"4","last_reported":1724699255,"current_range_meters":800,"station_id":"ce4bhqp2rcd13ifvqhog","pricing_plan_id":"cebpf4jnsgd1na2vs0mg"},{"bike_id":"b60f3181-43da-48ce-b737-0460b525c1d1","system_id":"levelo_inurba_marseille","lat":43.32367,"lon":5.388836,"is_reserved":false,"is_disabled":false,"rental_uris":{"android":"levelo://app?vid=b60f3181-43da-48ce-b737-0460b525c1d1","ios":"levelo://app?vid=b60f3181-43da-48ce-b737-0460b525c1d1"},"vehicle_type_id":"4","last_reported":1724699255,"current_range_meters":28800,"station_id":"ce4bhqp2rcd13ifvqhog","pricing_plan_id":"cebpf4jnsgd1na2vs0mg"},{"bike_id":"d545ce2c-9eb9-4b44-89d5-46ed36e81c85","system_id":"levelo_inurba_marseille","lat":43.32367,"lon":5.388836,"is_reserved":false,"is_disabled":false,"rental_uris":{"android":"levelo://app?vid=d545ce2c-9eb9-4b44-89d5-46ed36e81c85","ios":"levelo://app?vid=d545ce2c-9eb9-4b44-89d5-46ed36e81c85"},"vehicle_type_id":"4","last_reported":1724699255,"current_range_meters":2000,"station_id":"ce4bhqp2rcd13ifvqhog","pricing_plan_id":"cebpf4jnsgd1na2vs0mg"},{"bike_id":"0ebef8b6-7384-42a3-a644-836f41e116fd","system_id":"levelo_inurba_marseille","lat":43.30153,"lon":5.388827,"is_reserved":false,"is_disabled":false,"rental_uris":{"android":"levelo://app?vid=0ebef8b6-7384-42a3-a644-836f41e116fd","ios":"levelo://app?vid=0ebef8b6-7384-42a3-a644-836f41e116fd"},"vehicle_type_id":"4","last_reported":1724699255,"current_range_meters":0,"station_id":"","pricing_plan_id":"cebpf4jnsgd1na2vs0mg"},{"bike_id":"8cf461da-beb9-4122-a657-7ea5043ec3ea","system_id":"levelo_inurba_marseille","lat":43.293249,"lon":5.371578,"is_reserved":false,"is_disabled":false,"rental_uris":{"android":"levelo://app?vid=8cf461da-beb9-4122-a657-7ea5043ec3ea","ios":"levelo://app?vid=8cf461da-beb9-4122-a657-7ea5043ec3ea"},"vehicle_type_id":"4","last_reported":1724699255,"current_range_meters":9600,"station_id":"ce4bgh92rcd13ifvqb40","pricing_plan_id":"cebpf4jnsgd1na2vs0mg"},{"bike_id":"8d25af3c-d9ab-420f-b2d6-ee626a748cfe","system_id":"levelo_inurba_marseille","lat":43.29308,"lon":5.37159,"is_reserved":false,"is_disabled":false,"rental_uris":{"android":"levelo://app?vid=8d25af3c-d9ab-420f-b2d6-ee626a748cfe","ios":"levelo://app?vid=8d25af3c-d9ab-420f-b2d6-ee626a748cfe"},"vehicle_type_id":"4","last_reported":1724699255,"current_range_meters":22800,"station_id":"ce4bgh92rcd13ifvqb40","pricing_plan_id":"cebpf4jnsgd1na2vs0mg"},{"bike_id":"8d85bbc8-ef7d-4ad9-b8e8-82cfaa2c0f38","system_id":"levelo_inurba_marseille","lat":43.29309,"lon":5.37175,"is_reserved":false,"is_disabled":false,"rental_uris":{"android":"levelo://app?vid=8d85bbc8-ef7d-4ad9-b8e8-82cfaa2c0f38","ios":"levelo://app?vid=8d85bbc8-ef7d-4ad9-b8e8-82cfaa2c0f38"},"vehicle_type_id":"4","last_reported":1724699255,"current_range_meters":0,"station_id":"ce4bgh92rcd13ifvqb40","pricing_plan_id":"cebpf4jnsgd1na2vs0mg"},{"bike_id":"edc82412-9e66-4ff9-b5db-fc598190cb37","system_id":"levelo_inurba_marseille","lat":43.293249,"lon":5.371578,"is_reserved":false,"is_disabled":false,"rental_uris":{"android":"levelo://app?vid=edc82412-9e66-4ff9-b5db-fc598190cb37","ios":"levelo://app?vid=edc82412-9e66-4ff9-b5db-fc598190cb37"},"vehicle_type_id":"4","last_reported":1724699255,"current_range_meters":14000,"station_id":"ce4bgh92rcd13ifvqb40","pricing_plan_id":"cebpf4jnsgd1na2vs0mg"},{"bike_id":"1ee67d59-5db9-4e2f-b045-55493f5daa21","system_id":"levelo_inurba_marseille","lat":43.292749,"lon":5.368402,"is_reserved":false,"is_disabled":false,"rental_uris":{"android":"levelo://app?vid=1ee67d59-5db9-4e2f-b045-55493f5daa21","ios":"levelo://app?vid=1ee67d59-5db9-4e2f-b045-55493f5daa21"},"vehicle_type_id":"4","last_reported":1724699255,"current_range_meters":7200,"station_id":"ce4bhbp2rcd13ifvqesg","pricing_plan_id":"cebpf4jnsgd1na2vs0mg"},{"bike_id":"32dc726f-ba17-4f1b-a309-6edd7a31fc4a","system_id":"levelo_inurba_marseille","lat":43.292749,"lon":5.368402,"is_reserved":false,"is_disabled":false,"rental_uris":{"android":"levelo://app?vid=32dc726f-ba17-4f1b-a309-6edd7a31fc4a","ios":"levelo://app?vid=32dc726f-ba17-4f1b-a309-6edd7a31fc4a"},"vehicle_type_id":"4","last_reported":1724699255,"current_range_meters":6000,"station_id":"ce4bhbp2rcd13ifvqesg","pricing_plan_id":"cebpf4jnsgd1na2vs0mg"},{"bike_id":"493f4d0d-b0e7-43b4-819f-257fd234c8b6","system_id":"levelo_inurba_marseille","lat":43.292749,"lon":5.368398,"is_reserved":false,"is_disabled":false,"rental_uris":{"android":"levelo://app?vid=493f4d0d-b0e7-43b4-819f-257fd234c8b6","ios":"levelo://app?vid=493f4d0d-b0e7-43b4-819f-257fd234c8b6"},"vehicle_type_id":"4","last_reported":1724699255,"current_range_meters":0,"station_id":"ce4bhbp2rcd13ifvqesg","pricing_plan_id":"cebpf4jnsgd1na2vs0mg"},{"bike_id":"d67a4492-04bc-4553-836a-fad44eb38713","system_id":"levelo_inurba_marseille","lat":43.292749,"lon":5.368398,"is_reserved":false,"is_disabled":false,"rental_uris":{"android":"levelo://app?vid=d67a4492-04bc-4553-836a-fad44eb38713","ios":"levelo://app?vid=d67a4492-04bc-4553-836a-fad44eb38713"},"vehicle_type_id":"4","last_reported":1724699255,"current_range_meters":0,"station_id":"ce4bhbp2rcd13ifvqesg","pricing_plan_id":"cebpf4jnsgd1na2vs0mg"},{"bike_id":"12b68639-3fc1-4f92-90d2-9c04dbeae419","system_id":"levelo_inurba_marseille","lat":43.29306,"lon":5.37454,"is_reserved":false,"is_disabled":false,"rental_uris":{"android":"levelo://app?vid=12b68639-3fc1-4f92-90d2-9c04dbeae419","ios":"levelo://app?vid=12b68639-3fc1-4f92-90d2-9c04dbeae419"},"vehicle_type_id":"4","last_reported":1724699255,"current_range_meters":10800,"station_id":"ce4bgi12rcd13ifvqb70","pricing_plan_id":"cebpf4jnsgd1na2vs0mg"},{"bike_id":"f6f5271d-2bc2-4980-9b35-26982967c0ff","system_id":"levelo_inurba_marseille","lat":43.305994,"lon":5.393687,"is_reserved":false,"is_disabled":false,"rental_uris":{"android":"levelo://app?vid=f6f5271d-2bc2-4980-9b35-26982967c0ff","ios":"levelo://app?vid=f6f5271d-2bc2-4980-9b35-26982967c0ff"},"vehicle_type_id":"4","last_reported":1724699255,"current_range_meters":3200,"station_id":"ce4bh0p2rcd13ifvqd80","pricing_plan_id":"cebpf4jnsgd1na2vs0mg"},{"bike_id":"4dd24913-9728-41cc-83d3-71ec8fe62c1b","system_id":"levelo_inurba_marseille","lat":43.303002,"lon":5.392142,"is_reserved":false,"is_disabled":false,"rental_uris":{"android":"levelo://app?vid=4dd24913-9728-41cc-83d3-71ec8fe62c1b","ios":"levelo://app?vid=4dd24913-9728-41cc-83d3-71ec8fe62c1b"},"vehicle_type_id":"4","last_reported":1724699255,"current_range_meters":14800,"station_id":"ce4bgkh2rcd13ifvqbk0","pricing_plan_id":"cebpf4jnsgd1na2vs0mg"},{"bike_id":"50bcf22e-dbf8-42b5-a324-1cc39835fca6","system_id":"levelo_inurba_marseille","lat":43.2936,"lon":5.37835,"is_reserved":false,"is_disabled":false,"rental_uris":{"android":"levelo://app?vid=50bcf22e-dbf8-42b5-a324-1cc39835fca6","ios":"levelo://app?vid=50bcf22e-dbf8-42b5-a324-1cc39835fca6"},"vehicle_type_id":"4","last_reported":1724699255,"current_range_meters":10000,"station_id":"ce4bgjh2rcd13ifvqbf0","pricing_plan_id":"cebpf4jnsgd1na2vs0mg"},{"bike_id":"cc342835-39ed-4e2e-a743-55688423d9a8","system_id":"levelo_inurba_marseille","lat":43.2936,"lon":5.37835,"is_reserved":false,"is_disabled":false,"rental_uris":{"android":"levelo://app?vid=cc342835-39ed-4e2e-a743-55688423d9a8","ios":"levelo://app?vid=cc342835-39ed-4e2e-a743-55688423d9a8"},"vehicle_type_id":"4","last_reported":1724699255,"current_range_meters":22800,"station_id":"ce4bgjh2rcd13ifvqbf0","pricing_plan_id":"cebpf4jnsgd1na2vs0mg"},{"bike_id":"e872ac3d-b154-4a9f-8403-78d8dc819ac3","system_id":"levelo_inurba_marseille","lat":43.292311,"lon":5.360731,"is_reserved":false,"is_disabled":false,"rental_uris":{"android":"levelo://app?vid=e872ac3d-b154-4a9f-8403-78d8dc819ac3","ios":"levelo://app?vid=e872ac3d-b154-4a9f-8403-78d8dc819ac3"},"vehicle_type_id":"4","last_reported":1724699255,"current_range_meters":16400,"station_id":"ce4bhbh2rcd13ifvqeqg","pricing_plan_id":"cebpf4jnsgd1na2vs0mg"},{"bike_id":"3fb97110-72a5-41d5-91a2-9836a31b57b6","system_id":"levelo_inurba_marseille","lat":43.292237,"lon":5.360476,"is_reserved":false,"is_disabled":false,"rental_uris":{"android":"levelo://app?vid=3fb97110-72a5-41d5-91a2-9836a31b57b6","ios":"levelo://app?vid=3fb97110-72a5-41d5-91a2-9836a31b57b6"},"vehicle_type_id":"4","last_reported":1724699255,"current_range_meters":31200,"station_id":"ce4bhbh2rcd13ifvqeqg","pricing_plan_id":"cebpf4jnsgd1na2vs0mg"},{"bike_id":"0feacfa6-7a66-4661-9ea8-943f190a7d24","system_id":"levelo_inurba_marseille","lat":43.29224,"lon":5.36045,"is_reserved":false,"is_disabled":false,"rental_uris":{"android":"levelo://app?vid=0feacfa6-7a66-4661-9ea8-943f190a7d24","ios":"levelo://app?vid=0feacfa6-7a66-4661-9ea8-943f190a7d24"},"vehicle_type_id":"4","last_reported":1724699255,"current_range_meters":7200,"station_id":"ce4bhbh2rcd13ifvqeqg","pricing_plan_id":"cebpf4jnsgd1na2vs0mg"},{"bike_id":"b8266aa9-c26c-4721-a29d-a8d84d557a2d","system_id":"levelo_inurba_marseille","lat":43.292311,"lon":5.360731,"is_reserved":false,"is_disabled":false,"rental_uris":{"android":"levelo://app?vid=b8266aa9-c26c-4721-a29d-a8d84d557a2d","ios":"levelo://app?vid=b8266aa9-c26c-4721-a29d-a8d84d557a2d"},"vehicle_type_id":"4","last_reported":1724699255,"current_range_meters":31200,"station_id":"ce4bhbh2rcd13ifvqeqg","pricing_plan_id":"cebpf4jnsgd1na2vs0mg"},{"bike_id":"00a38c0f-0f6b-44d0-9cff-cb4731327256","system_id":"levelo_inurba_marseille","lat":43.29221,"lon":5.36054,"is_reserved":false,"is_disabled":false,"rental_uris":{"android":"levelo://app?vid=00a38c0f-0f6b-44d0-9cff-cb4731327256","ios":"levelo://app?vid=00a38c0f-0f6b-44d0-9cff-cb4731327256"},"vehicle_type_id":"4","last_reported":1724699255,"current_range_meters":30000,"station_id":"ce4bhbh2rcd13ifvqeqg","pricing_plan_id":"cebpf4jnsgd1na2vs0mg"},{"bike_id":"f44df35d-61a7-4465-89ff-60260311eccd","system_id":"levelo_inurba_marseille","lat":43.292199,"lon":5.360551,"is_reserved":false,"is_disabled":false,"rental_uris":{"android":"levelo://app?vid=f44df35d-61a7-4465-89ff-60260311eccd","ios":"levelo://app?vid=f44df35d-61a7-4465-89ff-60260311eccd"},"vehicle_type_id":"4","last_reported":1724699255,"current_range_meters":30400,"station_id":"ce4bhbh2rcd13ifvqeqg","pricing_plan_id":"cebpf4jnsgd1na2vs0mg"},{"bike_id":"ab8582bc-a651-4348-a940-0a8d5ec27f3c","system_id":"levelo_inurba_marseille","lat":43.292208,"lon":5.360471,"is_reserved":false,"is_disabled":false,"rental_uris":{"android":"levelo://app?vid=ab8582bc-a651-4348-a940-0a8d5ec27f3c","ios":"levelo://app?vid=ab8582bc-a651-4348-a940-0a8d5ec27f3c"},"vehicle_type_id":"4","last_reported":1724699255,"current_range_meters":30400,"station_id":"ce4bhbh2rcd13ifvqeqg","pricing_plan_id":"cebpf4jnsgd1na2vs0mg"},{"bike_id":"72a27b0a-7571-47e5-95cc-38189a2c1061","system_id":"levelo_inurba_marseille","lat":43.2922,"lon":5.360477,"is_reserved":false,"is_disabled":false,"rental_uris":{"android":"levelo://app?vid=72a27b0a-7571-47e5-95cc-38189a2c1061","ios":"levelo://app?vid=72a27b0a-7571-47e5-95cc-38189a2c1061"},"vehicle_type_id":"4","last_reported":1724699255,"current_range_meters":31200,"station_id":"ce4bhbh2rcd13ifvqeqg","pricing_plan_id":"cebpf4jnsgd1na2vs0mg"},{"bike_id":"f84eed02-69d4-4670-a35c-3c0220e3ed7f","system_id":"levelo_inurba_marseille","lat":43.292194,"lon":5.360422,"is_reserved":false,"is_disabled":false,"rental_uris":{"android":"levelo://app?vid=f84eed02-69d4-4670-a35c-3c0220e3ed7f","ios":"levelo://app?vid=f84eed02-69d4-4670-a35c-3c0220e3ed7f"},"vehicle_type_id":"4","last_reported":1724699255,"current_range_meters":31200,"station_id":"ce4bhbh2rcd13ifvqeqg","pricing_plan_id":"cebpf4jnsgd1na2vs0mg"},{"bike_id":"b3247c1d-c954-486f-9341-58e7fcbc2b89","system_id":"levelo_inurba_marseille","lat":43.29216,"lon":5.36046,"is_reserved":false,"is_disabled":false,"rental_uris":{"android":"levelo://app?vid=b3247c1d-c954-486f-9341-58e7fcbc2b89","ios":"levelo://app?vid=b3247c1d-c954-486f-9341-58e7fcbc2b89"},"vehicle_type_id":"4","last_reported":1724699255,"current_range_meters":29200,"station_id":"ce4bhbh2rcd13ifvqeqg","pricing_plan_id":"cebpf4jnsgd1na2vs0mg"},{"bike_id":"190b3225-7274-4cc4-96cb-c46b708155d4","system_id":"levelo_inurba_marseille","lat":43.2921,"lon":5.36044,"is_reserved":false,"is_disabled":false,"rental_uris":{"android":"levelo://app?vid=190b3225-7274-4cc4-96cb-c46b708155d4","ios":"levelo://app?vid=190b3225-7274-4cc4-96cb-c46b708155d4"},"vehicle_type_id":"4","last_reported":1724699255,"current_range_meters":31600,"station_id":"ce4bhbh2rcd13ifvqeqg","pricing_plan_id":"cebpf4jnsgd1na2vs0mg"},{"bike_id":"1c393122-7180-4728-93a8-bb0fd0f2e16a","system_id":"levelo_inurba_marseille","lat":43.298764,"lon":5.388973,"is_reserved":false,"is_disabled":false,"rental_uris":{"android":"levelo://app?vid=1c393122-7180-4728-93a8-bb0fd0f2e16a","ios":"levelo://app?vid=1c393122-7180-4728-93a8-bb0fd0f2e16a"},"vehicle_type_id":"4","last_reported":1724699255,"current_range_meters":0,"station_id":"ce4bh392rcd13ifvqdl0","pricing_plan_id":"cebpf4jnsgd1na2vs0mg"},{"bike_id":"f7dcd358-e50f-4819-91aa-393f0951145c","system_id":"levelo_inurba_marseille","lat":43.298764,"lon":5.388973,"is_reserved":false,"is_disabled":false,"rental_uris":{"android":"levelo://app?vid=f7dcd358-e50f-4819-91aa-393f0951145c","ios":"levelo://app?vid=f7dcd358-e50f-4819-91aa-393f0951145c"},"vehicle_type_id":"4","last_reported":1724699255,"current_range_meters":27600,"station_id":"ce4bh392rcd13ifvqdl0","pricing_plan_id":"cebpf4jnsgd1na2vs0mg"},{"bike_id":"7c3840b6-e598-406f-8559-c7d09d245d17","system_id":"levelo_inurba_marseille","lat":43.291674,"lon":5.371396,"is_reserved":false,"is_disabled":false,"rental_uris":{"android":"levelo://app?vid=7c3840b6-e598-406f-8559-c7d09d245d17","ios":"levelo://app?vid=7c3840b6-e598-406f-8559-c7d09d245d17"},"vehicle_type_id":"4","last_reported":1724699255,"current_range_meters":0,"station_id":"ce4bha92rcd13ifvqeh0","pricing_plan_id":"cebpf4jnsgd1na2vs0mg"},{"bike_id":"fc81d494-b43e-4f41-a7b4-f81ae4b707e8","system_id":"levelo_inurba_marseille","lat":43.298764,"lon":5.388973,"is_reserved":false,"is_disabled":false,"rental_uris":{"android":"levelo://app?vid=fc81d494-b43e-4f41-a7b4-f81ae4b707e8","ios":"levelo://app?vid=fc81d494-b43e-4f41-a7b4-f81ae4b707e8"},"vehicle_type_id":"4","last_reported":1724699255,"current_range_meters":6400,"station_id":"ce4bh392rcd13ifvqdl0","pricing_plan_id":"cebpf4jnsgd1na2vs0mg"},{"bike_id":"da9640d6-a7e9-4154-884e-23c29c77f334","system_id":"levelo_inurba_marseille","lat":43.291675,"lon":5.371583,"is_reserved":false,"is_disabled":false,"rental_uris":{"android":"levelo://app?vid=da9640d6-a7e9-4154-884e-23c29c77f334","ios":"levelo://app?vid=da9640d6-a7e9-4154-884e-23c29c77f334"},"vehicle_type_id":"4","last_reported":1724699255,"current_range_meters":16800,"station_id":"ce4bha92rcd13ifvqeh0","pricing_plan_id":"cebpf4jnsgd1na2vs0mg"},{"bike_id":"af86fc0b-ba16-4649-a218-61b79bfde7b3","system_id":"levelo_inurba_marseille","lat":43.29195,"lon":5.35791,"is_reserved":false,"is_disabled":false,"rental_uris":{"android":"levelo://app?vid=af86fc0b-ba16-4649-a218-61b79bfde7b3","ios":"levelo://app?vid=af86fc0b-ba16-4649-a218-61b79bfde7b3"},"vehicle_type_id":"4","last_reported":1724699255,"current_range_meters":0,"station_id":"ce4bhb12rcd13ifvqel0","pricing_plan_id":"cebpf4jnsgd1na2vs0mg"},{"bike_id":"0eb2e848-9373-46b7-9e80-f81f864ea1b3","system_id":"levelo_inurba_marseille","lat":43.313291,"lon":5.396838,"is_reserved":false,"is_disabled":false,"rental_uris":{"android":"levelo://app?vid=0eb2e848-9373-46b7-9e80-f81f864ea1b3","ios":"levelo://app?vid=0eb2e848-9373-46b7-9e80-f81f864ea1b3"},"vehicle_type_id":"4","last_reported":1724699255,"current_range_meters":0,"station_id":"ce4bgvp2rcd13ifvqcu0","pricing_plan_id":"cebpf4jnsgd1na2vs0mg"},{"bike_id":"20c2841e-8e22-4fff-a5cd-aa64374c33bd","system_id":"levelo_inurba_marseille","lat":43.313291,"lon":5.396838,"is_reserved":false,"is_disabled":false,"rental_uris":{"android":"levelo://app?vid=20c2841e-8e22-4fff-a5cd-aa64374c33bd","ios":"levelo://app?vid=20c2841e-8e22-4fff-a5cd-aa64374c33bd"},"vehicle_type_id":"4","last_reported":1724699255,"current_range_meters":6800,"station_id":"ce4bgvp2rcd13ifvqcu0","pricing_plan_id":"cebpf4jnsgd1na2vs0mg"},{"bike_id":"215ce1b2-2d13-42c6-85e0-409e5b065015","system_id":"levelo_inurba_marseille","lat":43.313291,"lon":5.396838,"is_reserved":false,"is_disabled":false,"rental_uris":{"android":"levelo://app?vid=215ce1b2-2d13-42c6-85e0-409e5b065015","ios":"levelo://app?vid=215ce1b2-2d13-42c6-85e0-409e5b065015"},"vehicle_type_id":"4","last_reported":1724699255,"current_range_meters":29200,"station_id":"ce4bgvp2rcd13ifvqcu0","pricing_plan_id":"cebpf4jnsgd1na2vs0mg"},{"bike_id":"3033046b-4248-457e-b780-a17c5bfbe443","system_id":"levelo_inurba_marseille","lat":43.313291,"lon":5.396838,"is_reserved":false,"is_disabled":false,"rental_uris":{"android":"levelo://app?vid=3033046b-4248-457e-b780-a17c5bfbe443","ios":"levelo://app?vid=3033046b-4248-457e-b780-a17c5bfbe443"},"vehicle_type_id":"4","last_reported":1724699255,"current_range_meters":7600,"station_id":"ce4bgvp2rcd13ifvqcu0","pricing_plan_id":"cebpf4jnsgd1na2vs0mg"},{"bike_id":"0767fc96-ab2a-46c0-9b9b-bec7feb3ce05","system_id":"levelo_inurba_marseille","lat":43.309047,"lon":5.396551,"is_reserved":false,"is_disabled":false,"rental_uris":{"android":"levelo://app?vid=0767fc96-ab2a-46c0-9b9b-bec7feb3ce05","ios":"levelo://app?vid=0767fc96-ab2a-46c0-9b9b-bec7feb3ce05"},"vehicle_type_id":"4","last_reported":1724699255,"current_range_meters":13600,"station_id":"ce4bh012rcd13ifvqcv0","pricing_plan_id":"cebpf4jnsgd1na2vs0mg"},{"bike_id":"f50f0348-1997-4f98-af34-8536a1f167e3","system_id":"levelo_inurba_marseille","lat":43.33433,"lon":5.36137,"is_reserved":false,"is_disabled":false,"rental_uris":{"android":"levelo://app?vid=f50f0348-1997-4f98-af34-8536a1f167e3","ios":"levelo://app?vid=f50f0348-1997-4f98-af34-8536a1f167e3"},"vehicle_type_id":"4","last_reported":1724699255,"current_range_meters":10000,"station_id":"","pricing_plan_id":"cebpf4jnsgd1na2vs0mg"},{"bike_id":"dee80f8e-709e-478c-9330-7a246695c57b","system_id":"levelo_inurba_marseille","lat":43.309038,"lon":5.396546,"is_reserved":false,"is_disabled":false,"rental_uris":{"android":"levelo://app?vid=dee80f8e-709e-478c-9330-7a246695c57b","ios":"levelo://app?vid=dee80f8e-709e-478c-9330-7a246695c57b"},"vehicle_type_id":"4","last_reported":1724699255,"current_range_meters":20000,"station_id":"ce4bh012rcd13ifvqcv0","pricing_plan_id":"cebpf4jnsgd1na2vs0mg"},{"bike_id":"c36ef198-cdcc-451e-9bf7-b13ffe079795","system_id":"levelo_inurba_marseille","lat":43.29529,"lon":5.385581,"is_reserved":false,"is_disabled":false,"rental_uris":{"android":"levelo://app?vid=c36ef198-cdcc-451e-9bf7-b13ffe079795","ios":"levelo://app?vid=c36ef198-cdcc-451e-9bf7-b13ffe079795"},"vehicle_type_id":"4","last_reported":1724699255,"current_range_meters":0,"station_id":"ce4bgih2rcd13ifvqba0","pricing_plan_id":"cebpf4jnsgd1na2vs0mg"},{"bike_id":"2e163a69-ecbe-4715-9b5b-4dac3c3e6900","system_id":"levelo_inurba_marseille","lat":43.29529,"lon":5.385581,"is_reserved":false,"is_disabled":false,"rental_uris":{"android":"levelo://app?vid=2e163a69-ecbe-4715-9b5b-4dac3c3e6900","ios":"levelo://app?vid=2e163a69-ecbe-4715-9b5b-4dac3c3e6900"},"vehicle_type_id":"4","last_reported":1724699255,"current_range_meters":22800,"station_id":"ce4bgih2rcd13ifvqba0","pricing_plan_id":"cebpf4jnsgd1na2vs0mg"},{"bike_id":"a3208f48-e9f0-47e6-8014-2f8bc506a99c","system_id":"levelo_inurba_marseille","lat":43.29529,"lon":5.385581,"is_reserved":false,"is_disabled":false,"rental_uris":{"android":"levelo://app?vid=a3208f48-e9f0-47e6-8014-2f8bc506a99c","ios":"levelo://app?vid=a3208f48-e9f0-47e6-8014-2f8bc506a99c"},"vehicle_type_id":"4","last_reported":1724699255,"current_range_meters":0,"station_id":"ce4bgih2rcd13ifvqba0","pricing_plan_id":"cebpf4jnsgd1na2vs0mg"},{"bike_id":"7637f959-99f3-4bbc-ae05-0352e225912f","system_id":"levelo_inurba_marseille","lat":43.29529,"lon":5.385581,"is_reserved":false,"is_disabled":false,"rental_uris":{"android":"levelo://app?vid=7637f959-99f3-4bbc-ae05-0352e225912f","ios":"levelo://app?vid=7637f959-99f3-4bbc-ae05-0352e225912f"},"vehicle_type_id":"4","last_reported":1724699255,"current_range_meters":2000,"station_id":"ce4bgih2rcd13ifvqba0","pricing_plan_id":"cebpf4jnsgd1na2vs0mg"},{"bike_id":"e750ecb6-cddc-4386-a267-f7fde807cc7a","system_id":"levelo_inurba_marseille","lat":43.29529,"lon":5.385581,"is_reserved":false,"is_disabled":false,"rental_uris":{"android":"levelo://app?vid=e750ecb6-cddc-4386-a267-f7fde807cc7a","ios":"levelo://app?vid=e750ecb6-cddc-4386-a267-f7fde807cc7a"},"vehicle_type_id":"4","last_reported":1724699255,"current_range_meters":4800,"station_id":"ce4bgih2rcd13ifvqba0","pricing_plan_id":"cebpf4jnsgd1na2vs0mg"},{"bike_id":"537ddf1d-9374-4d72-bf96-2d355a7e0957","system_id":"levelo_inurba_marseille","lat":43.29529,"lon":5.385581,"is_reserved":false,"is_disabled":false,"rental_uris":{"android":"levelo://app?vid=537ddf1d-9374-4d72-bf96-2d355a7e0957","ios":"levelo://app?vid=537ddf1d-9374-4d72-bf96-2d355a7e0957"},"vehicle_type_id":"4","last_reported":1724699255,"current_range_meters":0,"station_id":"ce4bgih2rcd13ifvqba0","pricing_plan_id":"cebpf4jnsgd1na2vs0mg"},{"bike_id":"bb3d52e5-57e2-4662-ad8d-faedaa073fd5","system_id":"levelo_inurba_marseille","lat":43.290779,"lon":5.371482,"is_reserved":false,"is_disabled":false,"rental_uris":{"android":"levelo://app?vid=bb3d52e5-57e2-4662-ad8d-faedaa073fd5","ios":"levelo://app?vid=bb3d52e5-57e2-4662-ad8d-faedaa073fd5"},"vehicle_type_id":"4","last_reported":1724699255,"current_range_meters":0,"station_id":"ce4bh5p2rcd13ifvqe4g","pricing_plan_id":"cebpf4jnsgd1na2vs0mg"},{"bike_id":"b2a2c3db-19d0-4d6d-ba6d-3f55203b38f0","system_id":"levelo_inurba_marseille","lat":43.290779,"lon":5.371482,"is_reserved":false,"is_disabled":false,"rental_uris":{"android":"levelo://app?vid=b2a2c3db-19d0-4d6d-ba6d-3f55203b38f0","ios":"levelo://app?vid=b2a2c3db-19d0-4d6d-ba6d-3f55203b38f0"},"vehicle_type_id":"4","last_reported":1724699255,"current_range_meters":16000,"station_id":"ce4bh5p2rcd13ifvqe4g","pricing_plan_id":"cebpf4jnsgd1na2vs0mg"},{"bike_id":"cad34439-ebdd-4b12-b558-8a9f72d111ce","system_id":"levelo_inurba_marseille","lat":43.290624,"lon":5.359245,"is_reserved":false,"is_disabled":false,"rental_uris":{"android":"levelo://app?vid=cad34439-ebdd-4b12-b558-8a9f72d111ce","ios":"levelo://app?vid=cad34439-ebdd-4b12-b558-8a9f72d111ce"},"vehicle_type_id":"4","last_reported":1724699255,"current_range_meters":27200,"station_id":"ce4bha92rcd13ifvqeg0","pricing_plan_id":"cebpf4jnsgd1na2vs0mg"},{"bike_id":"408e63c7-868b-4502-9f4a-8b401fa1cb19","system_id":"levelo_inurba_marseille","lat":43.30214,"lon":5.39466,"is_reserved":false,"is_disabled":false,"rental_uris":{"android":"levelo://app?vid=408e63c7-868b-4502-9f4a-8b401fa1cb19","ios":"levelo://app?vid=408e63c7-868b-4502-9f4a-8b401fa1cb19"},"vehicle_type_id":"4","last_reported":1724699255,"current_range_meters":9600,"station_id":"ce4bh0p2rcd13ifvqd70","pricing_plan_id":"cebpf4jnsgd1na2vs0mg"},{"bike_id":"3e0b5e10-53bc-425d-b0be-37c4d1a94565","system_id":"levelo_inurba_marseille","lat":43.324602,"lon":5.394006,"is_reserved":false,"is_disabled":false,"rental_uris":{"android":"levelo://app?vid=3e0b5e10-53bc-425d-b0be-37c4d1a94565","ios":"levelo://app?vid=3e0b5e10-53bc-425d-b0be-37c4d1a94565"},"vehicle_type_id":"4","last_reported":1724699255,"current_range_meters":6000,"station_id":"","pricing_plan_id":"cebpf4jnsgd1na2vs0mg"},{"bike_id":"a6b6f336-7c0a-4f8c-9689-6f0592750ab8","system_id":"levelo_inurba_marseille","lat":43.290327,"lon":5.375711,"is_reserved":false,"is_disabled":false,"rental_uris":{"android":"levelo://app?vid=a6b6f336-7c0a-4f8c-9689-6f0592750ab8","ios":"levelo://app?vid=a6b6f336-7c0a-4f8c-9689-6f0592750ab8"},"vehicle_type_id":"4","last_reported":1724699255,"current_range_meters":26800,"station_id":"ce4bh692rcd13ifvqe90","pricing_plan_id":"cebpf4jnsgd1na2vs0mg"},{"bike_id":"e2eb585c-24f0-40e6-8884-9d1dd1c85825","system_id":"levelo_inurba_marseille","lat":43.294153,"lon":5.386305,"is_reserved":false,"is_disabled":false,"rental_uris":{"android":"levelo://app?vid=e2eb585c-24f0-40e6-8884-9d1dd1c85825","ios":"levelo://app?vid=e2eb585c-24f0-40e6-8884-9d1dd1c85825"},"vehicle_type_id":"4","last_reported":1724699255,"current_range_meters":400,"station_id":"ce4bh2h2rcd13ifvqdh0","pricing_plan_id":"cebpf4jnsgd1na2vs0mg"},{"bike_id":"4c764421-147b-48da-8b05-f0decc0a4413","system_id":"levelo_inurba_marseille","lat":43.290327,"lon":5.375711,"is_reserved":false,"is_disabled":false,"rental_uris":{"android":"levelo://app?vid=4c764421-147b-48da-8b05-f0decc0a4413","ios":"levelo://app?vid=4c764421-147b-48da-8b05-f0decc0a4413"},"vehicle_type_id":"4","last_reported":1724699255,"current_range_meters":27200,"station_id":"ce4bh692rcd13ifvqe90","pricing_plan_id":"cebpf4jnsgd1na2vs0mg"},{"bike_id":"7f90f6f1-1b58-4c89-82c4-09bc1d34ee78","system_id":"levelo_inurba_marseille","lat":43.294153,"lon":5.386305,"is_reserved":false,"is_disabled":false,"rental_uris":{"android":"levelo://app?vid=7f90f6f1-1b58-4c89-82c4-09bc1d34ee78","ios":"levelo://app?vid=7f90f6f1-1b58-4c89-82c4-09bc1d34ee78"},"vehicle_type_id":"4","last_reported":1724699255,"current_range_meters":14400,"station_id":"ce4bh2h2rcd13ifvqdh0","pricing_plan_id":"cebpf4jnsgd1na2vs0mg"},{"bike_id":"44c3659d-ad66-4da7-987f-6865b1fd452b","system_id":"levelo_inurba_marseille","lat":43.29419,"lon":5.3862,"is_reserved":false,"is_disabled":false,"rental_uris":{"android":"levelo://app?vid=44c3659d-ad66-4da7-987f-6865b1fd452b","ios":"levelo://app?vid=44c3659d-ad66-4da7-987f-6865b1fd452b"},"vehicle_type_id":"4","last_reported":1724699255,"current_range_meters":400,"station_id":"ce4bh2h2rcd13ifvqdh0","pricing_plan_id":"cebpf4jnsgd1na2vs0mg"},{"bike_id":"903edfb5-d553-4ae7-9748-f038d6ffd5b3","system_id":"levelo_inurba_marseille","lat":43.290319,"lon":5.375732,"is_reserved":false,"is_disabled":false,"rental_uris":{"android":"levelo://app?vid=903edfb5-d553-4ae7-9748-f038d6ffd5b3","ios":"levelo://app?vid=903edfb5-d553-4ae7-9748-f038d6ffd5b3"},"vehicle_type_id":"4","last_reported":1724699255,"current_range_meters":18800,"station_id":"ce4bh692rcd13ifvqe90","pricing_plan_id":"cebpf4jnsgd1na2vs0mg"},{"bike_id":"b4f8a958-007d-4bfe-b0e6-e25f0a4bb820","system_id":"levelo_inurba_marseille","lat":43.29419,"lon":5.38622,"is_reserved":false,"is_disabled":false,"rental_uris":{"android":"levelo://app?vid=b4f8a958-007d-4bfe-b0e6-e25f0a4bb820","ios":"levelo://app?vid=b4f8a958-007d-4bfe-b0e6-e25f0a4bb820"},"vehicle_type_id":"4","last_reported":1724699255,"current_range_meters":16000,"station_id":"ce4bh2h2rcd13ifvqdh0","pricing_plan_id":"cebpf4jnsgd1na2vs0mg"},{"bike_id":"7c8609ba-f14e-4846-9f0b-66cdfa4d4ea0","system_id":"levelo_inurba_marseille","lat":43.29417,"lon":5.38623,"is_reserved":false,"is_disabled":false,"rental_uris":{"android":"levelo://app?vid=7c8609ba-f14e-4846-9f0b-66cdfa4d4ea0","ios":"levelo://app?vid=7c8609ba-f14e-4846-9f0b-66cdfa4d4ea0"},"vehicle_type_id":"4","last_reported":1724699255,"current_range_meters":0,"station_id":"ce4bh2h2rcd13ifvqdh0","pricing_plan_id":"cebpf4jnsgd1na2vs0mg"},{"bike_id":"48ac7d20-3d1b-44e4-95c1-57fe157f1180","system_id":"levelo_inurba_marseille","lat":43.29423,"lon":5.38634,"is_reserved":false,"is_disabled":false,"rental_uris":{"android":"levelo://app?vid=48ac7d20-3d1b-44e4-95c1-57fe157f1180","ios":"levelo://app?vid=48ac7d20-3d1b-44e4-95c1-57fe157f1180"},"vehicle_type_id":"4","last_reported":1724699255,"current_range_meters":0,"station_id":"ce4bh2h2rcd13ifvqdh0","pricing_plan_id":"cebpf4jnsgd1na2vs0mg"},{"bike_id":"054e1396-d2c0-49a3-9ce0-cf85bd61df06","system_id":"levelo_inurba_marseille","lat":43.289184,"lon":5.366408,"is_reserved":false,"is_disabled":false,"rental_uris":{"android":"levelo://app?vid=054e1396-d2c0-49a3-9ce0-cf85bd61df06","ios":"levelo://app?vid=054e1396-d2c0-49a3-9ce0-cf85bd61df06"},"vehicle_type_id":"4","last_reported":1724699255,"current_range_meters":13200,"station_id":"ce4bhap2rcd13ifvqek0","pricing_plan_id":"cebpf4jnsgd1na2vs0mg"},{"bike_id":"2ad660a3-1b8e-479f-96ea-08632c050289","system_id":"levelo_inurba_marseille","lat":43.28945,"lon":5.36637,"is_reserved":false,"is_disabled":false,"rental_uris":{"android":"levelo://app?vid=2ad660a3-1b8e-479f-96ea-08632c050289","ios":"levelo://app?vid=2ad660a3-1b8e-479f-96ea-08632c050289"},"vehicle_type_id":"4","last_reported":1724699255,"current_range_meters":0,"station_id":"ce4bhap2rcd13ifvqek0","pricing_plan_id":"cebpf4jnsgd1na2vs0mg"},{"bike_id":"6175915e-358a-4586-86f9-7abc47cb146c","system_id":"levelo_inurba_marseille","lat":43.294153,"lon":5.386305,"is_reserved":false,"is_disabled":false,"rental_uris":{"android":"levelo://app?vid=6175915e-358a-4586-86f9-7abc47cb146c","ios":"levelo://app?vid=6175915e-358a-4586-86f9-7abc47cb146c"},"vehicle_type_id":"4","last_reported":1724699255,"current_range_meters":0,"station_id":"ce4bh2h2rcd13ifvqdh0","pricing_plan_id":"cebpf4jnsgd1na2vs0mg"},{"bike_id":"d2b14293-b0ca-49b9-a7a5-099e6c6a4a8f","system_id":"levelo_inurba_marseille","lat":43.29418,"lon":5.38627,"is_reserved":false,"is_disabled":false,"rental_uris":{"android":"levelo://app?vid=d2b14293-b0ca-49b9-a7a5-099e6c6a4a8f","ios":"levelo://app?vid=d2b14293-b0ca-49b9-a7a5-099e6c6a4a8f"},"vehicle_type_id":"4","last_reported":1724699255,"current_range_meters":0,"station_id":"ce4bh2h2rcd13ifvqdh0","pricing_plan_id":"cebpf4jnsgd1na2vs0mg"},{"bike_id":"f215c349-8bcd-467d-abbe-1b1c7be5cddb","system_id":"levelo_inurba_marseille","lat":43.29418,"lon":5.38629,"is_reserved":false,"is_disabled":false,"rental_uris":{"android":"levelo://app?vid=f215c349-8bcd-467d-abbe-1b1c7be5cddb","ios":"levelo://app?vid=f215c349-8bcd-467d-abbe-1b1c7be5cddb"},"vehicle_type_id":"4","last_reported":1724699255,"current_range_meters":0,"station_id":"ce4bh2h2rcd13ifvqdh0","pricing_plan_id":"cebpf4jnsgd1na2vs0mg"},{"bike_id":"a28e77fd-398f-48bc-bd2d-a6b15a7a7f48","system_id":"levelo_inurba_marseille","lat":43.294153,"lon":5.386305,"is_reserved":false,"is_disabled":false,"rental_uris":{"android":"levelo://app?vid=a28e77fd-398f-48bc-bd2d-a6b15a7a7f48","ios":"levelo://app?vid=a28e77fd-398f-48bc-bd2d-a6b15a7a7f48"},"vehicle_type_id":"4","last_reported":1724699255,"current_range_meters":20000,"station_id":"ce4bh2h2rcd13ifvqdh0","pricing_plan_id":"cebpf4jnsgd1na2vs0mg"},{"bike_id":"bab539e5-b1ea-4dc1-a55b-4eb0ea14d5c2","system_id":"levelo_inurba_marseille","lat":43.28943,"lon":5.36632,"is_reserved":false,"is_disabled":false,"rental_uris":{"android":"levelo://app?vid=bab539e5-b1ea-4dc1-a55b-4eb0ea14d5c2","ios":"levelo://app?vid=bab539e5-b1ea-4dc1-a55b-4eb0ea14d5c2"},"vehicle_type_id":"4","last_reported":1724699255,"current_range_meters":4800,"station_id":"ce4bhap2rcd13ifvqek0","pricing_plan_id":"cebpf4jnsgd1na2vs0mg"},{"bike_id":"336b8d04-a549-4a2e-9cff-fbab977a1069","system_id":"levelo_inurba_marseille","lat":43.294153,"lon":5.386305,"is_reserved":false,"is_disabled":false,"rental_uris":{"android":"levelo://app?vid=336b8d04-a549-4a2e-9cff-fbab977a1069","ios":"levelo://app?vid=336b8d04-a549-4a2e-9cff-fbab977a1069"},"vehicle_type_id":"4","last_reported":1724699255,"current_range_meters":0,"station_id":"ce4bh2h2rcd13ifvqdh0","pricing_plan_id":"cebpf4jnsgd1na2vs0mg"},{"bike_id":"4aa6605a-b514-49a7-9ce6-cb8df17d91a7","system_id":"levelo_inurba_marseille","lat":43.29415,"lon":5.3863,"is_reserved":false,"is_disabled":false,"rental_uris":{"android":"levelo://app?vid=4aa6605a-b514-49a7-9ce6-cb8df17d91a7","ios":"levelo://app?vid=4aa6605a-b514-49a7-9ce6-cb8df17d91a7"},"vehicle_type_id":"4","last_reported":1724699255,"current_range_meters":0,"station_id":"ce4bh2h2rcd13ifvqdh0","pricing_plan_id":"cebpf4jnsgd1na2vs0mg"},{"bike_id":"529c0147-202f-4c2f-a950-fa3f832d907f","system_id":"levelo_inurba_marseille","lat":43.290319,"lon":5.375732,"is_reserved":false,"is_disabled":false,"rental_uris":{"android":"levelo://app?vid=529c0147-202f-4c2f-a950-fa3f832d907f","ios":"levelo://app?vid=529c0147-202f-4c2f-a950-fa3f832d907f"},"vehicle_type_id":"4","last_reported":1724699255,"current_range_meters":12000,"station_id":"ce4bh692rcd13ifvqe90","pricing_plan_id":"cebpf4jnsgd1na2vs0mg"},{"bike_id":"35576db2-8a86-413d-8046-a8cc1003ff68","system_id":"levelo_inurba_marseille","lat":43.2894,"lon":5.36637,"is_reserved":false,"is_disabled":false,"rental_uris":{"android":"levelo://app?vid=35576db2-8a86-413d-8046-a8cc1003ff68","ios":"levelo://app?vid=35576db2-8a86-413d-8046-a8cc1003ff68"},"vehicle_type_id":"4","last_reported":1724699255,"current_range_meters":0,"station_id":"ce4bhap2rcd13ifvqek0","pricing_plan_id":"cebpf4jnsgd1na2vs0mg"},{"bike_id":"5cbec1cb-839d-4553-84e6-faa0cc42c40b","system_id":"levelo_inurba_marseille","lat":43.294162,"lon":5.386292,"is_reserved":false,"is_disabled":false,"rental_uris":{"android":"levelo://app?vid=5cbec1cb-839d-4553-84e6-faa0cc42c40b","ios":"levelo://app?vid=5cbec1cb-839d-4553-84e6-faa0cc42c40b"},"vehicle_type_id":"4","last_reported":1724699255,"current_range_meters":14400,"station_id":"ce4bh2h2rcd13ifvqdh0","pricing_plan_id":"cebpf4jnsgd1na2vs0mg"},{"bike_id":"89727302-7d6d-4292-8140-bbf2e3cde9c2","system_id":"levelo_inurba_marseille","lat":43.28939,"lon":5.36639,"is_reserved":false,"is_disabled":false,"rental_uris":{"android":"levelo://app?vid=89727302-7d6d-4292-8140-bbf2e3cde9c2","ios":"levelo://app?vid=89727302-7d6d-4292-8140-bbf2e3cde9c2"},"vehicle_type_id":"4","last_reported":1724699255,"current_range_meters":31200,"station_id":"ce4bhap2rcd13ifvqek0","pricing_plan_id":"cebpf4jnsgd1na2vs0mg"},{"bike_id":"bcc84b75-d20d-4c12-bd21-b44e3be03240","system_id":"levelo_inurba_marseille","lat":43.294162,"lon":5.386292,"is_reserved":false,"is_disabled":false,"rental_uris":{"android":"levelo://app?vid=bcc84b75-d20d-4c12-bd21-b44e3be03240","ios":"levelo://app?vid=bcc84b75-d20d-4c12-bd21-b44e3be03240"},"vehicle_type_id":"4","last_reported":1724699255,"current_range_meters":12000,"station_id":"ce4bh2h2rcd13ifvqdh0","pricing_plan_id":"cebpf4jnsgd1na2vs0mg"},{"bike_id":"d103a352-bdd5-4138-8360-50f8d9c3c43b","system_id":"levelo_inurba_marseille","lat":43.28937,"lon":5.36634,"is_reserved":false,"is_disabled":false,"rental_uris":{"android":"levelo://app?vid=d103a352-bdd5-4138-8360-50f8d9c3c43b","ios":"levelo://app?vid=d103a352-bdd5-4138-8360-50f8d9c3c43b"},"vehicle_type_id":"4","last_reported":1724699255,"current_range_meters":31200,"station_id":"ce4bhap2rcd13ifvqek0","pricing_plan_id":"cebpf4jnsgd1na2vs0mg"},{"bike_id":"88b7382a-8125-453c-8c48-2e5af5761df3","system_id":"levelo_inurba_marseille","lat":43.30085,"lon":5.390856,"is_reserved":false,"is_disabled":false,"rental_uris":{"android":"levelo://app?vid=88b7382a-8125-453c-8c48-2e5af5761df3","ios":"levelo://app?vid=88b7382a-8125-453c-8c48-2e5af5761df3"},"vehicle_type_id":"4","last_reported":1724699255,"current_range_meters":3200,"station_id":"ce4bh192rcd13ifvqdb0","pricing_plan_id":"cebpf4jnsgd1na2vs0mg"},{"bike_id":"0c597a14-9b25-4760-b546-31724ff18c06","system_id":"levelo_inurba_marseille","lat":43.289372,"lon":5.36387,"is_reserved":false,"is_disabled":false,"rental_uris":{"android":"levelo://app?vid=0c597a14-9b25-4760-b546-31724ff18c06","ios":"levelo://app?vid=0c597a14-9b25-4760-b546-31724ff18c06"},"vehicle_type_id":"4","last_reported":1724699255,"current_range_meters":0,"station_id":"ce4bhc92rcd13ifvqetg","pricing_plan_id":"cebpf4jnsgd1na2vs0mg"},{"bike_id":"653d2731-b89f-4319-926c-7e57bd4329f8","system_id":"levelo_inurba_marseille","lat":43.289366,"lon":5.363906,"is_reserved":false,"is_disabled":false,"rental_uris":{"android":"levelo://app?vid=653d2731-b89f-4319-926c-7e57bd4329f8","ios":"levelo://app?vid=653d2731-b89f-4319-926c-7e57bd4329f8"},"vehicle_type_id":"4","last_reported":1724699255,"current_range_meters":0,"station_id":"ce4bhc92rcd13ifvqetg","pricing_plan_id":"cebpf4jnsgd1na2vs0mg"},{"bike_id":"35bf6bad-198a-4f9c-8825-fa23b8808090","system_id":"levelo_inurba_marseille","lat":43.289468,"lon":5.363719,"is_reserved":false,"is_disabled":false,"rental_uris":{"android":"levelo://app?vid=35bf6bad-198a-4f9c-8825-fa23b8808090","ios":"levelo://app?vid=35bf6bad-198a-4f9c-8825-fa23b8808090"},"vehicle_type_id":"4","last_reported":1724699255,"current_range_meters":27200,"station_id":"ce4bhc92rcd13ifvqetg","pricing_plan_id":"cebpf4jnsgd1na2vs0mg"},{"bike_id":"dea5def3-71d0-44ab-b9db-ba6a159da6b4","system_id":"levelo_inurba_marseille","lat":43.292644,"lon":5.384257,"is_reserved":false,"is_disabled":false,"rental_uris":{"android":"levelo://app?vid=dea5def3-71d0-44ab-b9db-ba6a159da6b4","ios":"levelo://app?vid=dea5def3-71d0-44ab-b9db-ba6a159da6b4"},"vehicle_type_id":"4","last_reported":1724699255,"current_range_meters":2000,"station_id":"ce4bh692rcd13ifvqea0","pricing_plan_id":"cebpf4jnsgd1na2vs0mg"},{"bike_id":"8c7cde20-b748-421c-93fc-fb9cedb08bc2","system_id":"levelo_inurba_marseille","lat":43.292644,"lon":5.384257,"is_reserved":false,"is_disabled":false,"rental_uris":{"android":"levelo://app?vid=8c7cde20-b748-421c-93fc-fb9cedb08bc2","ios":"levelo://app?vid=8c7cde20-b748-421c-93fc-fb9cedb08bc2"},"vehicle_type_id":"4","last_reported":1724699255,"current_range_meters":9600,"station_id":"ce4bh692rcd13ifvqea0","pricing_plan_id":"cebpf4jnsgd1na2vs0mg"},{"bike_id":"4e64957c-b156-4dd2-92fc-5d52b009a87c","system_id":"levelo_inurba_marseille","lat":43.292642,"lon":5.384254,"is_reserved":false,"is_disabled":false,"rental_uris":{"android":"levelo://app?vid=4e64957c-b156-4dd2-92fc-5d52b009a87c","ios":"levelo://app?vid=4e64957c-b156-4dd2-92fc-5d52b009a87c"},"vehicle_type_id":"4","last_reported":1724699255,"current_range_meters":0,"station_id":"ce4bh692rcd13ifvqea0","pricing_plan_id":"cebpf4jnsgd1na2vs0mg"},{"bike_id":"9b994865-6346-4bbf-884a-dff8f134134e","system_id":"levelo_inurba_marseille","lat":43.29264,"lon":5.38442,"is_reserved":false,"is_disabled":false,"rental_uris":{"android":"levelo://app?vid=9b994865-6346-4bbf-884a-dff8f134134e","ios":"levelo://app?vid=9b994865-6346-4bbf-884a-dff8f134134e"},"vehicle_type_id":"4","last_reported":1724699255,"current_range_meters":0,"station_id":"ce4bh692rcd13ifvqea0","pricing_plan_id":"cebpf4jnsgd1na2vs0mg"},{"bike_id":"2812e504-8485-4518-b670-ff1d9d387d0d","system_id":"levelo_inurba_marseille","lat":43.292644,"lon":5.384257,"is_reserved":false,"is_disabled":false,"rental_uris":{"android":"levelo://app?vid=2812e504-8485-4518-b670-ff1d9d387d0d","ios":"levelo://app?vid=2812e504-8485-4518-b670-ff1d9d387d0d"},"vehicle_type_id":"4","last_reported":1724699255,"current_range_meters":6800,"station_id":"ce4bh692rcd13ifvqea0","pricing_plan_id":"cebpf4jnsgd1na2vs0mg"},{"bike_id":"416e9bb0-98fa-4bd0-9050-aa7435b23a35","system_id":"levelo_inurba_marseille","lat":43.29269,"lon":5.38456,"is_reserved":false,"is_disabled":false,"rental_uris":{"android":"levelo://app?vid=416e9bb0-98fa-4bd0-9050-aa7435b23a35","ios":"levelo://app?vid=416e9bb0-98fa-4bd0-9050-aa7435b23a35"},"vehicle_type_id":"4","last_reported":1724699255,"current_range_meters":22000,"station_id":"ce4bh692rcd13ifvqea0","pricing_plan_id":"cebpf4jnsgd1na2vs0mg"},{"bike_id":"49b488e8-e844-46b8-a02d-7d23752ebbff","system_id":"levelo_inurba_marseille","lat":43.29262,"lon":5.38442,"is_reserved":false,"is_disabled":false,"rental_uris":{"android":"levelo://app?vid=49b488e8-e844-46b8-a02d-7d23752ebbff","ios":"levelo://app?vid=49b488e8-e844-46b8-a02d-7d23752ebbff"},"vehicle_type_id":"4","last_reported":1724699255,"current_range_meters":0,"station_id":"ce4bh692rcd13ifvqea0","pricing_plan_id":"cebpf4jnsgd1na2vs0mg"},{"bike_id":"829e076c-3ad7-462c-b4e6-37edc6eb7296","system_id":"levelo_inurba_marseille","lat":43.29262,"lon":5.38445,"is_reserved":false,"is_disabled":false,"rental_uris":{"android":"levelo://app?vid=829e076c-3ad7-462c-b4e6-37edc6eb7296","ios":"levelo://app?vid=829e076c-3ad7-462c-b4e6-37edc6eb7296"},"vehicle_type_id":"4","last_reported":1724699255,"current_range_meters":16400,"station_id":"ce4bh692rcd13ifvqea0","pricing_plan_id":"cebpf4jnsgd1na2vs0mg"},{"bike_id":"6731c1b6-1cef-4888-9cd3-fcb1f14bcbfd","system_id":"levelo_inurba_marseille","lat":43.29263,"lon":5.38451,"is_reserved":false,"is_disabled":false,"rental_uris":{"android":"levelo://app?vid=6731c1b6-1cef-4888-9cd3-fcb1f14bcbfd","ios":"levelo://app?vid=6731c1b6-1cef-4888-9cd3-fcb1f14bcbfd"},"vehicle_type_id":"4","last_reported":1724699255,"current_range_meters":31200,"station_id":"ce4bh692rcd13ifvqea0","pricing_plan_id":"cebpf4jnsgd1na2vs0mg"},{"bike_id":"3a2ecacf-cacc-436d-ba3b-bb5ff6d5675f","system_id":"levelo_inurba_marseille","lat":43.292644,"lon":5.384257,"is_reserved":false,"is_disabled":false,"rental_uris":{"android":"levelo://app?vid=3a2ecacf-cacc-436d-ba3b-bb5ff6d5675f","ios":"levelo://app?vid=3a2ecacf-cacc-436d-ba3b-bb5ff6d5675f"},"vehicle_type_id":"4","last_reported":1724699255,"current_range_meters":9600,"station_id":"ce4bh692rcd13ifvqea0","pricing_plan_id":"cebpf4jnsgd1na2vs0mg"},{"bike_id":"a7103edf-0969-42f4-ba83-2667577759b9","system_id":"levelo_inurba_marseille","lat":43.29003,"lon":5.35614,"is_reserved":false,"is_disabled":false,"rental_uris":{"android":"levelo://app?vid=a7103edf-0969-42f4-ba83-2667577759b9","ios":"levelo://app?vid=a7103edf-0969-42f4-ba83-2667577759b9"},"vehicle_type_id":"4","last_reported":1724699255,"current_range_meters":5600,"station_id":"ce4bhb92rcd13ifvqen0","pricing_plan_id":"cebpf4jnsgd1na2vs0mg"},{"bike_id":"9349b513-fa42-4370-9bee-3a0b54196d8b","system_id":"levelo_inurba_marseille","lat":43.290104,"lon":5.356111,"is_reserved":false,"is_disabled":false,"rental_uris":{"android":"levelo://app?vid=9349b513-fa42-4370-9bee-3a0b54196d8b","ios":"levelo://app?vid=9349b513-fa42-4370-9bee-3a0b54196d8b"},"vehicle_type_id":"4","last_reported":1724699255,"current_range_meters":0,"station_id":"ce4bhb92rcd13ifvqen0","pricing_plan_id":"cebpf4jnsgd1na2vs0mg"},{"bike_id":"adf8aa61-9c80-4d4f-8a3c-4b3c7d6677af","system_id":"levelo_inurba_marseille","lat":43.290104,"lon":5.356111,"is_reserved":false,"is_disabled":false,"rental_uris":{"android":"levelo://app?vid=adf8aa61-9c80-4d4f-8a3c-4b3c7d6677af","ios":"levelo://app?vid=adf8aa61-9c80-4d4f-8a3c-4b3c7d6677af"},"vehicle_type_id":"4","last_reported":1724699255,"current_range_meters":31200,"station_id":"ce4bhb92rcd13ifvqen0","pricing_plan_id":"cebpf4jnsgd1na2vs0mg"},{"bike_id":"1448edf6-aec0-4e4e-8f95-2d375fe4f791","system_id":"levelo_inurba_marseille","lat":43.290995,"lon":5.381361,"is_reserved":false,"is_disabled":false,"rental_uris":{"android":"levelo://app?vid=1448edf6-aec0-4e4e-8f95-2d375fe4f791","ios":"levelo://app?vid=1448edf6-aec0-4e4e-8f95-2d375fe4f791"},"vehicle_type_id":"4","last_reported":1724699255,"current_range_meters":24400,"station_id":"ce4bh512rcd13ifvqe2g","pricing_plan_id":"cebpf4jnsgd1na2vs0mg"},{"bike_id":"381134d8-dc12-4c64-9d6b-73a78dc5f02c","system_id":"levelo_inurba_marseille","lat":43.290995,"lon":5.381361,"is_reserved":false,"is_disabled":false,"rental_uris":{"android":"levelo://app?vid=381134d8-dc12-4c64-9d6b-73a78dc5f02c","ios":"levelo://app?vid=381134d8-dc12-4c64-9d6b-73a78dc5f02c"},"vehicle_type_id":"4","last_reported":1724699255,"current_range_meters":24400,"station_id":"ce4bh512rcd13ifvqe2g","pricing_plan_id":"cebpf4jnsgd1na2vs0mg"},{"bike_id":"1fcd493d-1277-4976-ac6a-e8d236646da0","system_id":"levelo_inurba_marseille","lat":43.290995,"lon":5.381361,"is_reserved":false,"is_disabled":false,"rental_uris":{"android":"levelo://app?vid=1fcd493d-1277-4976-ac6a-e8d236646da0","ios":"levelo://app?vid=1fcd493d-1277-4976-ac6a-e8d236646da0"},"vehicle_type_id":"4","last_reported":1724699255,"current_range_meters":4800,"station_id":"ce4bh512rcd13ifvqe2g","pricing_plan_id":"cebpf4jnsgd1na2vs0mg"},{"bike_id":"dd5dd9b7-8e2f-48e0-ac4f-b716569655d2","system_id":"levelo_inurba_marseille","lat":43.295169,"lon":5.390426,"is_reserved":false,"is_disabled":false,"rental_uris":{"android":"levelo://app?vid=dd5dd9b7-8e2f-48e0-ac4f-b716569655d2","ios":"levelo://app?vid=dd5dd9b7-8e2f-48e0-ac4f-b716569655d2"},"vehicle_type_id":"4","last_reported":1724699255,"current_range_meters":24800,"station_id":"ce4bh3p2rcd13ifvqdp0","pricing_plan_id":"cebpf4jnsgd1na2vs0mg"},{"bike_id":"d5d44028-bc36-42d6-af8d-2a554650ed9c","system_id":"levelo_inurba_marseille","lat":43.297807,"lon":5.393533,"is_reserved":false,"is_disabled":false,"rental_uris":{"android":"levelo://app?vid=d5d44028-bc36-42d6-af8d-2a554650ed9c","ios":"levelo://app?vid=d5d44028-bc36-42d6-af8d-2a554650ed9c"},"vehicle_type_id":"4","last_reported":1724699255,"current_range_meters":2800,"station_id":"chh1huq6cuj3fo74tm60","pricing_plan_id":"cebpf4jnsgd1na2vs0mg"},{"bike_id":"c879c435-7ae6-4322-8d6c-ff9d7fa60aa4","system_id":"levelo_inurba_marseille","lat":43.295169,"lon":5.390426,"is_reserved":false,"is_disabled":false,"rental_uris":{"android":"levelo://app?vid=c879c435-7ae6-4322-8d6c-ff9d7fa60aa4","ios":"levelo://app?vid=c879c435-7ae6-4322-8d6c-ff9d7fa60aa4"},"vehicle_type_id":"4","last_reported":1724699255,"current_range_meters":0,"station_id":"ce4bh3p2rcd13ifvqdp0","pricing_plan_id":"cebpf4jnsgd1na2vs0mg"},{"bike_id":"ff5a67e8-7448-47ea-969a-7ee519525fa1","system_id":"levelo_inurba_marseille","lat":43.33024,"lon":5.39035,"is_reserved":false,"is_disabled":false,"rental_uris":{"android":"levelo://app?vid=ff5a67e8-7448-47ea-969a-7ee519525fa1","ios":"levelo://app?vid=ff5a67e8-7448-47ea-969a-7ee519525fa1"},"vehicle_type_id":"4","last_reported":1724699255,"current_range_meters":5600,"station_id":"ce4bhr92rcd13ifvqhrg","pricing_plan_id":"cebpf4jnsgd1na2vs0mg"},{"bike_id":"0c6aa4c4-aa64-4f7c-bc59-9a58750f8af4","system_id":"levelo_inurba_marseille","lat":43.330442,"lon":5.389148,"is_reserved":false,"is_disabled":false,"rental_uris":{"android":"levelo://app?vid=0c6aa4c4-aa64-4f7c-bc59-9a58750f8af4","ios":"levelo://app?vid=0c6aa4c4-aa64-4f7c-bc59-9a58750f8af4"},"vehicle_type_id":"4","last_reported":1724699255,"current_range_meters":24000,"station_id":"ce4bhr92rcd13ifvqhrg","pricing_plan_id":"cebpf4jnsgd1na2vs0mg"},{"bike_id":"d74f8e03-6953-4ea3-bafd-ccae5b05d505","system_id":"levelo_inurba_marseille","lat":43.33026,"lon":5.39033,"is_reserved":false,"is_disabled":false,"rental_uris":{"android":"levelo://app?vid=d74f8e03-6953-4ea3-bafd-ccae5b05d505","ios":"levelo://app?vid=d74f8e03-6953-4ea3-bafd-ccae5b05d505"},"vehicle_type_id":"4","last_reported":1724699255,"current_range_meters":0,"station_id":"ce4bhr92rcd13ifvqhrg","pricing_plan_id":"cebpf4jnsgd1na2vs0mg"},{"bike_id":"bd414313-f9e3-44fe-afa3-4e335d292e64","system_id":"levelo_inurba_marseille","lat":43.33025,"lon":5.39035,"is_reserved":false,"is_disabled":false,"rental_uris":{"android":"levelo://app?vid=bd414313-f9e3-44fe-afa3-4e335d292e64","ios":"levelo://app?vid=bd414313-f9e3-44fe-afa3-4e335d292e64"},"vehicle_type_id":"4","last_reported":1724699255,"current_range_meters":30800,"station_id":"ce4bhr92rcd13ifvqhrg","pricing_plan_id":"cebpf4jnsgd1na2vs0mg"},{"bike_id":"d0983350-b54b-45b4-9b64-77d38941eeab","system_id":"levelo_inurba_marseille","lat":43.33025,"lon":5.39035,"is_reserved":false,"is_disabled":false,"rental_uris":{"android":"levelo://app?vid=d0983350-b54b-45b4-9b64-77d38941eeab","ios":"levelo://app?vid=d0983350-b54b-45b4-9b64-77d38941eeab"},"vehicle_type_id":"4","last_reported":1724699255,"current_range_meters":5600,"station_id":"ce4bhr92rcd13ifvqhrg","pricing_plan_id":"cebpf4jnsgd1na2vs0mg"},{"bike_id":"a6c629cf-4703-4e79-ad47-53eed6b30de6","system_id":"levelo_inurba_marseille","lat":43.330442,"lon":5.389148,"is_reserved":false,"is_disabled":false,"rental_uris":{"android":"levelo://app?vid=a6c629cf-4703-4e79-ad47-53eed6b30de6","ios":"levelo://app?vid=a6c629cf-4703-4e79-ad47-53eed6b30de6"},"vehicle_type_id":"4","last_reported":1724699255,"current_range_meters":4800,"station_id":"ce4bhr92rcd13ifvqhrg","pricing_plan_id":"cebpf4jnsgd1na2vs0mg"},{"bike_id":"8c829285-1ab3-4436-8933-6fcbdaebd2db","system_id":"levelo_inurba_marseille","lat":43.295169,"lon":5.390426,"is_reserved":false,"is_disabled":false,"rental_uris":{"android":"levelo://app?vid=8c829285-1ab3-4436-8933-6fcbdaebd2db","ios":"levelo://app?vid=8c829285-1ab3-4436-8933-6fcbdaebd2db"},"vehicle_type_id":"4","last_reported":1724699255,"current_range_meters":4000,"station_id":"ce4bh3p2rcd13ifvqdp0","pricing_plan_id":"cebpf4jnsgd1na2vs0mg"},{"bike_id":"2a4a61ac-c01d-4b57-8e33-d861caed6ac0","system_id":"levelo_inurba_marseille","lat":43.289741,"lon":5.378306,"is_reserved":false,"is_disabled":false,"rental_uris":{"android":"levelo://app?vid=2a4a61ac-c01d-4b57-8e33-d861caed6ac0","ios":"levelo://app?vid=2a4a61ac-c01d-4b57-8e33-d861caed6ac0"},"vehicle_type_id":"4","last_reported":1724699255,"current_range_meters":26800,"station_id":"ce4bh9p2rcd13ifvqed0","pricing_plan_id":"cebpf4jnsgd1na2vs0mg"},{"bike_id":"263ef483-36b4-4c93-a3c1-ace420892127","system_id":"levelo_inurba_marseille","lat":43.289741,"lon":5.378306,"is_reserved":false,"is_disabled":false,"rental_uris":{"android":"levelo://app?vid=263ef483-36b4-4c93-a3c1-ace420892127","ios":"levelo://app?vid=263ef483-36b4-4c93-a3c1-ace420892127"},"vehicle_type_id":"4","last_reported":1724699255,"current_range_meters":27600,"station_id":"ce4bh9p2rcd13ifvqed0","pricing_plan_id":"cebpf4jnsgd1na2vs0mg"},{"bike_id":"7961e13e-2fff-4d3b-bc59-51d94f695760","system_id":"levelo_inurba_marseille","lat":43.330442,"lon":5.389148,"is_reserved":false,"is_disabled":false,"rental_uris":{"android":"levelo://app?vid=7961e13e-2fff-4d3b-bc59-51d94f695760","ios":"levelo://app?vid=7961e13e-2fff-4d3b-bc59-51d94f695760"},"vehicle_type_id":"4","last_reported":1724699255,"current_range_meters":8400,"station_id":"ce4bhr92rcd13ifvqhrg","pricing_plan_id":"cebpf4jnsgd1na2vs0mg"},{"bike_id":"382db40e-14ce-40d6-acb8-f9e5b05212f1","system_id":"levelo_inurba_marseille","lat":43.295169,"lon":5.390426,"is_reserved":false,"is_disabled":false,"rental_uris":{"android":"levelo://app?vid=382db40e-14ce-40d6-acb8-f9e5b05212f1","ios":"levelo://app?vid=382db40e-14ce-40d6-acb8-f9e5b05212f1"},"vehicle_type_id":"4","last_reported":1724699255,"current_range_meters":3600,"station_id":"ce4bh3p2rcd13ifvqdp0","pricing_plan_id":"cebpf4jnsgd1na2vs0mg"},{"bike_id":"df82d867-d35e-45fb-a81e-c355f8e68cdc","system_id":"levelo_inurba_marseille","lat":43.330442,"lon":5.389148,"is_reserved":false,"is_disabled":false,"rental_uris":{"android":"levelo://app?vid=df82d867-d35e-45fb-a81e-c355f8e68cdc","ios":"levelo://app?vid=df82d867-d35e-45fb-a81e-c355f8e68cdc"},"vehicle_type_id":"4","last_reported":1724699255,"current_range_meters":12000,"station_id":"ce4bhr92rcd13ifvqhrg","pricing_plan_id":"cebpf4jnsgd1na2vs0mg"},{"bike_id":"253c055a-4a56-4639-942c-7ad33fc51460","system_id":"levelo_inurba_marseille","lat":43.29524,"lon":5.39043,"is_reserved":false,"is_disabled":false,"rental_uris":{"android":"levelo://app?vid=253c055a-4a56-4639-942c-7ad33fc51460","ios":"levelo://app?vid=253c055a-4a56-4639-942c-7ad33fc51460"},"vehicle_type_id":"4","last_reported":1724699255,"current_range_meters":0,"station_id":"ce4bh3p2rcd13ifvqdp0","pricing_plan_id":"cebpf4jnsgd1na2vs0mg"},{"bike_id":"d5781c5b-4e9a-4e2d-a839-5cc42c7bcb98","system_id":"levelo_inurba_marseille","lat":43.33026,"lon":5.39042,"is_reserved":false,"is_disabled":false,"rental_uris":{"android":"levelo://app?vid=d5781c5b-4e9a-4e2d-a839-5cc42c7bcb98","ios":"levelo://app?vid=d5781c5b-4e9a-4e2d-a839-5cc42c7bcb98"},"vehicle_type_id":"4","last_reported":1724699255,"current_range_meters":2000,"station_id":"ce4bhr92rcd13ifvqhrg","pricing_plan_id":"cebpf4jnsgd1na2vs0mg"},{"bike_id":"2e550883-0764-4aed-b62e-fc72f88d6c05","system_id":"levelo_inurba_marseille","lat":43.33028,"lon":5.3904,"is_reserved":false,"is_disabled":false,"rental_uris":{"android":"levelo://app?vid=2e550883-0764-4aed-b62e-fc72f88d6c05","ios":"levelo://app?vid=2e550883-0764-4aed-b62e-fc72f88d6c05"},"vehicle_type_id":"4","last_reported":1724699255,"current_range_meters":14400,"station_id":"ce4bhr92rcd13ifvqhrg","pricing_plan_id":"cebpf4jnsgd1na2vs0mg"},{"bike_id":"23d464ef-a6c0-4cec-a514-3ecbf738b4de","system_id":"levelo_inurba_marseille","lat":43.33025,"lon":5.39045,"is_reserved":false,"is_disabled":false,"rental_uris":{"android":"levelo://app?vid=23d464ef-a6c0-4cec-a514-3ecbf738b4de","ios":"levelo://app?vid=23d464ef-a6c0-4cec-a514-3ecbf738b4de"},"vehicle_type_id":"4","last_reported":1724699255,"current_range_meters":8800,"station_id":"ce4bhr92rcd13ifvqhrg","pricing_plan_id":"cebpf4jnsgd1na2vs0mg"},{"bike_id":"72a25ebe-8e03-4f61-a844-412886f70f18","system_id":"levelo_inurba_marseille","lat":43.33027,"lon":5.39043,"is_reserved":false,"is_disabled":false,"rental_uris":{"android":"levelo://app?vid=72a25ebe-8e03-4f61-a844-412886f70f18","ios":"levelo://app?vid=72a25ebe-8e03-4f61-a844-412886f70f18"},"vehicle_type_id":"4","last_reported":1724699255,"current_range_meters":24400,"station_id":"ce4bhr92rcd13ifvqhrg","pricing_plan_id":"cebpf4jnsgd1na2vs0mg"},{"bike_id":"9ddd0f3e-9458-435c-8dbe-1cd3474e263d","system_id":"levelo_inurba_marseille","lat":43.295169,"lon":5.390426,"is_reserved":false,"is_disabled":false,"rental_uris":{"android":"levelo://app?vid=9ddd0f3e-9458-435c-8dbe-1cd3474e263d","ios":"levelo://app?vid=9ddd0f3e-9458-435c-8dbe-1cd3474e263d"},"vehicle_type_id":"4","last_reported":1724699255,"current_range_meters":800,"station_id":"ce4bh3p2rcd13ifvqdp0","pricing_plan_id":"cebpf4jnsgd1na2vs0mg"},{"bike_id":"385b98a2-2ace-45a4-a32b-96685e69f0cb","system_id":"levelo_inurba_marseille","lat":43.295169,"lon":5.390426,"is_reserved":false,"is_disabled":false,"rental_uris":{"android":"levelo://app?vid=385b98a2-2ace-45a4-a32b-96685e69f0cb","ios":"levelo://app?vid=385b98a2-2ace-45a4-a32b-96685e69f0cb"},"vehicle_type_id":"4","last_reported":1724699255,"current_range_meters":5600,"station_id":"ce4bh3p2rcd13ifvqdp0","pricing_plan_id":"cebpf4jnsgd1na2vs0mg"},{"bike_id":"9dca6815-85bc-4f47-b6cc-aae7c6b35aba","system_id":"levelo_inurba_marseille","lat":43.28968,"lon":5.37847,"is_reserved":false,"is_disabled":false,"rental_uris":{"android":"levelo://app?vid=9dca6815-85bc-4f47-b6cc-aae7c6b35aba","ios":"levelo://app?vid=9dca6815-85bc-4f47-b6cc-aae7c6b35aba"},"vehicle_type_id":"4","last_reported":1724699255,"current_range_meters":0,"station_id":"ce4bh9p2rcd13ifvqed0","pricing_plan_id":"cebpf4jnsgd1na2vs0mg"},{"bike_id":"483e2393-2efc-422f-9db6-6c618d53505e","system_id":"levelo_inurba_marseille","lat":43.295169,"lon":5.390426,"is_reserved":false,"is_disabled":false,"rental_uris":{"android":"levelo://app?vid=483e2393-2efc-422f-9db6-6c618d53505e","ios":"levelo://app?vid=483e2393-2efc-422f-9db6-6c618d53505e"},"vehicle_type_id":"4","last_reported":1724699255,"current_range_meters":16400,"station_id":"ce4bh3p2rcd13ifvqdp0","pricing_plan_id":"cebpf4jnsgd1na2vs0mg"},{"bike_id":"bbbfede5-e170-49d3-a1db-0f809e6333d2","system_id":"levelo_inurba_marseille","lat":43.295169,"lon":5.390426,"is_reserved":false,"is_disabled":false,"rental_uris":{"android":"levelo://app?vid=bbbfede5-e170-49d3-a1db-0f809e6333d2","ios":"levelo://app?vid=bbbfede5-e170-49d3-a1db-0f809e6333d2"},"vehicle_type_id":"4","last_reported":1724699255,"current_range_meters":4400,"station_id":"ce4bh3p2rcd13ifvqdp0","pricing_plan_id":"cebpf4jnsgd1na2vs0mg"},{"bike_id":"2ba52531-bf83-488f-aaa0-570fd9cca635","system_id":"levelo_inurba_marseille","lat":43.295169,"lon":5.390426,"is_reserved":false,"is_disabled":false,"rental_uris":{"android":"levelo://app?vid=2ba52531-bf83-488f-aaa0-570fd9cca635","ios":"levelo://app?vid=2ba52531-bf83-488f-aaa0-570fd9cca635"},"vehicle_type_id":"4","last_reported":1724699255,"current_range_meters":10000,"station_id":"ce4bh3p2rcd13ifvqdp0","pricing_plan_id":"cebpf4jnsgd1na2vs0mg"},