{"last_updated":1733548154,"ttl":60,"version":"2.2","data":{"bikes":[{"bike_id":"c8756871-db35-4a3b-b691-d98d2619e332","system_id":"levelo_inurba_marseille","lat":43.23148,"lon":5.43725,"is_reserved":false,"is_disabled":false,"rental_uris":{"android":"levelo://app?vid=c8756871-db35-4a3b-b691-d98d2619e332","ios":"levelo://app?vid=c8756871-db35-4a3b-b691-d98d2619e332"},"vehicle_type_id":"4","last_reported":1733548154,"current_range_meters":38800,"station_id":"ce4bhmp2rcd13ifvqgog","pricing_plan_id":"cebpf4jnsgd1na2vs0mg"},{"bike_id":"55d7a831-40f8-4501-9bc4-264da11c1dd0","system_id":"levelo_inurba_marseille","lat":43.29268,"lon":5.40112,"is_reserved":false,"is_disabled":true,"rental_uris":{"android":"levelo://app?vid=55d7a831-40f8-4501-9bc4-264da11c1dd0","ios":"levelo://app?vid=55d7a831-40f8-4501-9bc4-264da11c1dd0"},"vehicle_type_id":"4","last_reported":1733548154,"current_range_meters":30000,"station_id":"ce4bh312rcd13ifvqdk0","pricing_plan_id":"cebpf4jnsgd1na2vs0mg"},{"bike_id":"df479c2c-35ac-44ad-b9d6-81c89ed769ce","system_id":"levelo_inurba_marseille","lat":43.29699,"lon":5.37054,"is_reserved":false,"is_disabled":true,"rental_uris":{"android":"levelo://app?vid=df479c2c-35ac-44ad-b9d6-81c89ed769ce","ios":"levelo://app?vid=df479c2c-35ac-44ad-b9d6-81c89ed769ce"},"vehicle_type_id":"4","last_reported":1733548154,"current_range_meters":0,"station_id":"","pricing_plan_id":"cebpf4jnsgd1na2vs0mg"},{"bike_id":"8e029eaf-e104-4c5d-858d-6cd39de73d09","system_id":"levelo_inurba_marseille","lat":43.24159,"lon":5.36413,"is_reserved":false,"is_disabled":false,"rental_uris":{"android":"levelo://app?vid=8e029eaf-e104-4c5d-858d-6cd39de73d09","ios":"levelo://app?vid=8e029eaf-e104-4c5d-858d-6cd39de73d09"},"vehicle_type_id":"4","last_reported":1733548154,"current_range_meters":34800,"station_id":"cpo36qri1sfpv3e86is0","pricing_plan_id":"cebpf4jnsgd1na2vs0mg"},{"bike_id":"38d7b96b-ea49-42ac-9547-ee57fecfb84c","system_id":"levelo_inurba_marseille","lat":43.28153,"lon":5.42639,"is_reserved":false,"is_disabled":false,"rental_uris":{"android":"levelo://app?vid=38d7b96b-ea49-42ac-9547-ee57fecfb84c","ios":"levelo://app?vid=38d7b96b-ea49-42ac-9547-ee57fecfb84c"},"vehicle_type_id":"4","last_reported":1733548154,"current_range_meters":27600,"station_id":"ce4bhnh2rcd13ifvqgug","pricing_plan_id":"cebpf4jnsgd1na2vs0mg"},{"bike_id":"b1b358a9-909a-41b5-9d50-574e97fa9ae5","system_id":"levelo_inurba_marseille","lat":43.33609,"lon":5.40947,"is_reserved":false,"is_disabled":false,"rental_uris":{"android":"levelo://app?vid=b1b358a9-909a-41b5-9d50-574e97fa9ae5","ios":"levelo://app?vid=b1b358a9-909a-41b5-9d50-574e97fa9ae5"},"vehicle_type_id":"4","last_reported":1733548154,"current_range_meters":38400,"station_id":"","pricing_plan_id":"cebpf4jnsgd1na2vs0mg"},{"bike_id":"9b83982a-2553-4603-bbb6-afae9a27d7d7","system_id":"levelo_inurba_marseille","lat":43.23149,"lon":5.43713,"is_reserved":false,"is_disabled":false,"rental_uris":{"android":"levelo://app?vid=9b83982a-2553-4603-bbb6-afae9a27d7d7","ios":"levelo://app?vid=9b83982a-2553-4603-bbb6-afae9a27d7d7"},"vehicle_type_id":"4","last_reported":1733548154,"current_range_meters":16000,"station_id":"ce4bhmp2rcd13ifvqgog","pricing_plan_id":"cebpf4jnsgd1na2vs0mg"},{"bike_id":"344f5c70-0f85-4aa1-9fae-600bb9b19059","system_id":"levelo_inurba_marseille","lat":43.30138,"lon":5.39866,"is_reserved":false,"is_disabled":true,"rental_uris":{"android":"levelo://app?vid=344f5c70-0f85-4aa1-9fae-600bb9b19059","ios":"levelo://app?vid=344f5c70-0f85-4aa1-9fae-600bb9b19059"},"vehicle_type_id":"4","last_reported":1733548154,"current_range_meters":0,"station_id":"ce4bh0h2rcd13ifvqd40","pricing_plan_id":"cebpf4jnsgd1na2vs0mg"},{"bike_id":"0351a6f5-fa2c-43f4-b93f-29fbb0943695","system_id":"levelo_inurba_marseille","lat":43.286623,"lon":5.363514,"is_reserved":false,"is_disabled":false,"rental_uris":{"android":"levelo://app?vid=0351a6f5-fa2c-43f4-b93f-29fbb0943695","ios":"levelo://app?vid=0351a6f5-fa2c-43f4-b93f-29fbb0943695"},"vehicle_type_id":"4","last_reported":1733548154,"current_range_meters":16000,"station_id":"ce4bhah2rcd13ifvqej0","pricing_plan_id":"cebpf4jnsgd1na2vs0mg"},{"bike_id":"be407bbe-d1ce-48de-8db2-09114af9efd7","system_id":"levelo_inurba_marseille","lat":43.3237,"lon":5.36767,"is_reserved":false,"is_disabled":false,"rental_uris":{"android":"levelo://app?vid=be407bbe-d1ce-48de-8db2-09114af9efd7","ios":"levelo://app?vid=be407bbe-d1ce-48de-8db2-09114af9efd7"},"vehicle_type_id":"4","last_reported":1733548154,"current_range_meters":20000,"station_id":"ce4bhsh2rcd13ifvqi2g","pricing_plan_id":"cebpf4jnsgd1na2vs0mg"},{"bike_id":"8b3071ab-5472-4b84-a0a6-04e190cd77f5","system_id":"levelo_inurba_marseille","lat":43.25118,"lon":5.40317,"is_reserved":false,"is_disabled":false,"rental_uris":{"android":"levelo://app?vid=8b3071ab-5472-4b84-a0a6-04e190cd77f5","ios":"levelo://app?vid=8b3071ab-5472-4b84-a0a6-04e190cd77f5"},"vehicle_type_id":"4","last_reported":1733548154,"current_range_meters":25200,"station_id":"ce4bhlh2rcd13ifvqgig","pricing_plan_id":"cebpf4jnsgd1na2vs0mg"},{"bike_id":"5fd8fda4-5ceb-4e39-b9f4-ea27acda2ce7","system_id":"levelo_inurba_marseille","lat":43.27169,"lon":5.41021,"is_reserved":false,"is_disabled":true,"rental_uris":{"android":"levelo://app?vid=5fd8fda4-5ceb-4e39-b9f4-ea27acda2ce7","ios":"levelo://app?vid=5fd8fda4-5ceb-4e39-b9f4-ea27acda2ce7"},"vehicle_type_id":"4","last_reported":1733548154,"current_range_meters":24000,"station_id":"ce4bhl12rcd13ifvqgf0","pricing_plan_id":"cebpf4jnsgd1na2vs0mg"},{"bike_id":"d46387e4-37a1-4af9-920d-948204dac91f","system_id":"levelo_inurba_marseille","lat":43.29626,"lon":5.40594,"is_reserved":false,"is_disabled":false,"rental_uris":{"android":"levelo://app?vid=d46387e4-37a1-4af9-920d-948204dac91f","ios":"levelo://app?vid=d46387e4-37a1-4af9-920d-948204dac91f"},"vehicle_type_id":"4","last_reported":1733548154,"current_range_meters":19600,"station_id":"ce4bh0h2rcd13ifvqd60","pricing_plan_id":"cebpf4jnsgd1na2vs0mg"},{"bike_id":"239545fa-9791-4d6a-8944-4633fd27845c","system_id":"levelo_inurba_marseille","lat":43.33022,"lon":5.39028,"is_reserved":false,"is_disabled":false,"rental_uris":{"android":"levelo://app?vid=239545fa-9791-4d6a-8944-4633fd27845c","ios":"levelo://app?vid=239545fa-9791-4d6a-8944-4633fd27845c"},"vehicle_type_id":"4","last_reported":1733548154,"current_range_meters":36800,"station_id":"ce4bhr92rcd13ifvqhrg","pricing_plan_id":"cebpf4jnsgd1na2vs0mg"},{"bike_id":"8bd642b2-0279-44c7-9ee2-fc3b57332c83","system_id":"levelo_inurba_marseille","lat":43.27455,"lon":5.40073,"is_reserved":false,"is_disabled":true,"rental_uris":{"android":"levelo://app?vid=8bd642b2-0279-44c7-9ee2-fc3b57332c83","ios":"levelo://app?vid=8bd642b2-0279-44c7-9ee2-fc3b57332c83"},"vehicle_type_id":"4","last_reported":1733548154,"current_range_meters":0,"station_id":"","pricing_plan_id":"cebpf4jnsgd1na2vs0mg"},{"bike_id":"8237e501-7ea1-4788-9976-a592b7f4f2c3","system_id":"levelo_inurba_marseille","lat":43.29036,"lon":5.35922,"is_reserved":false,"is_disabled":false,"rental_uris":{"android":"levelo://app?vid=8237e501-7ea1-4788-9976-a592b7f4f2c3","ios":"levelo://app?vid=8237e501-7ea1-4788-9976-a592b7f4f2c3"},"vehicle_type_id":"4","last_reported":1733548154,"current_range_meters":37600,"station_id":"ce4bha92rcd13ifvqeg0","pricing_plan_id":"cebpf4jnsgd1na2vs0mg"},{"bike_id":"3d30fcb4-2ebc-4bba-ad1e-d6b40e17896d","system_id":"levelo_inurba_marseille","lat":43.30786,"lon":5.38168,"is_reserved":false,"is_disabled":true,"rental_uris":{"android":"levelo://app?vid=3d30fcb4-2ebc-4bba-ad1e-d6b40e17896d","ios":"levelo://app?vid=3d30fcb4-2ebc-4bba-ad1e-d6b40e17896d"},"vehicle_type_id":"4","last_reported":1733548154,"current_range_meters":1600,"station_id":"ce4bgt12rcd13ifvqce0","pricing_plan_id":"cebpf4jnsgd1na2vs0mg"},{"bike_id":"0c3abd45-1265-4c42-90c3-bc8768cea188","system_id":"levelo_inurba_marseille","lat":43.27969,"lon":5.38703,"is_reserved":false,"is_disabled":false,"rental_uris":{"android":"levelo://app?vid=0c3abd45-1265-4c42-90c3-bc8768cea188","ios":"levelo://app?vid=0c3abd45-1265-4c42-90c3-bc8768cea188"},"vehicle_type_id":"4","last_reported":1733548154,"current_range_meters":9200,"station_id":"ce4bhg12rcd13ifvqf80","pricing_plan_id":"cebpf4jnsgd1na2vs0mg"},{"bike_id":"e01d3527-d7e7-4b72-a18a-006f6a15e928","system_id":"levelo_inurba_marseille","lat":43.28155,"lon":5.42644,"is_reserved":false,"is_disabled":false,"rental_uris":{"android":"levelo://app?vid=e01d3527-d7e7-4b72-a18a-006f6a15e928","ios":"levelo://app?vid=e01d3527-d7e7-4b72-a18a-006f6a15e928"},"vehicle_type_id":"4","last_reported":1733548154,"current_range_meters":38000,"station_id":"ce4bhnh2rcd13ifvqgug","pricing_plan_id":"cebpf4jnsgd1na2vs0mg"},{"bike_id":"997ca4c6-4b37-45b7-b4c8-d3246d03ecc3","system_id":"levelo_inurba_marseille","lat":43.23539,"lon":5.37983,"is_reserved":false,"is_disabled":true,"rental_uris":{"android":"levelo://app?vid=997ca4c6-4b37-45b7-b4c8-d3246d03ecc3","ios":"levelo://app?vid=997ca4c6-4b37-45b7-b4c8-d3246d03ecc3"},"vehicle_type_id":"4","last_reported":1733548154,"current_range_meters":0,"station_id":"","pricing_plan_id":"cebpf4jnsgd1na2vs0mg"},{"bike_id":"f53fb6b1-6647-433f-8797-be7b62a7118f","system_id":"levelo_inurba_marseille","lat":43.29527,"lon":5.38542,"is_reserved":false,"is_disabled":false,"rental_uris":{"android":"levelo://app?vid=f53fb6b1-6647-433f-8797-be7b62a7118f","ios":"levelo://app?vid=f53fb6b1-6647-433f-8797-be7b62a7118f"},"vehicle_type_id":"4","last_reported":1733548154,"current_range_meters":20800,"station_id":"ce4bgih2rcd13ifvqba0","pricing_plan_id":"cebpf4jnsgd1na2vs0mg"},{"bike_id":"80532cb4-159b-4e7a-a712-21a3b6a1f459","system_id":"levelo_inurba_marseille","lat":43.3247,"lon":5.36551,"is_reserved":false,"is_disabled":false,"rental_uris":{"android":"levelo://app?vid=80532cb4-159b-4e7a-a712-21a3b6a1f459","ios":"levelo://app?vid=80532cb4-159b-4e7a-a712-21a3b6a1f459"},"vehicle_type_id":"4","last_reported":1733548154,"current_range_meters":37600,"station_id":"ce4bhs12rcd13ifvqhvg","pricing_plan_id":"cebpf4jnsgd1na2vs0mg"},{"bike_id":"650aedbd-7fe9-41b2-ab79-4b8450652642","system_id":"levelo_inurba_marseille","lat":43.29195,"lon":5.35797,"is_reserved":false,"is_disabled":true,"rental_uris":{"android":"levelo://app?vid=650aedbd-7fe9-41b2-ab79-4b8450652642","ios":"levelo://app?vid=650aedbd-7fe9-41b2-ab79-4b8450652642"},"vehicle_type_id":"4","last_reported":1733548154,"current_range_meters":12000,"station_id":"ce4bhb12rcd13ifvqel0","pricing_plan_id":"cebpf4jnsgd1na2vs0mg"},{"bike_id":"1be53933-9867-48e0-8d4c-96fcdde46a39","system_id":"levelo_inurba_marseille","lat":43.27826,"lon":5.39201,"is_reserved":false,"is_disabled":false,"rental_uris":{"android":"levelo://app?vid=1be53933-9867-48e0-8d4c-96fcdde46a39","ios":"levelo://app?vid=1be53933-9867-48e0-8d4c-96fcdde46a39"},"vehicle_type_id":"4","last_reported":1733548154,"current_range_meters":8400,"station_id":"ce4bhjp2rcd13ifvqga0","pricing_plan_id":"cebpf4jnsgd1na2vs0mg"},{"bike_id":"479889bf-dbf3-4abb-926f-bf7556951acc","system_id":"levelo_inurba_marseille","lat":43.29893,"lon":5.43664,"is_reserved":false,"is_disabled":false,"rental_uris":{"android":"levelo://app?vid=479889bf-dbf3-4abb-926f-bf7556951acc","ios":"levelo://app?vid=479889bf-dbf3-4abb-926f-bf7556951acc"},"vehicle_type_id":"4","last_reported":1733548154,"current_range_meters":8400,"station_id":"ce4bhpp2rcd13ifvqhfg","pricing_plan_id":"cebpf4jnsgd1na2vs0mg"},{"bike_id":"b3f478ac-3b05-4edf-bdbf-76399090f8e9","system_id":"levelo_inurba_marseille","lat":43.29994,"lon":5.37639,"is_reserved":false,"is_disabled":true,"rental_uris":{"android":"levelo://app?vid=b3f478ac-3b05-4edf-bdbf-76399090f8e9","ios":"levelo://app?vid=b3f478ac-3b05-4edf-bdbf-76399090f8e9"},"vehicle_type_id":"4","last_reported":1733548154,"current_range_meters":0,"station_id":"","pricing_plan_id":"cebpf4jnsgd1na2vs0mg"},{"bike_id":"fdc62a63-5355-4bd1-a06c-e6106eb23903","system_id":"levelo_inurba_marseille","lat":43.23959,"lon":5.36628,"is_reserved":false,"is_disabled":false,"rental_uris":{"android":"levelo://app?vid=fdc62a63-5355-4bd1-a06c-e6106eb23903","ios":"levelo://app?vid=fdc62a63-5355-4bd1-a06c-e6106eb23903"},"vehicle_type_id":"4","last_reported":1733548154,"current_range_meters":5600,"station_id":"ce4bhi12rcd13ifvqfp0","pricing_plan_id":"cebpf4jnsgd1na2vs0mg"},{"bike_id":"746f5797-9181-4252-9cf4-e3f411d04621","system_id":"levelo_inurba_marseille","lat":43.27552,"lon":5.38431,"is_reserved":false,"is_disabled":false,"rental_uris":{"android":"levelo://app?vid=746f5797-9181-4252-9cf4-e3f411d04621","ios":"levelo://app?vid=746f5797-9181-4252-9cf4-e3f411d04621"},"vehicle_type_id":"4","last_reported":1733548154,"current_range_meters":32400,"station_id":"ce4bhh92rcd13ifvqfi0","pricing_plan_id":"cebpf4jnsgd1na2vs0mg"},{"bike_id":"01a141d4-85c9-469d-9268-7429778b6eb4","system_id":"levelo_inurba_marseille","lat":43.30878,"lon":5.3964,"is_reserved":false,"is_disabled":false,"rental_uris":{"android":"levelo://app?vid=01a141d4-85c9-469d-9268-7429778b6eb4","ios":"levelo://app?vid=01a141d4-85c9-469d-9268-7429778b6eb4"},"vehicle_type_id":"4","last_reported":1733548154,"current_range_meters":9600,"station_id":"ce4bh012rcd13ifvqcv0","pricing_plan_id":"cebpf4jnsgd1na2vs0mg"},{"bike_id":"89ceac00-2c22-4cb1-b85d-583fccdb788b","system_id":"levelo_inurba_marseille","lat":43.32098,"lon":5.36763,"is_reserved":false,"is_disabled":false,"rental_uris":{"android":"levelo://app?vid=89ceac00-2c22-4cb1-b85d-583fccdb788b","ios":"levelo://app?vid=89ceac00-2c22-4cb1-b85d-583fccdb788b"},"vehicle_type_id":"4","last_reported":1733548154,"current_range_meters":19200,"station_id":"ce4bhrh2rcd13ifvqhug","pricing_plan_id":"cebpf4jnsgd1na2vs0mg"},{"bike_id":"01ea66f0-0408-48da-a1f2-c28d34e1072c","system_id":"levelo_inurba_marseille","lat":43.32339,"lon":5.40623,"is_reserved":false,"is_disabled":false,"rental_uris":{"android":"levelo://app?vid=01ea66f0-0408-48da-a1f2-c28d34e1072c","ios":"levelo://app?vid=01ea66f0-0408-48da-a1f2-c28d34e1072c"},"vehicle_type_id":"4","last_reported":1733548154,"current_range_meters":38800,"station_id":"ce4bhq92rcd13ifvqhjg","pricing_plan_id":"cebpf4jnsgd1na2vs0mg"},{"bike_id":"bb4c74f3-8335-49e8-879f-e2bbc8c0f311","system_id":"levelo_inurba_marseille","lat":43.32342,"lon":5.38886,"is_reserved":false,"is_disabled":false,"rental_uris":{"android":"levelo://app?vid=bb4c74f3-8335-49e8-879f-e2bbc8c0f311","ios":"levelo://app?vid=bb4c74f3-8335-49e8-879f-e2bbc8c0f311"},"vehicle_type_id":"4","last_reported":1733548154,"current_range_meters":4800,"station_id":"ce4bhqp2rcd13ifvqhog","pricing_plan_id":"cebpf4jnsgd1na2vs0mg"},{"bike_id":"786b3983-4353-4c6b-b2a2-4c074e4b7adb","system_id":"levelo_inurba_marseille","lat":43.31712,"lon":5.43702,"is_reserved":false,"is_disabled":false,"rental_uris":{"android":"levelo://app?vid=786b3983-4353-4c6b-b2a2-4c074e4b7adb","ios":"levelo://app?vid=786b3983-4353-4c6b-b2a2-4c074e4b7adb"},"vehicle_type_id":"4","last_reported":1733548154,"current_range_meters":38800,"station_id":"ce4bhp92rcd13ifvqhcg","pricing_plan_id":"cebpf4jnsgd1na2vs0mg"},{"bike_id":"a8ca95e3-8f8d-4185-8f55-ea1248622191","system_id":"levelo_inurba_marseille","lat":43.27174,"lon":5.40986,"is_reserved":false,"is_disabled":false,"rental_uris":{"android":"levelo://app?vid=a8ca95e3-8f8d-4185-8f55-ea1248622191","ios":"levelo://app?vid=a8ca95e3-8f8d-4185-8f55-ea1248622191"},"vehicle_type_id":"4","last_reported":1733548154,"current_range_meters":36800,"station_id":"ce4bhl12rcd13ifvqgf0","pricing_plan_id":"cebpf4jnsgd1na2vs0mg"},{"bike_id":"e8623831-4b61-44ba-8900-05515b94c8b3","system_id":"levelo_inurba_marseille","lat":43.30415,"lon":5.4129,"is_reserved":false,"is_disabled":false,"rental_uris":{"android":"levelo://app?vid=e8623831-4b61-44ba-8900-05515b94c8b3","ios":"levelo://app?vid=e8623831-4b61-44ba-8900-05515b94c8b3"},"vehicle_type_id":"4","last_reported":1733548154,"current_range_meters":37600,"station_id":"ce4bhop2rcd13ifvqh8g","pricing_plan_id":"cebpf4jnsgd1na2vs0mg"},{"bike_id":"938640b4-f78c-4def-9b16-e6205edb88bc","system_id":"levelo_inurba_marseille","lat":43.28152,"lon":5.42635,"is_reserved":false,"is_disabled":true,"rental_uris":{"android":"levelo://app?vid=938640b4-f78c-4def-9b16-e6205edb88bc","ios":"levelo://app?vid=938640b4-f78c-4def-9b16-e6205edb88bc"},"vehicle_type_id":"4","last_reported":1733548154,"current_range_meters":17200,"station_id":"ce4bhnh2rcd13ifvqgug","pricing_plan_id":"cebpf4jnsgd1na2vs0mg"},{"bike_id":"6f9d32a5-9ec9-4309-9464-608c29d2fea1","system_id":"levelo_inurba_marseille","lat":43.312759,"lon":5.401696,"is_reserved":false,"is_disabled":false,"rental_uris":{"android":"levelo://app?vid=6f9d32a5-9ec9-4309-9464-608c29d2fea1","ios":"levelo://app?vid=6f9d32a5-9ec9-4309-9464-608c29d2fea1"},"vehicle_type_id":"4","last_reported":1733548154,"current_range_meters":38800,"station_id":"ce4bh092rcd13ifvqd30","pricing_plan_id":"cebpf4jnsgd1na2vs0mg"},{"bike_id":"c68093c4-dc1e-4628-81d0-f9e948ab3f75","system_id":"levelo_inurba_marseille","lat":43.274933,"lon":5.4246,"is_reserved":false,"is_disabled":false,"rental_uris":{"android":"levelo://app?vid=c68093c4-dc1e-4628-81d0-f9e948ab3f75","ios":"levelo://app?vid=c68093c4-dc1e-4628-81d0-f9e948ab3f75"},"vehicle_type_id":"4","last_reported":1733548154,"current_range_meters":38800,"station_id":"ce4bhn92rcd13ifvqgrg","pricing_plan_id":"cebpf4jnsgd1na2vs0mg"},{"bike_id":"0d76dbf6-5e40-455b-a0e6-70fb0b70c5f9","system_id":"levelo_inurba_marseille","lat":43.32363,"lon":5.38885,"is_reserved":false,"is_disabled":false,"rental_uris":{"android":"levelo://app?vid=0d76dbf6-5e40-455b-a0e6-70fb0b70c5f9","ios":"levelo://app?vid=0d76dbf6-5e40-455b-a0e6-70fb0b70c5f9"},"vehicle_type_id":"4","last_reported":1733548154,"current_range_meters":32800,"station_id":"ce4bhqp2rcd13ifvqhog","pricing_plan_id":"cebpf4jnsgd1na2vs0mg"},{"bike_id":"82517b10-9dd4-4bef-a3de-b8746c32940c","system_id":"levelo_inurba_marseille","lat":43.31497,"lon":5.37298,"is_reserved":false,"is_disabled":false,"rental_uris":{"android":"levelo://app?vid=82517b10-9dd4-4bef-a3de-b8746c32940c","ios":"levelo://app?vid=82517b10-9dd4-4bef-a3de-b8746c32940c"},"vehicle_type_id":"4","last_reported":1733548154,"current_range_meters":30400,"station_id":"ce4bgt12rcd13ifvqcd0","pricing_plan_id":"cebpf4jnsgd1na2vs0mg"},{"bike_id":"2f3968e7-9336-4ee4-ba78-8e92c0a818cc","system_id":"levelo_inurba_marseille","lat":43.31322,"lon":5.36647,"is_reserved":false,"is_disabled":true,"rental_uris":{"android":"levelo://app?vid=2f3968e7-9336-4ee4-ba78-8e92c0a818cc","ios":"levelo://app?vid=2f3968e7-9336-4ee4-ba78-8e92c0a818cc"},"vehicle_type_id":"4","last_reported":1733548154,"current_range_meters":0,"station_id":"","pricing_plan_id":"cebpf4jnsgd1na2vs0mg"},{"bike_id":"5ebc19a5-4eab-4ea6-b558-b6d986ab3c2e","system_id":"levelo_inurba_marseille","lat":43.24651,"lon":5.38896,"is_reserved":false,"is_disabled":false,"rental_uris":{"android":"levelo://app?vid=5ebc19a5-4eab-4ea6-b558-b6d986ab3c2e","ios":"levelo://app?vid=5ebc19a5-4eab-4ea6-b558-b6d986ab3c2e"},"vehicle_type_id":"4","last_reported":1733548154,"current_range_meters":39200,"station_id":"ce4bhg12rcd13ifvqf60","pricing_plan_id":"cebpf4jnsgd1na2vs0mg"},{"bike_id":"1af73d12-007b-4323-a123-cb92ce26c75b","system_id":"levelo_inurba_marseille","lat":43.23178,"lon":5.39983,"is_reserved":false,"is_disabled":false,"rental_uris":{"android":"levelo://app?vid=1af73d12-007b-4323-a123-cb92ce26c75b","ios":"levelo://app?vid=1af73d12-007b-4323-a123-cb92ce26c75b"},"vehicle_type_id":"4","last_reported":1733548154,"current_range_meters":38800,"station_id":"ce4bhn12rcd13ifvqgqg","pricing_plan_id":"cebpf4jnsgd1na2vs0mg"},{"bike_id":"13bba1da-c0fb-44d9-af40-ca026a9f3f28","system_id":"levelo_inurba_marseille","lat":43.29893,"lon":5.4367,"is_reserved":false,"is_disabled":false,"rental_uris":{"android":"levelo://app?vid=13bba1da-c0fb-44d9-af40-ca026a9f3f28","ios":"levelo://app?vid=13bba1da-c0fb-44d9-af40-ca026a9f3f28"},"vehicle_type_id":"4","last_reported":1733548154,"current_range_meters":10000,"station_id":"ce4bhpp2rcd13ifvqhfg","pricing_plan_id":"cebpf4jnsgd1na2vs0mg"},{"bike_id":"5ac6f8d7-e2c4-4a00-b789-9917e3ddc96d","system_id":"levelo_inurba_marseille","lat":43.29873,"lon":5.42072,"is_reserved":false,"is_disabled":false,"rental_uris":{"android":"levelo://app?vid=5ac6f8d7-e2c4-4a00-b789-9917e3ddc96d","ios":"levelo://app?vid=5ac6f8d7-e2c4-4a00-b789-9917e3ddc96d"},"vehicle_type_id":"4","last_reported":1733548154,"current_range_meters":24800,"station_id":"","pricing_plan_id":"cebpf4jnsgd1na2vs0mg"},{"bike_id":"b07a6fe6-5e2e-45e3-ba4f-24c9a68ae073","system_id":"levelo_inurba_marseille","lat":43.27983,"lon":5.41666,"is_reserved":false,"is_disabled":false,"rental_uris":{"android":"levelo://app?vid=b07a6fe6-5e2e-45e3-ba4f-24c9a68ae073","ios":"levelo://app?vid=b07a6fe6-5e2e-45e3-ba4f-24c9a68ae073"},"vehicle_type_id":"4","last_reported":1733548154,"current_range_meters":19200,"station_id":"ce4bho12rcd13ifvqh1g","pricing_plan_id":"cebpf4jnsgd1na2vs0mg"},{"bike_id":"636a717a-7652-4041-a603-85f39223fa4c","system_id":"levelo_inurba_marseille","lat":43.25087,"lon":5.39526,"is_reserved":false,"is_disabled":false,"rental_uris":{"android":"levelo://app?vid=636a717a-7652-4041-a603-85f39223fa4c","ios":"levelo://app?vid=636a717a-7652-4041-a603-85f39223fa4c"},"vehicle_type_id":"4","last_reported":1733548154,"current_range_meters":18000,"station_id":"ce4bhm12rcd13ifvqgkg","pricing_plan_id":"cebpf4jnsgd1na2vs0mg"},{"bike_id":"7736d0dc-1989-4505-a61b-7fdb0a6489c6","system_id":"levelo_inurba_marseille","lat":43.32372,"lon":5.38888,"is_reserved":false,"is_disabled":false,"rental_uris":{"android":"levelo://app?vid=7736d0dc-1989-4505-a61b-7fdb0a6489c6","ios":"levelo://app?vid=7736d0dc-1989-4505-a61b-7fdb0a6489c6"},"vehicle_type_id":"4","last_reported":1733548154,"current_range_meters":8000,"station_id":"ce4bhqp2rcd13ifvqhog","pricing_plan_id":"cebpf4jnsgd1na2vs0mg"},{"bike_id":"3f96ff0f-43ab-4432-8516-a07e779ed89f","system_id":"levelo_inurba_marseille","lat":43.3117,"lon":5.387003,"is_reserved":false,"is_disabled":false,"rental_uris":{"android":"levelo://app?vid=3f96ff0f-43ab-4432-8516-a07e779ed89f","ios":"levelo://app?vid=3f96ff0f-43ab-4432-8516-a07e779ed89f"},"vehicle_type_id":"4","last_reported":1733548154,"current_range_meters":27200,"station_id":"ce4bgv12rcd13ifvqcp0","pricing_plan_id":"cebpf4jnsgd1na2vs0mg"},{"bike_id":"6583aefc-6815-4bd5-8f5c-a9c5d794f47e","system_id":"levelo_inurba_marseille","lat":43.36503,"lon":5.34283,"is_reserved":false,"is_disabled":false,"rental_uris":{"android":"levelo://app?vid=6583aefc-6815-4bd5-8f5c-a9c5d794f47e","ios":"levelo://app?vid=6583aefc-6815-4bd5-8f5c-a9c5d794f47e"},"vehicle_type_id":"4","last_reported":1733548154,"current_range_meters":28000,"station_id":"","pricing_plan_id":"cebpf4jnsgd1na2vs0mg"},{"bike_id":"a9d47518-2b63-4f15-b454-b2f80e283d2c","system_id":"levelo_inurba_marseille","lat":43.2319,"lon":5.35555,"is_reserved":false,"is_disabled":false,"rental_uris":{"android":"levelo://app?vid=a9d47518-2b63-4f15-b454-b2f80e283d2c","ios":"levelo://app?vid=a9d47518-2b63-4f15-b454-b2f80e283d2c"},"vehicle_type_id":"4","last_reported":1733548154,"current_range_meters":24400,"station_id":"ce4bhu92rcd13ifvqi70","pricing_plan_id":"cebpf4jnsgd1na2vs0mg"},{"bike_id":"18c465ad-16a0-4d72-a337-11a15929aab8","system_id":"levelo_inurba_marseille","lat":43.23956,"lon":5.36633,"is_reserved":false,"is_disabled":false,"rental_uris":{"android":"levelo://app?vid=18c465ad-16a0-4d72-a337-11a15929aab8","ios":"levelo://app?vid=18c465ad-16a0-4d72-a337-11a15929aab8"},"vehicle_type_id":"4","last_reported":1733548154,"current_range_meters":7200,"station_id":"ce4bhi12rcd13ifvqfp0","pricing_plan_id":"cebpf4jnsgd1na2vs0mg"},{"bike_id":"d24ba112-fd35-4be4-adc0-0664a6e3ad7b","system_id":"levelo_inurba_marseille","lat":43.24645,"lon":5.3891,"is_reserved":false,"is_disabled":false,"rental_uris":{"android":"levelo://app?vid=d24ba112-fd35-4be4-adc0-0664a6e3ad7b","ios":"levelo://app?vid=d24ba112-fd35-4be4-adc0-0664a6e3ad7b"},"vehicle_type_id":"4","last_reported":1733548154,"current_range_meters":11600,"station_id":"ce4bhg12rcd13ifvqf60","pricing_plan_id":"cebpf4jnsgd1na2vs0mg"},{"bike_id":"f825a6e3-d202-4ddc-917b-5da49c4114c4","system_id":"levelo_inurba_marseille","lat":43.23192,"lon":5.35552,"is_reserved":false,"is_disabled":false,"rental_uris":{"android":"levelo://app?vid=f825a6e3-d202-4ddc-917b-5da49c4114c4","ios":"levelo://app?vid=f825a6e3-d202-4ddc-917b-5da49c4114c4"},"vehicle_type_id":"4","last_reported":1733548154,"current_range_meters":10800,"station_id":"ce4bhu92rcd13ifvqi70","pricing_plan_id":"cebpf4jnsgd1na2vs0mg"},{"bike_id":"9d0e271b-640f-4acc-ab2e-3094136e1c7e","system_id":"levelo_inurba_marseille","lat":43.25117,"lon":5.4032,"is_reserved":false,"is_disabled":false,"rental_uris":{"android":"levelo://app?vid=9d0e271b-640f-4acc-ab2e-3094136e1c7e","ios":"levelo://app?vid=9d0e271b-640f-4acc-ab2e-3094136e1c7e"},"vehicle_type_id":"4","last_reported":1733548154,"current_range_meters":35600,"station_id":"ce4bhlh2rcd13ifvqgig","pricing_plan_id":"cebpf4jnsgd1na2vs0mg"},{"bike_id":"40e7b3ef-017e-42c5-8416-1528182c6541","system_id":"levelo_inurba_marseille","lat":43.31176,"lon":5.3872,"is_reserved":false,"is_disabled":false,"rental_uris":{"android":"levelo://app?vid=40e7b3ef-017e-42c5-8416-1528182c6541","ios":"levelo://app?vid=40e7b3ef-017e-42c5-8416-1528182c6541"},"vehicle_type_id":"4","last_reported":1733548154,"current_range_meters":28400,"station_id":"ce4bgv12rcd13ifvqcp0","pricing_plan_id":"cebpf4jnsgd1na2vs0mg"},{"bike_id":"705ff5fb-e997-4717-8307-87ea163310b1","system_id":"levelo_inurba_marseille","lat":43.23169,"lon":5.40004,"is_reserved":false,"is_disabled":false,"rental_uris":{"android":"levelo://app?vid=705ff5fb-e997-4717-8307-87ea163310b1","ios":"levelo://app?vid=705ff5fb-e997-4717-8307-87ea163310b1"},"vehicle_type_id":"4","last_reported":1733548154,"current_range_meters":27200,"station_id":"ce4bhn12rcd13ifvqgqg","pricing_plan_id":"cebpf4jnsgd1na2vs0mg"},{"bike_id":"c373b192-d71b-486c-841b-20d052c8d099","system_id":"levelo_inurba_marseille","lat":43.31689,"lon":5.40476,"is_reserved":false,"is_disabled":false,"rental_uris":{"android":"levelo://app?vid=c373b192-d71b-486c-841b-20d052c8d099","ios":"levelo://app?vid=c373b192-d71b-486c-841b-20d052c8d099"},"vehicle_type_id":"4","last_reported":1733548154,"current_range_meters":38800,"station_id":"ce4bh012rcd13ifvqd00","pricing_plan_id":"cebpf4jnsgd1na2vs0mg"},{"bike_id":"dcb0c8fd-d11c-4953-ada6-9db09e3f4cec","system_id":"levelo_inurba_marseille","lat":43.26184,"lon":5.37918,"is_reserved":false,"is_disabled":false,"rental_uris":{"android":"levelo://app?vid=dcb0c8fd-d11c-4953-ada6-9db09e3f4cec","ios":"levelo://app?vid=dcb0c8fd-d11c-4953-ada6-9db09e3f4cec"},"vehicle_type_id":"4","last_reported":1733548154,"current_range_meters":24400,"station_id":"ce4bhjp2rcd13ifvqg90","pricing_plan_id":"cebpf4jnsgd1na2vs0mg"},{"bike_id":"c2cb2aa9-e8ee-4a0b-9c25-0e18b6cc57cf","system_id":"levelo_inurba_marseille","lat":43.27829,"lon":5.39203,"is_reserved":false,"is_disabled":false,"rental_uris":{"android":"levelo://app?vid=c2cb2aa9-e8ee-4a0b-9c25-0e18b6cc57cf","ios":"levelo://app?vid=c2cb2aa9-e8ee-4a0b-9c25-0e18b6cc57cf"},"vehicle_type_id":"4","last_reported":1733548154,"current_range_meters":20400,"station_id":"ce4bhjp2rcd13ifvqga0","pricing_plan_id":"cebpf4jnsgd1na2vs0mg"},{"bike_id":"f10c5e90-601b-4bd4-87e7-4cbb6a13a4fb","system_id":"levelo_inurba_marseille","lat":43.26123,"lon":5.39268,"is_reserved":false,"is_disabled":true,"rental_uris":{"android":"levelo://app?vid=f10c5e90-601b-4bd4-87e7-4cbb6a13a4fb","ios":"levelo://app?vid=f10c5e90-601b-4bd4-87e7-4cbb6a13a4fb"},"vehicle_type_id":"4","last_reported":1733548154,"current_range_meters":0,"station_id":"","pricing_plan_id":"cebpf4jnsgd1na2vs0mg"},{"bike_id":"8c4d45d2-9267-457d-b89f-898dc7d872b2","system_id":"levelo_inurba_marseille","lat":43.32154,"lon":5.38476,"is_reserved":false,"is_disabled":false,"rental_uris":{"android":"levelo://app?vid=8c4d45d2-9267-457d-b89f-898dc7d872b2","ios":"levelo://app?vid=8c4d45d2-9267-457d-b89f-898dc7d872b2"},"vehicle_type_id":"4","last_reported":1733548154,"current_range_meters":24000,"station_id":"","pricing_plan_id":"cebpf4jnsgd1na2vs0mg"},{"bike_id":"0eaeea19-86a4-49a4-9f3b-89b3560d280e","system_id":"levelo_inurba_marseille","lat":43.31171,"lon":5.38728,"is_reserved":false,"is_disabled":false,"rental_uris":{"android":"levelo://app?vid=0eaeea19-86a4-49a4-9f3b-89b3560d280e","ios":"levelo://app?vid=0eaeea19-86a4-49a4-9f3b-89b3560d280e"},"vehicle_type_id":"4","last_reported":1733548154,"current_range_meters":38400,"station_id":"ce4bgv12rcd13ifvqcp0","pricing_plan_id":"cebpf4jnsgd1na2vs0mg"},{"bike_id":"03bc2d23-234e-4521-97bd-0c3e2fe0a01d","system_id":"levelo_inurba_marseille","lat":43.3172,"lon":5.42398,"is_reserved":false,"is_disabled":false,"rental_uris":{"android":"levelo://app?vid=03bc2d23-234e-4521-97bd-0c3e2fe0a01d","ios":"levelo://app?vid=03bc2d23-234e-4521-97bd-0c3e2fe0a01d"},"vehicle_type_id":"4","last_reported":1733548154,"current_range_meters":36000,"station_id":"ce4bhp92rcd13ifvqhbg","pricing_plan_id":"cebpf4jnsgd1na2vs0mg"},{"bike_id":"7d1cfd90-3854-4815-820f-0be011234719","system_id":"levelo_inurba_marseille","lat":43.275574,"lon":5.384259,"is_reserved":false,"is_disabled":false,"rental_uris":{"android":"levelo://app?vid=7d1cfd90-3854-4815-820f-0be011234719","ios":"levelo://app?vid=7d1cfd90-3854-4815-820f-0be011234719"},"vehicle_type_id":"4","last_reported":1733548154,"current_range_meters":39200,"station_id":"ce4bhh92rcd13ifvqfi0","pricing_plan_id":"cebpf4jnsgd1na2vs0mg"},{"bike_id":"e172db4d-b1b1-43e7-851a-33a0d810e487","system_id":"levelo_inurba_marseille","lat":43.24808,"lon":5.37455,"is_reserved":false,"is_disabled":false,"rental_uris":{"android":"levelo://app?vid=e172db4d-b1b1-43e7-851a-33a0d810e487","ios":"levelo://app?vid=e172db4d-b1b1-43e7-851a-33a0d810e487"},"vehicle_type_id":"4","last_reported":1733548154,"current_range_meters":38800,"station_id":"ce4bhgh2rcd13ifvqfb0","pricing_plan_id":"cebpf4jnsgd1na2vs0mg"},{"bike_id":"39ee2c43-1a3a-4d3c-996b-f628c23212cd","system_id":"levelo_inurba_marseille","lat":43.33611,"lon":5.41033,"is_reserved":false,"is_disabled":false,"rental_uris":{"android":"levelo://app?vid=39ee2c43-1a3a-4d3c-996b-f628c23212cd","ios":"levelo://app?vid=39ee2c43-1a3a-4d3c-996b-f628c23212cd"},"vehicle_type_id":"4","last_reported":1733548154,"current_range_meters":39200,"station_id":"ce4bhqh2rcd13ifvqhmg","pricing_plan_id":"cebpf4jnsgd1na2vs0mg"},{"bike_id":"a368dae7-9369-4bac-8622-b0b8f7957831","system_id":"levelo_inurba_marseille","lat":43.2834,"lon":5.38109,"is_reserved":false,"is_disabled":false,"rental_uris":{"android":"levelo://app?vid=a368dae7-9369-4bac-8622-b0b8f7957831","ios":"levelo://app?vid=a368dae7-9369-4bac-8622-b0b8f7957831"},"vehicle_type_id":"4","last_reported":1733548154,"current_range_meters":36000,"station_id":"ce4bh412rcd13ifvqdr0","pricing_plan_id":"cebpf4jnsgd1na2vs0mg"},{"bike_id":"791fdd83-b6a4-4f30-a538-784e91860bb6","system_id":"levelo_inurba_marseille","lat":43.27987,"lon":5.41662,"is_reserved":false,"is_disabled":false,"rental_uris":{"android":"levelo://app?vid=791fdd83-b6a4-4f30-a538-784e91860bb6","ios":"levelo://app?vid=791fdd83-b6a4-4f30-a538-784e91860bb6"},"vehicle_type_id":"4","last_reported":1733548154,"current_range_meters":6800,"station_id":"ce4bho12rcd13ifvqh1g","pricing_plan_id":"cebpf4jnsgd1na2vs0mg"},{"bike_id":"f90f11ed-9729-4e45-8432-d32fecf1b6aa","system_id":"levelo_inurba_marseille","lat":43.23963,"lon":5.36634,"is_reserved":false,"is_disabled":false,"rental_uris":{"android":"levelo://app?vid=f90f11ed-9729-4e45-8432-d32fecf1b6aa","ios":"levelo://app?vid=f90f11ed-9729-4e45-8432-d32fecf1b6aa"},"vehicle_type_id":"4","last_reported":1733548154,"current_range_meters":28800,"station_id":"ce4bhi12rcd13ifvqfp0","pricing_plan_id":"cebpf4jnsgd1na2vs0mg"},{"bike_id":"deef5ee7-83de-42b8-84ba-cbc2ec811066","system_id":"levelo_inurba_marseille","lat":43.23186,"lon":5.39982,"is_reserved":false,"is_disabled":false,"rental_uris":{"android":"levelo://app?vid=deef5ee7-83de-42b8-84ba-cbc2ec811066","ios":"levelo://app?vid=deef5ee7-83de-42b8-84ba-cbc2ec811066"},"vehicle_type_id":"4","last_reported":1733548154,"current_range_meters":38800,"station_id":"ce4bhn12rcd13ifvqgqg","pricing_plan_id":"cebpf4jnsgd1na2vs0mg"},{"bike_id":"639ca965-5e6d-48d9-8263-0849ad25a852","system_id":"levelo_inurba_marseille","lat":43.31528,"lon":5.38034,"is_reserved":false,"is_disabled":false,"rental_uris":{"android":"levelo://app?vid=639ca965-5e6d-48d9-8263-0849ad25a852","ios":"levelo://app?vid=639ca965-5e6d-48d9-8263-0849ad25a852"},"vehicle_type_id":"4","last_reported":1733548154,"current_range_meters":38800,"station_id":"ce4bhsp2rcd13ifvqi50","pricing_plan_id":"cebpf4jnsgd1na2vs0mg"},{"bike_id":"25120cff-8460-4bca-ad28-62118929be1b","system_id":"levelo_inurba_marseille","lat":43.32661,"lon":5.4099,"is_reserved":false,"is_disabled":false,"rental_uris":{"android":"levelo://app?vid=25120cff-8460-4bca-ad28-62118929be1b","ios":"levelo://app?vid=25120cff-8460-4bca-ad28-62118929be1b"},"vehicle_type_id":"4","last_reported":1733548154,"current_range_meters":25600,"station_id":"ce4bhpp2rcd13ifvqhgg","pricing_plan_id":"cebpf4jnsgd1na2vs0mg"},{"bike_id":"7d7fb506-823c-4214-9681-216c66db7606","system_id":"levelo_inurba_marseille","lat":43.27285,"lon":5.39113,"is_reserved":false,"is_disabled":false,"rental_uris":{"android":"levelo://app?vid=7d7fb506-823c-4214-9681-216c66db7606","ios":"levelo://app?vid=7d7fb506-823c-4214-9681-216c66db7606"},"vehicle_type_id":"4","last_reported":1733548154,"current_range_meters":37600,"station_id":"ce4bhgp2rcd13ifvqfe0","pricing_plan_id":"cebpf4jnsgd1na2vs0mg"},{"bike_id":"cdfe6590-4984-4014-86c8-6dd70747c27a","system_id":"levelo_inurba_marseille","lat":43.29737,"lon":5.37434,"is_reserved":false,"is_disabled":true,"rental_uris":{"android":"levelo://app?vid=cdfe6590-4984-4014-86c8-6dd70747c27a","ios":"levelo://app?vid=cdfe6590-4984-4014-86c8-6dd70747c27a"},"vehicle_type_id":"4","last_reported":1733548154,"current_range_meters":0,"station_id":"","pricing_plan_id":"cebpf4jnsgd1na2vs0mg"},{"bike_id":"2a022814-f741-4adf-a235-83d4941bf5e2","system_id":"levelo_inurba_marseille","lat":43.28419,"lon":5.34991,"is_reserved":false,"is_disabled":false,"rental_uris":{"android":"levelo://app?vid=2a022814-f741-4adf-a235-83d4941bf5e2","ios":"levelo://app?vid=2a022814-f741-4adf-a235-83d4941bf5e2"},"vehicle_type_id":"4","last_reported":1733548154,"current_range_meters":20400,"station_id":"ce4bhbh2rcd13ifvqepg","pricing_plan_id":"cebpf4jnsgd1na2vs0mg"},{"bike_id":"d0642c6a-5615-4e70-b41f-08d38e68ee39","system_id":"levelo_inurba_marseille","lat":43.31165,"lon":5.38721,"is_reserved":false,"is_disabled":false,"rental_uris":{"android":"levelo://app?vid=d0642c6a-5615-4e70-b41f-08d38e68ee39","ios":"levelo://app?vid=d0642c6a-5615-4e70-b41f-08d38e68ee39"},"vehicle_type_id":"4","last_reported":1733548154,"current_range_meters":34800,"station_id":"ce4bgv12rcd13ifvqcp0","pricing_plan_id":"cebpf4jnsgd1na2vs0mg"},{"bike_id":"efbe426d-7953-4a1a-b14f-0712dbc9e0ce","system_id":"levelo_inurba_marseille","lat":43.282681,"lon":5.350649,"is_reserved":false,"is_disabled":false,"rental_uris":{"android":"levelo://app?vid=efbe426d-7953-4a1a-b14f-0712dbc9e0ce","ios":"levelo://app?vid=efbe426d-7953-4a1a-b14f-0712dbc9e0ce"},"vehicle_type_id":"4","last_reported":1733548154,"current_range_meters":36800,"station_id":"ce4bhbp2rcd13ifvqerg","pricing_plan_id":"cebpf4jnsgd1na2vs0mg"},{"bike_id":"feabf277-8b2e-42f6-8106-a3578a5b8f32","system_id":"levelo_inurba_marseille","lat":43.30138,"lon":5.39867,"is_reserved":false,"is_disabled":false,"rental_uris":{"android":"levelo://app?vid=feabf277-8b2e-42f6-8106-a3578a5b8f32","ios":"levelo://app?vid=feabf277-8b2e-42f6-8106-a3578a5b8f32"},"vehicle_type_id":"4","last_reported":1733548154,"current_range_meters":32400,"station_id":"ce4bh0h2rcd13ifvqd40","pricing_plan_id":"cebpf4jnsgd1na2vs0mg"},{"bike_id":"fe63f071-3bf4-4f39-bbe0-6d95c5e77901","system_id":"levelo_inurba_marseille","lat":43.251054,"lon":5.403101,"is_reserved":false,"is_disabled":false,"rental_uris":{"android":"levelo://app?vid=fe63f071-3bf4-4f39-bbe0-6d95c5e77901","ios":"levelo://app?vid=fe63f071-3bf4-4f39-bbe0-6d95c5e77901"},"vehicle_type_id":"4","last_reported":1733548154,"current_range_meters":15200,"station_id":"ce4bhlh2rcd13ifvqgig","pricing_plan_id":"cebpf4jnsgd1na2vs0mg"},{"bike_id":"9e02ca9a-2999-4700-acfa-285ba2c0a48c","system_id":"levelo_inurba_marseille","lat":43.32368,"lon":5.38886,"is_reserved":false,"is_disabled":false,"rental_uris":{"android":"levelo://app?vid=9e02ca9a-2999-4700-acfa-285ba2c0a48c","ios":"levelo://app?vid=9e02ca9a-2999-4700-acfa-285ba2c0a48c"},"vehicle_type_id":"4","last_reported":1733548154,"current_range_meters":38400,"station_id":"ce4bhqp2rcd13ifvqhog","pricing_plan_id":"cebpf4jnsgd1na2vs0mg"},{"bike_id":"51ebfac9-38cc-4e5a-a9f1-a10fc0abf730","system_id":"levelo_inurba_marseille","lat":43.28717,"lon":5.36084,"is_reserved":false,"is_disabled":false,"rental_uris":{"android":"levelo://app?vid=51ebfac9-38cc-4e5a-a9f1-a10fc0abf730","ios":"levelo://app?vid=51ebfac9-38cc-4e5a-a9f1-a10fc0abf730"},"vehicle_type_id":"4","last_reported":1733548154,"current_range_meters":38400,"station_id":"cki0cbj6b192h4jlfktg","pricing_plan_id":"cebpf4jnsgd1na2vs0mg"},{"bike_id":"987a5ab4-d60c-480c-94b6-7cab38975402","system_id":"levelo_inurba_marseille","lat":43.29748,"lon":5.37971,"is_reserved":false,"is_disabled":true,"rental_uris":{"android":"levelo://app?vid=987a5ab4-d60c-480c-94b6-7cab38975402","ios":"levelo://app?vid=987a5ab4-d60c-480c-94b6-7cab38975402"},"vehicle_type_id":"4","last_reported":1733548154,"current_range_meters":0,"station_id":"","pricing_plan_id":"cebpf4jnsgd1na2vs0mg"},{"bike_id":"2c4596ad-0ad9-4016-b92b-0093349de2b4","system_id":"levelo_inurba_marseille","lat":43.30755,"lon":5.38187,"is_reserved":false,"is_disabled":true,"rental_uris":{"android":"levelo://app?vid=2c4596ad-0ad9-4016-b92b-0093349de2b4","ios":"levelo://app?vid=2c4596ad-0ad9-4016-b92b-0093349de2b4"},"vehicle_type_id":"4","last_reported":1733548154,"current_range_meters":0,"station_id":"","pricing_plan_id":"cebpf4jnsgd1na2vs0mg"},{"bike_id":"23a476fa-3041-4c13-8967-79558abd44d7","system_id":"levelo_inurba_marseille","lat":43.31356,"lon":5.38487,"is_reserved":false,"is_disabled":false,"rental_uris":{"android":"levelo://app?vid=23a476fa-3041-4c13-8967-79558abd44d7","ios":"levelo://app?vid=23a476fa-3041-4c13-8967-79558abd44d7"},"vehicle_type_id":"4","last_reported":1733548154,"current_range_meters":4000,"station_id":"ce4bgt92rcd13ifvqcf0","pricing_plan_id":"cebpf4jnsgd1na2vs0mg"},{"bike_id":"8a696230-0cd8-4e37-adec-e0ada77baafb","system_id":"levelo_inurba_marseille","lat":43.29528,"lon":5.38555,"is_reserved":false,"is_disabled":true,"rental_uris":{"android":"levelo://app?vid=8a696230-0cd8-4e37-adec-e0ada77baafb","ios":"levelo://app?vid=8a696230-0cd8-4e37-adec-e0ada77baafb"},"vehicle_type_id":"4","last_reported":1733548154,"current_range_meters":0,"station_id":"ce4bgih2rcd13ifvqba0","pricing_plan_id":"cebpf4jnsgd1na2vs0mg"},{"bike_id":"b7ab8c01-033f-4395-8276-23c850ad3d02","system_id":"levelo_inurba_marseille","lat":43.30348,"lon":5.36626,"is_reserved":false,"is_disabled":true,"rental_uris":{"android":"levelo://app?vid=b7ab8c01-033f-4395-8276-23c850ad3d02","ios":"levelo://app?vid=b7ab8c01-033f-4395-8276-23c850ad3d02"},"vehicle_type_id":"4","last_reported":1733548154,"current_range_meters":0,"station_id":"","pricing_plan_id":"cebpf4jnsgd1na2vs0mg"},{"bike_id":"b52ab50a-7aa8-484c-81c7-fead67df921c","system_id":"levelo_inurba_marseille","lat":43.31049,"lon":5.37676,"is_reserved":false,"is_disabled":true,"rental_uris":{"android":"levelo://app?vid=b52ab50a-7aa8-484c-81c7-fead67df921c","ios":"levelo://app?vid=b52ab50a-7aa8-484c-81c7-fead67df921c"},"vehicle_type_id":"4","last_reported":1733548154,"current_range_meters":2800,"station_id":"","pricing_plan_id":"cebpf4jnsgd1na2vs0mg"},{"bike_id":"18f1c2e5-c31e-4258-8449-36346e839e37","system_id":"levelo_inurba_marseille","lat":43.3136,"lon":5.38492,"is_reserved":false,"is_disabled":false,"rental_uris":{"android":"levelo://app?vid=18f1c2e5-c31e-4258-8449-36346e839e37","ios":"levelo://app?vid=18f1c2e5-c31e-4258-8449-36346e839e37"},"vehicle_type_id":"4","last_reported":1733548154,"current_range_meters":28400,"station_id":"ce4bgt92rcd13ifvqcf0","pricing_plan_id":"cebpf4jnsgd1na2vs0mg"},{"bike_id":"8d3f293b-9223-46bf-aeb5-c46e8790fd4f","system_id":"levelo_inurba_marseille","lat":43.28099,"lon":5.37843,"is_reserved":false,"is_disabled":false,"rental_uris":{"android":"levelo://app?vid=8d3f293b-9223-46bf-aeb5-c46e8790fd4f","ios":"levelo://app?vid=8d3f293b-9223-46bf-aeb5-c46e8790fd4f"},"vehicle_type_id":"4","last_reported":1733548154,"current_range_meters":6000,"station_id":"ce4bha12rcd13ifvqee0","pricing_plan_id":"cebpf4jnsgd1na2vs0mg"},{"bike_id":"b0aa03eb-97d7-4211-84f3-e961e1646144","system_id":"levelo_inurba_marseille","lat":43.2928,"lon":5.37185,"is_reserved":false,"is_disabled":true,"rental_uris":{"android":"levelo://app?vid=b0aa03eb-97d7-4211-84f3-e961e1646144","ios":"levelo://app?vid=b0aa03eb-97d7-4211-84f3-e961e1646144"},"vehicle_type_id":"4","last_reported":1733548154,"current_range_meters":36400,"station_id":"ce4bgh92rcd13ifvqb40","pricing_plan_id":"cebpf4jnsgd1na2vs0mg"},{"bike_id":"2e5d6bd2-ecb3-47ee-a29a-69076bed61ea","system_id":"levelo_inurba_marseille","lat":43.26496,"lon":5.39538,"is_reserved":false,"is_disabled":true,"rental_uris":{"android":"levelo://app?vid=2e5d6bd2-ecb3-47ee-a29a-69076bed61ea","ios":"levelo://app?vid=2e5d6bd2-ecb3-47ee-a29a-69076bed61ea"},"vehicle_type_id":"4","last_reported":1733548154,"current_range_meters":39200,"station_id":"ce4bhi12rcd13ifvqfq0","pricing_plan_id":"cebpf4jnsgd1na2vs0mg"},{"bike_id":"11e86528-eb6b-4391-86a5-9b1822d069a4","system_id":"levelo_inurba_marseille","lat":43.278805,"lon":5.388003,"is_reserved":false,"is_disabled":true,"rental_uris":{"android":"levelo://app?vid=11e86528-eb6b-4391-86a5-9b1822d069a4","ios":"levelo://app?vid=11e86528-eb6b-4391-86a5-9b1822d069a4"},"vehicle_type_id":"4","last_reported":1733548154,"current_range_meters":2000,"station_id":"","pricing_plan_id":"cebpf4jnsgd1na2vs0mg"},{"bike_id":"6cc6805f-c0ca-4585-bdf1-b5a0339762b0","system_id":"levelo_inurba_marseille","lat":43.29027,"lon":5.42744,"is_reserved":false,"is_disabled":true,"rental_uris":{"android":"levelo://app?vid=6cc6805f-c0ca-4585-bdf1-b5a0339762b0","ios":"levelo://app?vid=6cc6805f-c0ca-4585-bdf1-b5a0339762b0"},"vehicle_type_id":"4","last_reported":1733548154,"current_range_meters":0,"station_id":"","pricing_plan_id":"cebpf4jnsgd1na2vs0mg"},{"bike_id":"cb2501a9-7f4f-403c-bb1f-8743e3b86bed","system_id":"levelo_inurba_marseille","lat":43.26564,"lon":5.3902,"is_reserved":false,"is_disabled":false,"rental_uris":{"android":"levelo://app?vid=cb2501a9-7f4f-403c-bb1f-8743e3b86bed","ios":"levelo://app?vid=cb2501a9-7f4f-403c-bb1f-8743e3b86bed"},"vehicle_type_id":"4","last_reported":1733548154,"current_range_meters":31200,"station_id":"ce4bhe12rcd13ifvqf30","pricing_plan_id":"cebpf4jnsgd1na2vs0mg"},{"bike_id":"4e6fc26f-c1d5-4d84-ac5b-7d384b8c30d5","system_id":"levelo_inurba_marseille","lat":43.32371,"lon":5.36752,"is_reserved":false,"is_disabled":false,"rental_uris":{"android":"levelo://app?vid=4e6fc26f-c1d5-4d84-ac5b-7d384b8c30d5","ios":"levelo://app?vid=4e6fc26f-c1d5-4d84-ac5b-7d384b8c30d5"},"vehicle_type_id":"4","last_reported":1733548154,"current_range_meters":37600,"station_id":"ce4bhsh2rcd13ifvqi2g","pricing_plan_id":"cebpf4jnsgd1na2vs0mg"},{"bike_id":"8d1c8b92-79bb-4181-b0d2-5e94db1a14d0","system_id":"levelo_inurba_marseille","lat":43.29972,"lon":5.3826,"is_reserved":false,"is_disabled":true,"rental_uris":{"android":"levelo://app?vid=8d1c8b92-79bb-4181-b0d2-5e94db1a14d0","ios":"levelo://app?vid=8d1c8b92-79bb-4181-b0d2-5e94db1a14d0"},"vehicle_type_id":"4","last_reported":1733548154,"current_range_meters":0,"station_id":"","pricing_plan_id":"cebpf4jnsgd1na2vs0mg"},{"bike_id":"7dc78839-0e32-4a30-a393-ccc469b72c20","system_id":"levelo_inurba_marseille","lat":43.3361,"lon":5.41016,"is_reserved":false,"is_disabled":false,"rental_uris":{"android":"levelo://app?vid=7dc78839-0e32-4a30-a393-ccc469b72c20","ios":"levelo://app?vid=7dc78839-0e32-4a30-a393-ccc469b72c20"},"vehicle_type_id":"4","last_reported":1733548154,"current_range_meters":39200,"station_id":"ce4bhqh2rcd13ifvqhmg","pricing_plan_id":"cebpf4jnsgd1na2vs0mg"},{"bike_id":"dc59528d-68b4-4b84-81cb-3d0b19f6b2ca","system_id":"levelo_inurba_marseille","lat":43.26679,"lon":5.38265,"is_reserved":false,"is_disabled":false,"rental_uris":{"android":"levelo://app?vid=dc59528d-68b4-4b84-81cb-3d0b19f6b2ca","ios":"levelo://app?vid=dc59528d-68b4-4b84-81cb-3d0b19f6b2ca"},"vehicle_type_id":"4","last_reported":1733548154,"current_range_meters":24800,"station_id":"ce4bhg92rcd13ifvqf90","pricing_plan_id":"cebpf4jnsgd1na2vs0mg"},{"bike_id":"950cf53a-d96c-44c8-9cf4-4df890d474fa","system_id":"levelo_inurba_marseille","lat":43.30349,"lon":5.41878,"is_reserved":false,"is_disabled":false,"rental_uris":{"android":"levelo://app?vid=950cf53a-d96c-44c8-9cf4-4df890d474fa","ios":"levelo://app?vid=950cf53a-d96c-44c8-9cf4-4df890d474fa"},"vehicle_type_id":"4","last_reported":1733548154,"current_range_meters":38800,"station_id":"ce4bhop2rcd13ifvqh7g","pricing_plan_id":"cebpf4jnsgd1na2vs0mg"},{"bike_id":"ec24ea24-e93f-42b5-9ae5-09553c228e67","system_id":"levelo_inurba_marseille","lat":43.28565,"lon":5.39496,"is_reserved":false,"is_disabled":false,"rental_uris":{"android":"levelo://app?vid=ec24ea24-e93f-42b5-9ae5-09553c228e67","ios":"levelo://app?vid=ec24ea24-e93f-42b5-9ae5-09553c228e67"},"vehicle_type_id":"4","last_reported":1733548154,"current_range_meters":10800,"station_id":"ce4bh292rcd13ifvqdg0","pricing_plan_id":"cebpf4jnsgd1na2vs0mg"},{"bike_id":"b5a3947c-0134-4ec4-bf42-17cf12c3f0d3","system_id":"levelo_inurba_marseille","lat":43.23083,"lon":5.36423,"is_reserved":false,"is_disabled":true,"rental_uris":{"android":"levelo://app?vid=b5a3947c-0134-4ec4-bf42-17cf12c3f0d3","ios":"levelo://app?vid=b5a3947c-0134-4ec4-bf42-17cf12c3f0d3"},"vehicle_type_id":"4","last_reported":1733548154,"current_range_meters":800,"station_id":"","pricing_plan_id":"cebpf4jnsgd1na2vs0mg"},{"bike_id":"a82a26a1-edfa-411a-9590-304dff877d23","system_id":"levelo_inurba_marseille","lat":43.29291,"lon":5.37507,"is_reserved":false,"is_disabled":true,"rental_uris":{"android":"levelo://app?vid=a82a26a1-edfa-411a-9590-304dff877d23","ios":"levelo://app?vid=a82a26a1-edfa-411a-9590-304dff877d23"},"vehicle_type_id":"4","last_reported":1733548154,"current_range_meters":35200,"station_id":"ce4bgi12rcd13ifvqb70","pricing_plan_id":"cebpf4jnsgd1na2vs0mg"},{"bike_id":"bec118ad-6054-4279-b7c0-4ae9f0db1132","system_id":"levelo_inurba_marseille","lat":43.286654,"lon":5.363601,"is_reserved":false,"is_disabled":false,"rental_uris":{"android":"levelo://app?vid=bec118ad-6054-4279-b7c0-4ae9f0db1132","ios":"levelo://app?vid=bec118ad-6054-4279-b7c0-4ae9f0db1132"},"vehicle_type_id":"4","last_reported":1733548154,"current_range_meters":8400,"station_id":"ce4bhah2rcd13ifvqej0","pricing_plan_id":"cebpf4jnsgd1na2vs0mg"},{"bike_id":"3a1cabfd-7ea0-40e5-ba2a-bc16f7acb1fa","system_id":"levelo_inurba_marseille","lat":43.34335,"lon":5.35814,"is_reserved":false,"is_disabled":true,"rental_uris":{"android":"levelo://app?vid=3a1cabfd-7ea0-40e5-ba2a-bc16f7acb1fa","ios":"levelo://app?vid=3a1cabfd-7ea0-40e5-ba2a-bc16f7acb1fa"},"vehicle_type_id":"4","last_reported":1733548154,"current_range_meters":8000,"station_id":"","pricing_plan_id":"cebpf4jnsgd1na2vs0mg"},{"bike_id":"13c92a0b-ed15-475b-be6b-20c451699fe8","system_id":"levelo_inurba_marseille","lat":43.31276,"lon":5.40167,"is_reserved":false,"is_disabled":false,"rental_uris":{"android":"levelo://app?vid=13c92a0b-ed15-475b-be6b-20c451699fe8","ios":"levelo://app?vid=13c92a0b-ed15-475b-be6b-20c451699fe8"},"vehicle_type_id":"4","last_reported":1733548154,"current_range_meters":38800,"station_id":"ce4bh092rcd13ifvqd30","pricing_plan_id":"cebpf4jnsgd1na2vs0mg"},{"bike_id":"1c1b9d50-0c5b-40c7-ab1f-3eddb8967a5e","system_id":"levelo_inurba_marseille","lat":43.3124,"lon":5.38122,"is_reserved":false,"is_disabled":false,"rental_uris":{"android":"levelo://app?vid=1c1b9d50-0c5b-40c7-ab1f-3eddb8967a5e","ios":"levelo://app?vid=1c1b9d50-0c5b-40c7-ab1f-3eddb8967a5e"},"vehicle_type_id":"4","last_reported":1733548154,"current_range_meters":31200,"station_id":"","pricing_plan_id":"cebpf4jnsgd1na2vs0mg"},{"bike_id":"d37abd32-cabf-441e-9655-11a4cf8daa6d","system_id":"levelo_inurba_marseille","lat":43.296986,"lon":5.366174,"is_reserved":false,"is_disabled":true,"rental_uris":{"android":"levelo://app?vid=d37abd32-cabf-441e-9655-11a4cf8daa6d","ios":"levelo://app?vid=d37abd32-cabf-441e-9655-11a4cf8daa6d"},"vehicle_type_id":"4","last_reported":1733548154,"current_range_meters":37600,"station_id":"ce4bgn12rcd13ifvqbt0","pricing_plan_id":"cebpf4jnsgd1na2vs0mg"},{"bike_id":"9da23f82-fe92-4a06-8376-fc49fc59f855","system_id":"levelo_inurba_marseille","lat":43.28458,"lon":5.35876,"is_reserved":false,"is_disabled":false,"rental_uris":{"android":"levelo://app?vid=9da23f82-fe92-4a06-8376-fc49fc59f855","ios":"levelo://app?vid=9da23f82-fe92-4a06-8376-fc49fc59f855"},"vehicle_type_id":"4","last_reported":1733548154,"current_range_meters":22800,"station_id":"ce4bhah2rcd13ifvqei0","pricing_plan_id":"cebpf4jnsgd1na2vs0mg"},{"bike_id":"d636db03-c243-4073-a6b9-ca381ba571e7","system_id":"levelo_inurba_marseille","lat":43.26787,"lon":5.39411,"is_reserved":false,"is_disabled":false,"rental_uris":{"android":"levelo://app?vid=d636db03-c243-4073-a6b9-ca381ba571e7","ios":"levelo://app?vid=d636db03-c243-4073-a6b9-ca381ba571e7"},"vehicle_type_id":"4","last_reported":1733548154,"current_range_meters":38000,"station_id":"ce4bhh12rcd13ifvqfg0","pricing_plan_id":"cebpf4jnsgd1na2vs0mg"},{"bike_id":"2b65f998-5351-469e-a3dc-815ce3002db1","system_id":"levelo_inurba_marseille","lat":43.30637,"lon":5.40091,"is_reserved":false,"is_disabled":false,"rental_uris":{"android":"levelo://app?vid=2b65f998-5351-469e-a3dc-815ce3002db1","ios":"levelo://app?vid=2b65f998-5351-469e-a3dc-815ce3002db1"},"vehicle_type_id":"4","last_reported":1733548154,"current_range_meters":16400,"station_id":"","pricing_plan_id":"cebpf4jnsgd1na2vs0mg"},{"bike_id":"061254c5-de51-4e75-923a-fd9faeebb94d","system_id":"levelo_inurba_marseille","lat":43.311711,"lon":5.387114,"is_reserved":false,"is_disabled":false,"rental_uris":{"android":"levelo://app?vid=061254c5-de51-4e75-923a-fd9faeebb94d","ios":"levelo://app?vid=061254c5-de51-4e75-923a-fd9faeebb94d"},"vehicle_type_id":"4","last_reported":1733548154,"current_range_meters":38800,"station_id":"ce4bgv12rcd13ifvqcp0","pricing_plan_id":"cebpf4jnsgd1na2vs0mg"},{"bike_id":"ef80ba3a-1b27-41c7-bf74-13ce6295b692","system_id":"levelo_inurba_marseille","lat":43.27914,"lon":5.39585,"is_reserved":false,"is_disabled":false,"rental_uris":{"android":"levelo://app?vid=ef80ba3a-1b27-41c7-bf74-13ce6295b692","ios":"levelo://app?vid=ef80ba3a-1b27-41c7-bf74-13ce6295b692"},"vehicle_type_id":"4","last_reported":1733548154,"current_range_meters":35200,"station_id":"ce4bhf92rcd13ifvqf40","pricing_plan_id":"cebpf4jnsgd1na2vs0mg"},{"bike_id":"c59f1c47-12a6-499e-b761-f98775514feb","system_id":"levelo_inurba_marseille","lat":43.31159,"lon":5.38736,"is_reserved":false,"is_disabled":false,"rental_uris":{"android":"levelo://app?vid=c59f1c47-12a6-499e-b761-f98775514feb","ios":"levelo://app?vid=c59f1c47-12a6-499e-b761-f98775514feb"},"vehicle_type_id":"4","last_reported":1733548154,"current_range_meters":31200,"station_id":"ce4bgv12rcd13ifvqcp0","pricing_plan_id":"cebpf4jnsgd1na2vs0mg"},{"bike_id":"6778df27-59e5-4288-bb63-85598167936a","system_id":"levelo_inurba_marseille","lat":43.31365,"lon":5.384891,"is_reserved":false,"is_disabled":false,"rental_uris":{"android":"levelo://app?vid=6778df27-59e5-4288-bb63-85598167936a","ios":"levelo://app?vid=6778df27-59e5-4288-bb63-85598167936a"},"vehicle_type_id":"4","last_reported":1733548154,"current_range_meters":39200,"station_id":"ce4bgt92rcd13ifvqcf0","pricing_plan_id":"cebpf4jnsgd1na2vs0mg"},{"bike_id":"c1ccfc52-9a2a-44d8-aaf1-b628006cb43c","system_id":"levelo_inurba_marseille","lat":43.30777,"lon":5.37649,"is_reserved":false,"is_disabled":false,"rental_uris":{"android":"levelo://app?vid=c1ccfc52-9a2a-44d8-aaf1-b628006cb43c","ios":"levelo://app?vid=c1ccfc52-9a2a-44d8-aaf1-b628006cb43c"},"vehicle_type_id":"4","last_reported":1733548154,"current_range_meters":34800,"station_id":"ce4bgv92rcd13ifvqcq0","pricing_plan_id":"cebpf4jnsgd1na2vs0mg"},{"bike_id":"9c77a68d-2e99-44e9-b903-950fb6644d35","system_id":"levelo_inurba_marseille","lat":43.25265,"lon":5.39465,"is_reserved":false,"is_disabled":true,"rental_uris":{"android":"levelo://app?vid=9c77a68d-2e99-44e9-b903-950fb6644d35","ios":"levelo://app?vid=9c77a68d-2e99-44e9-b903-950fb6644d35"},"vehicle_type_id":"4","last_reported":1733548154,"current_range_meters":0,"station_id":"","pricing_plan_id":"cebpf4jnsgd1na2vs0mg"},{"bike_id":"919cb19e-e1eb-447e-925a-df2136b443bf","system_id":"levelo_inurba_marseille","lat":43.29556,"lon":5.42284,"is_reserved":false,"is_disabled":false,"rental_uris":{"android":"levelo://app?vid=919cb19e-e1eb-447e-925a-df2136b443bf","ios":"levelo://app?vid=919cb19e-e1eb-447e-925a-df2136b443bf"},"vehicle_type_id":"4","last_reported":1733548154,"current_range_meters":37600,"station_id":"ce4bhph2rcd13ifvqhdg","pricing_plan_id":"cebpf4jnsgd1na2vs0mg"},{"bike_id":"2dffad49-4507-44a3-8e4a-4e9ee442b037","system_id":"levelo_inurba_marseille","lat":43.27965,"lon":5.38721,"is_reserved":false,"is_disabled":false,"rental_uris":{"android":"levelo://app?vid=2dffad49-4507-44a3-8e4a-4e9ee442b037","ios":"levelo://app?vid=2dffad49-4507-44a3-8e4a-4e9ee442b037"},"vehicle_type_id":"4","last_reported":1733548154,"current_range_meters":20000,"station_id":"ce4bhg12rcd13ifvqf80","pricing_plan_id":"cebpf4jnsgd1na2vs0mg"},{"bike_id":"c1059d8c-dfec-43e2-a99c-b18d07955745","system_id":"levelo_inurba_marseille","lat":43.32286,"lon":5.38272,"is_reserved":false,"is_disabled":false,"rental_uris":{"android":"levelo://app?vid=c1059d8c-dfec-43e2-a99c-b18d07955745","ios":"levelo://app?vid=c1059d8c-dfec-43e2-a99c-b18d07955745"},"vehicle_type_id":"4","last_reported":1733548154,"current_range_meters":27600,"station_id":"ce4bhr12rcd13ifvqhqg","pricing_plan_id":"cebpf4jnsgd1na2vs0mg"},{"bike_id":"45a99d3d-18c7-4943-8d60-ad1491c0fa82","system_id":"levelo_inurba_marseille","lat":43.27558,"lon":5.3843,"is_reserved":false,"is_disabled":true,"rental_uris":{"android":"levelo://app?vid=45a99d3d-18c7-4943-8d60-ad1491c0fa82","ios":"levelo://app?vid=45a99d3d-18c7-4943-8d60-ad1491c0fa82"},"vehicle_type_id":"4","last_reported":1733548154,"current_range_meters":36400,"station_id":"ce4bhh92rcd13ifvqfi0","pricing_plan_id":"cebpf4jnsgd1na2vs0mg"},{"bike_id":"efabe429-ba8e-4e85-99b6-e8757b8ff8c0","system_id":"levelo_inurba_marseille","lat":43.30317,"lon":5.40444,"is_reserved":false,"is_disabled":false,"rental_uris":{"android":"levelo://app?vid=efabe429-ba8e-4e85-99b6-e8757b8ff8c0","ios":"levelo://app?vid=efabe429-ba8e-4e85-99b6-e8757b8ff8c0"},"vehicle_type_id":"4","last_reported":1733548154,"current_range_meters":20000,"station_id":"ce4bh012rcd13ifvqd10","pricing_plan_id":"cebpf4jnsgd1na2vs0mg"},{"bike_id":"83985555-c848-4b28-808f-8a7e7cf8519e","system_id":"levelo_inurba_marseille","lat":43.28115,"lon":5.43955,"is_reserved":false,"is_disabled":true,"rental_uris":{"android":"levelo://app?vid=83985555-c848-4b28-808f-8a7e7cf8519e","ios":"levelo://app?vid=83985555-c848-4b28-808f-8a7e7cf8519e"},"vehicle_type_id":"4","last_reported":1733548154,"current_range_meters":0,"station_id":"","pricing_plan_id":"cebpf4jnsgd1na2vs0mg"},{"bike_id":"f254f8d7-d80e-4f5f-b833-f9af7c565edd","system_id":"levelo_inurba_marseille","lat":43.29576,"lon":5.36734,"is_reserved":false,"is_disabled":false,"rental_uris":{"android":"levelo://app?vid=f254f8d7-d80e-4f5f-b833-f9af7c565edd","ios":"levelo://app?vid=f254f8d7-d80e-4f5f-b833-f9af7c565edd"},"vehicle_type_id":"4","last_reported":1733548154,"current_range_meters":38800,"station_id":"ce4bgph2rcd13ifvqc2g","pricing_plan_id":"cebpf4jnsgd1na2vs0mg"},{"bike_id":"84eddd35-4076-462c-b0e4-9c17c748aeff","system_id":"levelo_inurba_marseille","lat":43.33771,"lon":5.37491,"is_reserved":false,"is_disabled":false,"rental_uris":{"android":"levelo://app?vid=84eddd35-4076-462c-b0e4-9c17c748aeff","ios":"levelo://app?vid=84eddd35-4076-462c-b0e4-9c17c748aeff"},"vehicle_type_id":"4","last_reported":1733548154,"current_range_meters":20000,"station_id":"","pricing_plan_id":"cebpf4jnsgd1na2vs0mg"},{"bike_id":"31cddf14-1369-4114-b8f9-989c80a82d66","system_id":"levelo_inurba_marseille","lat":43.31282,"lon":5.40162,"is_reserved":false,"is_disabled":false,"rental_uris":{"android":"levelo://app?vid=31cddf14-1369-4114-b8f9-989c80a82d66","ios":"levelo://app?vid=31cddf14-1369-4114-b8f9-989c80a82d66"},"vehicle_type_id":"4","last_reported":1733548154,"current_range_meters":24800,"station_id":"ce4bh092rcd13ifvqd30","pricing_plan_id":"cebpf4jnsgd1na2vs0mg"},{"bike_id":"7590f4b2-6827-42a3-90e8-66664274ba71","system_id":"levelo_inurba_marseille","lat":43.31891,"lon":5.40721,"is_reserved":false,"is_disabled":false,"rental_uris":{"android":"levelo://app?vid=7590f4b2-6827-42a3-90e8-66664274ba71","ios":"levelo://app?vid=7590f4b2-6827-42a3-90e8-66664274ba71"},"vehicle_type_id":"4","last_reported":1733548154,"current_range_meters":37600,"station_id":"ce4bhq12rcd13ifvqhig","pricing_plan_id":"cebpf4jnsgd1na2vs0mg"},{"bike_id":"9ecf6cbe-b18e-4738-99ca-aefcfa53f4eb","system_id":"levelo_inurba_marseille","lat":43.24069,"lon":5.37753,"is_reserved":false,"is_disabled":false,"rental_uris":{"android":"levelo://app?vid=9ecf6cbe-b18e-4738-99ca-aefcfa53f4eb","ios":"levelo://app?vid=9ecf6cbe-b18e-4738-99ca-aefcfa53f4eb"},"vehicle_type_id":"4","last_reported":1733548154,"current_range_meters":14000,"station_id":"ce4bhnp2rcd13ifvqgvg","pricing_plan_id":"cebpf4jnsgd1na2vs0mg"},{"bike_id":"af16c486-577d-4834-af94-c7fd05706ade","system_id":"levelo_inurba_marseille","lat":43.270578,"lon":5.402633,"is_reserved":false,"is_disabled":false,"rental_uris":{"android":"levelo://app?vid=af16c486-577d-4834-af94-c7fd05706ade","ios":"levelo://app?vid=af16c486-577d-4834-af94-c7fd05706ade"},"vehicle_type_id":"4","last_reported":1733548154,"current_range_meters":10800,"station_id":"ce4bhk92rcd13ifvqgc0","pricing_plan_id":"cebpf4jnsgd1na2vs0mg"},{"bike_id":"5d5a7211-9319-4543-a887-e14f0d320e32","system_id":"levelo_inurba_marseille","lat":43.30936,"lon":5.40141,"is_reserved":false,"is_disabled":false,"rental_uris":{"android":"levelo://app?vid=5d5a7211-9319-4543-a887-e14f0d320e32","ios":"levelo://app?vid=5d5a7211-9319-4543-a887-e14f0d320e32"},"vehicle_type_id":"4","last_reported":1733548154,"current_range_meters":9600,"station_id":"ce4bgvp2rcd13ifvqct0","pricing_plan_id":"cebpf4jnsgd1na2vs0mg"},{"bike_id":"a8264fb2-dad4-4c52-9230-cf80b47302d6","system_id":"levelo_inurba_marseille","lat":43.31994,"lon":5.38146,"is_reserved":false,"is_disabled":false,"rental_uris":{"android":"levelo://app?vid=a8264fb2-dad4-4c52-9230-cf80b47302d6","ios":"levelo://app?vid=a8264fb2-dad4-4c52-9230-cf80b47302d6"},"vehicle_type_id":"4","last_reported":1733548154,"current_range_meters":9600,"station_id":"ce4bhr12rcd13ifvqhpg","pricing_plan_id":"cebpf4jnsgd1na2vs0mg"},{"bike_id":"5edf82fa-e9d0-4d1f-98f1-37c98092771a","system_id":"levelo_inurba_marseille","lat":43.231941,"lon":5.355464,"is_reserved":false,"is_disabled":false,"rental_uris":{"android":"levelo://app?vid=5edf82fa-e9d0-4d1f-98f1-37c98092771a","ios":"levelo://app?vid=5edf82fa-e9d0-4d1f-98f1-37c98092771a"},"vehicle_type_id":"4","last_reported":1733548154,"current_range_meters":38800,"station_id":"ce4bhu92rcd13ifvqi70","pricing_plan_id":"cebpf4jnsgd1na2vs0mg"},{"bike_id":"f46ac7aa-dc6e-4cfc-aa71-2d73799e080a","system_id":"levelo_inurba_marseille","lat":43.29439,"lon":5.39758,"is_reserved":false,"is_disabled":false,"rental_uris":{"android":"levelo://app?vid=f46ac7aa-dc6e-4cfc-aa71-2d73799e080a","ios":"levelo://app?vid=f46ac7aa-dc6e-4cfc-aa71-2d73799e080a"},"vehicle_type_id":"4","last_reported":1733548154,"current_range_meters":24400,"station_id":"ce4bh3h2rcd13ifvqdo0","pricing_plan_id":"cebpf4jnsgd1na2vs0mg"},{"bike_id":"cb4a9db6-7563-4a33-a955-6eb0af1f7b34","system_id":"levelo_inurba_marseille","lat":43.28154,"lon":5.42631,"is_reserved":false,"is_disabled":false,"rental_uris":{"android":"levelo://app?vid=cb4a9db6-7563-4a33-a955-6eb0af1f7b34","ios":"levelo://app?vid=cb4a9db6-7563-4a33-a955-6eb0af1f7b34"},"vehicle_type_id":"4","last_reported":1733548154,"current_range_meters":38000,"station_id":"ce4bhnh2rcd13ifvqgug","pricing_plan_id":"cebpf4jnsgd1na2vs0mg"},{"bike_id":"114f6273-3c81-4bad-b48b-98dd8b928cc0","system_id":"levelo_inurba_marseille","lat":43.30545,"lon":5.38431,"is_reserved":false,"is_disabled":true,"rental_uris":{"android":"levelo://app?vid=114f6273-3c81-4bad-b48b-98dd8b928cc0","ios":"levelo://app?vid=114f6273-3c81-4bad-b48b-98dd8b928cc0"},"vehicle_type_id":"4","last_reported":1733548154,"current_range_meters":37600,"station_id":"ce4bgg92rcd13ifvqb30","pricing_plan_id":"cebpf4jnsgd1na2vs0mg"},{"bike_id":"4ff2b6a8-6e6f-4faa-869c-d90826565ca0","system_id":"levelo_inurba_marseille","lat":43.29958,"lon":5.41321,"is_reserved":false,"is_disabled":false,"rental_uris":{"android":"levelo://app?vid=4ff2b6a8-6e6f-4faa-869c-d90826565ca0","ios":"levelo://app?vid=4ff2b6a8-6e6f-4faa-869c-d90826565ca0"},"vehicle_type_id":"4","last_reported":1733548154,"current_range_meters":38800,"station_id":"ce4bhp12rcd13ifvqh9g","pricing_plan_id":"cebpf4jnsgd1na2vs0mg"},{"bike_id":"839b1a4d-e52a-4dd2-946d-f82aabee0ecc","system_id":"levelo_inurba_marseille","lat":43.3047,"lon":5.37904,"is_reserved":false,"is_disabled":false,"rental_uris":{"android":"levelo://app?vid=839b1a4d-e52a-4dd2-946d-f82aabee0ecc","ios":"levelo://app?vid=839b1a4d-e52a-4dd2-946d-f82aabee0ecc"},"vehicle_type_id":"4","last_reported":1733548154,"current_range_meters":38800,"station_id":"ce4bgup2rcd13ifvqcn0","pricing_plan_id":"cebpf4jnsgd1na2vs0mg"},{"bike_id":"75683291-5595-4d31-95ca-dee84c3a390c","system_id":"levelo_inurba_marseille","lat":43.25827,"lon":5.39429,"is_reserved":false,"is_disabled":false,"rental_uris":{"android":"levelo://app?vid=75683291-5595-4d31-95ca-dee84c3a390c","ios":"levelo://app?vid=75683291-5595-4d31-95ca-dee84c3a390c"},"vehicle_type_id":"4","last_reported":1733548154,"current_range_meters":36400,"station_id":"ce4bhip2rcd13ifvqft0","pricing_plan_id":"cebpf4jnsgd1na2vs0mg"},{"bike_id":"3749d097-98e8-4150-8d26-ba579462f0a7","system_id":"levelo_inurba_marseille","lat":43.2811,"lon":5.37861,"is_reserved":false,"is_disabled":false,"rental_uris":{"android":"levelo://app?vid=3749d097-98e8-4150-8d26-ba579462f0a7","ios":"levelo://app?vid=3749d097-98e8-4150-8d26-ba579462f0a7"},"vehicle_type_id":"4","last_reported":1733548154,"current_range_meters":4400,"station_id":"ce4bha12rcd13ifvqee0","pricing_plan_id":"cebpf4jnsgd1na2vs0mg"},{"bike_id":"d5d4ca1a-dd8a-4ced-b1e3-fa33b9c3e1e6","system_id":"levelo_inurba_marseille","lat":43.24678,"lon":5.38151,"is_reserved":false,"is_disabled":false,"rental_uris":{"android":"levelo://app?vid=d5d4ca1a-dd8a-4ced-b1e3-fa33b9c3e1e6","ios":"levelo://app?vid=d5d4ca1a-dd8a-4ced-b1e3-fa33b9c3e1e6"},"vehicle_type_id":"4","last_reported":1733548154,"current_range_meters":10000,"station_id":"ce4bhih2rcd13ifvqfr0","pricing_plan_id":"cebpf4jnsgd1na2vs0mg"},{"bike_id":"721d1239-e1be-4124-810c-641209dc0373","system_id":"levelo_inurba_marseille","lat":43.29269,"lon":5.36849,"is_reserved":false,"is_disabled":false,"rental_uris":{"android":"levelo://app?vid=721d1239-e1be-4124-810c-641209dc0373","ios":"levelo://app?vid=721d1239-e1be-4124-810c-641209dc0373"},"vehicle_type_id":"4","last_reported":1733548154,"current_range_meters":27600,"station_id":"ce4bhbp2rcd13ifvqesg","pricing_plan_id":"cebpf4jnsgd1na2vs0mg"},{"bike_id":"9202c63e-372c-4469-a5c1-8e35757d1940","system_id":"levelo_inurba_marseille","lat":43.30053,"lon":5.38832,"is_reserved":false,"is_disabled":true,"rental_uris":{"android":"levelo://app?vid=9202c63e-372c-4469-a5c1-8e35757d1940","ios":"levelo://app?vid=9202c63e-372c-4469-a5c1-8e35757d1940"},"vehicle_type_id":"4","last_reported":1733548154,"current_range_meters":0,"station_id":"","pricing_plan_id":"cebpf4jnsgd1na2vs0mg"},{"bike_id":"ca283b66-130d-4415-b753-beba46e46f4c","system_id":"levelo_inurba_marseille","lat":43.31356,"lon":5.38496,"is_reserved":false,"is_disabled":false,"rental_uris":{"android":"levelo://app?vid=ca283b66-130d-4415-b753-beba46e46f4c","ios":"levelo://app?vid=ca283b66-130d-4415-b753-beba46e46f4c"},"vehicle_type_id":"4","last_reported":1733548154,"current_range_meters":39200,"station_id":"ce4bgt92rcd13ifvqcf0","pricing_plan_id":"cebpf4jnsgd1na2vs0mg"},{"bike_id":"46acab1c-b930-43bf-8bcc-35f631109a13","system_id":"levelo_inurba_marseille","lat":43.26747,"lon":5.39431,"is_reserved":false,"is_disabled":true,"rental_uris":{"android":"levelo://app?vid=46acab1c-b930-43bf-8bcc-35f631109a13","ios":"levelo://app?vid=46acab1c-b930-43bf-8bcc-35f631109a13"},"vehicle_type_id":"4","last_reported":1733548154,"current_range_meters":0,"station_id":"","pricing_plan_id":"cebpf4jnsgd1na2vs0mg"},{"bike_id":"e900acea-9eeb-4d78-b779-dfa54b036bc8","system_id":"levelo_inurba_marseille","lat":43.30776,"lon":5.3765,"is_reserved":false,"is_disabled":false,"rental_uris":{"android":"levelo://app?vid=e900acea-9eeb-4d78-b779-dfa54b036bc8","ios":"levelo://app?vid=e900acea-9eeb-4d78-b779-dfa54b036bc8"},"vehicle_type_id":"4","last_reported":1733548154,"current_range_meters":36800,"station_id":"ce4bgv92rcd13ifvqcq0","pricing_plan_id":"cebpf4jnsgd1na2vs0mg"},{"bike_id":"0dacdf37-be46-43ac-a984-0e71b851d77b","system_id":"levelo_inurba_marseille","lat":43.27202,"lon":5.41003,"is_reserved":false,"is_disabled":false,"rental_uris":{"android":"levelo://app?vid=0dacdf37-be46-43ac-a984-0e71b851d77b","ios":"levelo://app?vid=0dacdf37-be46-43ac-a984-0e71b851d77b"},"vehicle_type_id":"4","last_reported":1733548154,"current_range_meters":28400,"station_id":"ce4bhl12rcd13ifvqgf0","pricing_plan_id":"cebpf4jnsgd1na2vs0mg"},{"bike_id":"0deb7b46-3bee-4382-87b1-3984fb62457f","system_id":"levelo_inurba_marseille","lat":43.28741,"lon":5.38915,"is_reserved":false,"is_disabled":true,"rental_uris":{"android":"levelo://app?vid=0deb7b46-3bee-4382-87b1-3984fb62457f","ios":"levelo://app?vid=0deb7b46-3bee-4382-87b1-3984fb62457f"},"vehicle_type_id":"4","last_reported":1733548154,"current_range_meters":28000,"station_id":"","pricing_plan_id":"cebpf4jnsgd1na2vs0mg"},{"bike_id":"cf3e6ea0-09ff-406c-b357-28a6a6117f94","system_id":"levelo_inurba_marseille","lat":43.22932,"lon":5.35378,"is_reserved":false,"is_disabled":false,"rental_uris":{"android":"levelo://app?vid=cf3e6ea0-09ff-406c-b357-28a6a6117f94","ios":"levelo://app?vid=cf3e6ea0-09ff-406c-b357-28a6a6117f94"},"vehicle_type_id":"4","last_reported":1733548154,"current_range_meters":38400,"station_id":"cpo3532slgdg3j2ikp40","pricing_plan_id":"cebpf4jnsgd1na2vs0mg"},{"bike_id":"f69f473e-ca9e-4acc-a6e7-69e4a5598312","system_id":"levelo_inurba_marseille","lat":43.28435,"lon":5.39182,"is_reserved":false,"is_disabled":false,"rental_uris":{"android":"levelo://app?vid=f69f473e-ca9e-4acc-a6e7-69e4a5598312","ios":"levelo://app?vid=f69f473e-ca9e-4acc-a6e7-69e4a5598312"},"vehicle_type_id":"4","last_reported":1733548154,"current_range_meters":30000,"station_id":"ce4bhoh2rcd13ifvqh5g","pricing_plan_id":"cebpf4jnsgd1na2vs0mg"},{"bike_id":"567caf0d-fd9d-4a53-b402-5b5a827c2ff1","system_id":"levelo_inurba_marseille","lat":43.26556,"lon":5.37286,"is_reserved":false,"is_disabled":false,"rental_uris":{"android":"levelo://app?vid=567caf0d-fd9d-4a53-b402-5b5a827c2ff1","ios":"levelo://app?vid=567caf0d-fd9d-4a53-b402-5b5a827c2ff1"},"vehicle_type_id":"4","last_reported":1733548154,"current_range_meters":12800,"station_id":"ce4bhg12rcd13ifvqf70","pricing_plan_id":"cebpf4jnsgd1na2vs0mg"},{"bike_id":"07b8c281-3be1-46fd-bf35-bd455797c16c","system_id":"levelo_inurba_marseille","lat":43.23189,"lon":5.35545,"is_reserved":false,"is_disabled":false,"rental_uris":{"android":"levelo://app?vid=07b8c281-3be1-46fd-bf35-bd455797c16c","ios":"levelo://app?vid=07b8c281-3be1-46fd-bf35-bd455797c16c"},"vehicle_type_id":"4","last_reported":1733548154,"current_range_meters":32800,"station_id":"ce4bhu92rcd13ifvqi70","pricing_plan_id":"cebpf4jnsgd1na2vs0mg"},{"bike_id":"719e509a-25e4-4b1b-9830-f708d85d7593","system_id":"levelo_inurba_marseille","lat":43.29404,"lon":5.37451,"is_reserved":false,"is_disabled":true,"rental_uris":{"android":"levelo://app?vid=719e509a-25e4-4b1b-9830-f708d85d7593","ios":"levelo://app?vid=719e509a-25e4-4b1b-9830-f708d85d7593"},"vehicle_type_id":"4","last_reported":1733548154,"current_range_meters":0,"station_id":"","pricing_plan_id":"cebpf4jnsgd1na2vs0mg"},{"bike_id":"cb7849b3-9f74-433b-8ab3-6ff7d1960c18","system_id":"levelo_inurba_marseille","lat":43.285673,"lon":5.395045,"is_reserved":false,"is_disabled":false,"rental_uris":{"android":"levelo://app?vid=cb7849b3-9f74-433b-8ab3-6ff7d1960c18","ios":"levelo://app?vid=cb7849b3-9f74-433b-8ab3-6ff7d1960c18"},"vehicle_type_id":"4","last_reported":1733548154,"current_range_meters":8800,"station_id":"ce4bh292rcd13ifvqdg0","pricing_plan_id":"cebpf4jnsgd1na2vs0mg"},{"bike_id":"02bdc395-5a5b-4ce7-b7a2-a991ffae725c","system_id":"levelo_inurba_marseille","lat":43.25576,"lon":5.38231,"is_reserved":false,"is_disabled":false,"rental_uris":{"android":"levelo://app?vid=02bdc395-5a5b-4ce7-b7a2-a991ffae725c","ios":"levelo://app?vid=02bdc395-5a5b-4ce7-b7a2-a991ffae725c"},"vehicle_type_id":"4","last_reported":1733548154,"current_range_meters":38000,"station_id":"ce4bhih2rcd13ifvqfs0","pricing_plan_id":"cebpf4jnsgd1na2vs0mg"},{"bike_id":"7a0a2714-105e-4622-8b3e-a7dd62dc6941","system_id":"levelo_inurba_marseille","lat":43.29266,"lon":5.384189,"is_reserved":false,"is_disabled":true,"rental_uris":{"android":"levelo://app?vid=7a0a2714-105e-4622-8b3e-a7dd62dc6941","ios":"levelo://app?vid=7a0a2714-105e-4622-8b3e-a7dd62dc6941"},"vehicle_type_id":"4","last_reported":1733548154,"current_range_meters":0,"station_id":"","pricing_plan_id":"cebpf4jnsgd1na2vs0mg"},{"bike_id":"9f53acdf-b2be-4b69-b01b-87cbf7343be4","system_id":"levelo_inurba_marseille","lat":43.26485,"lon":5.39539,"is_reserved":false,"is_disabled":true,"rental_uris":{"android":"levelo://app?vid=9f53acdf-b2be-4b69-b01b-87cbf7343be4","ios":"levelo://app?vid=9f53acdf-b2be-4b69-b01b-87cbf7343be4"},"vehicle_type_id":"4","last_reported":1733548154,"current_range_meters":23200,"station_id":"ce4bhi12rcd13ifvqfq0","pricing_plan_id":"cebpf4jnsgd1na2vs0mg"},{"bike_id":"0aacf6ac-bc47-414b-b7ce-09779cf0771b","system_id":"levelo_inurba_marseille","lat":43.3136,"lon":5.38502,"is_reserved":false,"is_disabled":false,"rental_uris":{"android":"levelo://app?vid=0aacf6ac-bc47-414b-b7ce-09779cf0771b","ios":"levelo://app?vid=0aacf6ac-bc47-414b-b7ce-09779cf0771b"},"vehicle_type_id":"4","last_reported":1733548154,"current_range_meters":24000,"station_id":"ce4bgt92rcd13ifvqcf0","pricing_plan_id":"cebpf4jnsgd1na2vs0mg"},{"bike_id":"a5f05a06-bff4-4f39-af01-91b3d19736b8","system_id":"levelo_inurba_marseille","lat":43.2319,"lon":5.35543,"is_reserved":false,"is_disabled":false,"rental_uris":{"android":"levelo://app?vid=a5f05a06-bff4-4f39-af01-91b3d19736b8","ios":"levelo://app?vid=a5f05a06-bff4-4f39-af01-91b3d19736b8"},"vehicle_type_id":"4","last_reported":1733548154,"current_range_meters":32400,"station_id":"ce4bhu92rcd13ifvqi70","pricing_plan_id":"cebpf4jnsgd1na2vs0mg"},{"bike_id":"d233fd77-47bd-4216-b3cf-df065551519e","system_id":"levelo_inurba_marseille","lat":43.302778,"lon":5.376962,"is_reserved":false,"is_disabled":false,"rental_uris":{"android":"levelo://app?vid=d233fd77-47bd-4216-b3cf-df065551519e","ios":"levelo://app?vid=d233fd77-47bd-4216-b3cf-df065551519e"},"vehicle_type_id":"4","last_reported":1733548154,"current_range_meters":38800,"station_id":"ce4bguh2rcd13ifvqcj0","pricing_plan_id":"cebpf4jnsgd1na2vs0mg"},{"bike_id":"33f1a526-a5a3-4261-b1e0-d90c46ff918d","system_id":"levelo_inurba_marseille","lat":43.28153,"lon":5.42632,"is_reserved":false,"is_disabled":true,"rental_uris":{"android":"levelo://app?vid=33f1a526-a5a3-4261-b1e0-d90c46ff918d","ios":"levelo://app?vid=33f1a526-a5a3-4261-b1e0-d90c46ff918d"},"vehicle_type_id":"4","last_reported":1733548154,"current_range_meters":33600,"station_id":"ce4bhnh2rcd13ifvqgug","pricing_plan_id":"cebpf4jnsgd1na2vs0mg"},{"bike_id":"bce35a79-5663-4904-b103-ec06d7c48d8f","system_id":"levelo_inurba_marseille","lat":43.29615,"lon":5.37723,"is_reserved":false,"is_disabled":false,"rental_uris":{"android":"levelo://app?vid=bce35a79-5663-4904-b103-ec06d7c48d8f","ios":"levelo://app?vid=bce35a79-5663-4904-b103-ec06d7c48d8f"},"vehicle_type_id":"4","last_reported":1733548154,"current_range_meters":37600,"station_id":"ce4bgi92rcd13ifvqb90","pricing_plan_id":"cebpf4jnsgd1na2vs0mg"},{"bike_id":"7d60acff-cb6c-4a92-aca6-d0de3845edf6","system_id":"levelo_inurba_marseille","lat":43.29542,"lon":5.38544,"is_reserved":false,"is_disabled":true,"rental_uris":{"android":"levelo://app?vid=7d60acff-cb6c-4a92-aca6-d0de3845edf6","ios":"levelo://app?vid=7d60acff-cb6c-4a92-aca6-d0de3845edf6"},"vehicle_type_id":"4","last_reported":1733548154,"current_range_meters":26800,"station_id":"ce4bgih2rcd13ifvqba0","pricing_plan_id":"cebpf4jnsgd1na2vs0mg"},{"bike_id":"e98f044c-eb1d-4439-aab2-c2907ec5ff1d","system_id":"levelo_inurba_marseille","lat":43.25821,"lon":5.39427,"is_reserved":false,"is_disabled":false,"rental_uris":{"android":"levelo://app?vid=e98f044c-eb1d-4439-aab2-c2907ec5ff1d","ios":"levelo://app?vid=e98f044c-eb1d-4439-aab2-c2907ec5ff1d"},"vehicle_type_id":"4","last_reported":1733548154,"current_range_meters":18000,"station_id":"ce4bhip2rcd13ifvqft0","pricing_plan_id":"cebpf4jnsgd1na2vs0mg"},{"bike_id":"7ac0a9db-2ca6-488d-ba70-f84d0c992956","system_id":"levelo_inurba_marseille","lat":43.2467,"lon":5.38165,"is_reserved":false,"is_disabled":false,"rental_uris":{"android":"levelo://app?vid=7ac0a9db-2ca6-488d-ba70-f84d0c992956","ios":"levelo://app?vid=7ac0a9db-2ca6-488d-ba70-f84d0c992956"},"vehicle_type_id":"4","last_reported":1733548154,"current_range_meters":6000,"station_id":"ce4bhih2rcd13ifvqfr0","pricing_plan_id":"cebpf4jnsgd1na2vs0mg"},{"bike_id":"b01ba929-1580-401b-973d-e4a15d746d4a","system_id":"levelo_inurba_marseille","lat":43.22926,"lon":5.35376,"is_reserved":false,"is_disabled":false,"rental_uris":{"android":"levelo://app?vid=b01ba929-1580-401b-973d-e4a15d746d4a","ios":"levelo://app?vid=b01ba929-1580-401b-973d-e4a15d746d4a"},"vehicle_type_id":"4","last_reported":1733548154,"current_range_meters":6400,"station_id":"cpo3532slgdg3j2ikp40","pricing_plan_id":"cebpf4jnsgd1na2vs0mg"},{"bike_id":"8c1e28b4-904f-48d7-ba6d-d3b5b5d05922","system_id":"levelo_inurba_marseille","lat":43.2938,"lon":5.40125,"is_reserved":false,"is_disabled":true,"rental_uris":{"android":"levelo://app?vid=8c1e28b4-904f-48d7-ba6d-d3b5b5d05922","ios":"levelo://app?vid=8c1e28b4-904f-48d7-ba6d-d3b5b5d05922"},"vehicle_type_id":"4","last_reported":1733548154,"current_range_meters":0,"station_id":"","pricing_plan_id":"cebpf4jnsgd1na2vs0mg"},{"bike_id":"0a43f817-3d21-4907-aab1-172705ef3170","system_id":"levelo_inurba_marseille","lat":43.27813,"lon":5.4071,"is_reserved":false,"is_disabled":false,"rental_uris":{"android":"levelo://app?vid=0a43f817-3d21-4907-aab1-172705ef3170","ios":"levelo://app?vid=0a43f817-3d21-4907-aab1-172705ef3170"},"vehicle_type_id":"4","last_reported":1733548154,"current_range_meters":25600,"station_id":"ce4bhnh2rcd13ifvqgtg","pricing_plan_id":"cebpf4jnsgd1na2vs0mg"},{"bike_id":"7b9b3679-8df0-485d-a17a-ac62ea96167a","system_id":"levelo_inurba_marseille","lat":43.27983,"lon":5.38637,"is_reserved":false,"is_disabled":true,"rental_uris":{"android":"levelo://app?vid=7b9b3679-8df0-485d-a17a-ac62ea96167a","ios":"levelo://app?vid=7b9b3679-8df0-485d-a17a-ac62ea96167a"},"vehicle_type_id":"4","last_reported":1733548154,"current_range_meters":9200,"station_id":"","pricing_plan_id":"cebpf4jnsgd1na2vs0mg"},{"bike_id":"704b7f91-c44b-4253-9491-46c217e82307","system_id":"levelo_inurba_marseille","lat":43.29279,"lon":5.37458,"is_reserved":false,"is_disabled":true,"rental_uris":{"android":"levelo://app?vid=704b7f91-c44b-4253-9491-46c217e82307","ios":"levelo://app?vid=704b7f91-c44b-4253-9491-46c217e82307"},"vehicle_type_id":"4","last_reported":1733548154,"current_range_meters":26800,"station_id":"ce4bgi12rcd13ifvqb70","pricing_plan_id":"cebpf4jnsgd1na2vs0mg"},{"bike_id":"25f4ddb9-ba04-4cb2-a9fb-3248e0dc743c","system_id":"levelo_inurba_marseille","lat":43.27807,"lon":5.40725,"is_reserved":false,"is_disabled":false,"rental_uris":{"android":"levelo://app?vid=25f4ddb9-ba04-4cb2-a9fb-3248e0dc743c","ios":"levelo://app?vid=25f4ddb9-ba04-4cb2-a9fb-3248e0dc743c"},"vehicle_type_id":"4","last_reported":1733548154,"current_range_meters":25600,"station_id":"ce4bhnh2rcd13ifvqgtg","pricing_plan_id":"cebpf4jnsgd1na2vs0mg"},{"bike_id":"5ca831f9-385b-4fdf-b45c-ebd952c23fc4","system_id":"levelo_inurba_marseille","lat":43.31488,"lon":5.3729,"is_reserved":false,"is_disabled":false,"rental_uris":{"android":"levelo://app?vid=5ca831f9-385b-4fdf-b45c-ebd952c23fc4","ios":"levelo://app?vid=5ca831f9-385b-4fdf-b45c-ebd952c23fc4"},"vehicle_type_id":"4","last_reported":1733548154,"current_range_meters":38800,"station_id":"ce4bgt12rcd13ifvqcd0","pricing_plan_id":"cebpf4jnsgd1na2vs0mg"},{"bike_id":"b44eb783-ee21-4619-8a32-66927290fdf8","system_id":"levelo_inurba_marseille","lat":43.2987,"lon":5.38915,"is_reserved":false,"is_disabled":false,"rental_uris":{"android":"levelo://app?vid=b44eb783-ee21-4619-8a32-66927290fdf8","ios":"levelo://app?vid=b44eb783-ee21-4619-8a32-66927290fdf8"},"vehicle_type_id":"4","last_reported":1733548154,"current_range_meters":38800,"station_id":"ce4bh392rcd13ifvqdl0","pricing_plan_id":"cebpf4jnsgd1na2vs0mg"},{"bike_id":"347279e4-4f88-4dee-b3d6-e24a5ea66e46","system_id":"levelo_inurba_marseille","lat":43.30888,"lon":5.37196,"is_reserved":false,"is_disabled":false,"rental_uris":{"android":"levelo://app?vid=347279e4-4f88-4dee-b3d6-e24a5ea66e46","ios":"levelo://app?vid=347279e4-4f88-4dee-b3d6-e24a5ea66e46"},"vehicle_type_id":"4","last_reported":1733548154,"current_range_meters":35600,"station_id":"ce4bguh2rcd13ifvqckg","pricing_plan_id":"cebpf4jnsgd1na2vs0mg"},{"bike_id":"282caff4-02c7-46cf-a9dc-fa558154bfc1","system_id":"levelo_inurba_marseille","lat":43.28155,"lon":5.42644,"is_reserved":false,"is_disabled":false,"rental_uris":{"android":"levelo://app?vid=282caff4-02c7-46cf-a9dc-fa558154bfc1","ios":"levelo://app?vid=282caff4-02c7-46cf-a9dc-fa558154bfc1"},"vehicle_type_id":"4","last_reported":1733548154,"current_range_meters":38800,"station_id":"ce4bhnh2rcd13ifvqgug","pricing_plan_id":"cebpf4jnsgd1na2vs0mg"},{"bike_id":"b6bddb01-8dc5-40d6-a340-3a03c7a3dfbf","system_id":"levelo_inurba_marseille","lat":43.29279,"lon":5.40117,"is_reserved":false,"is_disabled":false,"rental_uris":{"android":"levelo://app?vid=b6bddb01-8dc5-40d6-a340-3a03c7a3dfbf","ios":"levelo://app?vid=b6bddb01-8dc5-40d6-a340-3a03c7a3dfbf"},"vehicle_type_id":"4","last_reported":1733548154,"current_range_meters":36800,"station_id":"ce4bh312rcd13ifvqdk0","pricing_plan_id":"cebpf4jnsgd1na2vs0mg"},{"bike_id":"6ad8fff5-6505-40fc-8922-2acdd3c82e7b","system_id":"levelo_inurba_marseille","lat":43.29769,"lon":5.38125,"is_reserved":false,"is_disabled":true,"rental_uris":{"android":"levelo://app?vid=6ad8fff5-6505-40fc-8922-2acdd3c82e7b","ios":"levelo://app?vid=6ad8fff5-6505-40fc-8922-2acdd3c82e7b"},"vehicle_type_id":"4","last_reported":1733548154,"current_range_meters":20000,"station_id":"ce4bgip2rcd13ifvqbb0","pricing_plan_id":"cebpf4jnsgd1na2vs0mg"},{"bike_id":"47ce1c1b-a35b-4e92-a756-48acb7155296","system_id":"levelo_inurba_marseille","lat":43.24065,"lon":5.37756,"is_reserved":false,"is_disabled":false,"rental_uris":{"android":"levelo://app?vid=47ce1c1b-a35b-4e92-a756-48acb7155296","ios":"levelo://app?vid=47ce1c1b-a35b-4e92-a756-48acb7155296"},"vehicle_type_id":"4","last_reported":1733548154,"current_range_meters":6400,"station_id":"ce4bhnp2rcd13ifvqgvg","pricing_plan_id":"cebpf4jnsgd1na2vs0mg"},{"bike_id":"ba8ee62b-e1f8-4737-a62b-c2c4e1c22f92","system_id":"levelo_inurba_marseille","lat":43.26054,"lon":5.3939,"is_reserved":false,"is_disabled":false,"rental_uris":{"android":"levelo://app?vid=ba8ee62b-e1f8-4737-a62b-c2c4e1c22f92","ios":"levelo://app?vid=ba8ee62b-e1f8-4737-a62b-c2c4e1c22f92"},"vehicle_type_id":"4","last_reported":1733548154,"current_range_meters":36400,"station_id":"ce4bhh92rcd13ifvqfj0","pricing_plan_id":"cebpf4jnsgd1na2vs0mg"},{"bike_id":"bbecf83f-a31c-4eab-8c84-16c4f2fc6ae3","system_id":"levelo_inurba_marseille","lat":43.24661,"lon":5.3817,"is_reserved":false,"is_disabled":false,"rental_uris":{"android":"levelo://app?vid=bbecf83f-a31c-4eab-8c84-16c4f2fc6ae3","ios":"levelo://app?vid=bbecf83f-a31c-4eab-8c84-16c4f2fc6ae3"},"vehicle_type_id":"4","last_reported":1733548154,"current_range_meters":20000,"station_id":"ce4bhih2rcd13ifvqfr0","pricing_plan_id":"cebpf4jnsgd1na2vs0mg"},{"bike_id":"7c1a7dea-3a1d-4434-8b91-30c6ff43498e","system_id":"levelo_inurba_marseille","lat":43.27614,"lon":5.36109,"is_reserved":false,"is_disabled":false,"rental_uris":{"android":"levelo://app?vid=7c1a7dea-3a1d-4434-8b91-30c6ff43498e","ios":"levelo://app?vid=7c1a7dea-3a1d-4434-8b91-30c6ff43498e"},"vehicle_type_id":"4","last_reported":1733548154,"current_range_meters":38800,"station_id":"ce4bgj92rcd13ifvqbe0","pricing_plan_id":"cebpf4jnsgd1na2vs0mg"},{"bike_id":"c5e9787b-a134-4db3-b1f5-92d059557abc","system_id":"levelo_inurba_marseille","lat":43.27493,"lon":5.42459,"is_reserved":false,"is_disabled":false,"rental_uris":{"android":"levelo://app?vid=c5e9787b-a134-4db3-b1f5-92d059557abc","ios":"levelo://app?vid=c5e9787b-a134-4db3-b1f5-92d059557abc"},"vehicle_type_id":"4","last_reported":1733548154,"current_range_meters":22400,"station_id":"ce4bhn92rcd13ifvqgrg","pricing_plan_id":"cebpf4jnsgd1na2vs0mg"},{"bike_id":"f0fff726-5d30-4073-87af-34eb8ff5d326","system_id":"levelo_inurba_marseille","lat":43.28337,"lon":5.3811,"is_reserved":false,"is_disabled":false,"rental_uris":{"android":"levelo://app?vid=f0fff726-5d30-4073-87af-34eb8ff5d326","ios":"levelo://app?vid=f0fff726-5d30-4073-87af-34eb8ff5d326"},"vehicle_type_id":"4","last_reported":1733548154,"current_range_meters":38400,"station_id":"ce4bh412rcd13ifvqdr0","pricing_plan_id":"cebpf4jnsgd1na2vs0mg"},{"bike_id":"8f4046fa-2d20-4095-bfb6-52e921195021","system_id":"levelo_inurba_marseille","lat":43.231534,"lon":5.437116,"is_reserved":false,"is_disabled":false,"rental_uris":{"android":"levelo://app?vid=8f4046fa-2d20-4095-bfb6-52e921195021","ios":"levelo://app?vid=8f4046fa-2d20-4095-bfb6-52e921195021"},"vehicle_type_id":"4","last_reported":1733548154,"current_range_meters":39200,"station_id":"ce4bhmp2rcd13ifvqgog","pricing_plan_id":"cebpf4jnsgd1na2vs0mg"},{"bike_id":"5481426e-9673-45c5-beec-f014bf6ef659","system_id":"levelo_inurba_marseille","lat":43.2856,"lon":5.39498,"is_reserved":false,"is_disabled":false,"rental_uris":{"android":"levelo://app?vid=5481426e-9673-45c5-beec-f014bf6ef659","ios":"levelo://app?vid=5481426e-9673-45c5-beec-f014bf6ef659"},"vehicle_type_id":"4","last_reported":1733548154,"current_range_meters":26800,"station_id":"ce4bh292rcd13ifvqdg0","pricing_plan_id":"cebpf4jnsgd1na2vs0mg"},{"bike_id":"33fa1c3e-8b2f-4b4a-86ae-2f664a2cbfce","system_id":"levelo_inurba_marseille","lat":43.32471,"lon":5.36567,"is_reserved":false,"is_disabled":false,"rental_uris":{"android":"levelo://app?vid=33fa1c3e-8b2f-4b4a-86ae-2f664a2cbfce","ios":"levelo://app?vid=33fa1c3e-8b2f-4b4a-86ae-2f664a2cbfce"},"vehicle_type_id":"4","last_reported":1733548154,"current_range_meters":6800,"station_id":"ce4bhs12rcd13ifvqhvg","pricing_plan_id":"cebpf4jnsgd1na2vs0mg"},{"bike_id":"9991966e-3722-4fe1-80f5-6d1514f80a37","system_id":"levelo_inurba_marseille","lat":43.25113,"lon":5.40324,"is_reserved":false,"is_disabled":true,"rental_uris":{"android":"levelo://app?vid=9991966e-3722-4fe1-80f5-6d1514f80a37","ios":"levelo://app?vid=9991966e-3722-4fe1-80f5-6d1514f80a37"},"vehicle_type_id":"4","last_reported":1733548154,"current_range_meters":1200,"station_id":"ce4bhlh2rcd13ifvqgig","pricing_plan_id":"cebpf4jnsgd1na2vs0mg"},{"bike_id":"ca44e3c5-d633-4c30-876a-bccaca7f7f37","system_id":"levelo_inurba_marseille","lat":43.31116,"lon":5.37767,"is_reserved":false,"is_disabled":false,"rental_uris":{"android":"levelo://app?vid=ca44e3c5-d633-4c30-876a-bccaca7f7f37","ios":"levelo://app?vid=ca44e3c5-d633-4c30-876a-bccaca7f7f37"},"vehicle_type_id":"4","last_reported":1733548154,"current_range_meters":6800,"station_id":"ce4bgt92rcd13ifvqcg0","pricing_plan_id":"cebpf4jnsgd1na2vs0mg"},{"bike_id":"c33a3681-6741-4209-9566-0b28a63b6525","system_id":"levelo_inurba_marseille","lat":43.31273,"lon":5.4017,"is_reserved":false,"is_disabled":false,"rental_uris":{"android":"levelo://app?vid=c33a3681-6741-4209-9566-0b28a63b6525","ios":"levelo://app?vid=c33a3681-6741-4209-9566-0b28a63b6525"},"vehicle_type_id":"4","last_reported":1733548154,"current_range_meters":18000,"station_id":"ce4bh092rcd13ifvqd30","pricing_plan_id":"cebpf4jnsgd1na2vs0mg"},{"bike_id":"fd98eaa9-4d55-4e7b-aa90-0d14707466d9","system_id":"levelo_inurba_marseille","lat":43.337444,"lon":5.374475,"is_reserved":false,"is_disabled":true,"rental_uris":{"android":"levelo://app?vid=fd98eaa9-4d55-4e7b-aa90-0d14707466d9","ios":"levelo://app?vid=fd98eaa9-4d55-4e7b-aa90-0d14707466d9"},"vehicle_type_id":"4","last_reported":1733548154,"current_range_meters":0,"station_id":"","pricing_plan_id":"cebpf4jnsgd1na2vs0mg"},{"bike_id":"b2bb7dcd-fcc3-454a-9506-7fc343389f30","system_id":"levelo_inurba_marseille","lat":43.28261,"lon":5.35064,"is_reserved":false,"is_disabled":false,"rental_uris":{"android":"levelo://app?vid=b2bb7dcd-fcc3-454a-9506-7fc343389f30","ios":"levelo://app?vid=b2bb7dcd-fcc3-454a-9506-7fc343389f30"},"vehicle_type_id":"4","last_reported":1733548154,"current_range_meters":39200,"station_id":"ce4bhbp2rcd13ifvqerg","pricing_plan_id":"cebpf4jnsgd1na2vs0mg"},{"bike_id":"8551f60c-0d87-4529-b006-d4b933890363","system_id":"levelo_inurba_marseille","lat":43.2418,"lon":5.39729,"is_reserved":false,"is_disabled":false,"rental_uris":{"android":"levelo://app?vid=8551f60c-0d87-4529-b006-d4b933890363","ios":"levelo://app?vid=8551f60c-0d87-4529-b006-d4b933890363"},"vehicle_type_id":"4","last_reported":1733548154,"current_range_meters":38800,"station_id":"ce4bhn12rcd13ifvqgpg","pricing_plan_id":"cebpf4jnsgd1na2vs0mg"},{"bike_id":"27747901-daa4-4699-83f2-9d3e8e7d86e6","system_id":"levelo_inurba_marseille","lat":43.25819,"lon":5.39424,"is_reserved":false,"is_disabled":false,"rental_uris":{"android":"levelo://app?vid=27747901-daa4-4699-83f2-9d3e8e7d86e6","ios":"levelo://app?vid=27747901-daa4-4699-83f2-9d3e8e7d86e6"},"vehicle_type_id":"4","last_reported":1733548154,"current_range_meters":33200,"station_id":"ce4bhip2rcd13ifvqft0","pricing_plan_id":"cebpf4jnsgd1na2vs0mg"},{"bike_id":"b1c4eb48-3657-4b66-b5ed-53507d84fe46","system_id":"levelo_inurba_marseille","lat":43.29794,"lon":5.39351,"is_reserved":false,"is_disabled":true,"rental_uris":{"android":"levelo://app?vid=b1c4eb48-3657-4b66-b5ed-53507d84fe46","ios":"levelo://app?vid=b1c4eb48-3657-4b66-b5ed-53507d84fe46"},"vehicle_type_id":"4","last_reported":1733548154,"current_range_meters":0,"station_id":"chh1huq6cuj3fo74tm60","pricing_plan_id":"cebpf4jnsgd1na2vs0mg"},{"bike_id":"a23ed081-f92b-4496-b256-77a531661e88","system_id":"levelo_inurba_marseille","lat":43.28311,"lon":5.35068,"is_reserved":false,"is_disabled":false,"rental_uris":{"android":"levelo://app?vid=a23ed081-f92b-4496-b256-77a531661e88","ios":"levelo://app?vid=a23ed081-f92b-4496-b256-77a531661e88"},"vehicle_type_id":"4","last_reported":1733548154,"current_range_meters":38800,"station_id":"ce4bhbp2rcd13ifvqerg","pricing_plan_id":"cebpf4jnsgd1na2vs0mg"},{"bike_id":"1505fbfb-8e3b-4f0f-a1cc-003e44beeacb","system_id":"levelo_inurba_marseille","lat":43.326585,"lon":5.409939,"is_reserved":false,"is_disabled":false,"rental_uris":{"android":"levelo://app?vid=1505fbfb-8e3b-4f0f-a1cc-003e44beeacb","ios":"levelo://app?vid=1505fbfb-8e3b-4f0f-a1cc-003e44beeacb"},"vehicle_type_id":"4","last_reported":1733548154,"current_range_meters":38800,"station_id":"ce4bhpp2rcd13ifvqhgg","pricing_plan_id":"cebpf4jnsgd1na2vs0mg"},{"bike_id":"4566eeb6-977d-42bf-87a0-cde54400907a","system_id":"levelo_inurba_marseille","lat":43.27998,"lon":5.41637,"is_reserved":false,"is_disabled":false,"rental_uris":{"android":"levelo://app?vid=4566eeb6-977d-42bf-87a0-cde54400907a","ios":"levelo://app?vid=4566eeb6-977d-42bf-87a0-cde54400907a"},"vehicle_type_id":"4","last_reported":1733548154,"current_range_meters":13600,"station_id":"ce4bho12rcd13ifvqh1g","pricing_plan_id":"cebpf4jnsgd1na2vs0mg"},{"bike_id":"c2d8a1c2-d166-4a36-b32f-beec95c93bd5","system_id":"levelo_inurba_marseille","lat":43.33756,"lon":5.37459,"is_reserved":false,"is_disabled":true,"rental_uris":{"android":"levelo://app?vid=c2d8a1c2-d166-4a36-b32f-beec95c93bd5","ios":"levelo://app?vid=c2d8a1c2-d166-4a36-b32f-beec95c93bd5"},"vehicle_type_id":"4","last_reported":1733548154,"current_range_meters":1600,"station_id":"","pricing_plan_id":"cebpf4jnsgd1na2vs0mg"},{"bike_id":"b31740ba-31e3-4310-858d-71d9c7b26f3a","system_id":"levelo_inurba_marseille","lat":43.29262,"lon":5.38434,"is_reserved":false,"is_disabled":true,"rental_uris":{"android":"levelo://app?vid=b31740ba-31e3-4310-858d-71d9c7b26f3a","ios":"levelo://app?vid=b31740ba-31e3-4310-858d-71d9c7b26f3a"},"vehicle_type_id":"4","last_reported":1733548154,"current_range_meters":38400,"station_id":"ce4bh692rcd13ifvqea0","pricing_plan_id":"cebpf4jnsgd1na2vs0mg"},{"bike_id":"828726b5-b6b8-4674-ab22-ff1aa0c929eb","system_id":"levelo_inurba_marseille","lat":43.28847,"lon":5.3932,"is_reserved":false,"is_disabled":true,"rental_uris":{"android":"levelo://app?vid=828726b5-b6b8-4674-ab22-ff1aa0c929eb","ios":"levelo://app?vid=828726b5-b6b8-4674-ab22-ff1aa0c929eb"},"vehicle_type_id":"4","last_reported":1733548154,"current_range_meters":38800,"station_id":"ce4bh2p2rcd13ifvqdi0","pricing_plan_id":"cebpf4jnsgd1na2vs0mg"},{"bike_id":"760048b8-f77c-4310-8b04-be6f90628a50","system_id":"levelo_inurba_marseille","lat":43.30322,"lon":5.377,"is_reserved":false,"is_disabled":false,"rental_uris":{"android":"levelo://app?vid=760048b8-f77c-4310-8b04-be6f90628a50","ios":"levelo://app?vid=760048b8-f77c-4310-8b04-be6f90628a50"},"vehicle_type_id":"4","last_reported":1733548154,"current_range_meters":32800,"station_id":"ce4bguh2rcd13ifvqcj0","pricing_plan_id":"cebpf4jnsgd1na2vs0mg"},{"bike_id":"f86ac28e-ca50-41ff-94b9-22727c68aecb","system_id":"levelo_inurba_marseille","lat":43.27175,"lon":5.409906,"is_reserved":false,"is_disabled":false,"rental_uris":{"android":"levelo://app?vid=f86ac28e-ca50-41ff-94b9-22727c68aecb","ios":"levelo://app?vid=f86ac28e-ca50-41ff-94b9-22727c68aecb"},"vehicle_type_id":"4","last_reported":1733548154,"current_range_meters":36800,"station_id":"ce4bhl12rcd13ifvqgf0","pricing_plan_id":"cebpf4jnsgd1na2vs0mg"},{"bike_id":"3cbe3e6b-be5e-45c3-9697-1a2662e46a5e","system_id":"levelo_inurba_marseille","lat":43.24048,"lon":5.3776,"is_reserved":false,"is_disabled":true,"rental_uris":{"android":"levelo://app?vid=3cbe3e6b-be5e-45c3-9697-1a2662e46a5e","ios":"levelo://app?vid=3cbe3e6b-be5e-45c3-9697-1a2662e46a5e"},"vehicle_type_id":"4","last_reported":1733548154,"current_range_meters":0,"station_id":"ce4bhnp2rcd13ifvqgvg","pricing_plan_id":"cebpf4jnsgd1na2vs0mg"},{"bike_id":"70c1abac-b206-49c1-86ad-dc30a0cef4a7","system_id":"levelo_inurba_marseille","lat":43.292834,"lon":5.401208,"is_reserved":false,"is_disabled":false,"rental_uris":{"android":"levelo://app?vid=70c1abac-b206-49c1-86ad-dc30a0cef4a7","ios":"levelo://app?vid=70c1abac-b206-49c1-86ad-dc30a0cef4a7"},"vehicle_type_id":"4","last_reported":1733548154,"current_range_meters":38800,"station_id":"ce4bh312rcd13ifvqdk0","pricing_plan_id":"cebpf4jnsgd1na2vs0mg"},{"bike_id":"7bfa808f-e1e4-4ab1-b3fa-4ba7de9f3ecb","system_id":"levelo_inurba_marseille","lat":43.28913,"lon":5.40031,"is_reserved":false,"is_disabled":false,"rental_uris":{"android":"levelo://app?vid=7bfa808f-e1e4-4ab1-b3fa-4ba7de9f3ecb","ios":"levelo://app?vid=7bfa808f-e1e4-4ab1-b3fa-4ba7de9f3ecb"},"vehicle_type_id":"4","last_reported":1733548154,"current_range_meters":36400,"station_id":"","pricing_plan_id":"cebpf4jnsgd1na2vs0mg"},{"bike_id":"8a93cf1e-2130-4026-b79d-cc51b57f3f8d","system_id":"levelo_inurba_marseille","lat":43.29693,"lon":5.36627,"is_reserved":false,"is_disabled":false,"rental_uris":{"android":"levelo://app?vid=8a93cf1e-2130-4026-b79d-cc51b57f3f8d","ios":"levelo://app?vid=8a93cf1e-2130-4026-b79d-cc51b57f3f8d"},"vehicle_type_id":"4","last_reported":1733548154,"current_range_meters":38400,"station_id":"ce4bgn12rcd13ifvqbt0","pricing_plan_id":"cebpf4jnsgd1na2vs0mg"},{"bike_id":"ec7161ea-a9d9-495e-be86-f41e492ce3a7","system_id":"levelo_inurba_marseille","lat":43.28669,"lon":5.3866,"is_reserved":false,"is_disabled":false,"rental_uris":{"android":"levelo://app?vid=ec7161ea-a9d9-495e-be86-f41e492ce3a7","ios":"levelo://app?vid=ec7161ea-a9d9-495e-be86-f41e492ce3a7"},"vehicle_type_id":"4","last_reported":1733548154,"current_range_meters":37600,"station_id":"ce4bh492rcd13ifvqdug","pricing_plan_id":"cebpf4jnsgd1na2vs0mg"},{"bike_id":"2a90f541-7c41-4774-a322-0f74e571c9b5","system_id":"levelo_inurba_marseille","lat":43.29054,"lon":5.35897,"is_reserved":false,"is_disabled":false,"rental_uris":{"android":"levelo://app?vid=2a90f541-7c41-4774-a322-0f74e571c9b5","ios":"levelo://app?vid=2a90f541-7c41-4774-a322-0f74e571c9b5"},"vehicle_type_id":"4","last_reported":1733548154,"current_range_meters":22400,"station_id":"ce4bha92rcd13ifvqeg0","pricing_plan_id":"cebpf4jnsgd1na2vs0mg"},{"bike_id":"97884a7a-e895-4fd6-9da3-4992de1fbd62","system_id":"levelo_inurba_marseille","lat":43.31268,"lon":5.40168,"is_reserved":false,"is_disabled":false,"rental_uris":{"android":"levelo://app?vid=97884a7a-e895-4fd6-9da3-4992de1fbd62","ios":"levelo://app?vid=97884a7a-e895-4fd6-9da3-4992de1fbd62"},"vehicle_type_id":"4","last_reported":1733548154,"current_range_meters":38800,"station_id":"ce4bh092rcd13ifvqd30","pricing_plan_id":"cebpf4jnsgd1na2vs0mg"},{"bike_id":"f5561434-0740-4a3c-abc2-013f37687b8d","system_id":"levelo_inurba_marseille","lat":43.24812,"lon":5.37464,"is_reserved":false,"is_disabled":true,"rental_uris":{"android":"levelo://app?vid=f5561434-0740-4a3c-abc2-013f37687b8d","ios":"levelo://app?vid=f5561434-0740-4a3c-abc2-013f37687b8d"},"vehicle_type_id":"4","last_reported":1733548154,"current_range_meters":38000,"station_id":"ce4bhgh2rcd13ifvqfb0","pricing_plan_id":"cebpf4jnsgd1na2vs0mg"},{"bike_id":"11c072d2-3cb0-4cd6-963c-e572aa9c3d9b","system_id":"levelo_inurba_marseille","lat":43.30933,"lon":5.40146,"is_reserved":false,"is_disabled":false,"rental_uris":{"android":"levelo://app?vid=11c072d2-3cb0-4cd6-963c-e572aa9c3d9b","ios":"levelo://app?vid=11c072d2-3cb0-4cd6-963c-e572aa9c3d9b"},"vehicle_type_id":"4","last_reported":1733548154,"current_range_meters":28400,"station_id":"ce4bgvp2rcd13ifvqct0","pricing_plan_id":"cebpf4jnsgd1na2vs0mg"},{"bike_id":"7bbf110d-4ea0-4b3b-b4ff-2d91a9523d33","system_id":"levelo_inurba_marseille","lat":43.26675,"lon":5.38269,"is_reserved":false,"is_disabled":false,"rental_uris":{"android":"levelo://app?vid=7bbf110d-4ea0-4b3b-b4ff-2d91a9523d33","ios":"levelo://app?vid=7bbf110d-4ea0-4b3b-b4ff-2d91a9523d33"},"vehicle_type_id":"4","last_reported":1733548154,"current_range_meters":24800,"station_id":"ce4bhg92rcd13ifvqf90","pricing_plan_id":"cebpf4jnsgd1na2vs0mg"},{"bike_id":"2f58fc96-8b8a-4bf1-ba03-dc15dd9ec024","system_id":"levelo_inurba_marseille","lat":43.29594,"lon":5.3704,"is_reserved":false,"is_disabled":true,"rental_uris":{"android":"levelo://app?vid=2f58fc96-8b8a-4bf1-ba03-dc15dd9ec024","ios":"levelo://app?vid=2f58fc96-8b8a-4bf1-ba03-dc15dd9ec024"},"vehicle_type_id":"4","last_reported":1733548154,"current_range_meters":0,"station_id":"","pricing_plan_id":"cebpf4jnsgd1na2vs0mg"},{"bike_id":"72e29cff-f685-43b0-a2f9-babaa1c44344","system_id":"levelo_inurba_marseille","lat":43.2396,"lon":5.36627,"is_reserved":false,"is_disabled":false,"rental_uris":{"android":"levelo://app?vid=72e29cff-f685-43b0-a2f9-babaa1c44344","ios":"levelo://app?vid=72e29cff-f685-43b0-a2f9-babaa1c44344"},"vehicle_type_id":"4","last_reported":1733548154,"current_range_meters":23200,"station_id":"ce4bhi12rcd13ifvqfp0","pricing_plan_id":"cebpf4jnsgd1na2vs0mg"},{"bike_id":"50bcbaf6-33d9-4ddc-b671-9ac4aee33b72","system_id":"levelo_inurba_marseille","lat":43.3019,"lon":5.36625,"is_reserved":false,"is_disabled":false,"rental_uris":{"android":"levelo://app?vid=50bcbaf6-33d9-4ddc-b671-9ac4aee33b72","ios":"levelo://app?vid=50bcbaf6-33d9-4ddc-b671-9ac4aee33b72"},"vehicle_type_id":"4","last_reported":1733548154,"current_range_meters":6400,"station_id":"ce4bgrh2rcd13ifvqc8g","pricing_plan_id":"cebpf4jnsgd1na2vs0mg"},{"bike_id":"62890cf1-cd4c-4fee-94e0-ff96bbf9cf47","system_id":"levelo_inurba_marseille","lat":43.28263,"lon":5.3508,"is_reserved":false,"is_disabled":false,"rental_uris":{"android":"levelo://app?vid=62890cf1-cd4c-4fee-94e0-ff96bbf9cf47","ios":"levelo://app?vid=62890cf1-cd4c-4fee-94e0-ff96bbf9cf47"},"vehicle_type_id":"4","last_reported":1733548154,"current_range_meters":39200,"station_id":"ce4bhbp2rcd13ifvqerg","pricing_plan_id":"cebpf4jnsgd1na2vs0mg"},{"bike_id":"ef2fc74e-d5d5-442a-9728-8c95cb21eb49","system_id":"levelo_inurba_marseille","lat":43.27811,"lon":5.40708,"is_reserved":false,"is_disabled":false,"rental_uris":{"android":"levelo://app?vid=ef2fc74e-d5d5-442a-9728-8c95cb21eb49","ios":"levelo://app?vid=ef2fc74e-d5d5-442a-9728-8c95cb21eb49"},"vehicle_type_id":"4","last_reported":1733548154,"current_range_meters":28400,"station_id":"ce4bhnh2rcd13ifvqgtg","pricing_plan_id":"cebpf4jnsgd1na2vs0mg"},{"bike_id":"28121aa3-7c19-4b1b-a44a-d17aed6b8d94","system_id":"levelo_inurba_marseille","lat":43.337444,"lon":5.374475,"is_reserved":false,"is_disabled":false,"rental_uris":{"android":"levelo://app?vid=28121aa3-7c19-4b1b-a44a-d17aed6b8d94","ios":"levelo://app?vid=28121aa3-7c19-4b1b-a44a-d17aed6b8d94"},"vehicle_type_id":"4","last_reported":1733548154,"current_range_meters":30400,"station_id":"","pricing_plan_id":"cebpf4jnsgd1na2vs0mg"},{"bike_id":"62dddee1-1100-4d8c-839c-64951e09afde","system_id":"levelo_inurba_marseille","lat":43.25249,"lon":5.40518,"is_reserved":false,"is_disabled":true,"rental_uris":{"android":"levelo://app?vid=62dddee1-1100-4d8c-839c-64951e09afde","ios":"levelo://app?vid=62dddee1-1100-4d8c-839c-64951e09afde"},"vehicle_type_id":"4","last_reported":1733548154,"current_range_meters":17600,"station_id":"","pricing_plan_id":"cebpf4jnsgd1na2vs0mg"},{"bike_id":"b57ac3ac-1cb9-4a0e-9880-d76a5f5fa301","system_id":"levelo_inurba_marseille","lat":43.26209,"lon":5.37926,"is_reserved":false,"is_disabled":false,"rental_uris":{"android":"levelo://app?vid=b57ac3ac-1cb9-4a0e-9880-d76a5f5fa301","ios":"levelo://app?vid=b57ac3ac-1cb9-4a0e-9880-d76a5f5fa301"},"vehicle_type_id":"4","last_reported":1733548154,"current_range_meters":38800,"station_id":"ce4bhjp2rcd13ifvqg90","pricing_plan_id":"cebpf4jnsgd1na2vs0mg"},{"bike_id":"612f16e0-b02a-483c-9e1c-1e1426e7fee9","system_id":"levelo_inurba_marseille","lat":43.30877,"lon":5.37406,"is_reserved":false,"is_disabled":true,"rental_uris":{"android":"levelo://app?vid=612f16e0-b02a-483c-9e1c-1e1426e7fee9","ios":"levelo://app?vid=612f16e0-b02a-483c-9e1c-1e1426e7fee9"},"vehicle_type_id":"4","last_reported":1733548154,"current_range_meters":38400,"station_id":"","pricing_plan_id":"cebpf4jnsgd1na2vs0mg"},{"bike_id":"93b83966-bfdc-4ca4-a863-da09f81c09d1","system_id":"levelo_inurba_marseille","lat":43.28455,"lon":5.35874,"is_reserved":false,"is_disabled":false,"rental_uris":{"android":"levelo://app?vid=93b83966-bfdc-4ca4-a863-da09f81c09d1","ios":"levelo://app?vid=93b83966-bfdc-4ca4-a863-da09f81c09d1"},