{"last_updated":1745129614,"ttl":60,"version":"2.2","data":{"bikes":[{"bike_id":"bbcbf55a-5484-40db-a874-f81e0300c4d9","system_id":"levelo_inurba_marseille","lat":43.25947,"lon":5.40909,"is_reserved":false,"is_disabled":false,"rental_uris":{"android":"levelo://app?vid=bbcbf55a-5484-40db-a874-f81e0300c4d9","ios":"levelo://app?vid=bbcbf55a-5484-40db-a874-f81e0300c4d9"},"vehicle_type_id":"4","last_reported":1745129614,"current_range_meters":2800,"station_id":"ce4bhm92rcd13ifvqglg","pricing_plan_id":"cebpf4jnsgd1na2vs0mg"},{"bike_id":"8b79c857-4e09-4cb1-afaa-82479ab9f712","system_id":"levelo_inurba_marseille","lat":43.30993,"lon":5.38466,"is_reserved":false,"is_disabled":false,"rental_uris":{"android":"levelo://app?vid=8b79c857-4e09-4cb1-afaa-82479ab9f712","ios":"levelo://app?vid=8b79c857-4e09-4cb1-afaa-82479ab9f712"},"vehicle_type_id":"4","last_reported":1745129614,"current_range_meters":2800,"station_id":"","pricing_plan_id":"cebpf4jnsgd1na2vs0mg"},{"bike_id":"0f11303a-09dd-4b6b-b89d-c63519583518","system_id":"levelo_inurba_marseille","lat":43.24169,"lon":5.39738,"is_reserved":false,"is_disabled":false,"rental_uris":{"android":"levelo://app?vid=0f11303a-09dd-4b6b-b89d-c63519583518","ios":"levelo://app?vid=0f11303a-09dd-4b6b-b89d-c63519583518"},"vehicle_type_id":"4","last_reported":1745129614,"current_range_meters":2800,"station_id":"ce4bhn12rcd13ifvqgpg","pricing_plan_id":"cebpf4jnsgd1na2vs0mg"},{"bike_id":"25ecca6c-6c28-492e-adf2-fb31b4629ad6","system_id":"levelo_inurba_marseille","lat":43.26942,"lon":5.40284,"is_reserved":false,"is_disabled":true,"rental_uris":{"android":"levelo://app?vid=25ecca6c-6c28-492e-adf2-fb31b4629ad6","ios":"levelo://app?vid=25ecca6c-6c28-492e-adf2-fb31b4629ad6"},"vehicle_type_id":"4","last_reported":1745129614,"current_range_meters":2800,"station_id":"cjm6bp8fraef2m0cb0m0","pricing_plan_id":"cebpf4jnsgd1na2vs0mg"},{"bike_id":"709c5515-4e73-41f4-a094-b1cb2d9405da","system_id":"levelo_inurba_marseille","lat":43.24177,"lon":5.36407,"is_reserved":false,"is_disabled":false,"rental_uris":{"android":"levelo://app?vid=709c5515-4e73-41f4-a094-b1cb2d9405da","ios":"levelo://app?vid=709c5515-4e73-41f4-a094-b1cb2d9405da"},"vehicle_type_id":"4","last_reported":1745129614,"current_range_meters":2800,"station_id":"cpo36qri1sfpv3e86is0","pricing_plan_id":"cebpf4jnsgd1na2vs0mg"},{"bike_id":"a4ee9808-c56f-429a-bd9e-2837e81985cb","system_id":"levelo_inurba_marseille","lat":43.279916,"lon":5.416599,"is_reserved":false,"is_disabled":true,"rental_uris":{"android":"levelo://app?vid=a4ee9808-c56f-429a-bd9e-2837e81985cb","ios":"levelo://app?vid=a4ee9808-c56f-429a-bd9e-2837e81985cb"},"vehicle_type_id":"4","last_reported":1745129614,"current_range_meters":3200,"station_id":"ce4bho12rcd13ifvqh1g","pricing_plan_id":"cebpf4jnsgd1na2vs0mg"},{"bike_id":"8a6702f5-2603-4da1-b2e2-5f0cb260c889","system_id":"levelo_inurba_marseille","lat":43.27378,"lon":5.36259,"is_reserved":false,"is_disabled":false,"rental_uris":{"android":"levelo://app?vid=8a6702f5-2603-4da1-b2e2-5f0cb260c889","ios":"levelo://app?vid=8a6702f5-2603-4da1-b2e2-5f0cb260c889"},"vehicle_type_id":"4","last_reported":1745129614,"current_range_meters":3200,"station_id":"ce4bhbh2rcd13ifvqeo0","pricing_plan_id":"cebpf4jnsgd1na2vs0mg"},{"bike_id":"4f8584e8-5230-4813-a342-182d62bd3ed6","system_id":"levelo_inurba_marseille","lat":43.28933,"lon":5.38401,"is_reserved":false,"is_disabled":false,"rental_uris":{"android":"levelo://app?vid=4f8584e8-5230-4813-a342-182d62bd3ed6","ios":"levelo://app?vid=4f8584e8-5230-4813-a342-182d62bd3ed6"},"vehicle_type_id":"4","last_reported":1745129614,"current_range_meters":3200,"station_id":"ce4bh612rcd13ifvqe6g","pricing_plan_id":"cebpf4jnsgd1na2vs0mg"},{"bike_id":"38d71541-39fa-44bc-b9fa-dad7cbdc7434","system_id":"levelo_inurba_marseille","lat":43.28726,"lon":5.38664,"is_reserved":false,"is_disabled":false,"rental_uris":{"android":"levelo://app?vid=38d71541-39fa-44bc-b9fa-dad7cbdc7434","ios":"levelo://app?vid=38d71541-39fa-44bc-b9fa-dad7cbdc7434"},"vehicle_type_id":"4","last_reported":1745129614,"current_range_meters":3200,"station_id":"","pricing_plan_id":"cebpf4jnsgd1na2vs0mg"},{"bike_id":"9f99e8d4-d630-4ea3-963a-25e207ceb056","system_id":"levelo_inurba_marseille","lat":43.322853,"lon":5.382758,"is_reserved":false,"is_disabled":false,"rental_uris":{"android":"levelo://app?vid=9f99e8d4-d630-4ea3-963a-25e207ceb056","ios":"levelo://app?vid=9f99e8d4-d630-4ea3-963a-25e207ceb056"},"vehicle_type_id":"4","last_reported":1745129614,"current_range_meters":3200,"station_id":"ce4bhr12rcd13ifvqhqg","pricing_plan_id":"cebpf4jnsgd1na2vs0mg"},{"bike_id":"026d8dad-6ea6-4be6-bbd4-f4f80a573425","system_id":"levelo_inurba_marseille","lat":43.28857,"lon":5.35875,"is_reserved":false,"is_disabled":false,"rental_uris":{"android":"levelo://app?vid=026d8dad-6ea6-4be6-bbd4-f4f80a573425","ios":"levelo://app?vid=026d8dad-6ea6-4be6-bbd4-f4f80a573425"},"vehicle_type_id":"4","last_reported":1745129614,"current_range_meters":3600,"station_id":"ce4bhb12rcd13ifvqem0","pricing_plan_id":"cebpf4jnsgd1na2vs0mg"},{"bike_id":"69d51b66-0085-4fad-9d31-41f4caa5ef3b","system_id":"levelo_inurba_marseille","lat":43.30145,"lon":5.38071,"is_reserved":false,"is_disabled":false,"rental_uris":{"android":"levelo://app?vid=69d51b66-0085-4fad-9d31-41f4caa5ef3b","ios":"levelo://app?vid=69d51b66-0085-4fad-9d31-41f4caa5ef3b"},"vehicle_type_id":"4","last_reported":1745129614,"current_range_meters":3600,"station_id":"ce4bgjp2rcd13ifvqbh0","pricing_plan_id":"cebpf4jnsgd1na2vs0mg"},{"bike_id":"bc102ec6-2089-4f10-b912-1afa9bb6af31","system_id":"levelo_inurba_marseille","lat":43.2845,"lon":5.3589,"is_reserved":false,"is_disabled":false,"rental_uris":{"android":"levelo://app?vid=bc102ec6-2089-4f10-b912-1afa9bb6af31","ios":"levelo://app?vid=bc102ec6-2089-4f10-b912-1afa9bb6af31"},"vehicle_type_id":"4","last_reported":1745129614,"current_range_meters":3600,"station_id":"ce4bhah2rcd13ifvqei0","pricing_plan_id":"cebpf4jnsgd1na2vs0mg"},{"bike_id":"8ff9f10e-8733-4a3a-8b8c-71b67317cfa0","system_id":"levelo_inurba_marseille","lat":43.241588,"lon":5.364009,"is_reserved":false,"is_disabled":false,"rental_uris":{"android":"levelo://app?vid=8ff9f10e-8733-4a3a-8b8c-71b67317cfa0","ios":"levelo://app?vid=8ff9f10e-8733-4a3a-8b8c-71b67317cfa0"},"vehicle_type_id":"4","last_reported":1745129614,"current_range_meters":4000,"station_id":"cpo36qri1sfpv3e86is0","pricing_plan_id":"cebpf4jnsgd1na2vs0mg"},{"bike_id":"fa6cc90c-2177-4288-b4a9-b2676db60c32","system_id":"levelo_inurba_marseille","lat":43.30142,"lon":5.38074,"is_reserved":false,"is_disabled":false,"rental_uris":{"android":"levelo://app?vid=fa6cc90c-2177-4288-b4a9-b2676db60c32","ios":"levelo://app?vid=fa6cc90c-2177-4288-b4a9-b2676db60c32"},"vehicle_type_id":"4","last_reported":1745129614,"current_range_meters":4000,"station_id":"ce4bgjp2rcd13ifvqbh0","pricing_plan_id":"cebpf4jnsgd1na2vs0mg"},{"bike_id":"df982341-d3f1-47bb-bcdf-1054fc116c62","system_id":"levelo_inurba_marseille","lat":43.29767,"lon":5.38046,"is_reserved":false,"is_disabled":true,"rental_uris":{"android":"levelo://app?vid=df982341-d3f1-47bb-bcdf-1054fc116c62","ios":"levelo://app?vid=df982341-d3f1-47bb-bcdf-1054fc116c62"},"vehicle_type_id":"4","last_reported":1745129614,"current_range_meters":4400,"station_id":"ce4bgip2rcd13ifvqbb0","pricing_plan_id":"cebpf4jnsgd1na2vs0mg"},{"bike_id":"276d94a9-b91a-47b5-b4e8-19ed1fdcca68","system_id":"levelo_inurba_marseille","lat":43.29544,"lon":5.42323,"is_reserved":false,"is_disabled":true,"rental_uris":{"android":"levelo://app?vid=276d94a9-b91a-47b5-b4e8-19ed1fdcca68","ios":"levelo://app?vid=276d94a9-b91a-47b5-b4e8-19ed1fdcca68"},"vehicle_type_id":"4","last_reported":1745129614,"current_range_meters":4400,"station_id":"ce4bhph2rcd13ifvqhdg","pricing_plan_id":"cebpf4jnsgd1na2vs0mg"},{"bike_id":"c42c97dc-851b-476d-ba23-67d0582febc0","system_id":"levelo_inurba_marseille","lat":43.303184,"lon":5.404417,"is_reserved":false,"is_disabled":true,"rental_uris":{"android":"levelo://app?vid=c42c97dc-851b-476d-ba23-67d0582febc0","ios":"levelo://app?vid=c42c97dc-851b-476d-ba23-67d0582febc0"},"vehicle_type_id":"4","last_reported":1745129614,"current_range_meters":4400,"station_id":"ce4bh012rcd13ifvqd10","pricing_plan_id":"cebpf4jnsgd1na2vs0mg"},{"bike_id":"4a86d0f8-ff65-4446-9521-1002867a3da0","system_id":"levelo_inurba_marseille","lat":43.24541,"lon":5.39533,"is_reserved":false,"is_disabled":true,"rental_uris":{"android":"levelo://app?vid=4a86d0f8-ff65-4446-9521-1002867a3da0","ios":"levelo://app?vid=4a86d0f8-ff65-4446-9521-1002867a3da0"},"vehicle_type_id":"4","last_reported":1745129614,"current_range_meters":4400,"station_id":"ce4bhlp2rcd13ifvqgjg","pricing_plan_id":"cebpf4jnsgd1na2vs0mg"},{"bike_id":"11b970d9-27b9-4e6f-86a0-cf6dc98382f2","system_id":"levelo_inurba_marseille","lat":43.31126,"lon":5.37778,"is_reserved":false,"is_disabled":false,"rental_uris":{"android":"levelo://app?vid=11b970d9-27b9-4e6f-86a0-cf6dc98382f2","ios":"levelo://app?vid=11b970d9-27b9-4e6f-86a0-cf6dc98382f2"},"vehicle_type_id":"4","last_reported":1745129614,"current_range_meters":4400,"station_id":"ce4bgt92rcd13ifvqcg0","pricing_plan_id":"cebpf4jnsgd1na2vs0mg"},{"bike_id":"491ff9a8-6221-467c-ac1c-ffd341013331","system_id":"levelo_inurba_marseille","lat":43.30479,"lon":5.37905,"is_reserved":false,"is_disabled":false,"rental_uris":{"android":"levelo://app?vid=491ff9a8-6221-467c-ac1c-ffd341013331","ios":"levelo://app?vid=491ff9a8-6221-467c-ac1c-ffd341013331"},"vehicle_type_id":"4","last_reported":1745129614,"current_range_meters":4800,"station_id":"ce4bgup2rcd13ifvqcn0","pricing_plan_id":"cebpf4jnsgd1na2vs0mg"},{"bike_id":"19ada103-4cbd-4062-a809-34f5987a7a6d","system_id":"levelo_inurba_marseille","lat":43.26807,"lon":5.38906,"is_reserved":false,"is_disabled":false,"rental_uris":{"android":"levelo://app?vid=19ada103-4cbd-4062-a809-34f5987a7a6d","ios":"levelo://app?vid=19ada103-4cbd-4062-a809-34f5987a7a6d"},"vehicle_type_id":"4","last_reported":1745129614,"current_range_meters":5600,"station_id":"","pricing_plan_id":"cebpf4jnsgd1na2vs0mg"},{"bike_id":"98133c5f-1713-4ff0-94e5-8b169d954486","system_id":"levelo_inurba_marseille","lat":43.297813,"lon":5.381069,"is_reserved":false,"is_disabled":true,"rental_uris":{"android":"levelo://app?vid=98133c5f-1713-4ff0-94e5-8b169d954486","ios":"levelo://app?vid=98133c5f-1713-4ff0-94e5-8b169d954486"},"vehicle_type_id":"4","last_reported":1745129614,"current_range_meters":5600,"station_id":"ce4bgip2rcd13ifvqbb0","pricing_plan_id":"cebpf4jnsgd1na2vs0mg"},{"bike_id":"a8bb5851-2286-4f11-a2e8-d189dc708342","system_id":"levelo_inurba_marseille","lat":43.28457,"lon":5.35879,"is_reserved":false,"is_disabled":false,"rental_uris":{"android":"levelo://app?vid=a8bb5851-2286-4f11-a2e8-d189dc708342","ios":"levelo://app?vid=a8bb5851-2286-4f11-a2e8-d189dc708342"},"vehicle_type_id":"4","last_reported":1745129614,"current_range_meters":5600,"station_id":"ce4bhah2rcd13ifvqei0","pricing_plan_id":"cebpf4jnsgd1na2vs0mg"},{"bike_id":"4cdb0a0f-6366-43af-85c7-3c43d75a4386","system_id":"levelo_inurba_marseille","lat":43.317968,"lon":5.368114,"is_reserved":false,"is_disabled":false,"rental_uris":{"android":"levelo://app?vid=4cdb0a0f-6366-43af-85c7-3c43d75a4386","ios":"levelo://app?vid=4cdb0a0f-6366-43af-85c7-3c43d75a4386"},"vehicle_type_id":"4","last_reported":1745129614,"current_range_meters":5600,"station_id":"","pricing_plan_id":"cebpf4jnsgd1na2vs0mg"},{"bike_id":"a0ddb0a5-f7f0-4281-aa27-9e82747cc573","system_id":"levelo_inurba_marseille","lat":43.33754,"lon":5.37491,"is_reserved":false,"is_disabled":false,"rental_uris":{"android":"levelo://app?vid=a0ddb0a5-f7f0-4281-aa27-9e82747cc573","ios":"levelo://app?vid=a0ddb0a5-f7f0-4281-aa27-9e82747cc573"},"vehicle_type_id":"4","last_reported":1745129614,"current_range_meters":5600,"station_id":"","pricing_plan_id":"cebpf4jnsgd1na2vs0mg"},{"bike_id":"20b11221-aec4-4875-ab35-21b273d071b9","system_id":"levelo_inurba_marseille","lat":43.3013,"lon":5.39887,"is_reserved":false,"is_disabled":false,"rental_uris":{"android":"levelo://app?vid=20b11221-aec4-4875-ab35-21b273d071b9","ios":"levelo://app?vid=20b11221-aec4-4875-ab35-21b273d071b9"},"vehicle_type_id":"4","last_reported":1745129614,"current_range_meters":6000,"station_id":"ce4bh0h2rcd13ifvqd40","pricing_plan_id":"cebpf4jnsgd1na2vs0mg"},{"bike_id":"a50d757e-2c94-4cff-a759-69879d6cd6fe","system_id":"levelo_inurba_marseille","lat":43.27201,"lon":5.39176,"is_reserved":false,"is_disabled":false,"rental_uris":{"android":"levelo://app?vid=a50d757e-2c94-4cff-a759-69879d6cd6fe","ios":"levelo://app?vid=a50d757e-2c94-4cff-a759-69879d6cd6fe"},"vehicle_type_id":"4","last_reported":1745129614,"current_range_meters":5600,"station_id":"ce4bhhp2rcd13ifvqfm0","pricing_plan_id":"cebpf4jnsgd1na2vs0mg"},{"bike_id":"066f1a3f-2f55-42ac-aa57-b561bb82f13e","system_id":"levelo_inurba_marseille","lat":43.30872,"lon":5.37306,"is_reserved":false,"is_disabled":false,"rental_uris":{"android":"levelo://app?vid=066f1a3f-2f55-42ac-aa57-b561bb82f13e","ios":"levelo://app?vid=066f1a3f-2f55-42ac-aa57-b561bb82f13e"},"vehicle_type_id":"4","last_reported":1745129614,"current_range_meters":6000,"station_id":"","pricing_plan_id":"cebpf4jnsgd1na2vs0mg"},{"bike_id":"c32807f3-5d2b-4a2e-bddd-0b05279898de","system_id":"levelo_inurba_marseille","lat":43.26566,"lon":5.37291,"is_reserved":false,"is_disabled":false,"rental_uris":{"android":"levelo://app?vid=c32807f3-5d2b-4a2e-bddd-0b05279898de","ios":"levelo://app?vid=c32807f3-5d2b-4a2e-bddd-0b05279898de"},"vehicle_type_id":"4","last_reported":1745129614,"current_range_meters":6400,"station_id":"ce4bhg12rcd13ifvqf70","pricing_plan_id":"cebpf4jnsgd1na2vs0mg"},{"bike_id":"9fe8c14c-2d24-41b2-9662-956cdf9f075c","system_id":"levelo_inurba_marseille","lat":43.24472,"lon":5.3693,"is_reserved":false,"is_disabled":false,"rental_uris":{"android":"levelo://app?vid=9fe8c14c-2d24-41b2-9662-956cdf9f075c","ios":"levelo://app?vid=9fe8c14c-2d24-41b2-9662-956cdf9f075c"},"vehicle_type_id":"4","last_reported":1745129614,"current_range_meters":6400,"station_id":"","pricing_plan_id":"cebpf4jnsgd1na2vs0mg"},{"bike_id":"36422801-a6f2-484d-afc0-5800bf49fd3c","system_id":"levelo_inurba_marseille","lat":43.25103,"lon":5.40338,"is_reserved":false,"is_disabled":false,"rental_uris":{"android":"levelo://app?vid=36422801-a6f2-484d-afc0-5800bf49fd3c","ios":"levelo://app?vid=36422801-a6f2-484d-afc0-5800bf49fd3c"},"vehicle_type_id":"4","last_reported":1745129614,"current_range_meters":6400,"station_id":"ce4bhlh2rcd13ifvqgig","pricing_plan_id":"cebpf4jnsgd1na2vs0mg"},{"bike_id":"c65c47f4-2c59-4bf8-a48e-17b4cad45063","system_id":"levelo_inurba_marseille","lat":43.24677,"lon":5.38163,"is_reserved":false,"is_disabled":false,"rental_uris":{"android":"levelo://app?vid=c65c47f4-2c59-4bf8-a48e-17b4cad45063","ios":"levelo://app?vid=c65c47f4-2c59-4bf8-a48e-17b4cad45063"},"vehicle_type_id":"4","last_reported":1745129614,"current_range_meters":6400,"station_id":"ce4bhih2rcd13ifvqfr0","pricing_plan_id":"cebpf4jnsgd1na2vs0mg"},{"bike_id":"f6ba2129-4c99-433a-9ce5-8a3893340f52","system_id":"levelo_inurba_marseille","lat":43.24175,"lon":5.36394,"is_reserved":false,"is_disabled":false,"rental_uris":{"android":"levelo://app?vid=f6ba2129-4c99-433a-9ce5-8a3893340f52","ios":"levelo://app?vid=f6ba2129-4c99-433a-9ce5-8a3893340f52"},"vehicle_type_id":"4","last_reported":1745129614,"current_range_meters":6400,"station_id":"cpo36qri1sfpv3e86is0","pricing_plan_id":"cebpf4jnsgd1na2vs0mg"},{"bike_id":"f3db6b84-95ea-47eb-b4cd-d586544348cb","system_id":"levelo_inurba_marseille","lat":43.24178,"lon":5.36425,"is_reserved":false,"is_disabled":false,"rental_uris":{"android":"levelo://app?vid=f3db6b84-95ea-47eb-b4cd-d586544348cb","ios":"levelo://app?vid=f3db6b84-95ea-47eb-b4cd-d586544348cb"},"vehicle_type_id":"4","last_reported":1745129614,"current_range_meters":6400,"station_id":"cpo36qri1sfpv3e86is0","pricing_plan_id":"cebpf4jnsgd1na2vs0mg"},{"bike_id":"60c589e9-bda5-4065-bda6-9b95d6b63cbc","system_id":"levelo_inurba_marseille","lat":43.28607,"lon":5.37094,"is_reserved":false,"is_disabled":false,"rental_uris":{"android":"levelo://app?vid=60c589e9-bda5-4065-bda6-9b95d6b63cbc","ios":"levelo://app?vid=60c589e9-bda5-4065-bda6-9b95d6b63cbc"},"vehicle_type_id":"4","last_reported":1745129614,"current_range_meters":6400,"station_id":"ce4bht12rcd13ifvqi60","pricing_plan_id":"cebpf4jnsgd1na2vs0mg"},{"bike_id":"5bf8dc27-228d-4b50-aa63-37a30cdf7883","system_id":"levelo_inurba_marseille","lat":43.32336,"lon":5.40614,"is_reserved":false,"is_disabled":false,"rental_uris":{"android":"levelo://app?vid=5bf8dc27-228d-4b50-aa63-37a30cdf7883","ios":"levelo://app?vid=5bf8dc27-228d-4b50-aa63-37a30cdf7883"},"vehicle_type_id":"4","last_reported":1745129614,"current_range_meters":6400,"station_id":"ce4bhq92rcd13ifvqhjg","pricing_plan_id":"cebpf4jnsgd1na2vs0mg"},{"bike_id":"56ed799a-1c53-4964-9d56-527b686ed11d","system_id":"levelo_inurba_marseille","lat":43.27214,"lon":5.39186,"is_reserved":false,"is_disabled":false,"rental_uris":{"android":"levelo://app?vid=56ed799a-1c53-4964-9d56-527b686ed11d","ios":"levelo://app?vid=56ed799a-1c53-4964-9d56-527b686ed11d"},"vehicle_type_id":"4","last_reported":1745129614,"current_range_meters":6400,"station_id":"ce4bhhp2rcd13ifvqfm0","pricing_plan_id":"cebpf4jnsgd1na2vs0mg"},{"bike_id":"35f0a6e1-f9a9-47ee-bab6-2641cdd8ae57","system_id":"levelo_inurba_marseille","lat":43.27309,"lon":5.39134,"is_reserved":false,"is_disabled":true,"rental_uris":{"android":"levelo://app?vid=35f0a6e1-f9a9-47ee-bab6-2641cdd8ae57","ios":"levelo://app?vid=35f0a6e1-f9a9-47ee-bab6-2641cdd8ae57"},"vehicle_type_id":"4","last_reported":1745129614,"current_range_meters":6800,"station_id":"ce4bhgp2rcd13ifvqfe0","pricing_plan_id":"cebpf4jnsgd1na2vs0mg"},{"bike_id":"82cf97f6-2d10-439b-a6f0-f962bacaaf34","system_id":"levelo_inurba_marseille","lat":43.32356,"lon":5.3891,"is_reserved":false,"is_disabled":false,"rental_uris":{"android":"levelo://app?vid=82cf97f6-2d10-439b-a6f0-f962bacaaf34","ios":"levelo://app?vid=82cf97f6-2d10-439b-a6f0-f962bacaaf34"},"vehicle_type_id":"4","last_reported":1745129614,"current_range_meters":6800,"station_id":"ce4bhqp2rcd13ifvqhog","pricing_plan_id":"cebpf4jnsgd1na2vs0mg"},{"bike_id":"0b40943d-b526-41fb-810d-35e7e3139bd0","system_id":"levelo_inurba_marseille","lat":43.30689,"lon":5.39255,"is_reserved":false,"is_disabled":false,"rental_uris":{"android":"levelo://app?vid=0b40943d-b526-41fb-810d-35e7e3139bd0","ios":"levelo://app?vid=0b40943d-b526-41fb-810d-35e7e3139bd0"},"vehicle_type_id":"4","last_reported":1745129614,"current_range_meters":6800,"station_id":"","pricing_plan_id":"cebpf4jnsgd1na2vs0mg"},{"bike_id":"a2a6f098-8d58-42f2-80ae-d26a0e0f3ac1","system_id":"levelo_inurba_marseille","lat":43.30532,"lon":5.40151,"is_reserved":false,"is_disabled":false,"rental_uris":{"android":"levelo://app?vid=a2a6f098-8d58-42f2-80ae-d26a0e0f3ac1","ios":"levelo://app?vid=a2a6f098-8d58-42f2-80ae-d26a0e0f3ac1"},"vehicle_type_id":"4","last_reported":1745129614,"current_range_meters":6800,"station_id":"","pricing_plan_id":"cebpf4jnsgd1na2vs0mg"},{"bike_id":"238863de-7163-4a21-a2c9-990b68fd6ded","system_id":"levelo_inurba_marseille","lat":43.23969,"lon":5.36621,"is_reserved":false,"is_disabled":false,"rental_uris":{"android":"levelo://app?vid=238863de-7163-4a21-a2c9-990b68fd6ded","ios":"levelo://app?vid=238863de-7163-4a21-a2c9-990b68fd6ded"},"vehicle_type_id":"4","last_reported":1745129614,"current_range_meters":7200,"station_id":"ce4bhi12rcd13ifvqfp0","pricing_plan_id":"cebpf4jnsgd1na2vs0mg"},{"bike_id":"0324153e-f381-4cc6-b500-7d19d04a59fc","system_id":"levelo_inurba_marseille","lat":43.313632,"lon":5.384965,"is_reserved":false,"is_disabled":false,"rental_uris":{"android":"levelo://app?vid=0324153e-f381-4cc6-b500-7d19d04a59fc","ios":"levelo://app?vid=0324153e-f381-4cc6-b500-7d19d04a59fc"},"vehicle_type_id":"4","last_reported":1745129614,"current_range_meters":7200,"station_id":"ce4bgt92rcd13ifvqcf0","pricing_plan_id":"cebpf4jnsgd1na2vs0mg"},{"bike_id":"98dc27ee-79b6-49d6-9af6-5935a0dab5f2","system_id":"levelo_inurba_marseille","lat":43.30402,"lon":5.38892,"is_reserved":false,"is_disabled":false,"rental_uris":{"android":"levelo://app?vid=98dc27ee-79b6-49d6-9af6-5935a0dab5f2","ios":"levelo://app?vid=98dc27ee-79b6-49d6-9af6-5935a0dab5f2"},"vehicle_type_id":"4","last_reported":1745129614,"current_range_meters":7200,"station_id":"ce4bgk12rcd13ifvqbi0","pricing_plan_id":"cebpf4jnsgd1na2vs0mg"},{"bike_id":"6246c52b-0de2-4a85-bc22-8792f41632f9","system_id":"levelo_inurba_marseille","lat":43.274933,"lon":5.424557,"is_reserved":false,"is_disabled":false,"rental_uris":{"android":"levelo://app?vid=6246c52b-0de2-4a85-bc22-8792f41632f9","ios":"levelo://app?vid=6246c52b-0de2-4a85-bc22-8792f41632f9"},"vehicle_type_id":"4","last_reported":1745129614,"current_range_meters":7200,"station_id":"ce4bhn92rcd13ifvqgrg","pricing_plan_id":"cebpf4jnsgd1na2vs0mg"},{"bike_id":"b52a1751-28c1-4412-9819-bb1cff38059d","system_id":"levelo_inurba_marseille","lat":43.2554,"lon":5.40646,"is_reserved":false,"is_disabled":false,"rental_uris":{"android":"levelo://app?vid=b52a1751-28c1-4412-9819-bb1cff38059d","ios":"levelo://app?vid=b52a1751-28c1-4412-9819-bb1cff38059d"},"vehicle_type_id":"4","last_reported":1745129614,"current_range_meters":7200,"station_id":"","pricing_plan_id":"cebpf4jnsgd1na2vs0mg"},{"bike_id":"506029f3-934b-4b14-bf28-b9c4802540f9","system_id":"levelo_inurba_marseille","lat":43.23196,"lon":5.355559,"is_reserved":false,"is_disabled":false,"rental_uris":{"android":"levelo://app?vid=506029f3-934b-4b14-bf28-b9c4802540f9","ios":"levelo://app?vid=506029f3-934b-4b14-bf28-b9c4802540f9"},"vehicle_type_id":"4","last_reported":1745129614,"current_range_meters":7200,"station_id":"ce4bhu92rcd13ifvqi70","pricing_plan_id":"cebpf4jnsgd1na2vs0mg"},{"bike_id":"7fc6de1b-7d8b-41c1-99e8-6fa39f3491b3","system_id":"levelo_inurba_marseille","lat":43.30903,"lon":5.37222,"is_reserved":false,"is_disabled":false,"rental_uris":{"android":"levelo://app?vid=7fc6de1b-7d8b-41c1-99e8-6fa39f3491b3","ios":"levelo://app?vid=7fc6de1b-7d8b-41c1-99e8-6fa39f3491b3"},"vehicle_type_id":"4","last_reported":1745129614,"current_range_meters":7200,"station_id":"ce4bguh2rcd13ifvqckg","pricing_plan_id":"cebpf4jnsgd1na2vs0mg"},{"bike_id":"1341fefe-da6d-47da-befe-0533c944921c","system_id":"levelo_inurba_marseille","lat":43.31044,"lon":5.38338,"is_reserved":false,"is_disabled":false,"rental_uris":{"android":"levelo://app?vid=1341fefe-da6d-47da-befe-0533c944921c","ios":"levelo://app?vid=1341fefe-da6d-47da-befe-0533c944921c"},"vehicle_type_id":"4","last_reported":1745129614,"current_range_meters":7200,"station_id":"ce4bgv92rcd13ifvqcr0","pricing_plan_id":"cebpf4jnsgd1na2vs0mg"},{"bike_id":"06a4005b-b24a-4a6d-b0ac-dcf0e9ac719f","system_id":"levelo_inurba_marseille","lat":43.26196,"lon":5.37921,"is_reserved":false,"is_disabled":false,"rental_uris":{"android":"levelo://app?vid=06a4005b-b24a-4a6d-b0ac-dcf0e9ac719f","ios":"levelo://app?vid=06a4005b-b24a-4a6d-b0ac-dcf0e9ac719f"},"vehicle_type_id":"4","last_reported":1745129614,"current_range_meters":7200,"station_id":"ce4bhjp2rcd13ifvqg90","pricing_plan_id":"cebpf4jnsgd1na2vs0mg"},{"bike_id":"2106afa7-e06f-4e8b-a40f-f48ffd306df4","system_id":"levelo_inurba_marseille","lat":43.30642,"lon":5.400915,"is_reserved":false,"is_disabled":false,"rental_uris":{"android":"levelo://app?vid=2106afa7-e06f-4e8b-a40f-f48ffd306df4","ios":"levelo://app?vid=2106afa7-e06f-4e8b-a40f-f48ffd306df4"},"vehicle_type_id":"4","last_reported":1745129614,"current_range_meters":7200,"station_id":"ce4bh112rcd13ifvqda0","pricing_plan_id":"cebpf4jnsgd1na2vs0mg"},{"bike_id":"6c30e091-3528-44fd-8a69-703e2e6ecfc4","system_id":"levelo_inurba_marseille","lat":43.23966,"lon":5.36628,"is_reserved":false,"is_disabled":false,"rental_uris":{"android":"levelo://app?vid=6c30e091-3528-44fd-8a69-703e2e6ecfc4","ios":"levelo://app?vid=6c30e091-3528-44fd-8a69-703e2e6ecfc4"},"vehicle_type_id":"4","last_reported":1745129614,"current_range_meters":8000,"station_id":"ce4bhi12rcd13ifvqfp0","pricing_plan_id":"cebpf4jnsgd1na2vs0mg"},{"bike_id":"613a352f-e21e-411f-bca1-4a1d61d7df7a","system_id":"levelo_inurba_marseille","lat":43.32361,"lon":5.38914,"is_reserved":false,"is_disabled":false,"rental_uris":{"android":"levelo://app?vid=613a352f-e21e-411f-bca1-4a1d61d7df7a","ios":"levelo://app?vid=613a352f-e21e-411f-bca1-4a1d61d7df7a"},"vehicle_type_id":"4","last_reported":1745129614,"current_range_meters":8000,"station_id":"ce4bhqp2rcd13ifvqhog","pricing_plan_id":"cebpf4jnsgd1na2vs0mg"},{"bike_id":"1eaca8f5-0017-418a-9bfc-52185bf67513","system_id":"levelo_inurba_marseille","lat":43.33736,"lon":5.39193,"is_reserved":false,"is_disabled":false,"rental_uris":{"android":"levelo://app?vid=1eaca8f5-0017-418a-9bfc-52185bf67513","ios":"levelo://app?vid=1eaca8f5-0017-418a-9bfc-52185bf67513"},"vehicle_type_id":"4","last_reported":1745129614,"current_range_meters":8000,"station_id":"ce4bhr92rcd13ifvqhsg","pricing_plan_id":"cebpf4jnsgd1na2vs0mg"},{"bike_id":"47b1b77a-ddc5-4d70-b17f-7c9444188ea1","system_id":"levelo_inurba_marseille","lat":43.30651,"lon":5.40077,"is_reserved":false,"is_disabled":false,"rental_uris":{"android":"levelo://app?vid=47b1b77a-ddc5-4d70-b17f-7c9444188ea1","ios":"levelo://app?vid=47b1b77a-ddc5-4d70-b17f-7c9444188ea1"},"vehicle_type_id":"4","last_reported":1745129614,"current_range_meters":8000,"station_id":"ce4bh112rcd13ifvqda0","pricing_plan_id":"cebpf4jnsgd1na2vs0mg"},{"bike_id":"186380b9-3dab-457b-b648-71d123fa0368","system_id":"levelo_inurba_marseille","lat":43.250944,"lon":5.403627,"is_reserved":false,"is_disabled":true,"rental_uris":{"android":"levelo://app?vid=186380b9-3dab-457b-b648-71d123fa0368","ios":"levelo://app?vid=186380b9-3dab-457b-b648-71d123fa0368"},"vehicle_type_id":"4","last_reported":1745129614,"current_range_meters":8000,"station_id":"ce4bhlh2rcd13ifvqgig","pricing_plan_id":"cebpf4jnsgd1na2vs0mg"},{"bike_id":"d2ba4413-c35f-41b1-8baf-f83e6001a359","system_id":"levelo_inurba_marseille","lat":43.290263,"lon":5.386515,"is_reserved":false,"is_disabled":true,"rental_uris":{"android":"levelo://app?vid=d2ba4413-c35f-41b1-8baf-f83e6001a359","ios":"levelo://app?vid=d2ba4413-c35f-41b1-8baf-f83e6001a359"},"vehicle_type_id":"4","last_reported":1745129614,"current_range_meters":8000,"station_id":"ce4bh4p2rcd13ifvqe0g","pricing_plan_id":"cebpf4jnsgd1na2vs0mg"},{"bike_id":"4f7d7a48-9ed4-49ae-98c3-6d5ae3d0a41a","system_id":"levelo_inurba_marseille","lat":43.2293,"lon":5.35407,"is_reserved":false,"is_disabled":false,"rental_uris":{"android":"levelo://app?vid=4f7d7a48-9ed4-49ae-98c3-6d5ae3d0a41a","ios":"levelo://app?vid=4f7d7a48-9ed4-49ae-98c3-6d5ae3d0a41a"},"vehicle_type_id":"4","last_reported":1745129614,"current_range_meters":8000,"station_id":"cpo3532slgdg3j2ikp40","pricing_plan_id":"cebpf4jnsgd1na2vs0mg"},{"bike_id":"cdddb7c2-2a60-4a01-956c-b995fd83a515","system_id":"levelo_inurba_marseille","lat":43.27211,"lon":5.39178,"is_reserved":false,"is_disabled":false,"rental_uris":{"android":"levelo://app?vid=cdddb7c2-2a60-4a01-956c-b995fd83a515","ios":"levelo://app?vid=cdddb7c2-2a60-4a01-956c-b995fd83a515"},"vehicle_type_id":"4","last_reported":1745129614,"current_range_meters":8000,"station_id":"ce4bhhp2rcd13ifvqfm0","pricing_plan_id":"cebpf4jnsgd1na2vs0mg"},{"bike_id":"0eb48670-4dfe-4213-9391-f02f12d1b48a","system_id":"levelo_inurba_marseille","lat":43.27943,"lon":5.41045,"is_reserved":false,"is_disabled":false,"rental_uris":{"android":"levelo://app?vid=0eb48670-4dfe-4213-9391-f02f12d1b48a","ios":"levelo://app?vid=0eb48670-4dfe-4213-9391-f02f12d1b48a"},"vehicle_type_id":"4","last_reported":1745129614,"current_range_meters":8400,"station_id":"ce4bhnp2rcd13ifvqh0g","pricing_plan_id":"cebpf4jnsgd1na2vs0mg"},{"bike_id":"0fb20667-dfce-4ada-8493-bff38cc51e0c","system_id":"levelo_inurba_marseille","lat":43.29795,"lon":5.40422,"is_reserved":false,"is_disabled":false,"rental_uris":{"android":"levelo://app?vid=0fb20667-dfce-4ada-8493-bff38cc51e0c","ios":"levelo://app?vid=0fb20667-dfce-4ada-8493-bff38cc51e0c"},"vehicle_type_id":"4","last_reported":1745129614,"current_range_meters":8400,"station_id":"ce4bh112rcd13ifvqd90","pricing_plan_id":"cebpf4jnsgd1na2vs0mg"},{"bike_id":"06d20799-fe4e-4e2c-aa01-a6a09b9e4c30","system_id":"levelo_inurba_marseille","lat":43.251226,"lon":5.403264,"is_reserved":false,"is_disabled":false,"rental_uris":{"android":"levelo://app?vid=06d20799-fe4e-4e2c-aa01-a6a09b9e4c30","ios":"levelo://app?vid=06d20799-fe4e-4e2c-aa01-a6a09b9e4c30"},"vehicle_type_id":"4","last_reported":1745129614,"current_range_meters":8400,"station_id":"ce4bhlh2rcd13ifvqgig","pricing_plan_id":"cebpf4jnsgd1na2vs0mg"},{"bike_id":"1965f819-3778-4654-96e5-aaaf9c36cc08","system_id":"levelo_inurba_marseille","lat":43.30369,"lon":5.42473,"is_reserved":false,"is_disabled":false,"rental_uris":{"android":"levelo://app?vid=1965f819-3778-4654-96e5-aaaf9c36cc08","ios":"levelo://app?vid=1965f819-3778-4654-96e5-aaaf9c36cc08"},"vehicle_type_id":"4","last_reported":1745129614,"current_range_meters":8400,"station_id":"ce4bhoh2rcd13ifvqh6g","pricing_plan_id":"cebpf4jnsgd1na2vs0mg"},{"bike_id":"6c199f55-ed16-463f-8fcd-82b2cade7ade","system_id":"levelo_inurba_marseille","lat":43.323632,"lon":5.367629,"is_reserved":false,"is_disabled":false,"rental_uris":{"android":"levelo://app?vid=6c199f55-ed16-463f-8fcd-82b2cade7ade","ios":"levelo://app?vid=6c199f55-ed16-463f-8fcd-82b2cade7ade"},"vehicle_type_id":"4","last_reported":1745129614,"current_range_meters":8400,"station_id":"ce4bhsh2rcd13ifvqi2g","pricing_plan_id":"cebpf4jnsgd1na2vs0mg"},{"bike_id":"8a45211d-408b-43cb-ae76-f907d90fcf58","system_id":"levelo_inurba_marseille","lat":43.33726,"lon":5.39184,"is_reserved":false,"is_disabled":false,"rental_uris":{"android":"levelo://app?vid=8a45211d-408b-43cb-ae76-f907d90fcf58","ios":"levelo://app?vid=8a45211d-408b-43cb-ae76-f907d90fcf58"},"vehicle_type_id":"4","last_reported":1745129614,"current_range_meters":8400,"station_id":"ce4bhr92rcd13ifvqhsg","pricing_plan_id":"cebpf4jnsgd1na2vs0mg"},{"bike_id":"931800f0-f5ae-42dc-9401-5ef75e1edc12","system_id":"levelo_inurba_marseille","lat":43.2737,"lon":5.41413,"is_reserved":false,"is_disabled":false,"rental_uris":{"android":"levelo://app?vid=931800f0-f5ae-42dc-9401-5ef75e1edc12","ios":"levelo://app?vid=931800f0-f5ae-42dc-9401-5ef75e1edc12"},"vehicle_type_id":"4","last_reported":1745129614,"current_range_meters":8400,"station_id":"","pricing_plan_id":"cebpf4jnsgd1na2vs0mg"},{"bike_id":"22583896-a653-48d4-8b37-6cfca0e7be93","system_id":"levelo_inurba_marseille","lat":43.21194,"lon":5.35085,"is_reserved":false,"is_disabled":false,"rental_uris":{"android":"levelo://app?vid=22583896-a653-48d4-8b37-6cfca0e7be93","ios":"levelo://app?vid=22583896-a653-48d4-8b37-6cfca0e7be93"},"vehicle_type_id":"4","last_reported":1745129614,"current_range_meters":8400,"station_id":"st_cvj6sg6p6f1abm77japg","pricing_plan_id":"cebpf4jnsgd1na2vs0mg"},{"bike_id":"e970a77c-97b4-4b75-8155-7044bacc8b02","system_id":"levelo_inurba_marseille","lat":43.25121,"lon":5.40315,"is_reserved":false,"is_disabled":false,"rental_uris":{"android":"levelo://app?vid=e970a77c-97b4-4b75-8155-7044bacc8b02","ios":"levelo://app?vid=e970a77c-97b4-4b75-8155-7044bacc8b02"},"vehicle_type_id":"4","last_reported":1745129614,"current_range_meters":8800,"station_id":"ce4bhlh2rcd13ifvqgig","pricing_plan_id":"cebpf4jnsgd1na2vs0mg"},{"bike_id":"545891ed-e617-4e64-afe2-89ad3a952c60","system_id":"levelo_inurba_marseille","lat":43.30231,"lon":5.40068,"is_reserved":false,"is_disabled":false,"rental_uris":{"android":"levelo://app?vid=545891ed-e617-4e64-afe2-89ad3a952c60","ios":"levelo://app?vid=545891ed-e617-4e64-afe2-89ad3a952c60"},"vehicle_type_id":"4","last_reported":1745129614,"current_range_meters":8800,"station_id":"","pricing_plan_id":"cebpf4jnsgd1na2vs0mg"},{"bike_id":"106c5265-7c1a-45be-9031-3c55f8880986","system_id":"levelo_inurba_marseille","lat":43.26202,"lon":5.37947,"is_reserved":false,"is_disabled":false,"rental_uris":{"android":"levelo://app?vid=106c5265-7c1a-45be-9031-3c55f8880986","ios":"levelo://app?vid=106c5265-7c1a-45be-9031-3c55f8880986"},"vehicle_type_id":"4","last_reported":1745129614,"current_range_meters":8800,"station_id":"ce4bhjp2rcd13ifvqg90","pricing_plan_id":"cebpf4jnsgd1na2vs0mg"},{"bike_id":"6b2a2f68-fd74-4a24-a495-23dd8d3467f4","system_id":"levelo_inurba_marseille","lat":43.21199,"lon":5.35103,"is_reserved":false,"is_disabled":false,"rental_uris":{"android":"levelo://app?vid=6b2a2f68-fd74-4a24-a495-23dd8d3467f4","ios":"levelo://app?vid=6b2a2f68-fd74-4a24-a495-23dd8d3467f4"},"vehicle_type_id":"4","last_reported":1745129614,"current_range_meters":8800,"station_id":"st_cvj6sg6p6f1abm77japg","pricing_plan_id":"cebpf4jnsgd1na2vs0mg"},{"bike_id":"bceca376-b320-4023-9d3c-27333a171d6e","system_id":"levelo_inurba_marseille","lat":43.31704,"lon":5.37776,"is_reserved":false,"is_disabled":false,"rental_uris":{"android":"levelo://app?vid=bceca376-b320-4023-9d3c-27333a171d6e","ios":"levelo://app?vid=bceca376-b320-4023-9d3c-27333a171d6e"},"vehicle_type_id":"4","last_reported":1745129614,"current_range_meters":8800,"station_id":"ce4bgth2rcd13ifvqch0","pricing_plan_id":"cebpf4jnsgd1na2vs0mg"},{"bike_id":"97e50bb0-9a70-481b-b370-e509345e710a","system_id":"levelo_inurba_marseille","lat":43.28049,"lon":5.36895,"is_reserved":false,"is_disabled":true,"rental_uris":{"android":"levelo://app?vid=97e50bb0-9a70-481b-b370-e509345e710a","ios":"levelo://app?vid=97e50bb0-9a70-481b-b370-e509345e710a"},"vehicle_type_id":"4","last_reported":1745129614,"current_range_meters":9200,"station_id":"ce4bha12rcd13ifvqef0","pricing_plan_id":"cebpf4jnsgd1na2vs0mg"},{"bike_id":"20aab713-b807-4cab-a272-9ffba5cba397","system_id":"levelo_inurba_marseille","lat":43.30283,"lon":5.38961,"is_reserved":false,"is_disabled":false,"rental_uris":{"android":"levelo://app?vid=20aab713-b807-4cab-a272-9ffba5cba397","ios":"levelo://app?vid=20aab713-b807-4cab-a272-9ffba5cba397"},"vehicle_type_id":"4","last_reported":1745129614,"current_range_meters":9200,"station_id":"","pricing_plan_id":"cebpf4jnsgd1na2vs0mg"},{"bike_id":"426e3845-45cf-47b5-8982-42b519c537da","system_id":"levelo_inurba_marseille","lat":43.23193,"lon":5.3555,"is_reserved":false,"is_disabled":false,"rental_uris":{"android":"levelo://app?vid=426e3845-45cf-47b5-8982-42b519c537da","ios":"levelo://app?vid=426e3845-45cf-47b5-8982-42b519c537da"},"vehicle_type_id":"4","last_reported":1745129614,"current_range_meters":9200,"station_id":"ce4bhu92rcd13ifvqi70","pricing_plan_id":"cebpf4jnsgd1na2vs0mg"},{"bike_id":"7ae6e1fe-57bd-40fd-b69d-2763d10a2319","system_id":"levelo_inurba_marseille","lat":43.31127,"lon":5.37804,"is_reserved":false,"is_disabled":false,"rental_uris":{"android":"levelo://app?vid=7ae6e1fe-57bd-40fd-b69d-2763d10a2319","ios":"levelo://app?vid=7ae6e1fe-57bd-40fd-b69d-2763d10a2319"},"vehicle_type_id":"4","last_reported":1745129614,"current_range_meters":9200,"station_id":"ce4bgt92rcd13ifvqcg0","pricing_plan_id":"cebpf4jnsgd1na2vs0mg"},{"bike_id":"f0b6af0d-1cbf-47a3-af07-dab09fabbbf0","system_id":"levelo_inurba_marseille","lat":43.23193,"lon":5.35551,"is_reserved":false,"is_disabled":false,"rental_uris":{"android":"levelo://app?vid=f0b6af0d-1cbf-47a3-af07-dab09fabbbf0","ios":"levelo://app?vid=f0b6af0d-1cbf-47a3-af07-dab09fabbbf0"},"vehicle_type_id":"4","last_reported":1745129614,"current_range_meters":9200,"station_id":"ce4bhu92rcd13ifvqi70","pricing_plan_id":"cebpf4jnsgd1na2vs0mg"},{"bike_id":"58a86d93-d682-412a-acc9-83b24b69b362","system_id":"levelo_inurba_marseille","lat":43.30966,"lon":5.38313,"is_reserved":false,"is_disabled":false,"rental_uris":{"android":"levelo://app?vid=58a86d93-d682-412a-acc9-83b24b69b362","ios":"levelo://app?vid=58a86d93-d682-412a-acc9-83b24b69b362"},"vehicle_type_id":"4","last_reported":1745129614,"current_range_meters":9200,"station_id":"","pricing_plan_id":"cebpf4jnsgd1na2vs0mg"},{"bike_id":"51e55992-ca7d-4a75-944a-9e8d83703087","system_id":"levelo_inurba_marseille","lat":43.28599,"lon":5.37071,"is_reserved":false,"is_disabled":false,"rental_uris":{"android":"levelo://app?vid=51e55992-ca7d-4a75-944a-9e8d83703087","ios":"levelo://app?vid=51e55992-ca7d-4a75-944a-9e8d83703087"},"vehicle_type_id":"4","last_reported":1745129614,"current_range_meters":9200,"station_id":"ce4bht12rcd13ifvqi60","pricing_plan_id":"cebpf4jnsgd1na2vs0mg"},{"bike_id":"0b3b12d2-06ad-4a6c-a55e-6a171643db3b","system_id":"levelo_inurba_marseille","lat":43.305881,"lon":5.393537,"is_reserved":false,"is_disabled":false,"rental_uris":{"android":"levelo://app?vid=0b3b12d2-06ad-4a6c-a55e-6a171643db3b","ios":"levelo://app?vid=0b3b12d2-06ad-4a6c-a55e-6a171643db3b"},"vehicle_type_id":"4","last_reported":1745129614,"current_range_meters":9200,"station_id":"ce4bh0p2rcd13ifvqd80","pricing_plan_id":"cebpf4jnsgd1na2vs0mg"},{"bike_id":"138d6608-886e-4863-a664-7df6e5cc9a47","system_id":"levelo_inurba_marseille","lat":43.326415,"lon":5.422074,"is_reserved":false,"is_disabled":false,"rental_uris":{"android":"levelo://app?vid=138d6608-886e-4863-a664-7df6e5cc9a47","ios":"levelo://app?vid=138d6608-886e-4863-a664-7df6e5cc9a47"},"vehicle_type_id":"4","last_reported":1745129614,"current_range_meters":9200,"station_id":"","pricing_plan_id":"cebpf4jnsgd1na2vs0mg"},{"bike_id":"7f545bbc-a0a7-4368-8a07-6a6863048111","system_id":"levelo_inurba_marseille","lat":43.22932,"lon":5.35409,"is_reserved":false,"is_disabled":false,"rental_uris":{"android":"levelo://app?vid=7f545bbc-a0a7-4368-8a07-6a6863048111","ios":"levelo://app?vid=7f545bbc-a0a7-4368-8a07-6a6863048111"},"vehicle_type_id":"4","last_reported":1745129614,"current_range_meters":9600,"station_id":"cpo3532slgdg3j2ikp40","pricing_plan_id":"cebpf4jnsgd1na2vs0mg"},{"bike_id":"23b5cb82-5763-4950-a99c-24564a94eea9","system_id":"levelo_inurba_marseille","lat":43.30593,"lon":5.39372,"is_reserved":false,"is_disabled":false,"rental_uris":{"android":"levelo://app?vid=23b5cb82-5763-4950-a99c-24564a94eea9","ios":"levelo://app?vid=23b5cb82-5763-4950-a99c-24564a94eea9"},"vehicle_type_id":"4","last_reported":1745129614,"current_range_meters":9600,"station_id":"ce4bh0p2rcd13ifvqd80","pricing_plan_id":"cebpf4jnsgd1na2vs0mg"},{"bike_id":"6565ca44-2e63-4f42-a847-09fa2bdb37f3","system_id":"levelo_inurba_marseille","lat":43.31997,"lon":5.38148,"is_reserved":false,"is_disabled":true,"rental_uris":{"android":"levelo://app?vid=6565ca44-2e63-4f42-a847-09fa2bdb37f3","ios":"levelo://app?vid=6565ca44-2e63-4f42-a847-09fa2bdb37f3"},"vehicle_type_id":"4","last_reported":1745129614,"current_range_meters":9600,"station_id":"ce4bhr12rcd13ifvqhpg","pricing_plan_id":"cebpf4jnsgd1na2vs0mg"},{"bike_id":"a22db09a-240e-40e4-acbb-1c68666bfc1f","system_id":"levelo_inurba_marseille","lat":43.25116,"lon":5.4033,"is_reserved":false,"is_disabled":false,"rental_uris":{"android":"levelo://app?vid=a22db09a-240e-40e4-acbb-1c68666bfc1f","ios":"levelo://app?vid=a22db09a-240e-40e4-acbb-1c68666bfc1f"},"vehicle_type_id":"4","last_reported":1745129614,"current_range_meters":9600,"station_id":"ce4bhlh2rcd13ifvqgig","pricing_plan_id":"cebpf4jnsgd1na2vs0mg"},{"bike_id":"13f3fb34-9413-413f-89a9-b1ef385d22f2","system_id":"levelo_inurba_marseille","lat":43.239594,"lon":5.366388,"is_reserved":false,"is_disabled":false,"rental_uris":{"android":"levelo://app?vid=13f3fb34-9413-413f-89a9-b1ef385d22f2","ios":"levelo://app?vid=13f3fb34-9413-413f-89a9-b1ef385d22f2"},"vehicle_type_id":"4","last_reported":1745129614,"current_range_meters":9600,"station_id":"ce4bhi12rcd13ifvqfp0","pricing_plan_id":"cebpf4jnsgd1na2vs0mg"},{"bike_id":"4500bcf7-bacd-47ce-8256-01f941bfb534","system_id":"levelo_inurba_marseille","lat":43.29483,"lon":5.37423,"is_reserved":false,"is_disabled":true,"rental_uris":{"android":"levelo://app?vid=4500bcf7-bacd-47ce-8256-01f941bfb534","ios":"levelo://app?vid=4500bcf7-bacd-47ce-8256-01f941bfb534"},"vehicle_type_id":"4","last_reported":1745129614,"current_range_meters":10000,"station_id":"ce4bgkp2rcd13ifvqbmg","pricing_plan_id":"cebpf4jnsgd1na2vs0mg"},{"bike_id":"6d789666-9b6c-42c1-a765-b95cbb817417","system_id":"levelo_inurba_marseille","lat":43.231436,"lon":5.437269,"is_reserved":false,"is_disabled":false,"rental_uris":{"android":"levelo://app?vid=6d789666-9b6c-42c1-a765-b95cbb817417","ios":"levelo://app?vid=6d789666-9b6c-42c1-a765-b95cbb817417"},"vehicle_type_id":"4","last_reported":1745129614,"current_range_meters":10000,"station_id":"ce4bhmp2rcd13ifvqgog","pricing_plan_id":"cebpf4jnsgd1na2vs0mg"},{"bike_id":"24213b37-b766-4d9c-a174-f6bf34920497","system_id":"levelo_inurba_marseille","lat":43.28469,"lon":5.384178,"is_reserved":false,"is_disabled":false,"rental_uris":{"android":"levelo://app?vid=24213b37-b766-4d9c-a174-f6bf34920497","ios":"levelo://app?vid=24213b37-b766-4d9c-a174-f6bf34920497"},"vehicle_type_id":"4","last_reported":1745129614,"current_range_meters":10000,"station_id":"ce4bh512rcd13ifvqe3g","pricing_plan_id":"cebpf4jnsgd1na2vs0mg"},{"bike_id":"ee77508c-6f9d-400c-9442-6494c8451c48","system_id":"levelo_inurba_marseille","lat":43.25138,"lon":5.40335,"is_reserved":false,"is_disabled":false,"rental_uris":{"android":"levelo://app?vid=ee77508c-6f9d-400c-9442-6494c8451c48","ios":"levelo://app?vid=ee77508c-6f9d-400c-9442-6494c8451c48"},"vehicle_type_id":"4","last_reported":1745129614,"current_range_meters":10000,"station_id":"ce4bhlh2rcd13ifvqgig","pricing_plan_id":"cebpf4jnsgd1na2vs0mg"},{"bike_id":"ad99e864-4d0b-4b78-ab73-853377ac4da1","system_id":"levelo_inurba_marseille","lat":43.28029,"lon":5.3695,"is_reserved":false,"is_disabled":false,"rental_uris":{"android":"levelo://app?vid=ad99e864-4d0b-4b78-ab73-853377ac4da1","ios":"levelo://app?vid=ad99e864-4d0b-4b78-ab73-853377ac4da1"},"vehicle_type_id":"4","last_reported":1745129614,"current_range_meters":10000,"station_id":"ce4bha12rcd13ifvqef0","pricing_plan_id":"cebpf4jnsgd1na2vs0mg"},{"bike_id":"00879c1d-a962-4133-ba5d-8de0f524e6f5","system_id":"levelo_inurba_marseille","lat":43.27498,"lon":5.42468,"is_reserved":false,"is_disabled":false,"rental_uris":{"android":"levelo://app?vid=00879c1d-a962-4133-ba5d-8de0f524e6f5","ios":"levelo://app?vid=00879c1d-a962-4133-ba5d-8de0f524e6f5"},"vehicle_type_id":"4","last_reported":1745129614,"current_range_meters":10000,"station_id":"ce4bhn92rcd13ifvqgrg","pricing_plan_id":"cebpf4jnsgd1na2vs0mg"},{"bike_id":"d0395819-ea40-46d3-acfe-3a01d6c396c0","system_id":"levelo_inurba_marseille","lat":43.23177,"lon":5.39991,"is_reserved":false,"is_disabled":true,"rental_uris":{"android":"levelo://app?vid=d0395819-ea40-46d3-acfe-3a01d6c396c0","ios":"levelo://app?vid=d0395819-ea40-46d3-acfe-3a01d6c396c0"},"vehicle_type_id":"4","last_reported":1745129614,"current_range_meters":10000,"station_id":"ce4bhn12rcd13ifvqgqg","pricing_plan_id":"cebpf4jnsgd1na2vs0mg"},{"bike_id":"995d8a72-1aa5-4c87-a4d7-1f735ca671c5","system_id":"levelo_inurba_marseille","lat":43.30545,"lon":5.3657,"is_reserved":false,"is_disabled":false,"rental_uris":{"android":"levelo://app?vid=995d8a72-1aa5-4c87-a4d7-1f735ca671c5","ios":"levelo://app?vid=995d8a72-1aa5-4c87-a4d7-1f735ca671c5"},"vehicle_type_id":"4","last_reported":1745129614,"current_range_meters":10800,"station_id":"ce4bgs12rcd13ifvqcag","pricing_plan_id":"cebpf4jnsgd1na2vs0mg"},{"bike_id":"050f3f16-6d6a-4dab-968d-e6ef897d06dc","system_id":"levelo_inurba_marseille","lat":43.30858,"lon":5.39695,"is_reserved":false,"is_disabled":false,"rental_uris":{"android":"levelo://app?vid=050f3f16-6d6a-4dab-968d-e6ef897d06dc","ios":"levelo://app?vid=050f3f16-6d6a-4dab-968d-e6ef897d06dc"},"vehicle_type_id":"4","last_reported":1745129614,"current_range_meters":10800,"station_id":"ce4bh012rcd13ifvqcv0","pricing_plan_id":"cebpf4jnsgd1na2vs0mg"},{"bike_id":"4e6892ef-dbe3-43e4-bc69-b2da5d802c90","system_id":"levelo_inurba_marseille","lat":43.27372,"lon":5.36244,"is_reserved":false,"is_disabled":true,"rental_uris":{"android":"levelo://app?vid=4e6892ef-dbe3-43e4-bc69-b2da5d802c90","ios":"levelo://app?vid=4e6892ef-dbe3-43e4-bc69-b2da5d802c90"},"vehicle_type_id":"4","last_reported":1745129614,"current_range_meters":10800,"station_id":"ce4bhbh2rcd13ifvqeo0","pricing_plan_id":"cebpf4jnsgd1na2vs0mg"},{"bike_id":"386c0466-92a0-4b14-84ad-ceae0ada9e40","system_id":"levelo_inurba_marseille","lat":43.30901,"lon":5.36872,"is_reserved":false,"is_disabled":true,"rental_uris":{"android":"levelo://app?vid=386c0466-92a0-4b14-84ad-ceae0ada9e40","ios":"levelo://app?vid=386c0466-92a0-4b14-84ad-ceae0ada9e40"},"vehicle_type_id":"4","last_reported":1745129614,"current_range_meters":10800,"station_id":"ce4bgn92rcd13ifvqbvg","pricing_plan_id":"cebpf4jnsgd1na2vs0mg"},{"bike_id":"527fac75-0783-4b2c-bd4e-07f2f2fee902","system_id":"levelo_inurba_marseille","lat":43.311216,"lon":5.377969,"is_reserved":false,"is_disabled":true,"rental_uris":{"android":"levelo://app?vid=527fac75-0783-4b2c-bd4e-07f2f2fee902","ios":"levelo://app?vid=527fac75-0783-4b2c-bd4e-07f2f2fee902"},"vehicle_type_id":"4","last_reported":1745129614,"current_range_meters":10800,"station_id":"ce4bgt92rcd13ifvqcg0","pricing_plan_id":"cebpf4jnsgd1na2vs0mg"},{"bike_id":"1b64a06c-8c3f-4044-b435-0c5447524fd5","system_id":"levelo_inurba_marseille","lat":43.28686,"lon":5.374,"is_reserved":false,"is_disabled":true,"rental_uris":{"android":"levelo://app?vid=1b64a06c-8c3f-4044-b435-0c5447524fd5","ios":"levelo://app?vid=1b64a06c-8c3f-4044-b435-0c5447524fd5"},"vehicle_type_id":"4","last_reported":1745129614,"current_range_meters":10800,"station_id":"ce4bh3p2rcd13ifvqdq0","pricing_plan_id":"cebpf4jnsgd1na2vs0mg"},{"bike_id":"8756e62b-ea4c-4305-b782-768af3d82b58","system_id":"levelo_inurba_marseille","lat":43.34167,"lon":5.40916,"is_reserved":false,"is_disabled":false,"rental_uris":{"android":"levelo://app?vid=8756e62b-ea4c-4305-b782-768af3d82b58","ios":"levelo://app?vid=8756e62b-ea4c-4305-b782-768af3d82b58"},"vehicle_type_id":"4","last_reported":1745129614,"current_range_meters":10800,"station_id":"ce4bhqh2rcd13ifvqhlg","pricing_plan_id":"cebpf4jnsgd1na2vs0mg"},{"bike_id":"0dd4bfb9-ffb6-48dc-a41c-5fa29cf2ff14","system_id":"levelo_inurba_marseille","lat":43.312231,"lon":5.368521,"is_reserved":false,"is_disabled":false,"rental_uris":{"android":"levelo://app?vid=0dd4bfb9-ffb6-48dc-a41c-5fa29cf2ff14","ios":"levelo://app?vid=0dd4bfb9-ffb6-48dc-a41c-5fa29cf2ff14"},"vehicle_type_id":"4","last_reported":1745129614,"current_range_meters":11200,"station_id":"ce4bgl92rcd13ifvqbq0","pricing_plan_id":"cebpf4jnsgd1na2vs0mg"},{"bike_id":"c6eb518d-f8e2-4c5c-8098-b5d751548fcd","system_id":"levelo_inurba_marseille","lat":43.25938,"lon":5.40935,"is_reserved":false,"is_disabled":false,"rental_uris":{"android":"levelo://app?vid=c6eb518d-f8e2-4c5c-8098-b5d751548fcd","ios":"levelo://app?vid=c6eb518d-f8e2-4c5c-8098-b5d751548fcd"},"vehicle_type_id":"4","last_reported":1745129614,"current_range_meters":11200,"station_id":"ce4bhm92rcd13ifvqglg","pricing_plan_id":"cebpf4jnsgd1na2vs0mg"},{"bike_id":"396ea9f0-d981-4e1c-a0e6-efd305b04d65","system_id":"levelo_inurba_marseille","lat":43.27887,"lon":5.38004,"is_reserved":false,"is_disabled":false,"rental_uris":{"android":"levelo://app?vid=396ea9f0-d981-4e1c-a0e6-efd305b04d65","ios":"levelo://app?vid=396ea9f0-d981-4e1c-a0e6-efd305b04d65"},"vehicle_type_id":"4","last_reported":1745129614,"current_range_meters":11200,"station_id":"ce4bhf92rcd13ifvqf50","pricing_plan_id":"cebpf4jnsgd1na2vs0mg"},{"bike_id":"338d819e-2c01-4ed1-a652-00707b45d220","system_id":"levelo_inurba_marseille","lat":43.3014,"lon":5.39892,"is_reserved":false,"is_disabled":false,"rental_uris":{"android":"levelo://app?vid=338d819e-2c01-4ed1-a652-00707b45d220","ios":"levelo://app?vid=338d819e-2c01-4ed1-a652-00707b45d220"},"vehicle_type_id":"4","last_reported":1745129614,"current_range_meters":11200,"station_id":"ce4bh0h2rcd13ifvqd40","pricing_plan_id":"cebpf4jnsgd1na2vs0mg"},{"bike_id":"07f1bad0-9ed6-4403-870a-bfe77b589471","system_id":"levelo_inurba_marseille","lat":43.30301,"lon":5.39205,"is_reserved":false,"is_disabled":false,"rental_uris":{"android":"levelo://app?vid=07f1bad0-9ed6-4403-870a-bfe77b589471","ios":"levelo://app?vid=07f1bad0-9ed6-4403-870a-bfe77b589471"},"vehicle_type_id":"4","last_reported":1745129614,"current_range_meters":11600,"station_id":"ce4bgkh2rcd13ifvqbk0","pricing_plan_id":"cebpf4jnsgd1na2vs0mg"},{"bike_id":"e22949dd-02fb-436c-9a40-f7f855c1bdc8","system_id":"levelo_inurba_marseille","lat":43.303192,"lon":5.39192,"is_reserved":false,"is_disabled":false,"rental_uris":{"android":"levelo://app?vid=e22949dd-02fb-436c-9a40-f7f855c1bdc8","ios":"levelo://app?vid=e22949dd-02fb-436c-9a40-f7f855c1bdc8"},"vehicle_type_id":"4","last_reported":1745129614,"current_range_meters":11600,"station_id":"ce4bgk12rcd13ifvqbi0","pricing_plan_id":"cebpf4jnsgd1na2vs0mg"},{"bike_id":"1886fb80-2895-40f7-844d-7933f5d904dc","system_id":"levelo_inurba_marseille","lat":43.278668,"lon":5.393096,"is_reserved":false,"is_disabled":false,"rental_uris":{"android":"levelo://app?vid=1886fb80-2895-40f7-844d-7933f5d904dc","ios":"levelo://app?vid=1886fb80-2895-40f7-844d-7933f5d904dc"},"vehicle_type_id":"4","last_reported":1745129614,"current_range_meters":11600,"station_id":"","pricing_plan_id":"cebpf4jnsgd1na2vs0mg"},{"bike_id":"3ef7817b-4812-4407-b7b6-5cedb3d61160","system_id":"levelo_inurba_marseille","lat":43.3078,"lon":5.37674,"is_reserved":false,"is_disabled":false,"rental_uris":{"android":"levelo://app?vid=3ef7817b-4812-4407-b7b6-5cedb3d61160","ios":"levelo://app?vid=3ef7817b-4812-4407-b7b6-5cedb3d61160"},"vehicle_type_id":"4","last_reported":1745129614,"current_range_meters":11600,"station_id":"ce4bgv92rcd13ifvqcq0","pricing_plan_id":"cebpf4jnsgd1na2vs0mg"},{"bike_id":"33399c5a-7b71-4ae2-a964-55b2f2e618d0","system_id":"levelo_inurba_marseille","lat":43.30228,"lon":5.3657,"is_reserved":false,"is_disabled":true,"rental_uris":{"android":"levelo://app?vid=33399c5a-7b71-4ae2-a964-55b2f2e618d0","ios":"levelo://app?vid=33399c5a-7b71-4ae2-a964-55b2f2e618d0"},"vehicle_type_id":"4","last_reported":1745129614,"current_range_meters":12000,"station_id":"","pricing_plan_id":"cebpf4jnsgd1na2vs0mg"},{"bike_id":"92697f9e-b546-4ff8-919e-4fb6c8d1e904","system_id":"levelo_inurba_marseille","lat":43.3058,"lon":5.3936,"is_reserved":false,"is_disabled":false,"rental_uris":{"android":"levelo://app?vid=92697f9e-b546-4ff8-919e-4fb6c8d1e904","ios":"levelo://app?vid=92697f9e-b546-4ff8-919e-4fb6c8d1e904"},"vehicle_type_id":"4","last_reported":1745129614,"current_range_meters":12000,"station_id":"ce4bh0p2rcd13ifvqd80","pricing_plan_id":"cebpf4jnsgd1na2vs0mg"},{"bike_id":"b45521ad-6dc3-4a03-b464-8b8d15a8c129","system_id":"levelo_inurba_marseille","lat":43.30137,"lon":5.38102,"is_reserved":false,"is_disabled":false,"rental_uris":{"android":"levelo://app?vid=b45521ad-6dc3-4a03-b464-8b8d15a8c129","ios":"levelo://app?vid=b45521ad-6dc3-4a03-b464-8b8d15a8c129"},"vehicle_type_id":"4","last_reported":1745129614,"current_range_meters":12000,"station_id":"ce4bgjp2rcd13ifvqbh0","pricing_plan_id":"cebpf4jnsgd1na2vs0mg"},{"bike_id":"42ca51b4-3fde-468a-8b4c-241a924d305d","system_id":"levelo_inurba_marseille","lat":43.30332,"lon":5.40448,"is_reserved":false,"is_disabled":false,"rental_uris":{"android":"levelo://app?vid=42ca51b4-3fde-468a-8b4c-241a924d305d","ios":"levelo://app?vid=42ca51b4-3fde-468a-8b4c-241a924d305d"},"vehicle_type_id":"4","last_reported":1745129614,"current_range_meters":12400,"station_id":"ce4bh012rcd13ifvqd10","pricing_plan_id":"cebpf4jnsgd1na2vs0mg"},{"bike_id":"d2ef6fa0-6922-42cb-92e3-fb499ccb9fa6","system_id":"levelo_inurba_marseille","lat":43.3116,"lon":5.36898,"is_reserved":false,"is_disabled":false,"rental_uris":{"android":"levelo://app?vid=d2ef6fa0-6922-42cb-92e3-fb499ccb9fa6","ios":"levelo://app?vid=d2ef6fa0-6922-42cb-92e3-fb499ccb9fa6"},"vehicle_type_id":"4","last_reported":1745129614,"current_range_meters":12400,"station_id":"","pricing_plan_id":"cebpf4jnsgd1na2vs0mg"},{"bike_id":"d177bdcb-ba4d-4c2e-8899-f6b0f9af395c","system_id":"levelo_inurba_marseille","lat":43.2594,"lon":5.40925,"is_reserved":false,"is_disabled":false,"rental_uris":{"android":"levelo://app?vid=d177bdcb-ba4d-4c2e-8899-f6b0f9af395c","ios":"levelo://app?vid=d177bdcb-ba4d-4c2e-8899-f6b0f9af395c"},"vehicle_type_id":"4","last_reported":1745129614,"current_range_meters":12400,"station_id":"ce4bhm92rcd13ifvqglg","pricing_plan_id":"cebpf4jnsgd1na2vs0mg"},{"bike_id":"10e0c0fe-ad90-44ec-9c96-762e1bf50a99","system_id":"levelo_inurba_marseille","lat":43.314852,"lon":5.373077,"is_reserved":false,"is_disabled":false,"rental_uris":{"android":"levelo://app?vid=10e0c0fe-ad90-44ec-9c96-762e1bf50a99","ios":"levelo://app?vid=10e0c0fe-ad90-44ec-9c96-762e1bf50a99"},"vehicle_type_id":"4","last_reported":1745129614,"current_range_meters":12400,"station_id":"ce4bgt12rcd13ifvqcd0","pricing_plan_id":"cebpf4jnsgd1na2vs0mg"},{"bike_id":"ef504de2-6abd-4cb7-9699-cdd5d158f844","system_id":"levelo_inurba_marseille","lat":43.280325,"lon":5.36943,"is_reserved":false,"is_disabled":false,"rental_uris":{"android":"levelo://app?vid=ef504de2-6abd-4cb7-9699-cdd5d158f844","ios":"levelo://app?vid=ef504de2-6abd-4cb7-9699-cdd5d158f844"},"vehicle_type_id":"4","last_reported":1745129614,"current_range_meters":12400,"station_id":"ce4bha12rcd13ifvqef0","pricing_plan_id":"cebpf4jnsgd1na2vs0mg"},{"bike_id":"017c0c88-93d4-4975-8b3b-17be2fb5fc96","system_id":"levelo_inurba_marseille","lat":43.23207,"lon":5.40025,"is_reserved":false,"is_disabled":false,"rental_uris":{"android":"levelo://app?vid=017c0c88-93d4-4975-8b3b-17be2fb5fc96","ios":"levelo://app?vid=017c0c88-93d4-4975-8b3b-17be2fb5fc96"},"vehicle_type_id":"4","last_reported":1745129614,"current_range_meters":12800,"station_id":"ce4bhn12rcd13ifvqgqg","pricing_plan_id":"cebpf4jnsgd1na2vs0mg"},{"bike_id":"e2e275b0-7733-4521-8a7a-33d0200db17d","system_id":"levelo_inurba_marseille","lat":43.26211,"lon":5.3795,"is_reserved":false,"is_disabled":false,"rental_uris":{"android":"levelo://app?vid=e2e275b0-7733-4521-8a7a-33d0200db17d","ios":"levelo://app?vid=e2e275b0-7733-4521-8a7a-33d0200db17d"},"vehicle_type_id":"4","last_reported":1745129614,"current_range_meters":12800,"station_id":"ce4bhjp2rcd13ifvqg90","pricing_plan_id":"cebpf4jnsgd1na2vs0mg"},{"bike_id":"c9eb2cd4-f079-4f7f-a635-7c5e83278694","system_id":"levelo_inurba_marseille","lat":43.29235,"lon":5.36097,"is_reserved":false,"is_disabled":false,"rental_uris":{"android":"levelo://app?vid=c9eb2cd4-f079-4f7f-a635-7c5e83278694","ios":"levelo://app?vid=c9eb2cd4-f079-4f7f-a635-7c5e83278694"},"vehicle_type_id":"4","last_reported":1745129614,"current_range_meters":12800,"station_id":"ce4bhbh2rcd13ifvqeqg","pricing_plan_id":"cebpf4jnsgd1na2vs0mg"},{"bike_id":"5e7e83d6-8284-48e9-9372-797b9c44861d","system_id":"levelo_inurba_marseille","lat":43.26201,"lon":5.37932,"is_reserved":false,"is_disabled":false,"rental_uris":{"android":"levelo://app?vid=5e7e83d6-8284-48e9-9372-797b9c44861d","ios":"levelo://app?vid=5e7e83d6-8284-48e9-9372-797b9c44861d"},"vehicle_type_id":"4","last_reported":1745129614,"current_range_meters":12800,"station_id":"ce4bhjp2rcd13ifvqg90","pricing_plan_id":"cebpf4jnsgd1na2vs0mg"},{"bike_id":"4ff7f8cf-2e9c-4563-bbaa-9d75d0f317dd","system_id":"levelo_inurba_marseille","lat":43.31721,"lon":5.40458,"is_reserved":false,"is_disabled":false,"rental_uris":{"android":"levelo://app?vid=4ff7f8cf-2e9c-4563-bbaa-9d75d0f317dd","ios":"levelo://app?vid=4ff7f8cf-2e9c-4563-bbaa-9d75d0f317dd"},"vehicle_type_id":"4","last_reported":1745129614,"current_range_meters":12800,"station_id":"ce4bh012rcd13ifvqd00","pricing_plan_id":"cebpf4jnsgd1na2vs0mg"},{"bike_id":"d5ef647d-00ca-43ce-8de2-a9826ded3f15","system_id":"levelo_inurba_marseille","lat":43.21197,"lon":5.3509,"is_reserved":false,"is_disabled":false,"rental_uris":{"android":"levelo://app?vid=d5ef647d-00ca-43ce-8de2-a9826ded3f15","ios":"levelo://app?vid=d5ef647d-00ca-43ce-8de2-a9826ded3f15"},"vehicle_type_id":"4","last_reported":1745129614,"current_range_meters":12800,"station_id":"st_cvj6sg6p6f1abm77japg","pricing_plan_id":"cebpf4jnsgd1na2vs0mg"},{"bike_id":"dcc78168-aa9b-4738-a163-c4551731c530","system_id":"levelo_inurba_marseille","lat":43.23069,"lon":5.35513,"is_reserved":false,"is_disabled":false,"rental_uris":{"android":"levelo://app?vid=dcc78168-aa9b-4738-a163-c4551731c530","ios":"levelo://app?vid=dcc78168-aa9b-4738-a163-c4551731c530"},"vehicle_type_id":"4","last_reported":1745129614,"current_range_meters":13600,"station_id":"cpo3342slgdg3j2ifvpg","pricing_plan_id":"cebpf4jnsgd1na2vs0mg"},{"bike_id":"b3beab71-1cce-4c1f-808c-31facdbc233b","system_id":"levelo_inurba_marseille","lat":43.299164,"lon":5.381561,"is_reserved":false,"is_disabled":false,"rental_uris":{"android":"levelo://app?vid=b3beab71-1cce-4c1f-808c-31facdbc233b","ios":"levelo://app?vid=b3beab71-1cce-4c1f-808c-31facdbc233b"},"vehicle_type_id":"4","last_reported":1745129614,"current_range_meters":13600,"station_id":"ce4bgnh2rcd13ifvqc0g","pricing_plan_id":"cebpf4jnsgd1na2vs0mg"},{"bike_id":"ee9c6b20-39f7-4ea9-804e-b08eb5bb4cdc","system_id":"levelo_inurba_marseille","lat":43.2861,"lon":5.351024,"is_reserved":false,"is_disabled":false,"rental_uris":{"android":"levelo://app?vid=ee9c6b20-39f7-4ea9-804e-b08eb5bb4cdc","ios":"levelo://app?vid=ee9c6b20-39f7-4ea9-804e-b08eb5bb4cdc"},"vehicle_type_id":"4","last_reported":1745129614,"current_range_meters":13600,"station_id":"","pricing_plan_id":"cebpf4jnsgd1na2vs0mg"},{"bike_id":"3c68d4af-f244-4d5b-a673-170645748e37","system_id":"levelo_inurba_marseille","lat":43.27672,"lon":5.39821,"is_reserved":false,"is_disabled":false,"rental_uris":{"android":"levelo://app?vid=3c68d4af-f244-4d5b-a673-170645748e37","ios":"levelo://app?vid=3c68d4af-f244-4d5b-a673-170645748e37"},"vehicle_type_id":"4","last_reported":1745129614,"current_range_meters":14000,"station_id":"","pricing_plan_id":"cebpf4jnsgd1na2vs0mg"},{"bike_id":"8605282b-b417-44ef-b921-2c93f06b4d14","system_id":"levelo_inurba_marseille","lat":43.2511,"lon":5.40329,"is_reserved":false,"is_disabled":false,"rental_uris":{"android":"levelo://app?vid=8605282b-b417-44ef-b921-2c93f06b4d14","ios":"levelo://app?vid=8605282b-b417-44ef-b921-2c93f06b4d14"},"vehicle_type_id":"4","last_reported":1745129614,"current_range_meters":14000,"station_id":"ce4bhlh2rcd13ifvqgig","pricing_plan_id":"cebpf4jnsgd1na2vs0mg"},{"bike_id":"e34d7a70-e15a-4962-8b18-40d5c8097fce","system_id":"levelo_inurba_marseille","lat":43.28479,"lon":5.35904,"is_reserved":false,"is_disabled":false,"rental_uris":{"android":"levelo://app?vid=e34d7a70-e15a-4962-8b18-40d5c8097fce","ios":"levelo://app?vid=e34d7a70-e15a-4962-8b18-40d5c8097fce"},"vehicle_type_id":"4","last_reported":1745129614,"current_range_meters":14400,"station_id":"ce4bhah2rcd13ifvqei0","pricing_plan_id":"cebpf4jnsgd1na2vs0mg"},{"bike_id":"5801a3ca-80c0-4f04-85da-122046aa79e1","system_id":"levelo_inurba_marseille","lat":43.28983,"lon":5.43851,"is_reserved":false,"is_disabled":false,"rental_uris":{"android":"levelo://app?vid=5801a3ca-80c0-4f04-85da-122046aa79e1","ios":"levelo://app?vid=5801a3ca-80c0-4f04-85da-122046aa79e1"},"vehicle_type_id":"4","last_reported":1745129614,"current_range_meters":14800,"station_id":"","pricing_plan_id":"cebpf4jnsgd1na2vs0mg"},{"bike_id":"89dece9e-fbe4-4579-8f17-0d8766c4a6c4","system_id":"levelo_inurba_marseille","lat":43.240671,"lon":5.377676,"is_reserved":false,"is_disabled":false,"rental_uris":{"android":"levelo://app?vid=89dece9e-fbe4-4579-8f17-0d8766c4a6c4","ios":"levelo://app?vid=89dece9e-fbe4-4579-8f17-0d8766c4a6c4"},"vehicle_type_id":"4","last_reported":1745129614,"current_range_meters":14800,"station_id":"ce4bhnp2rcd13ifvqgvg","pricing_plan_id":"cebpf4jnsgd1na2vs0mg"},{"bike_id":"f6b06603-46d7-458b-9dc9-fbc0bce785af","system_id":"levelo_inurba_marseille","lat":43.25133,"lon":5.40312,"is_reserved":false,"is_disabled":false,"rental_uris":{"android":"levelo://app?vid=f6b06603-46d7-458b-9dc9-fbc0bce785af","ios":"levelo://app?vid=f6b06603-46d7-458b-9dc9-fbc0bce785af"},"vehicle_type_id":"4","last_reported":1745129614,"current_range_meters":14800,"station_id":"ce4bhlh2rcd13ifvqgig","pricing_plan_id":"cebpf4jnsgd1na2vs0mg"},{"bike_id":"6019390b-7088-4c04-b80b-2acf1cb29041","system_id":"levelo_inurba_marseille","lat":43.293984,"lon":5.412455,"is_reserved":false,"is_disabled":false,"rental_uris":{"android":"levelo://app?vid=6019390b-7088-4c04-b80b-2acf1cb29041","ios":"levelo://app?vid=6019390b-7088-4c04-b80b-2acf1cb29041"},"vehicle_type_id":"4","last_reported":1745129614,"current_range_meters":15200,"station_id":"","pricing_plan_id":"cebpf4jnsgd1na2vs0mg"},{"bike_id":"54e42c41-74de-4a33-abe7-59adfaab821c","system_id":"levelo_inurba_marseille","lat":43.31687,"lon":5.40451,"is_reserved":false,"is_disabled":false,"rental_uris":{"android":"levelo://app?vid=54e42c41-74de-4a33-abe7-59adfaab821c","ios":"levelo://app?vid=54e42c41-74de-4a33-abe7-59adfaab821c"},"vehicle_type_id":"4","last_reported":1745129614,"current_range_meters":15200,"station_id":"ce4bh012rcd13ifvqd00","pricing_plan_id":"cebpf4jnsgd1na2vs0mg"},{"bike_id":"cab64969-2640-47ee-abb9-f11afb1f3a59","system_id":"levelo_inurba_marseille","lat":43.28613,"lon":5.35101,"is_reserved":false,"is_disabled":true,"rental_uris":{"android":"levelo://app?vid=cab64969-2640-47ee-abb9-f11afb1f3a59","ios":"levelo://app?vid=cab64969-2640-47ee-abb9-f11afb1f3a59"},"vehicle_type_id":"4","last_reported":1745129614,"current_range_meters":15200,"station_id":"ce4bhch2rcd13ifvqeug","pricing_plan_id":"cebpf4jnsgd1na2vs0mg"},{"bike_id":"ce034b4a-bb67-4c72-856c-a0c7ed4c8b8f","system_id":"levelo_inurba_marseille","lat":43.23446,"lon":5.3597,"is_reserved":false,"is_disabled":false,"rental_uris":{"android":"levelo://app?vid=ce034b4a-bb67-4c72-856c-a0c7ed4c8b8f","ios":"levelo://app?vid=ce034b4a-bb67-4c72-856c-a0c7ed4c8b8f"},"vehicle_type_id":"4","last_reported":1745129614,"current_range_meters":15200,"station_id":"","pricing_plan_id":"cebpf4jnsgd1na2vs0mg"},{"bike_id":"d5bf3e51-83b4-419b-b784-58ab0f4a9ad2","system_id":"levelo_inurba_marseille","lat":43.211906,"lon":5.350761,"is_reserved":false,"is_disabled":false,"rental_uris":{"android":"levelo://app?vid=d5bf3e51-83b4-419b-b784-58ab0f4a9ad2","ios":"levelo://app?vid=d5bf3e51-83b4-419b-b784-58ab0f4a9ad2"},"vehicle_type_id":"4","last_reported":1745129614,"current_range_meters":15200,"station_id":"st_cvj6sg6p6f1abm77japg","pricing_plan_id":"cebpf4jnsgd1na2vs0mg"},{"bike_id":"11fdd5a2-1fee-421d-af4c-d2711885ee87","system_id":"levelo_inurba_marseille","lat":43.24172,"lon":5.36401,"is_reserved":false,"is_disabled":false,"rental_uris":{"android":"levelo://app?vid=11fdd5a2-1fee-421d-af4c-d2711885ee87","ios":"levelo://app?vid=11fdd5a2-1fee-421d-af4c-d2711885ee87"},"vehicle_type_id":"4","last_reported":1745129614,"current_range_meters":15200,"station_id":"cpo36qri1sfpv3e86is0","pricing_plan_id":"cebpf4jnsgd1na2vs0mg"},{"bike_id":"06c33bb3-272a-4f8f-ba53-adeb3345a69c","system_id":"levelo_inurba_marseille","lat":43.246477,"lon":5.38901,"is_reserved":false,"is_disabled":false,"rental_uris":{"android":"levelo://app?vid=06c33bb3-272a-4f8f-ba53-adeb3345a69c","ios":"levelo://app?vid=06c33bb3-272a-4f8f-ba53-adeb3345a69c"},"vehicle_type_id":"4","last_reported":1745129614,"current_range_meters":15200,"station_id":"ce4bhg12rcd13ifvqf60","pricing_plan_id":"cebpf4jnsgd1na2vs0mg"},{"bike_id":"1e1af270-9669-4d2f-8b67-245fc0429270","system_id":"levelo_inurba_marseille","lat":43.30332,"lon":5.39203,"is_reserved":false,"is_disabled":false,"rental_uris":{"android":"levelo://app?vid=1e1af270-9669-4d2f-8b67-245fc0429270","ios":"levelo://app?vid=1e1af270-9669-4d2f-8b67-245fc0429270"},"vehicle_type_id":"4","last_reported":1745129614,"current_range_meters":15200,"station_id":"ce4bgkh2rcd13ifvqbk0","pricing_plan_id":"cebpf4jnsgd1na2vs0mg"},{"bike_id":"b0b75860-28b7-4b37-bf26-715295a858ab","system_id":"levelo_inurba_marseille","lat":43.27916,"lon":5.39579,"is_reserved":false,"is_disabled":false,"rental_uris":{"android":"levelo://app?vid=b0b75860-28b7-4b37-bf26-715295a858ab","ios":"levelo://app?vid=b0b75860-28b7-4b37-bf26-715295a858ab"},"vehicle_type_id":"4","last_reported":1745129614,"current_range_meters":15200,"station_id":"ce4bhf92rcd13ifvqf40","pricing_plan_id":"cebpf4jnsgd1na2vs0mg"},{"bike_id":"de9c76e9-5b34-44dc-89d9-de6e318e6be4","system_id":"levelo_inurba_marseille","lat":43.282195,"lon":5.385847,"is_reserved":false,"is_disabled":false,"rental_uris":{"android":"levelo://app?vid=de9c76e9-5b34-44dc-89d9-de6e318e6be4","ios":"levelo://app?vid=de9c76e9-5b34-44dc-89d9-de6e318e6be4"},"vehicle_type_id":"4","last_reported":1745129614,"current_range_meters":16000,"station_id":"","pricing_plan_id":"cebpf4jnsgd1na2vs0mg"},{"bike_id":"3708505e-d311-493d-85d2-8c21dea28764","system_id":"levelo_inurba_marseille","lat":43.30666,"lon":5.40082,"is_reserved":false,"is_disabled":false,"rental_uris":{"android":"levelo://app?vid=3708505e-d311-493d-85d2-8c21dea28764","ios":"levelo://app?vid=3708505e-d311-493d-85d2-8c21dea28764"},"vehicle_type_id":"4","last_reported":1745129614,"current_range_meters":16000,"station_id":"ce4bh112rcd13ifvqda0","pricing_plan_id":"cebpf4jnsgd1na2vs0mg"},{"bike_id":"d227ea9c-7792-4463-9253-d38241da3c72","system_id":"levelo_inurba_marseille","lat":43.217424,"lon":5.346122,"is_reserved":false,"is_disabled":true,"rental_uris":{"android":"levelo://app?vid=d227ea9c-7792-4463-9253-d38241da3c72","ios":"levelo://app?vid=d227ea9c-7792-4463-9253-d38241da3c72"},"vehicle_type_id":"4","last_reported":1745129614,"current_range_meters":16000,"station_id":"st_cvj6r9ubvosntc0bgbag","pricing_plan_id":"cebpf4jnsgd1na2vs0mg"},{"bike_id":"6ce14797-8863-48ea-8bee-e545907050f9","system_id":"levelo_inurba_marseille","lat":43.26231,"lon":5.40472,"is_reserved":false,"is_disabled":false,"rental_uris":{"android":"levelo://app?vid=6ce14797-8863-48ea-8bee-e545907050f9","ios":"levelo://app?vid=6ce14797-8863-48ea-8bee-e545907050f9"},"vehicle_type_id":"4","last_reported":1745129614,"current_range_meters":16400,"station_id":"ce4bhmh2rcd13ifvqgmg","pricing_plan_id":"cebpf4jnsgd1na2vs0mg"},{"bike_id":"d53e964c-f934-484c-a259-3e8f23cdd819","system_id":"levelo_inurba_marseille","lat":43.337472,"lon":5.391882,"is_reserved":false,"is_disabled":false,"rental_uris":{"android":"levelo://app?vid=d53e964c-f934-484c-a259-3e8f23cdd819","ios":"levelo://app?vid=d53e964c-f934-484c-a259-3e8f23cdd819"},"vehicle_type_id":"4","last_reported":1745129614,"current_range_meters":16400,"station_id":"ce4bhr92rcd13ifvqhsg","pricing_plan_id":"cebpf4jnsgd1na2vs0mg"},{"bike_id":"aafa30a9-7914-464f-85ce-0d4e0e0174f6","system_id":"levelo_inurba_marseille","lat":43.31537,"lon":5.380277,"is_reserved":false,"is_disabled":false,"rental_uris":{"android":"levelo://app?vid=aafa30a9-7914-464f-85ce-0d4e0e0174f6","ios":"levelo://app?vid=aafa30a9-7914-464f-85ce-0d4e0e0174f6"},"vehicle_type_id":"4","last_reported":1745129614,"current_range_meters":16400,"station_id":"ce4bhsp2rcd13ifvqi50","pricing_plan_id":"cebpf4jnsgd1na2vs0mg"},{"bike_id":"ca98692d-888f-49bc-b77a-1ab58ba8e795","system_id":"levelo_inurba_marseille","lat":43.30633,"lon":5.4007,"is_reserved":false,"is_disabled":false,"rental_uris":{"android":"levelo://app?vid=ca98692d-888f-49bc-b77a-1ab58ba8e795","ios":"levelo://app?vid=ca98692d-888f-49bc-b77a-1ab58ba8e795"},"vehicle_type_id":"4","last_reported":1745129614,"current_range_meters":16400,"station_id":"ce4bh112rcd13ifvqda0","pricing_plan_id":"cebpf4jnsgd1na2vs0mg"},{"bike_id":"537ae7fb-f31d-4ccb-b828-7224f4df0d90","system_id":"levelo_inurba_marseille","lat":43.30282,"lon":5.39228,"is_reserved":false,"is_disabled":false,"rental_uris":{"android":"levelo://app?vid=537ae7fb-f31d-4ccb-b828-7224f4df0d90","ios":"levelo://app?vid=537ae7fb-f31d-4ccb-b828-7224f4df0d90"},"vehicle_type_id":"4","last_reported":1745129614,"current_range_meters":16400,"station_id":"ce4bgkh2rcd13ifvqbk0","pricing_plan_id":"cebpf4jnsgd1na2vs0mg"},{"bike_id":"7d432a87-4bb0-4882-befa-49399b654d90","system_id":"levelo_inurba_marseille","lat":43.28482,"lon":5.35892,"is_reserved":false,"is_disabled":false,"rental_uris":{"android":"levelo://app?vid=7d432a87-4bb0-4882-befa-49399b654d90","ios":"levelo://app?vid=7d432a87-4bb0-4882-befa-49399b654d90"},"vehicle_type_id":"4","last_reported":1745129614,"current_range_meters":16400,"station_id":"ce4bhah2rcd13ifvqei0","pricing_plan_id":"cebpf4jnsgd1na2vs0mg"},{"bike_id":"f7027e6a-48d2-4cae-b50c-97b01f670552","system_id":"levelo_inurba_marseille","lat":43.23963,"lon":5.36617,"is_reserved":false,"is_disabled":false,"rental_uris":{"android":"levelo://app?vid=f7027e6a-48d2-4cae-b50c-97b01f670552","ios":"levelo://app?vid=f7027e6a-48d2-4cae-b50c-97b01f670552"},"vehicle_type_id":"4","last_reported":1745129614,"current_range_meters":16400,"station_id":"ce4bhi12rcd13ifvqfp0","pricing_plan_id":"cebpf4jnsgd1na2vs0mg"},{"bike_id":"f01fc261-033f-49c7-b09e-b9967362bd76","system_id":"levelo_inurba_marseille","lat":43.28831,"lon":5.35838,"is_reserved":false,"is_disabled":true,"rental_uris":{"android":"levelo://app?vid=f01fc261-033f-49c7-b09e-b9967362bd76","ios":"levelo://app?vid=f01fc261-033f-49c7-b09e-b9967362bd76"},"vehicle_type_id":"4","last_reported":1745129614,"current_range_meters":16400,"station_id":"ce4bhb12rcd13ifvqem0","pricing_plan_id":"cebpf4jnsgd1na2vs0mg"},{"bike_id":"cbb8c20f-0422-4610-a50f-a600497f00b5","system_id":"levelo_inurba_marseille","lat":43.29801,"lon":5.37789,"is_reserved":false,"is_disabled":false,"rental_uris":{"android":"levelo://app?vid=cbb8c20f-0422-4610-a50f-a600497f00b5","ios":"levelo://app?vid=cbb8c20f-0422-4610-a50f-a600497f00b5"},"vehicle_type_id":"4","last_reported":1745129614,"current_range_meters":16400,"station_id":"","pricing_plan_id":"cebpf4jnsgd1na2vs0mg"},{"bike_id":"cc890395-95a5-4be3-a6ec-4e7ac8214190","system_id":"levelo_inurba_marseille","lat":43.241709,"lon":5.397419,"is_reserved":false,"is_disabled":false,"rental_uris":{"android":"levelo://app?vid=cc890395-95a5-4be3-a6ec-4e7ac8214190","ios":"levelo://app?vid=cc890395-95a5-4be3-a6ec-4e7ac8214190"},"vehicle_type_id":"4","last_reported":1745129614,"current_range_meters":16800,"station_id":"ce4bhn12rcd13ifvqgpg","pricing_plan_id":"cebpf4jnsgd1na2vs0mg"},{"bike_id":"32d2ab72-9b50-484c-9e12-2985432e8314","system_id":"levelo_inurba_marseille","lat":43.32318,"lon":5.40549,"is_reserved":false,"is_disabled":false,"rental_uris":{"android":"levelo://app?vid=32d2ab72-9b50-484c-9e12-2985432e8314","ios":"levelo://app?vid=32d2ab72-9b50-484c-9e12-2985432e8314"},"vehicle_type_id":"4","last_reported":1745129614,"current_range_meters":16800,"station_id":"ce4bhq92rcd13ifvqhjg","pricing_plan_id":"cebpf4jnsgd1na2vs0mg"},{"bike_id":"9c5b2c41-4a73-4d0b-a583-50ed2d2b11ef","system_id":"levelo_inurba_marseille","lat":43.25735,"lon":5.41096,"is_reserved":false,"is_disabled":false,"rental_uris":{"android":"levelo://app?vid=9c5b2c41-4a73-4d0b-a583-50ed2d2b11ef","ios":"levelo://app?vid=9c5b2c41-4a73-4d0b-a583-50ed2d2b11ef"},"vehicle_type_id":"4","last_reported":1745129614,"current_range_meters":16800,"station_id":"ce4bhkp2rcd13ifvqgd0","pricing_plan_id":"cebpf4jnsgd1na2vs0mg"},{"bike_id":"d66f2fbf-84c1-4006-a003-d92ef3aa9479","system_id":"levelo_inurba_marseille","lat":43.232005,"lon":5.355438,"is_reserved":false,"is_disabled":false,"rental_uris":{"android":"levelo://app?vid=d66f2fbf-84c1-4006-a003-d92ef3aa9479","ios":"levelo://app?vid=d66f2fbf-84c1-4006-a003-d92ef3aa9479"},"vehicle_type_id":"4","last_reported":1745129614,"current_range_meters":16800,"station_id":"ce4bhu92rcd13ifvqi70","pricing_plan_id":"cebpf4jnsgd1na2vs0mg"},{"bike_id":"410ded57-8860-4f34-b557-cd066f5c7d99","system_id":"levelo_inurba_marseille","lat":43.310712,"lon":5.383619,"is_reserved":false,"is_disabled":false,"rental_uris":{"android":"levelo://app?vid=410ded57-8860-4f34-b557-cd066f5c7d99","ios":"levelo://app?vid=410ded57-8860-4f34-b557-cd066f5c7d99"},"vehicle_type_id":"4","last_reported":1745129614,"current_range_meters":16800,"station_id":"ce4bgv92rcd13ifvqcr0","pricing_plan_id":"cebpf4jnsgd1na2vs0mg"},{"bike_id":"cb04d036-524e-497d-b1e8-d53251979b05","system_id":"levelo_inurba_marseille","lat":43.2984,"lon":5.39753,"is_reserved":false,"is_disabled":true,"rental_uris":{"android":"levelo://app?vid=cb04d036-524e-497d-b1e8-d53251979b05","ios":"levelo://app?vid=cb04d036-524e-497d-b1e8-d53251979b05"},"vehicle_type_id":"4","last_reported":1745129614,"current_range_meters":17200,"station_id":"ce4bh0h2rcd13ifvqd50","pricing_plan_id":"cebpf4jnsgd1na2vs0mg"},{"bike_id":"7d29063e-cc47-43de-9fe3-33b900004d65","system_id":"levelo_inurba_marseille","lat":43.21218,"lon":5.35067,"is_reserved":false,"is_disabled":false,"rental_uris":{"android":"levelo://app?vid=7d29063e-cc47-43de-9fe3-33b900004d65","ios":"levelo://app?vid=7d29063e-cc47-43de-9fe3-33b900004d65"},"vehicle_type_id":"4","last_reported":1745129614,"current_range_meters":17200,"station_id":"st_cvj6sg6p6f1abm77japg","pricing_plan_id":"cebpf4jnsgd1na2vs0mg"},{"bike_id":"9cd66f20-0974-44a3-a00c-3af08e74ebf2","system_id":"levelo_inurba_marseille","lat":43.260183,"lon":5.417501,"is_reserved":false,"is_disabled":false,"rental_uris":{"android":"levelo://app?vid=9cd66f20-0974-44a3-a00c-3af08e74ebf2","ios":"levelo://app?vid=9cd66f20-0974-44a3-a00c-3af08e74ebf2"},"vehicle_type_id":"4","last_reported":1745129614,"current_range_meters":17200,"station_id":"","pricing_plan_id":"cebpf4jnsgd1na2vs0mg"},{"bike_id":"e653e066-2807-4514-8a61-d3a7d53ac289","system_id":"levelo_inurba_marseille","lat":43.22517,"lon":5.34812,"is_reserved":false,"is_disabled":false,"rental_uris":{"android":"levelo://app?vid=e653e066-2807-4514-8a61-d3a7d53ac289","ios":"levelo://app?vid=e653e066-2807-4514-8a61-d3a7d53ac289"},"vehicle_type_id":"4","last_reported":1745129614,"current_range_meters":17200,"station_id":"st_cvj5dfep6f1abm77gieg","pricing_plan_id":"cebpf4jnsgd1na2vs0mg"},{"bike_id":"6d10d7a7-6c32-4e1e-8e59-bb1ff89e5fa7","system_id":"levelo_inurba_marseille","lat":43.32377,"lon":5.36763,"is_reserved":false,"is_disabled":false,"rental_uris":{"android":"levelo://app?vid=6d10d7a7-6c32-4e1e-8e59-bb1ff89e5fa7","ios":"levelo://app?vid=6d10d7a7-6c32-4e1e-8e59-bb1ff89e5fa7"},"vehicle_type_id":"4","last_reported":1745129614,"current_range_meters":17200,"station_id":"ce4bhsh2rcd13ifvqi2g","pricing_plan_id":"cebpf4jnsgd1na2vs0mg"},{"bike_id":"7e31745a-283a-4ca7-9493-220dcbe8c309","system_id":"levelo_inurba_marseille","lat":43.29001,"lon":5.35619,"is_reserved":false,"is_disabled":false,"rental_uris":{"android":"levelo://app?vid=7e31745a-283a-4ca7-9493-220dcbe8c309","ios":"levelo://app?vid=7e31745a-283a-4ca7-9493-220dcbe8c309"},"vehicle_type_id":"4","last_reported":1745129614,"current_range_meters":17600,"station_id":"ce4bhb92rcd13ifvqen0","pricing_plan_id":"cebpf4jnsgd1na2vs0mg"},{"bike_id":"1b2623e0-90bf-4d27-a569-ebc27b9384c2","system_id":"levelo_inurba_marseille","lat":43.241665,"lon":5.364014,"is_reserved":false,"is_disabled":false,"rental_uris":{"android":"levelo://app?vid=1b2623e0-90bf-4d27-a569-ebc27b9384c2","ios":"levelo://app?vid=1b2623e0-90bf-4d27-a569-ebc27b9384c2"},"vehicle_type_id":"4","last_reported":1745129614,"current_range_meters":17600,"station_id":"cpo36qri1sfpv3e86is0","pricing_plan_id":"cebpf4jnsgd1na2vs0mg"},{"bike_id":"389a1060-659c-44b9-8c55-a54e904e1545","system_id":"levelo_inurba_marseille","lat":43.23168,"lon":5.43697,"is_reserved":false,"is_disabled":false,"rental_uris":{"android":"levelo://app?vid=389a1060-659c-44b9-8c55-a54e904e1545","ios":"levelo://app?vid=389a1060-659c-44b9-8c55-a54e904e1545"},"vehicle_type_id":"4","last_reported":1745129614,"current_range_meters":17600,"station_id":"ce4bhmp2rcd13ifvqgog","pricing_plan_id":"cebpf4jnsgd1na2vs0mg"},{"bike_id":"1a5f2cec-6354-428d-a667-d2081b30c7f2","system_id":"levelo_inurba_marseille","lat":43.27685,"lon":5.39837,"is_reserved":false,"is_disabled":false,"rental_uris":{"android":"levelo://app?vid=1a5f2cec-6354-428d-a667-d2081b30c7f2","ios":"levelo://app?vid=1a5f2cec-6354-428d-a667-d2081b30c7f2"},"vehicle_type_id":"4","last_reported":1745129614,"current_range_meters":17600,"station_id":"","pricing_plan_id":"cebpf4jnsgd1na2vs0mg"},{"bike_id":"1ed601e7-b71b-4de4-8bda-46cc17906aa0","system_id":"levelo_inurba_marseille","lat":43.28472,"lon":5.35884,"is_reserved":false,"is_disabled":false,"rental_uris":{"android":"levelo://app?vid=1ed601e7-b71b-4de4-8bda-46cc17906aa0","ios":"levelo://app?vid=1ed601e7-b71b-4de4-8bda-46cc17906aa0"},"vehicle_type_id":"4","last_reported":1745129614,"current_range_meters":17600,"station_id":"ce4bhah2rcd13ifvqei0","pricing_plan_id":"cebpf4jnsgd1na2vs0mg"},{"bike_id":"cbcf2b63-1e60-4b5d-b61b-8baaf7f6ab2f","system_id":"levelo_inurba_marseille","lat":43.26208,"lon":5.37452,"is_reserved":false,"is_disabled":false,"rental_uris":{"android":"levelo://app?vid=cbcf2b63-1e60-4b5d-b61b-8baaf7f6ab2f","ios":"levelo://app?vid=cbcf2b63-1e60-4b5d-b61b-8baaf7f6ab2f"},"vehicle_type_id":"4","last_reported":1745129614,"current_range_meters":18000,"station_id":"ce4bhgp2rcd13ifvqfc0","pricing_plan_id":"cebpf4jnsgd1na2vs0mg"},{"bike_id":"ca07e490-c41c-476d-9ce6-10a6ee9ed090","system_id":"levelo_inurba_marseille","lat":43.2851,"lon":5.38579,"is_reserved":false,"is_disabled":false,"rental_uris":{"android":"levelo://app?vid=ca07e490-c41c-476d-9ce6-10a6ee9ed090","ios":"levelo://app?vid=ca07e490-c41c-476d-9ce6-10a6ee9ed090"},"vehicle_type_id":"4","last_reported":1745129614,"current_range_meters":18000,"station_id":"ce4bh8p2rcd13ifvqeb0","pricing_plan_id":"cebpf4jnsgd1na2vs0mg"},{"bike_id":"77de3612-d83e-4639-ab5d-e9205f74132f","system_id":"levelo_inurba_marseille","lat":43.30316,"lon":5.39206,"is_reserved":false,"is_disabled":false,"rental_uris":{"android":"levelo://app?vid=77de3612-d83e-4639-ab5d-e9205f74132f","ios":"levelo://app?vid=77de3612-d83e-4639-ab5d-e9205f74132f"},"vehicle_type_id":"4","last_reported":1745129614,"current_range_meters":18000,"station_id":"ce4bgkh2rcd13ifvqbk0","pricing_plan_id":"cebpf4jnsgd1na2vs0mg"},{"bike_id":"721f595d-f057-44ac-ac8d-4aec1bc01567","system_id":"levelo_inurba_marseille","lat":43.25108,"lon":5.40356,"is_reserved":false,"is_disabled":false,"rental_uris":{"android":"levelo://app?vid=721f595d-f057-44ac-ac8d-4aec1bc01567","ios":"levelo://app?vid=721f595d-f057-44ac-ac8d-4aec1bc01567"},"vehicle_type_id":"4","last_reported":1745129614,"current_range_meters":18000,"station_id":"ce4bhlh2rcd13ifvqgig","pricing_plan_id":"cebpf4jnsgd1na2vs0mg"},{"bike_id":"97701dc9-fc24-4b55-8677-e88d959a1ae1","system_id":"levelo_inurba_marseille","lat":43.25078,"lon":5.39516,"is_reserved":false,"is_disabled":false,"rental_uris":{"android":"levelo://app?vid=97701dc9-fc24-4b55-8677-e88d959a1ae1","ios":"levelo://app?vid=97701dc9-fc24-4b55-8677-e88d959a1ae1"},"vehicle_type_id":"4","last_reported":1745129614,"current_range_meters":18000,"station_id":"ce4bhm12rcd13ifvqgkg","pricing_plan_id":"cebpf4jnsgd1na2vs0mg"},{"bike_id":"5ad8dd6b-ee8a-4f3f-924e-6d10a631b0b3","system_id":"levelo_inurba_marseille","lat":43.26198,"lon":5.37919,"is_reserved":false,"is_disabled":true,"rental_uris":{"android":"levelo://app?vid=5ad8dd6b-ee8a-4f3f-924e-6d10a631b0b3","ios":"levelo://app?vid=5ad8dd6b-ee8a-4f3f-924e-6d10a631b0b3"},"vehicle_type_id":"4","last_reported":1745129614,"current_range_meters":18000,"station_id":"ce4bhjp2rcd13ifvqg90","pricing_plan_id":"cebpf4jnsgd1na2vs0mg"},{"bike_id":"e740e9dc-48ef-4352-b7e1-63294a5a7826","system_id":"levelo_inurba_marseille","lat":43.30167,"lon":5.38071,"is_reserved":false,"is_disabled":false,"rental_uris":{"android":"levelo://app?vid=e740e9dc-48ef-4352-b7e1-63294a5a7826","ios":"levelo://app?vid=e740e9dc-48ef-4352-b7e1-63294a5a7826"},"vehicle_type_id":"4","last_reported":1745129614,"current_range_meters":18000,"station_id":"ce4bgjp2rcd13ifvqbh0","pricing_plan_id":"cebpf4jnsgd1na2vs0mg"},{"bike_id":"93d25588-571f-4f1b-a711-e1dff1c05576","system_id":"levelo_inurba_marseille","lat":43.31074,"lon":5.38348,"is_reserved":false,"is_disabled":false,"rental_uris":{"android":"levelo://app?vid=93d25588-571f-4f1b-a711-e1dff1c05576","ios":"levelo://app?vid=93d25588-571f-4f1b-a711-e1dff1c05576"},"vehicle_type_id":"4","last_reported":1745129614,"current_range_meters":18800,"station_id":"ce4bgv92rcd13ifvqcr0","pricing_plan_id":"cebpf4jnsgd1na2vs0mg"},{"bike_id":"2a2d4e04-1a56-4531-a89a-fb0481590528","system_id":"levelo_inurba_marseille","lat":43.322564,"lon":5.382969,"is_reserved":false,"is_disabled":false,"rental_uris":{"android":"levelo://app?vid=2a2d4e04-1a56-4531-a89a-fb0481590528","ios":"levelo://app?vid=2a2d4e04-1a56-4531-a89a-fb0481590528"},"vehicle_type_id":"4","last_reported":1745129614,"current_range_meters":18800,"station_id":"ce4bhr12rcd13ifvqhqg","pricing_plan_id":"cebpf4jnsgd1na2vs0mg"},{"bike_id":"89ecf9bd-d932-4065-8d69-bb6bdf420ac1","system_id":"levelo_inurba_marseille","lat":43.27496,"lon":5.42455,"is_reserved":false,"is_disabled":false,"rental_uris":{"android":"levelo://app?vid=89ecf9bd-d932-4065-8d69-bb6bdf420ac1","ios":"levelo://app?vid=89ecf9bd-d932-4065-8d69-bb6bdf420ac1"},"vehicle_type_id":"4","last_reported":1745129614,"current_range_meters":18800,"station_id":"ce4bhn92rcd13ifvqgrg","pricing_plan_id":"cebpf4jnsgd1na2vs0mg"},{"bike_id":"88f9484d-7764-4125-8ae2-cb3b1ae8fa4d","system_id":"levelo_inurba_marseille","lat":43.281454,"lon":5.426536,"is_reserved":false,"is_disabled":false,"rental_uris":{"android":"levelo://app?vid=88f9484d-7764-4125-8ae2-cb3b1ae8fa4d","ios":"levelo://app?vid=88f9484d-7764-4125-8ae2-cb3b1ae8fa4d"},"vehicle_type_id":"4","last_reported":1745129614,"current_range_meters":18800,"station_id":"ce4bhnh2rcd13ifvqgug","pricing_plan_id":"cebpf4jnsgd1na2vs0mg"},{"bike_id":"b63b7a5e-a38c-41b2-b8ca-03dcb2ce1a70","system_id":"levelo_inurba_marseille","lat":43.250819,"lon":5.395203,"is_reserved":false,"is_disabled":true,"rental_uris":{"android":"levelo://app?vid=b63b7a5e-a38c-41b2-b8ca-03dcb2ce1a70","ios":"levelo://app?vid=b63b7a5e-a38c-41b2-b8ca-03dcb2ce1a70"},"vehicle_type_id":"4","last_reported":1745129614,"current_range_meters":18800,"station_id":"ce4bhm12rcd13ifvqgkg","pricing_plan_id":"cebpf4jnsgd1na2vs0mg"},{"bike_id":"fc7807cb-5baf-4f18-a0b8-7d0eacd9d80d","system_id":"levelo_inurba_marseille","lat":43.247162,"lon":5.412089,"is_reserved":false,"is_disabled":false,"rental_uris":{"android":"levelo://app?vid=fc7807cb-5baf-4f18-a0b8-7d0eacd9d80d","ios":"levelo://app?vid=fc7807cb-5baf-4f18-a0b8-7d0eacd9d80d"},"vehicle_type_id":"4","last_reported":1745129614,"current_range_meters":19200,"station_id":"","pricing_plan_id":"cebpf4jnsgd1na2vs0mg"},{"bike_id":"08460c0e-f483-4cae-8efa-e145e7b3e0b5","system_id":"levelo_inurba_marseille","lat":43.30314,"lon":5.40443,"is_reserved":false,"is_disabled":false,"rental_uris":{"android":"levelo://app?vid=08460c0e-f483-4cae-8efa-e145e7b3e0b5","ios":"levelo://app?vid=08460c0e-f483-4cae-8efa-e145e7b3e0b5"},"vehicle_type_id":"4","last_reported":1745129614,"current_range_meters":19200,"station_id":"ce4bh012rcd13ifvqd10","pricing_plan_id":"cebpf4jnsgd1na2vs0mg"},{"bike_id":"c4fc050b-7c58-4380-8033-ffe242748317","system_id":"levelo_inurba_marseille","lat":43.2957,"lon":5.39946,"is_reserved":false,"is_disabled":true,"rental_uris":{"android":"levelo://app?vid=c4fc050b-7c58-4380-8033-ffe242748317","ios":"levelo://app?vid=c4fc050b-7c58-4380-8033-ffe242748317"},"vehicle_type_id":"4","last_reported":1745129614,"current_range_meters":19600,"station_id":"ce4bh312rcd13ifvqdj0","pricing_plan_id":"cebpf4jnsgd1na2vs0mg"},{"bike_id":"cf431e88-e4d3-4093-af4e-4e00f5c336c8","system_id":"levelo_inurba_marseille","lat":43.32357,"lon":5.40634,"is_reserved":false,"is_disabled":false,"rental_uris":{"android":"levelo://app?vid=cf431e88-e4d3-4093-af4e-4e00f5c336c8","ios":"levelo://app?vid=cf431e88-e4d3-4093-af4e-4e00f5c336c8"},"vehicle_type_id":"4","last_reported":1745129614,"current_range_meters":19600,"station_id":"ce4bhq92rcd13ifvqhjg","pricing_plan_id":"cebpf4jnsgd1na2vs0mg"},{"bike_id":"7f85cb0c-933e-490b-a0c3-bfacab605268","system_id":"levelo_inurba_marseille","lat":43.288564,"lon":5.359731,"is_reserved":false,"is_disabled":true,"rental_uris":{"android":"levelo://app?vid=7f85cb0c-933e-490b-a0c3-bfacab605268","ios":"levelo://app?vid=7f85cb0c-933e-490b-a0c3-bfacab605268"},"vehicle_type_id":"4","last_reported":1745129614,"current_range_meters":20000,"station_id":"","pricing_plan_id":"cebpf4jnsgd1na2vs0mg"},{"bike_id":"24dca9be-7010-45fc-b484-d3023a799ace","system_id":"levelo_inurba_marseille","lat":43.31102,"lon":5.38322,"is_reserved":false,"is_disabled":false,"rental_uris":{"android":"levelo://app?vid=24dca9be-7010-45fc-b484-d3023a799ace","ios":"levelo://app?vid=24dca9be-7010-45fc-b484-d3023a799ace"},"vehicle_type_id":"4","last_reported":1745129614,"current_range_meters":20000,"station_id":"ce4bgv92rcd13ifvqcr0","pricing_plan_id":"cebpf4jnsgd1na2vs0mg"},{"bike_id":"f5082407-ad9f-416d-b3f3-a40cd04bfde3","system_id":"levelo_inurba_marseille","lat":43.229985,"lon":5.35472,"is_reserved":false,"is_disabled":false,"rental_uris":{"android":"levelo://app?vid=f5082407-ad9f-416d-b3f3-a40cd04bfde3","ios":"levelo://app?vid=f5082407-ad9f-416d-b3f3-a40cd04bfde3"},"vehicle_type_id":"4","last_reported":1745129614,"current_range_meters":20000,"station_id":"","pricing_plan_id":"cebpf4jnsgd1na2vs0mg"},{"bike_id":"f9179a33-6528-43ac-b9e7-37bf13c563dd","system_id":"levelo_inurba_marseille","lat":43.25115,"lon":5.40338,"is_reserved":false,"is_disabled":false,"rental_uris":{"android":"levelo://app?vid=f9179a33-6528-43ac-b9e7-37bf13c563dd","ios":"levelo://app?vid=f9179a33-6528-43ac-b9e7-37bf13c563dd"},"vehicle_type_id":"4","last_reported":1745129614,"current_range_meters":20000,"station_id":"ce4bhlh2rcd13ifvqgig","pricing_plan_id":"cebpf4jnsgd1na2vs0mg"},{"bike_id":"ba1c212d-c6eb-412b-9525-517cfdc31c9d","system_id":"levelo_inurba_marseille","lat":43.231883,"lon":5.35553,"is_reserved":false,"is_disabled":false,"rental_uris":{"android":"levelo://app?vid=ba1c212d-c6eb-412b-9525-517cfdc31c9d","ios":"levelo://app?vid=ba1c212d-c6eb-412b-9525-517cfdc31c9d"},"vehicle_type_id":"4","last_reported":1745129614,"current_range_meters":20000,"station_id":"ce4bhu92rcd13ifvqi70","pricing_plan_id":"cebpf4jnsgd1na2vs0mg"},{"bike_id":"b66b9583-6e06-4f22-aa4b-13f66e903b5a","system_id":"levelo_inurba_marseille","lat":43.27922,"lon":5.41067,"is_reserved":false,"is_disabled":false,"rental_uris":{"android":"levelo://app?vid=b66b9583-6e06-4f22-aa4b-13f66e903b5a","ios":"levelo://app?vid=b66b9583-6e06-4f22-aa4b-13f66e903b5a"},"vehicle_type_id":"4","last_reported":1745129614,"current_range_meters":20400,"station_id":"ce4bhnp2rcd13ifvqh0g","pricing_plan_id":"cebpf4jnsgd1na2vs0mg"},{"bike_id":"a7f91fb8-2846-493f-a68f-69867197cfa1","system_id":"levelo_inurba_marseille","lat":43.336554,"lon":5.397721,"is_reserved":false,"is_disabled":false,"rental_uris":{"android":"levelo://app?vid=a7f91fb8-2846-493f-a68f-69867197cfa1","ios":"levelo://app?vid=a7f91fb8-2846-493f-a68f-69867197cfa1"},"vehicle_type_id":"4","last_reported":1745129614,"current_range_meters":20400,"station_id":"","pricing_plan_id":"cebpf4jnsgd1na2vs0mg"},{"bike_id":"2b9dc3a3-9ca1-4379-9bb7-4b8dbd4e17cf","system_id":"levelo_inurba_marseille","lat":43.23963,"lon":5.36631,"is_reserved":false,"is_disabled":true,"rental_uris":{"android":"levelo://app?vid=2b9dc3a3-9ca1-4379-9bb7-4b8dbd4e17cf","ios":"levelo://app?vid=2b9dc3a3-9ca1-4379-9bb7-4b8dbd4e17cf"},"vehicle_type_id":"4","last_reported":1745129614,"current_range_meters":20400,"station_id":"ce4bhi12rcd13ifvqfp0","pricing_plan_id":"cebpf4jnsgd1na2vs0mg"},{"bike_id":"8bf1579e-183f-4363-8634-a0a7a433417e","system_id":"levelo_inurba_marseille","lat":43.30252,"lon":5.40044,"is_reserved":false,"is_disabled":false,"rental_uris":{"android":"levelo://app?vid=8bf1579e-183f-4363-8634-a0a7a433417e","ios":"levelo://app?vid=8bf1579e-183f-4363-8634-a0a7a433417e"},"vehicle_type_id":"4","last_reported":1745129614,"current_range_meters":20400,"station_id":"ce4bgvh2rcd13ifvqcs0","pricing_plan_id":"cebpf4jnsgd1na2vs0mg"},{"bike_id":"b27a9d1c-abb4-43c8-8463-09cd46049d42","system_id":"levelo_inurba_marseille","lat":43.26199,"lon":5.37469,"is_reserved":false,"is_disabled":true,"rental_uris":{"android":"levelo://app?vid=b27a9d1c-abb4-43c8-8463-09cd46049d42","ios":"levelo://app?vid=b27a9d1c-abb4-43c8-8463-09cd46049d42"},"vehicle_type_id":"4","last_reported":1745129614,"current_range_meters":20400,"station_id":"ce4bhgp2rcd13ifvqfc0","pricing_plan_id":"cebpf4jnsgd1na2vs0mg"},{"bike_id":"cf470fb3-0581-43bf-ac68-380c74cb0ba5","system_id":"levelo_inurba_marseille","lat":43.317,"lon":5.40459,"is_reserved":false,"is_disabled":false,"rental_uris":{"android":"levelo://app?vid=cf470fb3-0581-43bf-ac68-380c74cb0ba5","ios":"levelo://app?vid=cf470fb3-0581-43bf-ac68-380c74cb0ba5"},"vehicle_type_id":"4","last_reported":1745129614,"current_range_meters":20400,"station_id":"ce4bh012rcd13ifvqd00","pricing_plan_id":"cebpf4jnsgd1na2vs0mg"},{"bike_id":"c0425dc1-2ca5-47ae-9f9d-3c5c3eafac79","system_id":"levelo_inurba_marseille","lat":43.28618,"lon":5.37061,"is_reserved":false,"is_disabled":false,"rental_uris":{"android":"levelo://app?vid=c0425dc1-2ca5-47ae-9f9d-3c5c3eafac79","ios":"levelo://app?vid=c0425dc1-2ca5-47ae-9f9d-3c5c3eafac79"},"vehicle_type_id":"4","last_reported":1745129614,"current_range_meters":20400,"station_id":"ce4bht12rcd13ifvqi60","pricing_plan_id":"cebpf4jnsgd1na2vs0mg"},{"bike_id":"d68e0641-7042-4bcc-8509-4b9af339d005","system_id":"levelo_inurba_marseille","lat":43.27056,"lon":5.4026,"is_reserved":false,"is_disabled":false,"rental_uris":{"android":"levelo://app?vid=d68e0641-7042-4bcc-8509-4b9af339d005","ios":"levelo://app?vid=d68e0641-7042-4bcc-8509-4b9af339d005"},"vehicle_type_id":"4","last_reported":1745129614,"current_range_meters":20800,"station_id":"ce4bhk92rcd13ifvqgc0","pricing_plan_id":"cebpf4jnsgd1na2vs0mg"},{"bike_id":"e3eb10e6-7dae-4eb7-9549-ecfbd43cc17c","system_id":"levelo_inurba_marseille","lat":43.2121,"lon":5.35085,"is_reserved":false,"is_disabled":false,"rental_uris":{"android":"levelo://app?vid=e3eb10e6-7dae-4eb7-9549-ecfbd43cc17c","ios":"levelo://app?vid=e3eb10e6-7dae-4eb7-9549-ecfbd43cc17c"},"vehicle_type_id":"4","last_reported":1745129614,"current_range_meters":20800,"station_id":"st_cvj6sg6p6f1abm77japg","pricing_plan_id":"cebpf4jnsgd1na2vs0mg"},{"bike_id":"0df66e0a-9fc8-4b65-8ac4-cdbc9cef329a","system_id":"levelo_inurba_marseille","lat":43.310661,"lon":5.383426,"is_reserved":false,"is_disabled":true,"rental_uris":{"android":"levelo://app?vid=0df66e0a-9fc8-4b65-8ac4-cdbc9cef329a","ios":"levelo://app?vid=0df66e0a-9fc8-4b65-8ac4-cdbc9cef329a"},"vehicle_type_id":"4","last_reported":1745129614,"current_range_meters":20800,"station_id":"ce4bgv92rcd13ifvqcr0","pricing_plan_id":"cebpf4jnsgd1na2vs0mg"},{"bike_id":"f69d589e-2f9c-4176-a14c-9191ab7b9999","system_id":"levelo_inurba_marseille","lat":43.30935,"lon":5.40143,"is_reserved":false,"is_disabled":false,"rental_uris":{"android":"levelo://app?vid=f69d589e-2f9c-4176-a14c-9191ab7b9999","ios":"levelo://app?vid=f69d589e-2f9c-4176-a14c-9191ab7b9999"},"vehicle_type_id":"4","last_reported":1745129614,"current_range_meters":20800,"station_id":"ce4bgvp2rcd13ifvqct0","pricing_plan_id":"cebpf4jnsgd1na2vs0mg"},{"bike_id":"f40df43b-e0bd-44df-ae4d-b205d7c31487","system_id":"levelo_inurba_marseille","lat":43.31057,"lon":5.38339,"is_reserved":false,"is_disabled":false,"rental_uris":{"android":"levelo://app?vid=f40df43b-e0bd-44df-ae4d-b205d7c31487","ios":"levelo://app?vid=f40df43b-e0bd-44df-ae4d-b205d7c31487"},"vehicle_type_id":"4","last_reported":1745129614,"current_range_meters":21600,"station_id":"ce4bgv92rcd13ifvqcr0","pricing_plan_id":"cebpf4jnsgd1na2vs0mg"},{"bike_id":"68501225-8cea-4f95-ae47-484785f78e68","system_id":"levelo_inurba_marseille","lat":43.32385,"lon":5.38942,"is_reserved":false,"is_disabled":true,"rental_uris":{"android":"levelo://app?vid=68501225-8cea-4f95-ae47-484785f78e68","ios":"levelo://app?vid=68501225-8cea-4f95-ae47-484785f78e68"},"vehicle_type_id":"4","last_reported":1745129614,"current_range_meters":21600,"station_id":"ce4bhqp2rcd13ifvqhog","pricing_plan_id":"cebpf4jnsgd1na2vs0mg"},{"bike_id":"5171e384-1812-45e8-a9d5-01c112dd8b34","system_id":"levelo_inurba_marseille","lat":43.25117,"lon":5.40352,"is_reserved":false,"is_disabled":false,"rental_uris":{"android":"levelo://app?vid=5171e384-1812-45e8-a9d5-01c112dd8b34","ios":"levelo://app?vid=5171e384-1812-45e8-a9d5-01c112dd8b34"},"vehicle_type_id":"4","last_reported":1745129614,"current_range_meters":21600,"station_id":"ce4bhlh2rcd13ifvqgig","pricing_plan_id":"cebpf4jnsgd1na2vs0mg"},{"bike_id":"4f9239e1-8a7a-4356-be0d-8a523121bc15","system_id":"levelo_inurba_marseille","lat":43.26034,"lon":5.37558,"is_reserved":false,"is_disabled":true,"rental_uris":{"android":"levelo://app?vid=4f9239e1-8a7a-4356-be0d-8a523121bc15","ios":"levelo://app?vid=4f9239e1-8a7a-4356-be0d-8a523121bc15"},"vehicle_type_id":"4","last_reported":1745129614,"current_range_meters":21600,"station_id":"ce4bhgh2rcd13ifvqfa0","pricing_plan_id":"cebpf4jnsgd1na2vs0mg"},{"bike_id":"41f743d5-a741-4149-b5f0-62becf5c1ef5","system_id":"levelo_inurba_marseille","lat":43.29033,"lon":5.39996,"is_reserved":false,"is_disabled":false,"rental_uris":{"android":"levelo://app?vid=41f743d5-a741-4149-b5f0-62becf5c1ef5","ios":"levelo://app?vid=41f743d5-a741-4149-b5f0-62becf5c1ef5"},"vehicle_type_id":"4","last_reported":1745129614,"current_range_meters":21600,"station_id":"ce4bh392rcd13ifvqdm0","pricing_plan_id":"cebpf4jnsgd1na2vs0mg"},{"bike_id":"c3a3e06c-3bd3-472f-9cae-a0c530d3afac","system_id":"levelo_inurba_marseille","lat":43.30726,"lon":5.42444,"is_reserved":false,"is_disabled":false,"rental_uris":{"android":"levelo://app?vid=c3a3e06c-3bd3-472f-9cae-a0c530d3afac","ios":"levelo://app?vid=c3a3e06c-3bd3-472f-9cae-a0c530d3afac"},"vehicle_type_id":"4","last_reported":1745129614,"current_range_meters":21600,"station_id":"st_cvj6ca6bvosntc0bfgr0","pricing_plan_id":"cebpf4jnsgd1na2vs0mg"},{"bike_id":"9ebb9e31-b181-4120-a985-5579f166c1c4","system_id":"levelo_inurba_marseille","lat":43.27993,"lon":5.40077,"is_reserved":false,"is_disabled":true,"rental_uris":{"android":"levelo://app?vid=9ebb9e31-b181-4120-a985-5579f166c1c4","ios":"levelo://app?vid=9ebb9e31-b181-4120-a985-5579f166c1c4"},"vehicle_type_id":"4","last_reported":1745129614,"current_range_meters":22000,"station_id":"ce4bho92rcd13ifvqh4g","pricing_plan_id":"cebpf4jnsgd1na2vs0mg"},{"bike_id":"b3780f7b-301d-43f0-80dc-165649c6ca74","system_id":"levelo_inurba_marseille","lat":43.27204,"lon":5.39184,"is_reserved":false,"is_disabled":false,"rental_uris":{"android":"levelo://app?vid=b3780f7b-301d-43f0-80dc-165649c6ca74","ios":"levelo://app?vid=b3780f7b-301d-43f0-80dc-165649c6ca74"},"vehicle_type_id":"4","last_reported":1745129614,"current_range_meters":22000,"station_id":"ce4bhhp2rcd13ifvqfm0","pricing_plan_id":"cebpf4jnsgd1na2vs0mg"},{"bike_id":"ad279094-f854-48d5-9af2-1875cea0ddbc","system_id":"levelo_inurba_marseille","lat":43.225075,"lon":5.347853,"is_reserved":false,"is_disabled":true,"rental_uris":{"android":"levelo://app?vid=ad279094-f854-48d5-9af2-1875cea0ddbc","ios":"levelo://app?vid=ad279094-f854-48d5-9af2-1875cea0ddbc"},"vehicle_type_id":"4","last_reported":1745129614,"current_range_meters":22000,"station_id":"st_cvj5dfep6f1abm77gieg","pricing_plan_id":"cebpf4jnsgd1na2vs0mg"},{"bike_id":"5f89c481-40b1-4398-aec5-3104ef3e5599","system_id":"levelo_inurba_marseille","lat":43.30149,"lon":5.38084,"is_reserved":false,"is_disabled":false,"rental_uris":{"android":"levelo://app?vid=5f89c481-40b1-4398-aec5-3104ef3e5599","ios":"levelo://app?vid=5f89c481-40b1-4398-aec5-3104ef3e5599"},"vehicle_type_id":"4","last_reported":1745129614,"current_range_meters":22000,"station_id":"ce4bgjp2rcd13ifvqbh0","pricing_plan_id":"cebpf4jnsgd1na2vs0mg"},{"bike_id":"708a791d-3040-4b21-8706-33329d812143","system_id":"levelo_inurba_marseille","lat":43.30688,"lon":5.39274,"is_reserved":false,"is_disabled":true,"rental_uris":{"android":"levelo://app?vid=708a791d-3040-4b21-8706-33329d812143","ios":"levelo://app?vid=708a791d-3040-4b21-8706-33329d812143"},"vehicle_type_id":"4","last_reported":1745129614,"current_range_meters":22000,"station_id":"","pricing_plan_id":"cebpf4jnsgd1na2vs0mg"},{"bike_id":"39d22256-218f-418a-aea0-68fe066bcd25","system_id":"levelo_inurba_marseille","lat":43.29622,"lon":5.37162,"is_reserved":false,"is_disabled":false,"rental_uris":{"android":"levelo://app?vid=39d22256-218f-418a-aea0-68fe066bcd25","ios":"levelo://app?vid=39d22256-218f-418a-aea0-68fe066bcd25"},"vehicle_type_id":"4","last_reported":1745129614,"current_range_meters":22000,"station_id":"ce4bgnh2rcd13ifvqc0g","pricing_plan_id":"cebpf4jnsgd1na2vs0mg"},{"bike_id":"90ce21df-5f7c-4551-a99a-0900c11e065d","system_id":"levelo_inurba_marseille","lat":43.283735,"lon":5.418631,"is_reserved":false,"is_disabled":false,"rental_uris":{"android":"levelo://app?vid=90ce21df-5f7c-4551-a99a-0900c11e065d","ios":"levelo://app?vid=90ce21df-5f7c-4551-a99a-0900c11e065d"},"vehicle_type_id":"4","last_reported":1745129614,"current_range_meters":22400,"station_id":"","pricing_plan_id":"cebpf4jnsgd1na2vs0mg"},{"bike_id":"9e5bbd38-61f3-4704-8229-b3b6c3820059","system_id":"levelo_inurba_marseille","lat":43.301447,"lon":5.374204,"is_reserved":false,"is_disabled":false,"rental_uris":{"android":"levelo://app?vid=9e5bbd38-61f3-4704-8229-b3b6c3820059","ios":"levelo://app?vid=9e5bbd38-61f3-4704-8229-b3b6c3820059"},"vehicle_type_id":"4","last_reported":1745129614,"current_range_meters":22400,"station_id":"ce4bgs92rcd13ifvqcc0","pricing_plan_id":"cebpf4jnsgd1na2vs0mg"},{"bike_id":"176681f0-4183-4e95-8b5b-0cbe779bf2ec","system_id":"levelo_inurba_marseille","lat":43.2895,"lon":5.39634,"is_reserved":false,"is_disabled":false,"rental_uris":{"android":"levelo://app?vid=176681f0-4183-4e95-8b5b-0cbe779bf2ec","ios":"levelo://app?vid=176681f0-4183-4e95-8b5b-0cbe779bf2ec"},"vehicle_type_id":"4","last_reported":1745129614,"current_range_meters":22800,"station_id":"ce4bh3h2rcd13ifvqdn0","pricing_plan_id":"cebpf4jnsgd1na2vs0mg"},{"bike_id":"579bd0a9-c8ed-45ba-9f6a-b14591b67f00","system_id":"levelo_inurba_marseille","lat":43.287015,"lon":5.399804,"is_reserved":false,"is_disabled":false,"rental_uris":{"android":"levelo://app?vid=579bd0a9-c8ed-45ba-9f6a-b14591b67f00","ios":"levelo://app?vid=579bd0a9-c8ed-45ba-9f6a-b14591b67f00"},"vehicle_type_id":"4","last_reported":1745129614,"current_range_meters":22800,"station_id":"ce4bho92rcd13ifvqh3g","pricing_plan_id":"cebpf4jnsgd1na2vs0mg"},{"bike_id":"a0c18d1f-d629-4753-a18c-069366929c4a","system_id":"levelo_inurba_marseille","lat":43.2622,"lon":5.3796,"is_reserved":false,"is_disabled":false,"rental_uris":{"android":"levelo://app?vid=a0c18d1f-d629-4753-a18c-069366929c4a","ios":"levelo://app?vid=a0c18d1f-d629-4753-a18c-069366929c4a"},"vehicle_type_id":"4","last_reported":1745129614,"current_range_meters":22800,"station_id":"ce4bhjp2rcd13ifvqg90","pricing_plan_id":"cebpf4jnsgd1na2vs0mg"},{"bike_id":"8b0a83c0-7203-4165-952c-99ac066ed990","system_id":"levelo_inurba_marseille","lat":43.30791,"lon":5.3765,"is_reserved":false,"is_disabled":false,"rental_uris":{"android":"levelo://app?vid=8b0a83c0-7203-4165-952c-99ac066ed990","ios":"levelo://app?vid=8b0a83c0-7203-4165-952c-99ac066ed990"},"vehicle_type_id":"4","last_reported":1745129614,"current_range_meters":22800,"station_id":"ce4bgv92rcd13ifvqcq0","pricing_plan_id":"cebpf4jnsgd1na2vs0mg"},{"bike_id":"21455eeb-7d5e-45c4-81f7-159533b0fc08","system_id":"levelo_inurba_marseille","lat":43.320496,"lon":5.415351,"is_reserved":false,"is_disabled":false,"rental_uris":{"android":"levelo://app?vid=21455eeb-7d5e-45c4-81f7-159533b0fc08","ios":"levelo://app?vid=21455eeb-7d5e-45c4-81f7-159533b0fc08"},"vehicle_type_id":"4","last_reported":1745129614,"current_range_meters":22800,"station_id":"ce4bhq92rcd13ifvqhkg","pricing_plan_id":"cebpf4jnsgd1na2vs0mg"},{"bike_id":"5a7ac7d8-50d3-4b86-8edb-5873c0fc9b33","system_id":"levelo_inurba_marseille","lat":43.30646,"lon":5.40085,"is_reserved":false,"is_disabled":false,"rental_uris":{"android":"levelo://app?vid=5a7ac7d8-50d3-4b86-8edb-5873c0fc9b33","ios":"levelo://app?vid=5a7ac7d8-50d3-4b86-8edb-5873c0fc9b33"},"vehicle_type_id":"4","last_reported":1745129614,"current_range_meters":22800,"station_id":"ce4bh112rcd13ifvqda0","pricing_plan_id":"cebpf4jnsgd1na2vs0mg"},