{"last_updated":1716041225,"ttl":30,"version":"2.2","data":{"bikes":[{"bike_id":"0075149d-2cba-48ec-98c4-f079e924d12e","system_id":"levelo_inurba_marseille","lat":43.313391,"lon":5.36706,"is_reserved":false,"is_disabled":false,"rental_uris":{"android":"levelo://app?vid=0075149d-2cba-48ec-98c4-f079e924d12e","ios":"levelo://app?vid=0075149d-2cba-48ec-98c4-f079e924d12e"},"vehicle_type_id":"4","last_reported":1716041225,"current_range_meters":31200,"station_id":"ce4bgr92rcd13ifvqc6g","pricing_plan_id":"cebpf4jnsgd1na2vs0mg"},{"bike_id":"fb5f43e2-67ab-4f36-85f8-915446d63214","system_id":"levelo_inurba_marseille","lat":43.312391,"lon":5.368608,"is_reserved":false,"is_disabled":false,"rental_uris":{"android":"levelo://app?vid=fb5f43e2-67ab-4f36-85f8-915446d63214","ios":"levelo://app?vid=fb5f43e2-67ab-4f36-85f8-915446d63214"},"vehicle_type_id":"4","last_reported":1716041225,"current_range_meters":1600,"station_id":"ce4bgl92rcd13ifvqbq0","pricing_plan_id":"cebpf4jnsgd1na2vs0mg"},{"bike_id":"84950789-222b-4162-abeb-824a85fb3a5e","system_id":"levelo_inurba_marseille","lat":43.312239,"lon":5.368562,"is_reserved":false,"is_disabled":false,"rental_uris":{"android":"levelo://app?vid=84950789-222b-4162-abeb-824a85fb3a5e","ios":"levelo://app?vid=84950789-222b-4162-abeb-824a85fb3a5e"},"vehicle_type_id":"4","last_reported":1716041225,"current_range_meters":22800,"station_id":"ce4bgl92rcd13ifvqbq0","pricing_plan_id":"cebpf4jnsgd1na2vs0mg"},{"bike_id":"fd72e949-87ec-4794-87c9-6f5ba96ea86f","system_id":"levelo_inurba_marseille","lat":43.314709,"lon":5.370394,"is_reserved":false,"is_disabled":false,"rental_uris":{"android":"levelo://app?vid=fd72e949-87ec-4794-87c9-6f5ba96ea86f","ios":"levelo://app?vid=fd72e949-87ec-4794-87c9-6f5ba96ea86f"},"vehicle_type_id":"4","last_reported":1716041225,"current_range_meters":15600,"station_id":"ce4bgt12rcd13ifvqcd0","pricing_plan_id":"cebpf4jnsgd1na2vs0mg"},{"bike_id":"afab2cc5-130e-4bbc-976b-ed8f91749591","system_id":"levelo_inurba_marseille","lat":43.309491,"lon":5.366873,"is_reserved":false,"is_disabled":false,"rental_uris":{"android":"levelo://app?vid=afab2cc5-130e-4bbc-976b-ed8f91749591","ios":"levelo://app?vid=afab2cc5-130e-4bbc-976b-ed8f91749591"},"vehicle_type_id":"4","last_reported":1716041225,"current_range_meters":24000,"station_id":"","pricing_plan_id":"cebpf4jnsgd1na2vs0mg"},{"bike_id":"6f8437a2-8ed9-4d26-9f6e-9369b6d47e21","system_id":"levelo_inurba_marseille","lat":43.314811,"lon":5.373103,"is_reserved":false,"is_disabled":false,"rental_uris":{"android":"levelo://app?vid=6f8437a2-8ed9-4d26-9f6e-9369b6d47e21","ios":"levelo://app?vid=6f8437a2-8ed9-4d26-9f6e-9369b6d47e21"},"vehicle_type_id":"4","last_reported":1716041225,"current_range_meters":22800,"station_id":"ce4bgt12rcd13ifvqcd0","pricing_plan_id":"cebpf4jnsgd1na2vs0mg"},{"bike_id":"a2ff6252-bdf5-4d98-990e-c4d70a1f6b17","system_id":"levelo_inurba_marseille","lat":43.31485,"lon":5.37305,"is_reserved":false,"is_disabled":false,"rental_uris":{"android":"levelo://app?vid=a2ff6252-bdf5-4d98-990e-c4d70a1f6b17","ios":"levelo://app?vid=a2ff6252-bdf5-4d98-990e-c4d70a1f6b17"},"vehicle_type_id":"4","last_reported":1716041225,"current_range_meters":1600,"station_id":"ce4bgt12rcd13ifvqcd0","pricing_plan_id":"cebpf4jnsgd1na2vs0mg"},{"bike_id":"4c712a53-5de2-46e6-98c6-93f53043e73f","system_id":"levelo_inurba_marseille","lat":43.31494,"lon":5.37308,"is_reserved":false,"is_disabled":false,"rental_uris":{"android":"levelo://app?vid=4c712a53-5de2-46e6-98c6-93f53043e73f","ios":"levelo://app?vid=4c712a53-5de2-46e6-98c6-93f53043e73f"},"vehicle_type_id":"4","last_reported":1716041225,"current_range_meters":29200,"station_id":"ce4bgt12rcd13ifvqcd0","pricing_plan_id":"cebpf4jnsgd1na2vs0mg"},{"bike_id":"18212f55-15e2-49cb-940d-c02ae6db8ba7","system_id":"levelo_inurba_marseille","lat":43.309034,"lon":5.371783,"is_reserved":false,"is_disabled":false,"rental_uris":{"android":"levelo://app?vid=18212f55-15e2-49cb-940d-c02ae6db8ba7","ios":"levelo://app?vid=18212f55-15e2-49cb-940d-c02ae6db8ba7"},"vehicle_type_id":"4","last_reported":1716041225,"current_range_meters":15600,"station_id":"ce4bguh2rcd13ifvqckg","pricing_plan_id":"cebpf4jnsgd1na2vs0mg"},{"bike_id":"c39588c4-d5b4-4e91-9fc8-daf78d4ec9ff","system_id":"levelo_inurba_marseille","lat":43.308869,"lon":5.371819,"is_reserved":false,"is_disabled":false,"rental_uris":{"android":"levelo://app?vid=c39588c4-d5b4-4e91-9fc8-daf78d4ec9ff","ios":"levelo://app?vid=c39588c4-d5b4-4e91-9fc8-daf78d4ec9ff"},"vehicle_type_id":"4","last_reported":1716041225,"current_range_meters":13200,"station_id":"ce4bguh2rcd13ifvqckg","pricing_plan_id":"cebpf4jnsgd1na2vs0mg"},{"bike_id":"e1cffacb-e61b-4507-838c-5ceb29260550","system_id":"levelo_inurba_marseille","lat":43.309039,"lon":5.371797,"is_reserved":false,"is_disabled":false,"rental_uris":{"android":"levelo://app?vid=e1cffacb-e61b-4507-838c-5ceb29260550","ios":"levelo://app?vid=e1cffacb-e61b-4507-838c-5ceb29260550"},"vehicle_type_id":"4","last_reported":1716041225,"current_range_meters":3600,"station_id":"ce4bguh2rcd13ifvqckg","pricing_plan_id":"cebpf4jnsgd1na2vs0mg"},{"bike_id":"a277fe65-7ca8-46b0-927f-8ef2dae50fa5","system_id":"levelo_inurba_marseille","lat":43.309034,"lon":5.371783,"is_reserved":false,"is_disabled":false,"rental_uris":{"android":"levelo://app?vid=a277fe65-7ca8-46b0-927f-8ef2dae50fa5","ios":"levelo://app?vid=a277fe65-7ca8-46b0-927f-8ef2dae50fa5"},"vehicle_type_id":"4","last_reported":1716041225,"current_range_meters":2800,"station_id":"ce4bguh2rcd13ifvqckg","pricing_plan_id":"cebpf4jnsgd1na2vs0mg"},{"bike_id":"d13aad28-d1a9-4475-b971-1a3681e685e8","system_id":"levelo_inurba_marseille","lat":43.309034,"lon":5.371783,"is_reserved":false,"is_disabled":false,"rental_uris":{"android":"levelo://app?vid=d13aad28-d1a9-4475-b971-1a3681e685e8","ios":"levelo://app?vid=d13aad28-d1a9-4475-b971-1a3681e685e8"},"vehicle_type_id":"4","last_reported":1716041225,"current_range_meters":13200,"station_id":"ce4bguh2rcd13ifvqckg","pricing_plan_id":"cebpf4jnsgd1na2vs0mg"},{"bike_id":"443222dc-f04e-4c33-9f77-5193d7a514b7","system_id":"levelo_inurba_marseille","lat":43.305714,"lon":5.365633,"is_reserved":false,"is_disabled":false,"rental_uris":{"android":"levelo://app?vid=443222dc-f04e-4c33-9f77-5193d7a514b7","ios":"levelo://app?vid=443222dc-f04e-4c33-9f77-5193d7a514b7"},"vehicle_type_id":"4","last_reported":1716041225,"current_range_meters":0,"station_id":"ce4bgs12rcd13ifvqcag","pricing_plan_id":"cebpf4jnsgd1na2vs0mg"},{"bike_id":"9a924587-4c3f-4323-b186-105edba25c86","system_id":"levelo_inurba_marseille","lat":43.305714,"lon":5.365633,"is_reserved":false,"is_disabled":false,"rental_uris":{"android":"levelo://app?vid=9a924587-4c3f-4323-b186-105edba25c86","ios":"levelo://app?vid=9a924587-4c3f-4323-b186-105edba25c86"},"vehicle_type_id":"4","last_reported":1716041225,"current_range_meters":7200,"station_id":"ce4bgs12rcd13ifvqcag","pricing_plan_id":"cebpf4jnsgd1na2vs0mg"},{"bike_id":"e447a4fd-8e57-457c-9225-71485c342382","system_id":"levelo_inurba_marseille","lat":43.3053,"lon":5.3672,"is_reserved":false,"is_disabled":false,"rental_uris":{"android":"levelo://app?vid=e447a4fd-8e57-457c-9225-71485c342382","ios":"levelo://app?vid=e447a4fd-8e57-457c-9225-71485c342382"},"vehicle_type_id":"4","last_reported":1716041225,"current_range_meters":8000,"station_id":"ce4bgrp2rcd13ifvqc9g","pricing_plan_id":"cebpf4jnsgd1na2vs0mg"},{"bike_id":"e7de5d71-2fee-4346-a75e-7e1050268fa0","system_id":"levelo_inurba_marseille","lat":43.305706,"lon":5.365654,"is_reserved":false,"is_disabled":false,"rental_uris":{"android":"levelo://app?vid=e7de5d71-2fee-4346-a75e-7e1050268fa0","ios":"levelo://app?vid=e7de5d71-2fee-4346-a75e-7e1050268fa0"},"vehicle_type_id":"4","last_reported":1716041225,"current_range_meters":6800,"station_id":"ce4bgs12rcd13ifvqcag","pricing_plan_id":"cebpf4jnsgd1na2vs0mg"},{"bike_id":"2366d45b-0c61-4a9a-9a1a-4175b080e3ec","system_id":"levelo_inurba_marseille","lat":43.305706,"lon":5.365654,"is_reserved":false,"is_disabled":false,"rental_uris":{"android":"levelo://app?vid=2366d45b-0c61-4a9a-9a1a-4175b080e3ec","ios":"levelo://app?vid=2366d45b-0c61-4a9a-9a1a-4175b080e3ec"},"vehicle_type_id":"4","last_reported":1716041225,"current_range_meters":27200,"station_id":"ce4bgs12rcd13ifvqcag","pricing_plan_id":"cebpf4jnsgd1na2vs0mg"},{"bike_id":"3696e680-1509-4e9a-83e2-f64f78fbac26","system_id":"levelo_inurba_marseille","lat":43.30532,"lon":5.36539,"is_reserved":false,"is_disabled":false,"rental_uris":{"android":"levelo://app?vid=3696e680-1509-4e9a-83e2-f64f78fbac26","ios":"levelo://app?vid=3696e680-1509-4e9a-83e2-f64f78fbac26"},"vehicle_type_id":"4","last_reported":1716041225,"current_range_meters":0,"station_id":"ce4bgs12rcd13ifvqcag","pricing_plan_id":"cebpf4jnsgd1na2vs0mg"},{"bike_id":"41d6f46a-7725-46a8-add2-10562df86a2a","system_id":"levelo_inurba_marseille","lat":43.305989,"lon":5.37225,"is_reserved":false,"is_disabled":false,"rental_uris":{"android":"levelo://app?vid=41d6f46a-7725-46a8-add2-10562df86a2a","ios":"levelo://app?vid=41d6f46a-7725-46a8-add2-10562df86a2a"},"vehicle_type_id":"4","last_reported":1716041225,"current_range_meters":0,"station_id":"ce4bgqh2rcd13ifvqc4g","pricing_plan_id":"cebpf4jnsgd1na2vs0mg"},{"bike_id":"dc06ba75-2508-460c-9e18-a4b4c6e727ad","system_id":"levelo_inurba_marseille","lat":43.311125,"lon":5.377624,"is_reserved":false,"is_disabled":false,"rental_uris":{"android":"levelo://app?vid=dc06ba75-2508-460c-9e18-a4b4c6e727ad","ios":"levelo://app?vid=dc06ba75-2508-460c-9e18-a4b4c6e727ad"},"vehicle_type_id":"4","last_reported":1716041225,"current_range_meters":0,"station_id":"ce4bgt92rcd13ifvqcg0","pricing_plan_id":"cebpf4jnsgd1na2vs0mg"},{"bike_id":"953b7d25-ff80-41f3-89c5-3ffdd798fe6c","system_id":"levelo_inurba_marseille","lat":43.311125,"lon":5.377624,"is_reserved":false,"is_disabled":false,"rental_uris":{"android":"levelo://app?vid=953b7d25-ff80-41f3-89c5-3ffdd798fe6c","ios":"levelo://app?vid=953b7d25-ff80-41f3-89c5-3ffdd798fe6c"},"vehicle_type_id":"4","last_reported":1716041225,"current_range_meters":28000,"station_id":"ce4bgt92rcd13ifvqcg0","pricing_plan_id":"cebpf4jnsgd1na2vs0mg"},{"bike_id":"1d9aab7d-d014-4d93-aa9d-7b027a8af6fb","system_id":"levelo_inurba_marseille","lat":43.311131,"lon":5.377651,"is_reserved":false,"is_disabled":false,"rental_uris":{"android":"levelo://app?vid=1d9aab7d-d014-4d93-aa9d-7b027a8af6fb","ios":"levelo://app?vid=1d9aab7d-d014-4d93-aa9d-7b027a8af6fb"},"vehicle_type_id":"4","last_reported":1716041225,"current_range_meters":16400,"station_id":"ce4bgt92rcd13ifvqcg0","pricing_plan_id":"cebpf4jnsgd1na2vs0mg"},{"bike_id":"b732210f-017c-43d5-aa3c-1b927bb3a673","system_id":"levelo_inurba_marseille","lat":43.3079,"lon":5.37643,"is_reserved":false,"is_disabled":false,"rental_uris":{"android":"levelo://app?vid=b732210f-017c-43d5-aa3c-1b927bb3a673","ios":"levelo://app?vid=b732210f-017c-43d5-aa3c-1b927bb3a673"},"vehicle_type_id":"4","last_reported":1716041225,"current_range_meters":9600,"station_id":"ce4bgv92rcd13ifvqcq0","pricing_plan_id":"cebpf4jnsgd1na2vs0mg"},{"bike_id":"ec82b101-d702-4234-b32f-06f19248dcbc","system_id":"levelo_inurba_marseille","lat":43.307945,"lon":5.376487,"is_reserved":false,"is_disabled":false,"rental_uris":{"android":"levelo://app?vid=ec82b101-d702-4234-b32f-06f19248dcbc","ios":"levelo://app?vid=ec82b101-d702-4234-b32f-06f19248dcbc"},"vehicle_type_id":"4","last_reported":1716041225,"current_range_meters":12000,"station_id":"ce4bgv92rcd13ifvqcq0","pricing_plan_id":"cebpf4jnsgd1na2vs0mg"},{"bike_id":"a97284e7-1e3e-4e11-8b58-ec5adfc008f7","system_id":"levelo_inurba_marseille","lat":43.307945,"lon":5.376487,"is_reserved":false,"is_disabled":false,"rental_uris":{"android":"levelo://app?vid=a97284e7-1e3e-4e11-8b58-ec5adfc008f7","ios":"levelo://app?vid=a97284e7-1e3e-4e11-8b58-ec5adfc008f7"},"vehicle_type_id":"4","last_reported":1716041225,"current_range_meters":0,"station_id":"ce4bgv92rcd13ifvqcq0","pricing_plan_id":"cebpf4jnsgd1na2vs0mg"},{"bike_id":"620b2f30-3508-4a2c-89b9-45384c664f66","system_id":"levelo_inurba_marseille","lat":43.307945,"lon":5.376487,"is_reserved":false,"is_disabled":false,"rental_uris":{"android":"levelo://app?vid=620b2f30-3508-4a2c-89b9-45384c664f66","ios":"levelo://app?vid=620b2f30-3508-4a2c-89b9-45384c664f66"},"vehicle_type_id":"4","last_reported":1716041225,"current_range_meters":0,"station_id":"ce4bgv92rcd13ifvqcq0","pricing_plan_id":"cebpf4jnsgd1na2vs0mg"},{"bike_id":"46a75338-407d-40eb-ab1b-edab4a374e0c","system_id":"levelo_inurba_marseille","lat":43.307945,"lon":5.376487,"is_reserved":false,"is_disabled":false,"rental_uris":{"android":"levelo://app?vid=46a75338-407d-40eb-ab1b-edab4a374e0c","ios":"levelo://app?vid=46a75338-407d-40eb-ab1b-edab4a374e0c"},"vehicle_type_id":"4","last_reported":1716041225,"current_range_meters":23200,"station_id":"ce4bgv92rcd13ifvqcq0","pricing_plan_id":"cebpf4jnsgd1na2vs0mg"},{"bike_id":"92466a03-20ee-41aa-844b-0ec2d97dab85","system_id":"levelo_inurba_marseille","lat":43.317075,"lon":5.377367,"is_reserved":false,"is_disabled":false,"rental_uris":{"android":"levelo://app?vid=92466a03-20ee-41aa-844b-0ec2d97dab85","ios":"levelo://app?vid=92466a03-20ee-41aa-844b-0ec2d97dab85"},"vehicle_type_id":"4","last_reported":1716041225,"current_range_meters":8000,"station_id":"ce4bgth2rcd13ifvqch0","pricing_plan_id":"cebpf4jnsgd1na2vs0mg"},{"bike_id":"ce056cf6-96dc-4130-a9b5-15be4ec399dc","system_id":"levelo_inurba_marseille","lat":43.317075,"lon":5.377367,"is_reserved":false,"is_disabled":false,"rental_uris":{"android":"levelo://app?vid=ce056cf6-96dc-4130-a9b5-15be4ec399dc","ios":"levelo://app?vid=ce056cf6-96dc-4130-a9b5-15be4ec399dc"},"vehicle_type_id":"4","last_reported":1716041225,"current_range_meters":16000,"station_id":"ce4bgth2rcd13ifvqch0","pricing_plan_id":"cebpf4jnsgd1na2vs0mg"},{"bike_id":"760c3c8b-068a-48f3-b3b6-196195668652","system_id":"levelo_inurba_marseille","lat":43.301939,"lon":5.366286,"is_reserved":false,"is_disabled":false,"rental_uris":{"android":"levelo://app?vid=760c3c8b-068a-48f3-b3b6-196195668652","ios":"levelo://app?vid=760c3c8b-068a-48f3-b3b6-196195668652"},"vehicle_type_id":"4","last_reported":1716041225,"current_range_meters":23600,"station_id":"ce4bgrh2rcd13ifvqc8g","pricing_plan_id":"cebpf4jnsgd1na2vs0mg"},{"bike_id":"ab9507dc-29de-43e6-b0c3-66fa2923d30e","system_id":"levelo_inurba_marseille","lat":43.30804,"lon":5.38148,"is_reserved":false,"is_disabled":false,"rental_uris":{"android":"levelo://app?vid=ab9507dc-29de-43e6-b0c3-66fa2923d30e","ios":"levelo://app?vid=ab9507dc-29de-43e6-b0c3-66fa2923d30e"},"vehicle_type_id":"4","last_reported":1716041225,"current_range_meters":14000,"station_id":"ce4bgt12rcd13ifvqce0","pricing_plan_id":"cebpf4jnsgd1na2vs0mg"},{"bike_id":"f039b2ad-bd5d-45f6-8935-5ea0d75a4166","system_id":"levelo_inurba_marseille","lat":43.304606,"lon":5.379026,"is_reserved":false,"is_disabled":false,"rental_uris":{"android":"levelo://app?vid=f039b2ad-bd5d-45f6-8935-5ea0d75a4166","ios":"levelo://app?vid=f039b2ad-bd5d-45f6-8935-5ea0d75a4166"},"vehicle_type_id":"4","last_reported":1716041225,"current_range_meters":22800,"station_id":"ce4bgup2rcd13ifvqcn0","pricing_plan_id":"cebpf4jnsgd1na2vs0mg"},{"bike_id":"89fd4691-fd22-4274-b6a4-df9550a2a05f","system_id":"levelo_inurba_marseille","lat":43.304606,"lon":5.379026,"is_reserved":false,"is_disabled":false,"rental_uris":{"android":"levelo://app?vid=89fd4691-fd22-4274-b6a4-df9550a2a05f","ios":"levelo://app?vid=89fd4691-fd22-4274-b6a4-df9550a2a05f"},"vehicle_type_id":"4","last_reported":1716041225,"current_range_meters":30400,"station_id":"ce4bgup2rcd13ifvqcn0","pricing_plan_id":"cebpf4jnsgd1na2vs0mg"},{"bike_id":"5209b1c1-c57f-4778-9988-584a1fb13298","system_id":"levelo_inurba_marseille","lat":43.30473,"lon":5.379,"is_reserved":false,"is_disabled":false,"rental_uris":{"android":"levelo://app?vid=5209b1c1-c57f-4778-9988-584a1fb13298","ios":"levelo://app?vid=5209b1c1-c57f-4778-9988-584a1fb13298"},"vehicle_type_id":"4","last_reported":1716041225,"current_range_meters":17200,"station_id":"","pricing_plan_id":"cebpf4jnsgd1na2vs0mg"},{"bike_id":"291d7840-99b4-46aa-9773-ef6f02ce45d1","system_id":"levelo_inurba_marseille","lat":43.304606,"lon":5.379026,"is_reserved":false,"is_disabled":false,"rental_uris":{"android":"levelo://app?vid=291d7840-99b4-46aa-9773-ef6f02ce45d1","ios":"levelo://app?vid=291d7840-99b4-46aa-9773-ef6f02ce45d1"},"vehicle_type_id":"4","last_reported":1716041225,"current_range_meters":25600,"station_id":"ce4bgup2rcd13ifvqcn0","pricing_plan_id":"cebpf4jnsgd1na2vs0mg"},{"bike_id":"10a9b765-dbd3-4b76-9267-d02e515681f3","system_id":"levelo_inurba_marseille","lat":43.304606,"lon":5.379026,"is_reserved":false,"is_disabled":false,"rental_uris":{"android":"levelo://app?vid=10a9b765-dbd3-4b76-9267-d02e515681f3","ios":"levelo://app?vid=10a9b765-dbd3-4b76-9267-d02e515681f3"},"vehicle_type_id":"4","last_reported":1716041225,"current_range_meters":31600,"station_id":"ce4bgup2rcd13ifvqcn0","pricing_plan_id":"cebpf4jnsgd1na2vs0mg"},{"bike_id":"e1994cc3-240a-4d61-b2df-b244b6af89e7","system_id":"levelo_inurba_marseille","lat":43.304606,"lon":5.379026,"is_reserved":false,"is_disabled":false,"rental_uris":{"android":"levelo://app?vid=e1994cc3-240a-4d61-b2df-b244b6af89e7","ios":"levelo://app?vid=e1994cc3-240a-4d61-b2df-b244b6af89e7"},"vehicle_type_id":"4","last_reported":1716041225,"current_range_meters":14000,"station_id":"ce4bgup2rcd13ifvqcn0","pricing_plan_id":"cebpf4jnsgd1na2vs0mg"},{"bike_id":"95e8703a-007a-48c3-bee8-c2fda7ffb120","system_id":"levelo_inurba_marseille","lat":43.304606,"lon":5.379026,"is_reserved":false,"is_disabled":false,"rental_uris":{"android":"levelo://app?vid=95e8703a-007a-48c3-bee8-c2fda7ffb120","ios":"levelo://app?vid=95e8703a-007a-48c3-bee8-c2fda7ffb120"},"vehicle_type_id":"4","last_reported":1716041225,"current_range_meters":30800,"station_id":"ce4bgup2rcd13ifvqcn0","pricing_plan_id":"cebpf4jnsgd1na2vs0mg"},{"bike_id":"6c0c65ea-98b7-470a-9784-6de288fefee7","system_id":"levelo_inurba_marseille","lat":43.304606,"lon":5.379026,"is_reserved":false,"is_disabled":false,"rental_uris":{"android":"levelo://app?vid=6c0c65ea-98b7-470a-9784-6de288fefee7","ios":"levelo://app?vid=6c0c65ea-98b7-470a-9784-6de288fefee7"},"vehicle_type_id":"4","last_reported":1716041225,"current_range_meters":14400,"station_id":"ce4bgup2rcd13ifvqcn0","pricing_plan_id":"cebpf4jnsgd1na2vs0mg"},{"bike_id":"aa7e120c-9bd4-4e50-8cb8-a465fb65c186","system_id":"levelo_inurba_marseille","lat":43.304606,"lon":5.379026,"is_reserved":false,"is_disabled":false,"rental_uris":{"android":"levelo://app?vid=aa7e120c-9bd4-4e50-8cb8-a465fb65c186","ios":"levelo://app?vid=aa7e120c-9bd4-4e50-8cb8-a465fb65c186"},"vehicle_type_id":"4","last_reported":1716041225,"current_range_meters":1200,"station_id":"ce4bgup2rcd13ifvqcn0","pricing_plan_id":"cebpf4jnsgd1na2vs0mg"},{"bike_id":"5be2a0fa-ba73-4a0e-a252-17e86e988f0d","system_id":"levelo_inurba_marseille","lat":43.304606,"lon":5.379026,"is_reserved":false,"is_disabled":false,"rental_uris":{"android":"levelo://app?vid=5be2a0fa-ba73-4a0e-a252-17e86e988f0d","ios":"levelo://app?vid=5be2a0fa-ba73-4a0e-a252-17e86e988f0d"},"vehicle_type_id":"4","last_reported":1716041225,"current_range_meters":30000,"station_id":"ce4bgup2rcd13ifvqcn0","pricing_plan_id":"cebpf4jnsgd1na2vs0mg"},{"bike_id":"dcb8532d-c67a-4a8d-973a-5b70b87eac69","system_id":"levelo_inurba_marseille","lat":43.304606,"lon":5.379026,"is_reserved":false,"is_disabled":false,"rental_uris":{"android":"levelo://app?vid=dcb8532d-c67a-4a8d-973a-5b70b87eac69","ios":"levelo://app?vid=dcb8532d-c67a-4a8d-973a-5b70b87eac69"},"vehicle_type_id":"4","last_reported":1716041225,"current_range_meters":26000,"station_id":"ce4bgup2rcd13ifvqcn0","pricing_plan_id":"cebpf4jnsgd1na2vs0mg"},{"bike_id":"082f9159-2e86-4ad9-ac8f-304e2a4b37bd","system_id":"levelo_inurba_marseille","lat":43.304606,"lon":5.379026,"is_reserved":false,"is_disabled":false,"rental_uris":{"android":"levelo://app?vid=082f9159-2e86-4ad9-ac8f-304e2a4b37bd","ios":"levelo://app?vid=082f9159-2e86-4ad9-ac8f-304e2a4b37bd"},"vehicle_type_id":"4","last_reported":1716041225,"current_range_meters":30800,"station_id":"ce4bgup2rcd13ifvqcn0","pricing_plan_id":"cebpf4jnsgd1na2vs0mg"},{"bike_id":"8709337a-1c66-4b96-96df-9597e623177b","system_id":"levelo_inurba_marseille","lat":43.304606,"lon":5.379026,"is_reserved":false,"is_disabled":false,"rental_uris":{"android":"levelo://app?vid=8709337a-1c66-4b96-96df-9597e623177b","ios":"levelo://app?vid=8709337a-1c66-4b96-96df-9597e623177b"},"vehicle_type_id":"4","last_reported":1716041225,"current_range_meters":28800,"station_id":"ce4bgup2rcd13ifvqcn0","pricing_plan_id":"cebpf4jnsgd1na2vs0mg"},{"bike_id":"6ffbf249-3396-42b1-871b-5acaac41a9dc","system_id":"levelo_inurba_marseille","lat":43.304606,"lon":5.379026,"is_reserved":false,"is_disabled":false,"rental_uris":{"android":"levelo://app?vid=6ffbf249-3396-42b1-871b-5acaac41a9dc","ios":"levelo://app?vid=6ffbf249-3396-42b1-871b-5acaac41a9dc"},"vehicle_type_id":"4","last_reported":1716041225,"current_range_meters":10000,"station_id":"ce4bgup2rcd13ifvqcn0","pricing_plan_id":"cebpf4jnsgd1na2vs0mg"},{"bike_id":"ea804c3a-db4a-4ce3-9e65-b8e7e31db39e","system_id":"levelo_inurba_marseille","lat":43.304606,"lon":5.379026,"is_reserved":false,"is_disabled":false,"rental_uris":{"android":"levelo://app?vid=ea804c3a-db4a-4ce3-9e65-b8e7e31db39e","ios":"levelo://app?vid=ea804c3a-db4a-4ce3-9e65-b8e7e31db39e"},"vehicle_type_id":"4","last_reported":1716041225,"current_range_meters":10000,"station_id":"ce4bgup2rcd13ifvqcn0","pricing_plan_id":"cebpf4jnsgd1na2vs0mg"},{"bike_id":"81b0e001-e1ef-4b10-bf60-8282adab295e","system_id":"levelo_inurba_marseille","lat":43.304606,"lon":5.379026,"is_reserved":false,"is_disabled":false,"rental_uris":{"android":"levelo://app?vid=81b0e001-e1ef-4b10-bf60-8282adab295e","ios":"levelo://app?vid=81b0e001-e1ef-4b10-bf60-8282adab295e"},"vehicle_type_id":"4","last_reported":1716041225,"current_range_meters":23600,"station_id":"ce4bgup2rcd13ifvqcn0","pricing_plan_id":"cebpf4jnsgd1na2vs0mg"},{"bike_id":"d20cec5a-d48c-403f-8074-eb31c1439d77","system_id":"levelo_inurba_marseille","lat":43.304606,"lon":5.379026,"is_reserved":false,"is_disabled":false,"rental_uris":{"android":"levelo://app?vid=d20cec5a-d48c-403f-8074-eb31c1439d77","ios":"levelo://app?vid=d20cec5a-d48c-403f-8074-eb31c1439d77"},"vehicle_type_id":"4","last_reported":1716041225,"current_range_meters":31600,"station_id":"ce4bgup2rcd13ifvqcn0","pricing_plan_id":"cebpf4jnsgd1na2vs0mg"},{"bike_id":"48a14215-7617-4bd8-a152-a7c0ef1b3999","system_id":"levelo_inurba_marseille","lat":43.304606,"lon":5.379026,"is_reserved":false,"is_disabled":false,"rental_uris":{"android":"levelo://app?vid=48a14215-7617-4bd8-a152-a7c0ef1b3999","ios":"levelo://app?vid=48a14215-7617-4bd8-a152-a7c0ef1b3999"},"vehicle_type_id":"4","last_reported":1716041225,"current_range_meters":8400,"station_id":"ce4bgup2rcd13ifvqcn0","pricing_plan_id":"cebpf4jnsgd1na2vs0mg"},{"bike_id":"db1926dd-42c2-40bd-95cb-98b653204ebf","system_id":"levelo_inurba_marseille","lat":43.304606,"lon":5.379026,"is_reserved":false,"is_disabled":false,"rental_uris":{"android":"levelo://app?vid=db1926dd-42c2-40bd-95cb-98b653204ebf","ios":"levelo://app?vid=db1926dd-42c2-40bd-95cb-98b653204ebf"},"vehicle_type_id":"4","last_reported":1716041225,"current_range_meters":22800,"station_id":"ce4bgup2rcd13ifvqcn0","pricing_plan_id":"cebpf4jnsgd1na2vs0mg"},{"bike_id":"9c40fb47-88b8-4ae7-8d86-5df7df9fe997","system_id":"levelo_inurba_marseille","lat":43.304606,"lon":5.379026,"is_reserved":false,"is_disabled":false,"rental_uris":{"android":"levelo://app?vid=9c40fb47-88b8-4ae7-8d86-5df7df9fe997","ios":"levelo://app?vid=9c40fb47-88b8-4ae7-8d86-5df7df9fe997"},"vehicle_type_id":"4","last_reported":1716041225,"current_range_meters":12000,"station_id":"ce4bgup2rcd13ifvqcn0","pricing_plan_id":"cebpf4jnsgd1na2vs0mg"},{"bike_id":"a7808c4a-ec9f-4dc8-9704-fd8bd64e1290","system_id":"levelo_inurba_marseille","lat":43.304606,"lon":5.379026,"is_reserved":false,"is_disabled":false,"rental_uris":{"android":"levelo://app?vid=a7808c4a-ec9f-4dc8-9704-fd8bd64e1290","ios":"levelo://app?vid=a7808c4a-ec9f-4dc8-9704-fd8bd64e1290"},"vehicle_type_id":"4","last_reported":1716041225,"current_range_meters":2000,"station_id":"ce4bgup2rcd13ifvqcn0","pricing_plan_id":"cebpf4jnsgd1na2vs0mg"},{"bike_id":"8698a6d3-06c2-4ff4-8287-1176f201daab","system_id":"levelo_inurba_marseille","lat":43.304606,"lon":5.379026,"is_reserved":false,"is_disabled":false,"rental_uris":{"android":"levelo://app?vid=8698a6d3-06c2-4ff4-8287-1176f201daab","ios":"levelo://app?vid=8698a6d3-06c2-4ff4-8287-1176f201daab"},"vehicle_type_id":"4","last_reported":1716041225,"current_range_meters":8400,"station_id":"ce4bgup2rcd13ifvqcn0","pricing_plan_id":"cebpf4jnsgd1na2vs0mg"},{"bike_id":"cbb6dc60-237b-4244-9e2b-23351ad6ee60","system_id":"levelo_inurba_marseille","lat":43.304606,"lon":5.379026,"is_reserved":false,"is_disabled":false,"rental_uris":{"android":"levelo://app?vid=cbb6dc60-237b-4244-9e2b-23351ad6ee60","ios":"levelo://app?vid=cbb6dc60-237b-4244-9e2b-23351ad6ee60"},"vehicle_type_id":"4","last_reported":1716041225,"current_range_meters":26800,"station_id":"ce4bgup2rcd13ifvqcn0","pricing_plan_id":"cebpf4jnsgd1na2vs0mg"},{"bike_id":"0e2dbb9f-b346-4daa-9133-b0df4e72a0f8","system_id":"levelo_inurba_marseille","lat":43.304606,"lon":5.379026,"is_reserved":false,"is_disabled":false,"rental_uris":{"android":"levelo://app?vid=0e2dbb9f-b346-4daa-9133-b0df4e72a0f8","ios":"levelo://app?vid=0e2dbb9f-b346-4daa-9133-b0df4e72a0f8"},"vehicle_type_id":"4","last_reported":1716041225,"current_range_meters":16400,"station_id":"ce4bgup2rcd13ifvqcn0","pricing_plan_id":"cebpf4jnsgd1na2vs0mg"},{"bike_id":"17e46a31-041f-45dd-b9ea-e9e729c582e0","system_id":"levelo_inurba_marseille","lat":43.304606,"lon":5.379026,"is_reserved":false,"is_disabled":false,"rental_uris":{"android":"levelo://app?vid=17e46a31-041f-45dd-b9ea-e9e729c582e0","ios":"levelo://app?vid=17e46a31-041f-45dd-b9ea-e9e729c582e0"},"vehicle_type_id":"4","last_reported":1716041225,"current_range_meters":29200,"station_id":"ce4bgup2rcd13ifvqcn0","pricing_plan_id":"cebpf4jnsgd1na2vs0mg"},{"bike_id":"a088e7c9-30ef-44bf-9d0d-b391b1f9296a","system_id":"levelo_inurba_marseille","lat":43.324771,"lon":5.36557,"is_reserved":false,"is_disabled":false,"rental_uris":{"android":"levelo://app?vid=a088e7c9-30ef-44bf-9d0d-b391b1f9296a","ios":"levelo://app?vid=a088e7c9-30ef-44bf-9d0d-b391b1f9296a"},"vehicle_type_id":"4","last_reported":1716041225,"current_range_meters":9200,"station_id":"ce4bhs12rcd13ifvqhvg","pricing_plan_id":"cebpf4jnsgd1na2vs0mg"},{"bike_id":"b019ca40-f0f6-45bb-808e-e353c7804144","system_id":"levelo_inurba_marseille","lat":43.324771,"lon":5.36557,"is_reserved":false,"is_disabled":false,"rental_uris":{"android":"levelo://app?vid=b019ca40-f0f6-45bb-808e-e353c7804144","ios":"levelo://app?vid=b019ca40-f0f6-45bb-808e-e353c7804144"},"vehicle_type_id":"4","last_reported":1716041225,"current_range_meters":2400,"station_id":"ce4bhs12rcd13ifvqhvg","pricing_plan_id":"cebpf4jnsgd1na2vs0mg"},{"bike_id":"4ee85a9a-079b-4b6d-a5ba-f65f6fa1fe7c","system_id":"levelo_inurba_marseille","lat":43.324771,"lon":5.36557,"is_reserved":false,"is_disabled":false,"rental_uris":{"android":"levelo://app?vid=4ee85a9a-079b-4b6d-a5ba-f65f6fa1fe7c","ios":"levelo://app?vid=4ee85a9a-079b-4b6d-a5ba-f65f6fa1fe7c"},"vehicle_type_id":"4","last_reported":1716041225,"current_range_meters":4400,"station_id":"ce4bhs12rcd13ifvqhvg","pricing_plan_id":"cebpf4jnsgd1na2vs0mg"},{"bike_id":"e6d736f8-9b8d-4ce5-9f23-7921ed85f212","system_id":"levelo_inurba_marseille","lat":43.310804,"lon":5.38359,"is_reserved":false,"is_disabled":false,"rental_uris":{"android":"levelo://app?vid=e6d736f8-9b8d-4ce5-9f23-7921ed85f212","ios":"levelo://app?vid=e6d736f8-9b8d-4ce5-9f23-7921ed85f212"},"vehicle_type_id":"4","last_reported":1716041225,"current_range_meters":23200,"station_id":"ce4bgv92rcd13ifvqcr0","pricing_plan_id":"cebpf4jnsgd1na2vs0mg"},{"bike_id":"f32085be-e2e3-4b75-8a91-199751364d70","system_id":"levelo_inurba_marseille","lat":43.302784,"lon":5.377158,"is_reserved":false,"is_disabled":false,"rental_uris":{"android":"levelo://app?vid=f32085be-e2e3-4b75-8a91-199751364d70","ios":"levelo://app?vid=f32085be-e2e3-4b75-8a91-199751364d70"},"vehicle_type_id":"4","last_reported":1716041225,"current_range_meters":26000,"station_id":"ce4bguh2rcd13ifvqcj0","pricing_plan_id":"cebpf4jnsgd1na2vs0mg"},{"bike_id":"6eccde37-4c26-40c5-8c7f-e8045d9066e9","system_id":"levelo_inurba_marseille","lat":43.30279,"lon":5.37697,"is_reserved":false,"is_disabled":false,"rental_uris":{"android":"levelo://app?vid=6eccde37-4c26-40c5-8c7f-e8045d9066e9","ios":"levelo://app?vid=6eccde37-4c26-40c5-8c7f-e8045d9066e9"},"vehicle_type_id":"4","last_reported":1716041225,"current_range_meters":22800,"station_id":"ce4bguh2rcd13ifvqcj0","pricing_plan_id":"cebpf4jnsgd1na2vs0mg"},{"bike_id":"510e594f-8d78-46a1-98fa-e1f91849b5dc","system_id":"levelo_inurba_marseille","lat":43.301371,"lon":5.374169,"is_reserved":false,"is_disabled":false,"rental_uris":{"android":"levelo://app?vid=510e594f-8d78-46a1-98fa-e1f91849b5dc","ios":"levelo://app?vid=510e594f-8d78-46a1-98fa-e1f91849b5dc"},"vehicle_type_id":"4","last_reported":1716041225,"current_range_meters":14400,"station_id":"ce4bgs92rcd13ifvqcc0","pricing_plan_id":"cebpf4jnsgd1na2vs0mg"},{"bike_id":"b8fddb45-4e90-45f5-b33a-3c8af6dd9162","system_id":"levelo_inurba_marseille","lat":43.313571,"lon":5.384829,"is_reserved":false,"is_disabled":false,"rental_uris":{"android":"levelo://app?vid=b8fddb45-4e90-45f5-b33a-3c8af6dd9162","ios":"levelo://app?vid=b8fddb45-4e90-45f5-b33a-3c8af6dd9162"},"vehicle_type_id":"4","last_reported":1716041225,"current_range_meters":18800,"station_id":"ce4bgt92rcd13ifvqcf0","pricing_plan_id":"cebpf4jnsgd1na2vs0mg"},{"bike_id":"ccc49320-2f77-49f7-93f7-3ffe485c23b7","system_id":"levelo_inurba_marseille","lat":43.30002,"lon":5.36863,"is_reserved":false,"is_disabled":false,"rental_uris":{"android":"levelo://app?vid=ccc49320-2f77-49f7-93f7-3ffe485c23b7","ios":"levelo://app?vid=ccc49320-2f77-49f7-93f7-3ffe485c23b7"},"vehicle_type_id":"4","last_reported":1716041225,"current_range_meters":4800,"station_id":"","pricing_plan_id":"cebpf4jnsgd1na2vs0mg"},{"bike_id":"34cabfc5-9eef-4fe8-a57a-267bbca1a0a2","system_id":"levelo_inurba_marseille","lat":43.324771,"lon":5.36557,"is_reserved":false,"is_disabled":false,"rental_uris":{"android":"levelo://app?vid=34cabfc5-9eef-4fe8-a57a-267bbca1a0a2","ios":"levelo://app?vid=34cabfc5-9eef-4fe8-a57a-267bbca1a0a2"},"vehicle_type_id":"4","last_reported":1716041225,"current_range_meters":26000,"station_id":"ce4bhs12rcd13ifvqhvg","pricing_plan_id":"cebpf4jnsgd1na2vs0mg"},{"bike_id":"0ee09b04-e98a-431b-9603-0b61a8544ca5","system_id":"levelo_inurba_marseille","lat":43.313571,"lon":5.384829,"is_reserved":false,"is_disabled":false,"rental_uris":{"android":"levelo://app?vid=0ee09b04-e98a-431b-9603-0b61a8544ca5","ios":"levelo://app?vid=0ee09b04-e98a-431b-9603-0b61a8544ca5"},"vehicle_type_id":"4","last_reported":1716041225,"current_range_meters":8400,"station_id":"ce4bgt92rcd13ifvqcf0","pricing_plan_id":"cebpf4jnsgd1na2vs0mg"},{"bike_id":"d0e8c20d-1752-4135-b0cc-2d1b4ff69a67","system_id":"levelo_inurba_marseille","lat":43.299222,"lon":5.365554,"is_reserved":false,"is_disabled":false,"rental_uris":{"android":"levelo://app?vid=d0e8c20d-1752-4135-b0cc-2d1b4ff69a67","ios":"levelo://app?vid=d0e8c20d-1752-4135-b0cc-2d1b4ff69a67"},"vehicle_type_id":"4","last_reported":1716041225,"current_range_meters":21200,"station_id":"ce4bgm92rcd13ifvqbr0","pricing_plan_id":"cebpf4jnsgd1na2vs0mg"},{"bike_id":"23023ec7-0c03-4710-b268-4c26340d4b53","system_id":"levelo_inurba_marseille","lat":43.299222,"lon":5.365554,"is_reserved":false,"is_disabled":false,"rental_uris":{"android":"levelo://app?vid=23023ec7-0c03-4710-b268-4c26340d4b53","ios":"levelo://app?vid=23023ec7-0c03-4710-b268-4c26340d4b53"},"vehicle_type_id":"4","last_reported":1716041225,"current_range_meters":29600,"station_id":"ce4bgm92rcd13ifvqbr0","pricing_plan_id":"cebpf4jnsgd1na2vs0mg"},{"bike_id":"0cd2e3c3-c59b-4a1d-82ac-d5f49150b790","system_id":"levelo_inurba_marseille","lat":43.305364,"lon":5.384119,"is_reserved":false,"is_disabled":false,"rental_uris":{"android":"levelo://app?vid=0cd2e3c3-c59b-4a1d-82ac-d5f49150b790","ios":"levelo://app?vid=0cd2e3c3-c59b-4a1d-82ac-d5f49150b790"},"vehicle_type_id":"4","last_reported":1716041225,"current_range_meters":2000,"station_id":"ce4bgg92rcd13ifvqb30","pricing_plan_id":"cebpf4jnsgd1na2vs0mg"},{"bike_id":"fc23efc9-5d11-42ed-881a-2f0450e8f7dd","system_id":"levelo_inurba_marseille","lat":43.305364,"lon":5.384119,"is_reserved":false,"is_disabled":false,"rental_uris":{"android":"levelo://app?vid=fc23efc9-5d11-42ed-881a-2f0450e8f7dd","ios":"levelo://app?vid=fc23efc9-5d11-42ed-881a-2f0450e8f7dd"},"vehicle_type_id":"4","last_reported":1716041225,"current_range_meters":24400,"station_id":"ce4bgg92rcd13ifvqb30","pricing_plan_id":"cebpf4jnsgd1na2vs0mg"},{"bike_id":"da20d867-2bf3-4ecf-99ed-33a9732ddafb","system_id":"levelo_inurba_marseille","lat":43.299217,"lon":5.374547,"is_reserved":false,"is_disabled":false,"rental_uris":{"android":"levelo://app?vid=da20d867-2bf3-4ecf-99ed-33a9732ddafb","ios":"levelo://app?vid=da20d867-2bf3-4ecf-99ed-33a9732ddafb"},"vehicle_type_id":"4","last_reported":1716041225,"current_range_meters":27600,"station_id":"ce4bgjh2rcd13ifvqbg0","pricing_plan_id":"cebpf4jnsgd1na2vs0mg"},{"bike_id":"0a56d86a-5bb4-4cb4-a6bf-a65f971df26c","system_id":"levelo_inurba_marseille","lat":43.29845,"lon":5.362703,"is_reserved":false,"is_disabled":false,"rental_uris":{"android":"levelo://app?vid=0a56d86a-5bb4-4cb4-a6bf-a65f971df26c","ios":"levelo://app?vid=0a56d86a-5bb4-4cb4-a6bf-a65f971df26c"},"vehicle_type_id":"4","last_reported":1716041225,"current_range_meters":13200,"station_id":"ce4bgpp2rcd13ifvqc3g","pricing_plan_id":"cebpf4jnsgd1na2vs0mg"},{"bike_id":"c3c8b1b0-dee6-448c-abf5-293333bfea52","system_id":"levelo_inurba_marseille","lat":43.298433,"lon":5.362774,"is_reserved":false,"is_disabled":false,"rental_uris":{"android":"levelo://app?vid=c3c8b1b0-dee6-448c-abf5-293333bfea52","ios":"levelo://app?vid=c3c8b1b0-dee6-448c-abf5-293333bfea52"},"vehicle_type_id":"4","last_reported":1716041225,"current_range_meters":20800,"station_id":"ce4bgpp2rcd13ifvqc3g","pricing_plan_id":"cebpf4jnsgd1na2vs0mg"},{"bike_id":"e918b186-749b-4c24-be0c-dc045a4eac1a","system_id":"levelo_inurba_marseille","lat":43.298433,"lon":5.362774,"is_reserved":false,"is_disabled":false,"rental_uris":{"android":"levelo://app?vid=e918b186-749b-4c24-be0c-dc045a4eac1a","ios":"levelo://app?vid=e918b186-749b-4c24-be0c-dc045a4eac1a"},"vehicle_type_id":"4","last_reported":1716041225,"current_range_meters":31600,"station_id":"ce4bgpp2rcd13ifvqc3g","pricing_plan_id":"cebpf4jnsgd1na2vs0mg"},{"bike_id":"1ab9462a-2882-4c6f-97e8-bcf5024a5ff9","system_id":"levelo_inurba_marseille","lat":43.298433,"lon":5.362774,"is_reserved":false,"is_disabled":false,"rental_uris":{"android":"levelo://app?vid=1ab9462a-2882-4c6f-97e8-bcf5024a5ff9","ios":"levelo://app?vid=1ab9462a-2882-4c6f-97e8-bcf5024a5ff9"},"vehicle_type_id":"4","last_reported":1716041225,"current_range_meters":26000,"station_id":"ce4bgpp2rcd13ifvqc3g","pricing_plan_id":"cebpf4jnsgd1na2vs0mg"},{"bike_id":"048acf65-f2ea-4955-be27-6e2d916cb9df","system_id":"levelo_inurba_marseille","lat":43.298433,"lon":5.362774,"is_reserved":false,"is_disabled":false,"rental_uris":{"android":"levelo://app?vid=048acf65-f2ea-4955-be27-6e2d916cb9df","ios":"levelo://app?vid=048acf65-f2ea-4955-be27-6e2d916cb9df"},"vehicle_type_id":"4","last_reported":1716041225,"current_range_meters":26000,"station_id":"ce4bgpp2rcd13ifvqc3g","pricing_plan_id":"cebpf4jnsgd1na2vs0mg"},{"bike_id":"66118663-2955-4ada-a868-f5f6dbf5e606","system_id":"levelo_inurba_marseille","lat":43.311722,"lon":5.387247,"is_reserved":false,"is_disabled":false,"rental_uris":{"android":"levelo://app?vid=66118663-2955-4ada-a868-f5f6dbf5e606","ios":"levelo://app?vid=66118663-2955-4ada-a868-f5f6dbf5e606"},"vehicle_type_id":"4","last_reported":1716041225,"current_range_meters":17200,"station_id":"ce4bgv12rcd13ifvqcp0","pricing_plan_id":"cebpf4jnsgd1na2vs0mg"},{"bike_id":"ee6e3c9f-a820-42b4-bda3-1274dce18f05","system_id":"levelo_inurba_marseille","lat":43.311722,"lon":5.387247,"is_reserved":false,"is_disabled":false,"rental_uris":{"android":"levelo://app?vid=ee6e3c9f-a820-42b4-bda3-1274dce18f05","ios":"levelo://app?vid=ee6e3c9f-a820-42b4-bda3-1274dce18f05"},"vehicle_type_id":"4","last_reported":1716041225,"current_range_meters":10000,"station_id":"ce4bgv12rcd13ifvqcp0","pricing_plan_id":"cebpf4jnsgd1na2vs0mg"},{"bike_id":"be56a66c-3dc0-4dc6-a9a7-2f905ff0ab63","system_id":"levelo_inurba_marseille","lat":43.29799,"lon":5.37131,"is_reserved":false,"is_disabled":false,"rental_uris":{"android":"levelo://app?vid=be56a66c-3dc0-4dc6-a9a7-2f905ff0ab63","ios":"levelo://app?vid=be56a66c-3dc0-4dc6-a9a7-2f905ff0ab63"},"vehicle_type_id":"4","last_reported":1716041225,"current_range_meters":0,"station_id":"ce4bgop2rcd13ifvqc1g","pricing_plan_id":"cebpf4jnsgd1na2vs0mg"},{"bike_id":"b22379ec-8777-4dcd-8c0e-9642bdad8cfd","system_id":"levelo_inurba_marseille","lat":43.297774,"lon":5.370875,"is_reserved":false,"is_disabled":false,"rental_uris":{"android":"levelo://app?vid=b22379ec-8777-4dcd-8c0e-9642bdad8cfd","ios":"levelo://app?vid=b22379ec-8777-4dcd-8c0e-9642bdad8cfd"},"vehicle_type_id":"4","last_reported":1716041225,"current_range_meters":30800,"station_id":"ce4bgop2rcd13ifvqc1g","pricing_plan_id":"cebpf4jnsgd1na2vs0mg"},{"bike_id":"a78c0371-18a7-4609-8a16-1a99a180568a","system_id":"levelo_inurba_marseille","lat":43.297794,"lon":5.370888,"is_reserved":false,"is_disabled":false,"rental_uris":{"android":"levelo://app?vid=a78c0371-18a7-4609-8a16-1a99a180568a","ios":"levelo://app?vid=a78c0371-18a7-4609-8a16-1a99a180568a"},"vehicle_type_id":"4","last_reported":1716041225,"current_range_meters":30400,"station_id":"ce4bgop2rcd13ifvqc1g","pricing_plan_id":"cebpf4jnsgd1na2vs0mg"},{"bike_id":"966cbe28-5cdf-4ee4-bdce-2d023316817f","system_id":"levelo_inurba_marseille","lat":43.297774,"lon":5.370875,"is_reserved":false,"is_disabled":false,"rental_uris":{"android":"levelo://app?vid=966cbe28-5cdf-4ee4-bdce-2d023316817f","ios":"levelo://app?vid=966cbe28-5cdf-4ee4-bdce-2d023316817f"},"vehicle_type_id":"4","last_reported":1716041225,"current_range_meters":26400,"station_id":"ce4bgop2rcd13ifvqc1g","pricing_plan_id":"cebpf4jnsgd1na2vs0mg"},{"bike_id":"8f76ed4d-c035-4587-9402-db6595f38f9b","system_id":"levelo_inurba_marseille","lat":43.29781,"lon":5.37106,"is_reserved":false,"is_disabled":false,"rental_uris":{"android":"levelo://app?vid=8f76ed4d-c035-4587-9402-db6595f38f9b","ios":"levelo://app?vid=8f76ed4d-c035-4587-9402-db6595f38f9b"},"vehicle_type_id":"4","last_reported":1716041225,"current_range_meters":0,"station_id":"ce4bgop2rcd13ifvqc1g","pricing_plan_id":"cebpf4jnsgd1na2vs0mg"},{"bike_id":"614432ba-f8d8-42f8-93f8-ecc3b5df4c49","system_id":"levelo_inurba_marseille","lat":43.297774,"lon":5.370875,"is_reserved":false,"is_disabled":false,"rental_uris":{"android":"levelo://app?vid=614432ba-f8d8-42f8-93f8-ecc3b5df4c49","ios":"levelo://app?vid=614432ba-f8d8-42f8-93f8-ecc3b5df4c49"},"vehicle_type_id":"4","last_reported":1716041225,"current_range_meters":29600,"station_id":"ce4bgop2rcd13ifvqc1g","pricing_plan_id":"cebpf4jnsgd1na2vs0mg"},{"bike_id":"f9dca72a-1fa0-4a31-b600-4eb9f232b882","system_id":"levelo_inurba_marseille","lat":43.322872,"lon":5.382756,"is_reserved":false,"is_disabled":false,"rental_uris":{"android":"levelo://app?vid=f9dca72a-1fa0-4a31-b600-4eb9f232b882","ios":"levelo://app?vid=f9dca72a-1fa0-4a31-b600-4eb9f232b882"},"vehicle_type_id":"4","last_reported":1716041225,"current_range_meters":21200,"station_id":"ce4bhr12rcd13ifvqhqg","pricing_plan_id":"cebpf4jnsgd1na2vs0mg"},{"bike_id":"7259ffe0-2c32-43d7-8191-d3f595e8fb30","system_id":"levelo_inurba_marseille","lat":43.29715,"lon":5.36617,"is_reserved":false,"is_disabled":false,"rental_uris":{"android":"levelo://app?vid=7259ffe0-2c32-43d7-8191-d3f595e8fb30","ios":"levelo://app?vid=7259ffe0-2c32-43d7-8191-d3f595e8fb30"},"vehicle_type_id":"4","last_reported":1716041225,"current_range_meters":2800,"station_id":"ce4bgn12rcd13ifvqbt0","pricing_plan_id":"cebpf4jnsgd1na2vs0mg"},{"bike_id":"e8b74b53-1f66-4822-bc9f-59e0cd63ffdc","system_id":"levelo_inurba_marseille","lat":43.296974,"lon":5.368925,"is_reserved":false,"is_disabled":false,"rental_uris":{"android":"levelo://app?vid=e8b74b53-1f66-4822-bc9f-59e0cd63ffdc","ios":"levelo://app?vid=e8b74b53-1f66-4822-bc9f-59e0cd63ffdc"},"vehicle_type_id":"4","last_reported":1716041225,"current_range_meters":800,"station_id":"","pricing_plan_id":"cebpf4jnsgd1na2vs0mg"},{"bike_id":"16015bb6-f7ff-4105-9260-ca05fe52d6a3","system_id":"levelo_inurba_marseille","lat":43.29688,"lon":5.37292,"is_reserved":false,"is_disabled":false,"rental_uris":{"android":"levelo://app?vid=16015bb6-f7ff-4105-9260-ca05fe52d6a3","ios":"levelo://app?vid=16015bb6-f7ff-4105-9260-ca05fe52d6a3"},"vehicle_type_id":"4","last_reported":1716041225,"current_range_meters":400,"station_id":"ce4bgk12rcd13ifvqbj0","pricing_plan_id":"cebpf4jnsgd1na2vs0mg"},{"bike_id":"e088418d-1c3c-4a15-8228-61c35fac3809","system_id":"levelo_inurba_marseille","lat":43.2968,"lon":5.37291,"is_reserved":false,"is_disabled":false,"rental_uris":{"android":"levelo://app?vid=e088418d-1c3c-4a15-8228-61c35fac3809","ios":"levelo://app?vid=e088418d-1c3c-4a15-8228-61c35fac3809"},"vehicle_type_id":"4","last_reported":1716041225,"current_range_meters":9200,"station_id":"ce4bgk12rcd13ifvqbj0","pricing_plan_id":"cebpf4jnsgd1na2vs0mg"},{"bike_id":"9a014765-cf6c-4d2f-bcd0-4808d3aea513","system_id":"levelo_inurba_marseille","lat":43.2968,"lon":5.37291,"is_reserved":false,"is_disabled":false,"rental_uris":{"android":"levelo://app?vid=9a014765-cf6c-4d2f-bcd0-4808d3aea513","ios":"levelo://app?vid=9a014765-cf6c-4d2f-bcd0-4808d3aea513"},"vehicle_type_id":"4","last_reported":1716041225,"current_range_meters":25600,"station_id":"ce4bgk12rcd13ifvqbj0","pricing_plan_id":"cebpf4jnsgd1na2vs0mg"},{"bike_id":"1fc0e84a-317f-48d4-b2ca-aa59471b1aa6","system_id":"levelo_inurba_marseille","lat":43.2968,"lon":5.37291,"is_reserved":false,"is_disabled":false,"rental_uris":{"android":"levelo://app?vid=1fc0e84a-317f-48d4-b2ca-aa59471b1aa6","ios":"levelo://app?vid=1fc0e84a-317f-48d4-b2ca-aa59471b1aa6"},"vehicle_type_id":"4","last_reported":1716041225,"current_range_meters":5600,"station_id":"ce4bgk12rcd13ifvqbj0","pricing_plan_id":"cebpf4jnsgd1na2vs0mg"},{"bike_id":"1bc87702-42ea-445e-8260-211155cfeec8","system_id":"levelo_inurba_marseille","lat":43.309517,"lon":5.390197,"is_reserved":false,"is_disabled":false,"rental_uris":{"android":"levelo://app?vid=1bc87702-42ea-445e-8260-211155cfeec8","ios":"levelo://app?vid=1bc87702-42ea-445e-8260-211155cfeec8"},"vehicle_type_id":"4","last_reported":1716041225,"current_range_meters":0,"station_id":"ce4bgup2rcd13ifvqco0","pricing_plan_id":"cebpf4jnsgd1na2vs0mg"},{"bike_id":"a5a9a19e-446e-49d3-b65a-2850f1418ee0","system_id":"levelo_inurba_marseille","lat":43.296921,"lon":5.376579,"is_reserved":false,"is_disabled":false,"rental_uris":{"android":"levelo://app?vid=a5a9a19e-446e-49d3-b65a-2850f1418ee0","ios":"levelo://app?vid=a5a9a19e-446e-49d3-b65a-2850f1418ee0"},"vehicle_type_id":"4","last_reported":1716041225,"current_range_meters":400,"station_id":"ce4bgkh2rcd13ifvqbl0","pricing_plan_id":"cebpf4jnsgd1na2vs0mg"},{"bike_id":"db093809-3b56-4f04-b7aa-27194653d279","system_id":"levelo_inurba_marseille","lat":43.309589,"lon":5.390258,"is_reserved":false,"is_disabled":false,"rental_uris":{"android":"levelo://app?vid=db093809-3b56-4f04-b7aa-27194653d279","ios":"levelo://app?vid=db093809-3b56-4f04-b7aa-27194653d279"},"vehicle_type_id":"4","last_reported":1716041225,"current_range_meters":22800,"station_id":"ce4bgup2rcd13ifvqco0","pricing_plan_id":"cebpf4jnsgd1na2vs0mg"},{"bike_id":"57f69314-0d3e-4391-a47d-6de015504728","system_id":"levelo_inurba_marseille","lat":43.317557,"lon":5.390173,"is_reserved":false,"is_disabled":false,"rental_uris":{"android":"levelo://app?vid=57f69314-0d3e-4391-a47d-6de015504728","ios":"levelo://app?vid=57f69314-0d3e-4391-a47d-6de015504728"},"vehicle_type_id":"4","last_reported":1716041225,"current_range_meters":21200,"station_id":"ce4bhqp2rcd13ifvqhng","pricing_plan_id":"cebpf4jnsgd1na2vs0mg"},{"bike_id":"bb1b6c9d-d108-44c0-81ac-0c492b5a1092","system_id":"levelo_inurba_marseille","lat":43.298037,"lon":5.381066,"is_reserved":false,"is_disabled":false,"rental_uris":{"android":"levelo://app?vid=bb1b6c9d-d108-44c0-81ac-0c492b5a1092","ios":"levelo://app?vid=bb1b6c9d-d108-44c0-81ac-0c492b5a1092"},"vehicle_type_id":"4","last_reported":1716041225,"current_range_meters":0,"station_id":"ce4bgip2rcd13ifvqbb0","pricing_plan_id":"cebpf4jnsgd1na2vs0mg"},{"bike_id":"31c8ebba-8e13-4ae1-b38a-26eeb8e4713c","system_id":"levelo_inurba_marseille","lat":43.297235,"lon":5.379603,"is_reserved":false,"is_disabled":false,"rental_uris":{"android":"levelo://app?vid=31c8ebba-8e13-4ae1-b38a-26eeb8e4713c","ios":"levelo://app?vid=31c8ebba-8e13-4ae1-b38a-26eeb8e4713c"},"vehicle_type_id":"4","last_reported":1716041225,"current_range_meters":26800,"station_id":"","pricing_plan_id":"cebpf4jnsgd1na2vs0mg"},{"bike_id":"98aacd99-5f15-497e-9197-a75fe3035e39","system_id":"levelo_inurba_marseille","lat":43.304278,"lon":5.388868,"is_reserved":false,"is_disabled":false,"rental_uris":{"android":"levelo://app?vid=98aacd99-5f15-497e-9197-a75fe3035e39","ios":"levelo://app?vid=98aacd99-5f15-497e-9197-a75fe3035e39"},"vehicle_type_id":"4","last_reported":1716041225,"current_range_meters":15200,"station_id":"ce4bgk12rcd13ifvqbi0","pricing_plan_id":"cebpf4jnsgd1na2vs0mg"},{"bike_id":"9d82c020-66ca-40f4-82f3-dbefc775cb74","system_id":"levelo_inurba_marseille","lat":43.298037,"lon":5.381066,"is_reserved":false,"is_disabled":false,"rental_uris":{"android":"levelo://app?vid=9d82c020-66ca-40f4-82f3-dbefc775cb74","ios":"levelo://app?vid=9d82c020-66ca-40f4-82f3-dbefc775cb74"},"vehicle_type_id":"4","last_reported":1716041225,"current_range_meters":13200,"station_id":"ce4bgip2rcd13ifvqbb0","pricing_plan_id":"cebpf4jnsgd1na2vs0mg"},{"bike_id":"f9f72c4e-049e-4d5c-8a39-dbc89e713a9e","system_id":"levelo_inurba_marseille","lat":43.295279,"lon":5.375048,"is_reserved":false,"is_disabled":false,"rental_uris":{"android":"levelo://app?vid=f9f72c4e-049e-4d5c-8a39-dbc89e713a9e","ios":"levelo://app?vid=f9f72c4e-049e-4d5c-8a39-dbc89e713a9e"},"vehicle_type_id":"4","last_reported":1716041225,"current_range_meters":4000,"station_id":"ce4bgkp2rcd13ifvqbmg","pricing_plan_id":"cebpf4jnsgd1na2vs0mg"},{"bike_id":"d334a5aa-d2ae-4937-b0c3-5f49c016bbcc","system_id":"levelo_inurba_marseille","lat":43.295279,"lon":5.375048,"is_reserved":false,"is_disabled":false,"rental_uris":{"android":"levelo://app?vid=d334a5aa-d2ae-4937-b0c3-5f49c016bbcc","ios":"levelo://app?vid=d334a5aa-d2ae-4937-b0c3-5f49c016bbcc"},"vehicle_type_id":"4","last_reported":1716041225,"current_range_meters":0,"station_id":"ce4bgkp2rcd13ifvqbmg","pricing_plan_id":"cebpf4jnsgd1na2vs0mg"},{"bike_id":"9ec02d54-c53c-40b4-8504-7d8298590a0b","system_id":"levelo_inurba_marseille","lat":43.299724,"lon":5.384848,"is_reserved":false,"is_disabled":false,"rental_uris":{"android":"levelo://app?vid=9ec02d54-c53c-40b4-8504-7d8298590a0b","ios":"levelo://app?vid=9ec02d54-c53c-40b4-8504-7d8298590a0b"},"vehicle_type_id":"4","last_reported":1716041225,"current_range_meters":0,"station_id":"ce4bgj92rcd13ifvqbd0","pricing_plan_id":"cebpf4jnsgd1na2vs0mg"},{"bike_id":"45e3a040-c12b-4047-8025-b6b253231486","system_id":"levelo_inurba_marseille","lat":43.296034,"lon":5.381019,"is_reserved":false,"is_disabled":false,"rental_uris":{"android":"levelo://app?vid=45e3a040-c12b-4047-8025-b6b253231486","ios":"levelo://app?vid=45e3a040-c12b-4047-8025-b6b253231486"},"vehicle_type_id":"4","last_reported":1716041225,"current_range_meters":24000,"station_id":"","pricing_plan_id":"cebpf4jnsgd1na2vs0mg"},{"bike_id":"3e47bb5c-d3b9-4a35-9259-56b592850dfb","system_id":"levelo_inurba_marseille","lat":43.29602,"lon":5.381084,"is_reserved":false,"is_disabled":false,"rental_uris":{"android":"levelo://app?vid=3e47bb5c-d3b9-4a35-9259-56b592850dfb","ios":"levelo://app?vid=3e47bb5c-d3b9-4a35-9259-56b592850dfb"},"vehicle_type_id":"4","last_reported":1716041225,"current_range_meters":5600,"station_id":"ce4bgl12rcd13ifvqbo0","pricing_plan_id":"cebpf4jnsgd1na2vs0mg"},{"bike_id":"3cb0015d-e2f4-4f50-a53d-7146f659030a","system_id":"levelo_inurba_marseille","lat":43.29602,"lon":5.381084,"is_reserved":false,"is_disabled":false,"rental_uris":{"android":"levelo://app?vid=3cb0015d-e2f4-4f50-a53d-7146f659030a","ios":"levelo://app?vid=3cb0015d-e2f4-4f50-a53d-7146f659030a"},"vehicle_type_id":"4","last_reported":1716041225,"current_range_meters":28400,"station_id":"ce4bgl12rcd13ifvqbo0","pricing_plan_id":"cebpf4jnsgd1na2vs0mg"},{"bike_id":"8c944c12-d06f-4b94-80a3-34451e86fb9c","system_id":"levelo_inurba_marseille","lat":43.29844,"lon":5.38576,"is_reserved":false,"is_disabled":false,"rental_uris":{"android":"levelo://app?vid=8c944c12-d06f-4b94-80a3-34451e86fb9c","ios":"levelo://app?vid=8c944c12-d06f-4b94-80a3-34451e86fb9c"},"vehicle_type_id":"4","last_reported":1716041225,"current_range_meters":18800,"station_id":"","pricing_plan_id":"cebpf4jnsgd1na2vs0mg"},{"bike_id":"0431b02a-3069-47d8-8fe3-06a9f6dcf2a0","system_id":"levelo_inurba_marseille","lat":43.293009,"lon":5.374584,"is_reserved":false,"is_disabled":false,"rental_uris":{"android":"levelo://app?vid=0431b02a-3069-47d8-8fe3-06a9f6dcf2a0","ios":"levelo://app?vid=0431b02a-3069-47d8-8fe3-06a9f6dcf2a0"},"vehicle_type_id":"4","last_reported":1716041225,"current_range_meters":17200,"station_id":"ce4bgi12rcd13ifvqb70","pricing_plan_id":"cebpf4jnsgd1na2vs0mg"},{"bike_id":"1c56e805-8b3f-4bfd-a12c-77ee334aa23e","system_id":"levelo_inurba_marseille","lat":43.293009,"lon":5.374584,"is_reserved":false,"is_disabled":false,"rental_uris":{"android":"levelo://app?vid=1c56e805-8b3f-4bfd-a12c-77ee334aa23e","ios":"levelo://app?vid=1c56e805-8b3f-4bfd-a12c-77ee334aa23e"},"vehicle_type_id":"4","last_reported":1716041225,"current_range_meters":0,"station_id":"ce4bgi12rcd13ifvqb70","pricing_plan_id":"cebpf4jnsgd1na2vs0mg"},{"bike_id":"c8e498eb-9fe5-41b0-b1a7-975a25fa0105","system_id":"levelo_inurba_marseille","lat":43.293009,"lon":5.374584,"is_reserved":false,"is_disabled":false,"rental_uris":{"android":"levelo://app?vid=c8e498eb-9fe5-41b0-b1a7-975a25fa0105","ios":"levelo://app?vid=c8e498eb-9fe5-41b0-b1a7-975a25fa0105"},"vehicle_type_id":"4","last_reported":1716041225,"current_range_meters":20800,"station_id":"ce4bgi12rcd13ifvqb70","pricing_plan_id":"cebpf4jnsgd1na2vs0mg"},{"bike_id":"21fe06e8-9047-4a20-b5f6-6fcec2b69b0a","system_id":"levelo_inurba_marseille","lat":43.302974,"lon":5.392093,"is_reserved":false,"is_disabled":false,"rental_uris":{"android":"levelo://app?vid=21fe06e8-9047-4a20-b5f6-6fcec2b69b0a","ios":"levelo://app?vid=21fe06e8-9047-4a20-b5f6-6fcec2b69b0a"},"vehicle_type_id":"4","last_reported":1716041225,"current_range_meters":0,"station_id":"ce4bgkh2rcd13ifvqbk0","pricing_plan_id":"cebpf4jnsgd1na2vs0mg"},{"bike_id":"db09e8fa-9ad0-4991-8ac4-abdb082768f5","system_id":"levelo_inurba_marseille","lat":43.30085,"lon":5.390856,"is_reserved":false,"is_disabled":false,"rental_uris":{"android":"levelo://app?vid=db09e8fa-9ad0-4991-8ac4-abdb082768f5","ios":"levelo://app?vid=db09e8fa-9ad0-4991-8ac4-abdb082768f5"},"vehicle_type_id":"4","last_reported":1716041225,"current_range_meters":0,"station_id":"ce4bh192rcd13ifvqdb0","pricing_plan_id":"cebpf4jnsgd1na2vs0mg"},{"bike_id":"78c77d8a-76ac-40cf-afdd-7874c23bb323","system_id":"levelo_inurba_marseille","lat":43.2936,"lon":5.37835,"is_reserved":false,"is_disabled":false,"rental_uris":{"android":"levelo://app?vid=78c77d8a-76ac-40cf-afdd-7874c23bb323","ios":"levelo://app?vid=78c77d8a-76ac-40cf-afdd-7874c23bb323"},"vehicle_type_id":"4","last_reported":1716041225,"current_range_meters":0,"station_id":"ce4bgjh2rcd13ifvqbf0","pricing_plan_id":"cebpf4jnsgd1na2vs0mg"},{"bike_id":"ff4f48ff-15ba-441d-b14a-9a9493291812","system_id":"levelo_inurba_marseille","lat":43.292311,"lon":5.360731,"is_reserved":false,"is_disabled":false,"rental_uris":{"android":"levelo://app?vid=ff4f48ff-15ba-441d-b14a-9a9493291812","ios":"levelo://app?vid=ff4f48ff-15ba-441d-b14a-9a9493291812"},"vehicle_type_id":"4","last_reported":1716041225,"current_range_meters":28400,"station_id":"ce4bhbh2rcd13ifvqeqg","pricing_plan_id":"cebpf4jnsgd1na2vs0mg"},{"bike_id":"890c777a-f463-46ac-a62f-0cdc39d48ce1","system_id":"levelo_inurba_marseille","lat":43.29224,"lon":5.36064,"is_reserved":false,"is_disabled":false,"rental_uris":{"android":"levelo://app?vid=890c777a-f463-46ac-a62f-0cdc39d48ce1","ios":"levelo://app?vid=890c777a-f463-46ac-a62f-0cdc39d48ce1"},"vehicle_type_id":"4","last_reported":1716041225,"current_range_meters":22800,"station_id":"ce4bhbh2rcd13ifvqeqg","pricing_plan_id":"cebpf4jnsgd1na2vs0mg"},{"bike_id":"89c9a43e-1557-4515-95f1-e6a81977a24c","system_id":"levelo_inurba_marseille","lat":43.292311,"lon":5.360731,"is_reserved":false,"is_disabled":false,"rental_uris":{"android":"levelo://app?vid=89c9a43e-1557-4515-95f1-e6a81977a24c","ios":"levelo://app?vid=89c9a43e-1557-4515-95f1-e6a81977a24c"},"vehicle_type_id":"4","last_reported":1716041225,"current_range_meters":0,"station_id":"ce4bhbh2rcd13ifvqeqg","pricing_plan_id":"cebpf4jnsgd1na2vs0mg"},{"bike_id":"d9148242-909f-4f03-988d-94561209186b","system_id":"levelo_inurba_marseille","lat":43.293009,"lon":5.374584,"is_reserved":false,"is_disabled":false,"rental_uris":{"android":"levelo://app?vid=d9148242-909f-4f03-988d-94561209186b","ios":"levelo://app?vid=d9148242-909f-4f03-988d-94561209186b"},"vehicle_type_id":"4","last_reported":1716041225,"current_range_meters":14000,"station_id":"ce4bgi12rcd13ifvqb70","pricing_plan_id":"cebpf4jnsgd1na2vs0mg"},{"bike_id":"1f3e7094-272b-4556-8d17-ae3505035d12","system_id":"levelo_inurba_marseille","lat":43.293009,"lon":5.374584,"is_reserved":false,"is_disabled":false,"rental_uris":{"android":"levelo://app?vid=1f3e7094-272b-4556-8d17-ae3505035d12","ios":"levelo://app?vid=1f3e7094-272b-4556-8d17-ae3505035d12"},"vehicle_type_id":"4","last_reported":1716041225,"current_range_meters":5200,"station_id":"ce4bgi12rcd13ifvqb70","pricing_plan_id":"cebpf4jnsgd1na2vs0mg"},{"bike_id":"7f86a8da-05eb-4656-b57e-b3610d3720a1","system_id":"levelo_inurba_marseille","lat":43.298764,"lon":5.388973,"is_reserved":false,"is_disabled":false,"rental_uris":{"android":"levelo://app?vid=7f86a8da-05eb-4656-b57e-b3610d3720a1","ios":"levelo://app?vid=7f86a8da-05eb-4656-b57e-b3610d3720a1"},"vehicle_type_id":"4","last_reported":1716041225,"current_range_meters":4800,"station_id":"ce4bh392rcd13ifvqdl0","pricing_plan_id":"cebpf4jnsgd1na2vs0mg"},{"bike_id":"8abd9c9f-836d-42b0-8fe8-23c392ddc55c","system_id":"levelo_inurba_marseille","lat":43.291671,"lon":5.371575,"is_reserved":false,"is_disabled":false,"rental_uris":{"android":"levelo://app?vid=8abd9c9f-836d-42b0-8fe8-23c392ddc55c","ios":"levelo://app?vid=8abd9c9f-836d-42b0-8fe8-23c392ddc55c"},"vehicle_type_id":"4","last_reported":1716041225,"current_range_meters":0,"station_id":"ce4bha92rcd13ifvqeh0","pricing_plan_id":"cebpf4jnsgd1na2vs0mg"},{"bike_id":"29316dc6-255d-455a-96cc-5ec53d0a42f4","system_id":"levelo_inurba_marseille","lat":43.313291,"lon":5.396838,"is_reserved":false,"is_disabled":false,"rental_uris":{"android":"levelo://app?vid=29316dc6-255d-455a-96cc-5ec53d0a42f4","ios":"levelo://app?vid=29316dc6-255d-455a-96cc-5ec53d0a42f4"},"vehicle_type_id":"4","last_reported":1716041225,"current_range_meters":14400,"station_id":"ce4bgvp2rcd13ifvqcu0","pricing_plan_id":"cebpf4jnsgd1na2vs0mg"},{"bike_id":"9f74b54a-f470-44b1-a61d-7a428fdf29e6","system_id":"levelo_inurba_marseille","lat":43.291994,"lon":5.357886,"is_reserved":false,"is_disabled":false,"rental_uris":{"android":"levelo://app?vid=9f74b54a-f470-44b1-a61d-7a428fdf29e6","ios":"levelo://app?vid=9f74b54a-f470-44b1-a61d-7a428fdf29e6"},"vehicle_type_id":"4","last_reported":1716041225,"current_range_meters":19200,"station_id":"ce4bhb12rcd13ifvqel0","pricing_plan_id":"cebpf4jnsgd1na2vs0mg"},{"bike_id":"6360bf56-343a-47c0-811e-36621cd52fe4","system_id":"levelo_inurba_marseille","lat":43.291994,"lon":5.357886,"is_reserved":false,"is_disabled":false,"rental_uris":{"android":"levelo://app?vid=6360bf56-343a-47c0-811e-36621cd52fe4","ios":"levelo://app?vid=6360bf56-343a-47c0-811e-36621cd52fe4"},"vehicle_type_id":"4","last_reported":1716041225,"current_range_meters":0,"station_id":"ce4bhb12rcd13ifvqel0","pricing_plan_id":"cebpf4jnsgd1na2vs0mg"},{"bike_id":"765e6e8f-7519-46b2-b0dc-c86a304834fc","system_id":"levelo_inurba_marseille","lat":43.291994,"lon":5.357886,"is_reserved":false,"is_disabled":false,"rental_uris":{"android":"levelo://app?vid=765e6e8f-7519-46b2-b0dc-c86a304834fc","ios":"levelo://app?vid=765e6e8f-7519-46b2-b0dc-c86a304834fc"},"vehicle_type_id":"4","last_reported":1716041225,"current_range_meters":7600,"station_id":"ce4bhb12rcd13ifvqel0","pricing_plan_id":"cebpf4jnsgd1na2vs0mg"},{"bike_id":"a1f555c1-378d-4ec4-adaf-8a28dece183f","system_id":"levelo_inurba_marseille","lat":43.302008,"lon":5.394694,"is_reserved":false,"is_disabled":false,"rental_uris":{"android":"levelo://app?vid=a1f555c1-378d-4ec4-adaf-8a28dece183f","ios":"levelo://app?vid=a1f555c1-378d-4ec4-adaf-8a28dece183f"},"vehicle_type_id":"4","last_reported":1716041225,"current_range_meters":0,"station_id":"ce4bh0p2rcd13ifvqd70","pricing_plan_id":"cebpf4jnsgd1na2vs0mg"},{"bike_id":"cd99519c-69dc-41f7-89f3-13995b8550b4","system_id":"levelo_inurba_marseille","lat":43.302008,"lon":5.394694,"is_reserved":false,"is_disabled":false,"rental_uris":{"android":"levelo://app?vid=cd99519c-69dc-41f7-89f3-13995b8550b4","ios":"levelo://app?vid=cd99519c-69dc-41f7-89f3-13995b8550b4"},"vehicle_type_id":"4","last_reported":1716041225,"current_range_meters":12400,"station_id":"ce4bh0p2rcd13ifvqd70","pricing_plan_id":"cebpf4jnsgd1na2vs0mg"},{"bike_id":"8cda86de-d861-44ed-a156-1af5316214e9","system_id":"levelo_inurba_marseille","lat":43.290631,"lon":5.359244,"is_reserved":false,"is_disabled":false,"rental_uris":{"android":"levelo://app?vid=8cda86de-d861-44ed-a156-1af5316214e9","ios":"levelo://app?vid=8cda86de-d861-44ed-a156-1af5316214e9"},"vehicle_type_id":"4","last_reported":1716041225,"current_range_meters":26800,"station_id":"ce4bha92rcd13ifvqeg0","pricing_plan_id":"cebpf4jnsgd1na2vs0mg"},{"bike_id":"4675665d-17fa-422b-a7af-272aabeabf17","system_id":"levelo_inurba_marseille","lat":43.290624,"lon":5.359245,"is_reserved":false,"is_disabled":false,"rental_uris":{"android":"levelo://app?vid=4675665d-17fa-422b-a7af-272aabeabf17","ios":"levelo://app?vid=4675665d-17fa-422b-a7af-272aabeabf17"},"vehicle_type_id":"4","last_reported":1716041225,"current_range_meters":21600,"station_id":"ce4bha92rcd13ifvqeg0","pricing_plan_id":"cebpf4jnsgd1na2vs0mg"},{"bike_id":"54f24794-f96e-43fb-b45c-8a621f814409","system_id":"levelo_inurba_marseille","lat":43.290631,"lon":5.359244,"is_reserved":false,"is_disabled":false,"rental_uris":{"android":"levelo://app?vid=54f24794-f96e-43fb-b45c-8a621f814409","ios":"levelo://app?vid=54f24794-f96e-43fb-b45c-8a621f814409"},"vehicle_type_id":"4","last_reported":1716041225,"current_range_meters":400,"station_id":"ce4bha92rcd13ifvqeg0","pricing_plan_id":"cebpf4jnsgd1na2vs0mg"},{"bike_id":"09cdf941-d5f3-4a94-8461-37227e2b7406","system_id":"levelo_inurba_marseille","lat":43.290624,"lon":5.359245,"is_reserved":false,"is_disabled":false,"rental_uris":{"android":"levelo://app?vid=09cdf941-d5f3-4a94-8461-37227e2b7406","ios":"levelo://app?vid=09cdf941-d5f3-4a94-8461-37227e2b7406"},"vehicle_type_id":"4","last_reported":1716041225,"current_range_meters":26400,"station_id":"ce4bha92rcd13ifvqeg0","pricing_plan_id":"cebpf4jnsgd1na2vs0mg"},{"bike_id":"69e50fdc-de8d-4258-b880-30ff5826de80","system_id":"levelo_inurba_marseille","lat":43.290327,"lon":5.375711,"is_reserved":false,"is_disabled":false,"rental_uris":{"android":"levelo://app?vid=69e50fdc-de8d-4258-b880-30ff5826de80","ios":"levelo://app?vid=69e50fdc-de8d-4258-b880-30ff5826de80"},"vehicle_type_id":"4","last_reported":1716041225,"current_range_meters":31200,"station_id":"ce4bh692rcd13ifvqe90","pricing_plan_id":"cebpf4jnsgd1na2vs0mg"},{"bike_id":"da2d4368-039a-4be5-8f25-eaac9afe5893","system_id":"levelo_inurba_marseille","lat":43.290319,"lon":5.375732,"is_reserved":false,"is_disabled":false,"rental_uris":{"android":"levelo://app?vid=da2d4368-039a-4be5-8f25-eaac9afe5893","ios":"levelo://app?vid=da2d4368-039a-4be5-8f25-eaac9afe5893"},"vehicle_type_id":"4","last_reported":1716041225,"current_range_meters":0,"station_id":"ce4bh692rcd13ifvqe90","pricing_plan_id":"cebpf4jnsgd1na2vs0mg"},{"bike_id":"390c0339-8c64-4c33-b480-62c67dc4b45b","system_id":"levelo_inurba_marseille","lat":43.290319,"lon":5.375732,"is_reserved":false,"is_disabled":false,"rental_uris":{"android":"levelo://app?vid=390c0339-8c64-4c33-b480-62c67dc4b45b","ios":"levelo://app?vid=390c0339-8c64-4c33-b480-62c67dc4b45b"},"vehicle_type_id":"4","last_reported":1716041225,"current_range_meters":21200,"station_id":"ce4bh692rcd13ifvqe90","pricing_plan_id":"cebpf4jnsgd1na2vs0mg"},{"bike_id":"37acb977-f9c1-4c80-a8ce-e1b8f242170f","system_id":"levelo_inurba_marseille","lat":43.290319,"lon":5.375732,"is_reserved":false,"is_disabled":false,"rental_uris":{"android":"levelo://app?vid=37acb977-f9c1-4c80-a8ce-e1b8f242170f","ios":"levelo://app?vid=37acb977-f9c1-4c80-a8ce-e1b8f242170f"},"vehicle_type_id":"4","last_reported":1716041225,"current_range_meters":27600,"station_id":"ce4bh692rcd13ifvqe90","pricing_plan_id":"cebpf4jnsgd1na2vs0mg"},{"bike_id":"ba7758ec-d593-46ce-ada8-bbcc489a6a43","system_id":"levelo_inurba_marseille","lat":43.289184,"lon":5.366408,"is_reserved":false,"is_disabled":false,"rental_uris":{"android":"levelo://app?vid=ba7758ec-d593-46ce-ada8-bbcc489a6a43","ios":"levelo://app?vid=ba7758ec-d593-46ce-ada8-bbcc489a6a43"},"vehicle_type_id":"4","last_reported":1716041225,"current_range_meters":800,"station_id":"ce4bhap2rcd13ifvqek0","pricing_plan_id":"cebpf4jnsgd1na2vs0mg"},{"bike_id":"95407db8-c3d6-4e44-a20d-3b2e3a4ff537","system_id":"levelo_inurba_marseille","lat":43.290327,"lon":5.375711,"is_reserved":false,"is_disabled":false,"rental_uris":{"android":"levelo://app?vid=95407db8-c3d6-4e44-a20d-3b2e3a4ff537","ios":"levelo://app?vid=95407db8-c3d6-4e44-a20d-3b2e3a4ff537"},"vehicle_type_id":"4","last_reported":1716041225,"current_range_meters":5200,"station_id":"ce4bh692rcd13ifvqe90","pricing_plan_id":"cebpf4jnsgd1na2vs0mg"},{"bike_id":"21329721-8d57-4f82-959a-518dbe620288","system_id":"levelo_inurba_marseille","lat":43.289468,"lon":5.363719,"is_reserved":false,"is_disabled":false,"rental_uris":{"android":"levelo://app?vid=21329721-8d57-4f82-959a-518dbe620288","ios":"levelo://app?vid=21329721-8d57-4f82-959a-518dbe620288"},"vehicle_type_id":"4","last_reported":1716041225,"current_range_meters":20800,"station_id":"ce4bhc92rcd13ifvqetg","pricing_plan_id":"cebpf4jnsgd1na2vs0mg"},{"bike_id":"ac741054-0dda-4f77-a359-0fafaf20fb1e","system_id":"levelo_inurba_marseille","lat":43.289468,"lon":5.363719,"is_reserved":false,"is_disabled":false,"rental_uris":{"android":"levelo://app?vid=ac741054-0dda-4f77-a359-0fafaf20fb1e","ios":"levelo://app?vid=ac741054-0dda-4f77-a359-0fafaf20fb1e"},"vehicle_type_id":"4","last_reported":1716041225,"current_range_meters":0,"station_id":"ce4bhc92rcd13ifvqetg","pricing_plan_id":"cebpf4jnsgd1na2vs0mg"},{"bike_id":"8224c99d-cfc5-4847-a981-0091f9acf591","system_id":"levelo_inurba_marseille","lat":43.290327,"lon":5.375711,"is_reserved":false,"is_disabled":false,"rental_uris":{"android":"levelo://app?vid=8224c99d-cfc5-4847-a981-0091f9acf591","ios":"levelo://app?vid=8224c99d-cfc5-4847-a981-0091f9acf591"},"vehicle_type_id":"4","last_reported":1716041225,"current_range_meters":25200,"station_id":"ce4bh692rcd13ifvqe90","pricing_plan_id":"cebpf4jnsgd1na2vs0mg"},{"bike_id":"050b7481-109d-4884-aa0c-b9c3769d6ee3","system_id":"levelo_inurba_marseille","lat":43.289184,"lon":5.366408,"is_reserved":false,"is_disabled":false,"rental_uris":{"android":"levelo://app?vid=050b7481-109d-4884-aa0c-b9c3769d6ee3","ios":"levelo://app?vid=050b7481-109d-4884-aa0c-b9c3769d6ee3"},"vehicle_type_id":"4","last_reported":1716041225,"current_range_meters":31200,"station_id":"ce4bhap2rcd13ifvqek0","pricing_plan_id":"cebpf4jnsgd1na2vs0mg"},{"bike_id":"beb4d744-c7e6-4e1d-98f1-6fc53cefac09","system_id":"levelo_inurba_marseille","lat":43.289355,"lon":5.366321,"is_reserved":false,"is_disabled":false,"rental_uris":{"android":"levelo://app?vid=beb4d744-c7e6-4e1d-98f1-6fc53cefac09","ios":"levelo://app?vid=beb4d744-c7e6-4e1d-98f1-6fc53cefac09"},"vehicle_type_id":"4","last_reported":1716041225,"current_range_meters":23200,"station_id":"ce4bha12rcd13ifvqef0","pricing_plan_id":"cebpf4jnsgd1na2vs0mg"},{"bike_id":"9b1ed111-133a-42be-b7fd-0dc45141a6d8","system_id":"levelo_inurba_marseille","lat":43.290327,"lon":5.375711,"is_reserved":false,"is_disabled":false,"rental_uris":{"android":"levelo://app?vid=9b1ed111-133a-42be-b7fd-0dc45141a6d8","ios":"levelo://app?vid=9b1ed111-133a-42be-b7fd-0dc45141a6d8"},"vehicle_type_id":"4","last_reported":1716041225,"current_range_meters":31200,"station_id":"ce4bh692rcd13ifvqe90","pricing_plan_id":"cebpf4jnsgd1na2vs0mg"},{"bike_id":"78ee47b5-09ac-4521-9fac-c20731a9e17d","system_id":"levelo_inurba_marseille","lat":43.289184,"lon":5.366408,"is_reserved":false,"is_disabled":false,"rental_uris":{"android":"levelo://app?vid=78ee47b5-09ac-4521-9fac-c20731a9e17d","ios":"levelo://app?vid=78ee47b5-09ac-4521-9fac-c20731a9e17d"},"vehicle_type_id":"4","last_reported":1716041225,"current_range_meters":15600,"station_id":"ce4bhap2rcd13ifvqek0","pricing_plan_id":"cebpf4jnsgd1na2vs0mg"},{"bike_id":"5ad11306-e6a9-4abd-a39b-0f5fa1091ae5","system_id":"levelo_inurba_marseille","lat":43.295169,"lon":5.390426,"is_reserved":false,"is_disabled":false,"rental_uris":{"android":"levelo://app?vid=5ad11306-e6a9-4abd-a39b-0f5fa1091ae5","ios":"levelo://app?vid=5ad11306-e6a9-4abd-a39b-0f5fa1091ae5"},"vehicle_type_id":"4","last_reported":1716041225,"current_range_meters":1200,"station_id":"ce4bh3p2rcd13ifvqdp0","pricing_plan_id":"cebpf4jnsgd1na2vs0mg"},{"bike_id":"e7671b7b-0853-4695-8a54-9b8d1d9317d5","system_id":"levelo_inurba_marseille","lat":43.292642,"lon":5.384254,"is_reserved":false,"is_disabled":false,"rental_uris":{"android":"levelo://app?vid=e7671b7b-0853-4695-8a54-9b8d1d9317d5","ios":"levelo://app?vid=e7671b7b-0853-4695-8a54-9b8d1d9317d5"},"vehicle_type_id":"4","last_reported":1716041225,"current_range_meters":0,"station_id":"ce4bh692rcd13ifvqea0","pricing_plan_id":"cebpf4jnsgd1na2vs0mg"},{"bike_id":"bf3be97d-3090-4fdd-837b-2f43c5e67b25","system_id":"levelo_inurba_marseille","lat":43.29264,"lon":5.38443,"is_reserved":false,"is_disabled":false,"rental_uris":{"android":"levelo://app?vid=bf3be97d-3090-4fdd-837b-2f43c5e67b25","ios":"levelo://app?vid=bf3be97d-3090-4fdd-837b-2f43c5e67b25"},"vehicle_type_id":"4","last_reported":1716041225,"current_range_meters":0,"station_id":"ce4bh692rcd13ifvqea0","pricing_plan_id":"cebpf4jnsgd1na2vs0mg"},{"bike_id":"011b0c92-2e3e-4aa7-bb0d-871baefc829e","system_id":"levelo_inurba_marseille","lat":43.292642,"lon":5.384254,"is_reserved":false,"is_disabled":false,"rental_uris":{"android":"levelo://app?vid=011b0c92-2e3e-4aa7-bb0d-871baefc829e","ios":"levelo://app?vid=011b0c92-2e3e-4aa7-bb0d-871baefc829e"},"vehicle_type_id":"4","last_reported":1716041225,"current_range_meters":0,"station_id":"ce4bh692rcd13ifvqea0","pricing_plan_id":"cebpf4jnsgd1na2vs0mg"},{"bike_id":"8730b0ab-47cb-4b6a-9c1b-116f9521f296","system_id":"levelo_inurba_marseille","lat":43.29004,"lon":5.35617,"is_reserved":false,"is_disabled":false,"rental_uris":{"android":"levelo://app?vid=8730b0ab-47cb-4b6a-9c1b-116f9521f296","ios":"levelo://app?vid=8730b0ab-47cb-4b6a-9c1b-116f9521f296"},"vehicle_type_id":"4","last_reported":1716041225,"current_range_meters":0,"station_id":"ce4bhb92rcd13ifvqen0","pricing_plan_id":"cebpf4jnsgd1na2vs0mg"},{"bike_id":"c779943f-985c-46e0-9514-583521e6e112","system_id":"levelo_inurba_marseille","lat":43.290103,"lon":5.356114,"is_reserved":false,"is_disabled":false,"rental_uris":{"android":"levelo://app?vid=c779943f-985c-46e0-9514-583521e6e112","ios":"levelo://app?vid=c779943f-985c-46e0-9514-583521e6e112"},"vehicle_type_id":"4","last_reported":1716041225,"current_range_meters":28400,"station_id":"ce4bhb92rcd13ifvqen0","pricing_plan_id":"cebpf4jnsgd1na2vs0mg"},{"bike_id":"0a5748ae-9bb6-4b1d-963e-a7e0a1e5a3e9","system_id":"levelo_inurba_marseille","lat":43.290103,"lon":5.356114,"is_reserved":false,"is_disabled":false,"rental_uris":{"android":"levelo://app?vid=0a5748ae-9bb6-4b1d-963e-a7e0a1e5a3e9","ios":"levelo://app?vid=0a5748ae-9bb6-4b1d-963e-a7e0a1e5a3e9"},"vehicle_type_id":"4","last_reported":1716041225,"current_range_meters":3200,"station_id":"ce4bhb92rcd13ifvqen0","pricing_plan_id":"cebpf4jnsgd1na2vs0mg"},{"bike_id":"661ee735-4134-4f46-b7c6-7066837e2903","system_id":"levelo_inurba_marseille","lat":43.290104,"lon":5.356111,"is_reserved":false,"is_disabled":false,"rental_uris":{"android":"levelo://app?vid=661ee735-4134-4f46-b7c6-7066837e2903","ios":"levelo://app?vid=661ee735-4134-4f46-b7c6-7066837e2903"},"vehicle_type_id":"4","last_reported":1716041225,"current_range_meters":4400,"station_id":"ce4bhb92rcd13ifvqen0","pricing_plan_id":"cebpf4jnsgd1na2vs0mg"},{"bike_id":"83b2e042-b8c3-4edd-96cd-ce4afb3bf353","system_id":"levelo_inurba_marseille","lat":43.290103,"lon":5.356114,"is_reserved":false,"is_disabled":false,"rental_uris":{"android":"levelo://app?vid=83b2e042-b8c3-4edd-96cd-ce4afb3bf353","ios":"levelo://app?vid=83b2e042-b8c3-4edd-96cd-ce4afb3bf353"},"vehicle_type_id":"4","last_reported":1716041225,"current_range_meters":22800,"station_id":"ce4bhb92rcd13ifvqen0","pricing_plan_id":"cebpf4jnsgd1na2vs0mg"},{"bike_id":"c35481db-aae5-41ae-a375-fb168f69b6a3","system_id":"levelo_inurba_marseille","lat":43.290103,"lon":5.356114,"is_reserved":false,"is_disabled":false,"rental_uris":{"android":"levelo://app?vid=c35481db-aae5-41ae-a375-fb168f69b6a3","ios":"levelo://app?vid=c35481db-aae5-41ae-a375-fb168f69b6a3"},"vehicle_type_id":"4","last_reported":1716041225,"current_range_meters":800,"station_id":"ce4bhb92rcd13ifvqen0","pricing_plan_id":"cebpf4jnsgd1na2vs0mg"},{"bike_id":"632a20a3-e035-4f2a-aacb-887ba34f39ee","system_id":"levelo_inurba_marseille","lat":43.290104,"lon":5.356111,"is_reserved":false,"is_disabled":false,"rental_uris":{"android":"levelo://app?vid=632a20a3-e035-4f2a-aacb-887ba34f39ee","ios":"levelo://app?vid=632a20a3-e035-4f2a-aacb-887ba34f39ee"},"vehicle_type_id":"4","last_reported":1716041225,"current_range_meters":17600,"station_id":"ce4bhb92rcd13ifvqen0","pricing_plan_id":"cebpf4jnsgd1na2vs0mg"},{"bike_id":"18dc407e-7c7e-48d2-b3a9-7834a32109b7","system_id":"levelo_inurba_marseille","lat":43.29784,"lon":5.39323,"is_reserved":false,"is_disabled":false,"rental_uris":{"android":"levelo://app?vid=18dc407e-7c7e-48d2-b3a9-7834a32109b7","ios":"levelo://app?vid=18dc407e-7c7e-48d2-b3a9-7834a32109b7"},"vehicle_type_id":"4","last_reported":1716041225,"current_range_meters":7600,"station_id":"chh1huq6cuj3fo74tm60","pricing_plan_id":"cebpf4jnsgd1na2vs0mg"},{"bike_id":"a8bd94a3-a71d-4fec-8012-8c1464fc879f","system_id":"levelo_inurba_marseille","lat":43.292644,"lon":5.384257,"is_reserved":false,"is_disabled":false,"rental_uris":{"android":"levelo://app?vid=a8bd94a3-a71d-4fec-8012-8c1464fc879f","ios":"levelo://app?vid=a8bd94a3-a71d-4fec-8012-8c1464fc879f"},"vehicle_type_id":"4","last_reported":1716041225,"current_range_meters":800,"station_id":"ce4bh692rcd13ifvqea0","pricing_plan_id":"cebpf4jnsgd1na2vs0mg"},{"bike_id":"5e7dad73-2fc0-4f35-b1c5-46c1390a7290","system_id":"levelo_inurba_marseille","lat":43.295169,"lon":5.390426,"is_reserved":false,"is_disabled":false,"rental_uris":{"android":"levelo://app?vid=5e7dad73-2fc0-4f35-b1c5-46c1390a7290","ios":"levelo://app?vid=5e7dad73-2fc0-4f35-b1c5-46c1390a7290"},"vehicle_type_id":"4","last_reported":1716041225,"current_range_meters":5600,"station_id":"ce4bh3p2rcd13ifvqdp0","pricing_plan_id":"cebpf4jnsgd1na2vs0mg"},{"bike_id":"ff982acd-6b05-49fc-a6ac-cb23ed42a430","system_id":"levelo_inurba_marseille","lat":43.330442,"lon":5.389148,"is_reserved":false,"is_disabled":false,"rental_uris":{"android":"levelo://app?vid=ff982acd-6b05-49fc-a6ac-cb23ed42a430","ios":"levelo://app?vid=ff982acd-6b05-49fc-a6ac-cb23ed42a430"},"vehicle_type_id":"4","last_reported":1716041225,"current_range_meters":1200,"station_id":"ce4bhr92rcd13ifvqhrg","pricing_plan_id":"cebpf4jnsgd1na2vs0mg"},{"bike_id":"5ec5204c-8076-4c33-8843-077a43719f42","system_id":"levelo_inurba_marseille","lat":43.330259,"lon":5.390417,"is_reserved":false,"is_disabled":false,"rental_uris":{"android":"levelo://app?vid=5ec5204c-8076-4c33-8843-077a43719f42","ios":"levelo://app?vid=5ec5204c-8076-4c33-8843-077a43719f42"},"vehicle_type_id":"4","last_reported":1716041225,"current_range_meters":4000,"station_id":"","pricing_plan_id":"cebpf4jnsgd1na2vs0mg"},{"bike_id":"bbd405b9-f5b9-44f1-9f04-f08f61991598","system_id":"levelo_inurba_marseille","lat":43.295169,"lon":5.390426,"is_reserved":false,"is_disabled":false,"rental_uris":{"android":"levelo://app?vid=bbd405b9-f5b9-44f1-9f04-f08f61991598","ios":"levelo://app?vid=bbd405b9-f5b9-44f1-9f04-f08f61991598"},"vehicle_type_id":"4","last_reported":1716041225,"current_range_meters":27600,"station_id":"ce4bh3p2rcd13ifvqdp0","pricing_plan_id":"cebpf4jnsgd1na2vs0mg"},{"bike_id":"aa01dec2-694d-4964-b46a-1962836805bc","system_id":"levelo_inurba_marseille","lat":43.330442,"lon":5.389148,"is_reserved":false,"is_disabled":false,"rental_uris":{"android":"levelo://app?vid=aa01dec2-694d-4964-b46a-1962836805bc","ios":"levelo://app?vid=aa01dec2-694d-4964-b46a-1962836805bc"},"vehicle_type_id":"4","last_reported":1716041225,"current_range_meters":2000,"station_id":"ce4bhr92rcd13ifvqhrg","pricing_plan_id":"cebpf4jnsgd1na2vs0mg"},{"bike_id":"80fa286c-da5f-475e-bc01-32ccf8a42a11","system_id":"levelo_inurba_marseille","lat":43.2901,"lon":5.381269,"is_reserved":false,"is_disabled":false,"rental_uris":{"android":"levelo://app?vid=80fa286c-da5f-475e-bc01-32ccf8a42a11","ios":"levelo://app?vid=80fa286c-da5f-475e-bc01-32ccf8a42a11"},"vehicle_type_id":"4","last_reported":1716041225,"current_range_meters":12000,"station_id":"ce4bh4p2rcd13ifvqe1g","pricing_plan_id":"cebpf4jnsgd1na2vs0mg"},{"bike_id":"b1bfdf40-58c1-443d-b3d6-6dcb2ce038eb","system_id":"levelo_inurba_marseille","lat":43.33716,"lon":5.37424,"is_reserved":false,"is_disabled":false,"rental_uris":{"android":"levelo://app?vid=b1bfdf40-58c1-443d-b3d6-6dcb2ce038eb","ios":"levelo://app?vid=b1bfdf40-58c1-443d-b3d6-6dcb2ce038eb"},"vehicle_type_id":"4","last_reported":1716041225,"current_range_meters":14800,"station_id":"","pricing_plan_id":"cebpf4jnsgd1na2vs0mg"},{"bike_id":"bcb188b9-bc07-4300-8d0c-771edf2ef718","system_id":"levelo_inurba_marseille","lat":43.289307,"lon":5.38406,"is_reserved":false,"is_disabled":false,"rental_uris":{"android":"levelo://app?vid=bcb188b9-bc07-4300-8d0c-771edf2ef718","ios":"levelo://app?vid=bcb188b9-bc07-4300-8d0c-771edf2ef718"},"vehicle_type_id":"4","last_reported":1716041225,"current_range_meters":0,"station_id":"ce4bh612rcd13ifvqe6g","pricing_plan_id":"cebpf4jnsgd1na2vs0mg"},{"bike_id":"4fa81c91-a39d-4160-93d7-b314e9fd0ee8","system_id":"levelo_inurba_marseille","lat":43.33745,"lon":5.37453,"is_reserved":false,"is_disabled":false,"rental_uris":{"android":"levelo://app?vid=4fa81c91-a39d-4160-93d7-b314e9fd0ee8","ios":"levelo://app?vid=4fa81c91-a39d-4160-93d7-b314e9fd0ee8"},"vehicle_type_id":"4","last_reported":1716041225,"current_range_meters":13600,"station_id":"","pricing_plan_id":"cebpf4jnsgd1na2vs0mg"},{"bike_id":"639c451f-7392-404a-b434-eee8f9afec9e","system_id":"levelo_inurba_marseille","lat":43.309371,"lon":5.401449,"is_reserved":false,"is_disabled":false,"rental_uris":{"android":"levelo://app?vid=639c451f-7392-404a-b434-eee8f9afec9e","ios":"levelo://app?vid=639c451f-7392-404a-b434-eee8f9afec9e"},"vehicle_type_id":"4","last_reported":1716041225,"current_range_meters":28800,"station_id":"ce4bgvp2rcd13ifvqct0","pricing_plan_id":"cebpf4jnsgd1na2vs0mg"},{"bike_id":"b7fe6af7-d833-4459-b6c7-b77cfdd198b0","system_id":"levelo_inurba_marseille","lat":43.33753,"lon":5.37454,"is_reserved":false,"is_disabled":false,"rental_uris":{"android":"levelo://app?vid=b7fe6af7-d833-4459-b6c7-b77cfdd198b0","ios":"levelo://app?vid=b7fe6af7-d833-4459-b6c7-b77cfdd198b0"},"vehicle_type_id":"4","last_reported":1716041225,"current_range_meters":28800,"station_id":"","pricing_plan_id":"cebpf4jnsgd1na2vs0mg"},{"bike_id":"8fc6ebe8-68ab-4991-9aa7-185ef6592e71","system_id":"levelo_inurba_marseille","lat":43.337568,"lon":5.37449,"is_reserved":false,"is_disabled":false,"rental_uris":{"android":"levelo://app?vid=8fc6ebe8-68ab-4991-9aa7-185ef6592e71","ios":"levelo://app?vid=8fc6ebe8-68ab-4991-9aa7-185ef6592e71"},"vehicle_type_id":"4","last_reported":1716041225,"current_range_meters":11600,"station_id":"","pricing_plan_id":"cebpf4jnsgd1na2vs0mg"},{"bike_id":"91d9714b-b35f-47ce-8f34-022bf351236f","system_id":"levelo_inurba_marseille","lat":43.337642,"lon":5.374393,"is_reserved":false,"is_disabled":false,"rental_uris":{"android":"levelo://app?vid=91d9714b-b35f-47ce-8f34-022bf351236f","ios":"levelo://app?vid=91d9714b-b35f-47ce-8f34-022bf351236f"},"vehicle_type_id":"4","last_reported":1716041225,"current_range_meters":21200,"station_id":"","pricing_plan_id":"cebpf4jnsgd1na2vs0mg"},{"bike_id":"b40acab5-1f60-47e3-8cd4-a1769c17b1d8","system_id":"levelo_inurba_marseille","lat":43.3376,"lon":5.37482,"is_reserved":false,"is_disabled":false,"rental_uris":{"android":"levelo://app?vid=b40acab5-1f60-47e3-8cd4-a1769c17b1d8","ios":"levelo://app?vid=b40acab5-1f60-47e3-8cd4-a1769c17b1d8"},"vehicle_type_id":"4","last_reported":1716041225,"current_range_meters":31200,"station_id":"","pricing_plan_id":"cebpf4jnsgd1na2vs0mg"},{"bike_id":"26e1f4ec-f57d-451f-b7f8-ee23f82c937f","system_id":"levelo_inurba_marseille","lat":43.301117,"lon":5.398795,"is_reserved":false,"is_disabled":false,"rental_uris":{"android":"levelo://app?vid=26e1f4ec-f57d-451f-b7f8-ee23f82c937f","ios":"levelo://app?vid=26e1f4ec-f57d-451f-b7f8-ee23f82c937f"},"vehicle_type_id":"4","last_reported":1716041225,"current_range_meters":10400,"station_id":"ce4bh0h2rcd13ifvqd40","pricing_plan_id":"cebpf4jnsgd1na2vs0mg"},{"bike_id":"72228019-9b86-4b06-84e4-df6caf5be918","system_id":"levelo_inurba_marseille","lat":43.301117,"lon":5.398795,"is_reserved":false,"is_disabled":false,"rental_uris":{"android":"levelo://app?vid=72228019-9b86-4b06-84e4-df6caf5be918","ios":"levelo://app?vid=72228019-9b86-4b06-84e4-df6caf5be918"},"vehicle_type_id":"4","last_reported":1716041225,"current_range_meters":0,"station_id":"ce4bh0h2rcd13ifvqd40","pricing_plan_id":"cebpf4jnsgd1na2vs0mg"},{"bike_id":"84ba6a46-ee2f-46cd-bada-149a0faff0da","system_id":"levelo_inurba_marseille","lat":43.28727,"lon":5.36078,"is_reserved":false,"is_disabled":false,"rental_uris":{"android":"levelo://app?vid=84ba6a46-ee2f-46cd-bada-149a0faff0da","ios":"levelo://app?vid=84ba6a46-ee2f-46cd-bada-149a0faff0da"},"vehicle_type_id":"4","last_reported":1716041225,"current_range_meters":10800,"station_id":"cki0cbj6b192h4jlfktg","pricing_plan_id":"cebpf4jnsgd1na2vs0mg"},{"bike_id":"0e48f0d9-8b99-49e6-92a7-1c1d73216bac","system_id":"levelo_inurba_marseille","lat":43.298681,"lon":5.397225,"is_reserved":false,"is_disabled":false,"rental_uris":{"android":"levelo://app?vid=0e48f0d9-8b99-49e6-92a7-1c1d73216bac","ios":"levelo://app?vid=0e48f0d9-8b99-49e6-92a7-1c1d73216bac"},"vehicle_type_id":"4","last_reported":1716041225,"current_range_meters":22000,"station_id":"ce4bh0h2rcd13ifvqd50","pricing_plan_id":"cebpf4jnsgd1na2vs0mg"},{"bike_id":"1aeef76d-8b9c-47af-9395-5f86d5528031","system_id":"levelo_inurba_marseille","lat":43.302759,"lon":5.400793,"is_reserved":false,"is_disabled":false,"rental_uris":{"android":"levelo://app?vid=1aeef76d-8b9c-47af-9395-5f86d5528031","ios":"levelo://app?vid=1aeef76d-8b9c-47af-9395-5f86d5528031"},"vehicle_type_id":"4","last_reported":1716041225,"current_range_meters":22800,"station_id":"ce4bgvh2rcd13ifvqcs0","pricing_plan_id":"cebpf4jnsgd1na2vs0mg"},{"bike_id":"f1fa128c-55ca-48fc-ba80-ecb4cc41cbe5","system_id":"levelo_inurba_marseille","lat":43.302759,"lon":5.400793,"is_reserved":false,"is_disabled":false,"rental_uris":{"android":"levelo://app?vid=f1fa128c-55ca-48fc-ba80-ecb4cc41cbe5","ios":"levelo://app?vid=f1fa128c-55ca-48fc-ba80-ecb4cc41cbe5"},"vehicle_type_id":"4","last_reported":1716041225,"current_range_meters":28000,"station_id":"ce4bgvh2rcd13ifvqcs0","pricing_plan_id":"cebpf4jnsgd1na2vs0mg"},{"bike_id":"1bd59b20-f88d-4b78-9bb5-3e4c7aad3299","system_id":"levelo_inurba_marseille","lat":43.290336,"lon":5.386425,"is_reserved":false,"is_disabled":false,"rental_uris":{"android":"levelo://app?vid=1bd59b20-f88d-4b78-9bb5-3e4c7aad3299","ios":"levelo://app?vid=1bd59b20-f88d-4b78-9bb5-3e4c7aad3299"},"vehicle_type_id":"4","last_reported":1716041225,"current_range_meters":0,"station_id":"ce4bh4p2rcd13ifvqe0g","pricing_plan_id":"cebpf4jnsgd1na2vs0mg"},{"bike_id":"e9e7b524-be35-41b1-a69d-b833d3fb6bc7","system_id":"levelo_inurba_marseille","lat":43.28918,"lon":5.38398,"is_reserved":false,"is_disabled":false,"rental_uris":{"android":"levelo://app?vid=e9e7b524-be35-41b1-a69d-b833d3fb6bc7","ios":"levelo://app?vid=e9e7b524-be35-41b1-a69d-b833d3fb6bc7"},"vehicle_type_id":"4","last_reported":1716041225,"current_range_meters":0,"station_id":"ce4bh612rcd13ifvqe6g","pricing_plan_id":"cebpf4jnsgd1na2vs0mg"},{"bike_id":"547b6bc6-f1bb-40f7-9d89-c44d0891bbc2","system_id":"levelo_inurba_marseille","lat":43.302759,"lon":5.400793,"is_reserved":false,"is_disabled":false,"rental_uris":{"android":"levelo://app?vid=547b6bc6-f1bb-40f7-9d89-c44d0891bbc2","ios":"levelo://app?vid=547b6bc6-f1bb-40f7-9d89-c44d0891bbc2"},"vehicle_type_id":"4","last_reported":1716041225,"current_range_meters":18800,"station_id":"ce4bgvh2rcd13ifvqcs0","pricing_plan_id":"cebpf4jnsgd1na2vs0mg"},{"bike_id":"f4e389f7-103d-4be3-9c28-ff32d77cc719","system_id":"levelo_inurba_marseille","lat":43.286039,"lon":5.370679,"is_reserved":false,"is_disabled":false,"rental_uris":{"android":"levelo://app?vid=f4e389f7-103d-4be3-9c28-ff32d77cc719","ios":"levelo://app?vid=f4e389f7-103d-4be3-9c28-ff32d77cc719"},"vehicle_type_id":"4","last_reported":1716041225,"current_range_meters":0,"station_id":"ce4bht12rcd13ifvqi60","pricing_plan_id":"cebpf4jnsgd1na2vs0mg"},{"bike_id":"0f37400f-4c67-4d40-8a70-47178f4f0d41","system_id":"levelo_inurba_marseille","lat":43.286039,"lon":5.370679,"is_reserved":false,"is_disabled":false,"rental_uris":{"android":"levelo://app?vid=0f37400f-4c67-4d40-8a70-47178f4f0d41","ios":"levelo://app?vid=0f37400f-4c67-4d40-8a70-47178f4f0d41"},"vehicle_type_id":"4","last_reported":1716041225,"current_range_meters":29600,"station_id":"ce4bht12rcd13ifvqi60","pricing_plan_id":"cebpf4jnsgd1na2vs0mg"},{"bike_id":"50722b0f-6636-4f3a-b828-1e3ea8c1adaa","system_id":"levelo_inurba_marseille","lat":43.30324,"lon":5.40266,"is_reserved":false,"is_disabled":false,"rental_uris":{"android":"levelo://app?vid=50722b0f-6636-4f3a-b828-1e3ea8c1adaa","ios":"levelo://app?vid=50722b0f-6636-4f3a-b828-1e3ea8c1adaa"},"vehicle_type_id":"4","last_reported":1716041225,"current_range_meters":17200,"station_id":"","pricing_plan_id":"cebpf4jnsgd1na2vs0mg"},{"bike_id":"03b247b4-6151-43f9-b6a9-69d0582e2fcb","system_id":"levelo_inurba_marseille","lat":43.316828,"lon":5.404723,"is_reserved":false,"is_disabled":false,"rental_uris":{"android":"levelo://app?vid=03b247b4-6151-43f9-b6a9-69d0582e2fcb","ios":"levelo://app?vid=03b247b4-6151-43f9-b6a9-69d0582e2fcb"},"vehicle_type_id":"4","last_reported":1716041225,"current_range_meters":4800,"station_id":"ce4bh012rcd13ifvqd00","pricing_plan_id":"cebpf4jnsgd1na2vs0mg"},{"bike_id":"7cc6d533-41b8-4584-ad37-1adc7cb427cb","system_id":"levelo_inurba_marseille","lat":43.28474,"lon":5.35892,"is_reserved":false,"is_disabled":false,"rental_uris":{"android":"levelo://app?vid=7cc6d533-41b8-4584-ad37-1adc7cb427cb","ios":"levelo://app?vid=7cc6d533-41b8-4584-ad37-1adc7cb427cb"},"vehicle_type_id":"4","last_reported":1716041225,"current_range_meters":29200,"station_id":"","pricing_plan_id":"cebpf4jnsgd1na2vs0mg"},{"bike_id":"7c6a5d7e-d240-445c-b225-ab95de76d769","system_id":"levelo_inurba_marseille","lat":43.28473,"lon":5.35893,"is_reserved":false,"is_disabled":false,"rental_uris":{"android":"levelo://app?vid=7c6a5d7e-d240-445c-b225-ab95de76d769","ios":"levelo://app?vid=7c6a5d7e-d240-445c-b225-ab95de76d769"},"vehicle_type_id":"4","last_reported":1716041225,"current_range_meters":14400,"station_id":"","pricing_plan_id":"cebpf4jnsgd1na2vs0mg"},{"bike_id":"a984553d-10dc-4a15-9a94-630e292fb8f1","system_id":"levelo_inurba_marseille","lat":43.28469,"lon":5.35884,"is_reserved":false,"is_disabled":false,"rental_uris":{"android":"levelo://app?vid=a984553d-10dc-4a15-9a94-630e292fb8f1","ios":"levelo://app?vid=a984553d-10dc-4a15-9a94-630e292fb8f1"},"vehicle_type_id":"4","last_reported":1716041225,"current_range_meters":20400,"station_id":"","pricing_plan_id":"cebpf4jnsgd1na2vs0mg"},{"bike_id":"ca6969df-be7d-495d-967b-7b4ecc977f4d","system_id":"levelo_inurba_marseille","lat":43.284538,"lon":5.358657,"is_reserved":false,"is_disabled":false,"rental_uris":{"android":"levelo://app?vid=ca6969df-be7d-495d-967b-7b4ecc977f4d","ios":"levelo://app?vid=ca6969df-be7d-495d-967b-7b4ecc977f4d"},"vehicle_type_id":"4","last_reported":1716041225,"current_range_meters":16800,"station_id":"ce4bhah2rcd13ifvqei0","pricing_plan_id":"cebpf4jnsgd1na2vs0mg"},{"bike_id":"7010f6c7-243f-423d-9fcd-cc8b7ff1062e","system_id":"levelo_inurba_marseille","lat":43.284538,"lon":5.358657,"is_reserved":false,"is_disabled":false,"rental_uris":{"android":"levelo://app?vid=7010f6c7-243f-423d-9fcd-cc8b7ff1062e","ios":"levelo://app?vid=7010f6c7-243f-423d-9fcd-cc8b7ff1062e"},"vehicle_type_id":"4","last_reported":1716041225,"current_range_meters":8000,"station_id":"ce4bhah2rcd13ifvqei0","pricing_plan_id":"cebpf4jnsgd1na2vs0mg"},{"bike_id":"fbd6cbcf-ccf2-45b7-8e4b-5d316a98173f","system_id":"levelo_inurba_marseille","lat":43.293009,"lon":5.374584,"is_reserved":false,"is_disabled":false,"rental_uris":{"android":"levelo://app?vid=fbd6cbcf-ccf2-45b7-8e4b-5d316a98173f","ios":"levelo://app?vid=fbd6cbcf-ccf2-45b7-8e4b-5d316a98173f"},"vehicle_type_id":"4","last_reported":1716041225,"current_range_meters":0,"station_id":"ce4bgi12rcd13ifvqb70","pricing_plan_id":"cebpf4jnsgd1na2vs0mg"},{"bike_id":"c3295b1f-b401-4665-a192-649550632166","system_id":"levelo_inurba_marseille","lat":43.284534,"lon":5.358662,"is_reserved":false,"is_disabled":false,"rental_uris":{"android":"levelo://app?vid=c3295b1f-b401-4665-a192-649550632166","ios":"levelo://app?vid=c3295b1f-b401-4665-a192-649550632166"},"vehicle_type_id":"4","last_reported":1716041225,"current_range_meters":0,"station_id":"ce4bhah2rcd13ifvqei0","pricing_plan_id":"cebpf4jnsgd1na2vs0mg"},{"bike_id":"15e0cb89-e2fe-4940-9ce8-ac0bd6a5f673","system_id":"levelo_inurba_marseille","lat":43.284538,"lon":5.358657,"is_reserved":false,"is_disabled":false,"rental_uris":{"android":"levelo://app?vid=15e0cb89-e2fe-4940-9ce8-ac0bd6a5f673","ios":"levelo://app?vid=15e0cb89-e2fe-4940-9ce8-ac0bd6a5f673"},"vehicle_type_id":"4","last_reported":1716041225,"current_range_meters":4400,"station_id":"ce4bhah2rcd13ifvqei0","pricing_plan_id":"cebpf4jnsgd1na2vs0mg"},{"bike_id":"12fae43f-67a8-4bf1-8e57-bc6f1f79f48c","system_id":"levelo_inurba_marseille","lat":43.28458,"lon":5.35893,"is_reserved":false,"is_disabled":false,"rental_uris":{"android":"levelo://app?vid=12fae43f-67a8-4bf1-8e57-bc6f1f79f48c","ios":"levelo://app?vid=12fae43f-67a8-4bf1-8e57-bc6f1f79f48c"},"vehicle_type_id":"4","last_reported":1716041225,"current_range_meters":20800,"station_id":"","pricing_plan_id":"cebpf4jnsgd1na2vs0mg"},{"bike_id":"7338de27-524b-4aa5-a4ad-2a7c20cfef52","system_id":"levelo_inurba_marseille","lat":43.28459,"lon":5.35885,"is_reserved":false,"is_disabled":false,"rental_uris":{"android":"levelo://app?vid=7338de27-524b-4aa5-a4ad-2a7c20cfef52","ios":"levelo://app?vid=7338de27-524b-4aa5-a4ad-2a7c20cfef52"},"vehicle_type_id":"4","last_reported":1716041225,"current_range_meters":10800,"station_id":"","pricing_plan_id":"cebpf4jnsgd1na2vs0mg"},{"bike_id":"3ba8e46d-997d-4303-8cba-2e87e682d704","system_id":"levelo_inurba_marseille","lat":43.294314,"lon":5.397498,"is_reserved":false,"is_disabled":false,"rental_uris":{"android":"levelo://app?vid=3ba8e46d-997d-4303-8cba-2e87e682d704","ios":"levelo://app?vid=3ba8e46d-997d-4303-8cba-2e87e682d704"},"vehicle_type_id":"4","last_reported":1716041225,"current_range_meters":6000,"station_id":"ce4bh3h2rcd13ifvqdo0","pricing_plan_id":"cebpf4jnsgd1na2vs0mg"},{"bike_id":"4617576d-8588-480b-b8d9-645d81c3fe5a","system_id":"levelo_inurba_marseille","lat":43.285848,"lon":5.350787,"is_reserved":false,"is_disabled":false,"rental_uris":{"android":"levelo://app?vid=4617576d-8588-480b-b8d9-645d81c3fe5a","ios":"levelo://app?vid=4617576d-8588-480b-b8d9-645d81c3fe5a"},"vehicle_type_id":"4","last_reported":1716041225,"current_range_meters":4800,"station_id":"ce4bhch2rcd13ifvqeug","pricing_plan_id":"cebpf4jnsgd1na2vs0mg"},{"bike_id":"f348195e-a366-433f-888b-3a34a3f27b33","system_id":"levelo_inurba_marseille","lat":43.285856,"lon":5.350771,"is_reserved":false,"is_disabled":false,"rental_uris":{"android":"levelo://app?vid=f348195e-a366-433f-888b-3a34a3f27b33","ios":"levelo://app?vid=f348195e-a366-433f-888b-3a34a3f27b33"},"vehicle_type_id":"4","last_reported":1716041225,"current_range_meters":0,"station_id":"ce4bhch2rcd13ifvqeug","pricing_plan_id":"cebpf4jnsgd1na2vs0mg"},{"bike_id":"7ed856f5-3081-44db-871c-7c3200a29242","system_id":"levelo_inurba_marseille","lat":43.285856,"lon":5.350771,"is_reserved":false,"is_disabled":false,"rental_uris":{"android":"levelo://app?vid=7ed856f5-3081-44db-871c-7c3200a29242","ios":"levelo://app?vid=7ed856f5-3081-44db-871c-7c3200a29242"},"vehicle_type_id":"4","last_reported":1716041225,"current_range_meters":22400,"station_id":"ce4bhch2rcd13ifvqeug","pricing_plan_id":"cebpf4jnsgd1na2vs0mg"},{"bike_id":"bf811e51-94b0-4e29-8940-ea9d676aa564","system_id":"levelo_inurba_marseille","lat":43.285856,"lon":5.350771,"is_reserved":false,"is_disabled":false,"rental_uris":{"android":"levelo://app?vid=bf811e51-94b0-4e29-8940-ea9d676aa564","ios":"levelo://app?vid=bf811e51-94b0-4e29-8940-ea9d676aa564"},"vehicle_type_id":"4","last_reported":1716041225,"current_range_meters":31200,"station_id":"ce4bhch2rcd13ifvqeug","pricing_plan_id":"cebpf4jnsgd1na2vs0mg"},{"bike_id":"bb9a16d5-db81-4af2-aa64-f950f9d5bacb","system_id":"levelo_inurba_marseille","lat":43.285856,"lon":5.350771,"is_reserved":false,"is_disabled":false,"rental_uris":{"android":"levelo://app?vid=bb9a16d5-db81-4af2-aa64-f950f9d5bacb","ios":"levelo://app?vid=bb9a16d5-db81-4af2-aa64-f950f9d5bacb"},"vehicle_type_id":"4","last_reported":1716041225,"current_range_meters":8400,"station_id":"ce4bhch2rcd13ifvqeug","pricing_plan_id":"cebpf4jnsgd1na2vs0mg"},{"bike_id":"34135ce3-6319-4121-a0de-ce47f9cf168f","system_id":"levelo_inurba_marseille","lat":43.285856,"lon":5.350771,"is_reserved":false,"is_disabled":false,"rental_uris":{"android":"levelo://app?vid=34135ce3-6319-4121-a0de-ce47f9cf168f","ios":"levelo://app?vid=34135ce3-6319-4121-a0de-ce47f9cf168f"},"vehicle_type_id":"4","last_reported":1716041225,"current_range_meters":30400,"station_id":"ce4bhch2rcd13ifvqeug","pricing_plan_id":"cebpf4jnsgd1na2vs0mg"},{"bike_id":"4f471df6-5ed2-4415-89cd-b7897f65bf1e","system_id":"levelo_inurba_marseille","lat":43.285856,"lon":5.350771,"is_reserved":false,"is_disabled":false,"rental_uris":{"android":"levelo://app?vid=4f471df6-5ed2-4415-89cd-b7897f65bf1e","ios":"levelo://app?vid=4f471df6-5ed2-4415-89cd-b7897f65bf1e"},"vehicle_type_id":"4","last_reported":1716041225,"current_range_meters":24400,"station_id":"ce4bhch2rcd13ifvqeug","pricing_plan_id":"cebpf4jnsgd1na2vs0mg"},{"bike_id":"0dcefe28-b242-4cc2-aa96-f340a54c77cd","system_id":"levelo_inurba_marseille","lat":43.285856,"lon":5.350771,"is_reserved":false,"is_disabled":false,"rental_uris":{"android":"levelo://app?vid=0dcefe28-b242-4cc2-aa96-f340a54c77cd","ios":"levelo://app?vid=0dcefe28-b242-4cc2-aa96-f340a54c77cd"},"vehicle_type_id":"4","last_reported":1716041225,"current_range_meters":11600,"station_id":"ce4bhch2rcd13ifvqeug","pricing_plan_id":"cebpf4jnsgd1na2vs0mg"},{"bike_id":"4fafa515-a3f3-4f81-a585-1dbc41d5b33d","system_id":"levelo_inurba_marseille","lat":43.285848,"lon":5.350787,"is_reserved":false,"is_disabled":false,"rental_uris":{"android":"levelo://app?vid=4fafa515-a3f3-4f81-a585-1dbc41d5b33d","ios":"levelo://app?vid=4fafa515-a3f3-4f81-a585-1dbc41d5b33d"},"vehicle_type_id":"4","last_reported":1716041225,"current_range_meters":0,"station_id":"ce4bhch2rcd13ifvqeug","pricing_plan_id":"cebpf4jnsgd1na2vs0mg"},{"bike_id":"a204df4d-e329-4413-be6d-89e8eed6feea","system_id":"levelo_inurba_marseille","lat":43.285848,"lon":5.350787,"is_reserved":false,"is_disabled":false,"rental_uris":{"android":"levelo://app?vid=a204df4d-e329-4413-be6d-89e8eed6feea","ios":"levelo://app?vid=a204df4d-e329-4413-be6d-89e8eed6feea"},"vehicle_type_id":"4","last_reported":1716041225,"current_range_meters":11200,"station_id":"ce4bhch2rcd13ifvqeug","pricing_plan_id":"cebpf4jnsgd1na2vs0mg"},{"bike_id":"6f109804-73ae-484b-8762-bc6d63d6c534","system_id":"levelo_inurba_marseille","lat":43.285856,"lon":5.350771,"is_reserved":false,"is_disabled":false,"rental_uris":{"android":"levelo://app?vid=6f109804-73ae-484b-8762-bc6d63d6c534","ios":"levelo://app?vid=6f109804-73ae-484b-8762-bc6d63d6c534"},"vehicle_type_id":"4","last_reported":1716041225,"current_range_meters":5200,"station_id":"ce4bhch2rcd13ifvqeug","pricing_plan_id":"cebpf4jnsgd1na2vs0mg"},{"bike_id":"d764992a-ea70-4bd2-a3b8-fd60d8a6cd0d","system_id":"levelo_inurba_marseille","lat":43.285856,"lon":5.350771,"is_reserved":false,"is_disabled":false,"rental_uris":{"android":"levelo://app?vid=d764992a-ea70-4bd2-a3b8-fd60d8a6cd0d","ios":"levelo://app?vid=d764992a-ea70-4bd2-a3b8-fd60d8a6cd0d"},"vehicle_type_id":"4","last_reported":1716041225,"current_range_meters":22400,"station_id":"ce4bhch2rcd13ifvqeug","pricing_plan_id":"cebpf4jnsgd1na2vs0mg"},{"bike_id":"23f04b1c-f868-436a-a1d3-65bb586f311d","system_id":"levelo_inurba_marseille","lat":43.28435,"lon":5.35868,"is_reserved":false,"is_disabled":false,"rental_uris":{"android":"levelo://app?vid=23f04b1c-f868-436a-a1d3-65bb586f311d","ios":"levelo://app?vid=23f04b1c-f868-436a-a1d3-65bb586f311d"},"vehicle_type_id":"4","last_reported":1716041225,"current_range_meters":6400,"station_id":"","pricing_plan_id":"cebpf4jnsgd1na2vs0mg"},{"bike_id":"99a38a02-2f4c-4bbe-bc90-c2528e3d76d3","system_id":"levelo_inurba_marseille","lat":43.285856,"lon":5.350771,"is_reserved":false,"is_disabled":false,"rental_uris":{"android":"levelo://app?vid=99a38a02-2f4c-4bbe-bc90-c2528e3d76d3","ios":"levelo://app?vid=99a38a02-2f4c-4bbe-bc90-c2528e3d76d3"},"vehicle_type_id":"4","last_reported":1716041225,"current_range_meters":400,"station_id":"ce4bhch2rcd13ifvqeug","pricing_plan_id":"cebpf4jnsgd1na2vs0mg"},{"bike_id":"4c195818-acbc-4cc5-803e-3e4f64ffe063","system_id":"levelo_inurba_marseille","lat":43.285856,"lon":5.350771,"is_reserved":false,"is_disabled":false,"rental_uris":{"android":"levelo://app?vid=4c195818-acbc-4cc5-803e-3e4f64ffe063","ios":"levelo://app?vid=4c195818-acbc-4cc5-803e-3e4f64ffe063"},"vehicle_type_id":"4","last_reported":1716041225,"current_range_meters":5600,"station_id":"ce4bhch2rcd13ifvqeug","pricing_plan_id":"cebpf4jnsgd1na2vs0mg"},{"bike_id":"84a013d1-eba3-4aee-a80e-0248bc8b16c1","system_id":"levelo_inurba_marseille","lat":43.28439,"lon":5.35822,"is_reserved":false,"is_disabled":false,"rental_uris":{"android":"levelo://app?vid=84a013d1-eba3-4aee-a80e-0248bc8b16c1","ios":"levelo://app?vid=84a013d1-eba3-4aee-a80e-0248bc8b16c1"},"vehicle_type_id":"4","last_reported":1716041225,"current_range_meters":12800,"station_id":"","pricing_plan_id":"cebpf4jnsgd1na2vs0mg"},{"bike_id":"a9cb76cf-0dae-4f6b-b183-977dab67c755","system_id":"levelo_inurba_marseille","lat":43.285856,"lon":5.350771,"is_reserved":false,"is_disabled":false,"rental_uris":{"android":"levelo://app?vid=a9cb76cf-0dae-4f6b-b183-977dab67c755","ios":"levelo://app?vid=a9cb76cf-0dae-4f6b-b183-977dab67c755"},"vehicle_type_id":"4","last_reported":1716041225,"current_range_meters":0,"station_id":"ce4bhch2rcd13ifvqeug","pricing_plan_id":"cebpf4jnsgd1na2vs0mg"},{"bike_id":"764d2c91-e46d-4095-ac86-e2f2b628e8f4","system_id":"levelo_inurba_marseille","lat":43.2843,"lon":5.3584,"is_reserved":false,"is_disabled":false,"rental_uris":{"android":"levelo://app?vid=764d2c91-e46d-4095-ac86-e2f2b628e8f4","ios":"levelo://app?vid=764d2c91-e46d-4095-ac86-e2f2b628e8f4"},"vehicle_type_id":"4","last_reported":1716041225,"current_range_meters":5200,"station_id":"","pricing_plan_id":"cebpf4jnsgd1na2vs0mg"},{"bike_id":"0b2edcde-ed68-4d50-9036-a9643687656c","system_id":"levelo_inurba_marseille","lat":43.28411,"lon":5.37508,"is_reserved":false,"is_disabled":false,"rental_uris":{"android":"levelo://app?vid=0b2edcde-ed68-4d50-9036-a9643687656c","ios":"levelo://app?vid=0b2edcde-ed68-4d50-9036-a9643687656c"},"vehicle_type_id":"4","last_reported":1716041225,"current_range_meters":0,"station_id":"ce4bh412rcd13ifvqds0","pricing_plan_id":"cebpf4jnsgd1na2vs0mg"},{"bike_id":"1a6b2475-2b6d-4b22-8e20-4d3e0d44f236","system_id":"levelo_inurba_marseille","lat":43.286595,"lon":5.386795,"is_reserved":false,"is_disabled":false,"rental_uris":{"android":"levelo://app?vid=1a6b2475-2b6d-4b22-8e20-4d3e0d44f236","ios":"levelo://app?vid=1a6b2475-2b6d-4b22-8e20-4d3e0d44f236"},"vehicle_type_id":"4","last_reported":1716041225,"current_range_meters":0,"station_id":"ce4bh492rcd13ifvqdug","pricing_plan_id":"cebpf4jnsgd1na2vs0mg"},{"bike_id":"df3ebef0-c91e-49f9-b426-d6215a52b2bf","system_id":"levelo_inurba_marseille","lat":43.319179,"lon":5.407725,"is_reserved":false,"is_disabled":false,"rental_uris":{"android":"levelo://app?vid=df3ebef0-c91e-49f9-b426-d6215a52b2bf","ios":"levelo://app?vid=df3ebef0-c91e-49f9-b426-d6215a52b2bf"},"vehicle_type_id":"4","last_reported":1716041225,"current_range_meters":21600,"station_id":"ce4bhq12rcd13ifvqhig","pricing_plan_id":"cebpf4jnsgd1na2vs0mg"},{"bike_id":"faccbf7b-6df4-4e6e-b76f-c5c57fed0716","system_id":"levelo_inurba_marseille","lat":43.286401,"lon":5.387031,"is_reserved":false,"is_disabled":false,"rental_uris":{"android":"levelo://app?vid=faccbf7b-6df4-4e6e-b76f-c5c57fed0716","ios":"levelo://app?vid=faccbf7b-6df4-4e6e-b76f-c5c57fed0716"},"vehicle_type_id":"4","last_reported":1716041225,"current_range_meters":2400,"station_id":"ce4bh492rcd13ifvqdug","pricing_plan_id":"cebpf4jnsgd1na2vs0mg"},{"bike_id":"c3e829da-d8eb-4db8-85d2-1a0ef31f0abf","system_id":"levelo_inurba_marseille","lat":43.29858,"lon":5.40367,"is_reserved":false,"is_disabled":false,"rental_uris":{"android":"levelo://app?vid=c3e829da-d8eb-4db8-85d2-1a0ef31f0abf","ios":"levelo://app?vid=c3e829da-d8eb-4db8-85d2-1a0ef31f0abf"},"vehicle_type_id":"4","last_reported":1716041225,"current_range_meters":24400,"station_id":"","pricing_plan_id":"cebpf4jnsgd1na2vs0mg"},{"bike_id":"408d5883-6ab7-46c8-a245-d43cb1dee79c","system_id":"levelo_inurba_marseille","lat":43.337168,"lon":5.391825,"is_reserved":false,"is_disabled":false,"rental_uris":{"android":"levelo://app?vid=408d5883-6ab7-46c8-a245-d43cb1dee79c","ios":"levelo://app?vid=408d5883-6ab7-46c8-a245-d43cb1dee79c"},"vehicle_type_id":"4","last_reported":1716041225,"current_range_meters":22400,"station_id":"ce4bhr92rcd13ifvqhsg","pricing_plan_id":"cebpf4jnsgd1na2vs0mg"},