{"last_updated":1739196568,"ttl":60,"version":"2.2","data":{"bikes":[{"bike_id":"5cda301b-bce8-41d3-abea-2e981f99524e","system_id":"levelo_inurba_marseille","lat":43.29845,"lon":5.36302,"is_reserved":false,"is_disabled":false,"rental_uris":{"android":"levelo://app?vid=5cda301b-bce8-41d3-abea-2e981f99524e","ios":"levelo://app?vid=5cda301b-bce8-41d3-abea-2e981f99524e"},"vehicle_type_id":"4","last_reported":1739196568,"current_range_meters":29600,"station_id":"ce4bgpp2rcd13ifvqc3g","pricing_plan_id":"cebpf4jnsgd1na2vs0mg"},{"bike_id":"e7d8ed8c-85a3-44c3-8805-56fbe310205d","system_id":"levelo_inurba_marseille","lat":43.28417,"lon":5.37529,"is_reserved":false,"is_disabled":false,"rental_uris":{"android":"levelo://app?vid=e7d8ed8c-85a3-44c3-8805-56fbe310205d","ios":"levelo://app?vid=e7d8ed8c-85a3-44c3-8805-56fbe310205d"},"vehicle_type_id":"4","last_reported":1739196568,"current_range_meters":8000,"station_id":"ce4bh412rcd13ifvqds0","pricing_plan_id":"cebpf4jnsgd1na2vs0mg"},{"bike_id":"7d836d2d-c58d-4b58-979b-16543b991174","system_id":"levelo_inurba_marseille","lat":43.26935,"lon":5.38626,"is_reserved":false,"is_disabled":false,"rental_uris":{"android":"levelo://app?vid=7d836d2d-c58d-4b58-979b-16543b991174","ios":"levelo://app?vid=7d836d2d-c58d-4b58-979b-16543b991174"},"vehicle_type_id":"4","last_reported":1739196568,"current_range_meters":27200,"station_id":"ce4bhh92rcd13ifvqfh0","pricing_plan_id":"cebpf4jnsgd1na2vs0mg"},{"bike_id":"b068362a-3288-489d-9388-78d1aec4149d","system_id":"levelo_inurba_marseille","lat":43.26569,"lon":5.39013,"is_reserved":false,"is_disabled":true,"rental_uris":{"android":"levelo://app?vid=b068362a-3288-489d-9388-78d1aec4149d","ios":"levelo://app?vid=b068362a-3288-489d-9388-78d1aec4149d"},"vehicle_type_id":"4","last_reported":1739196568,"current_range_meters":0,"station_id":"ce4bhe12rcd13ifvqf30","pricing_plan_id":"cebpf4jnsgd1na2vs0mg"},{"bike_id":"9857501a-9c64-4e8c-bbab-22c968b3d40f","system_id":"levelo_inurba_marseille","lat":43.3013,"lon":5.37417,"is_reserved":false,"is_disabled":false,"rental_uris":{"android":"levelo://app?vid=9857501a-9c64-4e8c-bbab-22c968b3d40f","ios":"levelo://app?vid=9857501a-9c64-4e8c-bbab-22c968b3d40f"},"vehicle_type_id":"4","last_reported":1739196568,"current_range_meters":37600,"station_id":"ce4bgs92rcd13ifvqcc0","pricing_plan_id":"cebpf4jnsgd1na2vs0mg"},{"bike_id":"0d5c3776-d05d-4a77-b3f7-d78b7e8dc58b","system_id":"levelo_inurba_marseille","lat":43.25495,"lon":5.37646,"is_reserved":false,"is_disabled":false,"rental_uris":{"android":"levelo://app?vid=0d5c3776-d05d-4a77-b3f7-d78b7e8dc58b","ios":"levelo://app?vid=0d5c3776-d05d-4a77-b3f7-d78b7e8dc58b"},"vehicle_type_id":"4","last_reported":1739196568,"current_range_meters":12400,"station_id":"ce4bhh12rcd13ifvqff0","pricing_plan_id":"cebpf4jnsgd1na2vs0mg"},{"bike_id":"6623929f-870b-4f30-916e-699083be349f","system_id":"levelo_inurba_marseille","lat":43.27257,"lon":5.39265,"is_reserved":false,"is_disabled":false,"rental_uris":{"android":"levelo://app?vid=6623929f-870b-4f30-916e-699083be349f","ios":"levelo://app?vid=6623929f-870b-4f30-916e-699083be349f"},"vehicle_type_id":"4","last_reported":1739196568,"current_range_meters":39200,"station_id":"ce4bhhp2rcd13ifvqfm0","pricing_plan_id":"cebpf4jnsgd1na2vs0mg"},{"bike_id":"ed25fbaf-4a9c-4cb0-ad1d-9d86b289153d","system_id":"levelo_inurba_marseille","lat":43.30267,"lon":5.37717,"is_reserved":false,"is_disabled":false,"rental_uris":{"android":"levelo://app?vid=ed25fbaf-4a9c-4cb0-ad1d-9d86b289153d","ios":"levelo://app?vid=ed25fbaf-4a9c-4cb0-ad1d-9d86b289153d"},"vehicle_type_id":"4","last_reported":1739196568,"current_range_meters":38000,"station_id":"ce4bguh2rcd13ifvqcj0","pricing_plan_id":"cebpf4jnsgd1na2vs0mg"},{"bike_id":"52bbfaa2-b8ac-4136-9dbb-460affee02ed","system_id":"levelo_inurba_marseille","lat":43.26037,"lon":5.3755,"is_reserved":false,"is_disabled":false,"rental_uris":{"android":"levelo://app?vid=52bbfaa2-b8ac-4136-9dbb-460affee02ed","ios":"levelo://app?vid=52bbfaa2-b8ac-4136-9dbb-460affee02ed"},"vehicle_type_id":"4","last_reported":1739196568,"current_range_meters":38800,"station_id":"ce4bhgh2rcd13ifvqfa0","pricing_plan_id":"cebpf4jnsgd1na2vs0mg"},{"bike_id":"cd43b8b3-9bce-4582-844f-517531c1058f","system_id":"levelo_inurba_marseille","lat":43.282774,"lon":5.385625,"is_reserved":false,"is_disabled":false,"rental_uris":{"android":"levelo://app?vid=cd43b8b3-9bce-4582-844f-517531c1058f","ios":"levelo://app?vid=cd43b8b3-9bce-4582-844f-517531c1058f"},"vehicle_type_id":"4","last_reported":1739196568,"current_range_meters":17600,"station_id":"","pricing_plan_id":"cebpf4jnsgd1na2vs0mg"},{"bike_id":"51b9a729-fd90-485f-a462-351308296e2e","system_id":"levelo_inurba_marseille","lat":43.2793,"lon":5.41047,"is_reserved":false,"is_disabled":true,"rental_uris":{"android":"levelo://app?vid=51b9a729-fd90-485f-a462-351308296e2e","ios":"levelo://app?vid=51b9a729-fd90-485f-a462-351308296e2e"},"vehicle_type_id":"4","last_reported":1739196568,"current_range_meters":0,"station_id":"ce4bhnp2rcd13ifvqh0g","pricing_plan_id":"cebpf4jnsgd1na2vs0mg"},{"bike_id":"8440a93c-9f0d-494a-8d04-da2f83d7ddb3","system_id":"levelo_inurba_marseille","lat":43.33603,"lon":5.40982,"is_reserved":false,"is_disabled":false,"rental_uris":{"android":"levelo://app?vid=8440a93c-9f0d-494a-8d04-da2f83d7ddb3","ios":"levelo://app?vid=8440a93c-9f0d-494a-8d04-da2f83d7ddb3"},"vehicle_type_id":"4","last_reported":1739196568,"current_range_meters":38800,"station_id":"ce4bhqh2rcd13ifvqhmg","pricing_plan_id":"cebpf4jnsgd1na2vs0mg"},{"bike_id":"037c679a-98bd-40a4-9941-fce0441d2613","system_id":"levelo_inurba_marseille","lat":43.30142,"lon":5.37422,"is_reserved":false,"is_disabled":false,"rental_uris":{"android":"levelo://app?vid=037c679a-98bd-40a4-9941-fce0441d2613","ios":"levelo://app?vid=037c679a-98bd-40a4-9941-fce0441d2613"},"vehicle_type_id":"4","last_reported":1739196568,"current_range_meters":38800,"station_id":"ce4bgs92rcd13ifvqcc0","pricing_plan_id":"cebpf4jnsgd1na2vs0mg"},{"bike_id":"61c3bd5a-f7f2-429c-baa9-a337479bb65d","system_id":"levelo_inurba_marseille","lat":43.23178,"lon":5.39979,"is_reserved":false,"is_disabled":false,"rental_uris":{"android":"levelo://app?vid=61c3bd5a-f7f2-429c-baa9-a337479bb65d","ios":"levelo://app?vid=61c3bd5a-f7f2-429c-baa9-a337479bb65d"},"vehicle_type_id":"4","last_reported":1739196568,"current_range_meters":27600,"station_id":"ce4bhn12rcd13ifvqgqg","pricing_plan_id":"cebpf4jnsgd1na2vs0mg"},{"bike_id":"6d65ae34-2ff7-46e5-b87e-38814047fdee","system_id":"levelo_inurba_marseille","lat":43.31684,"lon":5.40484,"is_reserved":false,"is_disabled":false,"rental_uris":{"android":"levelo://app?vid=6d65ae34-2ff7-46e5-b87e-38814047fdee","ios":"levelo://app?vid=6d65ae34-2ff7-46e5-b87e-38814047fdee"},"vehicle_type_id":"4","last_reported":1739196568,"current_range_meters":38800,"station_id":"ce4bh012rcd13ifvqd00","pricing_plan_id":"cebpf4jnsgd1na2vs0mg"},{"bike_id":"4a223305-3a4a-41de-bb70-9a7d7094342b","system_id":"levelo_inurba_marseille","lat":43.25109,"lon":5.40322,"is_reserved":false,"is_disabled":false,"rental_uris":{"android":"levelo://app?vid=4a223305-3a4a-41de-bb70-9a7d7094342b","ios":"levelo://app?vid=4a223305-3a4a-41de-bb70-9a7d7094342b"},"vehicle_type_id":"4","last_reported":1739196568,"current_range_meters":4400,"station_id":"ce4bhlh2rcd13ifvqgig","pricing_plan_id":"cebpf4jnsgd1na2vs0mg"},{"bike_id":"8b11a23d-afc9-4fb2-9966-63eb95dbdb1e","system_id":"levelo_inurba_marseille","lat":43.3108,"lon":5.38375,"is_reserved":false,"is_disabled":false,"rental_uris":{"android":"levelo://app?vid=8b11a23d-afc9-4fb2-9966-63eb95dbdb1e","ios":"levelo://app?vid=8b11a23d-afc9-4fb2-9966-63eb95dbdb1e"},"vehicle_type_id":"4","last_reported":1739196568,"current_range_meters":8800,"station_id":"ce4bgv92rcd13ifvqcr0","pricing_plan_id":"cebpf4jnsgd1na2vs0mg"},{"bike_id":"fea52798-e931-45ae-a156-233e5c832d95","system_id":"levelo_inurba_marseille","lat":43.305393,"lon":5.366922,"is_reserved":false,"is_disabled":false,"rental_uris":{"android":"levelo://app?vid=fea52798-e931-45ae-a156-233e5c832d95","ios":"levelo://app?vid=fea52798-e931-45ae-a156-233e5c832d95"},"vehicle_type_id":"4","last_reported":1739196568,"current_range_meters":28000,"station_id":"ce4bgrp2rcd13ifvqc9g","pricing_plan_id":"cebpf4jnsgd1na2vs0mg"},{"bike_id":"3eb9d472-a650-46e0-a14f-ceb4399d33a4","system_id":"levelo_inurba_marseille","lat":43.28154,"lon":5.42645,"is_reserved":false,"is_disabled":false,"rental_uris":{"android":"levelo://app?vid=3eb9d472-a650-46e0-a14f-ceb4399d33a4","ios":"levelo://app?vid=3eb9d472-a650-46e0-a14f-ceb4399d33a4"},"vehicle_type_id":"4","last_reported":1739196568,"current_range_meters":38800,"station_id":"ce4bhnh2rcd13ifvqgug","pricing_plan_id":"cebpf4jnsgd1na2vs0mg"},{"bike_id":"ca62490e-1209-4d5b-b694-89bacead5861","system_id":"levelo_inurba_marseille","lat":43.28564,"lon":5.36751,"is_reserved":false,"is_disabled":false,"rental_uris":{"android":"levelo://app?vid=ca62490e-1209-4d5b-b694-89bacead5861","ios":"levelo://app?vid=ca62490e-1209-4d5b-b694-89bacead5861"},"vehicle_type_id":"4","last_reported":1739196568,"current_range_meters":18800,"station_id":"","pricing_plan_id":"cebpf4jnsgd1na2vs0mg"},{"bike_id":"f504ae25-f5a4-4b38-b42e-3a30562fb7f9","system_id":"levelo_inurba_marseille","lat":43.29564,"lon":5.36758,"is_reserved":false,"is_disabled":true,"rental_uris":{"android":"levelo://app?vid=f504ae25-f5a4-4b38-b42e-3a30562fb7f9","ios":"levelo://app?vid=f504ae25-f5a4-4b38-b42e-3a30562fb7f9"},"vehicle_type_id":"4","last_reported":1739196568,"current_range_meters":12000,"station_id":"ce4bgph2rcd13ifvqc2g","pricing_plan_id":"cebpf4jnsgd1na2vs0mg"},{"bike_id":"78af5c8d-2f5e-4a60-a218-6efcadbeb850","system_id":"levelo_inurba_marseille","lat":43.29614,"lon":5.37711,"is_reserved":false,"is_disabled":false,"rental_uris":{"android":"levelo://app?vid=78af5c8d-2f5e-4a60-a218-6efcadbeb850","ios":"levelo://app?vid=78af5c8d-2f5e-4a60-a218-6efcadbeb850"},"vehicle_type_id":"4","last_reported":1739196568,"current_range_meters":33600,"station_id":"","pricing_plan_id":"cebpf4jnsgd1na2vs0mg"},{"bike_id":"0ec10906-ace0-4c24-9f95-c37ad07c9817","system_id":"levelo_inurba_marseille","lat":43.2397,"lon":5.36632,"is_reserved":false,"is_disabled":false,"rental_uris":{"android":"levelo://app?vid=0ec10906-ace0-4c24-9f95-c37ad07c9817","ios":"levelo://app?vid=0ec10906-ace0-4c24-9f95-c37ad07c9817"},"vehicle_type_id":"4","last_reported":1739196568,"current_range_meters":37600,"station_id":"ce4bhi12rcd13ifvqfp0","pricing_plan_id":"cebpf4jnsgd1na2vs0mg"},{"bike_id":"5391c93c-7685-48ea-9c51-32eb81a76c53","system_id":"levelo_inurba_marseille","lat":43.26204,"lon":5.3745,"is_reserved":false,"is_disabled":false,"rental_uris":{"android":"levelo://app?vid=5391c93c-7685-48ea-9c51-32eb81a76c53","ios":"levelo://app?vid=5391c93c-7685-48ea-9c51-32eb81a76c53"},"vehicle_type_id":"4","last_reported":1739196568,"current_range_meters":23200,"station_id":"ce4bhgp2rcd13ifvqfc0","pricing_plan_id":"cebpf4jnsgd1na2vs0mg"},{"bike_id":"ec577290-415e-4adf-bee8-70a702854fd7","system_id":"levelo_inurba_marseille","lat":43.28458,"lon":5.35888,"is_reserved":false,"is_disabled":false,"rental_uris":{"android":"levelo://app?vid=ec577290-415e-4adf-bee8-70a702854fd7","ios":"levelo://app?vid=ec577290-415e-4adf-bee8-70a702854fd7"},"vehicle_type_id":"4","last_reported":1739196568,"current_range_meters":39200,"station_id":"ce4bhah2rcd13ifvqei0","pricing_plan_id":"cebpf4jnsgd1na2vs0mg"},{"bike_id":"1de97042-ecbf-4901-a2a3-b42159fdab23","system_id":"levelo_inurba_marseille","lat":43.2962,"lon":5.37717,"is_reserved":false,"is_disabled":false,"rental_uris":{"android":"levelo://app?vid=1de97042-ecbf-4901-a2a3-b42159fdab23","ios":"levelo://app?vid=1de97042-ecbf-4901-a2a3-b42159fdab23"},"vehicle_type_id":"4","last_reported":1739196568,"current_range_meters":35200,"station_id":"ce4bgi92rcd13ifvqb90","pricing_plan_id":"cebpf4jnsgd1na2vs0mg"},{"bike_id":"1f9fd6eb-90d4-491b-843d-e313eccd5647","system_id":"levelo_inurba_marseille","lat":43.24383,"lon":5.37051,"is_reserved":false,"is_disabled":false,"rental_uris":{"android":"levelo://app?vid=1f9fd6eb-90d4-491b-843d-e313eccd5647","ios":"levelo://app?vid=1f9fd6eb-90d4-491b-843d-e313eccd5647"},"vehicle_type_id":"4","last_reported":1739196568,"current_range_meters":38800,"station_id":"ce4bhhh2rcd13ifvqfk0","pricing_plan_id":"cebpf4jnsgd1na2vs0mg"},{"bike_id":"f798cbc4-a869-471f-bce8-f64397eebe81","system_id":"levelo_inurba_marseille","lat":43.23956,"lon":5.3663,"is_reserved":false,"is_disabled":false,"rental_uris":{"android":"levelo://app?vid=f798cbc4-a869-471f-bce8-f64397eebe81","ios":"levelo://app?vid=f798cbc4-a869-471f-bce8-f64397eebe81"},"vehicle_type_id":"4","last_reported":1739196568,"current_range_meters":25600,"station_id":"ce4bhi12rcd13ifvqfp0","pricing_plan_id":"cebpf4jnsgd1na2vs0mg"},{"bike_id":"b021e1a2-bb30-4956-b0f1-62e84c7a74e2","system_id":"levelo_inurba_marseille","lat":43.32356,"lon":5.36752,"is_reserved":false,"is_disabled":false,"rental_uris":{"android":"levelo://app?vid=b021e1a2-bb30-4956-b0f1-62e84c7a74e2","ios":"levelo://app?vid=b021e1a2-bb30-4956-b0f1-62e84c7a74e2"},"vehicle_type_id":"4","last_reported":1739196568,"current_range_meters":32400,"station_id":"ce4bhsh2rcd13ifvqi2g","pricing_plan_id":"cebpf4jnsgd1na2vs0mg"},{"bike_id":"28a47fb1-cfd8-458a-9d02-867dcc69b64f","system_id":"levelo_inurba_marseille","lat":43.27673,"lon":5.38918,"is_reserved":false,"is_disabled":false,"rental_uris":{"android":"levelo://app?vid=28a47fb1-cfd8-458a-9d02-867dcc69b64f","ios":"levelo://app?vid=28a47fb1-cfd8-458a-9d02-867dcc69b64f"},"vehicle_type_id":"4","last_reported":1739196568,"current_range_meters":35200,"station_id":"ce4bhi12rcd13ifvqfo0","pricing_plan_id":"cebpf4jnsgd1na2vs0mg"},{"bike_id":"776c444e-ae69-4270-af0f-40003d483afe","system_id":"levelo_inurba_marseille","lat":43.23968,"lon":5.36649,"is_reserved":false,"is_disabled":false,"rental_uris":{"android":"levelo://app?vid=776c444e-ae69-4270-af0f-40003d483afe","ios":"levelo://app?vid=776c444e-ae69-4270-af0f-40003d483afe"},"vehicle_type_id":"4","last_reported":1739196568,"current_range_meters":37600,"station_id":"ce4bhi12rcd13ifvqfp0","pricing_plan_id":"cebpf4jnsgd1na2vs0mg"},{"bike_id":"91cd1f1c-4098-4197-a885-7ec0a0f22781","system_id":"levelo_inurba_marseille","lat":43.25502,"lon":5.37649,"is_reserved":false,"is_disabled":false,"rental_uris":{"android":"levelo://app?vid=91cd1f1c-4098-4197-a885-7ec0a0f22781","ios":"levelo://app?vid=91cd1f1c-4098-4197-a885-7ec0a0f22781"},"vehicle_type_id":"4","last_reported":1739196568,"current_range_meters":14400,"station_id":"ce4bhh12rcd13ifvqff0","pricing_plan_id":"cebpf4jnsgd1na2vs0mg"},{"bike_id":"0d025740-f69c-4a1f-bbaa-26c6934ad80a","system_id":"levelo_inurba_marseille","lat":43.29781,"lon":5.37109,"is_reserved":false,"is_disabled":false,"rental_uris":{"android":"levelo://app?vid=0d025740-f69c-4a1f-bbaa-26c6934ad80a","ios":"levelo://app?vid=0d025740-f69c-4a1f-bbaa-26c6934ad80a"},"vehicle_type_id":"4","last_reported":1739196568,"current_range_meters":38800,"station_id":"ce4bgop2rcd13ifvqc1g","pricing_plan_id":"cebpf4jnsgd1na2vs0mg"},{"bike_id":"fafc7794-25db-445b-aa4c-e43af67f34b7","system_id":"levelo_inurba_marseille","lat":43.2909,"lon":5.38146,"is_reserved":false,"is_disabled":false,"rental_uris":{"android":"levelo://app?vid=fafc7794-25db-445b-aa4c-e43af67f34b7","ios":"levelo://app?vid=fafc7794-25db-445b-aa4c-e43af67f34b7"},"vehicle_type_id":"4","last_reported":1739196568,"current_range_meters":28400,"station_id":"ce4bh512rcd13ifvqe2g","pricing_plan_id":"cebpf4jnsgd1na2vs0mg"},{"bike_id":"b966770f-cee3-4693-ae46-cd8533683483","system_id":"levelo_inurba_marseille","lat":43.31674,"lon":5.38207,"is_reserved":false,"is_disabled":false,"rental_uris":{"android":"levelo://app?vid=b966770f-cee3-4693-ae46-cd8533683483","ios":"levelo://app?vid=b966770f-cee3-4693-ae46-cd8533683483"},"vehicle_type_id":"4","last_reported":1739196568,"current_range_meters":27200,"station_id":"ce4bgv12rcd13ifvqcp0","pricing_plan_id":"cebpf4jnsgd1na2vs0mg"},{"bike_id":"1d372f93-b8e6-4f13-9d33-813b3a0ab7b3","system_id":"levelo_inurba_marseille","lat":43.29362,"lon":5.37863,"is_reserved":false,"is_disabled":false,"rental_uris":{"android":"levelo://app?vid=1d372f93-b8e6-4f13-9d33-813b3a0ab7b3","ios":"levelo://app?vid=1d372f93-b8e6-4f13-9d33-813b3a0ab7b3"},"vehicle_type_id":"4","last_reported":1739196568,"current_range_meters":36800,"station_id":"ce4bgjh2rcd13ifvqbf0","pricing_plan_id":"cebpf4jnsgd1na2vs0mg"},{"bike_id":"c93ba4b5-809f-42a1-951f-4f195f9c3735","system_id":"levelo_inurba_marseille","lat":43.29176,"lon":5.35797,"is_reserved":false,"is_disabled":false,"rental_uris":{"android":"levelo://app?vid=c93ba4b5-809f-42a1-951f-4f195f9c3735","ios":"levelo://app?vid=c93ba4b5-809f-42a1-951f-4f195f9c3735"},"vehicle_type_id":"4","last_reported":1739196568,"current_range_meters":38000,"station_id":"ce4bhb12rcd13ifvqel0","pricing_plan_id":"cebpf4jnsgd1na2vs0mg"},{"bike_id":"505579d9-16a2-4ce7-9dbc-ef0e7ba1a6b6","system_id":"levelo_inurba_marseille","lat":43.29373,"lon":5.37853,"is_reserved":false,"is_disabled":false,"rental_uris":{"android":"levelo://app?vid=505579d9-16a2-4ce7-9dbc-ef0e7ba1a6b6","ios":"levelo://app?vid=505579d9-16a2-4ce7-9dbc-ef0e7ba1a6b6"},"vehicle_type_id":"4","last_reported":1739196568,"current_range_meters":35600,"station_id":"ce4bgjh2rcd13ifvqbf0","pricing_plan_id":"cebpf4jnsgd1na2vs0mg"},{"bike_id":"94f16e6f-f4e8-4298-9413-a5581857d32f","system_id":"levelo_inurba_marseille","lat":43.30888,"lon":5.3966,"is_reserved":false,"is_disabled":false,"rental_uris":{"android":"levelo://app?vid=94f16e6f-f4e8-4298-9413-a5581857d32f","ios":"levelo://app?vid=94f16e6f-f4e8-4298-9413-a5581857d32f"},"vehicle_type_id":"4","last_reported":1739196568,"current_range_meters":38000,"station_id":"ce4bh012rcd13ifvqcv0","pricing_plan_id":"cebpf4jnsgd1na2vs0mg"},{"bike_id":"3d775884-6b38-47ff-bdab-a7708da1a655","system_id":"levelo_inurba_marseille","lat":43.26189,"lon":5.37461,"is_reserved":false,"is_disabled":false,"rental_uris":{"android":"levelo://app?vid=3d775884-6b38-47ff-bdab-a7708da1a655","ios":"levelo://app?vid=3d775884-6b38-47ff-bdab-a7708da1a655"},"vehicle_type_id":"4","last_reported":1739196568,"current_range_meters":29600,"station_id":"ce4bhgp2rcd13ifvqfc0","pricing_plan_id":"cebpf4jnsgd1na2vs0mg"},{"bike_id":"30a04f13-fea8-4b77-992f-0b729af72960","system_id":"levelo_inurba_marseille","lat":43.28113,"lon":5.3783,"is_reserved":false,"is_disabled":false,"rental_uris":{"android":"levelo://app?vid=30a04f13-fea8-4b77-992f-0b729af72960","ios":"levelo://app?vid=30a04f13-fea8-4b77-992f-0b729af72960"},"vehicle_type_id":"4","last_reported":1739196568,"current_range_meters":25600,"station_id":"ce4bha12rcd13ifvqee0","pricing_plan_id":"cebpf4jnsgd1na2vs0mg"},{"bike_id":"a1e1c154-9e5a-4afc-9a7e-cedaf38d9921","system_id":"levelo_inurba_marseille","lat":43.28999,"lon":5.35622,"is_reserved":false,"is_disabled":false,"rental_uris":{"android":"levelo://app?vid=a1e1c154-9e5a-4afc-9a7e-cedaf38d9921","ios":"levelo://app?vid=a1e1c154-9e5a-4afc-9a7e-cedaf38d9921"},"vehicle_type_id":"4","last_reported":1739196568,"current_range_meters":35200,"station_id":"ce4bhb92rcd13ifvqen0","pricing_plan_id":"cebpf4jnsgd1na2vs0mg"},{"bike_id":"726fb099-c3d7-4106-beb8-89951bfba46d","system_id":"levelo_inurba_marseille","lat":43.29509,"lon":5.37502,"is_reserved":false,"is_disabled":false,"rental_uris":{"android":"levelo://app?vid=726fb099-c3d7-4106-beb8-89951bfba46d","ios":"levelo://app?vid=726fb099-c3d7-4106-beb8-89951bfba46d"},"vehicle_type_id":"4","last_reported":1739196568,"current_range_meters":34800,"station_id":"ce4bgkp2rcd13ifvqbmg","pricing_plan_id":"cebpf4jnsgd1na2vs0mg"},{"bike_id":"a0786387-34cb-41ee-a124-76dad3f46db5","system_id":"levelo_inurba_marseille","lat":43.30469,"lon":5.37908,"is_reserved":false,"is_disabled":false,"rental_uris":{"android":"levelo://app?vid=a0786387-34cb-41ee-a124-76dad3f46db5","ios":"levelo://app?vid=a0786387-34cb-41ee-a124-76dad3f46db5"},"vehicle_type_id":"4","last_reported":1739196568,"current_range_meters":28000,"station_id":"ce4bgup2rcd13ifvqcn0","pricing_plan_id":"cebpf4jnsgd1na2vs0mg"},{"bike_id":"a8b95b6c-66aa-4678-991e-4d7cdb894129","system_id":"levelo_inurba_marseille","lat":43.26956,"lon":5.38628,"is_reserved":false,"is_disabled":false,"rental_uris":{"android":"levelo://app?vid=a8b95b6c-66aa-4678-991e-4d7cdb894129","ios":"levelo://app?vid=a8b95b6c-66aa-4678-991e-4d7cdb894129"},"vehicle_type_id":"4","last_reported":1739196568,"current_range_meters":33600,"station_id":"ce4bhh92rcd13ifvqfh0","pricing_plan_id":"cebpf4jnsgd1na2vs0mg"},{"bike_id":"e16a8f2c-7481-46e7-8430-317d4aa354c6","system_id":"levelo_inurba_marseille","lat":43.30303,"lon":5.37423,"is_reserved":false,"is_disabled":false,"rental_uris":{"android":"levelo://app?vid=e16a8f2c-7481-46e7-8430-317d4aa354c6","ios":"levelo://app?vid=e16a8f2c-7481-46e7-8430-317d4aa354c6"},"vehicle_type_id":"4","last_reported":1739196568,"current_range_meters":28400,"station_id":"ce4bgv92rcd13ifvqcq0","pricing_plan_id":"cebpf4jnsgd1na2vs0mg"},{"bike_id":"5728af05-01f3-4c14-afd6-c4ebe0f65611","system_id":"levelo_inurba_marseille","lat":43.24991,"lon":5.3894,"is_reserved":false,"is_disabled":false,"rental_uris":{"android":"levelo://app?vid=5728af05-01f3-4c14-afd6-c4ebe0f65611","ios":"levelo://app?vid=5728af05-01f3-4c14-afd6-c4ebe0f65611"},"vehicle_type_id":"4","last_reported":1739196568,"current_range_meters":8000,"station_id":"ce4bhgp2rcd13ifvqfd0","pricing_plan_id":"cebpf4jnsgd1na2vs0mg"},{"bike_id":"c589096b-2f0f-4a04-810c-5a98686a2581","system_id":"levelo_inurba_marseille","lat":43.28103,"lon":5.37833,"is_reserved":false,"is_disabled":false,"rental_uris":{"android":"levelo://app?vid=c589096b-2f0f-4a04-810c-5a98686a2581","ios":"levelo://app?vid=c589096b-2f0f-4a04-810c-5a98686a2581"},"vehicle_type_id":"4","last_reported":1739196568,"current_range_meters":28000,"station_id":"ce4bha12rcd13ifvqee0","pricing_plan_id":"cebpf4jnsgd1na2vs0mg"},{"bike_id":"b57c3c52-f51a-4e18-bdaf-76e91ccd9395","system_id":"levelo_inurba_marseille","lat":43.24218,"lon":5.39735,"is_reserved":false,"is_disabled":false,"rental_uris":{"android":"levelo://app?vid=b57c3c52-f51a-4e18-bdaf-76e91ccd9395","ios":"levelo://app?vid=b57c3c52-f51a-4e18-bdaf-76e91ccd9395"},"vehicle_type_id":"4","last_reported":1739196568,"current_range_meters":38800,"station_id":"ce4bhn12rcd13ifvqgpg","pricing_plan_id":"cebpf4jnsgd1na2vs0mg"},{"bike_id":"3441c74a-282b-45aa-b329-9e43a88c8a80","system_id":"levelo_inurba_marseille","lat":43.2481,"lon":5.37454,"is_reserved":false,"is_disabled":false,"rental_uris":{"android":"levelo://app?vid=3441c74a-282b-45aa-b329-9e43a88c8a80","ios":"levelo://app?vid=3441c74a-282b-45aa-b329-9e43a88c8a80"},"vehicle_type_id":"4","last_reported":1739196568,"current_range_meters":19600,"station_id":"ce4bhgh2rcd13ifvqfb0","pricing_plan_id":"cebpf4jnsgd1na2vs0mg"},{"bike_id":"e00cd517-4a6d-40d8-b46e-27fb98e2bb39","system_id":"levelo_inurba_marseille","lat":43.28457,"lon":5.35899,"is_reserved":false,"is_disabled":false,"rental_uris":{"android":"levelo://app?vid=e00cd517-4a6d-40d8-b46e-27fb98e2bb39","ios":"levelo://app?vid=e00cd517-4a6d-40d8-b46e-27fb98e2bb39"},"vehicle_type_id":"4","last_reported":1739196568,"current_range_meters":38800,"station_id":"ce4bhah2rcd13ifvqei0","pricing_plan_id":"cebpf4jnsgd1na2vs0mg"},{"bike_id":"6d35baf6-b40a-4254-a7f5-d19098690ec0","system_id":"levelo_inurba_marseille","lat":43.3054,"lon":5.36698,"is_reserved":false,"is_disabled":false,"rental_uris":{"android":"levelo://app?vid=6d35baf6-b40a-4254-a7f5-d19098690ec0","ios":"levelo://app?vid=6d35baf6-b40a-4254-a7f5-d19098690ec0"},"vehicle_type_id":"4","last_reported":1739196568,"current_range_meters":30000,"station_id":"ce4bgrp2rcd13ifvqc9g","pricing_plan_id":"cebpf4jnsgd1na2vs0mg"},{"bike_id":"ff7a2a59-7301-40ff-8498-3236d4a83429","system_id":"levelo_inurba_marseille","lat":43.28123,"lon":5.39863,"is_reserved":false,"is_disabled":false,"rental_uris":{"android":"levelo://app?vid=ff7a2a59-7301-40ff-8498-3236d4a83429","ios":"levelo://app?vid=ff7a2a59-7301-40ff-8498-3236d4a83429"},"vehicle_type_id":"4","last_reported":1739196568,"current_range_meters":20000,"station_id":"","pricing_plan_id":"cebpf4jnsgd1na2vs0mg"},{"bike_id":"8e2f681c-56b3-4dbe-acf6-d95949b97842","system_id":"levelo_inurba_marseille","lat":43.301561,"lon":5.380922,"is_reserved":false,"is_disabled":true,"rental_uris":{"android":"levelo://app?vid=8e2f681c-56b3-4dbe-acf6-d95949b97842","ios":"levelo://app?vid=8e2f681c-56b3-4dbe-acf6-d95949b97842"},"vehicle_type_id":"4","last_reported":1739196568,"current_range_meters":26800,"station_id":"","pricing_plan_id":"cebpf4jnsgd1na2vs0mg"},{"bike_id":"fa2aa83b-ea8e-4382-8883-daf1d30785d3","system_id":"levelo_inurba_marseille","lat":43.27071,"lon":5.42279,"is_reserved":false,"is_disabled":false,"rental_uris":{"android":"levelo://app?vid=fa2aa83b-ea8e-4382-8883-daf1d30785d3","ios":"levelo://app?vid=fa2aa83b-ea8e-4382-8883-daf1d30785d3"},"vehicle_type_id":"4","last_reported":1739196568,"current_range_meters":24000,"station_id":"ce4bhk92rcd13ifvqgb0","pricing_plan_id":"cebpf4jnsgd1na2vs0mg"},{"bike_id":"cadf3aa2-6f3e-4c91-b6a3-a66239a3c28a","system_id":"levelo_inurba_marseille","lat":43.32482,"lon":5.36553,"is_reserved":false,"is_disabled":false,"rental_uris":{"android":"levelo://app?vid=cadf3aa2-6f3e-4c91-b6a3-a66239a3c28a","ios":"levelo://app?vid=cadf3aa2-6f3e-4c91-b6a3-a66239a3c28a"},"vehicle_type_id":"4","last_reported":1739196568,"current_range_meters":22800,"station_id":"ce4bhs12rcd13ifvqhvg","pricing_plan_id":"cebpf4jnsgd1na2vs0mg"},{"bike_id":"cca8059a-eea1-48b3-b889-5cd1f26a3379","system_id":"levelo_inurba_marseille","lat":43.27426,"lon":5.39338,"is_reserved":false,"is_disabled":false,"rental_uris":{"android":"levelo://app?vid=cca8059a-eea1-48b3-b889-5cd1f26a3379","ios":"levelo://app?vid=cca8059a-eea1-48b3-b889-5cd1f26a3379"},"vehicle_type_id":"4","last_reported":1739196568,"current_range_meters":28400,"station_id":"ce4bhdp2rcd13ifvqf20","pricing_plan_id":"cebpf4jnsgd1na2vs0mg"},{"bike_id":"b41d8475-1b61-4022-b648-2777adae10ea","system_id":"levelo_inurba_marseille","lat":43.241667,"lon":5.364063,"is_reserved":false,"is_disabled":false,"rental_uris":{"android":"levelo://app?vid=b41d8475-1b61-4022-b648-2777adae10ea","ios":"levelo://app?vid=b41d8475-1b61-4022-b648-2777adae10ea"},"vehicle_type_id":"4","last_reported":1739196568,"current_range_meters":29600,"station_id":"cpo36qri1sfpv3e86is0","pricing_plan_id":"cebpf4jnsgd1na2vs0mg"},{"bike_id":"9be9344b-405a-4b39-a21c-83cfb0feb0fc","system_id":"levelo_inurba_marseille","lat":43.313301,"lon":5.36728,"is_reserved":false,"is_disabled":true,"rental_uris":{"android":"levelo://app?vid=9be9344b-405a-4b39-a21c-83cfb0feb0fc","ios":"levelo://app?vid=9be9344b-405a-4b39-a21c-83cfb0feb0fc"},"vehicle_type_id":"4","last_reported":1739196568,"current_range_meters":2000,"station_id":"ce4bgr92rcd13ifvqc6g","pricing_plan_id":"cebpf4jnsgd1na2vs0mg"},{"bike_id":"d2073a62-16cd-40e9-bcc5-59550ac04715","system_id":"levelo_inurba_marseille","lat":43.26493,"lon":5.39563,"is_reserved":false,"is_disabled":false,"rental_uris":{"android":"levelo://app?vid=d2073a62-16cd-40e9-bcc5-59550ac04715","ios":"levelo://app?vid=d2073a62-16cd-40e9-bcc5-59550ac04715"},"vehicle_type_id":"4","last_reported":1739196568,"current_range_meters":38800,"station_id":"ce4bhi12rcd13ifvqfq0","pricing_plan_id":"cebpf4jnsgd1na2vs0mg"},{"bike_id":"57455191-0c25-4390-8af6-9a471a2fd4ac","system_id":"levelo_inurba_marseille","lat":43.29019,"lon":5.38139,"is_reserved":false,"is_disabled":false,"rental_uris":{"android":"levelo://app?vid=57455191-0c25-4390-8af6-9a471a2fd4ac","ios":"levelo://app?vid=57455191-0c25-4390-8af6-9a471a2fd4ac"},"vehicle_type_id":"4","last_reported":1739196568,"current_range_meters":24000,"station_id":"ce4bh4p2rcd13ifvqe1g","pricing_plan_id":"cebpf4jnsgd1na2vs0mg"},{"bike_id":"bed1d796-5dfd-41a0-adca-82db978b7695","system_id":"levelo_inurba_marseille","lat":43.29424,"lon":5.38615,"is_reserved":false,"is_disabled":true,"rental_uris":{"android":"levelo://app?vid=bed1d796-5dfd-41a0-adca-82db978b7695","ios":"levelo://app?vid=bed1d796-5dfd-41a0-adca-82db978b7695"},"vehicle_type_id":"4","last_reported":1739196568,"current_range_meters":33200,"station_id":"","pricing_plan_id":"cebpf4jnsgd1na2vs0mg"},{"bike_id":"d3591e02-e841-4886-88af-8db6004e794b","system_id":"levelo_inurba_marseille","lat":43.30538,"lon":5.36706,"is_reserved":false,"is_disabled":false,"rental_uris":{"android":"levelo://app?vid=d3591e02-e841-4886-88af-8db6004e794b","ios":"levelo://app?vid=d3591e02-e841-4886-88af-8db6004e794b"},"vehicle_type_id":"4","last_reported":1739196568,"current_range_meters":39200,"station_id":"ce4bgrp2rcd13ifvqc9g","pricing_plan_id":"cebpf4jnsgd1na2vs0mg"},{"bike_id":"67c79578-bef0-4992-a5ed-5f0b921e32b0","system_id":"levelo_inurba_marseille","lat":43.31707,"lon":5.4045,"is_reserved":false,"is_disabled":false,"rental_uris":{"android":"levelo://app?vid=67c79578-bef0-4992-a5ed-5f0b921e32b0","ios":"levelo://app?vid=67c79578-bef0-4992-a5ed-5f0b921e32b0"},"vehicle_type_id":"4","last_reported":1739196568,"current_range_meters":38800,"station_id":"ce4bh012rcd13ifvqd00","pricing_plan_id":"cebpf4jnsgd1na2vs0mg"},{"bike_id":"51ab7186-5043-4bed-baca-73708608a302","system_id":"levelo_inurba_marseille","lat":43.29584,"lon":5.37026,"is_reserved":false,"is_disabled":true,"rental_uris":{"android":"levelo://app?vid=51ab7186-5043-4bed-baca-73708608a302","ios":"levelo://app?vid=51ab7186-5043-4bed-baca-73708608a302"},"vehicle_type_id":"4","last_reported":1739196568,"current_range_meters":11600,"station_id":"","pricing_plan_id":"cebpf4jnsgd1na2vs0mg"},{"bike_id":"48f2202c-e063-4fe1-816b-a0c820596133","system_id":"levelo_inurba_marseille","lat":43.26207,"lon":5.37928,"is_reserved":false,"is_disabled":false,"rental_uris":{"android":"levelo://app?vid=48f2202c-e063-4fe1-816b-a0c820596133","ios":"levelo://app?vid=48f2202c-e063-4fe1-816b-a0c820596133"},"vehicle_type_id":"4","last_reported":1739196568,"current_range_meters":38800,"station_id":"ce4bhjp2rcd13ifvqg90","pricing_plan_id":"cebpf4jnsgd1na2vs0mg"},{"bike_id":"33f44feb-8f65-4d09-b964-75d5127920cf","system_id":"levelo_inurba_marseille","lat":43.27075,"lon":5.42277,"is_reserved":false,"is_disabled":false,"rental_uris":{"android":"levelo://app?vid=33f44feb-8f65-4d09-b964-75d5127920cf","ios":"levelo://app?vid=33f44feb-8f65-4d09-b964-75d5127920cf"},"vehicle_type_id":"4","last_reported":1739196568,"current_range_meters":36000,"station_id":"ce4bhk92rcd13ifvqgb0","pricing_plan_id":"cebpf4jnsgd1na2vs0mg"},{"bike_id":"6bf584aa-4c4f-4f88-a9b6-6d0eb0dcbbb2","system_id":"levelo_inurba_marseille","lat":43.31361,"lon":5.36694,"is_reserved":false,"is_disabled":false,"rental_uris":{"android":"levelo://app?vid=6bf584aa-4c4f-4f88-a9b6-6d0eb0dcbbb2","ios":"levelo://app?vid=6bf584aa-4c4f-4f88-a9b6-6d0eb0dcbbb2"},"vehicle_type_id":"4","last_reported":1739196568,"current_range_meters":39200,"station_id":"ce4bgr92rcd13ifvqc6g","pricing_plan_id":"cebpf4jnsgd1na2vs0mg"},{"bike_id":"0b2730f4-2761-48a6-b43d-961c9e696ec1","system_id":"levelo_inurba_marseille","lat":43.2846,"lon":5.35875,"is_reserved":false,"is_disabled":false,"rental_uris":{"android":"levelo://app?vid=0b2730f4-2761-48a6-b43d-961c9e696ec1","ios":"levelo://app?vid=0b2730f4-2761-48a6-b43d-961c9e696ec1"},"vehicle_type_id":"4","last_reported":1739196568,"current_range_meters":36800,"station_id":"ce4bhah2rcd13ifvqei0","pricing_plan_id":"cebpf4jnsgd1na2vs0mg"},{"bike_id":"6786f0a6-4038-4cb8-ac65-e731d74f4379","system_id":"levelo_inurba_marseille","lat":43.27424,"lon":5.3942,"is_reserved":false,"is_disabled":false,"rental_uris":{"android":"levelo://app?vid=6786f0a6-4038-4cb8-ac65-e731d74f4379","ios":"levelo://app?vid=6786f0a6-4038-4cb8-ac65-e731d74f4379"},"vehicle_type_id":"4","last_reported":1739196568,"current_range_meters":31200,"station_id":"ce4bhdp2rcd13ifvqf20","pricing_plan_id":"cebpf4jnsgd1na2vs0mg"},{"bike_id":"5f8a149c-aa41-49d3-a762-395d6e2fcd1f","system_id":"levelo_inurba_marseille","lat":43.2929,"lon":5.3746,"is_reserved":false,"is_disabled":false,"rental_uris":{"android":"levelo://app?vid=5f8a149c-aa41-49d3-a762-395d6e2fcd1f","ios":"levelo://app?vid=5f8a149c-aa41-49d3-a762-395d6e2fcd1f"},"vehicle_type_id":"4","last_reported":1739196568,"current_range_meters":34000,"station_id":"ce4bgi12rcd13ifvqb70","pricing_plan_id":"cebpf4jnsgd1na2vs0mg"},{"bike_id":"14f83f93-1c84-46be-a879-d5ef2af23a46","system_id":"levelo_inurba_marseille","lat":43.23957,"lon":5.3663,"is_reserved":false,"is_disabled":false,"rental_uris":{"android":"levelo://app?vid=14f83f93-1c84-46be-a879-d5ef2af23a46","ios":"levelo://app?vid=14f83f93-1c84-46be-a879-d5ef2af23a46"},"vehicle_type_id":"4","last_reported":1739196568,"current_range_meters":12800,"station_id":"ce4bhi12rcd13ifvqfp0","pricing_plan_id":"cebpf4jnsgd1na2vs0mg"},{"bike_id":"af301340-655f-4c3d-a720-d256a4d8d904","system_id":"levelo_inurba_marseille","lat":43.30255,"lon":5.40051,"is_reserved":false,"is_disabled":false,"rental_uris":{"android":"levelo://app?vid=af301340-655f-4c3d-a720-d256a4d8d904","ios":"levelo://app?vid=af301340-655f-4c3d-a720-d256a4d8d904"},"vehicle_type_id":"4","last_reported":1739196568,"current_range_meters":24400,"station_id":"ce4bgvh2rcd13ifvqcs0","pricing_plan_id":"cebpf4jnsgd1na2vs0mg"},{"bike_id":"a5e058a2-17bc-4f3f-a468-2679b31f751e","system_id":"levelo_inurba_marseille","lat":43.3025,"lon":5.40087,"is_reserved":false,"is_disabled":false,"rental_uris":{"android":"levelo://app?vid=a5e058a2-17bc-4f3f-a468-2679b31f751e","ios":"levelo://app?vid=a5e058a2-17bc-4f3f-a468-2679b31f751e"},"vehicle_type_id":"4","last_reported":1739196568,"current_range_meters":22800,"station_id":"ce4bgvh2rcd13ifvqcs0","pricing_plan_id":"cebpf4jnsgd1na2vs0mg"},{"bike_id":"cfaf55cc-98e0-4b5b-a060-c1d4662467a4","system_id":"levelo_inurba_marseille","lat":43.33606,"lon":5.41021,"is_reserved":false,"is_disabled":false,"rental_uris":{"android":"levelo://app?vid=cfaf55cc-98e0-4b5b-a060-c1d4662467a4","ios":"levelo://app?vid=cfaf55cc-98e0-4b5b-a060-c1d4662467a4"},"vehicle_type_id":"4","last_reported":1739196568,"current_range_meters":30000,"station_id":"ce4bhqh2rcd13ifvqhmg","pricing_plan_id":"cebpf4jnsgd1na2vs0mg"},{"bike_id":"0cdcc8f7-f674-43f1-9b73-0f1949650402","system_id":"levelo_inurba_marseille","lat":43.2396,"lon":5.36621,"is_reserved":false,"is_disabled":false,"rental_uris":{"android":"levelo://app?vid=0cdcc8f7-f674-43f1-9b73-0f1949650402","ios":"levelo://app?vid=0cdcc8f7-f674-43f1-9b73-0f1949650402"},"vehicle_type_id":"4","last_reported":1739196568,"current_range_meters":38000,"station_id":"ce4bhi12rcd13ifvqfp0","pricing_plan_id":"cebpf4jnsgd1na2vs0mg"},{"bike_id":"34bb1c38-a48a-4f88-b8db-bfdd613d1995","system_id":"levelo_inurba_marseille","lat":43.26227,"lon":5.40456,"is_reserved":false,"is_disabled":false,"rental_uris":{"android":"levelo://app?vid=34bb1c38-a48a-4f88-b8db-bfdd613d1995","ios":"levelo://app?vid=34bb1c38-a48a-4f88-b8db-bfdd613d1995"},"vehicle_type_id":"4","last_reported":1739196568,"current_range_meters":17600,"station_id":"ce4bhmh2rcd13ifvqgmg","pricing_plan_id":"cebpf4jnsgd1na2vs0mg"},{"bike_id":"66776b49-5a24-4829-aa64-d290023efbe7","system_id":"levelo_inurba_marseille","lat":43.31891,"lon":5.40738,"is_reserved":false,"is_disabled":false,"rental_uris":{"android":"levelo://app?vid=66776b49-5a24-4829-aa64-d290023efbe7","ios":"levelo://app?vid=66776b49-5a24-4829-aa64-d290023efbe7"},"vehicle_type_id":"4","last_reported":1739196568,"current_range_meters":38800,"station_id":"ce4bhq12rcd13ifvqhig","pricing_plan_id":"cebpf4jnsgd1na2vs0mg"},{"bike_id":"ee079ffa-4416-4a91-bc98-3bd665acea3b","system_id":"levelo_inurba_marseille","lat":43.337283,"lon":5.391832,"is_reserved":false,"is_disabled":false,"rental_uris":{"android":"levelo://app?vid=ee079ffa-4416-4a91-bc98-3bd665acea3b","ios":"levelo://app?vid=ee079ffa-4416-4a91-bc98-3bd665acea3b"},"vehicle_type_id":"4","last_reported":1739196568,"current_range_meters":39200,"station_id":"ce4bhr92rcd13ifvqhsg","pricing_plan_id":"cebpf4jnsgd1na2vs0mg"},{"bike_id":"1fa82dc6-47d4-4356-bbca-393bf4461726","system_id":"levelo_inurba_marseille","lat":43.23958,"lon":5.36611,"is_reserved":false,"is_disabled":false,"rental_uris":{"android":"levelo://app?vid=1fa82dc6-47d4-4356-bbca-393bf4461726","ios":"levelo://app?vid=1fa82dc6-47d4-4356-bbca-393bf4461726"},"vehicle_type_id":"4","last_reported":1739196568,"current_range_meters":24000,"station_id":"ce4bhi12rcd13ifvqfp0","pricing_plan_id":"cebpf4jnsgd1na2vs0mg"},{"bike_id":"88af4cb2-933a-41db-a010-acf60a810c06","system_id":"levelo_inurba_marseille","lat":43.29968,"lon":5.38488,"is_reserved":false,"is_disabled":false,"rental_uris":{"android":"levelo://app?vid=88af4cb2-933a-41db-a010-acf60a810c06","ios":"levelo://app?vid=88af4cb2-933a-41db-a010-acf60a810c06"},"vehicle_type_id":"4","last_reported":1739196568,"current_range_meters":24000,"station_id":"ce4bgj92rcd13ifvqbd0","pricing_plan_id":"cebpf4jnsgd1na2vs0mg"},{"bike_id":"6e0a8eb8-1830-4586-9cf6-125e1f050f96","system_id":"levelo_inurba_marseille","lat":43.26197,"lon":5.37447,"is_reserved":false,"is_disabled":false,"rental_uris":{"android":"levelo://app?vid=6e0a8eb8-1830-4586-9cf6-125e1f050f96","ios":"levelo://app?vid=6e0a8eb8-1830-4586-9cf6-125e1f050f96"},"vehicle_type_id":"4","last_reported":1739196568,"current_range_meters":13600,"station_id":"ce4bhgp2rcd13ifvqfc0","pricing_plan_id":"cebpf4jnsgd1na2vs0mg"},{"bike_id":"b463dfee-0d20-4ab9-819a-c7b4ad766bca","system_id":"levelo_inurba_marseille","lat":43.23143,"lon":5.43714,"is_reserved":false,"is_disabled":false,"rental_uris":{"android":"levelo://app?vid=b463dfee-0d20-4ab9-819a-c7b4ad766bca","ios":"levelo://app?vid=b463dfee-0d20-4ab9-819a-c7b4ad766bca"},"vehicle_type_id":"4","last_reported":1739196568,"current_range_meters":22000,"station_id":"ce4bhmp2rcd13ifvqgog","pricing_plan_id":"cebpf4jnsgd1na2vs0mg"},{"bike_id":"8538082d-d32f-4abb-b19f-d0a609e586ba","system_id":"levelo_inurba_marseille","lat":43.34136,"lon":5.40912,"is_reserved":false,"is_disabled":false,"rental_uris":{"android":"levelo://app?vid=8538082d-d32f-4abb-b19f-d0a609e586ba","ios":"levelo://app?vid=8538082d-d32f-4abb-b19f-d0a609e586ba"},"vehicle_type_id":"4","last_reported":1739196568,"current_range_meters":38800,"station_id":"ce4bhqh2rcd13ifvqhlg","pricing_plan_id":"cebpf4jnsgd1na2vs0mg"},{"bike_id":"67c77a93-95e0-4dde-b030-1b6a0f65cf9a","system_id":"levelo_inurba_marseille","lat":43.27179,"lon":5.4098,"is_reserved":false,"is_disabled":false,"rental_uris":{"android":"levelo://app?vid=67c77a93-95e0-4dde-b030-1b6a0f65cf9a","ios":"levelo://app?vid=67c77a93-95e0-4dde-b030-1b6a0f65cf9a"},"vehicle_type_id":"4","last_reported":1739196568,"current_range_meters":12800,"station_id":"ce4bhl12rcd13ifvqgf0","pricing_plan_id":"cebpf4jnsgd1na2vs0mg"},{"bike_id":"d0d8ec2f-c95a-46f3-be60-0d8863b57c52","system_id":"levelo_inurba_marseille","lat":43.28345,"lon":5.38102,"is_reserved":false,"is_disabled":false,"rental_uris":{"android":"levelo://app?vid=d0d8ec2f-c95a-46f3-be60-0d8863b57c52","ios":"levelo://app?vid=d0d8ec2f-c95a-46f3-be60-0d8863b57c52"},"vehicle_type_id":"4","last_reported":1739196568,"current_range_meters":38400,"station_id":"ce4bh412rcd13ifvqdr0","pricing_plan_id":"cebpf4jnsgd1na2vs0mg"},{"bike_id":"2b224cb5-81d2-4fae-9b53-9e89b202ec4a","system_id":"levelo_inurba_marseille","lat":43.27425,"lon":5.39395,"is_reserved":false,"is_disabled":false,"rental_uris":{"android":"levelo://app?vid=2b224cb5-81d2-4fae-9b53-9e89b202ec4a","ios":"levelo://app?vid=2b224cb5-81d2-4fae-9b53-9e89b202ec4a"},"vehicle_type_id":"4","last_reported":1739196568,"current_range_meters":38800,"station_id":"ce4bhdp2rcd13ifvqf20","pricing_plan_id":"cebpf4jnsgd1na2vs0mg"},{"bike_id":"f53564a4-cbf9-4b55-bb72-8eda8cad3a05","system_id":"levelo_inurba_marseille","lat":43.2706,"lon":5.42272,"is_reserved":false,"is_disabled":false,"rental_uris":{"android":"levelo://app?vid=f53564a4-cbf9-4b55-bb72-8eda8cad3a05","ios":"levelo://app?vid=f53564a4-cbf9-4b55-bb72-8eda8cad3a05"},"vehicle_type_id":"4","last_reported":1739196568,"current_range_meters":23200,"station_id":"ce4bhk92rcd13ifvqgb0","pricing_plan_id":"cebpf4jnsgd1na2vs0mg"},{"bike_id":"094ce0d3-0869-4a4e-bc44-e588765eb895","system_id":"levelo_inurba_marseille","lat":43.275647,"lon":5.384213,"is_reserved":false,"is_disabled":false,"rental_uris":{"android":"levelo://app?vid=094ce0d3-0869-4a4e-bc44-e588765eb895","ios":"levelo://app?vid=094ce0d3-0869-4a4e-bc44-e588765eb895"},"vehicle_type_id":"4","last_reported":1739196568,"current_range_meters":14400,"station_id":"ce4bhh92rcd13ifvqfi0","pricing_plan_id":"cebpf4jnsgd1na2vs0mg"},{"bike_id":"05f6ac8f-0127-4e39-bd11-d53a74225ef8","system_id":"levelo_inurba_marseille","lat":43.27874,"lon":5.40597,"is_reserved":false,"is_disabled":true,"rental_uris":{"android":"levelo://app?vid=05f6ac8f-0127-4e39-bd11-d53a74225ef8","ios":"levelo://app?vid=05f6ac8f-0127-4e39-bd11-d53a74225ef8"},"vehicle_type_id":"4","last_reported":1739196568,"current_range_meters":0,"station_id":"","pricing_plan_id":"cebpf4jnsgd1na2vs0mg"},{"bike_id":"83636fb5-47bb-4a2e-9071-42c94172f814","system_id":"levelo_inurba_marseille","lat":43.28295,"lon":5.35343,"is_reserved":false,"is_disabled":false,"rental_uris":{"android":"levelo://app?vid=83636fb5-47bb-4a2e-9071-42c94172f814","ios":"levelo://app?vid=83636fb5-47bb-4a2e-9071-42c94172f814"},"vehicle_type_id":"4","last_reported":1739196568,"current_range_meters":14000,"station_id":"","pricing_plan_id":"cebpf4jnsgd1na2vs0mg"},{"bike_id":"ae573ce6-0d15-4e2b-abc8-f4b1d60833fb","system_id":"levelo_inurba_marseille","lat":43.30187,"lon":5.366,"is_reserved":false,"is_disabled":false,"rental_uris":{"android":"levelo://app?vid=ae573ce6-0d15-4e2b-abc8-f4b1d60833fb","ios":"levelo://app?vid=ae573ce6-0d15-4e2b-abc8-f4b1d60833fb"},"vehicle_type_id":"4","last_reported":1739196568,"current_range_meters":38800,"station_id":"ce4bgrh2rcd13ifvqc8g","pricing_plan_id":"cebpf4jnsgd1na2vs0mg"},{"bike_id":"efe7637c-9f55-4017-a969-c371bd5e3a3b","system_id":"levelo_inurba_marseille","lat":43.24072,"lon":5.37754,"is_reserved":false,"is_disabled":false,"rental_uris":{"android":"levelo://app?vid=efe7637c-9f55-4017-a969-c371bd5e3a3b","ios":"levelo://app?vid=efe7637c-9f55-4017-a969-c371bd5e3a3b"},"vehicle_type_id":"4","last_reported":1739196568,"current_range_meters":39200,"station_id":"ce4bhnp2rcd13ifvqgvg","pricing_plan_id":"cebpf4jnsgd1na2vs0mg"},{"bike_id":"7c98b698-d05c-42bc-8c25-e18caea57be8","system_id":"levelo_inurba_marseille","lat":43.2417,"lon":5.36394,"is_reserved":false,"is_disabled":false,"rental_uris":{"android":"levelo://app?vid=7c98b698-d05c-42bc-8c25-e18caea57be8","ios":"levelo://app?vid=7c98b698-d05c-42bc-8c25-e18caea57be8"},"vehicle_type_id":"4","last_reported":1739196568,"current_range_meters":10800,"station_id":"cpo36qri1sfpv3e86is0","pricing_plan_id":"cebpf4jnsgd1na2vs0mg"},{"bike_id":"ba5e7402-f96b-4028-b8ad-1ec06b6f8406","system_id":"levelo_inurba_marseille","lat":43.29619,"lon":5.37727,"is_reserved":false,"is_disabled":false,"rental_uris":{"android":"levelo://app?vid=ba5e7402-f96b-4028-b8ad-1ec06b6f8406","ios":"levelo://app?vid=ba5e7402-f96b-4028-b8ad-1ec06b6f8406"},"vehicle_type_id":"4","last_reported":1739196568,"current_range_meters":15200,"station_id":"ce4bgi92rcd13ifvqb90","pricing_plan_id":"cebpf4jnsgd1na2vs0mg"},{"bike_id":"a849b92c-ed0e-4c30-aba7-1fb7b16f90b7","system_id":"levelo_inurba_marseille","lat":43.29877,"lon":5.39727,"is_reserved":false,"is_disabled":false,"rental_uris":{"android":"levelo://app?vid=a849b92c-ed0e-4c30-aba7-1fb7b16f90b7","ios":"levelo://app?vid=a849b92c-ed0e-4c30-aba7-1fb7b16f90b7"},"vehicle_type_id":"4","last_reported":1739196568,"current_range_meters":26000,"station_id":"ce4bh0h2rcd13ifvqd50","pricing_plan_id":"cebpf4jnsgd1na2vs0mg"},{"bike_id":"f4b26390-acd7-49a5-b9ae-eb2e2296da89","system_id":"levelo_inurba_marseille","lat":43.3249,"lon":5.36547,"is_reserved":false,"is_disabled":false,"rental_uris":{"android":"levelo://app?vid=f4b26390-acd7-49a5-b9ae-eb2e2296da89","ios":"levelo://app?vid=f4b26390-acd7-49a5-b9ae-eb2e2296da89"},"vehicle_type_id":"4","last_reported":1739196568,"current_range_meters":38800,"station_id":"ce4bhs12rcd13ifvqhvg","pricing_plan_id":"cebpf4jnsgd1na2vs0mg"},{"bike_id":"fd7cd6eb-8023-4160-9061-39fa556cf25c","system_id":"levelo_inurba_marseille","lat":43.303195,"lon":5.404524,"is_reserved":false,"is_disabled":true,"rental_uris":{"android":"levelo://app?vid=fd7cd6eb-8023-4160-9061-39fa556cf25c","ios":"levelo://app?vid=fd7cd6eb-8023-4160-9061-39fa556cf25c"},"vehicle_type_id":"4","last_reported":1739196568,"current_range_meters":32800,"station_id":"ce4bh012rcd13ifvqd10","pricing_plan_id":"cebpf4jnsgd1na2vs0mg"},{"bike_id":"0e21f7aa-06e5-493f-93a8-8a8d203cf3cf","system_id":"levelo_inurba_marseille","lat":43.3169,"lon":5.40475,"is_reserved":false,"is_disabled":false,"rental_uris":{"android":"levelo://app?vid=0e21f7aa-06e5-493f-93a8-8a8d203cf3cf","ios":"levelo://app?vid=0e21f7aa-06e5-493f-93a8-8a8d203cf3cf"},"vehicle_type_id":"4","last_reported":1739196568,"current_range_meters":20800,"station_id":"ce4bh012rcd13ifvqd00","pricing_plan_id":"cebpf4jnsgd1na2vs0mg"},{"bike_id":"d32849cf-4c14-4032-9063-172d06d3f04f","system_id":"levelo_inurba_marseille","lat":43.232,"lon":5.35536,"is_reserved":false,"is_disabled":false,"rental_uris":{"android":"levelo://app?vid=d32849cf-4c14-4032-9063-172d06d3f04f","ios":"levelo://app?vid=d32849cf-4c14-4032-9063-172d06d3f04f"},"vehicle_type_id":"4","last_reported":1739196568,"current_range_meters":37600,"station_id":"ce4bhu92rcd13ifvqi70","pricing_plan_id":"cebpf4jnsgd1na2vs0mg"},{"bike_id":"4afb707c-0947-406b-83f0-02b641a47682","system_id":"levelo_inurba_marseille","lat":43.29622,"lon":5.37167,"is_reserved":false,"is_disabled":false,"rental_uris":{"android":"levelo://app?vid=4afb707c-0947-406b-83f0-02b641a47682","ios":"levelo://app?vid=4afb707c-0947-406b-83f0-02b641a47682"},"vehicle_type_id":"4","last_reported":1739196568,"current_range_meters":39200,"station_id":"ce4bgnh2rcd13ifvqc0g","pricing_plan_id":"cebpf4jnsgd1na2vs0mg"},{"bike_id":"3daa1d8e-60e9-4e20-8ab5-719b83045bcd","system_id":"levelo_inurba_marseille","lat":43.27808,"lon":5.4071,"is_reserved":false,"is_disabled":false,"rental_uris":{"android":"levelo://app?vid=3daa1d8e-60e9-4e20-8ab5-719b83045bcd","ios":"levelo://app?vid=3daa1d8e-60e9-4e20-8ab5-719b83045bcd"},"vehicle_type_id":"4","last_reported":1739196568,"current_range_meters":26800,"station_id":"ce4bhnh2rcd13ifvqgtg","pricing_plan_id":"cebpf4jnsgd1na2vs0mg"},{"bike_id":"b7cfafc0-fba3-47fa-8c3d-d96c6bee1f7a","system_id":"levelo_inurba_marseille","lat":43.24391,"lon":5.37071,"is_reserved":false,"is_disabled":false,"rental_uris":{"android":"levelo://app?vid=b7cfafc0-fba3-47fa-8c3d-d96c6bee1f7a","ios":"levelo://app?vid=b7cfafc0-fba3-47fa-8c3d-d96c6bee1f7a"},"vehicle_type_id":"4","last_reported":1739196568,"current_range_meters":36800,"station_id":"ce4bhhh2rcd13ifvqfk0","pricing_plan_id":"cebpf4jnsgd1na2vs0mg"},{"bike_id":"8017650e-fddd-4161-8c1a-75916b0435b9","system_id":"levelo_inurba_marseille","lat":43.24166,"lon":5.39742,"is_reserved":false,"is_disabled":false,"rental_uris":{"android":"levelo://app?vid=8017650e-fddd-4161-8c1a-75916b0435b9","ios":"levelo://app?vid=8017650e-fddd-4161-8c1a-75916b0435b9"},"vehicle_type_id":"4","last_reported":1739196568,"current_range_meters":38400,"station_id":"ce4bhn12rcd13ifvqgpg","pricing_plan_id":"cebpf4jnsgd1na2vs0mg"},{"bike_id":"c443e90a-2006-461c-b31e-210e139edff7","system_id":"levelo_inurba_marseille","lat":43.28596,"lon":5.35067,"is_reserved":false,"is_disabled":false,"rental_uris":{"android":"levelo://app?vid=c443e90a-2006-461c-b31e-210e139edff7","ios":"levelo://app?vid=c443e90a-2006-461c-b31e-210e139edff7"},"vehicle_type_id":"4","last_reported":1739196568,"current_range_meters":33600,"station_id":"ce4bhch2rcd13ifvqeug","pricing_plan_id":"cebpf4jnsgd1na2vs0mg"},{"bike_id":"8c6282ff-cc19-4b4a-a5da-222818127f79","system_id":"levelo_inurba_marseille","lat":43.299146,"lon":5.3748,"is_reserved":false,"is_disabled":false,"rental_uris":{"android":"levelo://app?vid=8c6282ff-cc19-4b4a-a5da-222818127f79","ios":"levelo://app?vid=8c6282ff-cc19-4b4a-a5da-222818127f79"},"vehicle_type_id":"4","last_reported":1739196568,"current_range_meters":38800,"station_id":"ce4bgjh2rcd13ifvqbg0","pricing_plan_id":"cebpf4jnsgd1na2vs0mg"},{"bike_id":"386a5c6b-0374-40ee-8fee-068f2ec38f9b","system_id":"levelo_inurba_marseille","lat":43.23956,"lon":5.36635,"is_reserved":false,"is_disabled":false,"rental_uris":{"android":"levelo://app?vid=386a5c6b-0374-40ee-8fee-068f2ec38f9b","ios":"levelo://app?vid=386a5c6b-0374-40ee-8fee-068f2ec38f9b"},"vehicle_type_id":"4","last_reported":1739196568,"current_range_meters":16400,"station_id":"ce4bhi12rcd13ifvqfp0","pricing_plan_id":"cebpf4jnsgd1na2vs0mg"},{"bike_id":"d4897387-d94a-4836-8801-67bff7723442","system_id":"levelo_inurba_marseille","lat":43.2319,"lon":5.3999,"is_reserved":false,"is_disabled":true,"rental_uris":{"android":"levelo://app?vid=d4897387-d94a-4836-8801-67bff7723442","ios":"levelo://app?vid=d4897387-d94a-4836-8801-67bff7723442"},"vehicle_type_id":"4","last_reported":1739196568,"current_range_meters":0,"station_id":"ce4bhn12rcd13ifvqgqg","pricing_plan_id":"cebpf4jnsgd1na2vs0mg"},{"bike_id":"cb0f8030-7612-42fa-b557-e3d6b3c0424b","system_id":"levelo_inurba_marseille","lat":43.27997,"lon":5.40019,"is_reserved":false,"is_disabled":false,"rental_uris":{"android":"levelo://app?vid=cb0f8030-7612-42fa-b557-e3d6b3c0424b","ios":"levelo://app?vid=cb0f8030-7612-42fa-b557-e3d6b3c0424b"},"vehicle_type_id":"4","last_reported":1739196568,"current_range_meters":36000,"station_id":"ce4bho92rcd13ifvqh4g","pricing_plan_id":"cebpf4jnsgd1na2vs0mg"},{"bike_id":"5204b727-c44d-4ec6-8ea2-acfda2c12272","system_id":"levelo_inurba_marseille","lat":43.32493,"lon":5.36559,"is_reserved":false,"is_disabled":false,"rental_uris":{"android":"levelo://app?vid=5204b727-c44d-4ec6-8ea2-acfda2c12272","ios":"levelo://app?vid=5204b727-c44d-4ec6-8ea2-acfda2c12272"},"vehicle_type_id":"4","last_reported":1739196568,"current_range_meters":26000,"station_id":"ce4bhs12rcd13ifvqhvg","pricing_plan_id":"cebpf4jnsgd1na2vs0mg"},{"bike_id":"6d6c1a71-cbc1-478c-b892-05b3c8cff896","system_id":"levelo_inurba_marseille","lat":43.3053,"lon":5.36529,"is_reserved":false,"is_disabled":false,"rental_uris":{"android":"levelo://app?vid=6d6c1a71-cbc1-478c-b892-05b3c8cff896","ios":"levelo://app?vid=6d6c1a71-cbc1-478c-b892-05b3c8cff896"},"vehicle_type_id":"4","last_reported":1739196568,"current_range_meters":37600,"station_id":"ce4bgs12rcd13ifvqcag","pricing_plan_id":"cebpf4jnsgd1na2vs0mg"},{"bike_id":"1969c451-5713-4fa6-a6cb-0d1dadc1533e","system_id":"levelo_inurba_marseille","lat":43.2963,"lon":5.37713,"is_reserved":false,"is_disabled":false,"rental_uris":{"android":"levelo://app?vid=1969c451-5713-4fa6-a6cb-0d1dadc1533e","ios":"levelo://app?vid=1969c451-5713-4fa6-a6cb-0d1dadc1533e"},"vehicle_type_id":"4","last_reported":1739196568,"current_range_meters":27600,"station_id":"ce4bgi92rcd13ifvqb90","pricing_plan_id":"cebpf4jnsgd1na2vs0mg"},{"bike_id":"5597fbbe-01c0-4c46-9be1-fdc8f64b8f5c","system_id":"levelo_inurba_marseille","lat":43.30952,"lon":5.39025,"is_reserved":false,"is_disabled":false,"rental_uris":{"android":"levelo://app?vid=5597fbbe-01c0-4c46-9be1-fdc8f64b8f5c","ios":"levelo://app?vid=5597fbbe-01c0-4c46-9be1-fdc8f64b8f5c"},"vehicle_type_id":"4","last_reported":1739196568,"current_range_meters":36800,"station_id":"ce4bgup2rcd13ifvqco0","pricing_plan_id":"cebpf4jnsgd1na2vs0mg"},{"bike_id":"444df73d-d66d-4ef2-9b59-6e409b523fa0","system_id":"levelo_inurba_marseille","lat":43.27993,"lon":5.40015,"is_reserved":false,"is_disabled":false,"rental_uris":{"android":"levelo://app?vid=444df73d-d66d-4ef2-9b59-6e409b523fa0","ios":"levelo://app?vid=444df73d-d66d-4ef2-9b59-6e409b523fa0"},"vehicle_type_id":"4","last_reported":1739196568,"current_range_meters":39200,"station_id":"ce4bho92rcd13ifvqh4g","pricing_plan_id":"cebpf4jnsgd1na2vs0mg"},{"bike_id":"f2c1f718-908f-4e45-ab14-588547e3dffd","system_id":"levelo_inurba_marseille","lat":43.27322,"lon":5.39087,"is_reserved":false,"is_disabled":false,"rental_uris":{"android":"levelo://app?vid=f2c1f718-908f-4e45-ab14-588547e3dffd","ios":"levelo://app?vid=f2c1f718-908f-4e45-ab14-588547e3dffd"},"vehicle_type_id":"4","last_reported":1739196568,"current_range_meters":39200,"station_id":"ce4bhgp2rcd13ifvqfe0","pricing_plan_id":"cebpf4jnsgd1na2vs0mg"},{"bike_id":"ad624044-36c8-4e6b-bed4-a1b1869f98c7","system_id":"levelo_inurba_marseille","lat":43.29979,"lon":5.37147,"is_reserved":false,"is_disabled":false,"rental_uris":{"android":"levelo://app?vid=ad624044-36c8-4e6b-bed4-a1b1869f98c7","ios":"levelo://app?vid=ad624044-36c8-4e6b-bed4-a1b1869f98c7"},"vehicle_type_id":"4","last_reported":1739196568,"current_range_meters":38800,"station_id":"ce4bgr92rcd13ifvqc7g","pricing_plan_id":"cebpf4jnsgd1na2vs0mg"},{"bike_id":"9571229b-d1f4-46a1-804f-ae5b773e1183","system_id":"levelo_inurba_marseille","lat":43.29991,"lon":5.38485,"is_reserved":false,"is_disabled":false,"rental_uris":{"android":"levelo://app?vid=9571229b-d1f4-46a1-804f-ae5b773e1183","ios":"levelo://app?vid=9571229b-d1f4-46a1-804f-ae5b773e1183"},"vehicle_type_id":"4","last_reported":1739196568,"current_range_meters":38000,"station_id":"ce4bgj92rcd13ifvqbd0","pricing_plan_id":"cebpf4jnsgd1na2vs0mg"},{"bike_id":"90789574-302d-4f35-aa6b-b1488aa454cd","system_id":"levelo_inurba_marseille","lat":43.30246,"lon":5.40062,"is_reserved":false,"is_disabled":false,"rental_uris":{"android":"levelo://app?vid=90789574-302d-4f35-aa6b-b1488aa454cd","ios":"levelo://app?vid=90789574-302d-4f35-aa6b-b1488aa454cd"},"vehicle_type_id":"4","last_reported":1739196568,"current_range_meters":36800,"station_id":"ce4bgvh2rcd13ifvqcs0","pricing_plan_id":"cebpf4jnsgd1na2vs0mg"},{"bike_id":"9f443121-e8ff-4aac-bc9a-d9077c8e664b","system_id":"levelo_inurba_marseille","lat":43.27084,"lon":5.4227,"is_reserved":false,"is_disabled":false,"rental_uris":{"android":"levelo://app?vid=9f443121-e8ff-4aac-bc9a-d9077c8e664b","ios":"levelo://app?vid=9f443121-e8ff-4aac-bc9a-d9077c8e664b"},"vehicle_type_id":"4","last_reported":1739196568,"current_range_meters":29600,"station_id":"ce4bhk92rcd13ifvqgb0","pricing_plan_id":"cebpf4jnsgd1na2vs0mg"},{"bike_id":"211c0d46-4839-4c96-b8ab-c09d36a56029","system_id":"levelo_inurba_marseille","lat":43.31212,"lon":5.3685,"is_reserved":false,"is_disabled":false,"rental_uris":{"android":"levelo://app?vid=211c0d46-4839-4c96-b8ab-c09d36a56029","ios":"levelo://app?vid=211c0d46-4839-4c96-b8ab-c09d36a56029"},"vehicle_type_id":"4","last_reported":1739196568,"current_range_meters":15200,"station_id":"ce4bgl92rcd13ifvqbq0","pricing_plan_id":"cebpf4jnsgd1na2vs0mg"},{"bike_id":"64642a07-48e4-499e-ad94-a97c33a8a8ac","system_id":"levelo_inurba_marseille","lat":43.24806,"lon":5.37455,"is_reserved":false,"is_disabled":false,"rental_uris":{"android":"levelo://app?vid=64642a07-48e4-499e-ad94-a97c33a8a8ac","ios":"levelo://app?vid=64642a07-48e4-499e-ad94-a97c33a8a8ac"},"vehicle_type_id":"4","last_reported":1739196568,"current_range_meters":38000,"station_id":"ce4bhgh2rcd13ifvqfb0","pricing_plan_id":"cebpf4jnsgd1na2vs0mg"},{"bike_id":"058b0f00-e5ce-47c6-9bbe-71cbfc68df54","system_id":"levelo_inurba_marseille","lat":43.31365,"lon":5.36708,"is_reserved":false,"is_disabled":false,"rental_uris":{"android":"levelo://app?vid=058b0f00-e5ce-47c6-9bbe-71cbfc68df54","ios":"levelo://app?vid=058b0f00-e5ce-47c6-9bbe-71cbfc68df54"},"vehicle_type_id":"4","last_reported":1739196568,"current_range_meters":22800,"station_id":"ce4bgr92rcd13ifvqc6g","pricing_plan_id":"cebpf4jnsgd1na2vs0mg"},{"bike_id":"a69dfcd0-86b4-4dd1-9d00-ba466809ccef","system_id":"levelo_inurba_marseille","lat":43.25002,"lon":5.38939,"is_reserved":false,"is_disabled":false,"rental_uris":{"android":"levelo://app?vid=a69dfcd0-86b4-4dd1-9d00-ba466809ccef","ios":"levelo://app?vid=a69dfcd0-86b4-4dd1-9d00-ba466809ccef"},"vehicle_type_id":"4","last_reported":1739196568,"current_range_meters":34800,"station_id":"ce4bhgp2rcd13ifvqfd0","pricing_plan_id":"cebpf4jnsgd1na2vs0mg"},{"bike_id":"b31aee6a-50fe-46b0-9973-1cb3e84501e5","system_id":"levelo_inurba_marseille","lat":43.29061,"lon":5.37195,"is_reserved":false,"is_disabled":false,"rental_uris":{"android":"levelo://app?vid=b31aee6a-50fe-46b0-9973-1cb3e84501e5","ios":"levelo://app?vid=b31aee6a-50fe-46b0-9973-1cb3e84501e5"},"vehicle_type_id":"4","last_reported":1739196568,"current_range_meters":36400,"station_id":"ce4bh5p2rcd13ifvqe4g","pricing_plan_id":"cebpf4jnsgd1na2vs0mg"},{"bike_id":"e25e9c31-cb37-436c-b359-a3b51bdf1833","system_id":"levelo_inurba_marseille","lat":43.30462,"lon":5.37902,"is_reserved":false,"is_disabled":false,"rental_uris":{"android":"levelo://app?vid=e25e9c31-cb37-436c-b359-a3b51bdf1833","ios":"levelo://app?vid=e25e9c31-cb37-436c-b359-a3b51bdf1833"},"vehicle_type_id":"4","last_reported":1739196568,"current_range_meters":33600,"station_id":"ce4bgup2rcd13ifvqcn0","pricing_plan_id":"cebpf4jnsgd1na2vs0mg"},{"bike_id":"8583503a-2f4a-4fb0-b76e-4ce9a4778990","system_id":"levelo_inurba_marseille","lat":43.29542,"lon":5.37509,"is_reserved":false,"is_disabled":false,"rental_uris":{"android":"levelo://app?vid=8583503a-2f4a-4fb0-b76e-4ce9a4778990","ios":"levelo://app?vid=8583503a-2f4a-4fb0-b76e-4ce9a4778990"},"vehicle_type_id":"4","last_reported":1739196568,"current_range_meters":37600,"station_id":"ce4bgkp2rcd13ifvqbmg","pricing_plan_id":"cebpf4jnsgd1na2vs0mg"},{"bike_id":"b24af449-2c4e-4b20-b914-56c2b7f42882","system_id":"levelo_inurba_marseille","lat":43.23145,"lon":5.43701,"is_reserved":false,"is_disabled":false,"rental_uris":{"android":"levelo://app?vid=b24af449-2c4e-4b20-b914-56c2b7f42882","ios":"levelo://app?vid=b24af449-2c4e-4b20-b914-56c2b7f42882"},"vehicle_type_id":"4","last_reported":1739196568,"current_range_meters":28000,"station_id":"ce4bhmp2rcd13ifvqgog","pricing_plan_id":"cebpf4jnsgd1na2vs0mg"},{"bike_id":"478c89b1-a385-4b91-b040-dd8278ec907a","system_id":"levelo_inurba_marseille","lat":43.27213,"lon":5.39185,"is_reserved":false,"is_disabled":false,"rental_uris":{"android":"levelo://app?vid=478c89b1-a385-4b91-b040-dd8278ec907a","ios":"levelo://app?vid=478c89b1-a385-4b91-b040-dd8278ec907a"},"vehicle_type_id":"4","last_reported":1739196568,"current_range_meters":39200,"station_id":"ce4bhhp2rcd13ifvqfm0","pricing_plan_id":"cebpf4jnsgd1na2vs0mg"},{"bike_id":"ebfe9b19-a020-4e42-9515-d839082cd818","system_id":"levelo_inurba_marseille","lat":43.27991,"lon":5.4001,"is_reserved":false,"is_disabled":false,"rental_uris":{"android":"levelo://app?vid=ebfe9b19-a020-4e42-9515-d839082cd818","ios":"levelo://app?vid=ebfe9b19-a020-4e42-9515-d839082cd818"},"vehicle_type_id":"4","last_reported":1739196568,"current_range_meters":36800,"station_id":"ce4bho92rcd13ifvqh4g","pricing_plan_id":"cebpf4jnsgd1na2vs0mg"},{"bike_id":"768246b9-3ed2-42f8-a4b7-080c277481a3","system_id":"levelo_inurba_marseille","lat":43.29264,"lon":5.38432,"is_reserved":false,"is_disabled":false,"rental_uris":{"android":"levelo://app?vid=768246b9-3ed2-42f8-a4b7-080c277481a3","ios":"levelo://app?vid=768246b9-3ed2-42f8-a4b7-080c277481a3"},"vehicle_type_id":"4","last_reported":1739196568,"current_range_meters":30400,"station_id":"ce4bh692rcd13ifvqea0","pricing_plan_id":"cebpf4jnsgd1na2vs0mg"},{"bike_id":"0a261332-55f6-4ea5-8bd3-dc2e591b1330","system_id":"levelo_inurba_marseille","lat":43.2846,"lon":5.35884,"is_reserved":false,"is_disabled":false,"rental_uris":{"android":"levelo://app?vid=0a261332-55f6-4ea5-8bd3-dc2e591b1330","ios":"levelo://app?vid=0a261332-55f6-4ea5-8bd3-dc2e591b1330"},"vehicle_type_id":"4","last_reported":1739196568,"current_range_meters":30800,"station_id":"ce4bhah2rcd13ifvqei0","pricing_plan_id":"cebpf4jnsgd1na2vs0mg"},{"bike_id":"1f73100a-8043-44a4-bb6d-ffbbbec4b48b","system_id":"levelo_inurba_marseille","lat":43.29232,"lon":5.37472,"is_reserved":false,"is_disabled":false,"rental_uris":{"android":"levelo://app?vid=1f73100a-8043-44a4-bb6d-ffbbbec4b48b","ios":"levelo://app?vid=1f73100a-8043-44a4-bb6d-ffbbbec4b48b"},"vehicle_type_id":"4","last_reported":1739196568,"current_range_meters":31200,"station_id":"","pricing_plan_id":"cebpf4jnsgd1na2vs0mg"},{"bike_id":"f4a09ce6-52ba-4f33-a1c4-2ffe4c5b70bb","system_id":"levelo_inurba_marseille","lat":43.30281,"lon":5.37693,"is_reserved":false,"is_disabled":false,"rental_uris":{"android":"levelo://app?vid=f4a09ce6-52ba-4f33-a1c4-2ffe4c5b70bb","ios":"levelo://app?vid=f4a09ce6-52ba-4f33-a1c4-2ffe4c5b70bb"},"vehicle_type_id":"4","last_reported":1739196568,"current_range_meters":38800,"station_id":"ce4bguh2rcd13ifvqcj0","pricing_plan_id":"cebpf4jnsgd1na2vs0mg"},{"bike_id":"37013ad9-dda1-4aaa-bc03-0fecfc70eba5","system_id":"levelo_inurba_marseille","lat":43.26957,"lon":5.38634,"is_reserved":false,"is_disabled":false,"rental_uris":{"android":"levelo://app?vid=37013ad9-dda1-4aaa-bc03-0fecfc70eba5","ios":"levelo://app?vid=37013ad9-dda1-4aaa-bc03-0fecfc70eba5"},"vehicle_type_id":"4","last_reported":1739196568,"current_range_meters":37600,"station_id":"ce4bhh92rcd13ifvqfh0","pricing_plan_id":"cebpf4jnsgd1na2vs0mg"},{"bike_id":"813b2562-52b3-4ad7-b56c-bd0afb52895a","system_id":"levelo_inurba_marseille","lat":43.3055,"lon":5.36553,"is_reserved":false,"is_disabled":false,"rental_uris":{"android":"levelo://app?vid=813b2562-52b3-4ad7-b56c-bd0afb52895a","ios":"levelo://app?vid=813b2562-52b3-4ad7-b56c-bd0afb52895a"},"vehicle_type_id":"4","last_reported":1739196568,"current_range_meters":25600,"station_id":"ce4bgs12rcd13ifvqcag","pricing_plan_id":"cebpf4jnsgd1na2vs0mg"},{"bike_id":"23237db2-becc-4762-a4c6-f2d975d0a3e8","system_id":"levelo_inurba_marseille","lat":43.2799,"lon":5.40044,"is_reserved":false,"is_disabled":false,"rental_uris":{"android":"levelo://app?vid=23237db2-becc-4762-a4c6-f2d975d0a3e8","ios":"levelo://app?vid=23237db2-becc-4762-a4c6-f2d975d0a3e8"},"vehicle_type_id":"4","last_reported":1739196568,"current_range_meters":14400,"station_id":"ce4bho92rcd13ifvqh4g","pricing_plan_id":"cebpf4jnsgd1na2vs0mg"},{"bike_id":"83fd8866-4d24-4da2-9fb6-e40be601d9c7","system_id":"levelo_inurba_marseille","lat":43.271736,"lon":5.409929,"is_reserved":false,"is_disabled":false,"rental_uris":{"android":"levelo://app?vid=83fd8866-4d24-4da2-9fb6-e40be601d9c7","ios":"levelo://app?vid=83fd8866-4d24-4da2-9fb6-e40be601d9c7"},"vehicle_type_id":"4","last_reported":1739196568,"current_range_meters":19200,"station_id":"ce4bhl12rcd13ifvqgf0","pricing_plan_id":"cebpf4jnsgd1na2vs0mg"},{"bike_id":"979c4eb0-4545-4010-a320-fd3c7d1e38fc","system_id":"levelo_inurba_marseille","lat":43.26777,"lon":5.39419,"is_reserved":false,"is_disabled":false,"rental_uris":{"android":"levelo://app?vid=979c4eb0-4545-4010-a320-fd3c7d1e38fc","ios":"levelo://app?vid=979c4eb0-4545-4010-a320-fd3c7d1e38fc"},"vehicle_type_id":"4","last_reported":1739196568,"current_range_meters":24800,"station_id":"ce4bhh12rcd13ifvqfg0","pricing_plan_id":"cebpf4jnsgd1na2vs0mg"},{"bike_id":"1d2000e3-6e82-4c8d-9a0a-5d8181e36eb3","system_id":"levelo_inurba_marseille","lat":43.2501,"lon":5.38916,"is_reserved":false,"is_disabled":false,"rental_uris":{"android":"levelo://app?vid=1d2000e3-6e82-4c8d-9a0a-5d8181e36eb3","ios":"levelo://app?vid=1d2000e3-6e82-4c8d-9a0a-5d8181e36eb3"},"vehicle_type_id":"4","last_reported":1739196568,"current_range_meters":10000,"station_id":"ce4bhgp2rcd13ifvqfd0","pricing_plan_id":"cebpf4jnsgd1na2vs0mg"},{"bike_id":"64f7c304-9688-44f2-a78b-47eb6176aa77","system_id":"levelo_inurba_marseille","lat":43.31196,"lon":5.36928,"is_reserved":false,"is_disabled":false,"rental_uris":{"android":"levelo://app?vid=64f7c304-9688-44f2-a78b-47eb6176aa77","ios":"levelo://app?vid=64f7c304-9688-44f2-a78b-47eb6176aa77"},"vehicle_type_id":"4","last_reported":1739196568,"current_range_meters":38800,"station_id":"","pricing_plan_id":"cebpf4jnsgd1na2vs0mg"},{"bike_id":"9e851034-cd05-4dbb-8466-fcf5e93db0f2","system_id":"levelo_inurba_marseille","lat":43.302447,"lon":5.400686,"is_reserved":false,"is_disabled":false,"rental_uris":{"android":"levelo://app?vid=9e851034-cd05-4dbb-8466-fcf5e93db0f2","ios":"levelo://app?vid=9e851034-cd05-4dbb-8466-fcf5e93db0f2"},"vehicle_type_id":"4","last_reported":1739196568,"current_range_meters":38800,"station_id":"ce4bgvh2rcd13ifvqcs0","pricing_plan_id":"cebpf4jnsgd1na2vs0mg"},{"bike_id":"6998168a-02ed-49b8-bc0c-4b81f2baa47a","system_id":"levelo_inurba_marseille","lat":43.33719,"lon":5.3919,"is_reserved":false,"is_disabled":false,"rental_uris":{"android":"levelo://app?vid=6998168a-02ed-49b8-bc0c-4b81f2baa47a","ios":"levelo://app?vid=6998168a-02ed-49b8-bc0c-4b81f2baa47a"},"vehicle_type_id":"4","last_reported":1739196568,"current_range_meters":38800,"station_id":"ce4bhr92rcd13ifvqhsg","pricing_plan_id":"cebpf4jnsgd1na2vs0mg"},{"bike_id":"9822b2ae-52c3-4719-90d2-ce97f6ea354c","system_id":"levelo_inurba_marseille","lat":43.29958,"lon":5.37156,"is_reserved":false,"is_disabled":false,"rental_uris":{"android":"levelo://app?vid=9822b2ae-52c3-4719-90d2-ce97f6ea354c","ios":"levelo://app?vid=9822b2ae-52c3-4719-90d2-ce97f6ea354c"},"vehicle_type_id":"4","last_reported":1739196568,"current_range_meters":38800,"station_id":"ce4bgr92rcd13ifvqc7g","pricing_plan_id":"cebpf4jnsgd1na2vs0mg"},{"bike_id":"4a2c6af9-855e-47b4-bb65-c81f32d69e5c","system_id":"levelo_inurba_marseille","lat":43.30542,"lon":5.3843,"is_reserved":false,"is_disabled":false,"rental_uris":{"android":"levelo://app?vid=4a2c6af9-855e-47b4-bb65-c81f32d69e5c","ios":"levelo://app?vid=4a2c6af9-855e-47b4-bb65-c81f32d69e5c"},"vehicle_type_id":"4","last_reported":1739196568,"current_range_meters":37600,"station_id":"ce4bgg92rcd13ifvqb30","pricing_plan_id":"cebpf4jnsgd1na2vs0mg"},{"bike_id":"b354913e-b93a-49a2-9bf4-b72cafcb27b5","system_id":"levelo_inurba_marseille","lat":43.27808,"lon":5.40722,"is_reserved":false,"is_disabled":false,"rental_uris":{"android":"levelo://app?vid=b354913e-b93a-49a2-9bf4-b72cafcb27b5","ios":"levelo://app?vid=b354913e-b93a-49a2-9bf4-b72cafcb27b5"},"vehicle_type_id":"4","last_reported":1739196568,"current_range_meters":38800,"station_id":"ce4bhnh2rcd13ifvqgtg","pricing_plan_id":"cebpf4jnsgd1na2vs0mg"},{"bike_id":"12c322df-8fc8-46d2-b9dd-772e9fdf27c8","system_id":"levelo_inurba_marseille","lat":43.30147,"lon":5.38774,"is_reserved":false,"is_disabled":false,"rental_uris":{"android":"levelo://app?vid=12c322df-8fc8-46d2-b9dd-772e9fdf27c8","ios":"levelo://app?vid=12c322df-8fc8-46d2-b9dd-772e9fdf27c8"},"vehicle_type_id":"4","last_reported":1739196568,"current_range_meters":3600,"station_id":"ce4bghh2rcd13ifvqb60","pricing_plan_id":"cebpf4jnsgd1na2vs0mg"},{"bike_id":"c00d7182-7872-41a0-9d4a-fafec4e8e93e","system_id":"levelo_inurba_marseille","lat":43.28485,"lon":5.38418,"is_reserved":false,"is_disabled":false,"rental_uris":{"android":"levelo://app?vid=c00d7182-7872-41a0-9d4a-fafec4e8e93e","ios":"levelo://app?vid=c00d7182-7872-41a0-9d4a-fafec4e8e93e"},"vehicle_type_id":"4","last_reported":1739196568,"current_range_meters":7200,"station_id":"ce4bh512rcd13ifvqe3g","pricing_plan_id":"cebpf4jnsgd1na2vs0mg"},{"bike_id":"8aecd9f7-adb6-4881-9553-405df2813725","system_id":"levelo_inurba_marseille","lat":43.317,"lon":5.40462,"is_reserved":false,"is_disabled":false,"rental_uris":{"android":"levelo://app?vid=8aecd9f7-adb6-4881-9553-405df2813725","ios":"levelo://app?vid=8aecd9f7-adb6-4881-9553-405df2813725"},"vehicle_type_id":"4","last_reported":1739196568,"current_range_meters":38800,"station_id":"ce4bh012rcd13ifvqd00","pricing_plan_id":"cebpf4jnsgd1na2vs0mg"},{"bike_id":"b9ae1c04-8b49-41fe-a1ca-cc17035aadbe","system_id":"levelo_inurba_marseille","lat":43.29259,"lon":5.38435,"is_reserved":false,"is_disabled":true,"rental_uris":{"android":"levelo://app?vid=b9ae1c04-8b49-41fe-a1ca-cc17035aadbe","ios":"levelo://app?vid=b9ae1c04-8b49-41fe-a1ca-cc17035aadbe"},"vehicle_type_id":"4","last_reported":1739196568,"current_range_meters":14000,"station_id":"ce4bh692rcd13ifvqea0","pricing_plan_id":"cebpf4jnsgd1na2vs0mg"},{"bike_id":"c808c826-c93d-4066-a50f-b4bb5075fba9","system_id":"levelo_inurba_marseille","lat":43.24653,"lon":5.38893,"is_reserved":false,"is_disabled":false,"rental_uris":{"android":"levelo://app?vid=c808c826-c93d-4066-a50f-b4bb5075fba9","ios":"levelo://app?vid=c808c826-c93d-4066-a50f-b4bb5075fba9"},"vehicle_type_id":"4","last_reported":1739196568,"current_range_meters":18800,"station_id":"ce4bhg12rcd13ifvqf60","pricing_plan_id":"cebpf4jnsgd1na2vs0mg"},{"bike_id":"97d6f0b2-848e-471f-93d1-5d3a1ec2b71f","system_id":"levelo_inurba_marseille","lat":43.27317,"lon":5.39091,"is_reserved":false,"is_disabled":false,"rental_uris":{"android":"levelo://app?vid=97d6f0b2-848e-471f-93d1-5d3a1ec2b71f","ios":"levelo://app?vid=97d6f0b2-848e-471f-93d1-5d3a1ec2b71f"},"vehicle_type_id":"4","last_reported":1739196568,"current_range_meters":39200,"station_id":"ce4bhgp2rcd13ifvqfe0","pricing_plan_id":"cebpf4jnsgd1na2vs0mg"},{"bike_id":"a1d644be-809f-462f-ac59-2d1b9607cc93","system_id":"levelo_inurba_marseille","lat":43.27567,"lon":5.38423,"is_reserved":false,"is_disabled":false,"rental_uris":{"android":"levelo://app?vid=a1d644be-809f-462f-ac59-2d1b9607cc93","ios":"levelo://app?vid=a1d644be-809f-462f-ac59-2d1b9607cc93"},"vehicle_type_id":"4","last_reported":1739196568,"current_range_meters":24000,"station_id":"ce4bhh92rcd13ifvqfi0","pricing_plan_id":"cebpf4jnsgd1na2vs0mg"},{"bike_id":"37ed81d0-065c-4a1d-948f-ddfd03cd968b","system_id":"levelo_inurba_marseille","lat":43.24803,"lon":5.37452,"is_reserved":false,"is_disabled":false,"rental_uris":{"android":"levelo://app?vid=37ed81d0-065c-4a1d-948f-ddfd03cd968b","ios":"levelo://app?vid=37ed81d0-065c-4a1d-948f-ddfd03cd968b"},"vehicle_type_id":"4","last_reported":1739196568,"current_range_meters":24800,"station_id":"ce4bhgh2rcd13ifvqfb0","pricing_plan_id":"cebpf4jnsgd1na2vs0mg"},{"bike_id":"6d104768-018b-46ab-b7c2-e97432232072","system_id":"levelo_inurba_marseille","lat":43.28409,"lon":5.37514,"is_reserved":false,"is_disabled":false,"rental_uris":{"android":"levelo://app?vid=6d104768-018b-46ab-b7c2-e97432232072","ios":"levelo://app?vid=6d104768-018b-46ab-b7c2-e97432232072"},"vehicle_type_id":"4","last_reported":1739196568,"current_range_meters":38800,"station_id":"ce4bh412rcd13ifvqds0","pricing_plan_id":"cebpf4jnsgd1na2vs0mg"},{"bike_id":"ee139c19-6a57-4a81-93d8-e4201d47d2e9","system_id":"levelo_inurba_marseille","lat":43.31723,"lon":5.37905,"is_reserved":false,"is_disabled":false,"rental_uris":{"android":"levelo://app?vid=ee139c19-6a57-4a81-93d8-e4201d47d2e9","ios":"levelo://app?vid=ee139c19-6a57-4a81-93d8-e4201d47d2e9"},"vehicle_type_id":"4","last_reported":1739196568,"current_range_meters":32400,"station_id":"ce4bgth2rcd13ifvqch0","pricing_plan_id":"cebpf4jnsgd1na2vs0mg"},{"bike_id":"38486539-d96a-43e4-8ce7-751a9dd2906a","system_id":"levelo_inurba_marseille","lat":43.32481,"lon":5.3656,"is_reserved":false,"is_disabled":false,"rental_uris":{"android":"levelo://app?vid=38486539-d96a-43e4-8ce7-751a9dd2906a","ios":"levelo://app?vid=38486539-d96a-43e4-8ce7-751a9dd2906a"},"vehicle_type_id":"4","last_reported":1739196568,"current_range_meters":30400,"station_id":"ce4bhs12rcd13ifvqhvg","pricing_plan_id":"cebpf4jnsgd1na2vs0mg"},{"bike_id":"30040434-0ce6-4639-9cfb-4b7e126d7c60","system_id":"levelo_inurba_marseille","lat":43.27501,"lon":5.42442,"is_reserved":false,"is_disabled":true,"rental_uris":{"android":"levelo://app?vid=30040434-0ce6-4639-9cfb-4b7e126d7c60","ios":"levelo://app?vid=30040434-0ce6-4639-9cfb-4b7e126d7c60"},"vehicle_type_id":"4","last_reported":1739196568,"current_range_meters":1200,"station_id":"ce4bhn92rcd13ifvqgrg","pricing_plan_id":"cebpf4jnsgd1na2vs0mg"},{"bike_id":"e0e1d68e-498c-4482-87e9-d5f5bdf80bab","system_id":"levelo_inurba_marseille","lat":43.29628,"lon":5.40597,"is_reserved":false,"is_disabled":false,"rental_uris":{"android":"levelo://app?vid=e0e1d68e-498c-4482-87e9-d5f5bdf80bab","ios":"levelo://app?vid=e0e1d68e-498c-4482-87e9-d5f5bdf80bab"},"vehicle_type_id":"4","last_reported":1739196568,"current_range_meters":38000,"station_id":"ce4bh0h2rcd13ifvqd60","pricing_plan_id":"cebpf4jnsgd1na2vs0mg"},{"bike_id":"3aee1a37-713a-4089-a06a-b5701718bebc","system_id":"levelo_inurba_marseille","lat":43.27371,"lon":5.36259,"is_reserved":false,"is_disabled":false,"rental_uris":{"android":"levelo://app?vid=3aee1a37-713a-4089-a06a-b5701718bebc","ios":"levelo://app?vid=3aee1a37-713a-4089-a06a-b5701718bebc"},"vehicle_type_id":"4","last_reported":1739196568,"current_range_meters":38000,"station_id":"ce4bhbh2rcd13ifvqeo0","pricing_plan_id":"cebpf4jnsgd1na2vs0mg"},{"bike_id":"320b3191-eb18-4301-8558-bb943518dca8","system_id":"levelo_inurba_marseille","lat":43.25912,"lon":5.40873,"is_reserved":false,"is_disabled":false,"rental_uris":{"android":"levelo://app?vid=320b3191-eb18-4301-8558-bb943518dca8","ios":"levelo://app?vid=320b3191-eb18-4301-8558-bb943518dca8"},"vehicle_type_id":"4","last_reported":1739196568,"current_range_meters":36800,"station_id":"ce4bho92rcd13ifvqh3g","pricing_plan_id":"cebpf4jnsgd1na2vs0mg"},{"bike_id":"868bab58-7fb6-4926-8070-cd9a4296d6f1","system_id":"levelo_inurba_marseille","lat":43.30476,"lon":5.37913,"is_reserved":false,"is_disabled":false,"rental_uris":{"android":"levelo://app?vid=868bab58-7fb6-4926-8070-cd9a4296d6f1","ios":"levelo://app?vid=868bab58-7fb6-4926-8070-cd9a4296d6f1"},"vehicle_type_id":"4","last_reported":1739196568,"current_range_meters":20800,"station_id":"ce4bgup2rcd13ifvqcn0","pricing_plan_id":"cebpf4jnsgd1na2vs0mg"},{"bike_id":"86de48da-0ee2-4b92-bd9e-9b817eb5eb31","system_id":"levelo_inurba_marseille","lat":43.28419,"lon":5.37526,"is_reserved":false,"is_disabled":false,"rental_uris":{"android":"levelo://app?vid=86de48da-0ee2-4b92-bd9e-9b817eb5eb31","ios":"levelo://app?vid=86de48da-0ee2-4b92-bd9e-9b817eb5eb31"},"vehicle_type_id":"4","last_reported":1739196568,"current_range_meters":34000,"station_id":"ce4bh412rcd13ifvqds0","pricing_plan_id":"cebpf4jnsgd1na2vs0mg"},{"bike_id":"e1b46f7e-f734-4452-a34f-bad2f8b6b48d","system_id":"levelo_inurba_marseille","lat":43.29683,"lon":5.37283,"is_reserved":false,"is_disabled":false,"rental_uris":{"android":"levelo://app?vid=e1b46f7e-f734-4452-a34f-bad2f8b6b48d","ios":"levelo://app?vid=e1b46f7e-f734-4452-a34f-bad2f8b6b48d"},"vehicle_type_id":"4","last_reported":1739196568,"current_range_meters":38800,"station_id":"ce4bgk12rcd13ifvqbj0","pricing_plan_id":"cebpf4jnsgd1na2vs0mg"},{"bike_id":"db2cb8ba-850b-4646-be66-57100750f4fe","system_id":"levelo_inurba_marseille","lat":43.231966,"lon":5.355468,"is_reserved":false,"is_disabled":false,"rental_uris":{"android":"levelo://app?vid=db2cb8ba-850b-4646-be66-57100750f4fe","ios":"levelo://app?vid=db2cb8ba-850b-4646-be66-57100750f4fe"},"vehicle_type_id":"4","last_reported":1739196568,"current_range_meters":9600,"station_id":"ce4bhu92rcd13ifvqi70","pricing_plan_id":"cebpf4jnsgd1na2vs0mg"},{"bike_id":"841e0f04-b00a-44de-83b7-b9b92c40d93b","system_id":"levelo_inurba_marseille","lat":43.2816,"lon":5.4264,"is_reserved":false,"is_disabled":false,"rental_uris":{"android":"levelo://app?vid=841e0f04-b00a-44de-83b7-b9b92c40d93b","ios":"levelo://app?vid=841e0f04-b00a-44de-83b7-b9b92c40d93b"},"vehicle_type_id":"4","last_reported":1739196568,"current_range_meters":18000,"station_id":"ce4bhnh2rcd13ifvqgug","pricing_plan_id":"cebpf4jnsgd1na2vs0mg"},{"bike_id":"4cb3f6eb-b56e-40bd-a28e-0b16ec697f98","system_id":"levelo_inurba_marseille","lat":43.31705,"lon":5.37789,"is_reserved":false,"is_disabled":false,"rental_uris":{"android":"levelo://app?vid=4cb3f6eb-b56e-40bd-a28e-0b16ec697f98","ios":"levelo://app?vid=4cb3f6eb-b56e-40bd-a28e-0b16ec697f98"},"vehicle_type_id":"4","last_reported":1739196568,"current_range_meters":38800,"station_id":"ce4bgth2rcd13ifvqch0","pricing_plan_id":"cebpf4jnsgd1na2vs0mg"},{"bike_id":"83762cf2-5665-4117-8879-97f4a70521b3","system_id":"levelo_inurba_marseille","lat":43.30305,"lon":5.36908,"is_reserved":false,"is_disabled":false,"rental_uris":{"android":"levelo://app?vid=83762cf2-5665-4117-8879-97f4a70521b3","ios":"levelo://app?vid=83762cf2-5665-4117-8879-97f4a70521b3"},"vehicle_type_id":"4","last_reported":1739196568,"current_range_meters":30000,"station_id":"ce4bgqh2rcd13ifvqc5g","pricing_plan_id":"cebpf4jnsgd1na2vs0mg"},{"bike_id":"0cecdddc-cc1b-4b0d-91ba-48d6e978a29c","system_id":"levelo_inurba_marseille","lat":43.27987,"lon":5.3862,"is_reserved":false,"is_disabled":false,"rental_uris":{"android":"levelo://app?vid=0cecdddc-cc1b-4b0d-91ba-48d6e978a29c","ios":"levelo://app?vid=0cecdddc-cc1b-4b0d-91ba-48d6e978a29c"},"vehicle_type_id":"4","last_reported":1739196568,"current_range_meters":39200,"station_id":"ce4bhg12rcd13ifvqf80","pricing_plan_id":"cebpf4jnsgd1na2vs0mg"},{"bike_id":"e54e18d5-4516-4223-ac7d-0c078d2af81d","system_id":"levelo_inurba_marseille","lat":43.29366,"lon":5.37836,"is_reserved":false,"is_disabled":false,"rental_uris":{"android":"levelo://app?vid=e54e18d5-4516-4223-ac7d-0c078d2af81d","ios":"levelo://app?vid=e54e18d5-4516-4223-ac7d-0c078d2af81d"},"vehicle_type_id":"4","last_reported":1739196568,"current_range_meters":32000,"station_id":"ce4bgjh2rcd13ifvqbf0","pricing_plan_id":"cebpf4jnsgd1na2vs0mg"},{"bike_id":"1ec14052-2d33-4aa1-9ab8-58cc71db74d1","system_id":"levelo_inurba_marseille","lat":43.241636,"lon":5.364153,"is_reserved":false,"is_disabled":false,"rental_uris":{"android":"levelo://app?vid=1ec14052-2d33-4aa1-9ab8-58cc71db74d1","ios":"levelo://app?vid=1ec14052-2d33-4aa1-9ab8-58cc71db74d1"},"vehicle_type_id":"4","last_reported":1739196568,"current_range_meters":18800,"station_id":"cpo36qri1sfpv3e86is0","pricing_plan_id":"cebpf4jnsgd1na2vs0mg"},{"bike_id":"ae0dbd03-494d-4ce6-8b36-e3fa998daab3","system_id":"levelo_inurba_marseille","lat":43.27937,"lon":5.38718,"is_reserved":false,"is_disabled":false,"rental_uris":{"android":"levelo://app?vid=ae0dbd03-494d-4ce6-8b36-e3fa998daab3","ios":"levelo://app?vid=ae0dbd03-494d-4ce6-8b36-e3fa998daab3"},"vehicle_type_id":"4","last_reported":1739196568,"current_range_meters":38000,"station_id":"ce4bhg12rcd13ifvqf80","pricing_plan_id":"cebpf4jnsgd1na2vs0mg"},{"bike_id":"cfdc74e0-c746-422f-a518-2e9a6c2ffbda","system_id":"levelo_inurba_marseille","lat":43.29968,"lon":5.37186,"is_reserved":false,"is_disabled":false,"rental_uris":{"android":"levelo://app?vid=cfdc74e0-c746-422f-a518-2e9a6c2ffbda","ios":"levelo://app?vid=cfdc74e0-c746-422f-a518-2e9a6c2ffbda"},"vehicle_type_id":"4","last_reported":1739196568,"current_range_meters":37600,"station_id":"ce4bgr92rcd13ifvqc7g","pricing_plan_id":"cebpf4jnsgd1na2vs0mg"},{"bike_id":"d7bcfe9a-113a-4771-9ea3-6e06fd1f393f","system_id":"levelo_inurba_marseille","lat":43.29936,"lon":5.36524,"is_reserved":false,"is_disabled":false,"rental_uris":{"android":"levelo://app?vid=d7bcfe9a-113a-4771-9ea3-6e06fd1f393f","ios":"levelo://app?vid=d7bcfe9a-113a-4771-9ea3-6e06fd1f393f"},"vehicle_type_id":"4","last_reported":1739196568,"current_range_meters":31200,"station_id":"ce4bgm92rcd13ifvqbr0","pricing_plan_id":"cebpf4jnsgd1na2vs0mg"},{"bike_id":"f91eccd0-556a-4834-a4ed-ca607ea25344","system_id":"levelo_inurba_marseille","lat":43.30139,"lon":5.38788,"is_reserved":false,"is_disabled":false,"rental_uris":{"android":"levelo://app?vid=f91eccd0-556a-4834-a4ed-ca607ea25344","ios":"levelo://app?vid=f91eccd0-556a-4834-a4ed-ca607ea25344"},"vehicle_type_id":"4","last_reported":1739196568,"current_range_meters":38000,"station_id":"ce4bghh2rcd13ifvqb60","pricing_plan_id":"cebpf4jnsgd1na2vs0mg"},{"bike_id":"4442f297-f95c-41e7-b48d-47c8c8ab55ae","system_id":"levelo_inurba_marseille","lat":43.34152,"lon":5.40897,"is_reserved":false,"is_disabled":false,"rental_uris":{"android":"levelo://app?vid=4442f297-f95c-41e7-b48d-47c8c8ab55ae","ios":"levelo://app?vid=4442f297-f95c-41e7-b48d-47c8c8ab55ae"},"vehicle_type_id":"4","last_reported":1739196568,"current_range_meters":32400,"station_id":"ce4bhqh2rcd13ifvqhlg","pricing_plan_id":"cebpf4jnsgd1na2vs0mg"},{"bike_id":"c522bc34-78f2-4b55-8486-c69b4e7c03c2","system_id":"levelo_inurba_marseille","lat":43.29684,"lon":5.37281,"is_reserved":false,"is_disabled":true,"rental_uris":{"android":"levelo://app?vid=c522bc34-78f2-4b55-8486-c69b4e7c03c2","ios":"levelo://app?vid=c522bc34-78f2-4b55-8486-c69b4e7c03c2"},"vehicle_type_id":"4","last_reported":1739196568,"current_range_meters":38800,"station_id":"ce4bgk12rcd13ifvqbj0","pricing_plan_id":"cebpf4jnsgd1na2vs0mg"},{"bike_id":"c52b27f8-f65c-455d-8c05-8cca2fd7d5e3","system_id":"levelo_inurba_marseille","lat":43.26951,"lon":5.38637,"is_reserved":false,"is_disabled":false,"rental_uris":{"android":"levelo://app?vid=c52b27f8-f65c-455d-8c05-8cca2fd7d5e3","ios":"levelo://app?vid=c52b27f8-f65c-455d-8c05-8cca2fd7d5e3"},"vehicle_type_id":"4","last_reported":1739196568,"current_range_meters":6400,"station_id":"ce4bhh92rcd13ifvqfh0","pricing_plan_id":"cebpf4jnsgd1na2vs0mg"},{"bike_id":"9f524422-b086-4500-8eb2-ec86aa84d162","system_id":"levelo_inurba_marseille","lat":43.29619,"lon":5.37168,"is_reserved":false,"is_disabled":false,"rental_uris":{"android":"levelo://app?vid=9f524422-b086-4500-8eb2-ec86aa84d162","ios":"levelo://app?vid=9f524422-b086-4500-8eb2-ec86aa84d162"},"vehicle_type_id":"4","last_reported":1739196568,"current_range_meters":38800,"station_id":"ce4bgnh2rcd13ifvqc0g","pricing_plan_id":"cebpf4jnsgd1na2vs0mg"},{"bike_id":"fbb98623-bd6f-4427-9463-8f7fc3b3bd20","system_id":"levelo_inurba_marseille","lat":43.28026,"lon":5.36936,"is_reserved":false,"is_disabled":false,"rental_uris":{"android":"levelo://app?vid=fbb98623-bd6f-4427-9463-8f7fc3b3bd20","ios":"levelo://app?vid=fbb98623-bd6f-4427-9463-8f7fc3b3bd20"},"vehicle_type_id":"4","last_reported":1739196568,"current_range_meters":32800,"station_id":"ce4bha12rcd13ifvqef0","pricing_plan_id":"cebpf4jnsgd1na2vs0mg"},{"bike_id":"94967abc-a916-4ef8-9af2-412985dccffb","system_id":"levelo_inurba_marseille","lat":43.28272,"lon":5.35056,"is_reserved":false,"is_disabled":false,"rental_uris":{"android":"levelo://app?vid=94967abc-a916-4ef8-9af2-412985dccffb","ios":"levelo://app?vid=94967abc-a916-4ef8-9af2-412985dccffb"},"vehicle_type_id":"4","last_reported":1739196568,"current_range_meters":24400,"station_id":"ce4bhbp2rcd13ifvqerg","pricing_plan_id":"cebpf4jnsgd1na2vs0mg"},{"bike_id":"c96f92a7-f6aa-4b72-bfcc-b3fd0520d382","system_id":"levelo_inurba_marseille","lat":43.26192,"lon":5.37453,"is_reserved":false,"is_disabled":false,"rental_uris":{"android":"levelo://app?vid=c96f92a7-f6aa-4b72-bfcc-b3fd0520d382","ios":"levelo://app?vid=c96f92a7-f6aa-4b72-bfcc-b3fd0520d382"},"vehicle_type_id":"4","last_reported":1739196568,"current_range_meters":38800,"station_id":"ce4bhgp2rcd13ifvqfc0","pricing_plan_id":"cebpf4jnsgd1na2vs0mg"},{"bike_id":"acd83fce-20d7-4fc5-b658-519f5e83fe17","system_id":"levelo_inurba_marseille","lat":43.28408,"lon":5.37508,"is_reserved":false,"is_disabled":false,"rental_uris":{"android":"levelo://app?vid=acd83fce-20d7-4fc5-b658-519f5e83fe17","ios":"levelo://app?vid=acd83fce-20d7-4fc5-b658-519f5e83fe17"},"vehicle_type_id":"4","last_reported":1739196568,"current_range_meters":10800,"station_id":"ce4bh412rcd13ifvqds0","pricing_plan_id":"cebpf4jnsgd1na2vs0mg"},{"bike_id":"53dedc30-10cb-4cf6-aa3e-119646708c08","system_id":"levelo_inurba_marseille","lat":43.2604,"lon":5.37552,"is_reserved":false,"is_disabled":false,"rental_uris":{"android":"levelo://app?vid=53dedc30-10cb-4cf6-aa3e-119646708c08","ios":"levelo://app?vid=53dedc30-10cb-4cf6-aa3e-119646708c08"},"vehicle_type_id":"4","last_reported":1739196568,"current_range_meters":38800,"station_id":"ce4bhgh2rcd13ifvqfa0","pricing_plan_id":"cebpf4jnsgd1na2vs0mg"},{"bike_id":"a0035997-f5b0-46f3-82fa-5a64a36dc284","system_id":"levelo_inurba_marseille","lat":43.28726,"lon":5.37933,"is_reserved":false,"is_disabled":false,"rental_uris":{"android":"levelo://app?vid=a0035997-f5b0-46f3-82fa-5a64a36dc284","ios":"levelo://app?vid=a0035997-f5b0-46f3-82fa-5a64a36dc284"},"vehicle_type_id":"4","last_reported":1739196568,"current_range_meters":8000,"station_id":"ce4bh9p2rcd13ifvqec0","pricing_plan_id":"cebpf4jnsgd1na2vs0mg"},{"bike_id":"d65a14c4-ecf3-4048-b05f-9a757ce2f182","system_id":"levelo_inurba_marseille","lat":43.246717,"lon":5.38171,"is_reserved":false,"is_disabled":false,"rental_uris":{"android":"levelo://app?vid=d65a14c4-ecf3-4048-b05f-9a757ce2f182","ios":"levelo://app?vid=d65a14c4-ecf3-4048-b05f-9a757ce2f182"},"vehicle_type_id":"4","last_reported":1739196568,"current_range_meters":38800,"station_id":"ce4bhih2rcd13ifvqfr0","pricing_plan_id":"cebpf4jnsgd1na2vs0mg"},{"bike_id":"879d2030-c51b-4298-a606-cfdd56d5ce64","system_id":"levelo_inurba_marseille","lat":43.24182,"lon":5.39728,"is_reserved":false,"is_disabled":false,"rental_uris":{"android":"levelo://app?vid=879d2030-c51b-4298-a606-cfdd56d5ce64","ios":"levelo://app?vid=879d2030-c51b-4298-a606-cfdd56d5ce64"},"vehicle_type_id":"4","last_reported":1739196568,"current_range_meters":29600,"station_id":"ce4bhn12rcd13ifvqgpg","pricing_plan_id":"cebpf4jnsgd1na2vs0mg"},{"bike_id":"f465c264-b623-44fd-9e84-1d1a4305485e","system_id":"levelo_inurba_marseille","lat":43.28472,"lon":5.38418,"is_reserved":false,"is_disabled":false,"rental_uris":{"android":"levelo://app?vid=f465c264-b623-44fd-9e84-1d1a4305485e","ios":"levelo://app?vid=f465c264-b623-44fd-9e84-1d1a4305485e"},"vehicle_type_id":"4","last_reported":1739196568,"current_range_meters":38000,"station_id":"ce4bh512rcd13ifvqe3g","pricing_plan_id":"cebpf4jnsgd1na2vs0mg"},{"bike_id":"0580eb58-e6b1-4e7b-a86c-47b05cf37565","system_id":"levelo_inurba_marseille","lat":43.27331,"lon":5.39093,"is_reserved":false,"is_disabled":false,"rental_uris":{"android":"levelo://app?vid=0580eb58-e6b1-4e7b-a86c-47b05cf37565","ios":"levelo://app?vid=0580eb58-e6b1-4e7b-a86c-47b05cf37565"},"vehicle_type_id":"4","last_reported":1739196568,"current_range_meters":30800,"station_id":"ce4bhgp2rcd13ifvqfe0","pricing_plan_id":"cebpf4jnsgd1na2vs0mg"},{"bike_id":"c294ebf1-014c-434d-aad4-0983614af0f7","system_id":"levelo_inurba_marseille","lat":43.23175,"lon":5.39979,"is_reserved":false,"is_disabled":false,"rental_uris":{"android":"levelo://app?vid=c294ebf1-014c-434d-aad4-0983614af0f7","ios":"levelo://app?vid=c294ebf1-014c-434d-aad4-0983614af0f7"},"vehicle_type_id":"4","last_reported":1739196568,"current_range_meters":28400,"station_id":"ce4bhn12rcd13ifvqgqg","pricing_plan_id":"cebpf4jnsgd1na2vs0mg"},{"bike_id":"c76b1a82-9a76-4e87-885e-db6737c7c086","system_id":"levelo_inurba_marseille","lat":43.299,"lon":5.38142,"is_reserved":false,"is_disabled":false,"rental_uris":{"android":"levelo://app?vid=c76b1a82-9a76-4e87-885e-db6737c7c086","ios":"levelo://app?vid=c76b1a82-9a76-4e87-885e-db6737c7c086"},"vehicle_type_id":"4","last_reported":1739196568,"current_range_meters":37600,"station_id":"ce4bgj12rcd13ifvqbc0","pricing_plan_id":"cebpf4jnsgd1na2vs0mg"},{"bike_id":"1d80ee19-82c5-407d-979e-e1d4b2525b11","system_id":"levelo_inurba_marseille","lat":43.28251,"lon":5.35003,"is_reserved":false,"is_disabled":false,"rental_uris":{"android":"levelo://app?vid=1d80ee19-82c5-407d-979e-e1d4b2525b11","ios":"levelo://app?vid=1d80ee19-82c5-407d-979e-e1d4b2525b11"},"vehicle_type_id":"4","last_reported":1739196568,"current_range_meters":8400,"station_id":"ce4bhbp2rcd13ifvqerg","pricing_plan_id":"cebpf4jnsgd1na2vs0mg"},{"bike_id":"b1271162-1ed1-4508-a6a7-49d6eee68bba","system_id":"levelo_inurba_marseille","lat":43.2986,"lon":5.39735,"is_reserved":false,"is_disabled":false,"rental_uris":{"android":"levelo://app?vid=b1271162-1ed1-4508-a6a7-49d6eee68bba","ios":"levelo://app?vid=b1271162-1ed1-4508-a6a7-49d6eee68bba"},"vehicle_type_id":"4","last_reported":1739196568,"current_range_meters":32800,"station_id":"ce4bh0h2rcd13ifvqd50","pricing_plan_id":"cebpf4jnsgd1na2vs0mg"},{"bike_id":"26f106cf-8738-422f-bcb0-d7879a047329","system_id":"levelo_inurba_marseille","lat":43.2984,"lon":5.36262,"is_reserved":false,"is_disabled":false,"rental_uris":{"android":"levelo://app?vid=26f106cf-8738-422f-bcb0-d7879a047329","ios":"levelo://app?vid=26f106cf-8738-422f-bcb0-d7879a047329"},"vehicle_type_id":"4","last_reported":1739196568,"current_range_meters":38800,"station_id":"ce4bgpp2rcd13ifvqc3g","pricing_plan_id":"cebpf4jnsgd1na2vs0mg"},{"bike_id":"c56ee88f-5f18-43cd-9355-a944f1d2bb26","system_id":"levelo_inurba_marseille","lat":43.29525,"lon":5.39391,"is_reserved":false,"is_disabled":false,"rental_uris":{"android":"levelo://app?vid=c56ee88f-5f18-43cd-9355-a944f1d2bb26","ios":"levelo://app?vid=c56ee88f-5f18-43cd-9355-a944f1d2bb26"},"vehicle_type_id":"4","last_reported":1739196568,"current_range_meters":34000,"station_id":"ce4bh292rcd13ifvqdf0","pricing_plan_id":"cebpf4jnsgd1na2vs0mg"},{"bike_id":"5572a521-fe9b-45ac-b7e2-68d5a36b01a4","system_id":"levelo_inurba_marseille","lat":43.33613,"lon":5.41042,"is_reserved":false,"is_disabled":false,"rental_uris":{"android":"levelo://app?vid=5572a521-fe9b-45ac-b7e2-68d5a36b01a4","ios":"levelo://app?vid=5572a521-fe9b-45ac-b7e2-68d5a36b01a4"},"vehicle_type_id":"4","last_reported":1739196568,"current_range_meters":16000,"station_id":"ce4bhqh2rcd13ifvqhmg","pricing_plan_id":"cebpf4jnsgd1na2vs0mg"},{"bike_id":"2727597f-79bf-412c-a174-29206f2c1253","system_id":"levelo_inurba_marseille","lat":43.29602,"lon":5.377,"is_reserved":false,"is_disabled":true,"rental_uris":{"android":"levelo://app?vid=2727597f-79bf-412c-a174-29206f2c1253","ios":"levelo://app?vid=2727597f-79bf-412c-a174-29206f2c1253"},"vehicle_type_id":"4","last_reported":1739196568,"current_range_meters":34000,"station_id":"ce4bgi92rcd13ifvqb90","pricing_plan_id":"cebpf4jnsgd1na2vs0mg"},{"bike_id":"118acaa8-c377-4759-a8f9-c3303973ef34","system_id":"levelo_inurba_marseille","lat":43.29873,"lon":5.3891,"is_reserved":false,"is_disabled":false,"rental_uris":{"android":"levelo://app?vid=118acaa8-c377-4759-a8f9-c3303973ef34","ios":"levelo://app?vid=118acaa8-c377-4759-a8f9-c3303973ef34"},"vehicle_type_id":"4","last_reported":1739196568,"current_range_meters":28800,"station_id":"ce4bh392rcd13ifvqdl0","pricing_plan_id":"cebpf4jnsgd1na2vs0mg"},{"bike_id":"34262e96-987c-4fc3-975f-8c9abba81a43","system_id":"levelo_inurba_marseille","lat":43.27065,"lon":5.4227,"is_reserved":false,"is_disabled":false,"rental_uris":{"android":"levelo://app?vid=34262e96-987c-4fc3-975f-8c9abba81a43","ios":"levelo://app?vid=34262e96-987c-4fc3-975f-8c9abba81a43"},"vehicle_type_id":"4","last_reported":1739196568,"current_range_meters":39200,"station_id":"ce4bhk92rcd13ifvqgb0","pricing_plan_id":"cebpf4jnsgd1na2vs0mg"},{"bike_id":"c45e9a1b-183a-4144-830b-a46bf3fb1e84","system_id":"levelo_inurba_marseille","lat":43.28616,"lon":5.35103,"is_reserved":false,"is_disabled":false,"rental_uris":{"android":"levelo://app?vid=c45e9a1b-183a-4144-830b-a46bf3fb1e84","ios":"levelo://app?vid=c45e9a1b-183a-4144-830b-a46bf3fb1e84"},"vehicle_type_id":"4","last_reported":1739196568,"current_range_meters":3600,"station_id":"ce4bhch2rcd13ifvqeug","pricing_plan_id":"cebpf4jnsgd1na2vs0mg"},{"bike_id":"c8284eb2-c14e-4314-acdb-ff222905a9d3","system_id":"levelo_inurba_marseille","lat":43.31362,"lon":5.365,"is_reserved":false,"is_disabled":false,"rental_uris":{"android":"levelo://app?vid=c8284eb2-c14e-4314-acdb-ff222905a9d3","ios":"levelo://app?vid=c8284eb2-c14e-4314-acdb-ff222905a9d3"},"vehicle_type_id":"4","last_reported":1739196568,"current_range_meters":22800,"station_id":"ce4bgr92rcd13ifvqc6g","pricing_plan_id":"cebpf4jnsgd1na2vs0mg"},{"bike_id":"ab93498e-0310-4ee7-a124-65fd41ae8128","system_id":"levelo_inurba_marseille","lat":43.28938,"lon":5.39632,"is_reserved":false,"is_disabled":false,"rental_uris":{"android":"levelo://app?vid=ab93498e-0310-4ee7-a124-65fd41ae8128","ios":"levelo://app?vid=ab93498e-0310-4ee7-a124-65fd41ae8128"},"vehicle_type_id":"4","last_reported":1739196568,"current_range_meters":25600,"station_id":"ce4bh3h2rcd13ifvqdn0","pricing_plan_id":"cebpf4jnsgd1na2vs0mg"},{"bike_id":"10a8aa0e-b281-454d-8c08-561faec463d8","system_id":"levelo_inurba_marseille","lat":43.29222,"lon":5.36079,"is_reserved":false,"is_disabled":false,"rental_uris":{"android":"levelo://app?vid=10a8aa0e-b281-454d-8c08-561faec463d8","ios":"levelo://app?vid=10a8aa0e-b281-454d-8c08-561faec463d8"},"vehicle_type_id":"4","last_reported":1739196568,"current_range_meters":36800,"station_id":"ce4bhbh2rcd13ifvqeqg","pricing_plan_id":"cebpf4jnsgd1na2vs0mg"},{"bike_id":"54ce597b-1ca1-4d62-923d-d4b29eec04b3","system_id":"levelo_inurba_marseille","lat":43.31131,"lon":5.38261,"is_reserved":false,"is_disabled":false,"rental_uris":{"android":"levelo://app?vid=54ce597b-1ca1-4d62-923d-d4b29eec04b3","ios":"levelo://app?vid=54ce597b-1ca1-4d62-923d-d4b29eec04b3"},"vehicle_type_id":"4","last_reported":1739196568,"current_range_meters":25200,"station_id":"","pricing_plan_id":"cebpf4jnsgd1na2vs0mg"},{"bike_id":"b4765ae2-b7fb-4718-bf68-ce7ba2c817f9","system_id":"levelo_inurba_marseille","lat":43.27072,"lon":5.42294,"is_reserved":false,"is_disabled":false,"rental_uris":{"android":"levelo://app?vid=b4765ae2-b7fb-4718-bf68-ce7ba2c817f9","ios":"levelo://app?vid=b4765ae2-b7fb-4718-bf68-ce7ba2c817f9"},"vehicle_type_id":"4","last_reported":1739196568,"current_range_meters":28000,"station_id":"ce4bhk92rcd13ifvqgb0","pricing_plan_id":"cebpf4jnsgd1na2vs0mg"},{"bike_id":"edf35870-e55e-448a-9c9d-7a0049d0f38d","system_id":"levelo_inurba_marseille","lat":43.28704,"lon":5.374,"is_reserved":false,"is_disabled":false,"rental_uris":{"android":"levelo://app?vid=edf35870-e55e-448a-9c9d-7a0049d0f38d","ios":"levelo://app?vid=edf35870-e55e-448a-9c9d-7a0049d0f38d"},"vehicle_type_id":"4","last_reported":1739196568,"current_range_meters":38400,"station_id":"ce4bh3p2rcd13ifvqdq0","pricing_plan_id":"cebpf4jnsgd1na2vs0mg"},{"bike_id":"a2edcc76-2265-4bc6-8f2e-29b460d743ff","system_id":"levelo_inurba_marseille","lat":43.255765,"lon":5.382419,"is_reserved":false,"is_disabled":false,"rental_uris":{"android":"levelo://app?vid=a2edcc76-2265-4bc6-8f2e-29b460d743ff","ios":"levelo://app?vid=a2edcc76-2265-4bc6-8f2e-29b460d743ff"},"vehicle_type_id":"4","last_reported":1739196568,"current_range_meters":22000,"station_id":"ce4bhih2rcd13ifvqfs0","pricing_plan_id":"cebpf4jnsgd1na2vs0mg"},{"bike_id":"7783bfa8-41a8-4647-9723-689c49bd3c6a","system_id":"levelo_inurba_marseille","lat":43.28275,"lon":5.35074,"is_reserved":false,"is_disabled":false,"rental_uris":{"android":"levelo://app?vid=7783bfa8-41a8-4647-9723-689c49bd3c6a","ios":"levelo://app?vid=7783bfa8-41a8-4647-9723-689c49bd3c6a"},"vehicle_type_id":"4","last_reported":1739196568,"current_range_meters":26000,"station_id":"ce4bhbp2rcd13ifvqerg","pricing_plan_id":"cebpf4jnsgd1na2vs0mg"},{"bike_id":"aaf8d01f-ecee-445b-8af9-a7ecd3dff2bf","system_id":"levelo_inurba_marseille","lat":43.29917,"lon":5.37477,"is_reserved":false,"is_disabled":false,"rental_uris":{"android":"levelo://app?vid=aaf8d01f-ecee-445b-8af9-a7ecd3dff2bf","ios":"levelo://app?vid=aaf8d01f-ecee-445b-8af9-a7ecd3dff2bf"},"vehicle_type_id":"4","last_reported":1739196568,"current_range_meters":20000,"station_id":"ce4bgjh2rcd13ifvqbg0","pricing_plan_id":"cebpf4jnsgd1na2vs0mg"},{"bike_id":"f6032093-acba-469c-87fb-29d8d78369ea","system_id":"levelo_inurba_marseille","lat":43.286117,"lon":5.351069,"is_reserved":false,"is_disabled":false,"rental_uris":{"android":"levelo://app?vid=f6032093-acba-469c-87fb-29d8d78369ea","ios":"levelo://app?vid=f6032093-acba-469c-87fb-29d8d78369ea"},"vehicle_type_id":"4","last_reported":1739196568,"current_range_meters":29600,"station_id":"ce4bhch2rcd13ifvqeug","pricing_plan_id":"cebpf4jnsgd1na2vs0mg"},{"bike_id":"55811019-cad8-4b02-9878-e207e257fb4e","system_id":"levelo_inurba_marseille","lat":43.31224,"lon":5.36853,"is_reserved":false,"is_disabled":false,"rental_uris":{"android":"levelo://app?vid=55811019-cad8-4b02-9878-e207e257fb4e","ios":"levelo://app?vid=55811019-cad8-4b02-9878-e207e257fb4e"},"vehicle_type_id":"4","last_reported":1739196568,"current_range_meters":24400,"station_id":"ce4bgl92rcd13ifvqbq0","pricing_plan_id":"cebpf4jnsgd1na2vs0mg"},{"bike_id":"f708cebf-b6c0-49e5-ad77-2d402ac181d6","system_id":"levelo_inurba_marseille","lat":43.27332,"lon":5.39074,"is_reserved":false,"is_disabled":false,"rental_uris":{"android":"levelo://app?vid=f708cebf-b6c0-49e5-ad77-2d402ac181d6","ios":"levelo://app?vid=f708cebf-b6c0-49e5-ad77-2d402ac181d6"},"vehicle_type_id":"4","last_reported":1739196568,"current_range_meters":22800,"station_id":"ce4bhgp2rcd13ifvqfe0","pricing_plan_id":"cebpf4jnsgd1na2vs0mg"},{"bike_id":"38bc75e2-a397-4b63-995f-245fe151a8f9","system_id":"levelo_inurba_marseille","lat":43.23175,"lon":5.3999,"is_reserved":false,"is_disabled":false,"rental_uris":{"android":"levelo://app?vid=38bc75e2-a397-4b63-995f-245fe151a8f9","ios":"levelo://app?vid=38bc75e2-a397-4b63-995f-245fe151a8f9"},"vehicle_type_id":"4","last_reported":1739196568,"current_range_meters":38800,"station_id":"ce4bhn12rcd13ifvqgqg","pricing_plan_id":"cebpf4jnsgd1na2vs0mg"},{"bike_id":"ec849b97-32e8-4538-a3ea-2e1cfc5ef6fe","system_id":"levelo_inurba_marseille","lat":43.28613,"lon":5.37058,"is_reserved":false,"is_disabled":false,"rental_uris":{"android":"levelo://app?vid=ec849b97-32e8-4538-a3ea-2e1cfc5ef6fe","ios":"levelo://app?vid=ec849b97-32e8-4538-a3ea-2e1cfc5ef6fe"},"vehicle_type_id":"4","last_reported":1739196568,"current_range_meters":32000,"station_id":"ce4bht12rcd13ifvqi60","pricing_plan_id":"cebpf4jnsgd1na2vs0mg"},{"bike_id":"0d06f8ed-583f-4925-acc0-af879bb23622","system_id":"levelo_inurba_marseille","lat":43.27759,"lon":5.39875,"is_reserved":false,"is_disabled":true,"rental_uris":{"android":"levelo://app?vid=0d06f8ed-583f-4925-acc0-af879bb23622","ios":"levelo://app?vid=0d06f8ed-583f-4925-acc0-af879bb23622"},"vehicle_type_id":"4","last_reported":1739196568,"current_range_meters":0,"station_id":"","pricing_plan_id":"cebpf4jnsgd1na2vs0mg"},{"bike_id":"fabb73db-d995-427e-b6c7-92e8bdebe608","system_id":"levelo_inurba_marseille","lat":43.29904,"lon":5.37483,"is_reserved":false,"is_disabled":false,"rental_uris":{"android":"levelo://app?vid=fabb73db-d995-427e-b6c7-92e8bdebe608","ios":"levelo://app?vid=fabb73db-d995-427e-b6c7-92e8bdebe608"},"vehicle_type_id":"4","last_reported":1739196568,"current_range_meters":30000,"station_id":"ce4bgjh2rcd13ifvqbg0","pricing_plan_id":"cebpf4jnsgd1na2vs0mg"},{"bike_id":"c8e2cb6e-c358-4f5c-a179-36473bd2a8d9","system_id":"levelo_inurba_marseille","lat":43.2841,"lon":5.37515,"is_reserved":false,"is_disabled":false,"rental_uris":{"android":"levelo://app?vid=c8e2cb6e-c358-4f5c-a179-36473bd2a8d9","ios":"levelo://app?vid=c8e2cb6e-c358-4f5c-a179-36473bd2a8d9"},"vehicle_type_id":"4","last_reported":1739196568,"current_range_meters":24000,"station_id":"ce4bh412rcd13ifvqds0","pricing_plan_id":"cebpf4jnsgd1na2vs0mg"},{"bike_id":"d606c525-7dbc-4209-ad64-fc43807a857e","system_id":"levelo_inurba_marseille","lat":43.2799,"lon":5.4002,"is_reserved":false,"is_disabled":false,"rental_uris":{"android":"levelo://app?vid=d606c525-7dbc-4209-ad64-fc43807a857e","ios":"levelo://app?vid=d606c525-7dbc-4209-ad64-fc43807a857e"},"vehicle_type_id":"4","last_reported":1739196568,"current_range_meters":35600,"station_id":"ce4bho92rcd13ifvqh4g","pricing_plan_id":"cebpf4jnsgd1na2vs0mg"},{"bike_id":"15d8c906-1286-4b4c-9ca3-d38c21e42dbe","system_id":"levelo_inurba_marseille","lat":43.27962,"lon":5.38728,"is_reserved":false,"is_disabled":true,"rental_uris":{"android":"levelo://app?vid=15d8c906-1286-4b4c-9ca3-d38c21e42dbe","ios":"levelo://app?vid=15d8c906-1286-4b4c-9ca3-d38c21e42dbe"},"vehicle_type_id":"4","last_reported":1739196568,"current_range_meters":16000,"station_id":"ce4bhg12rcd13ifvqf80","pricing_plan_id":"cebpf4jnsgd1na2vs0mg"},{"bike_id":"70905f94-69bc-42e8-ade9-ea97220f16b6","system_id":"levelo_inurba_marseille","lat":43.29862,"lon":5.36289,"is_reserved":false,"is_disabled":false,"rental_uris":{"android":"levelo://app?vid=70905f94-69bc-42e8-ade9-ea97220f16b6","ios":"levelo://app?vid=70905f94-69bc-42e8-ade9-ea97220f16b6"},"vehicle_type_id":"4","last_reported":1739196568,"current_range_meters":38800,"station_id":"ce4bgpp2rcd13ifvqc3g","pricing_plan_id":"cebpf4jnsgd1na2vs0mg"},