{"last_updated":1729076854,"ttl":60,"version":"2.2","data":{"bikes":[{"bike_id":"d784866f-4d52-4cfb-98a4-dbebd1c93589","system_id":"levelo_inurba_marseille","lat":43.27945,"lon":5.41044,"is_reserved":false,"is_disabled":false,"rental_uris":{"android":"levelo://app?vid=d784866f-4d52-4cfb-98a4-dbebd1c93589","ios":"levelo://app?vid=d784866f-4d52-4cfb-98a4-dbebd1c93589"},"vehicle_type_id":"4","last_reported":1729076855,"current_range_meters":24000,"station_id":"ce4bhnp2rcd13ifvqh0g","pricing_plan_id":"cebpf4jnsgd1na2vs0mg"},{"bike_id":"238c4423-4dd5-4044-be7e-03d4eb12b800","system_id":"levelo_inurba_marseille","lat":43.30529,"lon":5.3671,"is_reserved":false,"is_disabled":false,"rental_uris":{"android":"levelo://app?vid=238c4423-4dd5-4044-be7e-03d4eb12b800","ios":"levelo://app?vid=238c4423-4dd5-4044-be7e-03d4eb12b800"},"vehicle_type_id":"4","last_reported":1729076855,"current_range_meters":5600,"station_id":"ce4bgrp2rcd13ifvqc9g","pricing_plan_id":"cebpf4jnsgd1na2vs0mg"},{"bike_id":"b4066a84-11e2-4186-8d3a-57c27e87db57","system_id":"levelo_inurba_marseille","lat":43.27815,"lon":5.40723,"is_reserved":false,"is_disabled":false,"rental_uris":{"android":"levelo://app?vid=b4066a84-11e2-4186-8d3a-57c27e87db57","ios":"levelo://app?vid=b4066a84-11e2-4186-8d3a-57c27e87db57"},"vehicle_type_id":"4","last_reported":1729076855,"current_range_meters":29600,"station_id":"ce4bhnh2rcd13ifvqgtg","pricing_plan_id":"cebpf4jnsgd1na2vs0mg"},{"bike_id":"5002f4ca-68aa-4a9a-bbfb-321dee34c575","system_id":"levelo_inurba_marseille","lat":43.25938,"lon":5.40903,"is_reserved":false,"is_disabled":false,"rental_uris":{"android":"levelo://app?vid=5002f4ca-68aa-4a9a-bbfb-321dee34c575","ios":"levelo://app?vid=5002f4ca-68aa-4a9a-bbfb-321dee34c575"},"vehicle_type_id":"4","last_reported":1729076855,"current_range_meters":24800,"station_id":"ce4bhm92rcd13ifvqglg","pricing_plan_id":"cebpf4jnsgd1na2vs0mg"},{"bike_id":"805cf10d-9632-4f1a-9f3a-80b24a4fbac6","system_id":"levelo_inurba_marseille","lat":43.3136,"lon":5.37366,"is_reserved":false,"is_disabled":false,"rental_uris":{"android":"levelo://app?vid=805cf10d-9632-4f1a-9f3a-80b24a4fbac6","ios":"levelo://app?vid=805cf10d-9632-4f1a-9f3a-80b24a4fbac6"},"vehicle_type_id":"4","last_reported":1729076855,"current_range_meters":4800,"station_id":"","pricing_plan_id":"cebpf4jnsgd1na2vs0mg"},{"bike_id":"4e3ae144-e388-4b4f-ac80-a31ee8ee9bdf","system_id":"levelo_inurba_marseille","lat":43.24652,"lon":5.38899,"is_reserved":false,"is_disabled":false,"rental_uris":{"android":"levelo://app?vid=4e3ae144-e388-4b4f-ac80-a31ee8ee9bdf","ios":"levelo://app?vid=4e3ae144-e388-4b4f-ac80-a31ee8ee9bdf"},"vehicle_type_id":"4","last_reported":1729076855,"current_range_meters":37600,"station_id":"ce4bhg12rcd13ifvqf60","pricing_plan_id":"cebpf4jnsgd1na2vs0mg"},{"bike_id":"979638f0-5c67-408f-bbfd-0de28da1b117","system_id":"levelo_inurba_marseille","lat":43.29728,"lon":5.37684,"is_reserved":false,"is_disabled":false,"rental_uris":{"android":"levelo://app?vid=979638f0-5c67-408f-bbfd-0de28da1b117","ios":"levelo://app?vid=979638f0-5c67-408f-bbfd-0de28da1b117"},"vehicle_type_id":"4","last_reported":1729076855,"current_range_meters":38000,"station_id":"ce4bgkh2rcd13ifvqbl0","pricing_plan_id":"cebpf4jnsgd1na2vs0mg"},{"bike_id":"54513a11-cfc0-4602-a901-a052e3e7058a","system_id":"levelo_inurba_marseille","lat":43.3091,"lon":5.36856,"is_reserved":false,"is_disabled":false,"rental_uris":{"android":"levelo://app?vid=54513a11-cfc0-4602-a901-a052e3e7058a","ios":"levelo://app?vid=54513a11-cfc0-4602-a901-a052e3e7058a"},"vehicle_type_id":"4","last_reported":1729076855,"current_range_meters":6800,"station_id":"ce4bgn92rcd13ifvqbvg","pricing_plan_id":"cebpf4jnsgd1na2vs0mg"},{"bike_id":"a317d19b-3e4c-466d-b1f0-ad5b7ee20519","system_id":"levelo_inurba_marseille","lat":43.25941,"lon":5.409,"is_reserved":false,"is_disabled":false,"rental_uris":{"android":"levelo://app?vid=a317d19b-3e4c-466d-b1f0-ad5b7ee20519","ios":"levelo://app?vid=a317d19b-3e4c-466d-b1f0-ad5b7ee20519"},"vehicle_type_id":"4","last_reported":1729076855,"current_range_meters":8000,"station_id":"ce4bhm92rcd13ifvqglg","pricing_plan_id":"cebpf4jnsgd1na2vs0mg"},{"bike_id":"9df6f68d-0058-4a6e-838e-8f6554c459f5","system_id":"levelo_inurba_marseille","lat":43.27371,"lon":5.36261,"is_reserved":false,"is_disabled":false,"rental_uris":{"android":"levelo://app?vid=9df6f68d-0058-4a6e-838e-8f6554c459f5","ios":"levelo://app?vid=9df6f68d-0058-4a6e-838e-8f6554c459f5"},"vehicle_type_id":"4","last_reported":1729076855,"current_range_meters":20000,"station_id":"","pricing_plan_id":"cebpf4jnsgd1na2vs0mg"},{"bike_id":"aba75d2c-d3ab-4e4c-bf0c-d2a36cd039ba","system_id":"levelo_inurba_marseille","lat":43.24167,"lon":5.36394,"is_reserved":false,"is_disabled":false,"rental_uris":{"android":"levelo://app?vid=aba75d2c-d3ab-4e4c-bf0c-d2a36cd039ba","ios":"levelo://app?vid=aba75d2c-d3ab-4e4c-bf0c-d2a36cd039ba"},"vehicle_type_id":"4","last_reported":1729076855,"current_range_meters":34800,"station_id":"cpo36qri1sfpv3e86is0","pricing_plan_id":"cebpf4jnsgd1na2vs0mg"},{"bike_id":"f753014a-e02a-4cf3-9817-33330c7ddf67","system_id":"levelo_inurba_marseille","lat":43.27813,"lon":5.40707,"is_reserved":false,"is_disabled":false,"rental_uris":{"android":"levelo://app?vid=f753014a-e02a-4cf3-9817-33330c7ddf67","ios":"levelo://app?vid=f753014a-e02a-4cf3-9817-33330c7ddf67"},"vehicle_type_id":"4","last_reported":1729076855,"current_range_meters":38000,"station_id":"ce4bhnh2rcd13ifvqgtg","pricing_plan_id":"cebpf4jnsgd1na2vs0mg"},{"bike_id":"2cf64092-e430-478f-b5e3-11ceb9491d7d","system_id":"levelo_inurba_marseille","lat":43.26855,"lon":5.40312,"is_reserved":false,"is_disabled":false,"rental_uris":{"android":"levelo://app?vid=2cf64092-e430-478f-b5e3-11ceb9491d7d","ios":"levelo://app?vid=2cf64092-e430-478f-b5e3-11ceb9491d7d"},"vehicle_type_id":"4","last_reported":1729076855,"current_range_meters":24400,"station_id":"ce501612rcd8frsf0b60","pricing_plan_id":"cebpf4jnsgd1na2vs0mg"},{"bike_id":"e39c75fd-cfbd-4228-8182-5bf2886b2496","system_id":"levelo_inurba_marseille","lat":43.29531,"lon":5.3751,"is_reserved":false,"is_disabled":false,"rental_uris":{"android":"levelo://app?vid=e39c75fd-cfbd-4228-8182-5bf2886b2496","ios":"levelo://app?vid=e39c75fd-cfbd-4228-8182-5bf2886b2496"},"vehicle_type_id":"4","last_reported":1729076855,"current_range_meters":3600,"station_id":"ce4bgkp2rcd13ifvqbmg","pricing_plan_id":"cebpf4jnsgd1na2vs0mg"},{"bike_id":"042e5b40-9e97-45f4-843e-ff54af18e3a3","system_id":"levelo_inurba_marseille","lat":43.337444,"lon":5.374475,"is_reserved":false,"is_disabled":false,"rental_uris":{"android":"levelo://app?vid=042e5b40-9e97-45f4-843e-ff54af18e3a3","ios":"levelo://app?vid=042e5b40-9e97-45f4-843e-ff54af18e3a3"},"vehicle_type_id":"4","last_reported":1729076855,"current_range_meters":36400,"station_id":"","pricing_plan_id":"cebpf4jnsgd1na2vs0mg"},{"bike_id":"e40ecf43-661b-4835-a1f9-79d981dcc8d2","system_id":"levelo_inurba_marseille","lat":43.23179,"lon":5.39988,"is_reserved":false,"is_disabled":false,"rental_uris":{"android":"levelo://app?vid=e40ecf43-661b-4835-a1f9-79d981dcc8d2","ios":"levelo://app?vid=e40ecf43-661b-4835-a1f9-79d981dcc8d2"},"vehicle_type_id":"4","last_reported":1729076855,"current_range_meters":8000,"station_id":"ce4bhn12rcd13ifvqgqg","pricing_plan_id":"cebpf4jnsgd1na2vs0mg"},{"bike_id":"63112fcb-8b77-40e3-8dc0-1dbc5bcb222d","system_id":"levelo_inurba_marseille","lat":43.30617,"lon":5.37225,"is_reserved":false,"is_disabled":false,"rental_uris":{"android":"levelo://app?vid=63112fcb-8b77-40e3-8dc0-1dbc5bcb222d","ios":"levelo://app?vid=63112fcb-8b77-40e3-8dc0-1dbc5bcb222d"},"vehicle_type_id":"4","last_reported":1729076855,"current_range_meters":3200,"station_id":"ce4bgqh2rcd13ifvqc4g","pricing_plan_id":"cebpf4jnsgd1na2vs0mg"},{"bike_id":"1cdfa9b7-047a-4f70-a850-f0c8dc99bdc3","system_id":"levelo_inurba_marseille","lat":43.33027,"lon":5.39039,"is_reserved":false,"is_disabled":false,"rental_uris":{"android":"levelo://app?vid=1cdfa9b7-047a-4f70-a850-f0c8dc99bdc3","ios":"levelo://app?vid=1cdfa9b7-047a-4f70-a850-f0c8dc99bdc3"},"vehicle_type_id":"4","last_reported":1729076855,"current_range_meters":24800,"station_id":"ce4bhr92rcd13ifvqhrg","pricing_plan_id":"cebpf4jnsgd1na2vs0mg"},{"bike_id":"21ff517b-5ca6-4227-9d1e-de4fe6c3e6f1","system_id":"levelo_inurba_marseille","lat":43.29527,"lon":5.38537,"is_reserved":false,"is_disabled":false,"rental_uris":{"android":"levelo://app?vid=21ff517b-5ca6-4227-9d1e-de4fe6c3e6f1","ios":"levelo://app?vid=21ff517b-5ca6-4227-9d1e-de4fe6c3e6f1"},"vehicle_type_id":"4","last_reported":1729076855,"current_range_meters":28400,"station_id":"ce4bgih2rcd13ifvqba0","pricing_plan_id":"cebpf4jnsgd1na2vs0mg"},{"bike_id":"6100081d-7b36-4a68-b5b5-e334d0d5067e","system_id":"levelo_inurba_marseille","lat":43.27352,"lon":5.39309,"is_reserved":false,"is_disabled":false,"rental_uris":{"android":"levelo://app?vid=6100081d-7b36-4a68-b5b5-e334d0d5067e","ios":"levelo://app?vid=6100081d-7b36-4a68-b5b5-e334d0d5067e"},"vehicle_type_id":"4","last_reported":1729076855,"current_range_meters":33600,"station_id":"ce4bh392rcd13ifvqdm0","pricing_plan_id":"cebpf4jnsgd1na2vs0mg"},{"bike_id":"ff3ff89c-90e1-4cea-a563-3676aa9ef84a","system_id":"levelo_inurba_marseille","lat":43.30913,"lon":5.36848,"is_reserved":false,"is_disabled":false,"rental_uris":{"android":"levelo://app?vid=ff3ff89c-90e1-4cea-a563-3676aa9ef84a","ios":"levelo://app?vid=ff3ff89c-90e1-4cea-a563-3676aa9ef84a"},"vehicle_type_id":"4","last_reported":1729076855,"current_range_meters":33200,"station_id":"ce4bgn92rcd13ifvqbvg","pricing_plan_id":"cebpf4jnsgd1na2vs0mg"},{"bike_id":"11bb7ed5-1970-4a73-a794-e55c1684750f","system_id":"levelo_inurba_marseille","lat":43.2315,"lon":5.43716,"is_reserved":false,"is_disabled":false,"rental_uris":{"android":"levelo://app?vid=11bb7ed5-1970-4a73-a794-e55c1684750f","ios":"levelo://app?vid=11bb7ed5-1970-4a73-a794-e55c1684750f"},"vehicle_type_id":"4","last_reported":1729076855,"current_range_meters":38800,"station_id":"ce4bhmp2rcd13ifvqgog","pricing_plan_id":"cebpf4jnsgd1na2vs0mg"},{"bike_id":"7280bd97-fa5d-480e-be1d-72dbae3e4d09","system_id":"levelo_inurba_marseille","lat":43.29429,"lon":5.39773,"is_reserved":false,"is_disabled":false,"rental_uris":{"android":"levelo://app?vid=7280bd97-fa5d-480e-be1d-72dbae3e4d09","ios":"levelo://app?vid=7280bd97-fa5d-480e-be1d-72dbae3e4d09"},"vehicle_type_id":"4","last_reported":1729076855,"current_range_meters":33200,"station_id":"ce4bh3h2rcd13ifvqdo0","pricing_plan_id":"cebpf4jnsgd1na2vs0mg"},{"bike_id":"ea9bf9be-e376-437f-9532-e41765e758db","system_id":"levelo_inurba_marseille","lat":43.32336,"lon":5.40627,"is_reserved":false,"is_disabled":false,"rental_uris":{"android":"levelo://app?vid=ea9bf9be-e376-437f-9532-e41765e758db","ios":"levelo://app?vid=ea9bf9be-e376-437f-9532-e41765e758db"},"vehicle_type_id":"4","last_reported":1729076855,"current_range_meters":6400,"station_id":"ce4bhq92rcd13ifvqhjg","pricing_plan_id":"cebpf4jnsgd1na2vs0mg"},{"bike_id":"dc8e054a-04e3-42a8-ba26-00946484cca6","system_id":"levelo_inurba_marseille","lat":43.30153,"lon":5.38082,"is_reserved":false,"is_disabled":false,"rental_uris":{"android":"levelo://app?vid=dc8e054a-04e3-42a8-ba26-00946484cca6","ios":"levelo://app?vid=dc8e054a-04e3-42a8-ba26-00946484cca6"},"vehicle_type_id":"4","last_reported":1729076855,"current_range_meters":29600,"station_id":"ce4bgjp2rcd13ifvqbh0","pricing_plan_id":"cebpf4jnsgd1na2vs0mg"},{"bike_id":"75b6f66e-6846-4050-8eef-ebeae65acad0","system_id":"levelo_inurba_marseille","lat":43.30541,"lon":5.36549,"is_reserved":false,"is_disabled":false,"rental_uris":{"android":"levelo://app?vid=75b6f66e-6846-4050-8eef-ebeae65acad0","ios":"levelo://app?vid=75b6f66e-6846-4050-8eef-ebeae65acad0"},"vehicle_type_id":"4","last_reported":1729076855,"current_range_meters":36400,"station_id":"ce4bgs12rcd13ifvqcag","pricing_plan_id":"cebpf4jnsgd1na2vs0mg"},{"bike_id":"6044c304-800a-43c7-8fca-f2364c1dfe48","system_id":"levelo_inurba_marseille","lat":43.29911,"lon":5.37471,"is_reserved":false,"is_disabled":false,"rental_uris":{"android":"levelo://app?vid=6044c304-800a-43c7-8fca-f2364c1dfe48","ios":"levelo://app?vid=6044c304-800a-43c7-8fca-f2364c1dfe48"},"vehicle_type_id":"4","last_reported":1729076855,"current_range_meters":24400,"station_id":"ce4bgjh2rcd13ifvqbg0","pricing_plan_id":"cebpf4jnsgd1na2vs0mg"},{"bike_id":"96fd3dd3-96a0-4e12-bf5d-12292589addf","system_id":"levelo_inurba_marseille","lat":43.30544,"lon":5.36528,"is_reserved":false,"is_disabled":false,"rental_uris":{"android":"levelo://app?vid=96fd3dd3-96a0-4e12-bf5d-12292589addf","ios":"levelo://app?vid=96fd3dd3-96a0-4e12-bf5d-12292589addf"},"vehicle_type_id":"4","last_reported":1729076855,"current_range_meters":28800,"station_id":"ce4bgs12rcd13ifvqcag","pricing_plan_id":"cebpf4jnsgd1na2vs0mg"},{"bike_id":"842bdfb8-cce6-4db6-b51d-7b5c18cbbc1e","system_id":"levelo_inurba_marseille","lat":43.23151,"lon":5.43703,"is_reserved":false,"is_disabled":false,"rental_uris":{"android":"levelo://app?vid=842bdfb8-cce6-4db6-b51d-7b5c18cbbc1e","ios":"levelo://app?vid=842bdfb8-cce6-4db6-b51d-7b5c18cbbc1e"},"vehicle_type_id":"4","last_reported":1729076855,"current_range_meters":12800,"station_id":"ce4bhmp2rcd13ifvqgog","pricing_plan_id":"cebpf4jnsgd1na2vs0mg"},{"bike_id":"65970ebc-4be4-4430-a073-be02e46c94d4","system_id":"levelo_inurba_marseille","lat":43.26806,"lon":5.40273,"is_reserved":false,"is_disabled":false,"rental_uris":{"android":"levelo://app?vid=65970ebc-4be4-4430-a073-be02e46c94d4","ios":"levelo://app?vid=65970ebc-4be4-4430-a073-be02e46c94d4"},"vehicle_type_id":"4","last_reported":1729076855,"current_range_meters":37600,"station_id":"ce501612rcd8frsf0b60","pricing_plan_id":"cebpf4jnsgd1na2vs0mg"},{"bike_id":"6a55c702-182a-4fce-8b15-ca03c3e18e91","system_id":"levelo_inurba_marseille","lat":43.33771,"lon":5.37448,"is_reserved":false,"is_disabled":false,"rental_uris":{"android":"levelo://app?vid=6a55c702-182a-4fce-8b15-ca03c3e18e91","ios":"levelo://app?vid=6a55c702-182a-4fce-8b15-ca03c3e18e91"},"vehicle_type_id":"4","last_reported":1729076855,"current_range_meters":28000,"station_id":"","pricing_plan_id":"cebpf4jnsgd1na2vs0mg"},{"bike_id":"5b4ec8bc-55d1-4747-8188-56cff7dc5a73","system_id":"levelo_inurba_marseille","lat":43.28562,"lon":5.395,"is_reserved":false,"is_disabled":false,"rental_uris":{"android":"levelo://app?vid=5b4ec8bc-55d1-4747-8188-56cff7dc5a73","ios":"levelo://app?vid=5b4ec8bc-55d1-4747-8188-56cff7dc5a73"},"vehicle_type_id":"4","last_reported":1729076855,"current_range_meters":6400,"station_id":"ce4bh292rcd13ifvqdg0","pricing_plan_id":"cebpf4jnsgd1na2vs0mg"},{"bike_id":"d589b491-11fc-4cab-adf4-8c1ce657f2af","system_id":"levelo_inurba_marseille","lat":43.31754,"lon":5.39016,"is_reserved":false,"is_disabled":false,"rental_uris":{"android":"levelo://app?vid=d589b491-11fc-4cab-adf4-8c1ce657f2af","ios":"levelo://app?vid=d589b491-11fc-4cab-adf4-8c1ce657f2af"},"vehicle_type_id":"4","last_reported":1729076855,"current_range_meters":33600,"station_id":"ce4bhqp2rcd13ifvqhng","pricing_plan_id":"cebpf4jnsgd1na2vs0mg"},{"bike_id":"9fa3ef6c-b54a-4cce-8b58-0d61f05ad393","system_id":"levelo_inurba_marseille","lat":43.31666,"lon":5.41599,"is_reserved":false,"is_disabled":false,"rental_uris":{"android":"levelo://app?vid=9fa3ef6c-b54a-4cce-8b58-0d61f05ad393","ios":"levelo://app?vid=9fa3ef6c-b54a-4cce-8b58-0d61f05ad393"},"vehicle_type_id":"4","last_reported":1729076855,"current_range_meters":3200,"station_id":"ce4bhp92rcd13ifvqhcg","pricing_plan_id":"cebpf4jnsgd1na2vs0mg"},{"bike_id":"6dc5b725-0b8c-49b8-a19b-3f297b3f6f14","system_id":"levelo_inurba_marseille","lat":43.25933,"lon":5.40914,"is_reserved":false,"is_disabled":false,"rental_uris":{"android":"levelo://app?vid=6dc5b725-0b8c-49b8-a19b-3f297b3f6f14","ios":"levelo://app?vid=6dc5b725-0b8c-49b8-a19b-3f297b3f6f14"},"vehicle_type_id":"4","last_reported":1729076855,"current_range_meters":38400,"station_id":"ce4bhm92rcd13ifvqglg","pricing_plan_id":"cebpf4jnsgd1na2vs0mg"},{"bike_id":"8a7678c7-f9ba-405a-acf9-9a3cfe8f6d47","system_id":"levelo_inurba_marseille","lat":43.28947,"lon":5.36636,"is_reserved":false,"is_disabled":false,"rental_uris":{"android":"levelo://app?vid=8a7678c7-f9ba-405a-acf9-9a3cfe8f6d47","ios":"levelo://app?vid=8a7678c7-f9ba-405a-acf9-9a3cfe8f6d47"},"vehicle_type_id":"4","last_reported":1729076855,"current_range_meters":15200,"station_id":"ce4bhap2rcd13ifvqek0","pricing_plan_id":"cebpf4jnsgd1na2vs0mg"},{"bike_id":"6a2a4d38-1f36-43f5-afa4-e9c71e81c95d","system_id":"levelo_inurba_marseille","lat":43.285919,"lon":5.398724,"is_reserved":false,"is_disabled":false,"rental_uris":{"android":"levelo://app?vid=6a2a4d38-1f36-43f5-afa4-e9c71e81c95d","ios":"levelo://app?vid=6a2a4d38-1f36-43f5-afa4-e9c71e81c95d"},"vehicle_type_id":"4","last_reported":1729076855,"current_range_meters":33600,"station_id":"ce4bho12rcd13ifvqh2g","pricing_plan_id":"cebpf4jnsgd1na2vs0mg"},{"bike_id":"c9a76ef6-f819-4166-83ee-0a5f69f525d7","system_id":"levelo_inurba_marseille","lat":43.29967,"lon":5.37194,"is_reserved":false,"is_disabled":false,"rental_uris":{"android":"levelo://app?vid=c9a76ef6-f819-4166-83ee-0a5f69f525d7","ios":"levelo://app?vid=c9a76ef6-f819-4166-83ee-0a5f69f525d7"},"vehicle_type_id":"4","last_reported":1729076855,"current_range_meters":30000,"station_id":"ce4bgr92rcd13ifvqc7g","pricing_plan_id":"cebpf4jnsgd1na2vs0mg"},{"bike_id":"43ef6191-1da4-4fab-ad02-553d29a8e7e7","system_id":"levelo_inurba_marseille","lat":43.24651,"lon":5.389,"is_reserved":false,"is_disabled":false,"rental_uris":{"android":"levelo://app?vid=43ef6191-1da4-4fab-ad02-553d29a8e7e7","ios":"levelo://app?vid=43ef6191-1da4-4fab-ad02-553d29a8e7e7"},"vehicle_type_id":"4","last_reported":1729076855,"current_range_meters":38800,"station_id":"ce4bhg12rcd13ifvqf60","pricing_plan_id":"cebpf4jnsgd1na2vs0mg"},{"bike_id":"b79b2f79-e993-4b0f-867d-5dcbfdfbbe53","system_id":"levelo_inurba_marseille","lat":43.28707,"lon":5.39986,"is_reserved":false,"is_disabled":false,"rental_uris":{"android":"levelo://app?vid=b79b2f79-e993-4b0f-867d-5dcbfdfbbe53","ios":"levelo://app?vid=b79b2f79-e993-4b0f-867d-5dcbfdfbbe53"},"vehicle_type_id":"4","last_reported":1729076855,"current_range_meters":25200,"station_id":"ce4bho92rcd13ifvqh3g","pricing_plan_id":"cebpf4jnsgd1na2vs0mg"},{"bike_id":"cb460062-7f74-4bce-ac10-fb3ed8ed3441","system_id":"levelo_inurba_marseille","lat":43.306,"lon":5.37209,"is_reserved":false,"is_disabled":false,"rental_uris":{"android":"levelo://app?vid=cb460062-7f74-4bce-ac10-fb3ed8ed3441","ios":"levelo://app?vid=cb460062-7f74-4bce-ac10-fb3ed8ed3441"},"vehicle_type_id":"4","last_reported":1729076855,"current_range_meters":24400,"station_id":"ce4bgqh2rcd13ifvqc4g","pricing_plan_id":"cebpf4jnsgd1na2vs0mg"},{"bike_id":"eb7fbeec-0f7e-459f-9297-4e673e13228d","system_id":"levelo_inurba_marseille","lat":43.29585,"lon":5.36738,"is_reserved":false,"is_disabled":false,"rental_uris":{"android":"levelo://app?vid=eb7fbeec-0f7e-459f-9297-4e673e13228d","ios":"levelo://app?vid=eb7fbeec-0f7e-459f-9297-4e673e13228d"},"vehicle_type_id":"4","last_reported":1729076855,"current_range_meters":36800,"station_id":"ce4bgph2rcd13ifvqc2g","pricing_plan_id":"cebpf4jnsgd1na2vs0mg"},{"bike_id":"ca0163ac-d25a-437e-9b06-c3be4e515504","system_id":"levelo_inurba_marseille","lat":43.30323,"lon":5.36895,"is_reserved":false,"is_disabled":false,"rental_uris":{"android":"levelo://app?vid=ca0163ac-d25a-437e-9b06-c3be4e515504","ios":"levelo://app?vid=ca0163ac-d25a-437e-9b06-c3be4e515504"},"vehicle_type_id":"4","last_reported":1729076855,"current_range_meters":34800,"station_id":"ce4bgqh2rcd13ifvqc5g","pricing_plan_id":"cebpf4jnsgd1na2vs0mg"},{"bike_id":"3d345541-8cc4-4a78-8d79-d41d0d8fd35c","system_id":"levelo_inurba_marseille","lat":43.2594,"lon":5.40904,"is_reserved":false,"is_disabled":false,"rental_uris":{"android":"levelo://app?vid=3d345541-8cc4-4a78-8d79-d41d0d8fd35c","ios":"levelo://app?vid=3d345541-8cc4-4a78-8d79-d41d0d8fd35c"},"vehicle_type_id":"4","last_reported":1729076855,"current_range_meters":23200,"station_id":"ce4bhm92rcd13ifvqglg","pricing_plan_id":"cebpf4jnsgd1na2vs0mg"},{"bike_id":"57fa9f76-c7d4-4b74-96fe-4bb481ced862","system_id":"levelo_inurba_marseille","lat":43.2956,"lon":5.42287,"is_reserved":false,"is_disabled":false,"rental_uris":{"android":"levelo://app?vid=57fa9f76-c7d4-4b74-96fe-4bb481ced862","ios":"levelo://app?vid=57fa9f76-c7d4-4b74-96fe-4bb481ced862"},"vehicle_type_id":"4","last_reported":1729076855,"current_range_meters":38800,"station_id":"ce4bhph2rcd13ifvqhdg","pricing_plan_id":"cebpf4jnsgd1na2vs0mg"},{"bike_id":"b3414e9f-e991-44cb-8362-0a7d75f1ca79","system_id":"levelo_inurba_marseille","lat":43.30315,"lon":5.36904,"is_reserved":false,"is_disabled":false,"rental_uris":{"android":"levelo://app?vid=b3414e9f-e991-44cb-8362-0a7d75f1ca79","ios":"levelo://app?vid=b3414e9f-e991-44cb-8362-0a7d75f1ca79"},"vehicle_type_id":"4","last_reported":1729076855,"current_range_meters":38800,"station_id":"ce4bgqh2rcd13ifvqc5g","pricing_plan_id":"cebpf4jnsgd1na2vs0mg"},{"bike_id":"0556570b-fa23-40bf-88c3-461f9ef7906e","system_id":"levelo_inurba_marseille","lat":43.28074,"lon":5.39661,"is_reserved":false,"is_disabled":false,"rental_uris":{"android":"levelo://app?vid=0556570b-fa23-40bf-88c3-461f9ef7906e","ios":"levelo://app?vid=0556570b-fa23-40bf-88c3-461f9ef7906e"},"vehicle_type_id":"4","last_reported":1729076855,"current_range_meters":35600,"station_id":"ce4bho12rcd13ifvqh2g","pricing_plan_id":"cebpf4jnsgd1na2vs0mg"},{"bike_id":"2c82f2ba-4783-46a4-badf-7e02ac73c778","system_id":"levelo_inurba_marseille","lat":43.2694,"lon":5.40256,"is_reserved":false,"is_disabled":false,"rental_uris":{"android":"levelo://app?vid=2c82f2ba-4783-46a4-badf-7e02ac73c778","ios":"levelo://app?vid=2c82f2ba-4783-46a4-badf-7e02ac73c778"},"vehicle_type_id":"4","last_reported":1729076855,"current_range_meters":11600,"station_id":"cjm6bp8fraef2m0cb0m0","pricing_plan_id":"cebpf4jnsgd1na2vs0mg"},{"bike_id":"79b3f0f2-b593-4cb5-a001-1c856292dfd1","system_id":"levelo_inurba_marseille","lat":43.33758,"lon":5.3745,"is_reserved":false,"is_disabled":false,"rental_uris":{"android":"levelo://app?vid=79b3f0f2-b593-4cb5-a001-1c856292dfd1","ios":"levelo://app?vid=79b3f0f2-b593-4cb5-a001-1c856292dfd1"},"vehicle_type_id":"4","last_reported":1729076855,"current_range_meters":36000,"station_id":"","pricing_plan_id":"cebpf4jnsgd1na2vs0mg"},{"bike_id":"d7b15f9f-d964-4112-a4ea-f29211a10e92","system_id":"levelo_inurba_marseille","lat":43.30582,"lon":5.39363,"is_reserved":false,"is_disabled":false,"rental_uris":{"android":"levelo://app?vid=d7b15f9f-d964-4112-a4ea-f29211a10e92","ios":"levelo://app?vid=d7b15f9f-d964-4112-a4ea-f29211a10e92"},"vehicle_type_id":"4","last_reported":1729076855,"current_range_meters":38000,"station_id":"ce4bh0p2rcd13ifvqd80","pricing_plan_id":"cebpf4jnsgd1na2vs0mg"},{"bike_id":"b325087f-6118-4ad4-b60f-bacfc8d667c5","system_id":"levelo_inurba_marseille","lat":43.30911,"lon":5.36855,"is_reserved":false,"is_disabled":false,"rental_uris":{"android":"levelo://app?vid=b325087f-6118-4ad4-b60f-bacfc8d667c5","ios":"levelo://app?vid=b325087f-6118-4ad4-b60f-bacfc8d667c5"},"vehicle_type_id":"4","last_reported":1729076855,"current_range_meters":38800,"station_id":"ce4bgn92rcd13ifvqbvg","pricing_plan_id":"cebpf4jnsgd1na2vs0mg"},{"bike_id":"eb4d068d-4e02-4700-b2db-40b6e22f6e8a","system_id":"levelo_inurba_marseille","lat":43.29965,"lon":5.41327,"is_reserved":false,"is_disabled":false,"rental_uris":{"android":"levelo://app?vid=eb4d068d-4e02-4700-b2db-40b6e22f6e8a","ios":"levelo://app?vid=eb4d068d-4e02-4700-b2db-40b6e22f6e8a"},"vehicle_type_id":"4","last_reported":1729076855,"current_range_meters":11600,"station_id":"ce4bhp12rcd13ifvqh9g","pricing_plan_id":"cebpf4jnsgd1na2vs0mg"},{"bike_id":"a5fb3a9d-0c3c-4c1c-b79f-b40bdb914263","system_id":"levelo_inurba_marseille","lat":43.30306,"lon":5.36894,"is_reserved":false,"is_disabled":false,"rental_uris":{"android":"levelo://app?vid=a5fb3a9d-0c3c-4c1c-b79f-b40bdb914263","ios":"levelo://app?vid=a5fb3a9d-0c3c-4c1c-b79f-b40bdb914263"},"vehicle_type_id":"4","last_reported":1729076855,"current_range_meters":19600,"station_id":"ce4bgqh2rcd13ifvqc5g","pricing_plan_id":"cebpf4jnsgd1na2vs0mg"},{"bike_id":"2bb073ce-a924-4d91-8b13-40c473aad986","system_id":"levelo_inurba_marseille","lat":43.28284,"lon":5.35061,"is_reserved":false,"is_disabled":false,"rental_uris":{"android":"levelo://app?vid=2bb073ce-a924-4d91-8b13-40c473aad986","ios":"levelo://app?vid=2bb073ce-a924-4d91-8b13-40c473aad986"},"vehicle_type_id":"4","last_reported":1729076855,"current_range_meters":8800,"station_id":"ce4bhbp2rcd13ifvqerg","pricing_plan_id":"cebpf4jnsgd1na2vs0mg"},{"bike_id":"82839dde-793a-4337-a27e-53bd73586842","system_id":"levelo_inurba_marseille","lat":43.31488,"lon":5.37314,"is_reserved":false,"is_disabled":false,"rental_uris":{"android":"levelo://app?vid=82839dde-793a-4337-a27e-53bd73586842","ios":"levelo://app?vid=82839dde-793a-4337-a27e-53bd73586842"},"vehicle_type_id":"4","last_reported":1729076855,"current_range_meters":2000,"station_id":"ce4bgt12rcd13ifvqcd0","pricing_plan_id":"cebpf4jnsgd1na2vs0mg"},{"bike_id":"b6fc29cc-6bb4-4dc3-8ead-abe98d201ac0","system_id":"levelo_inurba_marseille","lat":43.29527,"lon":5.37523,"is_reserved":false,"is_disabled":false,"rental_uris":{"android":"levelo://app?vid=b6fc29cc-6bb4-4dc3-8ead-abe98d201ac0","ios":"levelo://app?vid=b6fc29cc-6bb4-4dc3-8ead-abe98d201ac0"},"vehicle_type_id":"4","last_reported":1729076855,"current_range_meters":35600,"station_id":"ce4bgkp2rcd13ifvqbmg","pricing_plan_id":"cebpf4jnsgd1na2vs0mg"},{"bike_id":"f30061df-c8bf-4343-8146-8401c08003b8","system_id":"levelo_inurba_marseille","lat":43.30929,"lon":5.40151,"is_reserved":false,"is_disabled":false,"rental_uris":{"android":"levelo://app?vid=f30061df-c8bf-4343-8146-8401c08003b8","ios":"levelo://app?vid=f30061df-c8bf-4343-8146-8401c08003b8"},"vehicle_type_id":"4","last_reported":1729076855,"current_range_meters":3600,"station_id":"ce4bgvp2rcd13ifvqct0","pricing_plan_id":"cebpf4jnsgd1na2vs0mg"},{"bike_id":"ce77a8fc-cd13-4c55-a8bc-0027939116db","system_id":"levelo_inurba_marseille","lat":43.26383,"lon":5.39242,"is_reserved":false,"is_disabled":false,"rental_uris":{"android":"levelo://app?vid=ce77a8fc-cd13-4c55-a8bc-0027939116db","ios":"levelo://app?vid=ce77a8fc-cd13-4c55-a8bc-0027939116db"},"vehicle_type_id":"4","last_reported":1729076855,"current_range_meters":36000,"station_id":"","pricing_plan_id":"cebpf4jnsgd1na2vs0mg"},{"bike_id":"8b89f175-d99c-4443-af38-c4cd2535f07b","system_id":"levelo_inurba_marseille","lat":43.30917,"lon":5.38679,"is_reserved":false,"is_disabled":false,"rental_uris":{"android":"levelo://app?vid=8b89f175-d99c-4443-af38-c4cd2535f07b","ios":"levelo://app?vid=8b89f175-d99c-4443-af38-c4cd2535f07b"},"vehicle_type_id":"4","last_reported":1729076855,"current_range_meters":38000,"station_id":"","pricing_plan_id":"cebpf4jnsgd1na2vs0mg"},{"bike_id":"ac2a1f1b-2715-4439-8ded-cb0fd1c865ae","system_id":"levelo_inurba_marseille","lat":43.29579,"lon":5.375,"is_reserved":false,"is_disabled":false,"rental_uris":{"android":"levelo://app?vid=ac2a1f1b-2715-4439-8ded-cb0fd1c865ae","ios":"levelo://app?vid=ac2a1f1b-2715-4439-8ded-cb0fd1c865ae"},"vehicle_type_id":"4","last_reported":1729076855,"current_range_meters":26000,"station_id":"ce4bgh92rcd13ifvqb50","pricing_plan_id":"cebpf4jnsgd1na2vs0mg"},{"bike_id":"3b769571-68da-4ffe-9443-47c7607c75eb","system_id":"levelo_inurba_marseille","lat":43.26557,"lon":5.37284,"is_reserved":false,"is_disabled":false,"rental_uris":{"android":"levelo://app?vid=3b769571-68da-4ffe-9443-47c7607c75eb","ios":"levelo://app?vid=3b769571-68da-4ffe-9443-47c7607c75eb"},"vehicle_type_id":"4","last_reported":1729076855,"current_range_meters":4800,"station_id":"ce4bhg12rcd13ifvqf70","pricing_plan_id":"cebpf4jnsgd1na2vs0mg"},{"bike_id":"47d20b91-5d0d-4f15-882a-70feb547e2ea","system_id":"levelo_inurba_marseille","lat":43.30459,"lon":5.40183,"is_reserved":false,"is_disabled":false,"rental_uris":{"android":"levelo://app?vid=47d20b91-5d0d-4f15-882a-70feb547e2ea","ios":"levelo://app?vid=47d20b91-5d0d-4f15-882a-70feb547e2ea"},"vehicle_type_id":"4","last_reported":1729076855,"current_range_meters":8000,"station_id":"","pricing_plan_id":"cebpf4jnsgd1na2vs0mg"},{"bike_id":"4ab36224-cf4f-495e-8f06-8fdb8c4fcdae","system_id":"levelo_inurba_marseille","lat":43.25503,"lon":5.37655,"is_reserved":false,"is_disabled":false,"rental_uris":{"android":"levelo://app?vid=4ab36224-cf4f-495e-8f06-8fdb8c4fcdae","ios":"levelo://app?vid=4ab36224-cf4f-495e-8f06-8fdb8c4fcdae"},"vehicle_type_id":"4","last_reported":1729076855,"current_range_meters":37600,"station_id":"ce4bhh12rcd13ifvqff0","pricing_plan_id":"cebpf4jnsgd1na2vs0mg"},{"bike_id":"fa7bbdc9-afbe-404d-8676-647037cc76a9","system_id":"levelo_inurba_marseille","lat":43.23194,"lon":5.3555,"is_reserved":false,"is_disabled":false,"rental_uris":{"android":"levelo://app?vid=fa7bbdc9-afbe-404d-8676-647037cc76a9","ios":"levelo://app?vid=fa7bbdc9-afbe-404d-8676-647037cc76a9"},"vehicle_type_id":"4","last_reported":1729076855,"current_range_meters":38000,"station_id":"ce4bhu92rcd13ifvqi70","pricing_plan_id":"cebpf4jnsgd1na2vs0mg"},{"bike_id":"32501ea2-8453-4b95-8feb-dec911f93d08","system_id":"levelo_inurba_marseille","lat":43.32447,"lon":5.36577,"is_reserved":false,"is_disabled":false,"rental_uris":{"android":"levelo://app?vid=32501ea2-8453-4b95-8feb-dec911f93d08","ios":"levelo://app?vid=32501ea2-8453-4b95-8feb-dec911f93d08"},"vehicle_type_id":"4","last_reported":1729076855,"current_range_meters":12400,"station_id":"ce4bhs12rcd13ifvqhvg","pricing_plan_id":"cebpf4jnsgd1na2vs0mg"},{"bike_id":"931ad2f4-35ea-42b5-bc1a-1fdec477398a","system_id":"levelo_inurba_marseille","lat":43.337444,"lon":5.374475,"is_reserved":false,"is_disabled":false,"rental_uris":{"android":"levelo://app?vid=931ad2f4-35ea-42b5-bc1a-1fdec477398a","ios":"levelo://app?vid=931ad2f4-35ea-42b5-bc1a-1fdec477398a"},"vehicle_type_id":"4","last_reported":1729076855,"current_range_meters":38800,"station_id":"","pricing_plan_id":"cebpf4jnsgd1na2vs0mg"},{"bike_id":"8d2848aa-72ce-4024-b312-5a0a36f04b2e","system_id":"levelo_inurba_marseille","lat":43.29627,"lon":5.40602,"is_reserved":false,"is_disabled":false,"rental_uris":{"android":"levelo://app?vid=8d2848aa-72ce-4024-b312-5a0a36f04b2e","ios":"levelo://app?vid=8d2848aa-72ce-4024-b312-5a0a36f04b2e"},"vehicle_type_id":"4","last_reported":1729076855,"current_range_meters":4000,"station_id":"ce4bh0h2rcd13ifvqd60","pricing_plan_id":"cebpf4jnsgd1na2vs0mg"},{"bike_id":"a70fbd86-822d-4165-855c-c9b0e8e6ed92","system_id":"levelo_inurba_marseille","lat":43.306,"lon":5.39369,"is_reserved":false,"is_disabled":false,"rental_uris":{"android":"levelo://app?vid=a70fbd86-822d-4165-855c-c9b0e8e6ed92","ios":"levelo://app?vid=a70fbd86-822d-4165-855c-c9b0e8e6ed92"},"vehicle_type_id":"4","last_reported":1729076855,"current_range_meters":15200,"station_id":"ce4bh0p2rcd13ifvqd80","pricing_plan_id":"cebpf4jnsgd1na2vs0mg"},{"bike_id":"b423f153-ab24-417e-9846-d05f8811215e","system_id":"levelo_inurba_marseille","lat":43.29965,"lon":5.41326,"is_reserved":false,"is_disabled":false,"rental_uris":{"android":"levelo://app?vid=b423f153-ab24-417e-9846-d05f8811215e","ios":"levelo://app?vid=b423f153-ab24-417e-9846-d05f8811215e"},"vehicle_type_id":"4","last_reported":1729076855,"current_range_meters":37600,"station_id":"ce4bhp12rcd13ifvqh9g","pricing_plan_id":"cebpf4jnsgd1na2vs0mg"},{"bike_id":"81e32d4e-df25-4349-90c7-1831752870c9","system_id":"levelo_inurba_marseille","lat":43.27948,"lon":5.41047,"is_reserved":false,"is_disabled":false,"rental_uris":{"android":"levelo://app?vid=81e32d4e-df25-4349-90c7-1831752870c9","ios":"levelo://app?vid=81e32d4e-df25-4349-90c7-1831752870c9"},"vehicle_type_id":"4","last_reported":1729076855,"current_range_meters":35600,"station_id":"ce4bhnp2rcd13ifvqh0g","pricing_plan_id":"cebpf4jnsgd1na2vs0mg"},{"bike_id":"2d498f0e-0dcd-4765-bdaf-57c32da9eb40","system_id":"levelo_inurba_marseille","lat":43.32658,"lon":5.40994,"is_reserved":false,"is_disabled":false,"rental_uris":{"android":"levelo://app?vid=2d498f0e-0dcd-4765-bdaf-57c32da9eb40","ios":"levelo://app?vid=2d498f0e-0dcd-4765-bdaf-57c32da9eb40"},"vehicle_type_id":"4","last_reported":1729076855,"current_range_meters":13600,"station_id":"ce4bhpp2rcd13ifvqhgg","pricing_plan_id":"cebpf4jnsgd1na2vs0mg"},{"bike_id":"f43f636f-8f6c-440b-bc7f-c9b07c2521ef","system_id":"levelo_inurba_marseille","lat":43.33761,"lon":5.3747,"is_reserved":false,"is_disabled":false,"rental_uris":{"android":"levelo://app?vid=f43f636f-8f6c-440b-bc7f-c9b07c2521ef","ios":"levelo://app?vid=f43f636f-8f6c-440b-bc7f-c9b07c2521ef"},"vehicle_type_id":"4","last_reported":1729076855,"current_range_meters":24800,"station_id":"","pricing_plan_id":"cebpf4jnsgd1na2vs0mg"},{"bike_id":"c33e22ea-364b-412d-ad1a-a7cb5715d963","system_id":"levelo_inurba_marseille","lat":43.3078,"lon":5.37659,"is_reserved":false,"is_disabled":false,"rental_uris":{"android":"levelo://app?vid=c33e22ea-364b-412d-ad1a-a7cb5715d963","ios":"levelo://app?vid=c33e22ea-364b-412d-ad1a-a7cb5715d963"},"vehicle_type_id":"4","last_reported":1729076855,"current_range_meters":37600,"station_id":"ce4bgv92rcd13ifvqcq0","pricing_plan_id":"cebpf4jnsgd1na2vs0mg"},{"bike_id":"968d0445-611c-45d9-a597-b0a86f014e1b","system_id":"levelo_inurba_marseille","lat":43.3014,"lon":5.37423,"is_reserved":false,"is_disabled":false,"rental_uris":{"android":"levelo://app?vid=968d0445-611c-45d9-a597-b0a86f014e1b","ios":"levelo://app?vid=968d0445-611c-45d9-a597-b0a86f014e1b"},"vehicle_type_id":"4","last_reported":1729076855,"current_range_meters":30800,"station_id":"ce4bgs92rcd13ifvqcc0","pricing_plan_id":"cebpf4jnsgd1na2vs0mg"},{"bike_id":"5d4185c5-efd5-458a-89de-9f5bf51cb954","system_id":"levelo_inurba_marseille","lat":43.25935,"lon":5.40897,"is_reserved":false,"is_disabled":false,"rental_uris":{"android":"levelo://app?vid=5d4185c5-efd5-458a-89de-9f5bf51cb954","ios":"levelo://app?vid=5d4185c5-efd5-458a-89de-9f5bf51cb954"},"vehicle_type_id":"4","last_reported":1729076855,"current_range_meters":28000,"station_id":"ce4bhm92rcd13ifvqglg","pricing_plan_id":"cebpf4jnsgd1na2vs0mg"},{"bike_id":"f3c1853e-8b8e-47e4-8746-d00e45b18cdc","system_id":"levelo_inurba_marseille","lat":43.32477,"lon":5.36562,"is_reserved":false,"is_disabled":false,"rental_uris":{"android":"levelo://app?vid=f3c1853e-8b8e-47e4-8746-d00e45b18cdc","ios":"levelo://app?vid=f3c1853e-8b8e-47e4-8746-d00e45b18cdc"},"vehicle_type_id":"4","last_reported":1729076855,"current_range_meters":38800,"station_id":"ce4bhs12rcd13ifvqhvg","pricing_plan_id":"cebpf4jnsgd1na2vs0mg"},{"bike_id":"03b52a53-4015-42f1-a46b-0d68e4ef1cf1","system_id":"levelo_inurba_marseille","lat":43.30535,"lon":5.36703,"is_reserved":false,"is_disabled":false,"rental_uris":{"android":"levelo://app?vid=03b52a53-4015-42f1-a46b-0d68e4ef1cf1","ios":"levelo://app?vid=03b52a53-4015-42f1-a46b-0d68e4ef1cf1"},"vehicle_type_id":"4","last_reported":1729076855,"current_range_meters":39200,"station_id":"ce4bgrp2rcd13ifvqc9g","pricing_plan_id":"cebpf4jnsgd1na2vs0mg"},{"bike_id":"1421a268-a231-42d3-970d-48ed4fd2cbe0","system_id":"levelo_inurba_marseille","lat":43.285711,"lon":5.395026,"is_reserved":false,"is_disabled":false,"rental_uris":{"android":"levelo://app?vid=1421a268-a231-42d3-970d-48ed4fd2cbe0","ios":"levelo://app?vid=1421a268-a231-42d3-970d-48ed4fd2cbe0"},"vehicle_type_id":"4","last_reported":1729076855,"current_range_meters":10800,"station_id":"ce4bh292rcd13ifvqdg0","pricing_plan_id":"cebpf4jnsgd1na2vs0mg"},{"bike_id":"85d70bc7-a693-4e9a-8b91-709d878d62cc","system_id":"levelo_inurba_marseille","lat":43.27821,"lon":5.40715,"is_reserved":false,"is_disabled":false,"rental_uris":{"android":"levelo://app?vid=85d70bc7-a693-4e9a-8b91-709d878d62cc","ios":"levelo://app?vid=85d70bc7-a693-4e9a-8b91-709d878d62cc"},"vehicle_type_id":"4","last_reported":1729076855,"current_range_meters":26800,"station_id":"ce4bhnh2rcd13ifvqgtg","pricing_plan_id":"cebpf4jnsgd1na2vs0mg"},{"bike_id":"7e662930-0d98-4e7c-8128-e90cc7f48f0e","system_id":"levelo_inurba_marseille","lat":43.29527,"lon":5.39037,"is_reserved":false,"is_disabled":false,"rental_uris":{"android":"levelo://app?vid=7e662930-0d98-4e7c-8128-e90cc7f48f0e","ios":"levelo://app?vid=7e662930-0d98-4e7c-8128-e90cc7f48f0e"},"vehicle_type_id":"4","last_reported":1729076855,"current_range_meters":24000,"station_id":"ce4bh3p2rcd13ifvqdp0","pricing_plan_id":"cebpf4jnsgd1na2vs0mg"},{"bike_id":"ffbc9a8b-06a3-43cf-a342-6c9c26fd244b","system_id":"levelo_inurba_marseille","lat":43.30137,"lon":5.37418,"is_reserved":false,"is_disabled":false,"rental_uris":{"android":"levelo://app?vid=ffbc9a8b-06a3-43cf-a342-6c9c26fd244b","ios":"levelo://app?vid=ffbc9a8b-06a3-43cf-a342-6c9c26fd244b"},"vehicle_type_id":"4","last_reported":1729076855,"current_range_meters":30000,"station_id":"ce4bgs92rcd13ifvqcc0","pricing_plan_id":"cebpf4jnsgd1na2vs0mg"},{"bike_id":"dd6b924a-955c-4c54-8be2-682ae2520b81","system_id":"levelo_inurba_marseille","lat":43.32052,"lon":5.41554,"is_reserved":false,"is_disabled":false,"rental_uris":{"android":"levelo://app?vid=dd6b924a-955c-4c54-8be2-682ae2520b81","ios":"levelo://app?vid=dd6b924a-955c-4c54-8be2-682ae2520b81"},"vehicle_type_id":"4","last_reported":1729076855,"current_range_meters":9600,"station_id":"ce4bhq92rcd13ifvqhkg","pricing_plan_id":"cebpf4jnsgd1na2vs0mg"},{"bike_id":"c60e07dd-e495-49d2-bf5a-07d7a7991b7e","system_id":"levelo_inurba_marseille","lat":43.32657,"lon":5.40997,"is_reserved":false,"is_disabled":false,"rental_uris":{"android":"levelo://app?vid=c60e07dd-e495-49d2-bf5a-07d7a7991b7e","ios":"levelo://app?vid=c60e07dd-e495-49d2-bf5a-07d7a7991b7e"},"vehicle_type_id":"4","last_reported":1729076855,"current_range_meters":38000,"station_id":"ce4bhpp2rcd13ifvqhgg","pricing_plan_id":"cebpf4jnsgd1na2vs0mg"},{"bike_id":"2745a8af-a7e7-4030-a9cc-f271e33ade0c","system_id":"levelo_inurba_marseille","lat":43.30944,"lon":5.39045,"is_reserved":false,"is_disabled":false,"rental_uris":{"android":"levelo://app?vid=2745a8af-a7e7-4030-a9cc-f271e33ade0c","ios":"levelo://app?vid=2745a8af-a7e7-4030-a9cc-f271e33ade0c"},"vehicle_type_id":"4","last_reported":1729076855,"current_range_meters":24400,"station_id":"ce4bgup2rcd13ifvqco0","pricing_plan_id":"cebpf4jnsgd1na2vs0mg"},{"bike_id":"a3d00d5a-741f-48cd-acd5-d6b1bea47400","system_id":"levelo_inurba_marseille","lat":43.31228,"lon":5.3685,"is_reserved":false,"is_disabled":false,"rental_uris":{"android":"levelo://app?vid=a3d00d5a-741f-48cd-acd5-d6b1bea47400","ios":"levelo://app?vid=a3d00d5a-741f-48cd-acd5-d6b1bea47400"},"vehicle_type_id":"4","last_reported":1729076855,"current_range_meters":36400,"station_id":"ce4bgl92rcd13ifvqbq0","pricing_plan_id":"cebpf4jnsgd1na2vs0mg"},{"bike_id":"0994d7f0-fa2e-480f-b967-2b1e1b476b78","system_id":"levelo_inurba_marseille","lat":43.23193,"lon":5.35554,"is_reserved":false,"is_disabled":false,"rental_uris":{"android":"levelo://app?vid=0994d7f0-fa2e-480f-b967-2b1e1b476b78","ios":"levelo://app?vid=0994d7f0-fa2e-480f-b967-2b1e1b476b78"},"vehicle_type_id":"4","last_reported":1729076855,"current_range_meters":22000,"station_id":"ce4bhu92rcd13ifvqi70","pricing_plan_id":"cebpf4jnsgd1na2vs0mg"},{"bike_id":"12b975a2-c366-482a-926a-3438aec64daa","system_id":"levelo_inurba_marseille","lat":43.2883,"lon":5.39333,"is_reserved":false,"is_disabled":false,"rental_uris":{"android":"levelo://app?vid=12b975a2-c366-482a-926a-3438aec64daa","ios":"levelo://app?vid=12b975a2-c366-482a-926a-3438aec64daa"},"vehicle_type_id":"4","last_reported":1729076855,"current_range_meters":25200,"station_id":"ce4bh2p2rcd13ifvqdi0","pricing_plan_id":"cebpf4jnsgd1na2vs0mg"},{"bike_id":"87ecb7f2-9015-41f7-9a51-961e58b308ee","system_id":"levelo_inurba_marseille","lat":43.30415,"lon":5.41294,"is_reserved":false,"is_disabled":false,"rental_uris":{"android":"levelo://app?vid=87ecb7f2-9015-41f7-9a51-961e58b308ee","ios":"levelo://app?vid=87ecb7f2-9015-41f7-9a51-961e58b308ee"},"vehicle_type_id":"4","last_reported":1729076855,"current_range_meters":32000,"station_id":"ce4bhop2rcd13ifvqh8g","pricing_plan_id":"cebpf4jnsgd1na2vs0mg"},{"bike_id":"a2ddd488-55f4-4ab5-a3e3-9c7077c4fd11","system_id":"levelo_inurba_marseille","lat":43.29025,"lon":5.3998,"is_reserved":false,"is_disabled":false,"rental_uris":{"android":"levelo://app?vid=a2ddd488-55f4-4ab5-a3e3-9c7077c4fd11","ios":"levelo://app?vid=a2ddd488-55f4-4ab5-a3e3-9c7077c4fd11"},"vehicle_type_id":"4","last_reported":1729076855,"current_range_meters":7200,"station_id":"ce4bh392rcd13ifvqdm0","pricing_plan_id":"cebpf4jnsgd1na2vs0mg"},{"bike_id":"66ccc46d-618e-4760-b09c-27382152bdab","system_id":"levelo_inurba_marseille","lat":43.232,"lon":5.35548,"is_reserved":false,"is_disabled":false,"rental_uris":{"android":"levelo://app?vid=66ccc46d-618e-4760-b09c-27382152bdab","ios":"levelo://app?vid=66ccc46d-618e-4760-b09c-27382152bdab"},"vehicle_type_id":"4","last_reported":1729076855,"current_range_meters":38000,"station_id":"ce4bhu92rcd13ifvqi70","pricing_plan_id":"cebpf4jnsgd1na2vs0mg"},{"bike_id":"8a331acc-70d9-496a-b0bc-87f49792f9b4","system_id":"levelo_inurba_marseille","lat":43.24154,"lon":5.36399,"is_reserved":false,"is_disabled":false,"rental_uris":{"android":"levelo://app?vid=8a331acc-70d9-496a-b0bc-87f49792f9b4","ios":"levelo://app?vid=8a331acc-70d9-496a-b0bc-87f49792f9b4"},"vehicle_type_id":"4","last_reported":1729076855,"current_range_meters":24000,"station_id":"cpo36qri1sfpv3e86is0","pricing_plan_id":"cebpf4jnsgd1na2vs0mg"},{"bike_id":"a8c6dcbb-71df-4d01-9f13-286e6119c0fd","system_id":"levelo_inurba_marseille","lat":43.23143,"lon":5.43725,"is_reserved":false,"is_disabled":false,"rental_uris":{"android":"levelo://app?vid=a8c6dcbb-71df-4d01-9f13-286e6119c0fd","ios":"levelo://app?vid=a8c6dcbb-71df-4d01-9f13-286e6119c0fd"},"vehicle_type_id":"4","last_reported":1729076855,"current_range_meters":38800,"station_id":"ce4bhmp2rcd13ifvqgog","pricing_plan_id":"cebpf4jnsgd1na2vs0mg"},{"bike_id":"001091d6-94bc-4119-b28d-ebb6982951d8","system_id":"levelo_inurba_marseille","lat":43.25088,"lon":5.39533,"is_reserved":false,"is_disabled":false,"rental_uris":{"android":"levelo://app?vid=001091d6-94bc-4119-b28d-ebb6982951d8","ios":"levelo://app?vid=001091d6-94bc-4119-b28d-ebb6982951d8"},"vehicle_type_id":"4","last_reported":1729076855,"current_range_meters":34800,"station_id":"ce4bhm12rcd13ifvqgkg","pricing_plan_id":"cebpf4jnsgd1na2vs0mg"},{"bike_id":"d3fb0f69-8124-45ee-a057-d8d044cc62bb","system_id":"levelo_inurba_marseille","lat":43.27816,"lon":5.40716,"is_reserved":false,"is_disabled":false,"rental_uris":{"android":"levelo://app?vid=d3fb0f69-8124-45ee-a057-d8d044cc62bb","ios":"levelo://app?vid=d3fb0f69-8124-45ee-a057-d8d044cc62bb"},"vehicle_type_id":"4","last_reported":1729076855,"current_range_meters":38800,"station_id":"ce4bhnh2rcd13ifvqgtg","pricing_plan_id":"cebpf4jnsgd1na2vs0mg"},{"bike_id":"7a6a04a5-94e6-42ed-8829-1701604c663c","system_id":"levelo_inurba_marseille","lat":43.25865,"lon":5.39904,"is_reserved":false,"is_disabled":false,"rental_uris":{"android":"levelo://app?vid=7a6a04a5-94e6-42ed-8829-1701604c663c","ios":"levelo://app?vid=7a6a04a5-94e6-42ed-8829-1701604c663c"},"vehicle_type_id":"4","last_reported":1729076855,"current_range_meters":36400,"station_id":"ce4bhl92rcd13ifvqghg","pricing_plan_id":"cebpf4jnsgd1na2vs0mg"},{"bike_id":"620789ae-7d40-4cf7-bd3f-6a67a0d22950","system_id":"levelo_inurba_marseille","lat":43.30535,"lon":5.36703,"is_reserved":false,"is_disabled":false,"rental_uris":{"android":"levelo://app?vid=620789ae-7d40-4cf7-bd3f-6a67a0d22950","ios":"levelo://app?vid=620789ae-7d40-4cf7-bd3f-6a67a0d22950"},"vehicle_type_id":"4","last_reported":1729076855,"current_range_meters":28000,"station_id":"ce4bgrp2rcd13ifvqc9g","pricing_plan_id":"cebpf4jnsgd1na2vs0mg"},{"bike_id":"e19eb59d-a654-4563-af65-82dfffd87b66","system_id":"levelo_inurba_marseille","lat":43.327093,"lon":5.414191,"is_reserved":false,"is_disabled":false,"rental_uris":{"android":"levelo://app?vid=e19eb59d-a654-4563-af65-82dfffd87b66","ios":"levelo://app?vid=e19eb59d-a654-4563-af65-82dfffd87b66"},"vehicle_type_id":"4","last_reported":1729076855,"current_range_meters":20400,"station_id":"ce4bhq12rcd13ifvqhhg","pricing_plan_id":"cebpf4jnsgd1na2vs0mg"},{"bike_id":"e4e1ee33-f289-42a3-81df-0931f1b2f05a","system_id":"levelo_inurba_marseille","lat":43.297119,"lon":5.368444,"is_reserved":false,"is_disabled":false,"rental_uris":{"android":"levelo://app?vid=e4e1ee33-f289-42a3-81df-0931f1b2f05a","ios":"levelo://app?vid=e4e1ee33-f289-42a3-81df-0931f1b2f05a"},"vehicle_type_id":"4","last_reported":1729076855,"current_range_meters":17200,"station_id":"ce4bgn12rcd13ifvqbt0","pricing_plan_id":"cebpf4jnsgd1na2vs0mg"},{"bike_id":"1e69292e-e3fe-4906-9ca6-103259c9e5f0","system_id":"levelo_inurba_marseille","lat":43.30533,"lon":5.36709,"is_reserved":false,"is_disabled":false,"rental_uris":{"android":"levelo://app?vid=1e69292e-e3fe-4906-9ca6-103259c9e5f0","ios":"levelo://app?vid=1e69292e-e3fe-4906-9ca6-103259c9e5f0"},"vehicle_type_id":"4","last_reported":1729076855,"current_range_meters":29600,"station_id":"ce4bgrp2rcd13ifvqc9g","pricing_plan_id":"cebpf4jnsgd1na2vs0mg"},{"bike_id":"6300df2c-b9fe-4275-916d-dd75e59140c9","system_id":"levelo_inurba_marseille","lat":43.23187,"lon":5.35549,"is_reserved":false,"is_disabled":false,"rental_uris":{"android":"levelo://app?vid=6300df2c-b9fe-4275-916d-dd75e59140c9","ios":"levelo://app?vid=6300df2c-b9fe-4275-916d-dd75e59140c9"},"vehicle_type_id":"4","last_reported":1729076855,"current_range_meters":38000,"station_id":"ce4bhu92rcd13ifvqi70","pricing_plan_id":"cebpf4jnsgd1na2vs0mg"},{"bike_id":"9e5b27c9-3509-48d2-8a05-9010e3bd11e1","system_id":"levelo_inurba_marseille","lat":43.33023,"lon":5.39046,"is_reserved":false,"is_disabled":false,"rental_uris":{"android":"levelo://app?vid=9e5b27c9-3509-48d2-8a05-9010e3bd11e1","ios":"levelo://app?vid=9e5b27c9-3509-48d2-8a05-9010e3bd11e1"},"vehicle_type_id":"4","last_reported":1729076855,"current_range_meters":7200,"station_id":"ce4bhr92rcd13ifvqhrg","pricing_plan_id":"cebpf4jnsgd1na2vs0mg"},{"bike_id":"e3a9e207-0790-4e31-970b-ab2ae8c161cc","system_id":"levelo_inurba_marseille","lat":43.25866,"lon":5.399,"is_reserved":false,"is_disabled":false,"rental_uris":{"android":"levelo://app?vid=e3a9e207-0790-4e31-970b-ab2ae8c161cc","ios":"levelo://app?vid=e3a9e207-0790-4e31-970b-ab2ae8c161cc"},"vehicle_type_id":"4","last_reported":1729076855,"current_range_meters":10800,"station_id":"ce4bhl92rcd13ifvqghg","pricing_plan_id":"cebpf4jnsgd1na2vs0mg"},{"bike_id":"82bf2be3-709d-4811-948a-1556c7f07e77","system_id":"levelo_inurba_marseille","lat":43.27938,"lon":5.41036,"is_reserved":false,"is_disabled":false,"rental_uris":{"android":"levelo://app?vid=82bf2be3-709d-4811-948a-1556c7f07e77","ios":"levelo://app?vid=82bf2be3-709d-4811-948a-1556c7f07e77"},"vehicle_type_id":"4","last_reported":1729076855,"current_range_meters":24000,"station_id":"ce4bhnp2rcd13ifvqh0g","pricing_plan_id":"cebpf4jnsgd1na2vs0mg"},{"bike_id":"306d10a5-6d20-40b0-86cc-e97e65bfb51c","system_id":"levelo_inurba_marseille","lat":43.29586,"lon":5.36736,"is_reserved":false,"is_disabled":false,"rental_uris":{"android":"levelo://app?vid=306d10a5-6d20-40b0-86cc-e97e65bfb51c","ios":"levelo://app?vid=306d10a5-6d20-40b0-86cc-e97e65bfb51c"},"vehicle_type_id":"4","last_reported":1729076855,"current_range_meters":37600,"station_id":"ce4bgph2rcd13ifvqc2g","pricing_plan_id":"cebpf4jnsgd1na2vs0mg"},{"bike_id":"e3b7dbfb-6f30-458b-b4dc-782770dde0e4","system_id":"levelo_inurba_marseille","lat":43.32457,"lon":5.36587,"is_reserved":false,"is_disabled":false,"rental_uris":{"android":"levelo://app?vid=e3b7dbfb-6f30-458b-b4dc-782770dde0e4","ios":"levelo://app?vid=e3b7dbfb-6f30-458b-b4dc-782770dde0e4"},"vehicle_type_id":"4","last_reported":1729076855,"current_range_meters":18800,"station_id":"ce4bhs12rcd13ifvqhvg","pricing_plan_id":"cebpf4jnsgd1na2vs0mg"},{"bike_id":"79a0682c-4c0f-44dc-91bc-6b4806c2b650","system_id":"levelo_inurba_marseille","lat":43.31321,"lon":5.39699,"is_reserved":false,"is_disabled":false,"rental_uris":{"android":"levelo://app?vid=79a0682c-4c0f-44dc-91bc-6b4806c2b650","ios":"levelo://app?vid=79a0682c-4c0f-44dc-91bc-6b4806c2b650"},"vehicle_type_id":"4","last_reported":1729076855,"current_range_meters":31200,"station_id":"ce4bgvp2rcd13ifvqcu0","pricing_plan_id":"cebpf4jnsgd1na2vs0mg"},{"bike_id":"d8e51b58-fb64-4815-8ed4-c91610dccd33","system_id":"levelo_inurba_marseille","lat":43.29179,"lon":5.35818,"is_reserved":false,"is_disabled":false,"rental_uris":{"android":"levelo://app?vid=d8e51b58-fb64-4815-8ed4-c91610dccd33","ios":"levelo://app?vid=d8e51b58-fb64-4815-8ed4-c91610dccd33"},"vehicle_type_id":"4","last_reported":1729076855,"current_range_meters":20800,"station_id":"ce4bhb12rcd13ifvqel0","pricing_plan_id":"cebpf4jnsgd1na2vs0mg"},{"bike_id":"465ea308-6772-41a6-be9e-ed85e79ba0bb","system_id":"levelo_inurba_marseille","lat":43.297112,"lon":5.376947,"is_reserved":false,"is_disabled":false,"rental_uris":{"android":"levelo://app?vid=465ea308-6772-41a6-be9e-ed85e79ba0bb","ios":"levelo://app?vid=465ea308-6772-41a6-be9e-ed85e79ba0bb"},"vehicle_type_id":"4","last_reported":1729076855,"current_range_meters":37600,"station_id":"ce4bgkh2rcd13ifvqbl0","pricing_plan_id":"cebpf4jnsgd1na2vs0mg"},{"bike_id":"751cceb0-79d4-438e-9734-8d323f0f4abd","system_id":"levelo_inurba_marseille","lat":43.24175,"lon":5.39742,"is_reserved":false,"is_disabled":false,"rental_uris":{"android":"levelo://app?vid=751cceb0-79d4-438e-9734-8d323f0f4abd","ios":"levelo://app?vid=751cceb0-79d4-438e-9734-8d323f0f4abd"},"vehicle_type_id":"4","last_reported":1729076855,"current_range_meters":8400,"station_id":"ce4bhn12rcd13ifvqgpg","pricing_plan_id":"cebpf4jnsgd1na2vs0mg"},{"bike_id":"da07080c-1196-46a1-aea5-19a3b6f415ec","system_id":"levelo_inurba_marseille","lat":43.33025,"lon":5.39045,"is_reserved":false,"is_disabled":false,"rental_uris":{"android":"levelo://app?vid=da07080c-1196-46a1-aea5-19a3b6f415ec","ios":"levelo://app?vid=da07080c-1196-46a1-aea5-19a3b6f415ec"},"vehicle_type_id":"4","last_reported":1729076855,"current_range_meters":37600,"station_id":"ce4bhr92rcd13ifvqhrg","pricing_plan_id":"cebpf4jnsgd1na2vs0mg"},{"bike_id":"2140b6a3-5118-4150-823e-9225aeb56201","system_id":"levelo_inurba_marseille","lat":43.232,"lon":5.35551,"is_reserved":false,"is_disabled":false,"rental_uris":{"android":"levelo://app?vid=2140b6a3-5118-4150-823e-9225aeb56201","ios":"levelo://app?vid=2140b6a3-5118-4150-823e-9225aeb56201"},"vehicle_type_id":"4","last_reported":1729076855,"current_range_meters":4000,"station_id":"ce4bhu92rcd13ifvqi70","pricing_plan_id":"cebpf4jnsgd1na2vs0mg"},{"bike_id":"c71256e3-f91a-415b-a206-25fe3e2d20b5","system_id":"levelo_inurba_marseille","lat":43.25007,"lon":5.38927,"is_reserved":false,"is_disabled":false,"rental_uris":{"android":"levelo://app?vid=c71256e3-f91a-415b-a206-25fe3e2d20b5","ios":"levelo://app?vid=c71256e3-f91a-415b-a206-25fe3e2d20b5"},"vehicle_type_id":"4","last_reported":1729076855,"current_range_meters":28400,"station_id":"ce4bhgp2rcd13ifvqfd0","pricing_plan_id":"cebpf4jnsgd1na2vs0mg"},{"bike_id":"50080035-6716-47ec-87d7-ca879d4cf126","system_id":"levelo_inurba_marseille","lat":43.30185,"lon":5.36613,"is_reserved":false,"is_disabled":false,"rental_uris":{"android":"levelo://app?vid=50080035-6716-47ec-87d7-ca879d4cf126","ios":"levelo://app?vid=50080035-6716-47ec-87d7-ca879d4cf126"},"vehicle_type_id":"4","last_reported":1729076855,"current_range_meters":26000,"station_id":"ce4bgrh2rcd13ifvqc8g","pricing_plan_id":"cebpf4jnsgd1na2vs0mg"},{"bike_id":"efe9840c-8fb2-4e9f-845d-e5b20acfb757","system_id":"levelo_inurba_marseille","lat":43.23153,"lon":5.43709,"is_reserved":false,"is_disabled":false,"rental_uris":{"android":"levelo://app?vid=efe9840c-8fb2-4e9f-845d-e5b20acfb757","ios":"levelo://app?vid=efe9840c-8fb2-4e9f-845d-e5b20acfb757"},"vehicle_type_id":"4","last_reported":1729076855,"current_range_meters":9200,"station_id":"ce4bhmp2rcd13ifvqgog","pricing_plan_id":"cebpf4jnsgd1na2vs0mg"},{"bike_id":"1022caf8-745d-4649-ac2c-509cfa55aca2","system_id":"levelo_inurba_marseille","lat":43.27069,"lon":5.42287,"is_reserved":false,"is_disabled":false,"rental_uris":{"android":"levelo://app?vid=1022caf8-745d-4649-ac2c-509cfa55aca2","ios":"levelo://app?vid=1022caf8-745d-4649-ac2c-509cfa55aca2"},"vehicle_type_id":"4","last_reported":1729076855,"current_range_meters":22400,"station_id":"ce4bhk92rcd13ifvqgb0","pricing_plan_id":"cebpf4jnsgd1na2vs0mg"},{"bike_id":"f7a4b14e-b8cc-46b5-8b61-08254af0c314","system_id":"levelo_inurba_marseille","lat":43.27372,"lon":5.36257,"is_reserved":false,"is_disabled":false,"rental_uris":{"android":"levelo://app?vid=f7a4b14e-b8cc-46b5-8b61-08254af0c314","ios":"levelo://app?vid=f7a4b14e-b8cc-46b5-8b61-08254af0c314"},"vehicle_type_id":"4","last_reported":1729076855,"current_range_meters":28800,"station_id":"ce4bhbh2rcd13ifvqeo0","pricing_plan_id":"cebpf4jnsgd1na2vs0mg"},{"bike_id":"fe0ed97f-0597-4aef-86e2-d5d073ff43d3","system_id":"levelo_inurba_marseille","lat":43.29554,"lon":5.42286,"is_reserved":false,"is_disabled":false,"rental_uris":{"android":"levelo://app?vid=fe0ed97f-0597-4aef-86e2-d5d073ff43d3","ios":"levelo://app?vid=fe0ed97f-0597-4aef-86e2-d5d073ff43d3"},"vehicle_type_id":"4","last_reported":1729076855,"current_range_meters":38000,"station_id":"ce4bhph2rcd13ifvqhdg","pricing_plan_id":"cebpf4jnsgd1na2vs0mg"},{"bike_id":"25cb8ec2-1ba1-4361-a0d8-34d3dff9720b","system_id":"levelo_inurba_marseille","lat":43.23154,"lon":5.43703,"is_reserved":false,"is_disabled":false,"rental_uris":{"android":"levelo://app?vid=25cb8ec2-1ba1-4361-a0d8-34d3dff9720b","ios":"levelo://app?vid=25cb8ec2-1ba1-4361-a0d8-34d3dff9720b"},"vehicle_type_id":"4","last_reported":1729076855,"current_range_meters":14400,"station_id":"ce4bhmp2rcd13ifvqgog","pricing_plan_id":"cebpf4jnsgd1na2vs0mg"},{"bike_id":"7cb02977-4991-4166-b69b-8080ca65c1be","system_id":"levelo_inurba_marseille","lat":43.29275,"lon":5.40118,"is_reserved":false,"is_disabled":false,"rental_uris":{"android":"levelo://app?vid=7cb02977-4991-4166-b69b-8080ca65c1be","ios":"levelo://app?vid=7cb02977-4991-4166-b69b-8080ca65c1be"},"vehicle_type_id":"4","last_reported":1729076855,"current_range_meters":33600,"station_id":"ce4bh312rcd13ifvqdk0","pricing_plan_id":"cebpf4jnsgd1na2vs0mg"},{"bike_id":"8c5f6cb2-2534-400b-9faa-95a35c4c59a7","system_id":"levelo_inurba_marseille","lat":43.2572,"lon":5.41106,"is_reserved":false,"is_disabled":false,"rental_uris":{"android":"levelo://app?vid=8c5f6cb2-2534-400b-9faa-95a35c4c59a7","ios":"levelo://app?vid=8c5f6cb2-2534-400b-9faa-95a35c4c59a7"},"vehicle_type_id":"4","last_reported":1729076855,"current_range_meters":34000,"station_id":"ce4bhkp2rcd13ifvqgd0","pricing_plan_id":"cebpf4jnsgd1na2vs0mg"},{"bike_id":"89fbdef1-235e-4836-900e-268af52de056","system_id":"levelo_inurba_marseille","lat":43.29181,"lon":5.35811,"is_reserved":false,"is_disabled":false,"rental_uris":{"android":"levelo://app?vid=89fbdef1-235e-4836-900e-268af52de056","ios":"levelo://app?vid=89fbdef1-235e-4836-900e-268af52de056"},"vehicle_type_id":"4","last_reported":1729076855,"current_range_meters":38000,"station_id":"ce4bhb12rcd13ifvqel0","pricing_plan_id":"cebpf4jnsgd1na2vs0mg"},{"bike_id":"11425eab-46e3-4de2-96f1-9c911946ba70","system_id":"levelo_inurba_marseille","lat":43.27618,"lon":5.36109,"is_reserved":false,"is_disabled":false,"rental_uris":{"android":"levelo://app?vid=11425eab-46e3-4de2-96f1-9c911946ba70","ios":"levelo://app?vid=11425eab-46e3-4de2-96f1-9c911946ba70"},"vehicle_type_id":"4","last_reported":1729076855,"current_range_meters":38800,"station_id":"ce4bgj92rcd13ifvqbe0","pricing_plan_id":"cebpf4jnsgd1na2vs0mg"},{"bike_id":"3213665e-989c-4d22-9f5a-31c8522597dd","system_id":"levelo_inurba_marseille","lat":43.296,"lon":5.36142,"is_reserved":false,"is_disabled":false,"rental_uris":{"android":"levelo://app?vid=3213665e-989c-4d22-9f5a-31c8522597dd","ios":"levelo://app?vid=3213665e-989c-4d22-9f5a-31c8522597dd"},"vehicle_type_id":"4","last_reported":1729076855,"current_range_meters":33200,"station_id":"","pricing_plan_id":"cebpf4jnsgd1na2vs0mg"},{"bike_id":"61702124-6d8c-4c6f-8f27-a925d8ccd417","system_id":"levelo_inurba_marseille","lat":43.25494,"lon":5.37657,"is_reserved":false,"is_disabled":false,"rental_uris":{"android":"levelo://app?vid=61702124-6d8c-4c6f-8f27-a925d8ccd417","ios":"levelo://app?vid=61702124-6d8c-4c6f-8f27-a925d8ccd417"},"vehicle_type_id":"4","last_reported":1729076855,"current_range_meters":37600,"station_id":"ce4bhh12rcd13ifvqff0","pricing_plan_id":"cebpf4jnsgd1na2vs0mg"},{"bike_id":"3ecda465-3f44-4acb-b6ec-0dd71866866a","system_id":"levelo_inurba_marseille","lat":43.2994,"lon":5.36552,"is_reserved":false,"is_disabled":false,"rental_uris":{"android":"levelo://app?vid=3ecda465-3f44-4acb-b6ec-0dd71866866a","ios":"levelo://app?vid=3ecda465-3f44-4acb-b6ec-0dd71866866a"},"vehicle_type_id":"4","last_reported":1729076855,"current_range_meters":30000,"station_id":"ce4bgm92rcd13ifvqbr0","pricing_plan_id":"cebpf4jnsgd1na2vs0mg"},{"bike_id":"1641b826-604a-4181-8231-dca386f637a6","system_id":"levelo_inurba_marseille","lat":43.23186,"lon":5.35559,"is_reserved":false,"is_disabled":false,"rental_uris":{"android":"levelo://app?vid=1641b826-604a-4181-8231-dca386f637a6","ios":"levelo://app?vid=1641b826-604a-4181-8231-dca386f637a6"},"vehicle_type_id":"4","last_reported":1729076855,"current_range_meters":38000,"station_id":"ce4bhu92rcd13ifvqi70","pricing_plan_id":"cebpf4jnsgd1na2vs0mg"},{"bike_id":"89211ee2-076f-4df3-92bd-cd8885f2e76d","system_id":"levelo_inurba_marseille","lat":43.23193,"lon":5.35556,"is_reserved":false,"is_disabled":false,"rental_uris":{"android":"levelo://app?vid=89211ee2-076f-4df3-92bd-cd8885f2e76d","ios":"levelo://app?vid=89211ee2-076f-4df3-92bd-cd8885f2e76d"},"vehicle_type_id":"4","last_reported":1729076855,"current_range_meters":38000,"station_id":"ce4bhu92rcd13ifvqi70","pricing_plan_id":"cebpf4jnsgd1na2vs0mg"},{"bike_id":"90f80907-e0d5-4716-a7d8-45b2c2640b01","system_id":"levelo_inurba_marseille","lat":43.2315,"lon":5.43709,"is_reserved":false,"is_disabled":false,"rental_uris":{"android":"levelo://app?vid=90f80907-e0d5-4716-a7d8-45b2c2640b01","ios":"levelo://app?vid=90f80907-e0d5-4716-a7d8-45b2c2640b01"},"vehicle_type_id":"4","last_reported":1729076855,"current_range_meters":38400,"station_id":"ce4bhmp2rcd13ifvqgog","pricing_plan_id":"cebpf4jnsgd1na2vs0mg"},{"bike_id":"975adece-daeb-433e-b5fe-8997a00f0604","system_id":"levelo_inurba_marseille","lat":43.3302,"lon":5.3905,"is_reserved":false,"is_disabled":false,"rental_uris":{"android":"levelo://app?vid=975adece-daeb-433e-b5fe-8997a00f0604","ios":"levelo://app?vid=975adece-daeb-433e-b5fe-8997a00f0604"},"vehicle_type_id":"4","last_reported":1729076855,"current_range_meters":32000,"station_id":"ce4bhr92rcd13ifvqhrg","pricing_plan_id":"cebpf4jnsgd1na2vs0mg"},{"bike_id":"7c5f840d-ee91-49f8-abf1-6481edcbe346","system_id":"levelo_inurba_marseille","lat":43.23152,"lon":5.43701,"is_reserved":false,"is_disabled":false,"rental_uris":{"android":"levelo://app?vid=7c5f840d-ee91-49f8-abf1-6481edcbe346","ios":"levelo://app?vid=7c5f840d-ee91-49f8-abf1-6481edcbe346"},"vehicle_type_id":"4","last_reported":1729076855,"current_range_meters":27600,"station_id":"ce4bhmp2rcd13ifvqgog","pricing_plan_id":"cebpf4jnsgd1na2vs0mg"},{"bike_id":"799c1744-3dcd-430d-9b9d-e64c5efb11f7","system_id":"levelo_inurba_marseille","lat":43.27496,"lon":5.42454,"is_reserved":false,"is_disabled":false,"rental_uris":{"android":"levelo://app?vid=799c1744-3dcd-430d-9b9d-e64c5efb11f7","ios":"levelo://app?vid=799c1744-3dcd-430d-9b9d-e64c5efb11f7"},"vehicle_type_id":"4","last_reported":1729076855,"current_range_meters":2800,"station_id":"ce4bhn92rcd13ifvqgrg","pricing_plan_id":"cebpf4jnsgd1na2vs0mg"},{"bike_id":"02af67c6-7c68-4559-a056-7404a067af01","system_id":"levelo_inurba_marseille","lat":43.3302,"lon":5.39044,"is_reserved":false,"is_disabled":false,"rental_uris":{"android":"levelo://app?vid=02af67c6-7c68-4559-a056-7404a067af01","ios":"levelo://app?vid=02af67c6-7c68-4559-a056-7404a067af01"},"vehicle_type_id":"4","last_reported":1729076855,"current_range_meters":38800,"station_id":"ce4bhr92rcd13ifvqhrg","pricing_plan_id":"cebpf4jnsgd1na2vs0mg"},{"bike_id":"7bd2624d-90da-46b1-a041-400b3ff0ca18","system_id":"levelo_inurba_marseille","lat":43.30141,"lon":5.37405,"is_reserved":false,"is_disabled":false,"rental_uris":{"android":"levelo://app?vid=7bd2624d-90da-46b1-a041-400b3ff0ca18","ios":"levelo://app?vid=7bd2624d-90da-46b1-a041-400b3ff0ca18"},"vehicle_type_id":"4","last_reported":1729076855,"current_range_meters":38800,"station_id":"ce4bgs92rcd13ifvqcc0","pricing_plan_id":"cebpf4jnsgd1na2vs0mg"},{"bike_id":"83165a8a-7385-49e8-a7c8-d86f180f9649","system_id":"levelo_inurba_marseille","lat":43.29421,"lon":5.386135,"is_reserved":false,"is_disabled":false,"rental_uris":{"android":"levelo://app?vid=83165a8a-7385-49e8-a7c8-d86f180f9649","ios":"levelo://app?vid=83165a8a-7385-49e8-a7c8-d86f180f9649"},"vehicle_type_id":"4","last_reported":1729076855,"current_range_meters":19200,"station_id":"ce4bh2h2rcd13ifvqdh0","pricing_plan_id":"cebpf4jnsgd1na2vs0mg"},{"bike_id":"864c7911-77fb-468e-9e40-7eba0b6f1d12","system_id":"levelo_inurba_marseille","lat":43.25112,"lon":5.40327,"is_reserved":false,"is_disabled":false,"rental_uris":{"android":"levelo://app?vid=864c7911-77fb-468e-9e40-7eba0b6f1d12","ios":"levelo://app?vid=864c7911-77fb-468e-9e40-7eba0b6f1d12"},"vehicle_type_id":"4","last_reported":1729076855,"current_range_meters":30000,"station_id":"ce4bhlh2rcd13ifvqgig","pricing_plan_id":"cebpf4jnsgd1na2vs0mg"},{"bike_id":"8e3963b6-8131-4c1e-b4d2-add46d4dfbf9","system_id":"levelo_inurba_marseille","lat":43.30318,"lon":5.36898,"is_reserved":false,"is_disabled":false,"rental_uris":{"android":"levelo://app?vid=8e3963b6-8131-4c1e-b4d2-add46d4dfbf9","ios":"levelo://app?vid=8e3963b6-8131-4c1e-b4d2-add46d4dfbf9"},"vehicle_type_id":"4","last_reported":1729076855,"current_range_meters":19200,"station_id":"ce4bgqh2rcd13ifvqc5g","pricing_plan_id":"cebpf4jnsgd1na2vs0mg"},{"bike_id":"2e1c4765-952f-42bc-b9ff-dcbce17aeed5","system_id":"levelo_inurba_marseille","lat":43.29193,"lon":5.39315,"is_reserved":false,"is_disabled":false,"rental_uris":{"android":"levelo://app?vid=2e1c4765-952f-42bc-b9ff-dcbce17aeed5","ios":"levelo://app?vid=2e1c4765-952f-42bc-b9ff-dcbce17aeed5"},"vehicle_type_id":"4","last_reported":1729076855,"current_range_meters":30000,"station_id":"ce4bh192rcd13ifvqdd0","pricing_plan_id":"cebpf4jnsgd1na2vs0mg"},{"bike_id":"87dde795-a848-4abe-8563-92325ec050f2","system_id":"levelo_inurba_marseille","lat":43.30174,"lon":5.36623,"is_reserved":false,"is_disabled":false,"rental_uris":{"android":"levelo://app?vid=87dde795-a848-4abe-8563-92325ec050f2","ios":"levelo://app?vid=87dde795-a848-4abe-8563-92325ec050f2"},"vehicle_type_id":"4","last_reported":1729076855,"current_range_meters":38800,"station_id":"ce4bgrh2rcd13ifvqc8g","pricing_plan_id":"cebpf4jnsgd1na2vs0mg"},{"bike_id":"87440bd7-4730-412f-b52f-03b263c3d6ba","system_id":"levelo_inurba_marseille","lat":43.23209,"lon":5.35551,"is_reserved":false,"is_disabled":false,"rental_uris":{"android":"levelo://app?vid=87440bd7-4730-412f-b52f-03b263c3d6ba","ios":"levelo://app?vid=87440bd7-4730-412f-b52f-03b263c3d6ba"},"vehicle_type_id":"4","last_reported":1729076855,"current_range_meters":24800,"station_id":"ce4bhu92rcd13ifvqi70","pricing_plan_id":"cebpf4jnsgd1na2vs0mg"},{"bike_id":"76bdfcaf-07c0-4be6-a6f6-c527d379d85d","system_id":"levelo_inurba_marseille","lat":43.29046,"lon":5.35915,"is_reserved":false,"is_disabled":false,"rental_uris":{"android":"levelo://app?vid=76bdfcaf-07c0-4be6-a6f6-c527d379d85d","ios":"levelo://app?vid=76bdfcaf-07c0-4be6-a6f6-c527d379d85d"},"vehicle_type_id":"4","last_reported":1729076855,"current_range_meters":36000,"station_id":"ce4bha92rcd13ifvqeg0","pricing_plan_id":"cebpf4jnsgd1na2vs0mg"},{"bike_id":"d3e64805-45cc-4973-ba5d-2bd2aba6ae68","system_id":"levelo_inurba_marseille","lat":43.31486,"lon":5.37309,"is_reserved":false,"is_disabled":false,"rental_uris":{"android":"levelo://app?vid=d3e64805-45cc-4973-ba5d-2bd2aba6ae68","ios":"levelo://app?vid=d3e64805-45cc-4973-ba5d-2bd2aba6ae68"},"vehicle_type_id":"4","last_reported":1729076855,"current_range_meters":13600,"station_id":"ce4bgt12rcd13ifvqcd0","pricing_plan_id":"cebpf4jnsgd1na2vs0mg"},{"bike_id":"7484c344-debf-4edc-af17-e722b5059f6c","system_id":"levelo_inurba_marseille","lat":43.33741,"lon":5.37477,"is_reserved":false,"is_disabled":false,"rental_uris":{"android":"levelo://app?vid=7484c344-debf-4edc-af17-e722b5059f6c","ios":"levelo://app?vid=7484c344-debf-4edc-af17-e722b5059f6c"},"vehicle_type_id":"4","last_reported":1729076855,"current_range_meters":16800,"station_id":"","pricing_plan_id":"cebpf4jnsgd1na2vs0mg"},{"bike_id":"cdae481f-9aa1-4014-97de-af082fcf5979","system_id":"levelo_inurba_marseille","lat":43.25864,"lon":5.39901,"is_reserved":false,"is_disabled":false,"rental_uris":{"android":"levelo://app?vid=cdae481f-9aa1-4014-97de-af082fcf5979","ios":"levelo://app?vid=cdae481f-9aa1-4014-97de-af082fcf5979"},"vehicle_type_id":"4","last_reported":1729076855,"current_range_meters":4400,"station_id":"ce4bhl92rcd13ifvqghg","pricing_plan_id":"cebpf4jnsgd1na2vs0mg"},{"bike_id":"ff96eee3-1ac8-4888-9ae7-e4b6cc8154af","system_id":"levelo_inurba_marseille","lat":43.33739,"lon":5.3746,"is_reserved":false,"is_disabled":false,"rental_uris":{"android":"levelo://app?vid=ff96eee3-1ac8-4888-9ae7-e4b6cc8154af","ios":"levelo://app?vid=ff96eee3-1ac8-4888-9ae7-e4b6cc8154af"},"vehicle_type_id":"4","last_reported":1729076855,"current_range_meters":29600,"station_id":"","pricing_plan_id":"cebpf4jnsgd1na2vs0mg"},{"bike_id":"727886fd-a85c-47c1-82e6-6f2f3699bc98","system_id":"levelo_inurba_marseille","lat":43.30612,"lon":5.37226,"is_reserved":false,"is_disabled":false,"rental_uris":{"android":"levelo://app?vid=727886fd-a85c-47c1-82e6-6f2f3699bc98","ios":"levelo://app?vid=727886fd-a85c-47c1-82e6-6f2f3699bc98"},"vehicle_type_id":"4","last_reported":1729076855,"current_range_meters":6400,"station_id":"ce4bgqh2rcd13ifvqc4g","pricing_plan_id":"cebpf4jnsgd1na2vs0mg"},{"bike_id":"e381f590-fd89-49e1-b4a1-66c56de528c9","system_id":"levelo_inurba_marseille","lat":43.30142,"lon":5.3742,"is_reserved":false,"is_disabled":false,"rental_uris":{"android":"levelo://app?vid=e381f590-fd89-49e1-b4a1-66c56de528c9","ios":"levelo://app?vid=e381f590-fd89-49e1-b4a1-66c56de528c9"},"vehicle_type_id":"4","last_reported":1729076855,"current_range_meters":24400,"station_id":"ce4bgs92rcd13ifvqcc0","pricing_plan_id":"cebpf4jnsgd1na2vs0mg"},{"bike_id":"83042ac9-519c-420c-adf7-f7f1ca7582c7","system_id":"levelo_inurba_marseille","lat":43.33746,"lon":5.37487,"is_reserved":false,"is_disabled":false,"rental_uris":{"android":"levelo://app?vid=83042ac9-519c-420c-adf7-f7f1ca7582c7","ios":"levelo://app?vid=83042ac9-519c-420c-adf7-f7f1ca7582c7"},"vehicle_type_id":"4","last_reported":1729076855,"current_range_meters":24800,"station_id":"","pricing_plan_id":"cebpf4jnsgd1na2vs0mg"},{"bike_id":"8e2fcc08-c75b-4731-a0e8-c197981bf727","system_id":"levelo_inurba_marseille","lat":43.28935,"lon":5.39634,"is_reserved":false,"is_disabled":false,"rental_uris":{"android":"levelo://app?vid=8e2fcc08-c75b-4731-a0e8-c197981bf727","ios":"levelo://app?vid=8e2fcc08-c75b-4731-a0e8-c197981bf727"},"vehicle_type_id":"4","last_reported":1729076855,"current_range_meters":27600,"station_id":"ce4bh3h2rcd13ifvqdn0","pricing_plan_id":"cebpf4jnsgd1na2vs0mg"},{"bike_id":"1f5d6817-da92-4702-9da2-1fc138e604d5","system_id":"levelo_inurba_marseille","lat":43.32115,"lon":5.36769,"is_reserved":false,"is_disabled":false,"rental_uris":{"android":"levelo://app?vid=1f5d6817-da92-4702-9da2-1fc138e604d5","ios":"levelo://app?vid=1f5d6817-da92-4702-9da2-1fc138e604d5"},"vehicle_type_id":"4","last_reported":1729076855,"current_range_meters":4800,"station_id":"ce4bhrh2rcd13ifvqhug","pricing_plan_id":"cebpf4jnsgd1na2vs0mg"},{"bike_id":"3e6761da-2955-48d0-b4a6-5188b735c9d7","system_id":"levelo_inurba_marseille","lat":43.27054,"lon":5.40263,"is_reserved":false,"is_disabled":false,"rental_uris":{"android":"levelo://app?vid=3e6761da-2955-48d0-b4a6-5188b735c9d7","ios":"levelo://app?vid=3e6761da-2955-48d0-b4a6-5188b735c9d7"},"vehicle_type_id":"4","last_reported":1729076855,"current_range_meters":31200,"station_id":"ce4bhk92rcd13ifvqgc0","pricing_plan_id":"cebpf4jnsgd1na2vs0mg"},{"bike_id":"44b17af3-3881-4c20-b4b8-85a398f4caba","system_id":"levelo_inurba_marseille","lat":43.3014,"lon":5.39851,"is_reserved":false,"is_disabled":false,"rental_uris":{"android":"levelo://app?vid=44b17af3-3881-4c20-b4b8-85a398f4caba","ios":"levelo://app?vid=44b17af3-3881-4c20-b4b8-85a398f4caba"},"vehicle_type_id":"4","last_reported":1729076855,"current_range_meters":35600,"station_id":"ce4bh0h2rcd13ifvqd40","pricing_plan_id":"cebpf4jnsgd1na2vs0mg"},{"bike_id":"cb419d5e-0e66-4085-9857-32dd28955c31","system_id":"levelo_inurba_marseille","lat":43.2783,"lon":5.3921,"is_reserved":false,"is_disabled":false,"rental_uris":{"android":"levelo://app?vid=cb419d5e-0e66-4085-9857-32dd28955c31","ios":"levelo://app?vid=cb419d5e-0e66-4085-9857-32dd28955c31"},"vehicle_type_id":"4","last_reported":1729076855,"current_range_meters":23200,"station_id":"ce4bh192rcd13ifvqdd0","pricing_plan_id":"cebpf4jnsgd1na2vs0mg"},{"bike_id":"292b9425-1372-40d4-bf0a-fe57aa779a41","system_id":"levelo_inurba_marseille","lat":43.23061,"lon":5.35499,"is_reserved":false,"is_disabled":false,"rental_uris":{"android":"levelo://app?vid=292b9425-1372-40d4-bf0a-fe57aa779a41","ios":"levelo://app?vid=292b9425-1372-40d4-bf0a-fe57aa779a41"},"vehicle_type_id":"4","last_reported":1729076855,"current_range_meters":28400,"station_id":"cpo3342slgdg3j2ifvpg","pricing_plan_id":"cebpf4jnsgd1na2vs0mg"},{"bike_id":"39c42b68-651d-4417-a824-d90f355b49e8","system_id":"levelo_inurba_marseille","lat":43.25122,"lon":5.40316,"is_reserved":false,"is_disabled":false,"rental_uris":{"android":"levelo://app?vid=39c42b68-651d-4417-a824-d90f355b49e8","ios":"levelo://app?vid=39c42b68-651d-4417-a824-d90f355b49e8"},"vehicle_type_id":"4","last_reported":1729076855,"current_range_meters":14000,"station_id":"ce4bhlh2rcd13ifvqgig","pricing_plan_id":"cebpf4jnsgd1na2vs0mg"},{"bike_id":"8ecfbae4-e477-4442-9557-a34bafbf3964","system_id":"levelo_inurba_marseille","lat":43.3134,"lon":5.36726,"is_reserved":false,"is_disabled":false,"rental_uris":{"android":"levelo://app?vid=8ecfbae4-e477-4442-9557-a34bafbf3964","ios":"levelo://app?vid=8ecfbae4-e477-4442-9557-a34bafbf3964"},"vehicle_type_id":"4","last_reported":1729076855,"current_range_meters":29600,"station_id":"ce4bgr92rcd13ifvqc6g","pricing_plan_id":"cebpf4jnsgd1na2vs0mg"},{"bike_id":"8132aaca-1e32-4dd5-9240-40d2d201b54a","system_id":"levelo_inurba_marseille","lat":43.29006,"lon":5.35614,"is_reserved":false,"is_disabled":false,"rental_uris":{"android":"levelo://app?vid=8132aaca-1e32-4dd5-9240-40d2d201b54a","ios":"levelo://app?vid=8132aaca-1e32-4dd5-9240-40d2d201b54a"},"vehicle_type_id":"4","last_reported":1729076855,"current_range_meters":34800,"station_id":"ce4bhb92rcd13ifvqen0","pricing_plan_id":"cebpf4jnsgd1na2vs0mg"},{"bike_id":"d039358e-28ce-4950-8d42-894b179d878a","system_id":"levelo_inurba_marseille","lat":43.31884,"lon":5.40744,"is_reserved":false,"is_disabled":false,"rental_uris":{"android":"levelo://app?vid=d039358e-28ce-4950-8d42-894b179d878a","ios":"levelo://app?vid=d039358e-28ce-4950-8d42-894b179d878a"},"vehicle_type_id":"4","last_reported":1729076855,"current_range_meters":16000,"station_id":"ce4bhq12rcd13ifvqhig","pricing_plan_id":"cebpf4jnsgd1na2vs0mg"},{"bike_id":"c3db3ae3-9bac-4a3b-ac4f-421f8a36dea0","system_id":"levelo_inurba_marseille","lat":43.32659,"lon":5.4099,"is_reserved":false,"is_disabled":false,"rental_uris":{"android":"levelo://app?vid=c3db3ae3-9bac-4a3b-ac4f-421f8a36dea0","ios":"levelo://app?vid=c3db3ae3-9bac-4a3b-ac4f-421f8a36dea0"},"vehicle_type_id":"4","last_reported":1729076855,"current_range_meters":38000,"station_id":"ce4bhpp2rcd13ifvqhgg","pricing_plan_id":"cebpf4jnsgd1na2vs0mg"},{"bike_id":"de80485a-093b-4b19-ac15-36f82d7cad6b","system_id":"levelo_inurba_marseille","lat":43.27886,"lon":5.3879,"is_reserved":false,"is_disabled":false,"rental_uris":{"android":"levelo://app?vid=de80485a-093b-4b19-ac15-36f82d7cad6b","ios":"levelo://app?vid=de80485a-093b-4b19-ac15-36f82d7cad6b"},"vehicle_type_id":"4","last_reported":1729076855,"current_range_meters":8400,"station_id":"ce4bhg12rcd13ifvqf80","pricing_plan_id":"cebpf4jnsgd1na2vs0mg"},{"bike_id":"19724c77-c4e4-41bd-8052-712b288fdfa6","system_id":"levelo_inurba_marseille","lat":43.30268,"lon":5.37724,"is_reserved":false,"is_disabled":false,"rental_uris":{"android":"levelo://app?vid=19724c77-c4e4-41bd-8052-712b288fdfa6","ios":"levelo://app?vid=19724c77-c4e4-41bd-8052-712b288fdfa6"},"vehicle_type_id":"4","last_reported":1729076855,"current_range_meters":13600,"station_id":"ce4bguh2rcd13ifvqcj0","pricing_plan_id":"cebpf4jnsgd1na2vs0mg"},{"bike_id":"6ace01bb-9b94-4600-8785-8619a2548a91","system_id":"levelo_inurba_marseille","lat":43.23158,"lon":5.43704,"is_reserved":false,"is_disabled":false,"rental_uris":{"android":"levelo://app?vid=6ace01bb-9b94-4600-8785-8619a2548a91","ios":"levelo://app?vid=6ace01bb-9b94-4600-8785-8619a2548a91"},"vehicle_type_id":"4","last_reported":1729076855,"current_range_meters":38800,"station_id":"ce4bhmp2rcd13ifvqgog","pricing_plan_id":"cebpf4jnsgd1na2vs0mg"},{"bike_id":"f27fb5c3-6d16-4c9a-900a-0c13e35e9d2c","system_id":"levelo_inurba_marseille","lat":43.24387,"lon":5.37056,"is_reserved":false,"is_disabled":false,"rental_uris":{"android":"levelo://app?vid=f27fb5c3-6d16-4c9a-900a-0c13e35e9d2c","ios":"levelo://app?vid=f27fb5c3-6d16-4c9a-900a-0c13e35e9d2c"},"vehicle_type_id":"4","last_reported":1729076855,"current_range_meters":20800,"station_id":"ce4bhhh2rcd13ifvqfk0","pricing_plan_id":"cebpf4jnsgd1na2vs0mg"},{"bike_id":"fa638fc7-b627-4e74-a41f-d17454d26ffa","system_id":"levelo_inurba_marseille","lat":43.306,"lon":5.37236,"is_reserved":false,"is_disabled":false,"rental_uris":{"android":"levelo://app?vid=fa638fc7-b627-4e74-a41f-d17454d26ffa","ios":"levelo://app?vid=fa638fc7-b627-4e74-a41f-d17454d26ffa"},"vehicle_type_id":"4","last_reported":1729076855,"current_range_meters":27200,"station_id":"ce4bgqh2rcd13ifvqc4g","pricing_plan_id":"cebpf4jnsgd1na2vs0mg"},{"bike_id":"18fae231-f0eb-45db-9d60-2e85a3e71119","system_id":"levelo_inurba_marseille","lat":43.2318,"lon":5.39997,"is_reserved":false,"is_disabled":false,"rental_uris":{"android":"levelo://app?vid=18fae231-f0eb-45db-9d60-2e85a3e71119","ios":"levelo://app?vid=18fae231-f0eb-45db-9d60-2e85a3e71119"},"vehicle_type_id":"4","last_reported":1729076855,"current_range_meters":38800,"station_id":"ce4bhn12rcd13ifvqgqg","pricing_plan_id":"cebpf4jnsgd1na2vs0mg"},{"bike_id":"e69c0604-182b-4759-a363-b3ed398f5f12","system_id":"levelo_inurba_marseille","lat":43.3014,"lon":5.37415,"is_reserved":false,"is_disabled":false,"rental_uris":{"android":"levelo://app?vid=e69c0604-182b-4759-a363-b3ed398f5f12","ios":"levelo://app?vid=e69c0604-182b-4759-a363-b3ed398f5f12"},"vehicle_type_id":"4","last_reported":1729076855,"current_range_meters":32400,"station_id":"ce4bgs92rcd13ifvqcc0","pricing_plan_id":"cebpf4jnsgd1na2vs0mg"},{"bike_id":"a9d80141-cb04-4f88-bcc5-9763572e3517","system_id":"levelo_inurba_marseille","lat":43.23194,"lon":5.35546,"is_reserved":false,"is_disabled":false,"rental_uris":{"android":"levelo://app?vid=a9d80141-cb04-4f88-bcc5-9763572e3517","ios":"levelo://app?vid=a9d80141-cb04-4f88-bcc5-9763572e3517"},"vehicle_type_id":"4","last_reported":1729076855,"current_range_meters":37600,"station_id":"ce4bhu92rcd13ifvqi70","pricing_plan_id":"cebpf4jnsgd1na2vs0mg"},{"bike_id":"99709067-cea9-41de-8a71-aa3d20ec63c6","system_id":"levelo_inurba_marseille","lat":43.32295,"lon":5.38268,"is_reserved":false,"is_disabled":false,"rental_uris":{"android":"levelo://app?vid=99709067-cea9-41de-8a71-aa3d20ec63c6","ios":"levelo://app?vid=99709067-cea9-41de-8a71-aa3d20ec63c6"},"vehicle_type_id":"4","last_reported":1729076855,"current_range_meters":4400,"station_id":"ce4bhr12rcd13ifvqhqg","pricing_plan_id":"cebpf4jnsgd1na2vs0mg"},{"bike_id":"d06f24f3-1961-4c39-8b26-c72733863fe9","system_id":"levelo_inurba_marseille","lat":43.33781,"lon":5.37443,"is_reserved":false,"is_disabled":false,"rental_uris":{"android":"levelo://app?vid=d06f24f3-1961-4c39-8b26-c72733863fe9","ios":"levelo://app?vid=d06f24f3-1961-4c39-8b26-c72733863fe9"},"vehicle_type_id":"4","last_reported":1729076855,"current_range_meters":20000,"station_id":"","pricing_plan_id":"cebpf4jnsgd1na2vs0mg"},{"bike_id":"b12d4cb2-64d0-4a0e-90a7-b496c9de8886","system_id":"levelo_inurba_marseille","lat":43.26943,"lon":5.40255,"is_reserved":false,"is_disabled":false,"rental_uris":{"android":"levelo://app?vid=b12d4cb2-64d0-4a0e-90a7-b496c9de8886","ios":"levelo://app?vid=b12d4cb2-64d0-4a0e-90a7-b496c9de8886"},"vehicle_type_id":"4","last_reported":1729076855,"current_range_meters":24000,"station_id":"cjm6bp8fraef2m0cb0m0","pricing_plan_id":"cebpf4jnsgd1na2vs0mg"},{"bike_id":"7c57168b-dce9-4cdb-8bb1-26d6e13ef8d3","system_id":"levelo_inurba_marseille","lat":43.29419,"lon":5.38628,"is_reserved":false,"is_disabled":false,"rental_uris":{"android":"levelo://app?vid=7c57168b-dce9-4cdb-8bb1-26d6e13ef8d3","ios":"levelo://app?vid=7c57168b-dce9-4cdb-8bb1-26d6e13ef8d3"},"vehicle_type_id":"4","last_reported":1729076855,"current_range_meters":17200,"station_id":"ce4bh2h2rcd13ifvqdh0","pricing_plan_id":"cebpf4jnsgd1na2vs0mg"},{"bike_id":"d3c87ae6-422d-455b-8797-f7d19d0cd4f9","system_id":"levelo_inurba_marseille","lat":43.24635,"lon":5.38906,"is_reserved":false,"is_disabled":false,"rental_uris":{"android":"levelo://app?vid=d3c87ae6-422d-455b-8797-f7d19d0cd4f9","ios":"levelo://app?vid=d3c87ae6-422d-455b-8797-f7d19d0cd4f9"},"vehicle_type_id":"4","last_reported":1729076855,"current_range_meters":38800,"station_id":"ce4bhg12rcd13ifvqf60","pricing_plan_id":"cebpf4jnsgd1na2vs0mg"},{"bike_id":"6fc5148b-4d4d-43dd-b11a-30ae34c609be","system_id":"levelo_inurba_marseille","lat":43.29847,"lon":5.3627,"is_reserved":false,"is_disabled":false,"rental_uris":{"android":"levelo://app?vid=6fc5148b-4d4d-43dd-b11a-30ae34c609be","ios":"levelo://app?vid=6fc5148b-4d4d-43dd-b11a-30ae34c609be"},"vehicle_type_id":"4","last_reported":1729076855,"current_range_meters":38800,"station_id":"ce4bgpp2rcd13ifvqc3g","pricing_plan_id":"cebpf4jnsgd1na2vs0mg"},{"bike_id":"d41309ab-1a1f-4395-acaa-455483c3f8e1","system_id":"levelo_inurba_marseille","lat":43.23193,"lon":5.3556,"is_reserved":false,"is_disabled":false,"rental_uris":{"android":"levelo://app?vid=d41309ab-1a1f-4395-acaa-455483c3f8e1","ios":"levelo://app?vid=d41309ab-1a1f-4395-acaa-455483c3f8e1"},"vehicle_type_id":"4","last_reported":1729076855,"current_range_meters":28000,"station_id":"ce4bhu92rcd13ifvqi70","pricing_plan_id":"cebpf4jnsgd1na2vs0mg"},{"bike_id":"0beee719-bd69-491d-ab4f-202b7c488cf5","system_id":"levelo_inurba_marseille","lat":43.30539,"lon":5.36704,"is_reserved":false,"is_disabled":false,"rental_uris":{"android":"levelo://app?vid=0beee719-bd69-491d-ab4f-202b7c488cf5","ios":"levelo://app?vid=0beee719-bd69-491d-ab4f-202b7c488cf5"},"vehicle_type_id":"4","last_reported":1729076855,"current_range_meters":28400,"station_id":"ce4bgrp2rcd13ifvqc9g","pricing_plan_id":"cebpf4jnsgd1na2vs0mg"},{"bike_id":"94902fb1-a766-4d90-8978-e732725ca583","system_id":"levelo_inurba_marseille","lat":43.2318,"lon":5.39993,"is_reserved":false,"is_disabled":false,"rental_uris":{"android":"levelo://app?vid=94902fb1-a766-4d90-8978-e732725ca583","ios":"levelo://app?vid=94902fb1-a766-4d90-8978-e732725ca583"},"vehicle_type_id":"4","last_reported":1729076855,"current_range_meters":38800,"station_id":"ce4bhn12rcd13ifvqgqg","pricing_plan_id":"cebpf4jnsgd1na2vs0mg"},{"bike_id":"b6ba18ac-f9f7-47ce-97ee-a57309932db4","system_id":"levelo_inurba_marseille","lat":43.27811,"lon":5.40709,"is_reserved":false,"is_disabled":false,"rental_uris":{"android":"levelo://app?vid=b6ba18ac-f9f7-47ce-97ee-a57309932db4","ios":"levelo://app?vid=b6ba18ac-f9f7-47ce-97ee-a57309932db4"},"vehicle_type_id":"4","last_reported":1729076855,"current_range_meters":38800,"station_id":"ce4bhnh2rcd13ifvqgtg","pricing_plan_id":"cebpf4jnsgd1na2vs0mg"},{"bike_id":"150af00c-9b49-4909-bfb2-9a965e993c9e","system_id":"levelo_inurba_marseille","lat":43.31223,"lon":5.36845,"is_reserved":false,"is_disabled":false,"rental_uris":{"android":"levelo://app?vid=150af00c-9b49-4909-bfb2-9a965e993c9e","ios":"levelo://app?vid=150af00c-9b49-4909-bfb2-9a965e993c9e"},"vehicle_type_id":"4","last_reported":1729076855,"current_range_meters":11200,"station_id":"","pricing_plan_id":"cebpf4jnsgd1na2vs0mg"},{"bike_id":"1b449a19-7177-4133-abd3-6e8c21256a67","system_id":"levelo_inurba_marseille","lat":43.33024,"lon":5.39041,"is_reserved":false,"is_disabled":false,"rental_uris":{"android":"levelo://app?vid=1b449a19-7177-4133-abd3-6e8c21256a67","ios":"levelo://app?vid=1b449a19-7177-4133-abd3-6e8c21256a67"},"vehicle_type_id":"4","last_reported":1729076855,"current_range_meters":32800,"station_id":"ce4bhr92rcd13ifvqhrg","pricing_plan_id":"cebpf4jnsgd1na2vs0mg"},{"bike_id":"033a7f68-f273-426e-84a9-8a3b2c56f6f5","system_id":"levelo_inurba_marseille","lat":43.35096,"lon":5.36807,"is_reserved":false,"is_disabled":false,"rental_uris":{"android":"levelo://app?vid=033a7f68-f273-426e-84a9-8a3b2c56f6f5","ios":"levelo://app?vid=033a7f68-f273-426e-84a9-8a3b2c56f6f5"},"vehicle_type_id":"4","last_reported":1729076855,"current_range_meters":11600,"station_id":"","pricing_plan_id":"cebpf4jnsgd1na2vs0mg"},{"bike_id":"6f840dad-ae02-4e17-87d5-c32e52b2c4a4","system_id":"levelo_inurba_marseille","lat":43.30806,"lon":5.38151,"is_reserved":false,"is_disabled":false,"rental_uris":{"android":"levelo://app?vid=6f840dad-ae02-4e17-87d5-c32e52b2c4a4","ios":"levelo://app?vid=6f840dad-ae02-4e17-87d5-c32e52b2c4a4"},"vehicle_type_id":"4","last_reported":1729076855,"current_range_meters":38000,"station_id":"ce4bgt12rcd13ifvqce0","pricing_plan_id":"cebpf4jnsgd1na2vs0mg"},{"bike_id":"0cac5042-2075-4b66-8658-3a0f53449b77","system_id":"levelo_inurba_marseille","lat":43.30142,"lon":5.37416,"is_reserved":false,"is_disabled":false,"rental_uris":{"android":"levelo://app?vid=0cac5042-2075-4b66-8658-3a0f53449b77","ios":"levelo://app?vid=0cac5042-2075-4b66-8658-3a0f53449b77"},"vehicle_type_id":"4","last_reported":1729076855,"current_range_meters":32000,"station_id":"ce4bgs92rcd13ifvqcc0","pricing_plan_id":"cebpf4jnsgd1na2vs0mg"},{"bike_id":"67550e5a-a579-4ca3-83cb-0d9835ff5edb","system_id":"levelo_inurba_marseille","lat":43.25831,"lon":5.39436,"is_reserved":false,"is_disabled":false,"rental_uris":{"android":"levelo://app?vid=67550e5a-a579-4ca3-83cb-0d9835ff5edb","ios":"levelo://app?vid=67550e5a-a579-4ca3-83cb-0d9835ff5edb"},"vehicle_type_id":"4","last_reported":1729076855,"current_range_meters":18800,"station_id":"ce4bhip2rcd13ifvqft0","pricing_plan_id":"cebpf4jnsgd1na2vs0mg"},{"bike_id":"1af2813b-98a0-4b62-aaf8-89652b30f639","system_id":"levelo_inurba_marseille","lat":43.22934,"lon":5.35375,"is_reserved":false,"is_disabled":false,"rental_uris":{"android":"levelo://app?vid=1af2813b-98a0-4b62-aaf8-89652b30f639","ios":"levelo://app?vid=1af2813b-98a0-4b62-aaf8-89652b30f639"},"vehicle_type_id":"4","last_reported":1729076855,"current_range_meters":25600,"station_id":"cpo3532slgdg3j2ikp40","pricing_plan_id":"cebpf4jnsgd1na2vs0mg"},{"bike_id":"2ca4ea10-691b-4849-8255-831eeedb0e7e","system_id":"levelo_inurba_marseille","lat":43.299295,"lon":5.385056,"is_reserved":false,"is_disabled":false,"rental_uris":{"android":"levelo://app?vid=2ca4ea10-691b-4849-8255-831eeedb0e7e","ios":"levelo://app?vid=2ca4ea10-691b-4849-8255-831eeedb0e7e"},"vehicle_type_id":"4","last_reported":1729076855,"current_range_meters":10000,"station_id":"ce4bh2h2rcd13ifvqdh0","pricing_plan_id":"cebpf4jnsgd1na2vs0mg"},{"bike_id":"46c000b4-0623-41d7-94e9-ccd778089a04","system_id":"levelo_inurba_marseille","lat":43.26805,"lon":5.40268,"is_reserved":false,"is_disabled":false,"rental_uris":{"android":"levelo://app?vid=46c000b4-0623-41d7-94e9-ccd778089a04","ios":"levelo://app?vid=46c000b4-0623-41d7-94e9-ccd778089a04"},"vehicle_type_id":"4","last_reported":1729076855,"current_range_meters":18800,"station_id":"ce501612rcd8frsf0b60","pricing_plan_id":"cebpf4jnsgd1na2vs0mg"},{"bike_id":"7d133e9c-440c-4db0-aaf0-2f0ff662b4fa","system_id":"levelo_inurba_marseille","lat":43.24552,"lon":5.39522,"is_reserved":false,"is_disabled":false,"rental_uris":{"android":"levelo://app?vid=7d133e9c-440c-4db0-aaf0-2f0ff662b4fa","ios":"levelo://app?vid=7d133e9c-440c-4db0-aaf0-2f0ff662b4fa"},"vehicle_type_id":"4","last_reported":1729076855,"current_range_meters":38800,"station_id":"ce4bhlp2rcd13ifvqgjg","pricing_plan_id":"cebpf4jnsgd1na2vs0mg"},{"bike_id":"f93454e1-a669-4c63-a4ca-b572042c7971","system_id":"levelo_inurba_marseille","lat":43.23198,"lon":5.35558,"is_reserved":false,"is_disabled":false,"rental_uris":{"android":"levelo://app?vid=f93454e1-a669-4c63-a4ca-b572042c7971","ios":"levelo://app?vid=f93454e1-a669-4c63-a4ca-b572042c7971"},"vehicle_type_id":"4","last_reported":1729076855,"current_range_meters":20000,"station_id":"ce4bhu92rcd13ifvqi70","pricing_plan_id":"cebpf4jnsgd1na2vs0mg"},{"bike_id":"c42f55ae-cffa-443b-a20c-6c804abb020c","system_id":"levelo_inurba_marseille","lat":43.30823,"lon":5.37404,"is_reserved":false,"is_disabled":false,"rental_uris":{"android":"levelo://app?vid=c42f55ae-cffa-443b-a20c-6c804abb020c","ios":"levelo://app?vid=c42f55ae-cffa-443b-a20c-6c804abb020c"},"vehicle_type_id":"4","last_reported":1729076855,"current_range_meters":36400,"station_id":"ce4bgup2rcd13ifvqcn0","pricing_plan_id":"cebpf4jnsgd1na2vs0mg"},{"bike_id":"a80f1afc-6840-4786-a1e5-c0bd0ddce300","system_id":"levelo_inurba_marseille","lat":43.28573,"lon":5.39497,"is_reserved":false,"is_disabled":false,"rental_uris":{"android":"levelo://app?vid=a80f1afc-6840-4786-a1e5-c0bd0ddce300","ios":"levelo://app?vid=a80f1afc-6840-4786-a1e5-c0bd0ddce300"},"vehicle_type_id":"4","last_reported":1729076855,"current_range_meters":20000,"station_id":"ce4bhoh2rcd13ifvqh5g","pricing_plan_id":"cebpf4jnsgd1na2vs0mg"},{"bike_id":"1bd48fb7-74a4-445d-bf33-1b6742f4e009","system_id":"levelo_inurba_marseille","lat":43.2649,"lon":5.39556,"is_reserved":false,"is_disabled":false,"rental_uris":{"android":"levelo://app?vid=1bd48fb7-74a4-445d-bf33-1b6742f4e009","ios":"levelo://app?vid=1bd48fb7-74a4-445d-bf33-1b6742f4e009"},"vehicle_type_id":"4","last_reported":1729076855,"current_range_meters":24000,"station_id":"ce4bhi12rcd13ifvqfq0","pricing_plan_id":"cebpf4jnsgd1na2vs0mg"},{"bike_id":"2d447339-d89d-4dda-a21f-d6b92d43b6a0","system_id":"levelo_inurba_marseille","lat":43.33072,"lon":5.41197,"is_reserved":false,"is_disabled":false,"rental_uris":{"android":"levelo://app?vid=2d447339-d89d-4dda-a21f-d6b92d43b6a0","ios":"levelo://app?vid=2d447339-d89d-4dda-a21f-d6b92d43b6a0"},"vehicle_type_id":"4","last_reported":1729076855,"current_range_meters":8800,"station_id":"ce4bhq92rcd13ifvqhkg","pricing_plan_id":"cebpf4jnsgd1na2vs0mg"},{"bike_id":"2b43ba77-65a0-4518-8886-2e24500744f0","system_id":"levelo_inurba_marseille","lat":43.32366,"lon":5.38886,"is_reserved":false,"is_disabled":false,"rental_uris":{"android":"levelo://app?vid=2b43ba77-65a0-4518-8886-2e24500744f0","ios":"levelo://app?vid=2b43ba77-65a0-4518-8886-2e24500744f0"},"vehicle_type_id":"4","last_reported":1729076855,"current_range_meters":29600,"station_id":"ce4bhqp2rcd13ifvqhog","pricing_plan_id":"cebpf4jnsgd1na2vs0mg"},{"bike_id":"35e7b281-d52f-4de7-933c-d2b9bc62d3ed","system_id":"levelo_inurba_marseille","lat":43.23183,"lon":5.39977,"is_reserved":false,"is_disabled":false,"rental_uris":{"android":"levelo://app?vid=35e7b281-d52f-4de7-933c-d2b9bc62d3ed","ios":"levelo://app?vid=35e7b281-d52f-4de7-933c-d2b9bc62d3ed"},"vehicle_type_id":"4","last_reported":1729076855,"current_range_meters":15200,"station_id":"ce4bhn12rcd13ifvqgqg","pricing_plan_id":"cebpf4jnsgd1na2vs0mg"},{"bike_id":"b6e922ee-7229-43a6-9062-09893303ed16","system_id":"levelo_inurba_marseille","lat":43.3137,"lon":5.38485,"is_reserved":false,"is_disabled":false,"rental_uris":{"android":"levelo://app?vid=b6e922ee-7229-43a6-9062-09893303ed16","ios":"levelo://app?vid=b6e922ee-7229-43a6-9062-09893303ed16"},"vehicle_type_id":"4","last_reported":1729076855,"current_range_meters":26000,"station_id":"ce4bgt92rcd13ifvqcf0","pricing_plan_id":"cebpf4jnsgd1na2vs0mg"},{"bike_id":"9a18534a-dc28-4877-89d5-9c39765e3cf6","system_id":"levelo_inurba_marseille","lat":43.2894,"lon":5.36641,"is_reserved":false,"is_disabled":false,"rental_uris":{"android":"levelo://app?vid=9a18534a-dc28-4877-89d5-9c39765e3cf6","ios":"levelo://app?vid=9a18534a-dc28-4877-89d5-9c39765e3cf6"},"vehicle_type_id":"4","last_reported":1729076855,"current_range_meters":20800,"station_id":"ce4bhap2rcd13ifvqek0","pricing_plan_id":"cebpf4jnsgd1na2vs0mg"},{"bike_id":"d20c08e0-ee44-4250-a9f4-08def898d776","system_id":"levelo_inurba_marseille","lat":43.29922,"lon":5.37474,"is_reserved":false,"is_disabled":false,"rental_uris":{"android":"levelo://app?vid=d20c08e0-ee44-4250-a9f4-08def898d776","ios":"levelo://app?vid=d20c08e0-ee44-4250-a9f4-08def898d776"},"vehicle_type_id":"4","last_reported":1729076855,"current_range_meters":30000,"station_id":"ce4bgjh2rcd13ifvqbg0","pricing_plan_id":"cebpf4jnsgd1na2vs0mg"},{"bike_id":"172d1eb7-31aa-4d45-9c79-93e9ed1f0f50","system_id":"levelo_inurba_marseille","lat":43.30913,"lon":5.36856,"is_reserved":false,"is_disabled":false,"rental_uris":{"android":"levelo://app?vid=172d1eb7-31aa-4d45-9c79-93e9ed1f0f50","ios":"levelo://app?vid=172d1eb7-31aa-4d45-9c79-93e9ed1f0f50"},"vehicle_type_id":"4","last_reported":1729076855,"current_range_meters":38800,"station_id":"ce4bgn92rcd13ifvqbvg","pricing_plan_id":"cebpf4jnsgd1na2vs0mg"},{"bike_id":"c5910f2b-90df-4855-89e9-63651845d9bd","system_id":"levelo_inurba_marseille","lat":43.33759,"lon":5.37442,"is_reserved":false,"is_disabled":false,"rental_uris":{"android":"levelo://app?vid=c5910f2b-90df-4855-89e9-63651845d9bd","ios":"levelo://app?vid=c5910f2b-90df-4855-89e9-63651845d9bd"},"vehicle_type_id":"4","last_reported":1729076855,"current_range_meters":36000,"station_id":"","pricing_plan_id":"cebpf4jnsgd1na2vs0mg"},{"bike_id":"3de1749c-0d87-4dfc-8538-3ee4757ee6af","system_id":"levelo_inurba_marseille","lat":43.24807,"lon":5.3746,"is_reserved":false,"is_disabled":false,"rental_uris":{"android":"levelo://app?vid=3de1749c-0d87-4dfc-8538-3ee4757ee6af","ios":"levelo://app?vid=3de1749c-0d87-4dfc-8538-3ee4757ee6af"},"vehicle_type_id":"4","last_reported":1729076855,"current_range_meters":8000,"station_id":"ce4bhgh2rcd13ifvqfb0","pricing_plan_id":"cebpf4jnsgd1na2vs0mg"},{"bike_id":"ae268a20-89e6-41d1-a5f2-0688af861109","system_id":"levelo_inurba_marseille","lat":43.26937,"lon":5.40257,"is_reserved":false,"is_disabled":false,"rental_uris":{"android":"levelo://app?vid=ae268a20-89e6-41d1-a5f2-0688af861109","ios":"levelo://app?vid=ae268a20-89e6-41d1-a5f2-0688af861109"},"vehicle_type_id":"4","last_reported":1729076855,"current_range_meters":14000,"station_id":"cjm6bp8fraef2m0cb0m0","pricing_plan_id":"cebpf4jnsgd1na2vs0mg"},{"bike_id":"3c4104b7-67f5-4e07-866d-b6f9395a3a4d","system_id":"levelo_inurba_marseille","lat":43.29384,"lon":5.31299,"is_reserved":false,"is_disabled":false,"rental_uris":{"android":"levelo://app?vid=3c4104b7-67f5-4e07-866d-b6f9395a3a4d","ios":"levelo://app?vid=3c4104b7-67f5-4e07-866d-b6f9395a3a4d"},"vehicle_type_id":"4","last_reported":1729076855,"current_range_meters":15200,"station_id":"ce4bgjh2rcd13ifvqbg0","pricing_plan_id":"cebpf4jnsgd1na2vs0mg"},{"bike_id":"575c61a8-0bd3-4111-8f91-6858f637b413","system_id":"levelo_inurba_marseille","lat":43.29898,"lon":5.4366,"is_reserved":false,"is_disabled":false,"rental_uris":{"android":"levelo://app?vid=575c61a8-0bd3-4111-8f91-6858f637b413","ios":"levelo://app?vid=575c61a8-0bd3-4111-8f91-6858f637b413"},"vehicle_type_id":"4","last_reported":1729076855,"current_range_meters":36800,"station_id":"ce4bhpp2rcd13ifvqhfg","pricing_plan_id":"cebpf4jnsgd1na2vs0mg"},{"bike_id":"523a355c-bfd6-4bdc-91fc-2d8a331ccd8f","system_id":"levelo_inurba_marseille","lat":43.30312,"lon":5.36864,"is_reserved":false,"is_disabled":false,"rental_uris":{"android":"levelo://app?vid=523a355c-bfd6-4bdc-91fc-2d8a331ccd8f","ios":"levelo://app?vid=523a355c-bfd6-4bdc-91fc-2d8a331ccd8f"},"vehicle_type_id":"4","last_reported":1729076855,"current_range_meters":17600,"station_id":"ce4bgqh2rcd13ifvqc5g","pricing_plan_id":"cebpf4jnsgd1na2vs0mg"},{"bike_id":"eadc037b-505b-4cf9-9263-a58ffbbf3d7c","system_id":"levelo_inurba_marseille","lat":43.30826,"lon":5.37394,"is_reserved":false,"is_disabled":false,"rental_uris":{"android":"levelo://app?vid=eadc037b-505b-4cf9-9263-a58ffbbf3d7c","ios":"levelo://app?vid=eadc037b-505b-4cf9-9263-a58ffbbf3d7c"},"vehicle_type_id":"4","last_reported":1729076855,"current_range_meters":7200,"station_id":"ce4bgup2rcd13ifvqcn0","pricing_plan_id":"cebpf4jnsgd1na2vs0mg"},{"bike_id":"52ac99c9-429c-4173-8c91-438318005830","system_id":"levelo_inurba_marseille","lat":43.24996,"lon":5.38937,"is_reserved":false,"is_disabled":false,"rental_uris":{"android":"levelo://app?vid=52ac99c9-429c-4173-8c91-438318005830","ios":"levelo://app?vid=52ac99c9-429c-4173-8c91-438318005830"},"vehicle_type_id":"4","last_reported":1729076855,"current_range_meters":30800,"station_id":"ce4bhgp2rcd13ifvqfd0","pricing_plan_id":"cebpf4jnsgd1na2vs0mg"},{"bike_id":"ce89065c-1499-4b80-a781-c6ef67e9007c","system_id":"levelo_inurba_marseille","lat":43.29193,"lon":5.40227,"is_reserved":false,"is_disabled":false,"rental_uris":{"android":"levelo://app?vid=ce89065c-1499-4b80-a781-c6ef67e9007c","ios":"levelo://app?vid=ce89065c-1499-4b80-a781-c6ef67e9007c"},"vehicle_type_id":"4","last_reported":1729076855,"current_range_meters":35600,"station_id":"","pricing_plan_id":"cebpf4jnsgd1na2vs0mg"},{"bike_id":"f36fb4f2-4890-4636-9545-13e718ce5e86","system_id":"levelo_inurba_marseille","lat":43.3082,"lon":5.38134,"is_reserved":false,"is_disabled":false,"rental_uris":{"android":"levelo://app?vid=f36fb4f2-4890-4636-9545-13e718ce5e86","ios":"levelo://app?vid=f36fb4f2-4890-4636-9545-13e718ce5e86"},"vehicle_type_id":"4","last_reported":1729076855,"current_range_meters":36400,"station_id":"ce4bgt12rcd13ifvqce0","pricing_plan_id":"cebpf4jnsgd1na2vs0mg"},{"bike_id":"e5c53085-18b0-4068-a705-5ab89baff5fa","system_id":"levelo_inurba_marseille","lat":43.30175,"lon":5.36617,"is_reserved":false,"is_disabled":false,"rental_uris":{"android":"levelo://app?vid=e5c53085-18b0-4068-a705-5ab89baff5fa","ios":"levelo://app?vid=e5c53085-18b0-4068-a705-5ab89baff5fa"},"vehicle_type_id":"4","last_reported":1729076855,"current_range_meters":37600,"station_id":"ce4bgrh2rcd13ifvqc8g","pricing_plan_id":"cebpf4jnsgd1na2vs0mg"},{"bike_id":"f94da947-b1a0-40ed-8143-ed5ebffc5c44","system_id":"levelo_inurba_marseille","lat":43.27951,"lon":5.41049,"is_reserved":false,"is_disabled":false,"rental_uris":{"android":"levelo://app?vid=f94da947-b1a0-40ed-8143-ed5ebffc5c44","ios":"levelo://app?vid=f94da947-b1a0-40ed-8143-ed5ebffc5c44"},"vehicle_type_id":"4","last_reported":1729076855,"current_range_meters":36000,"station_id":"ce4bhnp2rcd13ifvqh0g","pricing_plan_id":"cebpf4jnsgd1na2vs0mg"},{"bike_id":"bde0615c-8c04-4137-84dd-992d48aaae23","system_id":"levelo_inurba_marseille","lat":43.27832,"lon":5.39215,"is_reserved":false,"is_disabled":false,"rental_uris":{"android":"levelo://app?vid=bde0615c-8c04-4137-84dd-992d48aaae23","ios":"levelo://app?vid=bde0615c-8c04-4137-84dd-992d48aaae23"},"vehicle_type_id":"4","last_reported":1729076855,"current_range_meters":38800,"station_id":"ce4bhjp2rcd13ifvqga0","pricing_plan_id":"cebpf4jnsgd1na2vs0mg"},{"bike_id":"4a02254c-7be3-4d25-ac32-e5c919523aef","system_id":"levelo_inurba_marseille","lat":43.24808,"lon":5.37467,"is_reserved":false,"is_disabled":false,"rental_uris":{"android":"levelo://app?vid=4a02254c-7be3-4d25-ac32-e5c919523aef","ios":"levelo://app?vid=4a02254c-7be3-4d25-ac32-e5c919523aef"},"vehicle_type_id":"4","last_reported":1729076855,"current_range_meters":28800,"station_id":"ce4bhgh2rcd13ifvqfb0","pricing_plan_id":"cebpf4jnsgd1na2vs0mg"},{"bike_id":"9f1151ba-4bac-4889-a894-68008351994e","system_id":"levelo_inurba_marseille","lat":43.2919,"lon":5.35812,"is_reserved":false,"is_disabled":false,"rental_uris":{"android":"levelo://app?vid=9f1151ba-4bac-4889-a894-68008351994e","ios":"levelo://app?vid=9f1151ba-4bac-4889-a894-68008351994e"},"vehicle_type_id":"4","last_reported":1729076855,"current_range_meters":17200,"station_id":"ce4bhb12rcd13ifvqel0","pricing_plan_id":"cebpf4jnsgd1na2vs0mg"},{"bike_id":"2343b04f-efb8-4cbe-af2b-b5a79e7725fb","system_id":"levelo_inurba_marseille","lat":43.29441,"lon":5.39741,"is_reserved":false,"is_disabled":false,"rental_uris":{"android":"levelo://app?vid=2343b04f-efb8-4cbe-af2b-b5a79e7725fb","ios":"levelo://app?vid=2343b04f-efb8-4cbe-af2b-b5a79e7725fb"},"vehicle_type_id":"4","last_reported":1729076855,"current_range_meters":36800,"station_id":"ce4bh3h2rcd13ifvqdo0","pricing_plan_id":"cebpf4jnsgd1na2vs0mg"},{"bike_id":"9aee57aa-4a2c-4ba1-8b0b-3dbf10d502a0","system_id":"levelo_inurba_marseille","lat":43.24166,"lon":5.36404,"is_reserved":false,"is_disabled":false,"rental_uris":{"android":"levelo://app?vid=9aee57aa-4a2c-4ba1-8b0b-3dbf10d502a0","ios":"levelo://app?vid=9aee57aa-4a2c-4ba1-8b0b-3dbf10d502a0"},"vehicle_type_id":"4","last_reported":1729076855,"current_range_meters":3600,"station_id":"cpo36qri1sfpv3e86is0","pricing_plan_id":"cebpf4jnsgd1na2vs0mg"},{"bike_id":"68ac4c07-630f-41a6-9fc6-31f6810fcd32","system_id":"levelo_inurba_marseille","lat":43.30792,"lon":5.43528,"is_reserved":false,"is_disabled":false,"rental_uris":{"android":"levelo://app?vid=68ac4c07-630f-41a6-9fc6-31f6810fcd32","ios":"levelo://app?vid=68ac4c07-630f-41a6-9fc6-31f6810fcd32"},"vehicle_type_id":"4","last_reported":1729076855,"current_range_meters":20800,"station_id":"ce4bhph2rcd13ifvqheg","pricing_plan_id":"cebpf4jnsgd1na2vs0mg"},{"bike_id":"bb39d110-1845-4a8d-90d6-055052ff3c88","system_id":"levelo_inurba_marseille","lat":43.24181,"lon":5.39722,"is_reserved":false,"is_disabled":false,"rental_uris":{"android":"levelo://app?vid=bb39d110-1845-4a8d-90d6-055052ff3c88","ios":"levelo://app?vid=bb39d110-1845-4a8d-90d6-055052ff3c88"},"vehicle_type_id":"4","last_reported":1729076855,"current_range_meters":26000,"station_id":"ce4bhn12rcd13ifvqgpg","pricing_plan_id":"cebpf4jnsgd1na2vs0mg"},{"bike_id":"8d880e43-0ec7-4f7a-8357-4cd0a95ea152","system_id":"levelo_inurba_marseille","lat":43.27212,"lon":5.39179,"is_reserved":false,"is_disabled":false,"rental_uris":{"android":"levelo://app?vid=8d880e43-0ec7-4f7a-8357-4cd0a95ea152","ios":"levelo://app?vid=8d880e43-0ec7-4f7a-8357-4cd0a95ea152"},"vehicle_type_id":"4","last_reported":1729076855,"current_range_meters":24400,"station_id":"ce4bhhp2rcd13ifvqfm0","pricing_plan_id":"cebpf4jnsgd1na2vs0mg"},{"bike_id":"f1e41c77-7b00-491a-84f2-4c3a9f8bb90e","system_id":"levelo_inurba_marseille","lat":43.33765,"lon":5.3744,"is_reserved":false,"is_disabled":false,"rental_uris":{"android":"levelo://app?vid=f1e41c77-7b00-491a-84f2-4c3a9f8bb90e","ios":"levelo://app?vid=f1e41c77-7b00-491a-84f2-4c3a9f8bb90e"},"vehicle_type_id":"4","last_reported":1729076855,"current_range_meters":35200,"station_id":"","pricing_plan_id":"cebpf4jnsgd1na2vs0mg"},{"bike_id":"f269126c-1b0b-4a1a-a1d6-f8c3716f5336","system_id":"levelo_inurba_marseille","lat":43.23193,"lon":5.35554,"is_reserved":false,"is_disabled":false,"rental_uris":{"android":"levelo://app?vid=f269126c-1b0b-4a1a-a1d6-f8c3716f5336","ios":"levelo://app?vid=f269126c-1b0b-4a1a-a1d6-f8c3716f5336"},"vehicle_type_id":"4","last_reported":1729076855,"current_range_meters":28400,"station_id":"ce4bhu92rcd13ifvqi70","pricing_plan_id":"cebpf4jnsgd1na2vs0mg"},{"bike_id":"30fe6993-a140-4623-9c20-2a29fd4f24f6","system_id":"levelo_inurba_marseille","lat":43.29422,"lon":5.38619,"is_reserved":false,"is_disabled":false,"rental_uris":{"android":"levelo://app?vid=30fe6993-a140-4623-9c20-2a29fd4f24f6","ios":"levelo://app?vid=30fe6993-a140-4623-9c20-2a29fd4f24f6"},