{"last_updated":1745298667,"ttl":60,"version":"2.2","data":{"bikes":[{"bike_id":"13018b37-7712-4e10-b3d5-4cd7ac013443","system_id":"levelo_inurba_marseille","lat":43.28774,"lon":5.39854,"is_reserved":false,"is_disabled":false,"rental_uris":{"android":"levelo://app?vid=13018b37-7712-4e10-b3d5-4cd7ac013443","ios":"levelo://app?vid=13018b37-7712-4e10-b3d5-4cd7ac013443"},"vehicle_type_id":"4","last_reported":1745298667,"current_range_meters":2800,"station_id":"","pricing_plan_id":"cebpf4jnsgd1na2vs0mg"},{"bike_id":"e9b40b8c-aa8b-493b-9704-ac204b4fdb74","system_id":"levelo_inurba_marseille","lat":43.22505,"lon":5.34785,"is_reserved":false,"is_disabled":true,"rental_uris":{"android":"levelo://app?vid=e9b40b8c-aa8b-493b-9704-ac204b4fdb74","ios":"levelo://app?vid=e9b40b8c-aa8b-493b-9704-ac204b4fdb74"},"vehicle_type_id":"4","last_reported":1745298667,"current_range_meters":2800,"station_id":"","pricing_plan_id":"cebpf4jnsgd1na2vs0mg"},{"bike_id":"e39d68e1-d581-42b4-beaf-9a00f5ac5bac","system_id":"levelo_inurba_marseille","lat":43.211826,"lon":5.350785,"is_reserved":false,"is_disabled":true,"rental_uris":{"android":"levelo://app?vid=e39d68e1-d581-42b4-beaf-9a00f5ac5bac","ios":"levelo://app?vid=e39d68e1-d581-42b4-beaf-9a00f5ac5bac"},"vehicle_type_id":"4","last_reported":1745298667,"current_range_meters":2800,"station_id":"st_cvj6sg6p6f1abm77japg","pricing_plan_id":"cebpf4jnsgd1na2vs0mg"},{"bike_id":"949a3b98-b3d0-4b58-9e5c-50967c540964","system_id":"levelo_inurba_marseille","lat":43.297195,"lon":5.400666,"is_reserved":false,"is_disabled":false,"rental_uris":{"android":"levelo://app?vid=949a3b98-b3d0-4b58-9e5c-50967c540964","ios":"levelo://app?vid=949a3b98-b3d0-4b58-9e5c-50967c540964"},"vehicle_type_id":"4","last_reported":1745298667,"current_range_meters":2800,"station_id":"","pricing_plan_id":"cebpf4jnsgd1na2vs0mg"},{"bike_id":"13dcc10c-4cac-4cf2-9318-07e242720dc9","system_id":"levelo_inurba_marseille","lat":43.312,"lon":5.37715,"is_reserved":false,"is_disabled":true,"rental_uris":{"android":"levelo://app?vid=13dcc10c-4cac-4cf2-9318-07e242720dc9","ios":"levelo://app?vid=13dcc10c-4cac-4cf2-9318-07e242720dc9"},"vehicle_type_id":"4","last_reported":1745298667,"current_range_meters":3200,"station_id":"","pricing_plan_id":"cebpf4jnsgd1na2vs0mg"},{"bike_id":"008f16e8-e7c6-4190-8f9d-cc538319dd1b","system_id":"levelo_inurba_marseille","lat":43.257103,"lon":5.411083,"is_reserved":false,"is_disabled":false,"rental_uris":{"android":"levelo://app?vid=008f16e8-e7c6-4190-8f9d-cc538319dd1b","ios":"levelo://app?vid=008f16e8-e7c6-4190-8f9d-cc538319dd1b"},"vehicle_type_id":"4","last_reported":1745298667,"current_range_meters":3200,"station_id":"ce4bhkp2rcd13ifvqgd0","pricing_plan_id":"cebpf4jnsgd1na2vs0mg"},{"bike_id":"4f0b25c3-2f51-4c00-9f56-69333455e756","system_id":"levelo_inurba_marseille","lat":43.27851,"lon":5.39295,"is_reserved":false,"is_disabled":false,"rental_uris":{"android":"levelo://app?vid=4f0b25c3-2f51-4c00-9f56-69333455e756","ios":"levelo://app?vid=4f0b25c3-2f51-4c00-9f56-69333455e756"},"vehicle_type_id":"4","last_reported":1745298667,"current_range_meters":3200,"station_id":"","pricing_plan_id":"cebpf4jnsgd1na2vs0mg"},{"bike_id":"ba688fa3-020d-49aa-be99-774baa1304a2","system_id":"levelo_inurba_marseille","lat":43.337161,"lon":5.391958,"is_reserved":false,"is_disabled":false,"rental_uris":{"android":"levelo://app?vid=ba688fa3-020d-49aa-be99-774baa1304a2","ios":"levelo://app?vid=ba688fa3-020d-49aa-be99-774baa1304a2"},"vehicle_type_id":"4","last_reported":1745298667,"current_range_meters":3600,"station_id":"ce4bhr92rcd13ifvqhsg","pricing_plan_id":"cebpf4jnsgd1na2vs0mg"},{"bike_id":"78aece85-c46b-4258-a347-19f84066e54e","system_id":"levelo_inurba_marseille","lat":43.30149,"lon":5.38083,"is_reserved":false,"is_disabled":false,"rental_uris":{"android":"levelo://app?vid=78aece85-c46b-4258-a347-19f84066e54e","ios":"levelo://app?vid=78aece85-c46b-4258-a347-19f84066e54e"},"vehicle_type_id":"4","last_reported":1745298667,"current_range_meters":3600,"station_id":"ce4bgjp2rcd13ifvqbh0","pricing_plan_id":"cebpf4jnsgd1na2vs0mg"},{"bike_id":"2bdde4a3-7509-460a-b2c7-d172c5297380","system_id":"levelo_inurba_marseille","lat":43.21196,"lon":5.35071,"is_reserved":false,"is_disabled":true,"rental_uris":{"android":"levelo://app?vid=2bdde4a3-7509-460a-b2c7-d172c5297380","ios":"levelo://app?vid=2bdde4a3-7509-460a-b2c7-d172c5297380"},"vehicle_type_id":"4","last_reported":1745298667,"current_range_meters":3600,"station_id":"st_cvj6sg6p6f1abm77japg","pricing_plan_id":"cebpf4jnsgd1na2vs0mg"},{"bike_id":"49225d49-9260-47b2-a782-7d3d21b08c48","system_id":"levelo_inurba_marseille","lat":43.295342,"lon":5.378851,"is_reserved":false,"is_disabled":false,"rental_uris":{"android":"levelo://app?vid=49225d49-9260-47b2-a782-7d3d21b08c48","ios":"levelo://app?vid=49225d49-9260-47b2-a782-7d3d21b08c48"},"vehicle_type_id":"4","last_reported":1745298667,"current_range_meters":4000,"station_id":"","pricing_plan_id":"cebpf4jnsgd1na2vs0mg"},{"bike_id":"1f782e02-f2ac-467d-ba1b-c1b93e36fb52","system_id":"levelo_inurba_marseille","lat":43.31475,"lon":5.37315,"is_reserved":false,"is_disabled":false,"rental_uris":{"android":"levelo://app?vid=1f782e02-f2ac-467d-ba1b-c1b93e36fb52","ios":"levelo://app?vid=1f782e02-f2ac-467d-ba1b-c1b93e36fb52"},"vehicle_type_id":"4","last_reported":1745298667,"current_range_meters":4000,"station_id":"ce4bgt12rcd13ifvqcd0","pricing_plan_id":"cebpf4jnsgd1na2vs0mg"},{"bike_id":"bfefb57c-154e-4cbc-90d7-24ac4b95745f","system_id":"levelo_inurba_marseille","lat":43.31041,"lon":5.37086,"is_reserved":false,"is_disabled":false,"rental_uris":{"android":"levelo://app?vid=bfefb57c-154e-4cbc-90d7-24ac4b95745f","ios":"levelo://app?vid=bfefb57c-154e-4cbc-90d7-24ac4b95745f"},"vehicle_type_id":"4","last_reported":1745298667,"current_range_meters":4000,"station_id":"","pricing_plan_id":"cebpf4jnsgd1na2vs0mg"},{"bike_id":"901518be-3c90-4e14-ada4-9071cd926d8b","system_id":"levelo_inurba_marseille","lat":43.27493,"lon":5.4247,"is_reserved":false,"is_disabled":true,"rental_uris":{"android":"levelo://app?vid=901518be-3c90-4e14-ada4-9071cd926d8b","ios":"levelo://app?vid=901518be-3c90-4e14-ada4-9071cd926d8b"},"vehicle_type_id":"4","last_reported":1745298667,"current_range_meters":4000,"station_id":"ce4bhn92rcd13ifvqgrg","pricing_plan_id":"cebpf4jnsgd1na2vs0mg"},{"bike_id":"6d0b1e09-0778-4875-a9ec-ebd4ab3c5c71","system_id":"levelo_inurba_marseille","lat":43.21192,"lon":5.35069,"is_reserved":false,"is_disabled":true,"rental_uris":{"android":"levelo://app?vid=6d0b1e09-0778-4875-a9ec-ebd4ab3c5c71","ios":"levelo://app?vid=6d0b1e09-0778-4875-a9ec-ebd4ab3c5c71"},"vehicle_type_id":"4","last_reported":1745298667,"current_range_meters":4400,"station_id":"st_cvj6sg6p6f1abm77japg","pricing_plan_id":"cebpf4jnsgd1na2vs0mg"},{"bike_id":"a373f1b2-c1f8-4d57-bca1-4c97514ea92c","system_id":"levelo_inurba_marseille","lat":43.31299,"lon":5.36853,"is_reserved":false,"is_disabled":true,"rental_uris":{"android":"levelo://app?vid=a373f1b2-c1f8-4d57-bca1-4c97514ea92c","ios":"levelo://app?vid=a373f1b2-c1f8-4d57-bca1-4c97514ea92c"},"vehicle_type_id":"4","last_reported":1745298667,"current_range_meters":4400,"station_id":"ce4bgl92rcd13ifvqbq0","pricing_plan_id":"cebpf4jnsgd1na2vs0mg"},{"bike_id":"f9f9d5ce-2f23-4be0-bbbb-b9ffc6ced447","system_id":"levelo_inurba_marseille","lat":43.29277,"lon":5.36843,"is_reserved":false,"is_disabled":false,"rental_uris":{"android":"levelo://app?vid=f9f9d5ce-2f23-4be0-bbbb-b9ffc6ced447","ios":"levelo://app?vid=f9f9d5ce-2f23-4be0-bbbb-b9ffc6ced447"},"vehicle_type_id":"4","last_reported":1745298667,"current_range_meters":4800,"station_id":"ce4bhbp2rcd13ifvqesg","pricing_plan_id":"cebpf4jnsgd1na2vs0mg"},{"bike_id":"f984d1c9-94d7-48d1-9f06-f702edb8335d","system_id":"levelo_inurba_marseille","lat":43.241695,"lon":5.364149,"is_reserved":false,"is_disabled":true,"rental_uris":{"android":"levelo://app?vid=f984d1c9-94d7-48d1-9f06-f702edb8335d","ios":"levelo://app?vid=f984d1c9-94d7-48d1-9f06-f702edb8335d"},"vehicle_type_id":"4","last_reported":1745298667,"current_range_meters":4800,"station_id":"cpo36qri1sfpv3e86is0","pricing_plan_id":"cebpf4jnsgd1na2vs0mg"},{"bike_id":"b9eabe22-14e8-4096-b7f7-dc24c3e65d3d","system_id":"levelo_inurba_marseille","lat":43.26903,"lon":5.40289,"is_reserved":false,"is_disabled":false,"rental_uris":{"android":"levelo://app?vid=b9eabe22-14e8-4096-b7f7-dc24c3e65d3d","ios":"levelo://app?vid=b9eabe22-14e8-4096-b7f7-dc24c3e65d3d"},"vehicle_type_id":"4","last_reported":1745298667,"current_range_meters":5600,"station_id":"","pricing_plan_id":"cebpf4jnsgd1na2vs0mg"},{"bike_id":"9bcafa8d-bec4-46c9-98da-bc1b63b46043","system_id":"levelo_inurba_marseille","lat":43.30453,"lon":5.37923,"is_reserved":false,"is_disabled":false,"rental_uris":{"android":"levelo://app?vid=9bcafa8d-bec4-46c9-98da-bc1b63b46043","ios":"levelo://app?vid=9bcafa8d-bec4-46c9-98da-bc1b63b46043"},"vehicle_type_id":"4","last_reported":1745298667,"current_range_meters":6000,"station_id":"ce4bgup2rcd13ifvqcn0","pricing_plan_id":"cebpf4jnsgd1na2vs0mg"},{"bike_id":"0d5ea7b1-dddf-43fe-aea2-a6db5036338d","system_id":"levelo_inurba_marseille","lat":43.29024,"lon":5.38658,"is_reserved":false,"is_disabled":true,"rental_uris":{"android":"levelo://app?vid=0d5ea7b1-dddf-43fe-aea2-a6db5036338d","ios":"levelo://app?vid=0d5ea7b1-dddf-43fe-aea2-a6db5036338d"},"vehicle_type_id":"4","last_reported":1745298667,"current_range_meters":6400,"station_id":"ce4bh4p2rcd13ifvqe0g","pricing_plan_id":"cebpf4jnsgd1na2vs0mg"},{"bike_id":"af9ef17a-4f68-4db8-b9e9-55e2068af603","system_id":"levelo_inurba_marseille","lat":43.31489,"lon":5.372963,"is_reserved":false,"is_disabled":false,"rental_uris":{"android":"levelo://app?vid=af9ef17a-4f68-4db8-b9e9-55e2068af603","ios":"levelo://app?vid=af9ef17a-4f68-4db8-b9e9-55e2068af603"},"vehicle_type_id":"4","last_reported":1745298667,"current_range_meters":6400,"station_id":"ce4bgt12rcd13ifvqcd0","pricing_plan_id":"cebpf4jnsgd1na2vs0mg"},{"bike_id":"24fbcc72-e148-4925-8ae4-21014e243124","system_id":"levelo_inurba_marseille","lat":43.26777,"lon":5.39416,"is_reserved":false,"is_disabled":false,"rental_uris":{"android":"levelo://app?vid=24fbcc72-e148-4925-8ae4-21014e243124","ios":"levelo://app?vid=24fbcc72-e148-4925-8ae4-21014e243124"},"vehicle_type_id":"4","last_reported":1745298667,"current_range_meters":6400,"station_id":"ce4bhh12rcd13ifvqfg0","pricing_plan_id":"cebpf4jnsgd1na2vs0mg"},{"bike_id":"3abc6f89-03ac-4495-a4f3-98421156fd12","system_id":"levelo_inurba_marseille","lat":43.279,"lon":5.41174,"is_reserved":false,"is_disabled":false,"rental_uris":{"android":"levelo://app?vid=3abc6f89-03ac-4495-a4f3-98421156fd12","ios":"levelo://app?vid=3abc6f89-03ac-4495-a4f3-98421156fd12"},"vehicle_type_id":"4","last_reported":1745298667,"current_range_meters":6400,"station_id":"","pricing_plan_id":"cebpf4jnsgd1na2vs0mg"},{"bike_id":"dacb9310-ef47-42d4-82c3-6f67b29ded17","system_id":"levelo_inurba_marseille","lat":43.319956,"lon":5.381472,"is_reserved":false,"is_disabled":true,"rental_uris":{"android":"levelo://app?vid=dacb9310-ef47-42d4-82c3-6f67b29ded17","ios":"levelo://app?vid=dacb9310-ef47-42d4-82c3-6f67b29ded17"},"vehicle_type_id":"4","last_reported":1745298667,"current_range_meters":6800,"station_id":"ce4bhr12rcd13ifvqhpg","pricing_plan_id":"cebpf4jnsgd1na2vs0mg"},{"bike_id":"2eae6397-3f35-48cb-91a4-97f36e4dda21","system_id":"levelo_inurba_marseille","lat":43.217554,"lon":5.346053,"is_reserved":false,"is_disabled":true,"rental_uris":{"android":"levelo://app?vid=2eae6397-3f35-48cb-91a4-97f36e4dda21","ios":"levelo://app?vid=2eae6397-3f35-48cb-91a4-97f36e4dda21"},"vehicle_type_id":"4","last_reported":1745298667,"current_range_meters":6800,"station_id":"","pricing_plan_id":"cebpf4jnsgd1na2vs0mg"},{"bike_id":"83458351-f904-4977-ba29-6514c513febe","system_id":"levelo_inurba_marseille","lat":43.30319,"lon":5.40403,"is_reserved":false,"is_disabled":false,"rental_uris":{"android":"levelo://app?vid=83458351-f904-4977-ba29-6514c513febe","ios":"levelo://app?vid=83458351-f904-4977-ba29-6514c513febe"},"vehicle_type_id":"4","last_reported":1745298667,"current_range_meters":6800,"station_id":"ce4bh012rcd13ifvqd10","pricing_plan_id":"cebpf4jnsgd1na2vs0mg"},{"bike_id":"7fc13708-0a51-4d48-b10d-562b87dc6657","system_id":"levelo_inurba_marseille","lat":43.26044,"lon":5.39444,"is_reserved":false,"is_disabled":true,"rental_uris":{"android":"levelo://app?vid=7fc13708-0a51-4d48-b10d-562b87dc6657","ios":"levelo://app?vid=7fc13708-0a51-4d48-b10d-562b87dc6657"},"vehicle_type_id":"4","last_reported":1745298667,"current_range_meters":6800,"station_id":"ce4bhh92rcd13ifvqfj0","pricing_plan_id":"cebpf4jnsgd1na2vs0mg"},{"bike_id":"08adba7b-eac3-4cfc-9923-2ccf0cc4ffef","system_id":"levelo_inurba_marseille","lat":43.24538,"lon":5.41301,"is_reserved":false,"is_disabled":false,"rental_uris":{"android":"levelo://app?vid=08adba7b-eac3-4cfc-9923-2ccf0cc4ffef","ios":"levelo://app?vid=08adba7b-eac3-4cfc-9923-2ccf0cc4ffef"},"vehicle_type_id":"4","last_reported":1745298667,"current_range_meters":7200,"station_id":"","pricing_plan_id":"cebpf4jnsgd1na2vs0mg"},{"bike_id":"1f84f51f-d2f4-4d4c-982d-d184ffe24a02","system_id":"levelo_inurba_marseille","lat":43.32361,"lon":5.3889,"is_reserved":false,"is_disabled":true,"rental_uris":{"android":"levelo://app?vid=1f84f51f-d2f4-4d4c-982d-d184ffe24a02","ios":"levelo://app?vid=1f84f51f-d2f4-4d4c-982d-d184ffe24a02"},"vehicle_type_id":"4","last_reported":1745298667,"current_range_meters":7200,"station_id":"ce4bhqp2rcd13ifvqhog","pricing_plan_id":"cebpf4jnsgd1na2vs0mg"},{"bike_id":"53cf9d87-caae-461e-9499-8fb324b1d434","system_id":"levelo_inurba_marseille","lat":43.30155,"lon":5.38086,"is_reserved":false,"is_disabled":false,"rental_uris":{"android":"levelo://app?vid=53cf9d87-caae-461e-9499-8fb324b1d434","ios":"levelo://app?vid=53cf9d87-caae-461e-9499-8fb324b1d434"},"vehicle_type_id":"4","last_reported":1745298667,"current_range_meters":7200,"station_id":"ce4bgjp2rcd13ifvqbh0","pricing_plan_id":"cebpf4jnsgd1na2vs0mg"},{"bike_id":"54d81682-c140-4760-8ff0-12ada7f5faf1","system_id":"levelo_inurba_marseille","lat":43.31357,"lon":5.36694,"is_reserved":false,"is_disabled":false,"rental_uris":{"android":"levelo://app?vid=54d81682-c140-4760-8ff0-12ada7f5faf1","ios":"levelo://app?vid=54d81682-c140-4760-8ff0-12ada7f5faf1"},"vehicle_type_id":"4","last_reported":1745298667,"current_range_meters":7200,"station_id":"ce4bgr92rcd13ifvqc6g","pricing_plan_id":"cebpf4jnsgd1na2vs0mg"},{"bike_id":"6fd03af9-7c6e-4b0a-b29f-3c73b47dd294","system_id":"levelo_inurba_marseille","lat":43.28712,"lon":5.39989,"is_reserved":false,"is_disabled":false,"rental_uris":{"android":"levelo://app?vid=6fd03af9-7c6e-4b0a-b29f-3c73b47dd294","ios":"levelo://app?vid=6fd03af9-7c6e-4b0a-b29f-3c73b47dd294"},"vehicle_type_id":"4","last_reported":1745298667,"current_range_meters":8000,"station_id":"ce4bho92rcd13ifvqh3g","pricing_plan_id":"cebpf4jnsgd1na2vs0mg"},{"bike_id":"78a1a724-1424-40bb-82f8-c320da3c5899","system_id":"levelo_inurba_marseille","lat":43.27068,"lon":5.42281,"is_reserved":false,"is_disabled":false,"rental_uris":{"android":"levelo://app?vid=78a1a724-1424-40bb-82f8-c320da3c5899","ios":"levelo://app?vid=78a1a724-1424-40bb-82f8-c320da3c5899"},"vehicle_type_id":"4","last_reported":1745298667,"current_range_meters":8000,"station_id":"ce4bhk92rcd13ifvqgb0","pricing_plan_id":"cebpf4jnsgd1na2vs0mg"},{"bike_id":"b09a0f3d-c48b-475b-8346-07998bdf0685","system_id":"levelo_inurba_marseille","lat":43.24086,"lon":5.37767,"is_reserved":false,"is_disabled":false,"rental_uris":{"android":"levelo://app?vid=b09a0f3d-c48b-475b-8346-07998bdf0685","ios":"levelo://app?vid=b09a0f3d-c48b-475b-8346-07998bdf0685"},"vehicle_type_id":"4","last_reported":1745298667,"current_range_meters":8000,"station_id":"ce4bhnp2rcd13ifvqgvg","pricing_plan_id":"cebpf4jnsgd1na2vs0mg"},{"bike_id":"0e3f01e5-c3de-4476-9321-0ae8ce1ce1f2","system_id":"levelo_inurba_marseille","lat":43.28374,"lon":5.3864,"is_reserved":false,"is_disabled":false,"rental_uris":{"android":"levelo://app?vid=0e3f01e5-c3de-4476-9321-0ae8ce1ce1f2","ios":"levelo://app?vid=0e3f01e5-c3de-4476-9321-0ae8ce1ce1f2"},"vehicle_type_id":"4","last_reported":1745298667,"current_range_meters":8000,"station_id":"ce4bh492rcd13ifvqdvg","pricing_plan_id":"cebpf4jnsgd1na2vs0mg"},{"bike_id":"b3fbcf1e-704c-4a62-b16c-3d3e62dbba14","system_id":"levelo_inurba_marseille","lat":43.26934,"lon":5.40268,"is_reserved":false,"is_disabled":false,"rental_uris":{"android":"levelo://app?vid=b3fbcf1e-704c-4a62-b16c-3d3e62dbba14","ios":"levelo://app?vid=b3fbcf1e-704c-4a62-b16c-3d3e62dbba14"},"vehicle_type_id":"4","last_reported":1745298667,"current_range_meters":8000,"station_id":"cjm6bp8fraef2m0cb0m0","pricing_plan_id":"cebpf4jnsgd1na2vs0mg"},{"bike_id":"35f2a906-9ed9-4281-a569-57111b51db28","system_id":"levelo_inurba_marseille","lat":43.250073,"lon":5.389517,"is_reserved":false,"is_disabled":false,"rental_uris":{"android":"levelo://app?vid=35f2a906-9ed9-4281-a569-57111b51db28","ios":"levelo://app?vid=35f2a906-9ed9-4281-a569-57111b51db28"},"vehicle_type_id":"4","last_reported":1745298667,"current_range_meters":8400,"station_id":"ce4bhgp2rcd13ifvqfd0","pricing_plan_id":"cebpf4jnsgd1na2vs0mg"},{"bike_id":"8a22242a-73a7-412d-b9cd-62ce2fd89dc2","system_id":"levelo_inurba_marseille","lat":43.2845,"lon":5.35899,"is_reserved":false,"is_disabled":false,"rental_uris":{"android":"levelo://app?vid=8a22242a-73a7-412d-b9cd-62ce2fd89dc2","ios":"levelo://app?vid=8a22242a-73a7-412d-b9cd-62ce2fd89dc2"},"vehicle_type_id":"4","last_reported":1745298667,"current_range_meters":8400,"station_id":"ce4bhah2rcd13ifvqei0","pricing_plan_id":"cebpf4jnsgd1na2vs0mg"},{"bike_id":"34166cb2-24d1-48d4-88e5-65264e3a037d","system_id":"levelo_inurba_marseille","lat":43.31035,"lon":5.37108,"is_reserved":false,"is_disabled":false,"rental_uris":{"android":"levelo://app?vid=34166cb2-24d1-48d4-88e5-65264e3a037d","ios":"levelo://app?vid=34166cb2-24d1-48d4-88e5-65264e3a037d"},"vehicle_type_id":"4","last_reported":1745298667,"current_range_meters":8400,"station_id":"","pricing_plan_id":"cebpf4jnsgd1na2vs0mg"},{"bike_id":"5d71f84a-10ca-4e55-9806-002e8068abd8","system_id":"levelo_inurba_marseille","lat":43.27927,"lon":5.39597,"is_reserved":false,"is_disabled":false,"rental_uris":{"android":"levelo://app?vid=5d71f84a-10ca-4e55-9806-002e8068abd8","ios":"levelo://app?vid=5d71f84a-10ca-4e55-9806-002e8068abd8"},"vehicle_type_id":"4","last_reported":1745298667,"current_range_meters":8400,"station_id":"ce4bhf92rcd13ifvqf40","pricing_plan_id":"cebpf4jnsgd1na2vs0mg"},{"bike_id":"d7323cc1-013d-43e0-bb47-a978b4402b6a","system_id":"levelo_inurba_marseille","lat":43.30879,"lon":5.39665,"is_reserved":false,"is_disabled":false,"rental_uris":{"android":"levelo://app?vid=d7323cc1-013d-43e0-bb47-a978b4402b6a","ios":"levelo://app?vid=d7323cc1-013d-43e0-bb47-a978b4402b6a"},"vehicle_type_id":"4","last_reported":1745298667,"current_range_meters":8400,"station_id":"ce4bh012rcd13ifvqcv0","pricing_plan_id":"cebpf4jnsgd1na2vs0mg"},{"bike_id":"62801924-329e-46ea-aa72-be8e28d87636","system_id":"levelo_inurba_marseille","lat":43.266658,"lon":5.399833,"is_reserved":false,"is_disabled":false,"rental_uris":{"android":"levelo://app?vid=62801924-329e-46ea-aa72-be8e28d87636","ios":"levelo://app?vid=62801924-329e-46ea-aa72-be8e28d87636"},"vehicle_type_id":"4","last_reported":1745298667,"current_range_meters":8400,"station_id":"","pricing_plan_id":"cebpf4jnsgd1na2vs0mg"},{"bike_id":"89cfd28b-0c7c-4079-955f-194e937acbb9","system_id":"levelo_inurba_marseille","lat":43.2996,"lon":5.36303,"is_reserved":false,"is_disabled":false,"rental_uris":{"android":"levelo://app?vid=89cfd28b-0c7c-4079-955f-194e937acbb9","ios":"levelo://app?vid=89cfd28b-0c7c-4079-955f-194e937acbb9"},"vehicle_type_id":"4","last_reported":1745298667,"current_range_meters":8400,"station_id":"","pricing_plan_id":"cebpf4jnsgd1na2vs0mg"},{"bike_id":"c8894c57-c3f9-422d-839f-0815cc3aa7b4","system_id":"levelo_inurba_marseille","lat":43.30291,"lon":5.37699,"is_reserved":false,"is_disabled":false,"rental_uris":{"android":"levelo://app?vid=c8894c57-c3f9-422d-839f-0815cc3aa7b4","ios":"levelo://app?vid=c8894c57-c3f9-422d-839f-0815cc3aa7b4"},"vehicle_type_id":"4","last_reported":1745298667,"current_range_meters":8400,"station_id":"ce4bguh2rcd13ifvqcj0","pricing_plan_id":"cebpf4jnsgd1na2vs0mg"},{"bike_id":"a64fa6e5-033a-4227-9458-dd312b1da4ba","system_id":"levelo_inurba_marseille","lat":43.3031,"lon":5.40441,"is_reserved":false,"is_disabled":false,"rental_uris":{"android":"levelo://app?vid=a64fa6e5-033a-4227-9458-dd312b1da4ba","ios":"levelo://app?vid=a64fa6e5-033a-4227-9458-dd312b1da4ba"},"vehicle_type_id":"4","last_reported":1745298667,"current_range_meters":8800,"station_id":"ce4bh012rcd13ifvqd10","pricing_plan_id":"cebpf4jnsgd1na2vs0mg"},{"bike_id":"1c755526-7610-4241-9257-348acde561d3","system_id":"levelo_inurba_marseille","lat":43.24853,"lon":5.3821,"is_reserved":false,"is_disabled":false,"rental_uris":{"android":"levelo://app?vid=1c755526-7610-4241-9257-348acde561d3","ios":"levelo://app?vid=1c755526-7610-4241-9257-348acde561d3"},"vehicle_type_id":"4","last_reported":1745298667,"current_range_meters":9200,"station_id":"","pricing_plan_id":"cebpf4jnsgd1na2vs0mg"},{"bike_id":"6efbea2d-5eb1-4a4a-8c84-47a375f78190","system_id":"levelo_inurba_marseille","lat":43.29868,"lon":5.38901,"is_reserved":false,"is_disabled":true,"rental_uris":{"android":"levelo://app?vid=6efbea2d-5eb1-4a4a-8c84-47a375f78190","ios":"levelo://app?vid=6efbea2d-5eb1-4a4a-8c84-47a375f78190"},"vehicle_type_id":"4","last_reported":1745298667,"current_range_meters":9200,"station_id":"ce4bh392rcd13ifvqdl0","pricing_plan_id":"cebpf4jnsgd1na2vs0mg"},{"bike_id":"43fc777f-db94-447a-a033-7e97f2f52314","system_id":"levelo_inurba_marseille","lat":43.30884,"lon":5.39646,"is_reserved":false,"is_disabled":false,"rental_uris":{"android":"levelo://app?vid=43fc777f-db94-447a-a033-7e97f2f52314","ios":"levelo://app?vid=43fc777f-db94-447a-a033-7e97f2f52314"},"vehicle_type_id":"4","last_reported":1745298667,"current_range_meters":9200,"station_id":"ce4bh012rcd13ifvqcv0","pricing_plan_id":"cebpf4jnsgd1na2vs0mg"},{"bike_id":"af062bcb-c0d8-4f82-b254-b3dfb315e067","system_id":"levelo_inurba_marseille","lat":43.33,"lon":5.39047,"is_reserved":false,"is_disabled":false,"rental_uris":{"android":"levelo://app?vid=af062bcb-c0d8-4f82-b254-b3dfb315e067","ios":"levelo://app?vid=af062bcb-c0d8-4f82-b254-b3dfb315e067"},"vehicle_type_id":"4","last_reported":1745298667,"current_range_meters":9200,"station_id":"ce4bhr92rcd13ifvqhrg","pricing_plan_id":"cebpf4jnsgd1na2vs0mg"},{"bike_id":"4eca55c8-a1e5-4a02-a39b-4436279901de","system_id":"levelo_inurba_marseille","lat":43.298706,"lon":5.390933,"is_reserved":false,"is_disabled":false,"rental_uris":{"android":"levelo://app?vid=4eca55c8-a1e5-4a02-a39b-4436279901de","ios":"levelo://app?vid=4eca55c8-a1e5-4a02-a39b-4436279901de"},"vehicle_type_id":"4","last_reported":1745298667,"current_range_meters":9200,"station_id":"ce4bgup2rcd13ifvqco0","pricing_plan_id":"cebpf4jnsgd1na2vs0mg"},{"bike_id":"fe8b594a-1525-4084-8e05-931f2d1c230a","system_id":"levelo_inurba_marseille","lat":43.28371,"lon":5.38636,"is_reserved":false,"is_disabled":false,"rental_uris":{"android":"levelo://app?vid=fe8b594a-1525-4084-8e05-931f2d1c230a","ios":"levelo://app?vid=fe8b594a-1525-4084-8e05-931f2d1c230a"},"vehicle_type_id":"4","last_reported":1745298667,"current_range_meters":9200,"station_id":"ce4bh492rcd13ifvqdvg","pricing_plan_id":"cebpf4jnsgd1na2vs0mg"},{"bike_id":"38496ab1-dcd9-47e1-88de-12902fbdc1d3","system_id":"levelo_inurba_marseille","lat":43.29031,"lon":5.38628,"is_reserved":false,"is_disabled":false,"rental_uris":{"android":"levelo://app?vid=38496ab1-dcd9-47e1-88de-12902fbdc1d3","ios":"levelo://app?vid=38496ab1-dcd9-47e1-88de-12902fbdc1d3"},"vehicle_type_id":"4","last_reported":1745298667,"current_range_meters":9200,"station_id":"ce4bh4p2rcd13ifvqe0g","pricing_plan_id":"cebpf4jnsgd1na2vs0mg"},{"bike_id":"b187e78d-1724-4b31-8cf0-6bdebd0684ee","system_id":"levelo_inurba_marseille","lat":43.28972,"lon":5.37846,"is_reserved":false,"is_disabled":true,"rental_uris":{"android":"levelo://app?vid=b187e78d-1724-4b31-8cf0-6bdebd0684ee","ios":"levelo://app?vid=b187e78d-1724-4b31-8cf0-6bdebd0684ee"},"vehicle_type_id":"4","last_reported":1745298667,"current_range_meters":9600,"station_id":"ce4bh9p2rcd13ifvqed0","pricing_plan_id":"cebpf4jnsgd1na2vs0mg"},{"bike_id":"5651431b-db7d-46f1-ba47-9c260ae40481","system_id":"levelo_inurba_marseille","lat":43.298683,"lon":5.397277,"is_reserved":false,"is_disabled":false,"rental_uris":{"android":"levelo://app?vid=5651431b-db7d-46f1-ba47-9c260ae40481","ios":"levelo://app?vid=5651431b-db7d-46f1-ba47-9c260ae40481"},"vehicle_type_id":"4","last_reported":1745298667,"current_range_meters":9600,"station_id":"ce4bh0h2rcd13ifvqd50","pricing_plan_id":"cebpf4jnsgd1na2vs0mg"},{"bike_id":"4bc82e1a-bca4-44ab-8223-aee3605c8d43","system_id":"levelo_inurba_marseille","lat":43.305341,"lon":5.384345,"is_reserved":false,"is_disabled":false,"rental_uris":{"android":"levelo://app?vid=4bc82e1a-bca4-44ab-8223-aee3605c8d43","ios":"levelo://app?vid=4bc82e1a-bca4-44ab-8223-aee3605c8d43"},"vehicle_type_id":"4","last_reported":1745298667,"current_range_meters":9600,"station_id":"ce4bgg92rcd13ifvqb30","pricing_plan_id":"cebpf4jnsgd1na2vs0mg"},{"bike_id":"98bb5fbf-6f36-4f60-9412-0dcd0922c2df","system_id":"levelo_inurba_marseille","lat":43.295235,"lon":5.390209,"is_reserved":false,"is_disabled":false,"rental_uris":{"android":"levelo://app?vid=98bb5fbf-6f36-4f60-9412-0dcd0922c2df","ios":"levelo://app?vid=98bb5fbf-6f36-4f60-9412-0dcd0922c2df"},"vehicle_type_id":"4","last_reported":1745298667,"current_range_meters":9600,"station_id":"ce4bh3p2rcd13ifvqdp0","pricing_plan_id":"cebpf4jnsgd1na2vs0mg"},{"bike_id":"97b5301b-7f92-4673-aaeb-cee1feaf34d3","system_id":"levelo_inurba_marseille","lat":43.2795,"lon":5.41059,"is_reserved":false,"is_disabled":false,"rental_uris":{"android":"levelo://app?vid=97b5301b-7f92-4673-aaeb-cee1feaf34d3","ios":"levelo://app?vid=97b5301b-7f92-4673-aaeb-cee1feaf34d3"},"vehicle_type_id":"4","last_reported":1745298667,"current_range_meters":9600,"station_id":"ce4bhnp2rcd13ifvqh0g","pricing_plan_id":"cebpf4jnsgd1na2vs0mg"},{"bike_id":"5bc52f99-c488-4886-bf7e-6d74b0ab5e69","system_id":"levelo_inurba_marseille","lat":43.27957,"lon":5.41047,"is_reserved":false,"is_disabled":false,"rental_uris":{"android":"levelo://app?vid=5bc52f99-c488-4886-bf7e-6d74b0ab5e69","ios":"levelo://app?vid=5bc52f99-c488-4886-bf7e-6d74b0ab5e69"},"vehicle_type_id":"4","last_reported":1745298667,"current_range_meters":9600,"station_id":"ce4bhnp2rcd13ifvqh0g","pricing_plan_id":"cebpf4jnsgd1na2vs0mg"},{"bike_id":"ea8dd40d-d1c9-495b-acb7-79fe81df74e2","system_id":"levelo_inurba_marseille","lat":43.287062,"lon":5.400077,"is_reserved":false,"is_disabled":false,"rental_uris":{"android":"levelo://app?vid=ea8dd40d-d1c9-495b-acb7-79fe81df74e2","ios":"levelo://app?vid=ea8dd40d-d1c9-495b-acb7-79fe81df74e2"},"vehicle_type_id":"4","last_reported":1745298667,"current_range_meters":10000,"station_id":"ce4bho92rcd13ifvqh3g","pricing_plan_id":"cebpf4jnsgd1na2vs0mg"},{"bike_id":"d7891f6f-dbf7-462a-8ba9-666022d45f1b","system_id":"levelo_inurba_marseille","lat":43.28659,"lon":5.40075,"is_reserved":false,"is_disabled":false,"rental_uris":{"android":"levelo://app?vid=d7891f6f-dbf7-462a-8ba9-666022d45f1b","ios":"levelo://app?vid=d7891f6f-dbf7-462a-8ba9-666022d45f1b"},"vehicle_type_id":"4","last_reported":1745298667,"current_range_meters":10000,"station_id":"","pricing_plan_id":"cebpf4jnsgd1na2vs0mg"},{"bike_id":"50f6dc04-17ec-4940-9332-8f3db38b7ab2","system_id":"levelo_inurba_marseille","lat":43.28715,"lon":5.39983,"is_reserved":false,"is_disabled":false,"rental_uris":{"android":"levelo://app?vid=50f6dc04-17ec-4940-9332-8f3db38b7ab2","ios":"levelo://app?vid=50f6dc04-17ec-4940-9332-8f3db38b7ab2"},"vehicle_type_id":"4","last_reported":1745298667,"current_range_meters":10800,"station_id":"ce4bho92rcd13ifvqh3g","pricing_plan_id":"cebpf4jnsgd1na2vs0mg"},{"bike_id":"6a4af5e8-f5c0-41fb-afb5-22ff76967e42","system_id":"levelo_inurba_marseille","lat":43.28419,"lon":5.37527,"is_reserved":false,"is_disabled":false,"rental_uris":{"android":"levelo://app?vid=6a4af5e8-f5c0-41fb-afb5-22ff76967e42","ios":"levelo://app?vid=6a4af5e8-f5c0-41fb-afb5-22ff76967e42"},"vehicle_type_id":"4","last_reported":1745298667,"current_range_meters":10800,"station_id":"ce4bh412rcd13ifvqds0","pricing_plan_id":"cebpf4jnsgd1na2vs0mg"},{"bike_id":"f4b7a7f2-0d5e-41f4-8959-ca288a5714d9","system_id":"levelo_inurba_marseille","lat":43.286081,"lon":5.370644,"is_reserved":false,"is_disabled":false,"rental_uris":{"android":"levelo://app?vid=f4b7a7f2-0d5e-41f4-8959-ca288a5714d9","ios":"levelo://app?vid=f4b7a7f2-0d5e-41f4-8959-ca288a5714d9"},"vehicle_type_id":"4","last_reported":1745298667,"current_range_meters":10800,"station_id":"ce4bht12rcd13ifvqi60","pricing_plan_id":"cebpf4jnsgd1na2vs0mg"},{"bike_id":"66a9a378-d232-4166-a630-37e48fa18f9f","system_id":"levelo_inurba_marseille","lat":43.32,"lon":5.38151,"is_reserved":false,"is_disabled":false,"rental_uris":{"android":"levelo://app?vid=66a9a378-d232-4166-a630-37e48fa18f9f","ios":"levelo://app?vid=66a9a378-d232-4166-a630-37e48fa18f9f"},"vehicle_type_id":"4","last_reported":1745298667,"current_range_meters":10800,"station_id":"ce4bhr12rcd13ifvqhpg","pricing_plan_id":"cebpf4jnsgd1na2vs0mg"},{"bike_id":"9032c1b2-7805-4907-a608-5610837f60f3","system_id":"levelo_inurba_marseille","lat":43.29274,"lon":5.40123,"is_reserved":false,"is_disabled":false,"rental_uris":{"android":"levelo://app?vid=9032c1b2-7805-4907-a608-5610837f60f3","ios":"levelo://app?vid=9032c1b2-7805-4907-a608-5610837f60f3"},"vehicle_type_id":"4","last_reported":1745298667,"current_range_meters":10800,"station_id":"ce4bh312rcd13ifvqdk0","pricing_plan_id":"cebpf4jnsgd1na2vs0mg"},{"bike_id":"fa6fb692-3c02-45e3-ae8b-7fd21c19ed5f","system_id":"levelo_inurba_marseille","lat":43.28633,"lon":5.38353,"is_reserved":false,"is_disabled":false,"rental_uris":{"android":"levelo://app?vid=fa6fb692-3c02-45e3-ae8b-7fd21c19ed5f","ios":"levelo://app?vid=fa6fb692-3c02-45e3-ae8b-7fd21c19ed5f"},"vehicle_type_id":"4","last_reported":1745298667,"current_range_meters":10800,"station_id":"","pricing_plan_id":"cebpf4jnsgd1na2vs0mg"},{"bike_id":"4eb3e58f-17bb-4007-b6f7-ead627ffb500","system_id":"levelo_inurba_marseille","lat":43.29264,"lon":5.38471,"is_reserved":false,"is_disabled":true,"rental_uris":{"android":"levelo://app?vid=4eb3e58f-17bb-4007-b6f7-ead627ffb500","ios":"levelo://app?vid=4eb3e58f-17bb-4007-b6f7-ead627ffb500"},"vehicle_type_id":"4","last_reported":1745298667,"current_range_meters":10800,"station_id":"ce4bh692rcd13ifvqea0","pricing_plan_id":"cebpf4jnsgd1na2vs0mg"},{"bike_id":"43ea2697-003d-4975-8a5e-6da0f8df830d","system_id":"levelo_inurba_marseille","lat":43.319937,"lon":5.381365,"is_reserved":false,"is_disabled":false,"rental_uris":{"android":"levelo://app?vid=43ea2697-003d-4975-8a5e-6da0f8df830d","ios":"levelo://app?vid=43ea2697-003d-4975-8a5e-6da0f8df830d"},"vehicle_type_id":"4","last_reported":1745298667,"current_range_meters":11200,"station_id":"ce4bhr12rcd13ifvqhpg","pricing_plan_id":"cebpf4jnsgd1na2vs0mg"},{"bike_id":"2dc4e79a-33a8-48b0-bf03-f6328f1dc1f6","system_id":"levelo_inurba_marseille","lat":43.32366,"lon":5.3889,"is_reserved":false,"is_disabled":true,"rental_uris":{"android":"levelo://app?vid=2dc4e79a-33a8-48b0-bf03-f6328f1dc1f6","ios":"levelo://app?vid=2dc4e79a-33a8-48b0-bf03-f6328f1dc1f6"},"vehicle_type_id":"4","last_reported":1745298667,"current_range_meters":11200,"station_id":"ce4bhqp2rcd13ifvqhog","pricing_plan_id":"cebpf4jnsgd1na2vs0mg"},{"bike_id":"e07c446c-794c-4c7e-8983-08bcf88741d7","system_id":"levelo_inurba_marseille","lat":43.308821,"lon":5.396378,"is_reserved":false,"is_disabled":false,"rental_uris":{"android":"levelo://app?vid=e07c446c-794c-4c7e-8983-08bcf88741d7","ios":"levelo://app?vid=e07c446c-794c-4c7e-8983-08bcf88741d7"},"vehicle_type_id":"4","last_reported":1745298667,"current_range_meters":11600,"station_id":"ce4bh012rcd13ifvqcv0","pricing_plan_id":"cebpf4jnsgd1na2vs0mg"},{"bike_id":"8fd43598-927a-4b0c-abdc-ee6ebcc379cd","system_id":"levelo_inurba_marseille","lat":43.30796,"lon":5.38193,"is_reserved":false,"is_disabled":false,"rental_uris":{"android":"levelo://app?vid=8fd43598-927a-4b0c-abdc-ee6ebcc379cd","ios":"levelo://app?vid=8fd43598-927a-4b0c-abdc-ee6ebcc379cd"},"vehicle_type_id":"4","last_reported":1745298667,"current_range_meters":11600,"station_id":"ce4bgt12rcd13ifvqce0","pricing_plan_id":"cebpf4jnsgd1na2vs0mg"},{"bike_id":"213da5e8-23e1-4c9c-89ed-8256ec571fc4","system_id":"levelo_inurba_marseille","lat":43.28362,"lon":5.38635,"is_reserved":false,"is_disabled":false,"rental_uris":{"android":"levelo://app?vid=213da5e8-23e1-4c9c-89ed-8256ec571fc4","ios":"levelo://app?vid=213da5e8-23e1-4c9c-89ed-8256ec571fc4"},"vehicle_type_id":"4","last_reported":1745298667,"current_range_meters":11600,"station_id":"ce4bh492rcd13ifvqdvg","pricing_plan_id":"cebpf4jnsgd1na2vs0mg"},{"bike_id":"d9e72d62-42e6-4a3d-bf14-45de72170061","system_id":"levelo_inurba_marseille","lat":43.27057,"lon":5.40267,"is_reserved":false,"is_disabled":false,"rental_uris":{"android":"levelo://app?vid=d9e72d62-42e6-4a3d-bf14-45de72170061","ios":"levelo://app?vid=d9e72d62-42e6-4a3d-bf14-45de72170061"},"vehicle_type_id":"4","last_reported":1745298667,"current_range_meters":11600,"station_id":"ce4bhk92rcd13ifvqgc0","pricing_plan_id":"cebpf4jnsgd1na2vs0mg"},{"bike_id":"8845df7c-25f7-458d-9ae1-738a6dd391e2","system_id":"levelo_inurba_marseille","lat":43.341508,"lon":5.409101,"is_reserved":false,"is_disabled":false,"rental_uris":{"android":"levelo://app?vid=8845df7c-25f7-458d-9ae1-738a6dd391e2","ios":"levelo://app?vid=8845df7c-25f7-458d-9ae1-738a6dd391e2"},"vehicle_type_id":"4","last_reported":1745298667,"current_range_meters":12000,"station_id":"ce4bhqh2rcd13ifvqhlg","pricing_plan_id":"cebpf4jnsgd1na2vs0mg"},{"bike_id":"a10a334d-3df6-49d7-a73f-66822b9e185c","system_id":"levelo_inurba_marseille","lat":43.32063,"lon":5.41562,"is_reserved":false,"is_disabled":false,"rental_uris":{"android":"levelo://app?vid=a10a334d-3df6-49d7-a73f-66822b9e185c","ios":"levelo://app?vid=a10a334d-3df6-49d7-a73f-66822b9e185c"},"vehicle_type_id":"4","last_reported":1745298667,"current_range_meters":12000,"station_id":"ce4bhq92rcd13ifvqhkg","pricing_plan_id":"cebpf4jnsgd1na2vs0mg"},{"bike_id":"896376d6-ea17-4234-ae73-98d1ffb299ab","system_id":"levelo_inurba_marseille","lat":43.28605,"lon":5.3707,"is_reserved":false,"is_disabled":false,"rental_uris":{"android":"levelo://app?vid=896376d6-ea17-4234-ae73-98d1ffb299ab","ios":"levelo://app?vid=896376d6-ea17-4234-ae73-98d1ffb299ab"},"vehicle_type_id":"4","last_reported":1745298667,"current_range_meters":12000,"station_id":"ce4bht12rcd13ifvqi60","pricing_plan_id":"cebpf4jnsgd1na2vs0mg"},{"bike_id":"c715e6d5-141e-4f7d-89aa-48d9818c4993","system_id":"levelo_inurba_marseille","lat":43.30602,"lon":5.393576,"is_reserved":false,"is_disabled":false,"rental_uris":{"android":"levelo://app?vid=c715e6d5-141e-4f7d-89aa-48d9818c4993","ios":"levelo://app?vid=c715e6d5-141e-4f7d-89aa-48d9818c4993"},"vehicle_type_id":"4","last_reported":1745298667,"current_range_meters":12000,"station_id":"ce4bh0p2rcd13ifvqd80","pricing_plan_id":"cebpf4jnsgd1na2vs0mg"},{"bike_id":"b373a9fc-b19f-49e6-9414-e3e614041e34","system_id":"levelo_inurba_marseille","lat":43.270676,"lon":5.422798,"is_reserved":false,"is_disabled":true,"rental_uris":{"android":"levelo://app?vid=b373a9fc-b19f-49e6-9414-e3e614041e34","ios":"levelo://app?vid=b373a9fc-b19f-49e6-9414-e3e614041e34"},"vehicle_type_id":"4","last_reported":1745298667,"current_range_meters":12000,"station_id":"ce4bhk92rcd13ifvqgb0","pricing_plan_id":"cebpf4jnsgd1na2vs0mg"},{"bike_id":"0cc8691f-a082-4a9b-944f-91ae0092fb38","system_id":"levelo_inurba_marseille","lat":43.29325,"lon":5.401895,"is_reserved":false,"is_disabled":false,"rental_uris":{"android":"levelo://app?vid=0cc8691f-a082-4a9b-944f-91ae0092fb38","ios":"levelo://app?vid=0cc8691f-a082-4a9b-944f-91ae0092fb38"},"vehicle_type_id":"4","last_reported":1745298667,"current_range_meters":12000,"station_id":"","pricing_plan_id":"cebpf4jnsgd1na2vs0mg"},{"bike_id":"b9990b0b-23ad-461b-a2d8-df7e2af72eca","system_id":"levelo_inurba_marseille","lat":43.307076,"lon":5.380943,"is_reserved":false,"is_disabled":false,"rental_uris":{"android":"levelo://app?vid=b9990b0b-23ad-461b-a2d8-df7e2af72eca","ios":"levelo://app?vid=b9990b0b-23ad-461b-a2d8-df7e2af72eca"},"vehicle_type_id":"4","last_reported":1745298667,"current_range_meters":12000,"station_id":"","pricing_plan_id":"cebpf4jnsgd1na2vs0mg"},{"bike_id":"21917916-4faf-4a68-958e-ef1fcba4e701","system_id":"levelo_inurba_marseille","lat":43.31509,"lon":5.37273,"is_reserved":false,"is_disabled":false,"rental_uris":{"android":"levelo://app?vid=21917916-4faf-4a68-958e-ef1fcba4e701","ios":"levelo://app?vid=21917916-4faf-4a68-958e-ef1fcba4e701"},"vehicle_type_id":"4","last_reported":1745298667,"current_range_meters":12000,"station_id":"ce4bgt12rcd13ifvqcd0","pricing_plan_id":"cebpf4jnsgd1na2vs0mg"},{"bike_id":"31dad1ac-0f84-44f8-a969-f5f6007b9b50","system_id":"levelo_inurba_marseille","lat":43.25011,"lon":5.38928,"is_reserved":false,"is_disabled":true,"rental_uris":{"android":"levelo://app?vid=31dad1ac-0f84-44f8-a969-f5f6007b9b50","ios":"levelo://app?vid=31dad1ac-0f84-44f8-a969-f5f6007b9b50"},"vehicle_type_id":"4","last_reported":1745298667,"current_range_meters":12400,"station_id":"ce4bhgp2rcd13ifvqfd0","pricing_plan_id":"cebpf4jnsgd1na2vs0mg"},{"bike_id":"afca05cb-9dea-4e13-bae3-b0bd83251e29","system_id":"levelo_inurba_marseille","lat":43.33774,"lon":5.37435,"is_reserved":false,"is_disabled":false,"rental_uris":{"android":"levelo://app?vid=afca05cb-9dea-4e13-bae3-b0bd83251e29","ios":"levelo://app?vid=afca05cb-9dea-4e13-bae3-b0bd83251e29"},"vehicle_type_id":"4","last_reported":1745298667,"current_range_meters":12400,"station_id":"","pricing_plan_id":"cebpf4jnsgd1na2vs0mg"},{"bike_id":"2026f12f-7b00-44aa-8351-5eb6b0eb418c","system_id":"levelo_inurba_marseille","lat":43.30166,"lon":5.3809,"is_reserved":false,"is_disabled":false,"rental_uris":{"android":"levelo://app?vid=2026f12f-7b00-44aa-8351-5eb6b0eb418c","ios":"levelo://app?vid=2026f12f-7b00-44aa-8351-5eb6b0eb418c"},"vehicle_type_id":"4","last_reported":1745298667,"current_range_meters":12400,"station_id":"ce4bgjp2rcd13ifvqbh0","pricing_plan_id":"cebpf4jnsgd1na2vs0mg"},{"bike_id":"85a4b1a0-8ac6-4193-a4bd-d5cdcf7c4a8f","system_id":"levelo_inurba_marseille","lat":43.28702,"lon":5.3795,"is_reserved":false,"is_disabled":false,"rental_uris":{"android":"levelo://app?vid=85a4b1a0-8ac6-4193-a4bd-d5cdcf7c4a8f","ios":"levelo://app?vid=85a4b1a0-8ac6-4193-a4bd-d5cdcf7c4a8f"},"vehicle_type_id":"4","last_reported":1745298667,"current_range_meters":12400,"station_id":"ce4bh9p2rcd13ifvqec0","pricing_plan_id":"cebpf4jnsgd1na2vs0mg"},{"bike_id":"e7c416a1-d3d4-4a43-927c-145ae605d8a0","system_id":"levelo_inurba_marseille","lat":43.24041,"lon":5.37761,"is_reserved":false,"is_disabled":false,"rental_uris":{"android":"levelo://app?vid=e7c416a1-d3d4-4a43-927c-145ae605d8a0","ios":"levelo://app?vid=e7c416a1-d3d4-4a43-927c-145ae605d8a0"},"vehicle_type_id":"4","last_reported":1745298667,"current_range_meters":12400,"station_id":"ce4bhnp2rcd13ifvqgvg","pricing_plan_id":"cebpf4jnsgd1na2vs0mg"},{"bike_id":"fa1fe54c-05e4-4deb-9f0b-c4b9ac7f5691","system_id":"levelo_inurba_marseille","lat":43.30146,"lon":5.38069,"is_reserved":false,"is_disabled":false,"rental_uris":{"android":"levelo://app?vid=fa1fe54c-05e4-4deb-9f0b-c4b9ac7f5691","ios":"levelo://app?vid=fa1fe54c-05e4-4deb-9f0b-c4b9ac7f5691"},"vehicle_type_id":"4","last_reported":1745298667,"current_range_meters":12400,"station_id":"ce4bgjp2rcd13ifvqbh0","pricing_plan_id":"cebpf4jnsgd1na2vs0mg"},{"bike_id":"a597aa79-a9e7-446e-9f8d-ad8e32781eda","system_id":"levelo_inurba_marseille","lat":43.259286,"lon":5.408996,"is_reserved":false,"is_disabled":false,"rental_uris":{"android":"levelo://app?vid=a597aa79-a9e7-446e-9f8d-ad8e32781eda","ios":"levelo://app?vid=a597aa79-a9e7-446e-9f8d-ad8e32781eda"},"vehicle_type_id":"4","last_reported":1745298667,"current_range_meters":12800,"station_id":"ce4bhm92rcd13ifvqglg","pricing_plan_id":"cebpf4jnsgd1na2vs0mg"},{"bike_id":"e3f2ff94-19f7-4b16-a506-885772f72f4c","system_id":"levelo_inurba_marseille","lat":43.24167,"lon":5.36402,"is_reserved":false,"is_disabled":true,"rental_uris":{"android":"levelo://app?vid=e3f2ff94-19f7-4b16-a506-885772f72f4c","ios":"levelo://app?vid=e3f2ff94-19f7-4b16-a506-885772f72f4c"},"vehicle_type_id":"4","last_reported":1745298667,"current_range_meters":12800,"station_id":"cpo36qri1sfpv3e86is0","pricing_plan_id":"cebpf4jnsgd1na2vs0mg"},{"bike_id":"d9e79c39-e7f5-4230-a287-0d676fda5550","system_id":"levelo_inurba_marseille","lat":43.29278,"lon":5.401356,"is_reserved":false,"is_disabled":false,"rental_uris":{"android":"levelo://app?vid=d9e79c39-e7f5-4230-a287-0d676fda5550","ios":"levelo://app?vid=d9e79c39-e7f5-4230-a287-0d676fda5550"},"vehicle_type_id":"4","last_reported":1745298667,"current_range_meters":13600,"station_id":"ce4bh312rcd13ifvqdk0","pricing_plan_id":"cebpf4jnsgd1na2vs0mg"},{"bike_id":"a7aa4f0d-dbae-40db-a193-3ad158f70ff8","system_id":"levelo_inurba_marseille","lat":43.310339,"lon":5.370917,"is_reserved":false,"is_disabled":false,"rental_uris":{"android":"levelo://app?vid=a7aa4f0d-dbae-40db-a193-3ad158f70ff8","ios":"levelo://app?vid=a7aa4f0d-dbae-40db-a193-3ad158f70ff8"},"vehicle_type_id":"4","last_reported":1745298667,"current_range_meters":13600,"station_id":"","pricing_plan_id":"cebpf4jnsgd1na2vs0mg"},{"bike_id":"217bc09c-9054-444f-b0a6-1a91698bbf60","system_id":"levelo_inurba_marseille","lat":43.26192,"lon":5.37461,"is_reserved":false,"is_disabled":true,"rental_uris":{"android":"levelo://app?vid=217bc09c-9054-444f-b0a6-1a91698bbf60","ios":"levelo://app?vid=217bc09c-9054-444f-b0a6-1a91698bbf60"},"vehicle_type_id":"4","last_reported":1745298667,"current_range_meters":13600,"station_id":"ce4bhgp2rcd13ifvqfc0","pricing_plan_id":"cebpf4jnsgd1na2vs0mg"},{"bike_id":"2568281a-34e3-44a1-8733-80292791fc14","system_id":"levelo_inurba_marseille","lat":43.287113,"lon":5.399924,"is_reserved":false,"is_disabled":false,"rental_uris":{"android":"levelo://app?vid=2568281a-34e3-44a1-8733-80292791fc14","ios":"levelo://app?vid=2568281a-34e3-44a1-8733-80292791fc14"},"vehicle_type_id":"4","last_reported":1745298667,"current_range_meters":13600,"station_id":"ce4bho92rcd13ifvqh3g","pricing_plan_id":"cebpf4jnsgd1na2vs0mg"},{"bike_id":"eb05006c-0ef3-47c9-973c-9ee304de3e62","system_id":"levelo_inurba_marseille","lat":43.31175,"lon":5.38719,"is_reserved":false,"is_disabled":false,"rental_uris":{"android":"levelo://app?vid=eb05006c-0ef3-47c9-973c-9ee304de3e62","ios":"levelo://app?vid=eb05006c-0ef3-47c9-973c-9ee304de3e62"},"vehicle_type_id":"4","last_reported":1745298667,"current_range_meters":14000,"station_id":"ce4bgv12rcd13ifvqcp0","pricing_plan_id":"cebpf4jnsgd1na2vs0mg"},{"bike_id":"b101afbf-59d1-496d-8034-1c01b9f4a24e","system_id":"levelo_inurba_marseille","lat":43.291844,"lon":5.393339,"is_reserved":false,"is_disabled":false,"rental_uris":{"android":"levelo://app?vid=b101afbf-59d1-496d-8034-1c01b9f4a24e","ios":"levelo://app?vid=b101afbf-59d1-496d-8034-1c01b9f4a24e"},"vehicle_type_id":"4","last_reported":1745298667,"current_range_meters":14000,"station_id":"ce4bh192rcd13ifvqdd0","pricing_plan_id":"cebpf4jnsgd1na2vs0mg"},{"bike_id":"6b4282bc-9432-4c95-847b-7452cf13e716","system_id":"levelo_inurba_marseille","lat":43.29315,"lon":5.371316,"is_reserved":false,"is_disabled":true,"rental_uris":{"android":"levelo://app?vid=6b4282bc-9432-4c95-847b-7452cf13e716","ios":"levelo://app?vid=6b4282bc-9432-4c95-847b-7452cf13e716"},"vehicle_type_id":"4","last_reported":1745298667,"current_range_meters":14000,"station_id":"ce4bgh92rcd13ifvqb40","pricing_plan_id":"cebpf4jnsgd1na2vs0mg"},{"bike_id":"782e728f-6eb8-4ce1-851f-0178bab8d60c","system_id":"levelo_inurba_marseille","lat":43.28718,"lon":5.37942,"is_reserved":false,"is_disabled":false,"rental_uris":{"android":"levelo://app?vid=782e728f-6eb8-4ce1-851f-0178bab8d60c","ios":"levelo://app?vid=782e728f-6eb8-4ce1-851f-0178bab8d60c"},"vehicle_type_id":"4","last_reported":1745298667,"current_range_meters":14000,"station_id":"ce4bh9p2rcd13ifvqec0","pricing_plan_id":"cebpf4jnsgd1na2vs0mg"},{"bike_id":"49031319-d769-4007-8548-0273e2675310","system_id":"levelo_inurba_marseille","lat":43.30929,"lon":5.40125,"is_reserved":false,"is_disabled":false,"rental_uris":{"android":"levelo://app?vid=49031319-d769-4007-8548-0273e2675310","ios":"levelo://app?vid=49031319-d769-4007-8548-0273e2675310"},"vehicle_type_id":"4","last_reported":1745298667,"current_range_meters":14000,"station_id":"ce4bgvp2rcd13ifvqct0","pricing_plan_id":"cebpf4jnsgd1na2vs0mg"},{"bike_id":"b21c73ab-4359-4f8e-bb95-e8439a292e7b","system_id":"levelo_inurba_marseille","lat":43.2718,"lon":5.40993,"is_reserved":false,"is_disabled":false,"rental_uris":{"android":"levelo://app?vid=b21c73ab-4359-4f8e-bb95-e8439a292e7b","ios":"levelo://app?vid=b21c73ab-4359-4f8e-bb95-e8439a292e7b"},"vehicle_type_id":"4","last_reported":1745298667,"current_range_meters":14000,"station_id":"ce4bhl12rcd13ifvqgf0","pricing_plan_id":"cebpf4jnsgd1na2vs0mg"},{"bike_id":"50fd3d29-6c4f-4d06-95bd-5be950fccc1c","system_id":"levelo_inurba_marseille","lat":43.288513,"lon":5.360039,"is_reserved":false,"is_disabled":false,"rental_uris":{"android":"levelo://app?vid=50fd3d29-6c4f-4d06-95bd-5be950fccc1c","ios":"levelo://app?vid=50fd3d29-6c4f-4d06-95bd-5be950fccc1c"},"vehicle_type_id":"4","last_reported":1745298667,"current_range_meters":14000,"station_id":"ce4bh5p2rcd13ifvqe4g","pricing_plan_id":"cebpf4jnsgd1na2vs0mg"},{"bike_id":"2a35ab10-f416-439f-a4fa-784873cd587f","system_id":"levelo_inurba_marseille","lat":43.269538,"lon":5.386426,"is_reserved":false,"is_disabled":true,"rental_uris":{"android":"levelo://app?vid=2a35ab10-f416-439f-a4fa-784873cd587f","ios":"levelo://app?vid=2a35ab10-f416-439f-a4fa-784873cd587f"},"vehicle_type_id":"4","last_reported":1745298667,"current_range_meters":14400,"station_id":"ce4bhh92rcd13ifvqfh0","pricing_plan_id":"cebpf4jnsgd1na2vs0mg"},{"bike_id":"12505a0a-b14f-4f59-9be1-55ce43130db1","system_id":"levelo_inurba_marseille","lat":43.29582,"lon":5.38101,"is_reserved":false,"is_disabled":true,"rental_uris":{"android":"levelo://app?vid=12505a0a-b14f-4f59-9be1-55ce43130db1","ios":"levelo://app?vid=12505a0a-b14f-4f59-9be1-55ce43130db1"},"vehicle_type_id":"4","last_reported":1745298667,"current_range_meters":14400,"station_id":"ce4bgl12rcd13ifvqbo0","pricing_plan_id":"cebpf4jnsgd1na2vs0mg"},{"bike_id":"d1bab3a3-d105-4848-95e6-766bc72e11df","system_id":"levelo_inurba_marseille","lat":43.308883,"lon":5.396355,"is_reserved":false,"is_disabled":false,"rental_uris":{"android":"levelo://app?vid=d1bab3a3-d105-4848-95e6-766bc72e11df","ios":"levelo://app?vid=d1bab3a3-d105-4848-95e6-766bc72e11df"},"vehicle_type_id":"4","last_reported":1745298667,"current_range_meters":14400,"station_id":"ce4bh012rcd13ifvqcv0","pricing_plan_id":"cebpf4jnsgd1na2vs0mg"},{"bike_id":"45480439-b5c3-4e5a-9735-d67e2b5e8704","system_id":"levelo_inurba_marseille","lat":43.28701,"lon":5.37397,"is_reserved":false,"is_disabled":false,"rental_uris":{"android":"levelo://app?vid=45480439-b5c3-4e5a-9735-d67e2b5e8704","ios":"levelo://app?vid=45480439-b5c3-4e5a-9735-d67e2b5e8704"},"vehicle_type_id":"4","last_reported":1745298667,"current_range_meters":14400,"station_id":"ce4bh3p2rcd13ifvqdq0","pricing_plan_id":"cebpf4jnsgd1na2vs0mg"},{"bike_id":"f25d8672-7640-4033-8cc4-f80944c4dd44","system_id":"levelo_inurba_marseille","lat":43.272295,"lon":5.401009,"is_reserved":false,"is_disabled":false,"rental_uris":{"android":"levelo://app?vid=f25d8672-7640-4033-8cc4-f80944c4dd44","ios":"levelo://app?vid=f25d8672-7640-4033-8cc4-f80944c4dd44"},"vehicle_type_id":"4","last_reported":1745298667,"current_range_meters":14800,"station_id":"","pricing_plan_id":"cebpf4jnsgd1na2vs0mg"},{"bike_id":"bfc1ca05-bfb6-462c-b12f-c871849dcc1a","system_id":"levelo_inurba_marseille","lat":43.29842,"lon":5.36268,"is_reserved":false,"is_disabled":false,"rental_uris":{"android":"levelo://app?vid=bfc1ca05-bfb6-462c-b12f-c871849dcc1a","ios":"levelo://app?vid=bfc1ca05-bfb6-462c-b12f-c871849dcc1a"},"vehicle_type_id":"4","last_reported":1745298667,"current_range_meters":14400,"station_id":"ce4bgpp2rcd13ifvqc3g","pricing_plan_id":"cebpf4jnsgd1na2vs0mg"},{"bike_id":"19bdf40e-ce17-4477-9c87-815068b2b0ca","system_id":"levelo_inurba_marseille","lat":43.28947,"lon":5.39615,"is_reserved":false,"is_disabled":false,"rental_uris":{"android":"levelo://app?vid=19bdf40e-ce17-4477-9c87-815068b2b0ca","ios":"levelo://app?vid=19bdf40e-ce17-4477-9c87-815068b2b0ca"},"vehicle_type_id":"4","last_reported":1745298667,"current_range_meters":14800,"station_id":"ce4bh3h2rcd13ifvqdn0","pricing_plan_id":"cebpf4jnsgd1na2vs0mg"},{"bike_id":"0f64adcb-2459-42cc-b90e-1e660a23ec79","system_id":"levelo_inurba_marseille","lat":43.292799,"lon":5.401481,"is_reserved":false,"is_disabled":false,"rental_uris":{"android":"levelo://app?vid=0f64adcb-2459-42cc-b90e-1e660a23ec79","ios":"levelo://app?vid=0f64adcb-2459-42cc-b90e-1e660a23ec79"},"vehicle_type_id":"4","last_reported":1745298667,"current_range_meters":14800,"station_id":"ce4bh312rcd13ifvqdk0","pricing_plan_id":"cebpf4jnsgd1na2vs0mg"},{"bike_id":"fa15de24-cca3-4579-a312-f78f5ae8f6e1","system_id":"levelo_inurba_marseille","lat":43.24112,"lon":5.37738,"is_reserved":false,"is_disabled":false,"rental_uris":{"android":"levelo://app?vid=fa15de24-cca3-4579-a312-f78f5ae8f6e1","ios":"levelo://app?vid=fa15de24-cca3-4579-a312-f78f5ae8f6e1"},"vehicle_type_id":"4","last_reported":1745298667,"current_range_meters":14800,"station_id":"ce4bhnp2rcd13ifvqgvg","pricing_plan_id":"cebpf4jnsgd1na2vs0mg"},{"bike_id":"550d508d-030e-4766-b8c3-c19b3655c09d","system_id":"levelo_inurba_marseille","lat":43.30929,"lon":5.40141,"is_reserved":false,"is_disabled":false,"rental_uris":{"android":"levelo://app?vid=550d508d-030e-4766-b8c3-c19b3655c09d","ios":"levelo://app?vid=550d508d-030e-4766-b8c3-c19b3655c09d"},"vehicle_type_id":"4","last_reported":1745298667,"current_range_meters":15200,"station_id":"ce4bgvp2rcd13ifvqct0","pricing_plan_id":"cebpf4jnsgd1na2vs0mg"},{"bike_id":"2ac9d3f7-8dea-489f-8b78-bccbcb043cbd","system_id":"levelo_inurba_marseille","lat":43.29793,"lon":5.38105,"is_reserved":false,"is_disabled":false,"rental_uris":{"android":"levelo://app?vid=2ac9d3f7-8dea-489f-8b78-bccbcb043cbd","ios":"levelo://app?vid=2ac9d3f7-8dea-489f-8b78-bccbcb043cbd"},"vehicle_type_id":"4","last_reported":1745298667,"current_range_meters":14800,"station_id":"ce4bgip2rcd13ifvqbb0","pricing_plan_id":"cebpf4jnsgd1na2vs0mg"},{"bike_id":"3fe99eeb-6a11-4c24-8375-b8c06c87cea6","system_id":"levelo_inurba_marseille","lat":43.29172,"lon":5.37172,"is_reserved":false,"is_disabled":false,"rental_uris":{"android":"levelo://app?vid=3fe99eeb-6a11-4c24-8375-b8c06c87cea6","ios":"levelo://app?vid=3fe99eeb-6a11-4c24-8375-b8c06c87cea6"},"vehicle_type_id":"4","last_reported":1745298667,"current_range_meters":14800,"station_id":"","pricing_plan_id":"cebpf4jnsgd1na2vs0mg"},{"bike_id":"a756bae3-49c1-4d6c-89e8-fcb7b0e7d2e2","system_id":"levelo_inurba_marseille","lat":43.29032,"lon":5.35922,"is_reserved":false,"is_disabled":true,"rental_uris":{"android":"levelo://app?vid=a756bae3-49c1-4d6c-89e8-fcb7b0e7d2e2","ios":"levelo://app?vid=a756bae3-49c1-4d6c-89e8-fcb7b0e7d2e2"},"vehicle_type_id":"4","last_reported":1745298667,"current_range_meters":15200,"station_id":"ce4bha92rcd13ifvqeg0","pricing_plan_id":"cebpf4jnsgd1na2vs0mg"},{"bike_id":"f90d02cc-6647-4218-b747-af32b8f10be0","system_id":"levelo_inurba_marseille","lat":43.30154,"lon":5.38095,"is_reserved":false,"is_disabled":false,"rental_uris":{"android":"levelo://app?vid=f90d02cc-6647-4218-b747-af32b8f10be0","ios":"levelo://app?vid=f90d02cc-6647-4218-b747-af32b8f10be0"},"vehicle_type_id":"4","last_reported":1745298667,"current_range_meters":15200,"station_id":"ce4bgjp2rcd13ifvqbh0","pricing_plan_id":"cebpf4jnsgd1na2vs0mg"},{"bike_id":"e67493be-90d1-453e-bdde-ef8f6fd8f9f8","system_id":"levelo_inurba_marseille","lat":43.29251,"lon":5.40927,"is_reserved":false,"is_disabled":false,"rental_uris":{"android":"levelo://app?vid=e67493be-90d1-453e-bdde-ef8f6fd8f9f8","ios":"levelo://app?vid=e67493be-90d1-453e-bdde-ef8f6fd8f9f8"},"vehicle_type_id":"4","last_reported":1745298667,"current_range_meters":15200,"station_id":"ce4bh192rcd13ifvqdc0","pricing_plan_id":"cebpf4jnsgd1na2vs0mg"},{"bike_id":"38459f6a-034c-4bc7-9ad6-a5f483ad2390","system_id":"levelo_inurba_marseille","lat":43.24397,"lon":5.37062,"is_reserved":false,"is_disabled":false,"rental_uris":{"android":"levelo://app?vid=38459f6a-034c-4bc7-9ad6-a5f483ad2390","ios":"levelo://app?vid=38459f6a-034c-4bc7-9ad6-a5f483ad2390"},"vehicle_type_id":"4","last_reported":1745298667,"current_range_meters":15200,"station_id":"ce4bhhh2rcd13ifvqfk0","pricing_plan_id":"cebpf4jnsgd1na2vs0mg"},{"bike_id":"3db07ae4-35bc-49f5-9fb8-a9b19427acdd","system_id":"levelo_inurba_marseille","lat":43.284213,"lon":5.349943,"is_reserved":false,"is_disabled":false,"rental_uris":{"android":"levelo://app?vid=3db07ae4-35bc-49f5-9fb8-a9b19427acdd","ios":"levelo://app?vid=3db07ae4-35bc-49f5-9fb8-a9b19427acdd"},"vehicle_type_id":"4","last_reported":1745298667,"current_range_meters":15200,"station_id":"ce4bhbh2rcd13ifvqepg","pricing_plan_id":"cebpf4jnsgd1na2vs0mg"},{"bike_id":"41cd4d50-3bdd-4fa7-b5d1-d715f5a540e6","system_id":"levelo_inurba_marseille","lat":43.32355,"lon":5.36776,"is_reserved":false,"is_disabled":false,"rental_uris":{"android":"levelo://app?vid=41cd4d50-3bdd-4fa7-b5d1-d715f5a540e6","ios":"levelo://app?vid=41cd4d50-3bdd-4fa7-b5d1-d715f5a540e6"},"vehicle_type_id":"4","last_reported":1745298667,"current_range_meters":15200,"station_id":"ce4bhsh2rcd13ifvqi2g","pricing_plan_id":"cebpf4jnsgd1na2vs0mg"},{"bike_id":"d1a505ef-7473-49c5-bad8-0e2f929d6043","system_id":"levelo_inurba_marseille","lat":43.279878,"lon":5.416608,"is_reserved":false,"is_disabled":false,"rental_uris":{"android":"levelo://app?vid=d1a505ef-7473-49c5-bad8-0e2f929d6043","ios":"levelo://app?vid=d1a505ef-7473-49c5-bad8-0e2f929d6043"},"vehicle_type_id":"4","last_reported":1745298667,"current_range_meters":16000,"station_id":"ce4bho12rcd13ifvqh1g","pricing_plan_id":"cebpf4jnsgd1na2vs0mg"},{"bike_id":"322cb3bd-1b2c-4ec8-9cd5-563729b64d42","system_id":"levelo_inurba_marseille","lat":43.24075,"lon":5.37739,"is_reserved":false,"is_disabled":false,"rental_uris":{"android":"levelo://app?vid=322cb3bd-1b2c-4ec8-9cd5-563729b64d42","ios":"levelo://app?vid=322cb3bd-1b2c-4ec8-9cd5-563729b64d42"},"vehicle_type_id":"4","last_reported":1745298667,"current_range_meters":16000,"station_id":"ce4bhnp2rcd13ifvqgvg","pricing_plan_id":"cebpf4jnsgd1na2vs0mg"},{"bike_id":"013b0bba-3a8e-4176-aec5-9b030be1a006","system_id":"levelo_inurba_marseille","lat":43.31731,"lon":5.37776,"is_reserved":false,"is_disabled":false,"rental_uris":{"android":"levelo://app?vid=013b0bba-3a8e-4176-aec5-9b030be1a006","ios":"levelo://app?vid=013b0bba-3a8e-4176-aec5-9b030be1a006"},"vehicle_type_id":"4","last_reported":1745298667,"current_range_meters":16000,"station_id":"ce4bgth2rcd13ifvqch0","pricing_plan_id":"cebpf4jnsgd1na2vs0mg"},{"bike_id":"13e45be5-1648-463d-a11e-c2d07ac95d6a","system_id":"levelo_inurba_marseille","lat":43.29716,"lon":5.37691,"is_reserved":false,"is_disabled":false,"rental_uris":{"android":"levelo://app?vid=13e45be5-1648-463d-a11e-c2d07ac95d6a","ios":"levelo://app?vid=13e45be5-1648-463d-a11e-c2d07ac95d6a"},"vehicle_type_id":"4","last_reported":1745298667,"current_range_meters":16000,"station_id":"ce4bgkh2rcd13ifvqbl0","pricing_plan_id":"cebpf4jnsgd1na2vs0mg"},{"bike_id":"03dbdc9e-5af4-4a77-afe2-ebd92018fd98","system_id":"levelo_inurba_marseille","lat":43.30957,"lon":5.39047,"is_reserved":false,"is_disabled":false,"rental_uris":{"android":"levelo://app?vid=03dbdc9e-5af4-4a77-afe2-ebd92018fd98","ios":"levelo://app?vid=03dbdc9e-5af4-4a77-afe2-ebd92018fd98"},"vehicle_type_id":"4","last_reported":1745298667,"current_range_meters":16000,"station_id":"ce4bgup2rcd13ifvqco0","pricing_plan_id":"cebpf4jnsgd1na2vs0mg"},{"bike_id":"457b4425-2143-4d8d-ab07-86e97485e358","system_id":"levelo_inurba_marseille","lat":43.319936,"lon":5.381418,"is_reserved":false,"is_disabled":false,"rental_uris":{"android":"levelo://app?vid=457b4425-2143-4d8d-ab07-86e97485e358","ios":"levelo://app?vid=457b4425-2143-4d8d-ab07-86e97485e358"},"vehicle_type_id":"4","last_reported":1745298667,"current_range_meters":16400,"station_id":"ce4bhr12rcd13ifvqhpg","pricing_plan_id":"cebpf4jnsgd1na2vs0mg"},{"bike_id":"b94ce143-5dd7-45a3-b111-19f8d55c0056","system_id":"levelo_inurba_marseille","lat":43.30213,"lon":5.43762,"is_reserved":false,"is_disabled":false,"rental_uris":{"android":"levelo://app?vid=b94ce143-5dd7-45a3-b111-19f8d55c0056","ios":"levelo://app?vid=b94ce143-5dd7-45a3-b111-19f8d55c0056"},"vehicle_type_id":"4","last_reported":1745298667,"current_range_meters":16400,"station_id":"","pricing_plan_id":"cebpf4jnsgd1na2vs0mg"},{"bike_id":"85c5e05e-7712-409a-829b-75043230d454","system_id":"levelo_inurba_marseille","lat":43.3095,"lon":5.39035,"is_reserved":false,"is_disabled":false,"rental_uris":{"android":"levelo://app?vid=85c5e05e-7712-409a-829b-75043230d454","ios":"levelo://app?vid=85c5e05e-7712-409a-829b-75043230d454"},"vehicle_type_id":"4","last_reported":1745298667,"current_range_meters":16400,"station_id":"ce4bgup2rcd13ifvqco0","pricing_plan_id":"cebpf4jnsgd1na2vs0mg"},{"bike_id":"de9704f9-bc65-4f5a-9c6b-e4c83851fc93","system_id":"levelo_inurba_marseille","lat":43.217483,"lon":5.346011,"is_reserved":false,"is_disabled":true,"rental_uris":{"android":"levelo://app?vid=de9704f9-bc65-4f5a-9c6b-e4c83851fc93","ios":"levelo://app?vid=de9704f9-bc65-4f5a-9c6b-e4c83851fc93"},"vehicle_type_id":"4","last_reported":1745298667,"current_range_meters":16400,"station_id":"","pricing_plan_id":"cebpf4jnsgd1na2vs0mg"},{"bike_id":"eb35f0ad-c433-4dc1-8d7d-8dd574839854","system_id":"levelo_inurba_marseille","lat":43.240663,"lon":5.377457,"is_reserved":false,"is_disabled":false,"rental_uris":{"android":"levelo://app?vid=eb35f0ad-c433-4dc1-8d7d-8dd574839854","ios":"levelo://app?vid=eb35f0ad-c433-4dc1-8d7d-8dd574839854"},"vehicle_type_id":"4","last_reported":1745298667,"current_range_meters":16400,"station_id":"ce4bhnp2rcd13ifvqgvg","pricing_plan_id":"cebpf4jnsgd1na2vs0mg"},{"bike_id":"1f1f9885-6e62-4243-a5b0-45be9ddf4073","system_id":"levelo_inurba_marseille","lat":43.23964,"lon":5.36629,"is_reserved":false,"is_disabled":true,"rental_uris":{"android":"levelo://app?vid=1f1f9885-6e62-4243-a5b0-45be9ddf4073","ios":"levelo://app?vid=1f1f9885-6e62-4243-a5b0-45be9ddf4073"},"vehicle_type_id":"4","last_reported":1745298667,"current_range_meters":16400,"station_id":"ce4bhi12rcd13ifvqfp0","pricing_plan_id":"cebpf4jnsgd1na2vs0mg"},{"bike_id":"67f63153-bd63-4c57-a2cb-95fa14067c52","system_id":"levelo_inurba_marseille","lat":43.29507,"lon":5.39398,"is_reserved":false,"is_disabled":false,"rental_uris":{"android":"levelo://app?vid=67f63153-bd63-4c57-a2cb-95fa14067c52","ios":"levelo://app?vid=67f63153-bd63-4c57-a2cb-95fa14067c52"},"vehicle_type_id":"4","last_reported":1745298667,"current_range_meters":16800,"station_id":"ce4bh292rcd13ifvqdf0","pricing_plan_id":"cebpf4jnsgd1na2vs0mg"},{"bike_id":"d5312e91-790a-4952-9d4c-970327cc40c0","system_id":"levelo_inurba_marseille","lat":43.31502,"lon":5.37276,"is_reserved":false,"is_disabled":false,"rental_uris":{"android":"levelo://app?vid=d5312e91-790a-4952-9d4c-970327cc40c0","ios":"levelo://app?vid=d5312e91-790a-4952-9d4c-970327cc40c0"},"vehicle_type_id":"4","last_reported":1745298667,"current_range_meters":16800,"station_id":"ce4bgt12rcd13ifvqcd0","pricing_plan_id":"cebpf4jnsgd1na2vs0mg"},{"bike_id":"4f750d7b-66e9-4360-bedf-9116f4f068dc","system_id":"levelo_inurba_marseille","lat":43.291896,"lon":5.393202,"is_reserved":false,"is_disabled":false,"rental_uris":{"android":"levelo://app?vid=4f750d7b-66e9-4360-bedf-9116f4f068dc","ios":"levelo://app?vid=4f750d7b-66e9-4360-bedf-9116f4f068dc"},"vehicle_type_id":"4","last_reported":1745298667,"current_range_meters":16800,"station_id":"ce4bh192rcd13ifvqdd0","pricing_plan_id":"cebpf4jnsgd1na2vs0mg"},{"bike_id":"3ac21a61-1f65-46e2-9a5a-81d628d5aeb0","system_id":"levelo_inurba_marseille","lat":43.31507,"lon":5.37243,"is_reserved":false,"is_disabled":false,"rental_uris":{"android":"levelo://app?vid=3ac21a61-1f65-46e2-9a5a-81d628d5aeb0","ios":"levelo://app?vid=3ac21a61-1f65-46e2-9a5a-81d628d5aeb0"},"vehicle_type_id":"4","last_reported":1745298667,"current_range_meters":17200,"station_id":"","pricing_plan_id":"cebpf4jnsgd1na2vs0mg"},{"bike_id":"584387b4-187d-4f80-b338-fcdc107989ef","system_id":"levelo_inurba_marseille","lat":43.247497,"lon":5.411585,"is_reserved":false,"is_disabled":false,"rental_uris":{"android":"levelo://app?vid=584387b4-187d-4f80-b338-fcdc107989ef","ios":"levelo://app?vid=584387b4-187d-4f80-b338-fcdc107989ef"},"vehicle_type_id":"4","last_reported":1745298667,"current_range_meters":17200,"station_id":"","pricing_plan_id":"cebpf4jnsgd1na2vs0mg"},{"bike_id":"aba5fb3e-be38-4cda-830a-07f38c54b831","system_id":"levelo_inurba_marseille","lat":43.27944,"lon":5.41042,"is_reserved":false,"is_disabled":false,"rental_uris":{"android":"levelo://app?vid=aba5fb3e-be38-4cda-830a-07f38c54b831","ios":"levelo://app?vid=aba5fb3e-be38-4cda-830a-07f38c54b831"},"vehicle_type_id":"4","last_reported":1745298667,"current_range_meters":17600,"station_id":"ce4bhnp2rcd13ifvqh0g","pricing_plan_id":"cebpf4jnsgd1na2vs0mg"},{"bike_id":"137d250a-2c7c-4f95-9bc6-42b57f26a2b9","system_id":"levelo_inurba_marseille","lat":43.23958,"lon":5.36663,"is_reserved":false,"is_disabled":true,"rental_uris":{"android":"levelo://app?vid=137d250a-2c7c-4f95-9bc6-42b57f26a2b9","ios":"levelo://app?vid=137d250a-2c7c-4f95-9bc6-42b57f26a2b9"},"vehicle_type_id":"4","last_reported":1745298667,"current_range_meters":17600,"station_id":"ce4bhi12rcd13ifvqfp0","pricing_plan_id":"cebpf4jnsgd1na2vs0mg"},{"bike_id":"04313f42-6027-40c2-ad10-63fc0b5db78c","system_id":"levelo_inurba_marseille","lat":43.288635,"lon":5.358387,"is_reserved":false,"is_disabled":false,"rental_uris":{"android":"levelo://app?vid=04313f42-6027-40c2-ad10-63fc0b5db78c","ios":"levelo://app?vid=04313f42-6027-40c2-ad10-63fc0b5db78c"},"vehicle_type_id":"4","last_reported":1745298667,"current_range_meters":18000,"station_id":"ce4bhb12rcd13ifvqem0","pricing_plan_id":"cebpf4jnsgd1na2vs0mg"},{"bike_id":"1b06bef2-142e-4557-810a-fc865fa25a0b","system_id":"levelo_inurba_marseille","lat":43.26533,"lon":5.37351,"is_reserved":false,"is_disabled":true,"rental_uris":{"android":"levelo://app?vid=1b06bef2-142e-4557-810a-fc865fa25a0b","ios":"levelo://app?vid=1b06bef2-142e-4557-810a-fc865fa25a0b"},"vehicle_type_id":"4","last_reported":1745298667,"current_range_meters":18000,"station_id":"","pricing_plan_id":"cebpf4jnsgd1na2vs0mg"},{"bike_id":"98c1a7d8-e077-4271-82f8-42e14f36d05c","system_id":"levelo_inurba_marseille","lat":43.292802,"lon":5.401271,"is_reserved":false,"is_disabled":false,"rental_uris":{"android":"levelo://app?vid=98c1a7d8-e077-4271-82f8-42e14f36d05c","ios":"levelo://app?vid=98c1a7d8-e077-4271-82f8-42e14f36d05c"},"vehicle_type_id":"4","last_reported":1745298667,"current_range_meters":18000,"station_id":"ce4bh312rcd13ifvqdk0","pricing_plan_id":"cebpf4jnsgd1na2vs0mg"},{"bike_id":"22ad8cd8-448d-4f6e-b2fe-740f8d592dd7","system_id":"levelo_inurba_marseille","lat":43.31137,"lon":5.36933,"is_reserved":false,"is_disabled":false,"rental_uris":{"android":"levelo://app?vid=22ad8cd8-448d-4f6e-b2fe-740f8d592dd7","ios":"levelo://app?vid=22ad8cd8-448d-4f6e-b2fe-740f8d592dd7"},"vehicle_type_id":"4","last_reported":1745298667,"current_range_meters":18800,"station_id":"","pricing_plan_id":"cebpf4jnsgd1na2vs0mg"},{"bike_id":"d01df6a6-b745-430f-aed3-8244c27e3204","system_id":"levelo_inurba_marseille","lat":43.28355,"lon":5.38089,"is_reserved":false,"is_disabled":false,"rental_uris":{"android":"levelo://app?vid=d01df6a6-b745-430f-aed3-8244c27e3204","ios":"levelo://app?vid=d01df6a6-b745-430f-aed3-8244c27e3204"},"vehicle_type_id":"4","last_reported":1745298667,"current_range_meters":18000,"station_id":"ce4bh412rcd13ifvqdr0","pricing_plan_id":"cebpf4jnsgd1na2vs0mg"},{"bike_id":"79229100-948a-407c-9f3d-d24dc0dcb252","system_id":"levelo_inurba_marseille","lat":43.26563,"lon":5.37331,"is_reserved":false,"is_disabled":true,"rental_uris":{"android":"levelo://app?vid=79229100-948a-407c-9f3d-d24dc0dcb252","ios":"levelo://app?vid=79229100-948a-407c-9f3d-d24dc0dcb252"},"vehicle_type_id":"4","last_reported":1745298667,"current_range_meters":18000,"station_id":"ce4bhg12rcd13ifvqf70","pricing_plan_id":"cebpf4jnsgd1na2vs0mg"},{"bike_id":"1b84bfe3-cae7-4cb8-be32-9cbeef2186cf","system_id":"levelo_inurba_marseille","lat":43.30861,"lon":5.37212,"is_reserved":false,"is_disabled":false,"rental_uris":{"android":"levelo://app?vid=1b84bfe3-cae7-4cb8-be32-9cbeef2186cf","ios":"levelo://app?vid=1b84bfe3-cae7-4cb8-be32-9cbeef2186cf"},"vehicle_type_id":"4","last_reported":1745298667,"current_range_meters":18000,"station_id":"ce4bguh2rcd13ifvqckg","pricing_plan_id":"cebpf4jnsgd1na2vs0mg"},{"bike_id":"27166011-9659-43f9-9d49-c158ddc3e57c","system_id":"levelo_inurba_marseille","lat":43.241696,"lon":5.397269,"is_reserved":false,"is_disabled":false,"rental_uris":{"android":"levelo://app?vid=27166011-9659-43f9-9d49-c158ddc3e57c","ios":"levelo://app?vid=27166011-9659-43f9-9d49-c158ddc3e57c"},"vehicle_type_id":"4","last_reported":1745298667,"current_range_meters":18000,"station_id":"ce4bhn12rcd13ifvqgpg","pricing_plan_id":"cebpf4jnsgd1na2vs0mg"},{"bike_id":"258b0b4c-5b99-4570-a859-adeda5b62274","system_id":"levelo_inurba_marseille","lat":43.29271,"lon":5.40147,"is_reserved":false,"is_disabled":false,"rental_uris":{"android":"levelo://app?vid=258b0b4c-5b99-4570-a859-adeda5b62274","ios":"levelo://app?vid=258b0b4c-5b99-4570-a859-adeda5b62274"},"vehicle_type_id":"4","last_reported":1745298667,"current_range_meters":18000,"station_id":"ce4bh312rcd13ifvqdk0","pricing_plan_id":"cebpf4jnsgd1na2vs0mg"},{"bike_id":"e0ed866d-3aa8-4a3a-887d-34616074a025","system_id":"levelo_inurba_marseille","lat":43.28419,"lon":5.37504,"is_reserved":false,"is_disabled":false,"rental_uris":{"android":"levelo://app?vid=e0ed866d-3aa8-4a3a-887d-34616074a025","ios":"levelo://app?vid=e0ed866d-3aa8-4a3a-887d-34616074a025"},"vehicle_type_id":"4","last_reported":1745298667,"current_range_meters":18000,"station_id":"ce4bh412rcd13ifvqds0","pricing_plan_id":"cebpf4jnsgd1na2vs0mg"},{"bike_id":"5fa42bc2-b30c-4535-ad7e-76477c018241","system_id":"levelo_inurba_marseille","lat":43.2694,"lon":5.40257,"is_reserved":false,"is_disabled":false,"rental_uris":{"android":"levelo://app?vid=5fa42bc2-b30c-4535-ad7e-76477c018241","ios":"levelo://app?vid=5fa42bc2-b30c-4535-ad7e-76477c018241"},"vehicle_type_id":"4","last_reported":1745298667,"current_range_meters":18800,"station_id":"cjm6bp8fraef2m0cb0m0","pricing_plan_id":"cebpf4jnsgd1na2vs0mg"},{"bike_id":"7b2dc864-a4e9-468c-9cee-f3075a20977d","system_id":"levelo_inurba_marseille","lat":43.3145,"lon":5.37378,"is_reserved":false,"is_disabled":true,"rental_uris":{"android":"levelo://app?vid=7b2dc864-a4e9-468c-9cee-f3075a20977d","ios":"levelo://app?vid=7b2dc864-a4e9-468c-9cee-f3075a20977d"},"vehicle_type_id":"4","last_reported":1745298667,"current_range_meters":18800,"station_id":"","pricing_plan_id":"cebpf4jnsgd1na2vs0mg"},{"bike_id":"bfb6a197-fb29-40f0-a2e8-984f700e18b4","system_id":"levelo_inurba_marseille","lat":43.34166,"lon":5.40913,"is_reserved":false,"is_disabled":false,"rental_uris":{"android":"levelo://app?vid=bfb6a197-fb29-40f0-a2e8-984f700e18b4","ios":"levelo://app?vid=bfb6a197-fb29-40f0-a2e8-984f700e18b4"},"vehicle_type_id":"4","last_reported":1745298667,"current_range_meters":18800,"station_id":"ce4bhqh2rcd13ifvqhlg","pricing_plan_id":"cebpf4jnsgd1na2vs0mg"},{"bike_id":"3eeaa5ee-7282-4572-8d60-4d266c5d718f","system_id":"levelo_inurba_marseille","lat":43.211916,"lon":5.35072,"is_reserved":false,"is_disabled":true,"rental_uris":{"android":"levelo://app?vid=3eeaa5ee-7282-4572-8d60-4d266c5d718f","ios":"levelo://app?vid=3eeaa5ee-7282-4572-8d60-4d266c5d718f"},"vehicle_type_id":"4","last_reported":1745298667,"current_range_meters":18800,"station_id":"","pricing_plan_id":"cebpf4jnsgd1na2vs0mg"},{"bike_id":"1b903b38-38de-4714-9a2c-59836acfa168","system_id":"levelo_inurba_marseille","lat":43.3172,"lon":5.43706,"is_reserved":false,"is_disabled":true,"rental_uris":{"android":"levelo://app?vid=1b903b38-38de-4714-9a2c-59836acfa168","ios":"levelo://app?vid=1b903b38-38de-4714-9a2c-59836acfa168"},"vehicle_type_id":"4","last_reported":1745298667,"current_range_meters":18800,"station_id":"ce4bhp92rcd13ifvqhcg","pricing_plan_id":"cebpf4jnsgd1na2vs0mg"},{"bike_id":"9364fd95-471d-4c2c-87b7-5f02fd1dfadd","system_id":"levelo_inurba_marseille","lat":43.287099,"lon":5.399892,"is_reserved":false,"is_disabled":false,"rental_uris":{"android":"levelo://app?vid=9364fd95-471d-4c2c-87b7-5f02fd1dfadd","ios":"levelo://app?vid=9364fd95-471d-4c2c-87b7-5f02fd1dfadd"},"vehicle_type_id":"4","last_reported":1745298667,"current_range_meters":19200,"station_id":"ce4bho92rcd13ifvqh3g","pricing_plan_id":"cebpf4jnsgd1na2vs0mg"},{"bike_id":"99b87c40-0751-4c05-a832-0d5c755bc822","system_id":"levelo_inurba_marseille","lat":43.29272,"lon":5.40122,"is_reserved":false,"is_disabled":false,"rental_uris":{"android":"levelo://app?vid=99b87c40-0751-4c05-a832-0d5c755bc822","ios":"levelo://app?vid=99b87c40-0751-4c05-a832-0d5c755bc822"},"vehicle_type_id":"4","last_reported":1745298667,"current_range_meters":19200,"station_id":"ce4bh312rcd13ifvqdk0","pricing_plan_id":"cebpf4jnsgd1na2vs0mg"},{"bike_id":"3d1afb70-2282-4946-ba64-9d417eff0bda","system_id":"levelo_inurba_marseille","lat":43.30262,"lon":5.39225,"is_reserved":false,"is_disabled":false,"rental_uris":{"android":"levelo://app?vid=3d1afb70-2282-4946-ba64-9d417eff0bda","ios":"levelo://app?vid=3d1afb70-2282-4946-ba64-9d417eff0bda"},"vehicle_type_id":"4","last_reported":1745298667,"current_range_meters":19200,"station_id":"ce4bgkh2rcd13ifvqbk0","pricing_plan_id":"cebpf4jnsgd1na2vs0mg"},{"bike_id":"17d94bf2-3173-4d6a-b6b6-abb922d18dbe","system_id":"levelo_inurba_marseille","lat":43.31324,"lon":5.39703,"is_reserved":false,"is_disabled":false,"rental_uris":{"android":"levelo://app?vid=17d94bf2-3173-4d6a-b6b6-abb922d18dbe","ios":"levelo://app?vid=17d94bf2-3173-4d6a-b6b6-abb922d18dbe"},"vehicle_type_id":"4","last_reported":1745298667,"current_range_meters":19200,"station_id":"ce4bgvp2rcd13ifvqcu0","pricing_plan_id":"cebpf4jnsgd1na2vs0mg"},{"bike_id":"aacbab09-12e8-48ab-ab2b-622a9e40fabb","system_id":"levelo_inurba_marseille","lat":43.2693,"lon":5.40245,"is_reserved":false,"is_disabled":false,"rental_uris":{"android":"levelo://app?vid=aacbab09-12e8-48ab-ab2b-622a9e40fabb","ios":"levelo://app?vid=aacbab09-12e8-48ab-ab2b-622a9e40fabb"},"vehicle_type_id":"4","last_reported":1745298667,"current_range_meters":19600,"station_id":"cjm6bp8fraef2m0cb0m0","pricing_plan_id":"cebpf4jnsgd1na2vs0mg"},{"bike_id":"0555710f-732a-440e-b51e-8edb070ee7e9","system_id":"levelo_inurba_marseille","lat":43.29866,"lon":5.38911,"is_reserved":false,"is_disabled":false,"rental_uris":{"android":"levelo://app?vid=0555710f-732a-440e-b51e-8edb070ee7e9","ios":"levelo://app?vid=0555710f-732a-440e-b51e-8edb070ee7e9"},"vehicle_type_id":"4","last_reported":1745298667,"current_range_meters":19600,"station_id":"ce4bh392rcd13ifvqdl0","pricing_plan_id":"cebpf4jnsgd1na2vs0mg"},{"bike_id":"080497d0-a075-4355-8487-fd3a3c1df99b","system_id":"levelo_inurba_marseille","lat":43.337261,"lon":5.391883,"is_reserved":false,"is_disabled":false,"rental_uris":{"android":"levelo://app?vid=080497d0-a075-4355-8487-fd3a3c1df99b","ios":"levelo://app?vid=080497d0-a075-4355-8487-fd3a3c1df99b"},"vehicle_type_id":"4","last_reported":1745298667,"current_range_meters":19600,"station_id":"ce4bhr92rcd13ifvqhsg","pricing_plan_id":"cebpf4jnsgd1na2vs0mg"},{"bike_id":"84ed2209-c14c-412e-8cfb-2294751b7fff","system_id":"levelo_inurba_marseille","lat":43.3032,"lon":5.40443,"is_reserved":false,"is_disabled":false,"rental_uris":{"android":"levelo://app?vid=84ed2209-c14c-412e-8cfb-2294751b7fff","ios":"levelo://app?vid=84ed2209-c14c-412e-8cfb-2294751b7fff"},"vehicle_type_id":"4","last_reported":1745298667,"current_range_meters":19600,"station_id":"ce4bh012rcd13ifvqd10","pricing_plan_id":"cebpf4jnsgd1na2vs0mg"},{"bike_id":"1fb71ef3-a7f4-476e-b74f-9a9a8fc4664d","system_id":"levelo_inurba_marseille","lat":43.30878,"lon":5.39653,"is_reserved":false,"is_disabled":false,"rental_uris":{"android":"levelo://app?vid=1fb71ef3-a7f4-476e-b74f-9a9a8fc4664d","ios":"levelo://app?vid=1fb71ef3-a7f4-476e-b74f-9a9a8fc4664d"},"vehicle_type_id":"4","last_reported":1745298667,"current_range_meters":20000,"station_id":"ce4bh012rcd13ifvqcv0","pricing_plan_id":"cebpf4jnsgd1na2vs0mg"},{"bike_id":"28f798a3-56f2-4fbf-b12d-c540c66dbab9","system_id":"levelo_inurba_marseille","lat":43.33779,"lon":5.37429,"is_reserved":false,"is_disabled":false,"rental_uris":{"android":"levelo://app?vid=28f798a3-56f2-4fbf-b12d-c540c66dbab9","ios":"levelo://app?vid=28f798a3-56f2-4fbf-b12d-c540c66dbab9"},"vehicle_type_id":"4","last_reported":1745298667,"current_range_meters":20000,"station_id":"","pricing_plan_id":"cebpf4jnsgd1na2vs0mg"},{"bike_id":"41256598-945a-4074-82f8-1ae4e9bcdf44","system_id":"levelo_inurba_marseille","lat":43.28554,"lon":5.39491,"is_reserved":false,"is_disabled":false,"rental_uris":{"android":"levelo://app?vid=41256598-945a-4074-82f8-1ae4e9bcdf44","ios":"levelo://app?vid=41256598-945a-4074-82f8-1ae4e9bcdf44"},"vehicle_type_id":"4","last_reported":1745298667,"current_range_meters":20000,"station_id":"ce4bh292rcd13ifvqdg0","pricing_plan_id":"cebpf4jnsgd1na2vs0mg"},{"bike_id":"796f584e-d0e0-46a8-ac52-777edabbde1a","system_id":"levelo_inurba_marseille","lat":43.31118,"lon":5.37768,"is_reserved":false,"is_disabled":false,"rental_uris":{"android":"levelo://app?vid=796f584e-d0e0-46a8-ac52-777edabbde1a","ios":"levelo://app?vid=796f584e-d0e0-46a8-ac52-777edabbde1a"},"vehicle_type_id":"4","last_reported":1745298667,"current_range_meters":20000,"station_id":"ce4bgt92rcd13ifvqcg0","pricing_plan_id":"cebpf4jnsgd1na2vs0mg"},{"bike_id":"78596189-9b2b-48ef-84e5-2f8f30158d3e","system_id":"levelo_inurba_marseille","lat":43.284575,"lon":5.358851,"is_reserved":false,"is_disabled":false,"rental_uris":{"android":"levelo://app?vid=78596189-9b2b-48ef-84e5-2f8f30158d3e","ios":"levelo://app?vid=78596189-9b2b-48ef-84e5-2f8f30158d3e"},"vehicle_type_id":"4","last_reported":1745298667,"current_range_meters":20000,"station_id":"ce4bhah2rcd13ifvqei0","pricing_plan_id":"cebpf4jnsgd1na2vs0mg"},{"bike_id":"88bf37e5-1cb9-46e5-8acf-554dd4451f7d","system_id":"levelo_inurba_marseille","lat":43.27075,"lon":5.42274,"is_reserved":false,"is_disabled":false,"rental_uris":{"android":"levelo://app?vid=88bf37e5-1cb9-46e5-8acf-554dd4451f7d","ios":"levelo://app?vid=88bf37e5-1cb9-46e5-8acf-554dd4451f7d"},"vehicle_type_id":"4","last_reported":1745298667,"current_range_meters":20400,"station_id":"ce4bhk92rcd13ifvqgb0","pricing_plan_id":"cebpf4jnsgd1na2vs0mg"},{"bike_id":"fc5fa76e-3be5-4df9-8c7d-269c9317919e","system_id":"levelo_inurba_marseille","lat":43.2872,"lon":5.4002,"is_reserved":false,"is_disabled":false,"rental_uris":{"android":"levelo://app?vid=fc5fa76e-3be5-4df9-8c7d-269c9317919e","ios":"levelo://app?vid=fc5fa76e-3be5-4df9-8c7d-269c9317919e"},"vehicle_type_id":"4","last_reported":1745298667,"current_range_meters":20400,"station_id":"ce4bho92rcd13ifvqh3g","pricing_plan_id":"cebpf4jnsgd1na2vs0mg"},{"bike_id":"68a0a858-f03b-40e6-810c-6b9af8027519","system_id":"levelo_inurba_marseille","lat":43.31121,"lon":5.377823,"is_reserved":false,"is_disabled":false,"rental_uris":{"android":"levelo://app?vid=68a0a858-f03b-40e6-810c-6b9af8027519","ios":"levelo://app?vid=68a0a858-f03b-40e6-810c-6b9af8027519"},"vehicle_type_id":"4","last_reported":1745298667,"current_range_meters":20400,"station_id":"ce4bgt92rcd13ifvqcg0","pricing_plan_id":"cebpf4jnsgd1na2vs0mg"},{"bike_id":"db7e17fe-6d0a-4d36-b838-2d92865e16d0","system_id":"levelo_inurba_marseille","lat":43.32268,"lon":5.3832,"is_reserved":false,"is_disabled":false,"rental_uris":{"android":"levelo://app?vid=db7e17fe-6d0a-4d36-b838-2d92865e16d0","ios":"levelo://app?vid=db7e17fe-6d0a-4d36-b838-2d92865e16d0"},"vehicle_type_id":"4","last_reported":1745298667,"current_range_meters":20800,"station_id":"ce4bhr12rcd13ifvqhqg","pricing_plan_id":"cebpf4jnsgd1na2vs0mg"},{"bike_id":"2c660b5d-01e5-4453-a19f-67ece0e25071","system_id":"levelo_inurba_marseille","lat":43.2407,"lon":5.37766,"is_reserved":false,"is_disabled":false,"rental_uris":{"android":"levelo://app?vid=2c660b5d-01e5-4453-a19f-67ece0e25071","ios":"levelo://app?vid=2c660b5d-01e5-4453-a19f-67ece0e25071"},"vehicle_type_id":"4","last_reported":1745298667,"current_range_meters":20800,"station_id":"ce4bhnp2rcd13ifvqgvg","pricing_plan_id":"cebpf4jnsgd1na2vs0mg"},{"bike_id":"6382d094-23f2-4d1e-9fc5-0b03894a7c4d","system_id":"levelo_inurba_marseille","lat":43.30417,"lon":5.39746,"is_reserved":false,"is_disabled":true,"rental_uris":{"android":"levelo://app?vid=6382d094-23f2-4d1e-9fc5-0b03894a7c4d","ios":"levelo://app?vid=6382d094-23f2-4d1e-9fc5-0b03894a7c4d"},"vehicle_type_id":"4","last_reported":1745298667,"current_range_meters":20800,"station_id":"ce4bh092rcd13ifvqd20","pricing_plan_id":"cebpf4jnsgd1na2vs0mg"},{"bike_id":"0f14c987-efee-48fa-af1b-2096962b84e3","system_id":"levelo_inurba_marseille","lat":43.24039,"lon":5.38796,"is_reserved":false,"is_disabled":false,"rental_uris":{"android":"levelo://app?vid=0f14c987-efee-48fa-af1b-2096962b84e3","ios":"levelo://app?vid=0f14c987-efee-48fa-af1b-2096962b84e3"},"vehicle_type_id":"4","last_reported":1745298667,"current_range_meters":20800,"station_id":"","pricing_plan_id":"cebpf4jnsgd1na2vs0mg"},{"bike_id":"8a7348ed-0adb-447d-bfb3-92266bb71119","system_id":"levelo_inurba_marseille","lat":43.289978,"lon":5.356143,"is_reserved":false,"is_disabled":false,"rental_uris":{"android":"levelo://app?vid=8a7348ed-0adb-447d-bfb3-92266bb71119","ios":"levelo://app?vid=8a7348ed-0adb-447d-bfb3-92266bb71119"},"vehicle_type_id":"4","last_reported":1745298667,"current_range_meters":20800,"station_id":"ce4bhb92rcd13ifvqen0","pricing_plan_id":"cebpf4jnsgd1na2vs0mg"},{"bike_id":"20ede925-27e6-407f-8bf5-4c244f8341b4","system_id":"levelo_inurba_marseille","lat":43.241726,"lon":5.363998,"is_reserved":false,"is_disabled":false,"rental_uris":{"android":"levelo://app?vid=20ede925-27e6-407f-8bf5-4c244f8341b4","ios":"levelo://app?vid=20ede925-27e6-407f-8bf5-4c244f8341b4"},"vehicle_type_id":"4","last_reported":1745298667,"current_range_meters":21600,"station_id":"cpo36qri1sfpv3e86is0","pricing_plan_id":"cebpf4jnsgd1na2vs0mg"},{"bike_id":"f4f62e04-feb9-4f71-8306-5360a9f6478f","system_id":"levelo_inurba_marseille","lat":43.292031,"lon":5.359849,"is_reserved":false,"is_disabled":false,"rental_uris":{"android":"levelo://app?vid=f4f62e04-feb9-4f71-8306-5360a9f6478f","ios":"levelo://app?vid=f4f62e04-feb9-4f71-8306-5360a9f6478f"},"vehicle_type_id":"4","last_reported":1745298667,"current_range_meters":21600,"station_id":"ce4bhbh2rcd13ifvqeqg","pricing_plan_id":"cebpf4jnsgd1na2vs0mg"},{"bike_id":"3444424c-f460-4b03-800f-a98e29c81f69","system_id":"levelo_inurba_marseille","lat":43.28706,"lon":5.3999,"is_reserved":false,"is_disabled":false,"rental_uris":{"android":"levelo://app?vid=3444424c-f460-4b03-800f-a98e29c81f69","ios":"levelo://app?vid=3444424c-f460-4b03-800f-a98e29c81f69"},"vehicle_type_id":"4","last_reported":1745298667,"current_range_meters":21600,"station_id":"ce4bho92rcd13ifvqh3g","pricing_plan_id":"cebpf4jnsgd1na2vs0mg"},{"bike_id":"19bd6481-e42b-4f2f-8596-4963547c74ad","system_id":"levelo_inurba_marseille","lat":43.31473,"lon":5.37303,"is_reserved":false,"is_disabled":false,"rental_uris":{"android":"levelo://app?vid=19bd6481-e42b-4f2f-8596-4963547c74ad","ios":"levelo://app?vid=19bd6481-e42b-4f2f-8596-4963547c74ad"},"vehicle_type_id":"4","last_reported":1745298667,"current_range_meters":21600,"station_id":"ce4bgt12rcd13ifvqcd0","pricing_plan_id":"cebpf4jnsgd1na2vs0mg"},{"bike_id":"cbdff9ca-7011-4b41-ae5e-b9521769edb1","system_id":"levelo_inurba_marseille","lat":43.28415,"lon":5.37539,"is_reserved":false,"is_disabled":false,"rental_uris":{"android":"levelo://app?vid=cbdff9ca-7011-4b41-ae5e-b9521769edb1","ios":"levelo://app?vid=cbdff9ca-7011-4b41-ae5e-b9521769edb1"},"vehicle_type_id":"4","last_reported":1745298667,"current_range_meters":21600,"station_id":"ce4bh412rcd13ifvqds0","pricing_plan_id":"cebpf4jnsgd1na2vs0mg"},{"bike_id":"43f69d8d-df5e-425e-b41d-bcc37ca62603","system_id":"levelo_inurba_marseille","lat":43.27497,"lon":5.42459,"is_reserved":false,"is_disabled":true,"rental_uris":{"android":"levelo://app?vid=43f69d8d-df5e-425e-b41d-bcc37ca62603","ios":"levelo://app?vid=43f69d8d-df5e-425e-b41d-bcc37ca62603"},"vehicle_type_id":"4","last_reported":1745298667,"current_range_meters":21600,"station_id":"ce4bhn92rcd13ifvqgrg","pricing_plan_id":"cebpf4jnsgd1na2vs0mg"},{"bike_id":"3141ba66-2281-4a71-8d92-97971b08ddc6","system_id":"levelo_inurba_marseille","lat":43.32343,"lon":5.40611,"is_reserved":false,"is_disabled":false,"rental_uris":{"android":"levelo://app?vid=3141ba66-2281-4a71-8d92-97971b08ddc6","ios":"levelo://app?vid=3141ba66-2281-4a71-8d92-97971b08ddc6"},"vehicle_type_id":"4","last_reported":1745298667,"current_range_meters":21600,"station_id":"ce4bhq92rcd13ifvqhjg","pricing_plan_id":"cebpf4jnsgd1na2vs0mg"},{"bike_id":"d1756610-52d3-49ad-a5e5-305e8bc89fb4","system_id":"levelo_inurba_marseille","lat":43.29264,"lon":5.38462,"is_reserved":false,"is_disabled":false,"rental_uris":{"android":"levelo://app?vid=d1756610-52d3-49ad-a5e5-305e8bc89fb4","ios":"levelo://app?vid=d1756610-52d3-49ad-a5e5-305e8bc89fb4"},"vehicle_type_id":"4","last_reported":1745298667,"current_range_meters":21600,"station_id":"ce4bh692rcd13ifvqea0","pricing_plan_id":"cebpf4jnsgd1na2vs0mg"},{"bike_id":"5d6ce0cf-9f03-41a4-849f-504bf29dfe65","system_id":"levelo_inurba_marseille","lat":43.21739,"lon":5.34611,"is_reserved":false,"is_disabled":false,"rental_uris":{"android":"levelo://app?vid=5d6ce0cf-9f03-41a4-849f-504bf29dfe65","ios":"levelo://app?vid=5d6ce0cf-9f03-41a4-849f-504bf29dfe65"},"vehicle_type_id":"4","last_reported":1745298667,"current_range_meters":22000,"station_id":"st_cvj6r9ubvosntc0bgbag","pricing_plan_id":"cebpf4jnsgd1na2vs0mg"},{"bike_id":"b5d609bf-0c9b-49e3-9426-ce02cb8383b8","system_id":"levelo_inurba_marseille","lat":43.34203,"lon":5.40784,"is_reserved":false,"is_disabled":true,"rental_uris":{"android":"levelo://app?vid=b5d609bf-0c9b-49e3-9426-ce02cb8383b8","ios":"levelo://app?vid=b5d609bf-0c9b-49e3-9426-ce02cb8383b8"},"vehicle_type_id":"4","last_reported":1745298667,"current_range_meters":22400,"station_id":"","pricing_plan_id":"cebpf4jnsgd1na2vs0mg"},{"bike_id":"46374c49-3adc-4c5a-8966-e00f056c0d57","system_id":"levelo_inurba_marseille","lat":43.27846,"lon":5.35442,"is_reserved":false,"is_disabled":false,"rental_uris":{"android":"levelo://app?vid=46374c49-3adc-4c5a-8966-e00f056c0d57","ios":"levelo://app?vid=46374c49-3adc-4c5a-8966-e00f056c0d57"},"vehicle_type_id":"4","last_reported":1745298667,"current_range_meters":22400,"station_id":"","pricing_plan_id":"cebpf4jnsgd1na2vs0mg"},{"bike_id":"a2d5a464-f649-430b-b737-a14b0a2b42fe","system_id":"levelo_inurba_marseille","lat":43.28509,"lon":5.3844,"is_reserved":false,"is_disabled":false,"rental_uris":{"android":"levelo://app?vid=a2d5a464-f649-430b-b737-a14b0a2b42fe","ios":"levelo://app?vid=a2d5a464-f649-430b-b737-a14b0a2b42fe"},"vehicle_type_id":"4","last_reported":1745298667,"current_range_meters":22400,"station_id":"ce4bh512rcd13ifvqe3g","pricing_plan_id":"cebpf4jnsgd1na2vs0mg"},{"bike_id":"95b8bc11-d0dd-4aad-a8cc-3bcf7c3eb2a4","system_id":"levelo_inurba_marseille","lat":43.29294,"lon":5.40876,"is_reserved":false,"is_disabled":false,"rental_uris":{"android":"levelo://app?vid=95b8bc11-d0dd-4aad-a8cc-3bcf7c3eb2a4","ios":"levelo://app?vid=95b8bc11-d0dd-4aad-a8cc-3bcf7c3eb2a4"},"vehicle_type_id":"4","last_reported":1745298667,"current_range_meters":22400,"station_id":"ce4bh192rcd13ifvqdc0","pricing_plan_id":"cebpf4jnsgd1na2vs0mg"},{"bike_id":"7c88ec95-2985-4bb3-b853-01d88f4560b1","system_id":"levelo_inurba_marseille","lat":43.28032,"lon":5.36963,"is_reserved":false,"is_disabled":false,"rental_uris":{"android":"levelo://app?vid=7c88ec95-2985-4bb3-b853-01d88f4560b1","ios":"levelo://app?vid=7c88ec95-2985-4bb3-b853-01d88f4560b1"},"vehicle_type_id":"4","last_reported":1745298667,"current_range_meters":22400,"station_id":"ce4bha12rcd13ifvqef0","pricing_plan_id":"cebpf4jnsgd1na2vs0mg"},{"bike_id":"d9d975bc-1861-4214-b6db-271166d025a2","system_id":"levelo_inurba_marseille","lat":43.31505,"lon":5.37293,"is_reserved":false,"is_disabled":false,"rental_uris":{"android":"levelo://app?vid=d9d975bc-1861-4214-b6db-271166d025a2","ios":"levelo://app?vid=d9d975bc-1861-4214-b6db-271166d025a2"},"vehicle_type_id":"4","last_reported":1745298667,"current_range_meters":22400,"station_id":"ce4bgt12rcd13ifvqcd0","pricing_plan_id":"cebpf4jnsgd1na2vs0mg"},{"bike_id":"e7a535f8-ed78-40de-8cdc-f8a1d2d90b31","system_id":"levelo_inurba_marseille","lat":43.24804,"lon":5.37461,"is_reserved":false,"is_disabled":true,"rental_uris":{"android":"levelo://app?vid=e7a535f8-ed78-40de-8cdc-f8a1d2d90b31","ios":"levelo://app?vid=e7a535f8-ed78-40de-8cdc-f8a1d2d90b31"},"vehicle_type_id":"4","last_reported":1745298667,"current_range_meters":22400,"station_id":"ce4bhgh2rcd13ifvqfb0","pricing_plan_id":"cebpf4jnsgd1na2vs0mg"},{"bike_id":"6013693d-c8c0-4b6b-94ab-31ea0c9d9a1f","system_id":"levelo_inurba_marseille","lat":43.2757,"lon":5.38425,"is_reserved":false,"is_disabled":false,"rental_uris":{"android":"levelo://app?vid=6013693d-c8c0-4b6b-94ab-31ea0c9d9a1f","ios":"levelo://app?vid=6013693d-c8c0-4b6b-94ab-31ea0c9d9a1f"},"vehicle_type_id":"4","last_reported":1745298667,"current_range_meters":22400,"station_id":"ce4bhh92rcd13ifvqfi0","pricing_plan_id":"cebpf4jnsgd1na2vs0mg"},{"bike_id":"6dae202a-2029-4a50-938e-41697b9a35c6","system_id":"levelo_inurba_marseille","lat":43.28733,"lon":5.39979,"is_reserved":false,"is_disabled":false,"rental_uris":{"android":"levelo://app?vid=6dae202a-2029-4a50-938e-41697b9a35c6","ios":"levelo://app?vid=6dae202a-2029-4a50-938e-41697b9a35c6"},"vehicle_type_id":"4","last_reported":1745298667,"current_range_meters":22400,"station_id":"ce4bho92rcd13ifvqh3g","pricing_plan_id":"cebpf4jnsgd1na2vs0mg"},{"bike_id":"3c15ed54-530c-4039-9427-66ae1a67c633","system_id":"levelo_inurba_marseille","lat":43.27188,"lon":5.40989,"is_reserved":false,"is_disabled":false,"rental_uris":{"android":"levelo://app?vid=3c15ed54-530c-4039-9427-66ae1a67c633","ios":"levelo://app?vid=3c15ed54-530c-4039-9427-66ae1a67c633"},"vehicle_type_id":"4","last_reported":1745298667,"current_range_meters":22800,"station_id":"ce4bhl12rcd13ifvqgf0","pricing_plan_id":"cebpf4jnsgd1na2vs0mg"},{"bike_id":"50b82aff-4b6a-4b1c-b2b1-604070165a23","system_id":"levelo_inurba_marseille","lat":43.28718,"lon":5.39997,"is_reserved":false,"is_disabled":false,"rental_uris":{"android":"levelo://app?vid=50b82aff-4b6a-4b1c-b2b1-604070165a23","ios":"levelo://app?vid=50b82aff-4b6a-4b1c-b2b1-604070165a23"},"vehicle_type_id":"4","last_reported":1745298667,"current_range_meters":22800,"station_id":"ce4bho92rcd13ifvqh3g","pricing_plan_id":"cebpf4jnsgd1na2vs0mg"},{"bike_id":"d99aece5-8200-49bd-8edf-8c66ba7779c9","system_id":"levelo_inurba_marseille","lat":43.245458,"lon":5.395242,"is_reserved":false,"is_disabled":false,"rental_uris":{"android":"levelo://app?vid=d99aece5-8200-49bd-8edf-8c66ba7779c9","ios":"levelo://app?vid=d99aece5-8200-49bd-8edf-8c66ba7779c9"},"vehicle_type_id":"4","last_reported":1745298667,"current_range_meters":22800,"station_id":"ce4bhlp2rcd13ifvqgjg","pricing_plan_id":"cebpf4jnsgd1na2vs0mg"},{"bike_id":"9b2d17db-c765-4254-83fd-a875727a39ec","system_id":"levelo_inurba_marseille","lat":43.265497,"lon":5.373001,"is_reserved":false,"is_disabled":true,"rental_uris":{"android":"levelo://app?vid=9b2d17db-c765-4254-83fd-a875727a39ec","ios":"levelo://app?vid=9b2d17db-c765-4254-83fd-a875727a39ec"},"vehicle_type_id":"4","last_reported":1745298667,"current_range_meters":23200,"station_id":"ce4bhg12rcd13ifvqf70","pricing_plan_id":"cebpf4jnsgd1na2vs0mg"},{"bike_id":"bc731381-3de3-4f42-a6df-a2fec70b9790","system_id":"levelo_inurba_marseille","lat":43.28672,"lon":5.38676,"is_reserved":false,"is_disabled":false,"rental_uris":{"android":"levelo://app?vid=bc731381-3de3-4f42-a6df-a2fec70b9790","ios":"levelo://app?vid=bc731381-3de3-4f42-a6df-a2fec70b9790"},"vehicle_type_id":"4","last_reported":1745298667,"current_range_meters":22800,"station_id":"ce4bh492rcd13ifvqdug","pricing_plan_id":"cebpf4jnsgd1na2vs0mg"},{"bike_id":"017460f9-a472-4509-9a04-109166f36ab2","system_id":"levelo_inurba_marseille","lat":43.31026,"lon":5.37538,"is_reserved":false,"is_disabled":false,"rental_uris":{"android":"levelo://app?vid=017460f9-a472-4509-9a04-109166f36ab2","ios":"levelo://app?vid=017460f9-a472-4509-9a04-109166f36ab2"},"vehicle_type_id":"4","last_reported":1745298667,"current_range_meters":23200,"station_id":"ce4bguh2rcd13ifvqckg","pricing_plan_id":"cebpf4jnsgd1na2vs0mg"},{"bike_id":"3f48969d-94cc-4202-b1f3-9d97f90b742b","system_id":"levelo_inurba_marseille","lat":43.27963,"lon":5.38774,"is_reserved":false,"is_disabled":false,"rental_uris":{"android":"levelo://app?vid=3f48969d-94cc-4202-b1f3-9d97f90b742b","ios":"levelo://app?vid=3f48969d-94cc-4202-b1f3-9d97f90b742b"},"vehicle_type_id":"4","last_reported":1745298667,"current_range_meters":23200,"station_id":"ce4bhg12rcd13ifvqf80","pricing_plan_id":"cebpf4jnsgd1na2vs0mg"},{"bike_id":"36c078e8-06ee-4b6f-a720-e2b8d5b2efaf","system_id":"levelo_inurba_marseille","lat":43.29237,"lon":5.36878,"is_reserved":false,"is_disabled":true,"rental_uris":{"android":"levelo://app?vid=36c078e8-06ee-4b6f-a720-e2b8d5b2efaf","ios":"levelo://app?vid=36c078e8-06ee-4b6f-a720-e2b8d5b2efaf"},"vehicle_type_id":"4","last_reported":1745298667,"current_range_meters":23200,"station_id":"","pricing_plan_id":"cebpf4jnsgd1na2vs0mg"},{"bike_id":"74984a4e-33cd-43e7-b2c8-25255c9f8b59","system_id":"levelo_inurba_marseille","lat":43.27373,"lon":5.36265,"is_reserved":false,"is_disabled":true,"rental_uris":{"android":"levelo://app?vid=74984a4e-33cd-43e7-b2c8-25255c9f8b59","ios":"levelo://app?vid=74984a4e-33cd-43e7-b2c8-25255c9f8b59"},"vehicle_type_id":"4","last_reported":1745298667,"current_range_meters":23200,"station_id":"ce4bhbh2rcd13ifvqeo0","pricing_plan_id":"cebpf4jnsgd1na2vs0mg"},{"bike_id":"51ad0592-5fad-4b4f-a456-2d73e078debe","system_id":"levelo_inurba_marseille","lat":43.303157,"lon":5.40442,"is_reserved":false,"is_disabled":false,"rental_uris":{"android":"levelo://app?vid=51ad0592-5fad-4b4f-a456-2d73e078debe","ios":"levelo://app?vid=51ad0592-5fad-4b4f-a456-2d73e078debe"},"vehicle_type_id":"4","last_reported":1745298667,"current_range_meters":24000,"station_id":"ce4bh012rcd13ifvqd10","pricing_plan_id":"cebpf4jnsgd1na2vs0mg"},{"bike_id":"7f564237-8f93-438e-a502-3fabf3dc1745","system_id":"levelo_inurba_marseille","lat":43.308783,"lon":5.396558,"is_reserved":false,"is_disabled":false,"rental_uris":{"android":"levelo://app?vid=7f564237-8f93-438e-a502-3fabf3dc1745","ios":"levelo://app?vid=7f564237-8f93-438e-a502-3fabf3dc1745"},"vehicle_type_id":"4","last_reported":1745298667,"current_range_meters":24000,"station_id":"ce4bh012rcd13ifvqcv0","pricing_plan_id":"cebpf4jnsgd1na2vs0mg"},{"bike_id":"60f87285-0de5-43c0-95b9-e2738163446b","system_id":"levelo_inurba_marseille","lat":43.26224,"lon":5.40455,"is_reserved":false,"is_disabled":false,"rental_uris":{"android":"levelo://app?vid=60f87285-0de5-43c0-95b9-e2738163446b","ios":"levelo://app?vid=60f87285-0de5-43c0-95b9-e2738163446b"},"vehicle_type_id":"4","last_reported":1745298667,"current_range_meters":24000,"station_id":"ce4bhmh2rcd13ifvqgmg","pricing_plan_id":"cebpf4jnsgd1na2vs0mg"},{"bike_id":"ac5fce1e-790b-4730-ad93-4fdc97537825","system_id":"levelo_inurba_marseille","lat":43.3031,"lon":5.40434,"is_reserved":false,"is_disabled":false,"rental_uris":{"android":"levelo://app?vid=ac5fce1e-790b-4730-ad93-4fdc97537825","ios":"levelo://app?vid=ac5fce1e-790b-4730-ad93-4fdc97537825"},"vehicle_type_id":"4","last_reported":1745298667,"current_range_meters":24000,"station_id":"ce4bh012rcd13ifvqd10","pricing_plan_id":"cebpf4jnsgd1na2vs0mg"},{"bike_id":"66bccc53-126d-4491-90af-9db08d01f474","system_id":"levelo_inurba_marseille","lat":43.28149,"lon":5.42645,"is_reserved":false,"is_disabled":false,"rental_uris":{"android":"levelo://app?vid=66bccc53-126d-4491-90af-9db08d01f474","ios":"levelo://app?vid=66bccc53-126d-4491-90af-9db08d01f474"},"vehicle_type_id":"4","last_reported":1745298667,"current_range_meters":24000,"station_id":"ce4bhnh2rcd13ifvqgug","pricing_plan_id":"cebpf4jnsgd1na2vs0mg"},{"bike_id":"87b76a0f-9e13-49b7-9919-2a8ad54a406f","system_id":"levelo_inurba_marseille","lat":43.308837,"lon":5.396285,"is_reserved":false,"is_disabled":false,"rental_uris":{"android":"levelo://app?vid=87b76a0f-9e13-49b7-9919-2a8ad54a406f","ios":"levelo://app?vid=87b76a0f-9e13-49b7-9919-2a8ad54a406f"},"vehicle_type_id":"4","last_reported":1745298667,"current_range_meters":24000,"station_id":"ce4bh012rcd13ifvqcv0","pricing_plan_id":"cebpf4jnsgd1na2vs0mg"},{"bike_id":"3ea7b69c-67ad-43a2-a1ce-b4c72a5a4fc7","system_id":"levelo_inurba_marseille","lat":43.27998,"lon":5.40008,"is_reserved":false,"is_disabled":false,"rental_uris":{"android":"levelo://app?vid=3ea7b69c-67ad-43a2-a1ce-b4c72a5a4fc7","ios":"levelo://app?vid=3ea7b69c-67ad-43a2-a1ce-b4c72a5a4fc7"},"vehicle_type_id":"4","last_reported":1745298667,"current_range_meters":24000,"station_id":"ce4bho92rcd13ifvqh4g","pricing_plan_id":"cebpf4jnsgd1na2vs0mg"},{"bike_id":"b4af286e-881b-4ea5-adc6-98e64c155f4e","system_id":"levelo_inurba_marseille","lat":43.28722,"lon":5.37412,"is_reserved":false,"is_disabled":false,"rental_uris":{"android":"levelo://app?vid=b4af286e-881b-4ea5-adc6-98e64c155f4e","ios":"levelo://app?vid=b4af286e-881b-4ea5-adc6-98e64c155f4e"},"vehicle_type_id":"4","last_reported":1745298667,"current_range_meters":24400,"station_id":"ce4bh3p2rcd13ifvqdq0","pricing_plan_id":"cebpf4jnsgd1na2vs0mg"},{"bike_id":"29b692b3-29c2-44de-934a-7b717ae42095","system_id":"levelo_inurba_marseille","lat":43.25586,"lon":5.38229,"is_reserved":false,"is_disabled":false,"rental_uris":{"android":"levelo://app?vid=29b692b3-29c2-44de-934a-7b717ae42095","ios":"levelo://app?vid=29b692b3-29c2-44de-934a-7b717ae42095"},"vehicle_type_id":"4","last_reported":1745298667,"current_range_meters":24000,"station_id":"ce4bhih2rcd13ifvqfs0","pricing_plan_id":"cebpf4jnsgd1na2vs0mg"},{"bike_id":"a514e6c9-b671-4d52-bcd4-b475aedecdcf","system_id":"levelo_inurba_marseille","lat":43.27204,"lon":5.39188,"is_reserved":false,"is_disabled":true,"rental_uris":{"android":"levelo://app?vid=a514e6c9-b671-4d52-bcd4-b475aedecdcf","ios":"levelo://app?vid=a514e6c9-b671-4d52-bcd4-b475aedecdcf"},"vehicle_type_id":"4","last_reported":1745298667,"current_range_meters":24400,"station_id":"ce4bhhp2rcd13ifvqfm0","pricing_plan_id":"cebpf4jnsgd1na2vs0mg"},{"bike_id":"efac55b3-b697-4867-8617-ebda683e4eb6","system_id":"levelo_inurba_marseille","lat":43.250098,"lon":5.389148,"is_reserved":false,"is_disabled":true,"rental_uris":{"android":"levelo://app?vid=efac55b3-b697-4867-8617-ebda683e4eb6","ios":"levelo://app?vid=efac55b3-b697-4867-8617-ebda683e4eb6"},"vehicle_type_id":"4","last_reported":1745298667,"current_range_meters":24400,"station_id":"ce4bhgp2rcd13ifvqfd0","pricing_plan_id":"cebpf4jnsgd1na2vs0mg"},{"bike_id":"24fc48f4-0e9f-4b73-b5cc-155cb52a6fd1","system_id":"levelo_inurba_marseille","lat":43.28648,"lon":5.40137,"is_reserved":false,"is_disabled":false,"rental_uris":{"android":"levelo://app?vid=24fc48f4-0e9f-4b73-b5cc-155cb52a6fd1","ios":"levelo://app?vid=24fc48f4-0e9f-4b73-b5cc-155cb52a6fd1"},"vehicle_type_id":"4","last_reported":1745298667,"current_range_meters":24400,"station_id":"ce4bho92rcd13ifvqh3g","pricing_plan_id":"cebpf4jnsgd1na2vs0mg"},{"bike_id":"192d51cc-116a-4926-aa4a-e1515bcb8248","system_id":"levelo_inurba_marseille","lat":43.299773,"lon":5.384885,"is_reserved":false,"is_disabled":true,"rental_uris":{"android":"levelo://app?vid=192d51cc-116a-4926-aa4a-e1515bcb8248","ios":"levelo://app?vid=192d51cc-116a-4926-aa4a-e1515bcb8248"},"vehicle_type_id":"4","last_reported":1745298667,"current_range_meters":24400,"station_id":"ce4bgj92rcd13ifvqbd0","pricing_plan_id":"cebpf4jnsgd1na2vs0mg"},{"bike_id":"7280c5db-e042-4aab-8b7f-63af9a02ed96","system_id":"levelo_inurba_marseille","lat":43.292727,"lon":5.401381,"is_reserved":false,"is_disabled":false,"rental_uris":{"android":"levelo://app?vid=7280c5db-e042-4aab-8b7f-63af9a02ed96","ios":"levelo://app?vid=7280c5db-e042-4aab-8b7f-63af9a02ed96"},"vehicle_type_id":"4","last_reported":1745298667,"current_range_meters":24400,"station_id":"","pricing_plan_id":"cebpf4jnsgd1na2vs0mg"},{"bike_id":"3be450fe-54cf-4b27-abe6-f26ede8ac565","system_id":"levelo_inurba_marseille","lat":43.24081,"lon":5.3779,"is_reserved":false,"is_disabled":false,"rental_uris":{"android":"levelo://app?vid=3be450fe-54cf-4b27-abe6-f26ede8ac565","ios":"levelo://app?vid=3be450fe-54cf-4b27-abe6-f26ede8ac565"},"vehicle_type_id":"4","last_reported":1745298667,"current_range_meters":24400,"station_id":"ce4bhnp2rcd13ifvqgvg","pricing_plan_id":"cebpf4jnsgd1na2vs0mg"},{"bike_id":"719ae770-cfb2-46ff-9506-153ed3e460dd","system_id":"levelo_inurba_marseille","lat":43.32661,"lon":5.40993,"is_reserved":false,"is_disabled":false,"rental_uris":{"android":"levelo://app?vid=719ae770-cfb2-46ff-9506-153ed3e460dd","ios":"levelo://app?vid=719ae770-cfb2-46ff-9506-153ed3e460dd"},"vehicle_type_id":"4","last_reported":1745298667,"current_range_meters":24000,"station_id":"ce4bhpp2rcd13ifvqhgg","pricing_plan_id":"cebpf4jnsgd1na2vs0mg"},{"bike_id":"7c2b8c67-9e7b-4313-9992-aaf472ee6f96","system_id":"levelo_inurba_marseille","lat":43.3094,"lon":5.40136,"is_reserved":false,"is_disabled":false,"rental_uris":{"android":"levelo://app?vid=7c2b8c67-9e7b-4313-9992-aaf472ee6f96","ios":"levelo://app?vid=7c2b8c67-9e7b-4313-9992-aaf472ee6f96"},"vehicle_type_id":"4","last_reported":1745298667,"current_range_meters":24400,"station_id":"ce4bgvp2rcd13ifvqct0","pricing_plan_id":"cebpf4jnsgd1na2vs0mg"},{"bike_id":"01d10f64-4177-41f6-9878-c73916ed514e","system_id":"levelo_inurba_marseille","lat":43.29423,"lon":5.38624,"is_reserved":false,"is_disabled":false,"rental_uris":{"android":"levelo://app?vid=01d10f64-4177-41f6-9878-c73916ed514e","ios":"levelo://app?vid=01d10f64-4177-41f6-9878-c73916ed514e"},"vehicle_type_id":"4","last_reported":1745298667,"current_range_meters":24400,"station_id":"ce4bh2h2rcd13ifvqdh0","pricing_plan_id":"cebpf4jnsgd1na2vs0mg"},{"bike_id":"742ed12f-df94-470f-8a03-ecbfb96fa4a3","system_id":"levelo_inurba_marseille","lat":43.303293,"lon":5.394171,"is_reserved":false,"is_disabled":false,"rental_uris":{"android":"levelo://app?vid=742ed12f-df94-470f-8a03-ecbfb96fa4a3","ios":"levelo://app?vid=742ed12f-df94-470f-8a03-ecbfb96fa4a3"},"vehicle_type_id":"4","last_reported":1745298667,"current_range_meters":24800,"station_id":"ce4bgvp2rcd13ifvqct0","pricing_plan_id":"cebpf4jnsgd1na2vs0mg"},{"bike_id":"770b4d01-76e3-41f5-9e15-29c3ca995573","system_id":"levelo_inurba_marseille","lat":43.29242,"lon":5.38447,"is_reserved":false,"is_disabled":true,"rental_uris":{"android":"levelo://app?vid=770b4d01-76e3-41f5-9e15-29c3ca995573","ios":"levelo://app?vid=770b4d01-76e3-41f5-9e15-29c3ca995573"},"vehicle_type_id":"4","last_reported":1745298667,"current_range_meters":24800,"station_id":"ce4bh692rcd13ifvqea0","pricing_plan_id":"cebpf4jnsgd1na2vs0mg"},