{"last_updated":1702987987,"ttl":30,"version":"2.2","data":{"bikes":[{"bike_id":"3f7dc61e-a25c-421d-91ac-f04b1b7609b9","system_id":"levelo_inurba_marseille","lat":43.31341,"lon":5.367098,"is_reserved":false,"is_disabled":false,"rental_uris":{"android":"levelo://app?vid=3f7dc61e-a25c-421d-91ac-f04b1b7609b9","ios":"levelo://app?vid=3f7dc61e-a25c-421d-91ac-f04b1b7609b9"},"vehicle_type_id":"4","last_reported":1702987988,"current_range_meters":25600,"station_id":"ce4bgr92rcd13ifvqc6g","pricing_plan_id":"free"},{"bike_id":"56942475-59c1-439c-8e50-627af8ca56cf","system_id":"levelo_inurba_marseille","lat":43.309076,"lon":5.368465,"is_reserved":false,"is_disabled":false,"rental_uris":{"android":"levelo://app?vid=56942475-59c1-439c-8e50-627af8ca56cf","ios":"levelo://app?vid=56942475-59c1-439c-8e50-627af8ca56cf"},"vehicle_type_id":"4","last_reported":1702987988,"current_range_meters":13600,"station_id":"ce4bgn92rcd13ifvqbvg","pricing_plan_id":"free"},{"bike_id":"db370d0d-5934-45c4-932e-779b3b456932","system_id":"levelo_inurba_marseille","lat":43.314811,"lon":5.373104,"is_reserved":false,"is_disabled":false,"rental_uris":{"android":"levelo://app?vid=db370d0d-5934-45c4-932e-779b3b456932","ios":"levelo://app?vid=db370d0d-5934-45c4-932e-779b3b456932"},"vehicle_type_id":"4","last_reported":1702987988,"current_range_meters":27600,"station_id":"ce4bgt12rcd13ifvqcd0","pricing_plan_id":"free"},{"bike_id":"574c5893-0279-4d65-9c48-693bafd7fac9","system_id":"levelo_inurba_marseille","lat":43.309039,"lon":5.371797,"is_reserved":false,"is_disabled":false,"rental_uris":{"android":"levelo://app?vid=574c5893-0279-4d65-9c48-693bafd7fac9","ios":"levelo://app?vid=574c5893-0279-4d65-9c48-693bafd7fac9"},"vehicle_type_id":"4","last_reported":1702987988,"current_range_meters":25200,"station_id":"ce4bguh2rcd13ifvqckg","pricing_plan_id":"free"},{"bike_id":"3de6a2c0-32c4-46fd-a747-63f28d27606d","system_id":"levelo_inurba_marseille","lat":43.309039,"lon":5.371797,"is_reserved":false,"is_disabled":false,"rental_uris":{"android":"levelo://app?vid=3de6a2c0-32c4-46fd-a747-63f28d27606d","ios":"levelo://app?vid=3de6a2c0-32c4-46fd-a747-63f28d27606d"},"vehicle_type_id":"4","last_reported":1702987988,"current_range_meters":5200,"station_id":"ce4bguh2rcd13ifvqckg","pricing_plan_id":"free"},{"bike_id":"bd8c3752-f3c4-493e-9d25-08cba5842efc","system_id":"levelo_inurba_marseille","lat":43.309039,"lon":5.371797,"is_reserved":false,"is_disabled":false,"rental_uris":{"android":"levelo://app?vid=bd8c3752-f3c4-493e-9d25-08cba5842efc","ios":"levelo://app?vid=bd8c3752-f3c4-493e-9d25-08cba5842efc"},"vehicle_type_id":"4","last_reported":1702987988,"current_range_meters":29600,"station_id":"ce4bguh2rcd13ifvqckg","pricing_plan_id":"free"},{"bike_id":"190bb94a-8dd4-4249-8948-cef756ef4849","system_id":"levelo_inurba_marseille","lat":43.305712,"lon":5.365641,"is_reserved":false,"is_disabled":false,"rental_uris":{"android":"levelo://app?vid=190bb94a-8dd4-4249-8948-cef756ef4849","ios":"levelo://app?vid=190bb94a-8dd4-4249-8948-cef756ef4849"},"vehicle_type_id":"4","last_reported":1702987988,"current_range_meters":31200,"station_id":"ce4bgs12rcd13ifvqcag","pricing_plan_id":"free"},{"bike_id":"1116e87c-ffc1-4009-a215-2b1e00e745f2","system_id":"levelo_inurba_marseille","lat":43.30538,"lon":5.36697,"is_reserved":false,"is_disabled":false,"rental_uris":{"android":"levelo://app?vid=1116e87c-ffc1-4009-a215-2b1e00e745f2","ios":"levelo://app?vid=1116e87c-ffc1-4009-a215-2b1e00e745f2"},"vehicle_type_id":"4","last_reported":1702987988,"current_range_meters":26000,"station_id":"","pricing_plan_id":"free"},{"bike_id":"ade59dfb-aae8-4793-9f56-cb61ed5b3d96","system_id":"levelo_inurba_marseille","lat":43.305368,"lon":5.367343,"is_reserved":false,"is_disabled":false,"rental_uris":{"android":"levelo://app?vid=ade59dfb-aae8-4793-9f56-cb61ed5b3d96","ios":"levelo://app?vid=ade59dfb-aae8-4793-9f56-cb61ed5b3d96"},"vehicle_type_id":"4","last_reported":1702987988,"current_range_meters":29200,"station_id":"ce4bgrp2rcd13ifvqc9g","pricing_plan_id":"free"},{"bike_id":"cd4eed59-f7a6-440f-8411-7d2d07547176","system_id":"levelo_inurba_marseille","lat":43.305706,"lon":5.365654,"is_reserved":false,"is_disabled":false,"rental_uris":{"android":"levelo://app?vid=cd4eed59-f7a6-440f-8411-7d2d07547176","ios":"levelo://app?vid=cd4eed59-f7a6-440f-8411-7d2d07547176"},"vehicle_type_id":"4","last_reported":1702987988,"current_range_meters":6400,"station_id":"ce4bgs12rcd13ifvqcag","pricing_plan_id":"free"},{"bike_id":"ef654af0-4965-4832-9831-2e8e5b6af509","system_id":"levelo_inurba_marseille","lat":43.305706,"lon":5.365654,"is_reserved":false,"is_disabled":false,"rental_uris":{"android":"levelo://app?vid=ef654af0-4965-4832-9831-2e8e5b6af509","ios":"levelo://app?vid=ef654af0-4965-4832-9831-2e8e5b6af509"},"vehicle_type_id":"4","last_reported":1702987988,"current_range_meters":0,"station_id":"ce4bgs12rcd13ifvqcag","pricing_plan_id":"free"},{"bike_id":"7bd256cf-ac99-45f8-934a-6d72a53556dd","system_id":"levelo_inurba_marseille","lat":43.305706,"lon":5.365654,"is_reserved":false,"is_disabled":false,"rental_uris":{"android":"levelo://app?vid=7bd256cf-ac99-45f8-934a-6d72a53556dd","ios":"levelo://app?vid=7bd256cf-ac99-45f8-934a-6d72a53556dd"},"vehicle_type_id":"4","last_reported":1702987988,"current_range_meters":10000,"station_id":"ce4bgs12rcd13ifvqcag","pricing_plan_id":"free"},{"bike_id":"274dcdb0-d28c-4362-960b-f13b02ff3ff8","system_id":"levelo_inurba_marseille","lat":43.305706,"lon":5.365654,"is_reserved":false,"is_disabled":false,"rental_uris":{"android":"levelo://app?vid=274dcdb0-d28c-4362-960b-f13b02ff3ff8","ios":"levelo://app?vid=274dcdb0-d28c-4362-960b-f13b02ff3ff8"},"vehicle_type_id":"4","last_reported":1702987988,"current_range_meters":32000,"station_id":"ce4bgs12rcd13ifvqcag","pricing_plan_id":"free"},{"bike_id":"b3f6100c-1ba2-4877-bef0-5da3b17e0a83","system_id":"levelo_inurba_marseille","lat":43.305989,"lon":5.37225,"is_reserved":false,"is_disabled":false,"rental_uris":{"android":"levelo://app?vid=b3f6100c-1ba2-4877-bef0-5da3b17e0a83","ios":"levelo://app?vid=b3f6100c-1ba2-4877-bef0-5da3b17e0a83"},"vehicle_type_id":"4","last_reported":1702987988,"current_range_meters":25600,"station_id":"ce4bgqh2rcd13ifvqc4g","pricing_plan_id":"free"},{"bike_id":"5f23c249-f347-4937-b25a-40218e88c627","system_id":"levelo_inurba_marseille","lat":43.317075,"lon":5.377367,"is_reserved":false,"is_disabled":false,"rental_uris":{"android":"levelo://app?vid=5f23c249-f347-4937-b25a-40218e88c627","ios":"levelo://app?vid=5f23c249-f347-4937-b25a-40218e88c627"},"vehicle_type_id":"4","last_reported":1702987988,"current_range_meters":31200,"station_id":"ce4bgth2rcd13ifvqch0","pricing_plan_id":"free"},{"bike_id":"49440c97-f87b-4adf-98d8-5ac0ac199320","system_id":"levelo_inurba_marseille","lat":43.308435,"lon":5.378596,"is_reserved":false,"is_disabled":false,"rental_uris":{"android":"levelo://app?vid=49440c97-f87b-4adf-98d8-5ac0ac199320","ios":"levelo://app?vid=49440c97-f87b-4adf-98d8-5ac0ac199320"},"vehicle_type_id":"4","last_reported":1702987988,"current_range_meters":27600,"station_id":"","pricing_plan_id":"free"},{"bike_id":"bfb10755-54af-48b6-ad4a-8baaa65b038f","system_id":"levelo_inurba_marseille","lat":43.30304,"lon":5.368987,"is_reserved":false,"is_disabled":false,"rental_uris":{"android":"levelo://app?vid=bfb10755-54af-48b6-ad4a-8baaa65b038f","ios":"levelo://app?vid=bfb10755-54af-48b6-ad4a-8baaa65b038f"},"vehicle_type_id":"4","last_reported":1702987988,"current_range_meters":27200,"station_id":"ce4bgqh2rcd13ifvqc5g","pricing_plan_id":"free"},{"bike_id":"c733c882-f1c0-427d-abd3-c91807043c2f","system_id":"levelo_inurba_marseille","lat":43.301939,"lon":5.366286,"is_reserved":false,"is_disabled":false,"rental_uris":{"android":"levelo://app?vid=c733c882-f1c0-427d-abd3-c91807043c2f","ios":"levelo://app?vid=c733c882-f1c0-427d-abd3-c91807043c2f"},"vehicle_type_id":"4","last_reported":1702987988,"current_range_meters":19200,"station_id":"ce4bgrh2rcd13ifvqc8g","pricing_plan_id":"free"},{"bike_id":"744be203-eeb1-4112-8c9c-b4261e37dc23","system_id":"levelo_inurba_marseille","lat":43.308097,"lon":5.381507,"is_reserved":false,"is_disabled":false,"rental_uris":{"android":"levelo://app?vid=744be203-eeb1-4112-8c9c-b4261e37dc23","ios":"levelo://app?vid=744be203-eeb1-4112-8c9c-b4261e37dc23"},"vehicle_type_id":"4","last_reported":1702987988,"current_range_meters":8800,"station_id":"ce4bgt12rcd13ifvqce0","pricing_plan_id":"free"},{"bike_id":"8dc4413b-c7cd-4aad-aa0e-bdbc11a71392","system_id":"levelo_inurba_marseille","lat":43.308012,"lon":5.381511,"is_reserved":false,"is_disabled":false,"rental_uris":{"android":"levelo://app?vid=8dc4413b-c7cd-4aad-aa0e-bdbc11a71392","ios":"levelo://app?vid=8dc4413b-c7cd-4aad-aa0e-bdbc11a71392"},"vehicle_type_id":"4","last_reported":1702987988,"current_range_meters":26800,"station_id":"ce4bgt12rcd13ifvqce0","pricing_plan_id":"free"},{"bike_id":"6064141f-ac2e-4369-b630-d2323403c1b7","system_id":"levelo_inurba_marseille","lat":43.304606,"lon":5.379026,"is_reserved":false,"is_disabled":false,"rental_uris":{"android":"levelo://app?vid=6064141f-ac2e-4369-b630-d2323403c1b7","ios":"levelo://app?vid=6064141f-ac2e-4369-b630-d2323403c1b7"},"vehicle_type_id":"4","last_reported":1702987988,"current_range_meters":0,"station_id":"ce4bgup2rcd13ifvqcn0","pricing_plan_id":"free"},{"bike_id":"23e86f64-8a0f-4e13-a104-40c444450091","system_id":"levelo_inurba_marseille","lat":43.304606,"lon":5.379026,"is_reserved":false,"is_disabled":false,"rental_uris":{"android":"levelo://app?vid=23e86f64-8a0f-4e13-a104-40c444450091","ios":"levelo://app?vid=23e86f64-8a0f-4e13-a104-40c444450091"},"vehicle_type_id":"4","last_reported":1702987988,"current_range_meters":2800,"station_id":"ce4bgup2rcd13ifvqcn0","pricing_plan_id":"free"},{"bike_id":"da899e91-710c-4c93-9893-4b3403b29d7e","system_id":"levelo_inurba_marseille","lat":43.304606,"lon":5.379026,"is_reserved":false,"is_disabled":false,"rental_uris":{"android":"levelo://app?vid=da899e91-710c-4c93-9893-4b3403b29d7e","ios":"levelo://app?vid=da899e91-710c-4c93-9893-4b3403b29d7e"},"vehicle_type_id":"4","last_reported":1702987988,"current_range_meters":24000,"station_id":"ce4bgup2rcd13ifvqcn0","pricing_plan_id":"free"},{"bike_id":"5906c69d-2b81-4df5-a73c-6e8881f44758","system_id":"levelo_inurba_marseille","lat":43.324771,"lon":5.36557,"is_reserved":false,"is_disabled":false,"rental_uris":{"android":"levelo://app?vid=5906c69d-2b81-4df5-a73c-6e8881f44758","ios":"levelo://app?vid=5906c69d-2b81-4df5-a73c-6e8881f44758"},"vehicle_type_id":"4","last_reported":1702987988,"current_range_meters":14000,"station_id":"ce4bhs12rcd13ifvqhvg","pricing_plan_id":"free"},{"bike_id":"874f5473-fbb1-4a4b-87ac-d38baec8ddb3","system_id":"levelo_inurba_marseille","lat":43.31996,"lon":5.38164,"is_reserved":false,"is_disabled":false,"rental_uris":{"android":"levelo://app?vid=874f5473-fbb1-4a4b-87ac-d38baec8ddb3","ios":"levelo://app?vid=874f5473-fbb1-4a4b-87ac-d38baec8ddb3"},"vehicle_type_id":"4","last_reported":1702987988,"current_range_meters":25200,"station_id":"ce4bhr12rcd13ifvqhpg","pricing_plan_id":"free"},{"bike_id":"80fa643c-9d2c-4038-a030-3535ff376c46","system_id":"levelo_inurba_marseille","lat":43.313571,"lon":5.384829,"is_reserved":false,"is_disabled":false,"rental_uris":{"android":"levelo://app?vid=80fa643c-9d2c-4038-a030-3535ff376c46","ios":"levelo://app?vid=80fa643c-9d2c-4038-a030-3535ff376c46"},"vehicle_type_id":"4","last_reported":1702987988,"current_range_meters":9200,"station_id":"ce4bgt92rcd13ifvqcf0","pricing_plan_id":"free"},{"bike_id":"d4fc20e8-aa95-4e26-949c-8e8b38fdb6bf","system_id":"levelo_inurba_marseille","lat":43.304606,"lon":5.379026,"is_reserved":false,"is_disabled":false,"rental_uris":{"android":"levelo://app?vid=d4fc20e8-aa95-4e26-949c-8e8b38fdb6bf","ios":"levelo://app?vid=d4fc20e8-aa95-4e26-949c-8e8b38fdb6bf"},"vehicle_type_id":"4","last_reported":1702987988,"current_range_meters":24400,"station_id":"ce4bgup2rcd13ifvqcn0","pricing_plan_id":"free"},{"bike_id":"0b4dc4d1-3e4a-4be6-8d88-9f5234a3dad5","system_id":"levelo_inurba_marseille","lat":43.299222,"lon":5.365554,"is_reserved":false,"is_disabled":false,"rental_uris":{"android":"levelo://app?vid=0b4dc4d1-3e4a-4be6-8d88-9f5234a3dad5","ios":"levelo://app?vid=0b4dc4d1-3e4a-4be6-8d88-9f5234a3dad5"},"vehicle_type_id":"4","last_reported":1702987988,"current_range_meters":21600,"station_id":"ce4bgm92rcd13ifvqbr0","pricing_plan_id":"free"},{"bike_id":"4417c717-0909-45ae-8a19-5cef9a4aecb4","system_id":"levelo_inurba_marseille","lat":43.298433,"lon":5.362774,"is_reserved":false,"is_disabled":false,"rental_uris":{"android":"levelo://app?vid=4417c717-0909-45ae-8a19-5cef9a4aecb4","ios":"levelo://app?vid=4417c717-0909-45ae-8a19-5cef9a4aecb4"},"vehicle_type_id":"4","last_reported":1702987988,"current_range_meters":23600,"station_id":"ce4bgpp2rcd13ifvqc3g","pricing_plan_id":"free"},{"bike_id":"410f9c14-64dd-41dd-b134-ebc24a0b1a35","system_id":"levelo_inurba_marseille","lat":43.298433,"lon":5.362774,"is_reserved":false,"is_disabled":false,"rental_uris":{"android":"levelo://app?vid=410f9c14-64dd-41dd-b134-ebc24a0b1a35","ios":"levelo://app?vid=410f9c14-64dd-41dd-b134-ebc24a0b1a35"},"vehicle_type_id":"4","last_reported":1702987988,"current_range_meters":24800,"station_id":"ce4bgpp2rcd13ifvqc3g","pricing_plan_id":"free"},{"bike_id":"ca0834b0-077b-48e5-8d61-d563b65c06e3","system_id":"levelo_inurba_marseille","lat":43.305471,"lon":5.384349,"is_reserved":false,"is_disabled":false,"rental_uris":{"android":"levelo://app?vid=ca0834b0-077b-48e5-8d61-d563b65c06e3","ios":"levelo://app?vid=ca0834b0-077b-48e5-8d61-d563b65c06e3"},"vehicle_type_id":"4","last_reported":1702987988,"current_range_meters":3600,"station_id":"ce4bgg92rcd13ifvqb30","pricing_plan_id":"free"},{"bike_id":"098eb602-f466-47ae-bd86-afb4579ad022","system_id":"levelo_inurba_marseille","lat":43.311722,"lon":5.387247,"is_reserved":false,"is_disabled":false,"rental_uris":{"android":"levelo://app?vid=098eb602-f466-47ae-bd86-afb4579ad022","ios":"levelo://app?vid=098eb602-f466-47ae-bd86-afb4579ad022"},"vehicle_type_id":"4","last_reported":1702987988,"current_range_meters":17200,"station_id":"ce4bgv12rcd13ifvqcp0","pricing_plan_id":"free"},{"bike_id":"5649f106-735a-418b-8ee1-415b2ffd0efb","system_id":"levelo_inurba_marseille","lat":43.311722,"lon":5.387247,"is_reserved":false,"is_disabled":false,"rental_uris":{"android":"levelo://app?vid=5649f106-735a-418b-8ee1-415b2ffd0efb","ios":"levelo://app?vid=5649f106-735a-418b-8ee1-415b2ffd0efb"},"vehicle_type_id":"4","last_reported":1702987988,"current_range_meters":19200,"station_id":"ce4bgv12rcd13ifvqcp0","pricing_plan_id":"free"},{"bike_id":"91ebca5b-5282-482d-9767-93e6eef18439","system_id":"levelo_inurba_marseille","lat":43.328371,"lon":5.366909,"is_reserved":false,"is_disabled":false,"rental_uris":{"android":"levelo://app?vid=91ebca5b-5282-482d-9767-93e6eef18439","ios":"levelo://app?vid=91ebca5b-5282-482d-9767-93e6eef18439"},"vehicle_type_id":"4","last_reported":1702987988,"current_range_meters":12800,"station_id":"ce4bhs92rcd13ifvqi0g","pricing_plan_id":"free"},{"bike_id":"d83fbae2-5f8f-42f4-8ccf-5b712fffb999","system_id":"levelo_inurba_marseille","lat":43.328371,"lon":5.366909,"is_reserved":false,"is_disabled":false,"rental_uris":{"android":"levelo://app?vid=d83fbae2-5f8f-42f4-8ccf-5b712fffb999","ios":"levelo://app?vid=d83fbae2-5f8f-42f4-8ccf-5b712fffb999"},"vehicle_type_id":"4","last_reported":1702987988,"current_range_meters":27200,"station_id":"ce4bhs92rcd13ifvqi0g","pricing_plan_id":"free"},{"bike_id":"c00c99e0-473b-439f-9fcc-3a4f6a46cadd","system_id":"levelo_inurba_marseille","lat":43.2968,"lon":5.37291,"is_reserved":false,"is_disabled":false,"rental_uris":{"android":"levelo://app?vid=c00c99e0-473b-439f-9fcc-3a4f6a46cadd","ios":"levelo://app?vid=c00c99e0-473b-439f-9fcc-3a4f6a46cadd"},"vehicle_type_id":"4","last_reported":1702987988,"current_range_meters":16000,"station_id":"ce4bgk12rcd13ifvqbj0","pricing_plan_id":"free"},{"bike_id":"178f78e4-1f0f-4014-8edc-6c08a2b60a11","system_id":"levelo_inurba_marseille","lat":43.29573,"lon":5.367355,"is_reserved":false,"is_disabled":false,"rental_uris":{"android":"levelo://app?vid=178f78e4-1f0f-4014-8edc-6c08a2b60a11","ios":"levelo://app?vid=178f78e4-1f0f-4014-8edc-6c08a2b60a11"},"vehicle_type_id":"4","last_reported":1702987988,"current_range_meters":30400,"station_id":"ce4bgph2rcd13ifvqc2g","pricing_plan_id":"free"},{"bike_id":"121a0cf9-aa82-45b1-9f05-6aecb696637a","system_id":"levelo_inurba_marseille","lat":43.311722,"lon":5.387247,"is_reserved":false,"is_disabled":false,"rental_uris":{"android":"levelo://app?vid=121a0cf9-aa82-45b1-9f05-6aecb696637a","ios":"levelo://app?vid=121a0cf9-aa82-45b1-9f05-6aecb696637a"},"vehicle_type_id":"4","last_reported":1702987988,"current_range_meters":0,"station_id":"ce4bgv12rcd13ifvqcp0","pricing_plan_id":"free"},{"bike_id":"c0fb2a03-b0fe-4feb-bf33-c0be5ded5cd9","system_id":"levelo_inurba_marseille","lat":43.29573,"lon":5.367355,"is_reserved":false,"is_disabled":false,"rental_uris":{"android":"levelo://app?vid=c0fb2a03-b0fe-4feb-bf33-c0be5ded5cd9","ios":"levelo://app?vid=c0fb2a03-b0fe-4feb-bf33-c0be5ded5cd9"},"vehicle_type_id":"4","last_reported":1702987988,"current_range_meters":22800,"station_id":"ce4bgph2rcd13ifvqc2g","pricing_plan_id":"free"},{"bike_id":"aca62c6d-f373-41e8-9f45-10e4ac9d22be","system_id":"levelo_inurba_marseille","lat":43.29573,"lon":5.367355,"is_reserved":false,"is_disabled":false,"rental_uris":{"android":"levelo://app?vid=aca62c6d-f373-41e8-9f45-10e4ac9d22be","ios":"levelo://app?vid=aca62c6d-f373-41e8-9f45-10e4ac9d22be"},"vehicle_type_id":"4","last_reported":1702987988,"current_range_meters":30000,"station_id":"ce4bgph2rcd13ifvqc2g","pricing_plan_id":"free"},{"bike_id":"5af33d36-774c-4cab-a6d0-f3cdd87b4fbd","system_id":"levelo_inurba_marseille","lat":43.29573,"lon":5.367355,"is_reserved":false,"is_disabled":false,"rental_uris":{"android":"levelo://app?vid=5af33d36-774c-4cab-a6d0-f3cdd87b4fbd","ios":"levelo://app?vid=5af33d36-774c-4cab-a6d0-f3cdd87b4fbd"},"vehicle_type_id":"4","last_reported":1702987988,"current_range_meters":20800,"station_id":"ce4bgph2rcd13ifvqc2g","pricing_plan_id":"free"},{"bike_id":"8a66d47a-4ef3-45bd-b73e-6a008547fc2f","system_id":"levelo_inurba_marseille","lat":43.29581,"lon":5.36732,"is_reserved":false,"is_disabled":false,"rental_uris":{"android":"levelo://app?vid=8a66d47a-4ef3-45bd-b73e-6a008547fc2f","ios":"levelo://app?vid=8a66d47a-4ef3-45bd-b73e-6a008547fc2f"},"vehicle_type_id":"4","last_reported":1702987988,"current_range_meters":20000,"station_id":"ce4bgph2rcd13ifvqc2g","pricing_plan_id":"free"},{"bike_id":"e36a4bb1-feec-4e1c-8511-3e9756a59dcc","system_id":"levelo_inurba_marseille","lat":43.29573,"lon":5.367355,"is_reserved":false,"is_disabled":false,"rental_uris":{"android":"levelo://app?vid=e36a4bb1-feec-4e1c-8511-3e9756a59dcc","ios":"levelo://app?vid=e36a4bb1-feec-4e1c-8511-3e9756a59dcc"},"vehicle_type_id":"4","last_reported":1702987988,"current_range_meters":28000,"station_id":"ce4bgph2rcd13ifvqc2g","pricing_plan_id":"free"},{"bike_id":"d0ab9e50-3df3-4835-beb5-eddd37a16d7f","system_id":"levelo_inurba_marseille","lat":43.296921,"lon":5.376579,"is_reserved":false,"is_disabled":false,"rental_uris":{"android":"levelo://app?vid=d0ab9e50-3df3-4835-beb5-eddd37a16d7f","ios":"levelo://app?vid=d0ab9e50-3df3-4835-beb5-eddd37a16d7f"},"vehicle_type_id":"4","last_reported":1702987988,"current_range_meters":16400,"station_id":"ce4bgkh2rcd13ifvqbl0","pricing_plan_id":"free"},{"bike_id":"cc795381-b91a-4c1b-b181-1db2e220a1fa","system_id":"levelo_inurba_marseille","lat":43.296921,"lon":5.376579,"is_reserved":false,"is_disabled":false,"rental_uris":{"android":"levelo://app?vid=cc795381-b91a-4c1b-b181-1db2e220a1fa","ios":"levelo://app?vid=cc795381-b91a-4c1b-b181-1db2e220a1fa"},"vehicle_type_id":"4","last_reported":1702987988,"current_range_meters":800,"station_id":"ce4bgkh2rcd13ifvqbl0","pricing_plan_id":"free"},{"bike_id":"2d7d440c-b5ad-4d52-92bb-2af8101dd913","system_id":"levelo_inurba_marseille","lat":43.309589,"lon":5.390258,"is_reserved":false,"is_disabled":false,"rental_uris":{"android":"levelo://app?vid=2d7d440c-b5ad-4d52-92bb-2af8101dd913","ios":"levelo://app?vid=2d7d440c-b5ad-4d52-92bb-2af8101dd913"},"vehicle_type_id":"4","last_reported":1702987988,"current_range_meters":21600,"station_id":"ce4bgup2rcd13ifvqco0","pricing_plan_id":"free"},{"bike_id":"d33e8309-9947-4d8b-9d7e-8732d4bcca6d","system_id":"levelo_inurba_marseille","lat":43.309589,"lon":5.390258,"is_reserved":false,"is_disabled":false,"rental_uris":{"android":"levelo://app?vid=d33e8309-9947-4d8b-9d7e-8732d4bcca6d","ios":"levelo://app?vid=d33e8309-9947-4d8b-9d7e-8732d4bcca6d"},"vehicle_type_id":"4","last_reported":1702987988,"current_range_meters":30000,"station_id":"ce4bgup2rcd13ifvqco0","pricing_plan_id":"free"},{"bike_id":"a4a7be2b-6935-42fc-807c-e0f9ca289e8a","system_id":"levelo_inurba_marseille","lat":43.317557,"lon":5.390173,"is_reserved":false,"is_disabled":false,"rental_uris":{"android":"levelo://app?vid=a4a7be2b-6935-42fc-807c-e0f9ca289e8a","ios":"levelo://app?vid=a4a7be2b-6935-42fc-807c-e0f9ca289e8a"},"vehicle_type_id":"4","last_reported":1702987988,"current_range_meters":22800,"station_id":"ce4bhqp2rcd13ifvqhng","pricing_plan_id":"free"},{"bike_id":"747fc29e-9666-4086-a57f-a7db5edb7267","system_id":"levelo_inurba_marseille","lat":43.317557,"lon":5.390173,"is_reserved":false,"is_disabled":false,"rental_uris":{"android":"levelo://app?vid=747fc29e-9666-4086-a57f-a7db5edb7267","ios":"levelo://app?vid=747fc29e-9666-4086-a57f-a7db5edb7267"},"vehicle_type_id":"4","last_reported":1702987988,"current_range_meters":9600,"station_id":"ce4bhqp2rcd13ifvqhng","pricing_plan_id":"free"},{"bike_id":"40554fe8-87bf-41d5-b75a-7fd0e2ec929c","system_id":"levelo_inurba_marseille","lat":43.31763,"lon":5.39023,"is_reserved":false,"is_disabled":false,"rental_uris":{"android":"levelo://app?vid=40554fe8-87bf-41d5-b75a-7fd0e2ec929c","ios":"levelo://app?vid=40554fe8-87bf-41d5-b75a-7fd0e2ec929c"},"vehicle_type_id":"4","last_reported":1702987988,"current_range_meters":30400,"station_id":"ce4bhqp2rcd13ifvqhng","pricing_plan_id":"free"},{"bike_id":"a97d1b3d-8a94-47f6-a438-36d0565744b2","system_id":"levelo_inurba_marseille","lat":43.304278,"lon":5.388868,"is_reserved":false,"is_disabled":false,"rental_uris":{"android":"levelo://app?vid=a97d1b3d-8a94-47f6-a438-36d0565744b2","ios":"levelo://app?vid=a97d1b3d-8a94-47f6-a438-36d0565744b2"},"vehicle_type_id":"4","last_reported":1702987988,"current_range_meters":29600,"station_id":"ce4bgk12rcd13ifvqbi0","pricing_plan_id":"free"},{"bike_id":"3372f2f4-ad98-43db-8c45-1d50ca288fea","system_id":"levelo_inurba_marseille","lat":43.298037,"lon":5.381066,"is_reserved":false,"is_disabled":false,"rental_uris":{"android":"levelo://app?vid=3372f2f4-ad98-43db-8c45-1d50ca288fea","ios":"levelo://app?vid=3372f2f4-ad98-43db-8c45-1d50ca288fea"},"vehicle_type_id":"4","last_reported":1702987988,"current_range_meters":5200,"station_id":"ce4bgip2rcd13ifvqbb0","pricing_plan_id":"free"},{"bike_id":"87b59408-da92-4465-8856-ec5b4ad3e01b","system_id":"levelo_inurba_marseille","lat":43.304278,"lon":5.388868,"is_reserved":false,"is_disabled":false,"rental_uris":{"android":"levelo://app?vid=87b59408-da92-4465-8856-ec5b4ad3e01b","ios":"levelo://app?vid=87b59408-da92-4465-8856-ec5b4ad3e01b"},"vehicle_type_id":"4","last_reported":1702987988,"current_range_meters":29200,"station_id":"ce4bgk12rcd13ifvqbi0","pricing_plan_id":"free"},{"bike_id":"5d142832-272b-49c9-9906-024dae65614c","system_id":"levelo_inurba_marseille","lat":43.304278,"lon":5.388868,"is_reserved":false,"is_disabled":false,"rental_uris":{"android":"levelo://app?vid=5d142832-272b-49c9-9906-024dae65614c","ios":"levelo://app?vid=5d142832-272b-49c9-9906-024dae65614c"},"vehicle_type_id":"4","last_reported":1702987988,"current_range_meters":1200,"station_id":"ce4bgk12rcd13ifvqbi0","pricing_plan_id":"free"},{"bike_id":"3c5963c7-059c-47a4-af14-91c18dd7c746","system_id":"levelo_inurba_marseille","lat":43.304278,"lon":5.388868,"is_reserved":false,"is_disabled":false,"rental_uris":{"android":"levelo://app?vid=3c5963c7-059c-47a4-af14-91c18dd7c746","ios":"levelo://app?vid=3c5963c7-059c-47a4-af14-91c18dd7c746"},"vehicle_type_id":"4","last_reported":1702987988,"current_range_meters":31200,"station_id":"ce4bgk12rcd13ifvqbi0","pricing_plan_id":"free"},{"bike_id":"934167ed-184b-429e-af48-f2cff62d3c15","system_id":"levelo_inurba_marseille","lat":43.304278,"lon":5.388868,"is_reserved":false,"is_disabled":false,"rental_uris":{"android":"levelo://app?vid=934167ed-184b-429e-af48-f2cff62d3c15","ios":"levelo://app?vid=934167ed-184b-429e-af48-f2cff62d3c15"},"vehicle_type_id":"4","last_reported":1702987988,"current_range_meters":30000,"station_id":"ce4bgk12rcd13ifvqbi0","pricing_plan_id":"free"},{"bike_id":"d06011bd-2e98-4bf5-bdb0-d9a2f826a06f","system_id":"levelo_inurba_marseille","lat":43.304274,"lon":5.388873,"is_reserved":false,"is_disabled":false,"rental_uris":{"android":"levelo://app?vid=d06011bd-2e98-4bf5-bdb0-d9a2f826a06f","ios":"levelo://app?vid=d06011bd-2e98-4bf5-bdb0-d9a2f826a06f"},"vehicle_type_id":"4","last_reported":1702987988,"current_range_meters":26800,"station_id":"ce4bgk12rcd13ifvqbi0","pricing_plan_id":"free"},{"bike_id":"95f0321f-5172-4923-bba4-10b5182fba36","system_id":"levelo_inurba_marseille","lat":43.304274,"lon":5.388873,"is_reserved":false,"is_disabled":false,"rental_uris":{"android":"levelo://app?vid=95f0321f-5172-4923-bba4-10b5182fba36","ios":"levelo://app?vid=95f0321f-5172-4923-bba4-10b5182fba36"},"vehicle_type_id":"4","last_reported":1702987988,"current_range_meters":26400,"station_id":"ce4bgk12rcd13ifvqbi0","pricing_plan_id":"free"},{"bike_id":"a417f999-1cdf-4e85-a21d-1703e8a53351","system_id":"levelo_inurba_marseille","lat":43.299724,"lon":5.384848,"is_reserved":false,"is_disabled":false,"rental_uris":{"android":"levelo://app?vid=a417f999-1cdf-4e85-a21d-1703e8a53351","ios":"levelo://app?vid=a417f999-1cdf-4e85-a21d-1703e8a53351"},"vehicle_type_id":"4","last_reported":1702987988,"current_range_meters":30000,"station_id":"ce4bgj92rcd13ifvqbd0","pricing_plan_id":"free"},{"bike_id":"1b32dad6-b365-44ce-b74e-d83cd2081e4d","system_id":"levelo_inurba_marseille","lat":43.32362,"lon":5.38886,"is_reserved":false,"is_disabled":false,"rental_uris":{"android":"levelo://app?vid=1b32dad6-b365-44ce-b74e-d83cd2081e4d","ios":"levelo://app?vid=1b32dad6-b365-44ce-b74e-d83cd2081e4d"},"vehicle_type_id":"4","last_reported":1702987988,"current_range_meters":26800,"station_id":"ce4bhqp2rcd13ifvqhog","pricing_plan_id":"free"},{"bike_id":"555e72ff-6e18-4272-8e93-8bff72f6466a","system_id":"levelo_inurba_marseille","lat":43.323695,"lon":5.38885,"is_reserved":false,"is_disabled":false,"rental_uris":{"android":"levelo://app?vid=555e72ff-6e18-4272-8e93-8bff72f6466a","ios":"levelo://app?vid=555e72ff-6e18-4272-8e93-8bff72f6466a"},"vehicle_type_id":"4","last_reported":1702987988,"current_range_meters":15600,"station_id":"ce4bhqp2rcd13ifvqhog","pricing_plan_id":"free"},{"bike_id":"06f93685-9293-410e-9ba7-7462f6d9d6fe","system_id":"levelo_inurba_marseille","lat":43.293009,"lon":5.374584,"is_reserved":false,"is_disabled":false,"rental_uris":{"android":"levelo://app?vid=06f93685-9293-410e-9ba7-7462f6d9d6fe","ios":"levelo://app?vid=06f93685-9293-410e-9ba7-7462f6d9d6fe"},"vehicle_type_id":"4","last_reported":1702987988,"current_range_meters":22800,"station_id":"ce4bgi12rcd13ifvqb70","pricing_plan_id":"free"},{"bike_id":"057c4a3f-8d24-4a9e-a575-25953f173893","system_id":"levelo_inurba_marseille","lat":43.29597,"lon":5.38096,"is_reserved":false,"is_disabled":false,"rental_uris":{"android":"levelo://app?vid=057c4a3f-8d24-4a9e-a575-25953f173893","ios":"levelo://app?vid=057c4a3f-8d24-4a9e-a575-25953f173893"},"vehicle_type_id":"4","last_reported":1702987988,"current_range_meters":26400,"station_id":"ce4bgl12rcd13ifvqbo0","pricing_plan_id":"free"},{"bike_id":"26c56aef-84c9-4531-91cc-0e4f02befd1c","system_id":"levelo_inurba_marseille","lat":43.30589,"lon":5.39359,"is_reserved":false,"is_disabled":false,"rental_uris":{"android":"levelo://app?vid=26c56aef-84c9-4531-91cc-0e4f02befd1c","ios":"levelo://app?vid=26c56aef-84c9-4531-91cc-0e4f02befd1c"},"vehicle_type_id":"4","last_reported":1702987988,"current_range_meters":18800,"station_id":"ce4bh0p2rcd13ifvqd80","pricing_plan_id":"free"},{"bike_id":"2d001395-632f-4561-867a-63783c67a2d0","system_id":"levelo_inurba_marseille","lat":43.305994,"lon":5.393687,"is_reserved":false,"is_disabled":false,"rental_uris":{"android":"levelo://app?vid=2d001395-632f-4561-867a-63783c67a2d0","ios":"levelo://app?vid=2d001395-632f-4561-867a-63783c67a2d0"},"vehicle_type_id":"4","last_reported":1702987988,"current_range_meters":25600,"station_id":"ce4bh0p2rcd13ifvqd80","pricing_plan_id":"free"},{"bike_id":"47f8632f-9326-4fef-8bcf-015609eb30fe","system_id":"levelo_inurba_marseille","lat":43.30587,"lon":5.3936,"is_reserved":false,"is_disabled":false,"rental_uris":{"android":"levelo://app?vid=47f8632f-9326-4fef-8bcf-015609eb30fe","ios":"levelo://app?vid=47f8632f-9326-4fef-8bcf-015609eb30fe"},"vehicle_type_id":"4","last_reported":1702987988,"current_range_meters":0,"station_id":"ce4bh0p2rcd13ifvqd80","pricing_plan_id":"free"},{"bike_id":"c6bb1beb-b83a-42e4-b20d-ecc1cd0a3cee","system_id":"levelo_inurba_marseille","lat":43.292311,"lon":5.360731,"is_reserved":false,"is_disabled":false,"rental_uris":{"android":"levelo://app?vid=c6bb1beb-b83a-42e4-b20d-ecc1cd0a3cee","ios":"levelo://app?vid=c6bb1beb-b83a-42e4-b20d-ecc1cd0a3cee"},"vehicle_type_id":"4","last_reported":1702987988,"current_range_meters":30400,"station_id":"ce4bhbh2rcd13ifvqeqg","pricing_plan_id":"free"},{"bike_id":"c6c2e409-89ef-45ee-a14f-3a31d87f8c47","system_id":"levelo_inurba_marseille","lat":43.300961,"lon":5.390836,"is_reserved":false,"is_disabled":false,"rental_uris":{"android":"levelo://app?vid=c6c2e409-89ef-45ee-a14f-3a31d87f8c47","ios":"levelo://app?vid=c6c2e409-89ef-45ee-a14f-3a31d87f8c47"},"vehicle_type_id":"4","last_reported":1702987988,"current_range_meters":28800,"station_id":"","pricing_plan_id":"free"},{"bike_id":"345d5700-93a3-4eb2-9a00-35bacca09802","system_id":"levelo_inurba_marseille","lat":43.291671,"lon":5.371575,"is_reserved":false,"is_disabled":false,"rental_uris":{"android":"levelo://app?vid=345d5700-93a3-4eb2-9a00-35bacca09802","ios":"levelo://app?vid=345d5700-93a3-4eb2-9a00-35bacca09802"},"vehicle_type_id":"4","last_reported":1702987988,"current_range_meters":2000,"station_id":"ce4bha92rcd13ifvqeh0","pricing_plan_id":"free"},{"bike_id":"0109cb2c-c79b-4fab-b464-b72b2d2f258f","system_id":"levelo_inurba_marseille","lat":43.291675,"lon":5.371583,"is_reserved":false,"is_disabled":false,"rental_uris":{"android":"levelo://app?vid=0109cb2c-c79b-4fab-b464-b72b2d2f258f","ios":"levelo://app?vid=0109cb2c-c79b-4fab-b464-b72b2d2f258f"},"vehicle_type_id":"4","last_reported":1702987988,"current_range_meters":23600,"station_id":"ce4bha92rcd13ifvqeh0","pricing_plan_id":"free"},{"bike_id":"0647ff56-04ad-414e-916b-20fd09d42b25","system_id":"levelo_inurba_marseille","lat":43.291994,"lon":5.357886,"is_reserved":false,"is_disabled":false,"rental_uris":{"android":"levelo://app?vid=0647ff56-04ad-414e-916b-20fd09d42b25","ios":"levelo://app?vid=0647ff56-04ad-414e-916b-20fd09d42b25"},"vehicle_type_id":"4","last_reported":1702987988,"current_range_meters":20400,"station_id":"ce4bhb12rcd13ifvqel0","pricing_plan_id":"free"},{"bike_id":"ac61d303-85d8-4b18-a28b-b4262ba02e78","system_id":"levelo_inurba_marseille","lat":43.291994,"lon":5.357886,"is_reserved":false,"is_disabled":false,"rental_uris":{"android":"levelo://app?vid=ac61d303-85d8-4b18-a28b-b4262ba02e78","ios":"levelo://app?vid=ac61d303-85d8-4b18-a28b-b4262ba02e78"},"vehicle_type_id":"4","last_reported":1702987988,"current_range_meters":18000,"station_id":"ce4bhb12rcd13ifvqel0","pricing_plan_id":"free"},{"bike_id":"629f4f5d-79de-4426-98bf-9ec94f2ce0b7","system_id":"levelo_inurba_marseille","lat":43.291994,"lon":5.357886,"is_reserved":false,"is_disabled":false,"rental_uris":{"android":"levelo://app?vid=629f4f5d-79de-4426-98bf-9ec94f2ce0b7","ios":"levelo://app?vid=629f4f5d-79de-4426-98bf-9ec94f2ce0b7"},"vehicle_type_id":"4","last_reported":1702987988,"current_range_meters":0,"station_id":"ce4bhb12rcd13ifvqel0","pricing_plan_id":"free"},{"bike_id":"5e041d02-5286-4a2f-8761-68a61b5a40e9","system_id":"levelo_inurba_marseille","lat":43.302008,"lon":5.394694,"is_reserved":false,"is_disabled":false,"rental_uris":{"android":"levelo://app?vid=5e041d02-5286-4a2f-8761-68a61b5a40e9","ios":"levelo://app?vid=5e041d02-5286-4a2f-8761-68a61b5a40e9"},"vehicle_type_id":"4","last_reported":1702987988,"current_range_meters":26000,"station_id":"ce4bh0p2rcd13ifvqd70","pricing_plan_id":"free"},{"bike_id":"621231e1-1022-42b1-aa69-d3062f163c6b","system_id":"levelo_inurba_marseille","lat":43.289184,"lon":5.366408,"is_reserved":false,"is_disabled":false,"rental_uris":{"android":"levelo://app?vid=621231e1-1022-42b1-aa69-d3062f163c6b","ios":"levelo://app?vid=621231e1-1022-42b1-aa69-d3062f163c6b"},"vehicle_type_id":"4","last_reported":1702987988,"current_range_meters":8400,"station_id":"ce4bhap2rcd13ifvqek0","pricing_plan_id":"free"},{"bike_id":"ec935ecd-0a2f-4354-b1c3-8aea0d407b25","system_id":"levelo_inurba_marseille","lat":43.304296,"lon":5.397513,"is_reserved":false,"is_disabled":false,"rental_uris":{"android":"levelo://app?vid=ec935ecd-0a2f-4354-b1c3-8aea0d407b25","ios":"levelo://app?vid=ec935ecd-0a2f-4354-b1c3-8aea0d407b25"},"vehicle_type_id":"4","last_reported":1702987988,"current_range_meters":26800,"station_id":"ce4bh092rcd13ifvqd20","pricing_plan_id":"free"},{"bike_id":"f16a7363-728e-46ee-bfc7-dae640cce21b","system_id":"levelo_inurba_marseille","lat":43.29021,"lon":5.35606,"is_reserved":false,"is_disabled":false,"rental_uris":{"android":"levelo://app?vid=f16a7363-728e-46ee-bfc7-dae640cce21b","ios":"levelo://app?vid=f16a7363-728e-46ee-bfc7-dae640cce21b"},"vehicle_type_id":"4","last_reported":1702987988,"current_range_meters":27600,"station_id":"","pricing_plan_id":"free"},{"bike_id":"b835a878-3c7c-4409-ba39-5f0e6cf66239","system_id":"levelo_inurba_marseille","lat":43.330442,"lon":5.389148,"is_reserved":false,"is_disabled":false,"rental_uris":{"android":"levelo://app?vid=b835a878-3c7c-4409-ba39-5f0e6cf66239","ios":"levelo://app?vid=b835a878-3c7c-4409-ba39-5f0e6cf66239"},"vehicle_type_id":"4","last_reported":1702987988,"current_range_meters":25600,"station_id":"ce4bhr92rcd13ifvqhrg","pricing_plan_id":"free"},{"bike_id":"208297bc-3d30-4364-baa4-33c727500ac6","system_id":"levelo_inurba_marseille","lat":43.330442,"lon":5.389148,"is_reserved":false,"is_disabled":false,"rental_uris":{"android":"levelo://app?vid=208297bc-3d30-4364-baa4-33c727500ac6","ios":"levelo://app?vid=208297bc-3d30-4364-baa4-33c727500ac6"},"vehicle_type_id":"4","last_reported":1702987988,"current_range_meters":6000,"station_id":"ce4bhr92rcd13ifvqhrg","pricing_plan_id":"free"},{"bike_id":"549f20c7-e694-4409-88f8-e9c1555d154b","system_id":"levelo_inurba_marseille","lat":43.330442,"lon":5.389148,"is_reserved":false,"is_disabled":false,"rental_uris":{"android":"levelo://app?vid=549f20c7-e694-4409-88f8-e9c1555d154b","ios":"levelo://app?vid=549f20c7-e694-4409-88f8-e9c1555d154b"},"vehicle_type_id":"4","last_reported":1702987988,"current_range_meters":22000,"station_id":"ce4bhr92rcd13ifvqhrg","pricing_plan_id":"free"},{"bike_id":"fb541042-ca34-42cc-9403-1629f61ffdf5","system_id":"levelo_inurba_marseille","lat":43.33045,"lon":5.38918,"is_reserved":false,"is_disabled":false,"rental_uris":{"android":"levelo://app?vid=fb541042-ca34-42cc-9403-1629f61ffdf5","ios":"levelo://app?vid=fb541042-ca34-42cc-9403-1629f61ffdf5"},"vehicle_type_id":"4","last_reported":1702987988,"current_range_meters":28800,"station_id":"ce4bhr92rcd13ifvqhrg","pricing_plan_id":"free"},{"bike_id":"ee32d623-9f8f-433f-b56c-8238536afbee","system_id":"levelo_inurba_marseille","lat":43.290103,"lon":5.356114,"is_reserved":false,"is_disabled":false,"rental_uris":{"android":"levelo://app?vid=ee32d623-9f8f-433f-b56c-8238536afbee","ios":"levelo://app?vid=ee32d623-9f8f-433f-b56c-8238536afbee"},"vehicle_type_id":"4","last_reported":1702987988,"current_range_meters":5200,"station_id":"ce4bhb92rcd13ifvqen0","pricing_plan_id":"free"},{"bike_id":"bdd88baa-73bd-43e5-a95b-93cb3eb5a7c9","system_id":"levelo_inurba_marseille","lat":43.290104,"lon":5.356111,"is_reserved":false,"is_disabled":false,"rental_uris":{"android":"levelo://app?vid=bdd88baa-73bd-43e5-a95b-93cb3eb5a7c9","ios":"levelo://app?vid=bdd88baa-73bd-43e5-a95b-93cb3eb5a7c9"},"vehicle_type_id":"4","last_reported":1702987988,"current_range_meters":24400,"station_id":"ce4bhb92rcd13ifvqen0","pricing_plan_id":"free"},{"bike_id":"7a081171-2c60-4e3f-84cd-6b7bfdbf3ee2","system_id":"levelo_inurba_marseille","lat":43.290094,"lon":5.381264,"is_reserved":false,"is_disabled":false,"rental_uris":{"android":"levelo://app?vid=7a081171-2c60-4e3f-84cd-6b7bfdbf3ee2","ios":"levelo://app?vid=7a081171-2c60-4e3f-84cd-6b7bfdbf3ee2"},"vehicle_type_id":"4","last_reported":1702987988,"current_range_meters":24000,"station_id":"ce4bh4p2rcd13ifvqe1g","pricing_plan_id":"free"},{"bike_id":"1fec9ddb-da7a-4b2b-bf05-185ada17faa2","system_id":"levelo_inurba_marseille","lat":43.2901,"lon":5.381269,"is_reserved":false,"is_disabled":false,"rental_uris":{"android":"levelo://app?vid=1fec9ddb-da7a-4b2b-bf05-185ada17faa2","ios":"levelo://app?vid=1fec9ddb-da7a-4b2b-bf05-185ada17faa2"},"vehicle_type_id":"4","last_reported":1702987988,"current_range_meters":28000,"station_id":"ce4bh4p2rcd13ifvqe1g","pricing_plan_id":"free"},{"bike_id":"0e132a50-97af-456f-a072-2e02b755bf0f","system_id":"levelo_inurba_marseille","lat":43.29166,"lon":5.38603,"is_reserved":false,"is_disabled":false,"rental_uris":{"android":"levelo://app?vid=0e132a50-97af-456f-a072-2e02b755bf0f","ios":"levelo://app?vid=0e132a50-97af-456f-a072-2e02b755bf0f"},"vehicle_type_id":"4","last_reported":1702987988,"current_range_meters":14400,"station_id":"","pricing_plan_id":"free"},{"bike_id":"52843543-cd98-4d6a-a65c-0c31eae68ece","system_id":"levelo_inurba_marseille","lat":43.312609,"lon":5.401662,"is_reserved":false,"is_disabled":false,"rental_uris":{"android":"levelo://app?vid=52843543-cd98-4d6a-a65c-0c31eae68ece","ios":"levelo://app?vid=52843543-cd98-4d6a-a65c-0c31eae68ece"},"vehicle_type_id":"4","last_reported":1702987988,"current_range_meters":19600,"station_id":"ce4bh092rcd13ifvqd30","pricing_plan_id":"free"},{"bike_id":"c3c3cbbb-aa08-4874-94d9-d40777882ceb","system_id":"levelo_inurba_marseille","lat":43.337694,"lon":5.374289,"is_reserved":false,"is_disabled":false,"rental_uris":{"android":"levelo://app?vid=c3c3cbbb-aa08-4874-94d9-d40777882ceb","ios":"levelo://app?vid=c3c3cbbb-aa08-4874-94d9-d40777882ceb"},"vehicle_type_id":"4","last_reported":1702987988,"current_range_meters":9200,"station_id":"","pricing_plan_id":"free"},{"bike_id":"e55e419b-bed3-4c40-8189-64b6ba8af668","system_id":"levelo_inurba_marseille","lat":43.306412,"lon":5.401035,"is_reserved":false,"is_disabled":false,"rental_uris":{"android":"levelo://app?vid=e55e419b-bed3-4c40-8189-64b6ba8af668","ios":"levelo://app?vid=e55e419b-bed3-4c40-8189-64b6ba8af668"},"vehicle_type_id":"4","last_reported":1702987988,"current_range_meters":28400,"station_id":"ce4bh112rcd13ifvqda0","pricing_plan_id":"free"},{"bike_id":"0bc55c7b-6908-4ea0-8b35-6576e31804b0","system_id":"levelo_inurba_marseille","lat":43.301117,"lon":5.398795,"is_reserved":false,"is_disabled":false,"rental_uris":{"android":"levelo://app?vid=0bc55c7b-6908-4ea0-8b35-6576e31804b0","ios":"levelo://app?vid=0bc55c7b-6908-4ea0-8b35-6576e31804b0"},"vehicle_type_id":"4","last_reported":1702987988,"current_range_meters":14400,"station_id":"ce4bh0h2rcd13ifvqd40","pricing_plan_id":"free"},{"bike_id":"81cf2b6c-eb7b-4771-bcae-5d3b7a039c39","system_id":"levelo_inurba_marseille","lat":43.301117,"lon":5.398795,"is_reserved":false,"is_disabled":false,"rental_uris":{"android":"levelo://app?vid=81cf2b6c-eb7b-4771-bcae-5d3b7a039c39","ios":"levelo://app?vid=81cf2b6c-eb7b-4771-bcae-5d3b7a039c39"},"vehicle_type_id":"4","last_reported":1702987988,"current_range_meters":27200,"station_id":"ce4bh0h2rcd13ifvqd40","pricing_plan_id":"free"},{"bike_id":"c895bede-74bf-4547-92cc-4b07db62068a","system_id":"levelo_inurba_marseille","lat":43.28727,"lon":5.36078,"is_reserved":false,"is_disabled":false,"rental_uris":{"android":"levelo://app?vid=c895bede-74bf-4547-92cc-4b07db62068a","ios":"levelo://app?vid=c895bede-74bf-4547-92cc-4b07db62068a"},"vehicle_type_id":"4","last_reported":1702987988,"current_range_meters":24400,"station_id":"cki0cbj6b192h4jlfktg","pricing_plan_id":"free"},{"bike_id":"50631cc0-7df1-4ac8-974f-78ccdeefa623","system_id":"levelo_inurba_marseille","lat":43.298681,"lon":5.397225,"is_reserved":false,"is_disabled":false,"rental_uris":{"android":"levelo://app?vid=50631cc0-7df1-4ac8-974f-78ccdeefa623","ios":"levelo://app?vid=50631cc0-7df1-4ac8-974f-78ccdeefa623"},"vehicle_type_id":"4","last_reported":1702987988,"current_range_meters":27200,"station_id":"ce4bh0h2rcd13ifvqd50","pricing_plan_id":"free"},{"bike_id":"593d5689-c4bf-45e4-b065-657218f546e4","system_id":"levelo_inurba_marseille","lat":43.289307,"lon":5.38406,"is_reserved":false,"is_disabled":false,"rental_uris":{"android":"levelo://app?vid=593d5689-c4bf-45e4-b065-657218f546e4","ios":"levelo://app?vid=593d5689-c4bf-45e4-b065-657218f546e4"},"vehicle_type_id":"4","last_reported":1702987988,"current_range_meters":14800,"station_id":"ce4bh612rcd13ifvqe6g","pricing_plan_id":"free"},{"bike_id":"7d68eac5-1bca-4a09-bf11-b2dfc85d8675","system_id":"levelo_inurba_marseille","lat":43.29027,"lon":5.386511,"is_reserved":false,"is_disabled":false,"rental_uris":{"android":"levelo://app?vid=7d68eac5-1bca-4a09-bf11-b2dfc85d8675","ios":"levelo://app?vid=7d68eac5-1bca-4a09-bf11-b2dfc85d8675"},"vehicle_type_id":"4","last_reported":1702987988,"current_range_meters":0,"station_id":"","pricing_plan_id":"free"},{"bike_id":"41501bbc-b034-45ad-b316-c32409342290","system_id":"levelo_inurba_marseille","lat":43.286039,"lon":5.370679,"is_reserved":false,"is_disabled":false,"rental_uris":{"android":"levelo://app?vid=41501bbc-b034-45ad-b316-c32409342290","ios":"levelo://app?vid=41501bbc-b034-45ad-b316-c32409342290"},"vehicle_type_id":"4","last_reported":1702987988,"current_range_meters":31200,"station_id":"ce4bht12rcd13ifvqi60","pricing_plan_id":"free"},{"bike_id":"041e8ef1-7c4a-49dd-89c2-4a69bdfcd042","system_id":"levelo_inurba_marseille","lat":43.286117,"lon":5.370617,"is_reserved":false,"is_disabled":false,"rental_uris":{"android":"levelo://app?vid=041e8ef1-7c4a-49dd-89c2-4a69bdfcd042","ios":"levelo://app?vid=041e8ef1-7c4a-49dd-89c2-4a69bdfcd042"},"vehicle_type_id":"4","last_reported":1702987988,"current_range_meters":28800,"station_id":"ce4bht12rcd13ifvqi60","pricing_plan_id":"free"},{"bike_id":"398f8173-f442-4a91-b2b1-1c1033566ad7","system_id":"levelo_inurba_marseille","lat":43.291994,"lon":5.392907,"is_reserved":false,"is_disabled":false,"rental_uris":{"android":"levelo://app?vid=398f8173-f442-4a91-b2b1-1c1033566ad7","ios":"levelo://app?vid=398f8173-f442-4a91-b2b1-1c1033566ad7"},"vehicle_type_id":"4","last_reported":1702987988,"current_range_meters":20400,"station_id":"ce4bh192rcd13ifvqdd0","pricing_plan_id":"free"},{"bike_id":"f97a1780-721a-44aa-b782-48b3df82c684","system_id":"levelo_inurba_marseille","lat":43.284538,"lon":5.358657,"is_reserved":false,"is_disabled":false,"rental_uris":{"android":"levelo://app?vid=f97a1780-721a-44aa-b782-48b3df82c684","ios":"levelo://app?vid=f97a1780-721a-44aa-b782-48b3df82c684"},"vehicle_type_id":"4","last_reported":1702987988,"current_range_meters":20000,"station_id":"ce4bhah2rcd13ifvqei0","pricing_plan_id":"free"},{"bike_id":"37ec5cf1-d4f6-4d0f-9e61-7e01c5b43ea0","system_id":"levelo_inurba_marseille","lat":43.284538,"lon":5.358657,"is_reserved":false,"is_disabled":false,"rental_uris":{"android":"levelo://app?vid=37ec5cf1-d4f6-4d0f-9e61-7e01c5b43ea0","ios":"levelo://app?vid=37ec5cf1-d4f6-4d0f-9e61-7e01c5b43ea0"},"vehicle_type_id":"4","last_reported":1702987988,"current_range_meters":11200,"station_id":"ce4bhah2rcd13ifvqei0","pricing_plan_id":"free"},{"bike_id":"8538e6dd-dbef-4a5a-a119-9a857fd021ad","system_id":"levelo_inurba_marseille","lat":43.33218,"lon":5.397067,"is_reserved":false,"is_disabled":false,"rental_uris":{"android":"levelo://app?vid=8538e6dd-dbef-4a5a-a119-9a857fd021ad","ios":"levelo://app?vid=8538e6dd-dbef-4a5a-a119-9a857fd021ad"},"vehicle_type_id":"4","last_reported":1702987988,"current_range_meters":1600,"station_id":"","pricing_plan_id":"free"},{"bike_id":"0d0d8842-a20a-44c3-a564-a62af293491f","system_id":"levelo_inurba_marseille","lat":43.283998,"lon":5.375062,"is_reserved":false,"is_disabled":false,"rental_uris":{"android":"levelo://app?vid=0d0d8842-a20a-44c3-a564-a62af293491f","ios":"levelo://app?vid=0d0d8842-a20a-44c3-a564-a62af293491f"},"vehicle_type_id":"4","last_reported":1702987988,"current_range_meters":3600,"station_id":"ce4bh412rcd13ifvqds0","pricing_plan_id":"free"},{"bike_id":"f7eca2a9-4e3f-4608-9580-63ff6d5d47f4","system_id":"levelo_inurba_marseille","lat":43.295713,"lon":5.399639,"is_reserved":false,"is_disabled":false,"rental_uris":{"android":"levelo://app?vid=f7eca2a9-4e3f-4608-9580-63ff6d5d47f4","ios":"levelo://app?vid=f7eca2a9-4e3f-4608-9580-63ff6d5d47f4"},"vehicle_type_id":"4","last_reported":1702987988,"current_range_meters":30400,"station_id":"ce4bh312rcd13ifvqdj0","pricing_plan_id":"free"},{"bike_id":"0906198d-f0ca-42ca-bcb9-9b969aee2d7e","system_id":"levelo_inurba_marseille","lat":43.286595,"lon":5.386795,"is_reserved":false,"is_disabled":false,"rental_uris":{"android":"levelo://app?vid=0906198d-f0ca-42ca-bcb9-9b969aee2d7e","ios":"levelo://app?vid=0906198d-f0ca-42ca-bcb9-9b969aee2d7e"},"vehicle_type_id":"4","last_reported":1702987988,"current_range_meters":0,"station_id":"ce4bh492rcd13ifvqdug","pricing_plan_id":"free"},{"bike_id":"c4c30cf2-37b3-43ef-aa32-1261e3a82adc","system_id":"levelo_inurba_marseille","lat":43.286595,"lon":5.386795,"is_reserved":false,"is_disabled":false,"rental_uris":{"android":"levelo://app?vid=c4c30cf2-37b3-43ef-aa32-1261e3a82adc","ios":"levelo://app?vid=c4c30cf2-37b3-43ef-aa32-1261e3a82adc"},"vehicle_type_id":"4","last_reported":1702987988,"current_range_meters":1600,"station_id":"ce4bh492rcd13ifvqdug","pricing_plan_id":"free"},{"bike_id":"96bf667b-fc7a-4276-8634-e50a2d06e943","system_id":"levelo_inurba_marseille","lat":43.33717,"lon":5.391857,"is_reserved":false,"is_disabled":false,"rental_uris":{"android":"levelo://app?vid=96bf667b-fc7a-4276-8634-e50a2d06e943","ios":"levelo://app?vid=96bf667b-fc7a-4276-8634-e50a2d06e943"},"vehicle_type_id":"4","last_reported":1702987988,"current_range_meters":26400,"station_id":"ce4bhr92rcd13ifvqhsg","pricing_plan_id":"free"},{"bike_id":"cb8da506-0c61-4efc-a37a-fcf8db806d53","system_id":"levelo_inurba_marseille","lat":43.337168,"lon":5.391825,"is_reserved":false,"is_disabled":false,"rental_uris":{"android":"levelo://app?vid=cb8da506-0c61-4efc-a37a-fcf8db806d53","ios":"levelo://app?vid=cb8da506-0c61-4efc-a37a-fcf8db806d53"},"vehicle_type_id":"4","last_reported":1702987988,"current_range_meters":27600,"station_id":"ce4bhr92rcd13ifvqhsg","pricing_plan_id":"free"},{"bike_id":"836b9d28-e887-4e99-8264-d9906b920159","system_id":"levelo_inurba_marseille","lat":43.284793,"lon":5.384119,"is_reserved":false,"is_disabled":false,"rental_uris":{"android":"levelo://app?vid=836b9d28-e887-4e99-8264-d9906b920159","ios":"levelo://app?vid=836b9d28-e887-4e99-8264-d9906b920159"},"vehicle_type_id":"4","last_reported":1702987988,"current_range_meters":24800,"station_id":"ce4bh512rcd13ifvqe3g","pricing_plan_id":"free"},{"bike_id":"f5332b34-8259-4323-952e-7bd465eb247c","system_id":"levelo_inurba_marseille","lat":43.29795,"lon":5.404086,"is_reserved":false,"is_disabled":false,"rental_uris":{"android":"levelo://app?vid=f5332b34-8259-4323-952e-7bd465eb247c","ios":"levelo://app?vid=f5332b34-8259-4323-952e-7bd465eb247c"},"vehicle_type_id":"4","last_reported":1702987988,"current_range_meters":400,"station_id":"ce4bh112rcd13ifvqd90","pricing_plan_id":"free"},{"bike_id":"35e5c977-c3ec-4302-85e4-7f44ba15ca6f","system_id":"levelo_inurba_marseille","lat":43.306412,"lon":5.401035,"is_reserved":false,"is_disabled":false,"rental_uris":{"android":"levelo://app?vid=35e5c977-c3ec-4302-85e4-7f44ba15ca6f","ios":"levelo://app?vid=35e5c977-c3ec-4302-85e4-7f44ba15ca6f"},"vehicle_type_id":"4","last_reported":1702987988,"current_range_meters":23200,"station_id":"ce4bh112rcd13ifvqda0","pricing_plan_id":"free"},{"bike_id":"6e422808-27cb-4e79-a00a-b079d2820008","system_id":"levelo_inurba_marseille","lat":43.283502,"lon":5.386471,"is_reserved":false,"is_disabled":false,"rental_uris":{"android":"levelo://app?vid=6e422808-27cb-4e79-a00a-b079d2820008","ios":"levelo://app?vid=6e422808-27cb-4e79-a00a-b079d2820008"},"vehicle_type_id":"4","last_reported":1702987988,"current_range_meters":27600,"station_id":"ce4bh492rcd13ifvqdvg","pricing_plan_id":"free"},{"bike_id":"5f6c0259-732e-4ce9-95a1-0674d644b40b","system_id":"levelo_inurba_marseille","lat":43.296263,"lon":5.40601,"is_reserved":false,"is_disabled":false,"rental_uris":{"android":"levelo://app?vid=5f6c0259-732e-4ce9-95a1-0674d644b40b","ios":"levelo://app?vid=5f6c0259-732e-4ce9-95a1-0674d644b40b"},"vehicle_type_id":"4","last_reported":1702987988,"current_range_meters":5600,"station_id":"ce4bh0h2rcd13ifvqd60","pricing_plan_id":"free"},{"bike_id":"c77a0033-390d-4564-a8ed-5c3235d407c5","system_id":"levelo_inurba_marseille","lat":43.296263,"lon":5.40601,"is_reserved":false,"is_disabled":false,"rental_uris":{"android":"levelo://app?vid=c77a0033-390d-4564-a8ed-5c3235d407c5","ios":"levelo://app?vid=c77a0033-390d-4564-a8ed-5c3235d407c5"},"vehicle_type_id":"4","last_reported":1702987988,"current_range_meters":7200,"station_id":"ce4bh0h2rcd13ifvqd60","pricing_plan_id":"free"},{"bike_id":"91687f46-3185-480d-b983-2474cb52665b","system_id":"levelo_inurba_marseille","lat":43.296263,"lon":5.40601,"is_reserved":false,"is_disabled":false,"rental_uris":{"android":"levelo://app?vid=91687f46-3185-480d-b983-2474cb52665b","ios":"levelo://app?vid=91687f46-3185-480d-b983-2474cb52665b"},"vehicle_type_id":"4","last_reported":1702987988,"current_range_meters":27200,"station_id":"ce4bh0h2rcd13ifvqd60","pricing_plan_id":"free"},{"bike_id":"d0884f12-71bc-4a20-86aa-cacf7145ba7b","system_id":"levelo_inurba_marseille","lat":43.284462,"lon":5.392121,"is_reserved":false,"is_disabled":false,"rental_uris":{"android":"levelo://app?vid=d0884f12-71bc-4a20-86aa-cacf7145ba7b","ios":"levelo://app?vid=d0884f12-71bc-4a20-86aa-cacf7145ba7b"},"vehicle_type_id":"4","last_reported":1702987988,"current_range_meters":23200,"station_id":"ce4bhoh2rcd13ifvqh5g","pricing_plan_id":"free"},{"bike_id":"2f5ae7bd-99e5-4de9-88b4-67b080560970","system_id":"levelo_inurba_marseille","lat":43.28567,"lon":5.39501,"is_reserved":false,"is_disabled":false,"rental_uris":{"android":"levelo://app?vid=2f5ae7bd-99e5-4de9-88b4-67b080560970","ios":"levelo://app?vid=2f5ae7bd-99e5-4de9-88b4-67b080560970"},"vehicle_type_id":"4","last_reported":1702987988,"current_range_meters":5200,"station_id":"ce4bh292rcd13ifvqdg0","pricing_plan_id":"free"},{"bike_id":"9de3a519-4542-4802-95f3-076499e72d1b","system_id":"levelo_inurba_marseille","lat":43.28573,"lon":5.394992,"is_reserved":false,"is_disabled":false,"rental_uris":{"android":"levelo://app?vid=9de3a519-4542-4802-95f3-076499e72d1b","ios":"levelo://app?vid=9de3a519-4542-4802-95f3-076499e72d1b"},"vehicle_type_id":"4","last_reported":1702987988,"current_range_meters":24800,"station_id":"ce4bh292rcd13ifvqdg0","pricing_plan_id":"free"},{"bike_id":"93a0fb5c-7b4d-4d84-955c-45780edb6d92","system_id":"levelo_inurba_marseille","lat":43.28561,"lon":5.39499,"is_reserved":false,"is_disabled":false,"rental_uris":{"android":"levelo://app?vid=93a0fb5c-7b4d-4d84-955c-45780edb6d92","ios":"levelo://app?vid=93a0fb5c-7b4d-4d84-955c-45780edb6d92"},"vehicle_type_id":"4","last_reported":1702987988,"current_range_meters":10000,"station_id":"","pricing_plan_id":"free"},{"bike_id":"c2fb944a-f700-4248-bcb3-4a2a91272089","system_id":"levelo_inurba_marseille","lat":43.326605,"lon":5.409903,"is_reserved":false,"is_disabled":false,"rental_uris":{"android":"levelo://app?vid=c2fb944a-f700-4248-bcb3-4a2a91272089","ios":"levelo://app?vid=c2fb944a-f700-4248-bcb3-4a2a91272089"},"vehicle_type_id":"4","last_reported":1702987988,"current_range_meters":18800,"station_id":"ce4bhpp2rcd13ifvqhgg","pricing_plan_id":"free"},{"bike_id":"08aab5b0-fb17-4a0f-b784-554aee573757","system_id":"levelo_inurba_marseille","lat":43.28703,"lon":5.3999,"is_reserved":false,"is_disabled":false,"rental_uris":{"android":"levelo://app?vid=08aab5b0-fb17-4a0f-b784-554aee573757","ios":"levelo://app?vid=08aab5b0-fb17-4a0f-b784-554aee573757"},"vehicle_type_id":"4","last_reported":1702987988,"current_range_meters":3200,"station_id":"ce4bho92rcd13ifvqh3g","pricing_plan_id":"free"},{"bike_id":"817ecb52-c560-4251-ab87-689e04e4cf22","system_id":"levelo_inurba_marseille","lat":43.287154,"lon":5.399979,"is_reserved":false,"is_disabled":false,"rental_uris":{"android":"levelo://app?vid=817ecb52-c560-4251-ab87-689e04e4cf22","ios":"levelo://app?vid=817ecb52-c560-4251-ab87-689e04e4cf22"},"vehicle_type_id":"4","last_reported":1702987988,"current_range_meters":6400,"station_id":"ce4bho92rcd13ifvqh3g","pricing_plan_id":"free"},{"bike_id":"cb0668d4-d46c-4efe-a7e0-185ebe495ab4","system_id":"levelo_inurba_marseille","lat":43.280513,"lon":5.389247,"is_reserved":false,"is_disabled":false,"rental_uris":{"android":"levelo://app?vid=cb0668d4-d46c-4efe-a7e0-185ebe495ab4","ios":"levelo://app?vid=cb0668d4-d46c-4efe-a7e0-185ebe495ab4"},"vehicle_type_id":"4","last_reported":1702987988,"current_range_meters":12400,"station_id":"","pricing_plan_id":"free"},{"bike_id":"b353df94-dbc1-4a4f-9c5f-d306a6423118","system_id":"levelo_inurba_marseille","lat":43.279742,"lon":5.38744,"is_reserved":false,"is_disabled":false,"rental_uris":{"android":"levelo://app?vid=b353df94-dbc1-4a4f-9c5f-d306a6423118","ios":"levelo://app?vid=b353df94-dbc1-4a4f-9c5f-d306a6423118"},"vehicle_type_id":"4","last_reported":1702987988,"current_range_meters":17200,"station_id":"ce4bhg12rcd13ifvqf80","pricing_plan_id":"free"},{"bike_id":"e671f877-1555-4986-b679-38a8083c4d95","system_id":"levelo_inurba_marseille","lat":43.325233,"lon":5.414318,"is_reserved":false,"is_disabled":false,"rental_uris":{"android":"levelo://app?vid=e671f877-1555-4986-b679-38a8083c4d95","ios":"levelo://app?vid=e671f877-1555-4986-b679-38a8083c4d95"},"vehicle_type_id":"4","last_reported":1702987988,"current_range_meters":10400,"station_id":"ce4bhq12rcd13ifvqhhg","pricing_plan_id":"free"},{"bike_id":"bdec3685-3e7c-43e5-9a07-26a2ada5ac26","system_id":"levelo_inurba_marseille","lat":43.32537,"lon":5.41429,"is_reserved":false,"is_disabled":false,"rental_uris":{"android":"levelo://app?vid=bdec3685-3e7c-43e5-9a07-26a2ada5ac26","ios":"levelo://app?vid=bdec3685-3e7c-43e5-9a07-26a2ada5ac26"},"vehicle_type_id":"4","last_reported":1702987988,"current_range_meters":17600,"station_id":"ce4bhq12rcd13ifvqhhg","pricing_plan_id":"free"},{"bike_id":"27036c87-a858-4b77-aede-88f4be208859","system_id":"levelo_inurba_marseille","lat":43.292569,"lon":5.409107,"is_reserved":false,"is_disabled":false,"rental_uris":{"android":"levelo://app?vid=27036c87-a858-4b77-aede-88f4be208859","ios":"levelo://app?vid=27036c87-a858-4b77-aede-88f4be208859"},"vehicle_type_id":"4","last_reported":1702987988,"current_range_meters":21200,"station_id":"ce4bh192rcd13ifvqdc0","pricing_plan_id":"free"},{"bike_id":"5d2de208-b3a9-49e5-9649-856d95458138","system_id":"levelo_inurba_marseille","lat":43.27618,"lon":5.361009,"is_reserved":false,"is_disabled":false,"rental_uris":{"android":"levelo://app?vid=5d2de208-b3a9-49e5-9649-856d95458138","ios":"levelo://app?vid=5d2de208-b3a9-49e5-9649-856d95458138"},"vehicle_type_id":"4","last_reported":1702987988,"current_range_meters":11600,"station_id":"ce4bgj92rcd13ifvqbe0","pricing_plan_id":"free"},{"bike_id":"40686c10-84a4-405a-9cd7-375127e2b02d","system_id":"levelo_inurba_marseille","lat":43.325233,"lon":5.414318,"is_reserved":false,"is_disabled":false,"rental_uris":{"android":"levelo://app?vid=40686c10-84a4-405a-9cd7-375127e2b02d","ios":"levelo://app?vid=40686c10-84a4-405a-9cd7-375127e2b02d"},"vehicle_type_id":"4","last_reported":1702987988,"current_range_meters":23200,"station_id":"ce4bhq12rcd13ifvqhhg","pricing_plan_id":"free"},{"bike_id":"b73b1dc9-66f1-4f8b-9dc1-65b99e7137a5","system_id":"levelo_inurba_marseille","lat":43.325233,"lon":5.414318,"is_reserved":false,"is_disabled":false,"rental_uris":{"android":"levelo://app?vid=b73b1dc9-66f1-4f8b-9dc1-65b99e7137a5","ios":"levelo://app?vid=b73b1dc9-66f1-4f8b-9dc1-65b99e7137a5"},"vehicle_type_id":"4","last_reported":1702987988,"current_range_meters":32000,"station_id":"ce4bhq12rcd13ifvqhhg","pricing_plan_id":"free"},{"bike_id":"5b65099a-813a-49e7-a309-6e1e0570963f","system_id":"levelo_inurba_marseille","lat":43.280784,"lon":5.396622,"is_reserved":false,"is_disabled":false,"rental_uris":{"android":"levelo://app?vid=5b65099a-813a-49e7-a309-6e1e0570963f","ios":"levelo://app?vid=5b65099a-813a-49e7-a309-6e1e0570963f"},"vehicle_type_id":"4","last_reported":1702987988,"current_range_meters":29600,"station_id":"ce4bho12rcd13ifvqh2g","pricing_plan_id":"free"},{"bike_id":"3d1313e7-5b33-4e00-8169-fac0679bef62","system_id":"levelo_inurba_marseille","lat":43.280784,"lon":5.396622,"is_reserved":false,"is_disabled":false,"rental_uris":{"android":"levelo://app?vid=3d1313e7-5b33-4e00-8169-fac0679bef62","ios":"levelo://app?vid=3d1313e7-5b33-4e00-8169-fac0679bef62"},"vehicle_type_id":"4","last_reported":1702987988,"current_range_meters":17200,"station_id":"ce4bho12rcd13ifvqh2g","pricing_plan_id":"free"},{"bike_id":"a63a9a8c-d8f2-4ab6-af75-824df4a268f7","system_id":"levelo_inurba_marseille","lat":43.303837,"lon":5.418724,"is_reserved":false,"is_disabled":false,"rental_uris":{"android":"levelo://app?vid=a63a9a8c-d8f2-4ab6-af75-824df4a268f7","ios":"levelo://app?vid=a63a9a8c-d8f2-4ab6-af75-824df4a268f7"},"vehicle_type_id":"4","last_reported":1702987988,"current_range_meters":6000,"station_id":"ce4bhop2rcd13ifvqh7g","pricing_plan_id":"free"},{"bike_id":"15f826d3-ae76-4fba-968e-b76953699e67","system_id":"levelo_inurba_marseille","lat":43.275625,"lon":5.384392,"is_reserved":false,"is_disabled":false,"rental_uris":{"android":"levelo://app?vid=15f826d3-ae76-4fba-968e-b76953699e67","ios":"levelo://app?vid=15f826d3-ae76-4fba-968e-b76953699e67"},"vehicle_type_id":"4","last_reported":1702987988,"current_range_meters":30000,"station_id":"ce4bhh92rcd13ifvqfi0","pricing_plan_id":"free"},{"bike_id":"7d7af902-848c-49ee-93ed-e5f9352444cd","system_id":"levelo_inurba_marseille","lat":43.279952,"lon":5.400085,"is_reserved":false,"is_disabled":false,"rental_uris":{"android":"levelo://app?vid=7d7af902-848c-49ee-93ed-e5f9352444cd","ios":"levelo://app?vid=7d7af902-848c-49ee-93ed-e5f9352444cd"},"vehicle_type_id":"4","last_reported":1702987988,"current_range_meters":28800,"station_id":"ce4bho92rcd13ifvqh4g","pricing_plan_id":"free"},{"bike_id":"5f2c7fa8-4efa-4bda-ad6a-3652bb21d6a1","system_id":"levelo_inurba_marseille","lat":43.310785,"lon":5.424305,"is_reserved":false,"is_disabled":false,"rental_uris":{"android":"levelo://app?vid=5f2c7fa8-4efa-4bda-ad6a-3652bb21d6a1","ios":"levelo://app?vid=5f2c7fa8-4efa-4bda-ad6a-3652bb21d6a1"},"vehicle_type_id":"4","last_reported":1702987988,"current_range_meters":26000,"station_id":"ce4bhp92rcd13ifvqhag","pricing_plan_id":"free"},{"bike_id":"dcabf257-f11b-4907-b200-68471ff6fce9","system_id":"levelo_inurba_marseille","lat":43.340804,"lon":5.410219,"is_reserved":false,"is_disabled":false,"rental_uris":{"android":"levelo://app?vid=dcabf257-f11b-4907-b200-68471ff6fce9","ios":"levelo://app?vid=dcabf257-f11b-4907-b200-68471ff6fce9"},"vehicle_type_id":"4","last_reported":1702987988,"current_range_meters":17200,"station_id":"ce4bhqh2rcd13ifvqhlg","pricing_plan_id":"free"},{"bike_id":"974dc7db-ff3c-4554-8964-132f9db52d9b","system_id":"levelo_inurba_marseille","lat":43.276092,"lon":5.395289,"is_reserved":false,"is_disabled":false,"rental_uris":{"android":"levelo://app?vid=974dc7db-ff3c-4554-8964-132f9db52d9b","ios":"levelo://app?vid=974dc7db-ff3c-4554-8964-132f9db52d9b"},"vehicle_type_id":"4","last_reported":1702987988,"current_range_meters":7600,"station_id":"","pricing_plan_id":"free"},{"bike_id":"8686c724-e798-4f48-b857-fb167a1d5121","system_id":"levelo_inurba_marseille","lat":43.273125,"lon":5.390731,"is_reserved":false,"is_disabled":false,"rental_uris":{"android":"levelo://app?vid=8686c724-e798-4f48-b857-fb167a1d5121","ios":"levelo://app?vid=8686c724-e798-4f48-b857-fb167a1d5121"},"vehicle_type_id":"4","last_reported":1702987988,"current_range_meters":19600,"station_id":"ce4bhgp2rcd13ifvqfe0","pricing_plan_id":"free"},{"bike_id":"2a036fa2-4843-45ef-b799-de1bce10b328","system_id":"levelo_inurba_marseille","lat":43.273129,"lon":5.390725,"is_reserved":false,"is_disabled":false,"rental_uris":{"android":"levelo://app?vid=2a036fa2-4843-45ef-b799-de1bce10b328","ios":"levelo://app?vid=2a036fa2-4843-45ef-b799-de1bce10b328"},"vehicle_type_id":"4","last_reported":1702987988,"current_range_meters":18400,"station_id":"ce4bhgp2rcd13ifvqfe0","pricing_plan_id":"free"},{"bike_id":"e056d5ef-7bc9-47f9-8d7d-d79261ce5333","system_id":"levelo_inurba_marseille","lat":43.304096,"lon":5.425385,"is_reserved":false,"is_disabled":false,"rental_uris":{"android":"levelo://app?vid=e056d5ef-7bc9-47f9-8d7d-d79261ce5333","ios":"levelo://app?vid=e056d5ef-7bc9-47f9-8d7d-d79261ce5333"},"vehicle_type_id":"4","last_reported":1702987988,"current_range_meters":23600,"station_id":"ce4bhoh2rcd13ifvqh6g","pricing_plan_id":"free"},{"bike_id":"0c64b054-d16b-4184-a0d9-97b7fdc4bc96","system_id":"levelo_inurba_marseille","lat":43.304096,"lon":5.425385,"is_reserved":false,"is_disabled":false,"rental_uris":{"android":"levelo://app?vid=0c64b054-d16b-4184-a0d9-97b7fdc4bc96","ios":"levelo://app?vid=0c64b054-d16b-4184-a0d9-97b7fdc4bc96"},"vehicle_type_id":"4","last_reported":1702987988,"current_range_meters":28400,"station_id":"ce4bhoh2rcd13ifvqh6g","pricing_plan_id":"free"},{"bike_id":"cba248b0-f7de-4610-ae71-801a42bf5c59","system_id":"levelo_inurba_marseille","lat":43.304096,"lon":5.425385,"is_reserved":false,"is_disabled":false,"rental_uris":{"android":"levelo://app?vid=cba248b0-f7de-4610-ae71-801a42bf5c59","ios":"levelo://app?vid=cba248b0-f7de-4610-ae71-801a42bf5c59"},"vehicle_type_id":"4","last_reported":1702987988,"current_range_meters":20800,"station_id":"ce4bhoh2rcd13ifvqh6g","pricing_plan_id":"free"},{"bike_id":"3cfccba8-f3c6-422f-bec0-1d7a4825ad24","system_id":"levelo_inurba_marseille","lat":43.304096,"lon":5.425385,"is_reserved":false,"is_disabled":false,"rental_uris":{"android":"levelo://app?vid=3cfccba8-f3c6-422f-bec0-1d7a4825ad24","ios":"levelo://app?vid=3cfccba8-f3c6-422f-bec0-1d7a4825ad24"},"vehicle_type_id":"4","last_reported":1702987988,"current_range_meters":30000,"station_id":"ce4bhoh2rcd13ifvqh6g","pricing_plan_id":"free"},{"bike_id":"f0d927f9-4d81-4a61-9e75-257d4a0281cb","system_id":"levelo_inurba_marseille","lat":43.295522,"lon":5.422769,"is_reserved":false,"is_disabled":false,"rental_uris":{"android":"levelo://app?vid=f0d927f9-4d81-4a61-9e75-257d4a0281cb","ios":"levelo://app?vid=f0d927f9-4d81-4a61-9e75-257d4a0281cb"},"vehicle_type_id":"4","last_reported":1702987988,"current_range_meters":23600,"station_id":"ce4bhph2rcd13ifvqhdg","pricing_plan_id":"free"},{"bike_id":"b52ed3b8-5e6b-469c-9a28-752d38c3f626","system_id":"levelo_inurba_marseille","lat":43.295523,"lon":5.422926,"is_reserved":false,"is_disabled":false,"rental_uris":{"android":"levelo://app?vid=b52ed3b8-5e6b-469c-9a28-752d38c3f626","ios":"levelo://app?vid=b52ed3b8-5e6b-469c-9a28-752d38c3f626"},"vehicle_type_id":"4","last_reported":1702987988,"current_range_meters":30000,"station_id":"ce4bhph2rcd13ifvqhdg","pricing_plan_id":"free"},{"bike_id":"ca314493-3848-477b-95b3-e1722a7aef04","system_id":"levelo_inurba_marseille","lat":43.295177,"lon":5.422636,"is_reserved":false,"is_disabled":false,"rental_uris":{"android":"levelo://app?vid=ca314493-3848-477b-95b3-e1722a7aef04","ios":"levelo://app?vid=ca314493-3848-477b-95b3-e1722a7aef04"},"vehicle_type_id":"4","last_reported":1702987988,"current_range_meters":16000,"station_id":"ce4bhph2rcd13ifvqhdg","pricing_plan_id":"free"},{"bike_id":"ae77d7c6-e181-4594-811d-0a5420de0ee2","system_id":"levelo_inurba_marseille","lat":43.295511,"lon":5.422926,"is_reserved":false,"is_disabled":false,"rental_uris":{"android":"levelo://app?vid=ae77d7c6-e181-4594-811d-0a5420de0ee2","ios":"levelo://app?vid=ae77d7c6-e181-4594-811d-0a5420de0ee2"},"vehicle_type_id":"4","last_reported":1702987988,"current_range_meters":29200,"station_id":"ce4bhph2rcd13ifvqhdg","pricing_plan_id":"free"},{"bike_id":"1aaeade2-16f7-4c2d-b598-dfecd6c04985","system_id":"levelo_inurba_marseille","lat":43.29552,"lon":5.42288,"is_reserved":false,"is_disabled":false,"rental_uris":{"android":"levelo://app?vid=1aaeade2-16f7-4c2d-b598-dfecd6c04985","ios":"levelo://app?vid=1aaeade2-16f7-4c2d-b598-dfecd6c04985"},"vehicle_type_id":"4","last_reported":1702987988,"current_range_meters":19200,"station_id":"ce4bhph2rcd13ifvqhdg","pricing_plan_id":"free"},{"bike_id":"0a1cd994-e172-4cd0-a068-dd634a807942","system_id":"levelo_inurba_marseille","lat":43.272118,"lon":5.391758,"is_reserved":false,"is_disabled":false,"rental_uris":{"android":"levelo://app?vid=0a1cd994-e172-4cd0-a068-dd634a807942","ios":"levelo://app?vid=0a1cd994-e172-4cd0-a068-dd634a807942"},"vehicle_type_id":"4","last_reported":1702987988,"current_range_meters":19600,"station_id":"ce4bhhp2rcd13ifvqfm0","pricing_plan_id":"free"},{"bike_id":"f5ab8d74-7c35-4642-a3ba-547a1307ed09","system_id":"levelo_inurba_marseille","lat":43.27188,"lon":5.39224,"is_reserved":false,"is_disabled":false,"rental_uris":{"android":"levelo://app?vid=f5ab8d74-7c35-4642-a3ba-547a1307ed09","ios":"levelo://app?vid=f5ab8d74-7c35-4642-a3ba-547a1307ed09"},"vehicle_type_id":"4","last_reported":1702987988,"current_range_meters":10400,"station_id":"ce4bhhp2rcd13ifvqfm0","pricing_plan_id":"free"},{"bike_id":"f4189273-862e-426e-9a94-d3926cf17be2","system_id":"levelo_inurba_marseille","lat":43.278128,"lon":5.407195,"is_reserved":false,"is_disabled":false,"rental_uris":{"android":"levelo://app?vid=f4189273-862e-426e-9a94-d3926cf17be2","ios":"levelo://app?vid=f4189273-862e-426e-9a94-d3926cf17be2"},"vehicle_type_id":"4","last_reported":1702987988,"current_range_meters":19200,"station_id":"ce4bhnh2rcd13ifvqgtg","pricing_plan_id":"free"},{"bike_id":"942b092c-a1f1-4fce-8c52-690f9d1330c2","system_id":"levelo_inurba_marseille","lat":43.27815,"lon":5.40713,"is_reserved":false,"is_disabled":false,"rental_uris":{"android":"levelo://app?vid=942b092c-a1f1-4fce-8c52-690f9d1330c2","ios":"levelo://app?vid=942b092c-a1f1-4fce-8c52-690f9d1330c2"},"vehicle_type_id":"4","last_reported":1702987988,"current_range_meters":24400,"station_id":"ce4bhnh2rcd13ifvqgtg","pricing_plan_id":"free"},{"bike_id":"9516b638-b510-4b7a-900d-e7b8c20d2532","system_id":"levelo_inurba_marseille","lat":43.269467,"lon":5.386439,"is_reserved":false,"is_disabled":false,"rental_uris":{"android":"levelo://app?vid=9516b638-b510-4b7a-900d-e7b8c20d2532","ios":"levelo://app?vid=9516b638-b510-4b7a-900d-e7b8c20d2532"},"vehicle_type_id":"4","last_reported":1702987988,"current_range_meters":31200,"station_id":"ce4bhh92rcd13ifvqfh0","pricing_plan_id":"free"},{"bike_id":"73b208e6-fe39-4e4d-9003-370a2b13e863","system_id":"levelo_inurba_marseille","lat":43.269467,"lon":5.386439,"is_reserved":false,"is_disabled":false,"rental_uris":{"android":"levelo://app?vid=73b208e6-fe39-4e4d-9003-370a2b13e863","ios":"levelo://app?vid=73b208e6-fe39-4e4d-9003-370a2b13e863"},"vehicle_type_id":"4","last_reported":1702987988,"current_range_meters":16400,"station_id":"ce4bhh92rcd13ifvqfh0","pricing_plan_id":"free"},{"bike_id":"a8246e0b-77ae-4381-b0b4-6f31eced4fb3","system_id":"levelo_inurba_marseille","lat":43.269467,"lon":5.386439,"is_reserved":false,"is_disabled":false,"rental_uris":{"android":"levelo://app?vid=a8246e0b-77ae-4381-b0b4-6f31eced4fb3","ios":"levelo://app?vid=a8246e0b-77ae-4381-b0b4-6f31eced4fb3"},"vehicle_type_id":"4","last_reported":1702987988,"current_range_meters":25200,"station_id":"ce4bhh92rcd13ifvqfh0","pricing_plan_id":"free"},{"bike_id":"ab851479-28c1-4df6-a778-d6b92cb446db","system_id":"levelo_inurba_marseille","lat":43.269467,"lon":5.386439,"is_reserved":false,"is_disabled":false,"rental_uris":{"android":"levelo://app?vid=ab851479-28c1-4df6-a778-d6b92cb446db","ios":"levelo://app?vid=ab851479-28c1-4df6-a778-d6b92cb446db"},"vehicle_type_id":"4","last_reported":1702987988,"current_range_meters":24800,"station_id":"ce4bhh92rcd13ifvqfh0","pricing_plan_id":"free"},{"bike_id":"3c799b4a-34d2-4a91-a4fe-05bd8c0c0236","system_id":"levelo_inurba_marseille","lat":43.269467,"lon":5.386439,"is_reserved":false,"is_disabled":false,"rental_uris":{"android":"levelo://app?vid=3c799b4a-34d2-4a91-a4fe-05bd8c0c0236","ios":"levelo://app?vid=3c799b4a-34d2-4a91-a4fe-05bd8c0c0236"},"vehicle_type_id":"4","last_reported":1702987988,"current_range_meters":25200,"station_id":"ce4bhh92rcd13ifvqfh0","pricing_plan_id":"free"},{"bike_id":"ea9992bb-8cb6-456b-92ab-f59b8f786917","system_id":"levelo_inurba_marseille","lat":43.269467,"lon":5.386439,"is_reserved":false,"is_disabled":false,"rental_uris":{"android":"levelo://app?vid=ea9992bb-8cb6-456b-92ab-f59b8f786917","ios":"levelo://app?vid=ea9992bb-8cb6-456b-92ab-f59b8f786917"},"vehicle_type_id":"4","last_reported":1702987988,"current_range_meters":19200,"station_id":"ce4bhh92rcd13ifvqfh0","pricing_plan_id":"free"},{"bike_id":"e3551f9f-161e-4858-8a37-f3640ab6557d","system_id":"levelo_inurba_marseille","lat":43.279465,"lon":5.410561,"is_reserved":false,"is_disabled":false,"rental_uris":{"android":"levelo://app?vid=e3551f9f-161e-4858-8a37-f3640ab6557d","ios":"levelo://app?vid=e3551f9f-161e-4858-8a37-f3640ab6557d"},"vehicle_type_id":"4","last_reported":1702987988,"current_range_meters":19600,"station_id":"ce4bhnp2rcd13ifvqh0g","pricing_plan_id":"free"},{"bike_id":"d3083e8e-5e29-43bb-b79c-8e63241ad9f2","system_id":"levelo_inurba_marseille","lat":43.279465,"lon":5.410561,"is_reserved":false,"is_disabled":false,"rental_uris":{"android":"levelo://app?vid=d3083e8e-5e29-43bb-b79c-8e63241ad9f2","ios":"levelo://app?vid=d3083e8e-5e29-43bb-b79c-8e63241ad9f2"},"vehicle_type_id":"4","last_reported":1702987988,"current_range_meters":26400,"station_id":"ce4bhnp2rcd13ifvqh0g","pricing_plan_id":"free"},{"bike_id":"02b1d3f0-c498-44d6-93a0-0a038898d815","system_id":"levelo_inurba_marseille","lat":43.26681,"lon":5.382694,"is_reserved":false,"is_disabled":false,"rental_uris":{"android":"levelo://app?vid=02b1d3f0-c498-44d6-93a0-0a038898d815","ios":"levelo://app?vid=02b1d3f0-c498-44d6-93a0-0a038898d815"},"vehicle_type_id":"4","last_reported":1702987988,"current_range_meters":31200,"station_id":"ce4bhg92rcd13ifvqf90","pricing_plan_id":"free"},{"bike_id":"4332ea30-0649-4a88-a8f9-46d7928b6f43","system_id":"levelo_inurba_marseille","lat":43.26681,"lon":5.382694,"is_reserved":false,"is_disabled":false,"rental_uris":{"android":"levelo://app?vid=4332ea30-0649-4a88-a8f9-46d7928b6f43","ios":"levelo://app?vid=4332ea30-0649-4a88-a8f9-46d7928b6f43"},"vehicle_type_id":"4","last_reported":1702987988,"current_range_meters":32000,"station_id":"ce4bhg92rcd13ifvqf90","pricing_plan_id":"free"},{"bike_id":"06b7b265-d935-43f7-a456-7363db57abf8","system_id":"levelo_inurba_marseille","lat":43.26681,"lon":5.382694,"is_reserved":false,"is_disabled":false,"rental_uris":{"android":"levelo://app?vid=06b7b265-d935-43f7-a456-7363db57abf8","ios":"levelo://app?vid=06b7b265-d935-43f7-a456-7363db57abf8"},"vehicle_type_id":"4","last_reported":1702987988,"current_range_meters":22400,"station_id":"ce4bhg92rcd13ifvqf90","pricing_plan_id":"free"},{"bike_id":"2f9db770-4b0c-4859-8c9b-8725fa321336","system_id":"levelo_inurba_marseille","lat":43.26681,"lon":5.382694,"is_reserved":false,"is_disabled":false,"rental_uris":{"android":"levelo://app?vid=2f9db770-4b0c-4859-8c9b-8725fa321336","ios":"levelo://app?vid=2f9db770-4b0c-4859-8c9b-8725fa321336"},"vehicle_type_id":"4","last_reported":1702987988,"current_range_meters":7200,"station_id":"ce4bhg92rcd13ifvqf90","pricing_plan_id":"free"},{"bike_id":"a30270aa-6149-4043-bdb5-78431470d13d","system_id":"levelo_inurba_marseille","lat":43.26681,"lon":5.382694,"is_reserved":false,"is_disabled":false,"rental_uris":{"android":"levelo://app?vid=a30270aa-6149-4043-bdb5-78431470d13d","ios":"levelo://app?vid=a30270aa-6149-4043-bdb5-78431470d13d"},"vehicle_type_id":"4","last_reported":1702987988,"current_range_meters":18800,"station_id":"ce4bhg92rcd13ifvqf90","pricing_plan_id":"free"},{"bike_id":"d040d53f-bf65-407f-9276-ca3609a61713","system_id":"levelo_inurba_marseille","lat":43.26681,"lon":5.382694,"is_reserved":false,"is_disabled":false,"rental_uris":{"android":"levelo://app?vid=d040d53f-bf65-407f-9276-ca3609a61713","ios":"levelo://app?vid=d040d53f-bf65-407f-9276-ca3609a61713"},"vehicle_type_id":"4","last_reported":1702987988,"current_range_meters":32000,"station_id":"ce4bhg92rcd13ifvqf90","pricing_plan_id":"free"},{"bike_id":"ac8d2520-91cc-4adc-97cd-0b51dabb02dc","system_id":"levelo_inurba_marseille","lat":43.265714,"lon":5.372891,"is_reserved":false,"is_disabled":false,"rental_uris":{"android":"levelo://app?vid=ac8d2520-91cc-4adc-97cd-0b51dabb02dc","ios":"levelo://app?vid=ac8d2520-91cc-4adc-97cd-0b51dabb02dc"},"vehicle_type_id":"4","last_reported":1702987988,"current_range_meters":16000,"station_id":"ce4bhg12rcd13ifvqf70","pricing_plan_id":"free"},{"bike_id":"cffaa6c5-3ecc-4a74-ac3c-46412ab746a8","system_id":"levelo_inurba_marseille","lat":43.265569,"lon":5.390047,"is_reserved":false,"is_disabled":false,"rental_uris":{"android":"levelo://app?vid=cffaa6c5-3ecc-4a74-ac3c-46412ab746a8","ios":"levelo://app?vid=cffaa6c5-3ecc-4a74-ac3c-46412ab746a8"},"vehicle_type_id":"4","last_reported":1702987988,"current_range_meters":10000,"station_id":"ce4bhe12rcd13ifvqf30","pricing_plan_id":"free"},{"bike_id":"b66b4b5c-cb91-459d-a193-ef981ae9fcc3","system_id":"levelo_inurba_marseille","lat":43.265569,"lon":5.390047,"is_reserved":false,"is_disabled":false,"rental_uris":{"android":"levelo://app?vid=b66b4b5c-cb91-459d-a193-ef981ae9fcc3","ios":"levelo://app?vid=b66b4b5c-cb91-459d-a193-ef981ae9fcc3"},"vehicle_type_id":"4","last_reported":1702987988,"current_range_meters":22400,"station_id":"ce4bhe12rcd13ifvqf30","pricing_plan_id":"free"},{"bike_id":"be0f9c0c-3649-4f56-8542-bad8b6470e3d","system_id":"levelo_inurba_marseille","lat":43.26949,"lon":5.40262,"is_reserved":false,"is_disabled":false,"rental_uris":{"android":"levelo://app?vid=be0f9c0c-3649-4f56-8542-bad8b6470e3d","ios":"levelo://app?vid=be0f9c0c-3649-4f56-8542-bad8b6470e3d"},"vehicle_type_id":"4","last_reported":1702987988,"current_range_meters":5200,"station_id":"cjm6bp8fraef2m0cb0m0","pricing_plan_id":"free"},{"bike_id":"7cd01c5d-a4b4-47d2-a9be-31dd0049aea8","system_id":"levelo_inurba_marseille","lat":43.26949,"lon":5.40262,"is_reserved":false,"is_disabled":false,"rental_uris":{"android":"levelo://app?vid=7cd01c5d-a4b4-47d2-a9be-31dd0049aea8","ios":"levelo://app?vid=7cd01c5d-a4b4-47d2-a9be-31dd0049aea8"},"vehicle_type_id":"4","last_reported":1702987988,"current_range_meters":17200,"station_id":"cjm6bp8fraef2m0cb0m0","pricing_plan_id":"free"},{"bike_id":"b14c10a9-5c53-45e3-b347-a8126550dcac","system_id":"levelo_inurba_marseille","lat":43.26681,"lon":5.382694,"is_reserved":false,"is_disabled":false,"rental_uris":{"android":"levelo://app?vid=b14c10a9-5c53-45e3-b347-a8126550dcac","ios":"levelo://app?vid=b14c10a9-5c53-45e3-b347-a8126550dcac"},"vehicle_type_id":"4","last_reported":1702987988,"current_range_meters":26000,"station_id":"ce4bhg92rcd13ifvqf90","pricing_plan_id":"free"},{"bike_id":"7374ef88-6f05-482f-89c0-c8bd213ca304","system_id":"levelo_inurba_marseille","lat":43.26193,"lon":5.3744,"is_reserved":false,"is_disabled":false,"rental_uris":{"android":"levelo://app?vid=7374ef88-6f05-482f-89c0-c8bd213ca304","ios":"levelo://app?vid=7374ef88-6f05-482f-89c0-c8bd213ca304"},"vehicle_type_id":"4","last_reported":1702987988,"current_range_meters":30000,"station_id":"ce4bhgp2rcd13ifvqfc0","pricing_plan_id":"free"},{"bike_id":"40826c17-9673-4d61-bcfa-2a413144fb57","system_id":"levelo_inurba_marseille","lat":43.261782,"lon":5.374515,"is_reserved":false,"is_disabled":false,"rental_uris":{"android":"levelo://app?vid=40826c17-9673-4d61-bcfa-2a413144fb57","ios":"levelo://app?vid=40826c17-9673-4d61-bcfa-2a413144fb57"},"vehicle_type_id":"4","last_reported":1702987988,"current_range_meters":16800,"station_id":"ce4bhgp2rcd13ifvqfc0","pricing_plan_id":"free"},{"bike_id":"80910aa8-0b36-46c5-b32e-6fd4fcf175d5","system_id":"levelo_inurba_marseille","lat":43.261782,"lon":5.374515,"is_reserved":false,"is_disabled":false,"rental_uris":{"android":"levelo://app?vid=80910aa8-0b36-46c5-b32e-6fd4fcf175d5","ios":"levelo://app?vid=80910aa8-0b36-46c5-b32e-6fd4fcf175d5"},"vehicle_type_id":"4","last_reported":1702987988,"current_range_meters":32000,"station_id":"ce4bhgp2rcd13ifvqfc0","pricing_plan_id":"free"},{"bike_id":"067df923-1955-42a0-8ba4-79c36454123d","system_id":"levelo_inurba_marseille","lat":43.261782,"lon":5.374515,"is_reserved":false,"is_disabled":false,"rental_uris":{"android":"levelo://app?vid=067df923-1955-42a0-8ba4-79c36454123d","ios":"levelo://app?vid=067df923-1955-42a0-8ba4-79c36454123d"},"vehicle_type_id":"4","last_reported":1702987988,"current_range_meters":22400,"station_id":"ce4bhgp2rcd13ifvqfc0","pricing_plan_id":"free"},{"bike_id":"d42e088a-3f0f-4cc6-93db-fc894e6bc35f","system_id":"levelo_inurba_marseille","lat":43.261782,"lon":5.374515,"is_reserved":false,"is_disabled":false,"rental_uris":{"android":"levelo://app?vid=d42e088a-3f0f-4cc6-93db-fc894e6bc35f","ios":"levelo://app?vid=d42e088a-3f0f-4cc6-93db-fc894e6bc35f"},"vehicle_type_id":"4","last_reported":1702987988,"current_range_meters":23600,"station_id":"ce4bhgp2rcd13ifvqfc0","pricing_plan_id":"free"},{"bike_id":"af773fba-0514-4085-aaa6-9a24022684ec","system_id":"levelo_inurba_marseille","lat":43.271388,"lon":5.409269,"is_reserved":false,"is_disabled":false,"rental_uris":{"android":"levelo://app?vid=af773fba-0514-4085-aaa6-9a24022684ec","ios":"levelo://app?vid=af773fba-0514-4085-aaa6-9a24022684ec"},"vehicle_type_id":"4","last_reported":1702987988,"current_range_meters":31200,"station_id":"ce4bhl12rcd13ifvqgf0","pricing_plan_id":"free"},{"bike_id":"3f1f1e7d-4ff2-49fd-85bf-4cb4257e3933","system_id":"levelo_inurba_marseille","lat":43.298768,"lon":5.43643,"is_reserved":false,"is_disabled":false,"rental_uris":{"android":"levelo://app?vid=3f1f1e7d-4ff2-49fd-85bf-4cb4257e3933","ios":"levelo://app?vid=3f1f1e7d-4ff2-49fd-85bf-4cb4257e3933"},"vehicle_type_id":"4","last_reported":1702987988,"current_range_meters":30800,"station_id":"ce4bhpp2rcd13ifvqhfg","pricing_plan_id":"free"},{"bike_id":"9545216d-af81-4cd5-aa01-549e07cee63d","system_id":"levelo_inurba_marseille","lat":43.260225,"lon":5.375455,"is_reserved":false,"is_disabled":false,"rental_uris":{"android":"levelo://app?vid=9545216d-af81-4cd5-aa01-549e07cee63d","ios":"levelo://app?vid=9545216d-af81-4cd5-aa01-549e07cee63d"},"vehicle_type_id":"4","last_reported":1702987988,"current_range_meters":31200,"station_id":"ce4bhgh2rcd13ifvqfa0","pricing_plan_id":"free"},{"bike_id":"473ad542-d152-44a0-8b05-a545ac18d3ff","system_id":"levelo_inurba_marseille","lat":43.260219,"lon":5.37546,"is_reserved":false,"is_disabled":false,"rental_uris":{"android":"levelo://app?vid=473ad542-d152-44a0-8b05-a545ac18d3ff","ios":"levelo://app?vid=473ad542-d152-44a0-8b05-a545ac18d3ff"},"vehicle_type_id":"4","last_reported":1702987988,"current_range_meters":28400,"station_id":"ce4bhgh2rcd13ifvqfa0","pricing_plan_id":"free"},{"bike_id":"bed4464d-91c8-4a72-930e-d8ca8ee11286","system_id":"levelo_inurba_marseille","lat":43.281548,"lon":5.42643,"is_reserved":false,"is_disabled":false,"rental_uris":{"android":"levelo://app?vid=bed4464d-91c8-4a72-930e-d8ca8ee11286","ios":"levelo://app?vid=bed4464d-91c8-4a72-930e-d8ca8ee11286"},"vehicle_type_id":"4","last_reported":1702987988,"current_range_meters":23200,"station_id":"ce4bhnh2rcd13ifvqgug","pricing_plan_id":"free"},{"bike_id":"f44ffd77-f617-409c-889a-2aaef3ee6375","system_id":"levelo_inurba_marseille","lat":43.2607,"lon":5.393983,"is_reserved":false,"is_disabled":false,"rental_uris":{"android":"levelo://app?vid=f44ffd77-f617-409c-889a-2aaef3ee6375","ios":"levelo://app?vid=f44ffd77-f617-409c-889a-2aaef3ee6375"},"vehicle_type_id":"4","last_reported":1702987988,"current_range_meters":28400,"station_id":"ce4bhh92rcd13ifvqfj0","pricing_plan_id":"free"},{"bike_id":"0ac78daa-80e0-4da7-9421-091ef36057c7","system_id":"levelo_inurba_marseille","lat":43.27497,"lon":5.42449,"is_reserved":false,"is_disabled":false,"rental_uris":{"android":"levelo://app?vid=0ac78daa-80e0-4da7-9421-091ef36057c7","ios":"levelo://app?vid=0ac78daa-80e0-4da7-9421-091ef36057c7"},"vehicle_type_id":"4","last_reported":1702987988,"current_range_meters":20000,"station_id":"ce4bhn92rcd13ifvqgrg","pricing_plan_id":"free"},{"bike_id":"8522c370-1ba4-40c4-baef-01b0b19354a8","system_id":"levelo_inurba_marseille","lat":43.275028,"lon":5.424534,"is_reserved":false,"is_disabled":false,"rental_uris":{"android":"levelo://app?vid=8522c370-1ba4-40c4-baef-01b0b19354a8","ios":"levelo://app?vid=8522c370-1ba4-40c4-baef-01b0b19354a8"},"vehicle_type_id":"4","last_reported":1702987988,"current_range_meters":20400,"station_id":"ce4bhn92rcd13ifvqgrg","pricing_plan_id":"free"},{"bike_id":"d6f435ba-4bf8-46a2-8514-9e919c5ff01a","system_id":"levelo_inurba_marseille","lat":43.275028,"lon":5.424534,"is_reserved":false,"is_disabled":false,"rental_uris":{"android":"levelo://app?vid=d6f435ba-4bf8-46a2-8514-9e919c5ff01a","ios":"levelo://app?vid=d6f435ba-4bf8-46a2-8514-9e919c5ff01a"},"vehicle_type_id":"4","last_reported":1702987988,"current_range_meters":29600,"station_id":"ce4bhn92rcd13ifvqgrg","pricing_plan_id":"free"},{"bike_id":"1c1f9cf6-f7a1-45f2-8f68-fad4c454897f","system_id":"levelo_inurba_marseille","lat":43.27495,"lon":5.42451,"is_reserved":false,"is_disabled":false,"rental_uris":{"android":"levelo://app?vid=1c1f9cf6-f7a1-45f2-8f68-fad4c454897f","ios":"levelo://app?vid=1c1f9cf6-f7a1-45f2-8f68-fad4c454897f"},"vehicle_type_id":"4","last_reported":1702987988,"current_range_meters":2000,"station_id":"ce4bhn92rcd13ifvqgrg","pricing_plan_id":"free"},{"bike_id":"f27de55b-24dc-49f6-a978-077789efb37d","system_id":"levelo_inurba_marseille","lat":43.274933,"lon":5.424495,"is_reserved":false,"is_disabled":false,"rental_uris":{"android":"levelo://app?vid=f27de55b-24dc-49f6-a978-077789efb37d","ios":"levelo://app?vid=f27de55b-24dc-49f6-a978-077789efb37d"},"vehicle_type_id":"4","last_reported":1702987988,"current_range_meters":28400,"station_id":"ce4bhn92rcd13ifvqgrg","pricing_plan_id":"free"},{"bike_id":"e5c0e845-5529-4741-88ec-85be98a6be97","system_id":"levelo_inurba_marseille","lat":43.275028,"lon":5.424534,"is_reserved":false,"is_disabled":false,"rental_uris":{"android":"levelo://app?vid=e5c0e845-5529-4741-88ec-85be98a6be97","ios":"levelo://app?vid=e5c0e845-5529-4741-88ec-85be98a6be97"},"vehicle_type_id":"4","last_reported":1702987988,"current_range_meters":24800,"station_id":"ce4bhn92rcd13ifvqgrg","pricing_plan_id":"free"},{"bike_id":"3b3f4c5c-2522-4a5c-a457-891155ce9028","system_id":"levelo_inurba_marseille","lat":43.27495,"lon":5.42458,"is_reserved":false,"is_disabled":false,"rental_uris":{"android":"levelo://app?vid=3b3f4c5c-2522-4a5c-a457-891155ce9028","ios":"levelo://app?vid=3b3f4c5c-2522-4a5c-a457-891155ce9028"},"vehicle_type_id":"4","last_reported":1702987988,"current_range_meters":20800,"station_id":"ce4bhn92rcd13ifvqgrg","pricing_plan_id":"free"},{"bike_id":"c4473f4c-d6b6-4314-9df6-434f3f1f360e","system_id":"levelo_inurba_marseille","lat":43.27494,"lon":5.42459,"is_reserved":false,"is_disabled":false,"rental_uris":{"android":"levelo://app?vid=c4473f4c-d6b6-4314-9df6-434f3f1f360e","ios":"levelo://app?vid=c4473f4c-d6b6-4314-9df6-434f3f1f360e"},"vehicle_type_id":"4","last_reported":1702987988,"current_range_meters":24800,"station_id":"ce4bhn92rcd13ifvqgrg","pricing_plan_id":"free"},{"bike_id":"c0304c10-42b7-4fa4-b6c8-caae3b7a8e3e","system_id":"levelo_inurba_marseille","lat":43.275028,"lon":5.424534,"is_reserved":false,"is_disabled":false,"rental_uris":{"android":"levelo://app?vid=c0304c10-42b7-4fa4-b6c8-caae3b7a8e3e","ios":"levelo://app?vid=c0304c10-42b7-4fa4-b6c8-caae3b7a8e3e"},"vehicle_type_id":"4","last_reported":1702987988,"current_range_meters":32000,"station_id":"ce4bhn92rcd13ifvqgrg","pricing_plan_id":"free"},{"bike_id":"804f8995-f1e5-482c-897e-4cf11c1d732b","system_id":"levelo_inurba_marseille","lat":43.25581,"lon":5.38228,"is_reserved":false,"is_disabled":false,"rental_uris":{"android":"levelo://app?vid=804f8995-f1e5-482c-897e-4cf11c1d732b","ios":"levelo://app?vid=804f8995-f1e5-482c-897e-4cf11c1d732b"},"vehicle_type_id":"4","last_reported":1702987988,"current_range_meters":20400,"station_id":"ce4bhih2rcd13ifvqfs0","pricing_plan_id":"free"},{"bike_id":"dc8783d1-f86d-4651-969e-6ebdb1904dc7","system_id":"levelo_inurba_marseille","lat":43.25825,"lon":5.39437,"is_reserved":false,"is_disabled":false,"rental_uris":{"android":"levelo://app?vid=dc8783d1-f86d-4651-969e-6ebdb1904dc7","ios":"levelo://app?vid=dc8783d1-f86d-4651-969e-6ebdb1904dc7"},"vehicle_type_id":"4","last_reported":1702987988,"current_range_meters":0,"station_id":"ce4bhip2rcd13ifvqft0","pricing_plan_id":"free"},{"bike_id":"3c7609fe-5cbf-484c-be43-aacc8e953f7b","system_id":"levelo_inurba_marseille","lat":43.258224,"lon":5.394369,"is_reserved":false,"is_disabled":false,"rental_uris":{"android":"levelo://app?vid=3c7609fe-5cbf-484c-be43-aacc8e953f7b","ios":"levelo://app?vid=3c7609fe-5cbf-484c-be43-aacc8e953f7b"},"vehicle_type_id":"4","last_reported":1702987988,"current_range_meters":31200,"station_id":"ce4bhip2rcd13ifvqft0","pricing_plan_id":"free"},{"bike_id":"f8fc4981-bab0-462f-9ef0-0d1a14fd2279","system_id":"levelo_inurba_marseille","lat":43.255763,"lon":5.382245,"is_reserved":false,"is_disabled":false,"rental_uris":{"android":"levelo://app?vid=f8fc4981-bab0-462f-9ef0-0d1a14fd2279","ios":"levelo://app?vid=f8fc4981-bab0-462f-9ef0-0d1a14fd2279"},"vehicle_type_id":"4","last_reported":1702987988,"current_range_meters":14800,"station_id":"","pricing_plan_id":"free"},{"bike_id":"1cdc7c9b-5784-4896-9cba-1bc4f33c1b25","system_id":"levelo_inurba_marseille","lat":43.254947,"lon":5.376454,"is_reserved":false,"is_disabled":false,"rental_uris":{"android":"levelo://app?vid=1cdc7c9b-5784-4896-9cba-1bc4f33c1b25","ios":"levelo://app?vid=1cdc7c9b-5784-4896-9cba-1bc4f33c1b25"},"vehicle_type_id":"4","last_reported":1702987988,"current_range_meters":20800,"station_id":"ce4bhh12rcd13ifvqff0","pricing_plan_id":"free"},{"bike_id":"997e48cc-0789-45e3-9e1b-e65b63d193c2","system_id":"levelo_inurba_marseille","lat":43.254947,"lon":5.376454,"is_reserved":false,"is_disabled":false,"rental_uris":{"android":"levelo://app?vid=997e48cc-0789-45e3-9e1b-e65b63d193c2","ios":"levelo://app?vid=997e48cc-0789-45e3-9e1b-e65b63d193c2"},"vehicle_type_id":"4","last_reported":1702987988,"current_range_meters":11200,"station_id":"ce4bhh12rcd13ifvqff0","pricing_plan_id":"free"},{"bike_id":"8046536d-cd85-4381-9c70-3d1572654f25","system_id":"levelo_inurba_marseille","lat":43.2549,"lon":5.37648,"is_reserved":false,"is_disabled":false,"rental_uris":{"android":"levelo://app?vid=8046536d-cd85-4381-9c70-3d1572654f25","ios":"levelo://app?vid=8046536d-cd85-4381-9c70-3d1572654f25"},"vehicle_type_id":"4","last_reported":1702987988,"current_range_meters":28400,"station_id":"ce4bhh12rcd13ifvqff0","pricing_plan_id":"free"},{"bike_id":"1f69052f-dfef-4705-9898-3fcd84310bdc","system_id":"levelo_inurba_marseille","lat":43.270721,"lon":5.422764,"is_reserved":false,"is_disabled":false,"rental_uris":{"android":"levelo://app?vid=1f69052f-dfef-4705-9898-3fcd84310bdc","ios":"levelo://app?vid=1f69052f-dfef-4705-9898-3fcd84310bdc"},"vehicle_type_id":"4","last_reported":1702987988,"current_range_meters":31200,"station_id":"ce4bhk92rcd13ifvqgb0","pricing_plan_id":"free"},{"bike_id":"0800482d-9b2a-4c79-8203-94b10ca4d573","system_id":"levelo_inurba_marseille","lat":43.27071,"lon":5.42284,"is_reserved":false,"is_disabled":false,"rental_uris":{"android":"levelo://app?vid=0800482d-9b2a-4c79-8203-94b10ca4d573","ios":"levelo://app?vid=0800482d-9b2a-4c79-8203-94b10ca4d573"},"vehicle_type_id":"4","last_reported":1702987988,"current_range_meters":26400,"station_id":"ce4bhk92rcd13ifvqgb0","pricing_plan_id":"free"},{"bike_id":"f335d351-fea3-41a0-84d4-84fc4308857e","system_id":"levelo_inurba_marseille","lat":43.258658,"lon":5.398935,"is_reserved":false,"is_disabled":false,"rental_uris":{"android":"levelo://app?vid=f335d351-fea3-41a0-84d4-84fc4308857e","ios":"levelo://app?vid=f335d351-fea3-41a0-84d4-84fc4308857e"},"vehicle_type_id":"4","last_reported":1702987988,"current_range_meters":22800,"station_id":"ce4bhl92rcd13ifvqghg","pricing_plan_id":"free"},{"bike_id":"00b4317e-de2b-46aa-9a0f-80fa7fe59b36","system_id":"levelo_inurba_marseille","lat":43.258658,"lon":5.398935,"is_reserved":false,"is_disabled":false,"rental_uris":{"android":"levelo://app?vid=00b4317e-de2b-46aa-9a0f-80fa7fe59b36","ios":"levelo://app?vid=00b4317e-de2b-46aa-9a0f-80fa7fe59b36"},"vehicle_type_id":"4","last_reported":1702987988,"current_range_meters":29600,"station_id":"ce4bhl92rcd13ifvqghg","pricing_plan_id":"free"},{"bike_id":"00fc2920-f1ef-493e-86c6-2773d644ccb6","system_id":"levelo_inurba_marseille","lat":43.259009,"lon":5.40929,"is_reserved":false,"is_disabled":false,"rental_uris":{"android":"levelo://app?vid=00fc2920-f1ef-493e-86c6-2773d644ccb6","ios":"levelo://app?vid=00fc2920-f1ef-493e-86c6-2773d644ccb6"},"vehicle_type_id":"4","last_reported":1702987988,"current_range_meters":20800,"station_id":"ce4bhm92rcd13ifvqglg","pricing_plan_id":"free"},{"bike_id":"50d8603a-af94-4721-afae-17e9532c6c45","system_id":"levelo_inurba_marseille","lat":43.259009,"lon":5.40929,"is_reserved":false,"is_disabled":false,"rental_uris":{"android":"levelo://app?vid=50d8603a-af94-4721-afae-17e9532c6c45","ios":"levelo://app?vid=50d8603a-af94-4721-afae-17e9532c6c45"},"vehicle_type_id":"4","last_reported":1702987988,"current_range_meters":20400,"station_id":"ce4bhm92rcd13ifvqglg","pricing_plan_id":"free"},{"bike_id":"bec2a237-ec91-4b74-86ef-288c8bcb5bba","system_id":"levelo_inurba_marseille","lat":43.259009,"lon":5.40929,"is_reserved":false,"is_disabled":false,"rental_uris":{"android":"levelo://app?vid=bec2a237-ec91-4b74-86ef-288c8bcb5bba","ios":"levelo://app?vid=bec2a237-ec91-4b74-86ef-288c8bcb5bba"},"vehicle_type_id":"4","last_reported":1702987988,"current_range_meters":23600,"station_id":"ce4bhm92rcd13ifvqglg","pricing_plan_id":"free"},{"bike_id":"4c880749-6dec-4f89-bb9d-cbb293820304","system_id":"levelo_inurba_marseille","lat":43.259009,"lon":5.40929,"is_reserved":false,"is_disabled":false,"rental_uris":{"android":"levelo://app?vid=4c880749-6dec-4f89-bb9d-cbb293820304","ios":"levelo://app?vid=4c880749-6dec-4f89-bb9d-cbb293820304"},"vehicle_type_id":"4","last_reported":1702987988,"current_range_meters":6400,"station_id":"ce4bhm92rcd13ifvqglg","pricing_plan_id":"free"},{"bike_id":"5875cf93-dde1-453f-9bfc-673ef43a1ef0","system_id":"levelo_inurba_marseille","lat":43.259009,"lon":5.40929,"is_reserved":false,"is_disabled":false,"rental_uris":{"android":"levelo://app?vid=5875cf93-dde1-453f-9bfc-673ef43a1ef0","ios":"levelo://app?vid=5875cf93-dde1-453f-9bfc-673ef43a1ef0"},"vehicle_type_id":"4","last_reported":1702987988,"current_range_meters":21200,"station_id":"ce4bhm92rcd13ifvqglg","pricing_plan_id":"free"},{"bike_id":"df0097ff-8019-424b-bb8e-3d519d31aeb1","system_id":"levelo_inurba_marseille","lat":43.250009,"lon":5.389195,"is_reserved":false,"is_disabled":false,"rental_uris":{"android":"levelo://app?vid=df0097ff-8019-424b-bb8e-3d519d31aeb1","ios":"levelo://app?vid=df0097ff-8019-424b-bb8e-3d519d31aeb1"},"vehicle_type_id":"4","last_reported":1702987988,"current_range_meters":31200,"station_id":"ce4bhgp2rcd13ifvqfd0","pricing_plan_id":"free"},{"bike_id":"cd72f790-4ceb-4e44-81fb-1c24832b5199","system_id":"levelo_inurba_marseille","lat":43.250023,"lon":5.38919,"is_reserved":false,"is_disabled":false,"rental_uris":{"android":"levelo://app?vid=cd72f790-4ceb-4e44-81fb-1c24832b5199","ios":"levelo://app?vid=cd72f790-4ceb-4e44-81fb-1c24832b5199"},"vehicle_type_id":"4","last_reported":1702987988,"current_range_meters":30000,"station_id":"ce4bhgp2rcd13ifvqfd0","pricing_plan_id":"free"},{"bike_id":"95bf4a3b-39d9-472d-8c8b-e4f1024f1b16","system_id":"levelo_inurba_marseille","lat":43.24811,"lon":5.3746,"is_reserved":false,"is_disabled":false,"rental_uris":{"android":"levelo://app?vid=95bf4a3b-39d9-472d-8c8b-e4f1024f1b16","ios":"levelo://app?vid=95bf4a3b-39d9-472d-8c8b-e4f1024f1b16"},"vehicle_type_id":"4","last_reported":1702987988,"current_range_meters":0,"station_id":"ce4bhgh2rcd13ifvqfb0","pricing_plan_id":"free"},{"bike_id":"f74230ba-b946-49c8-965a-f3d58b59d3d4","system_id":"levelo_inurba_marseille","lat":43.250966,"lon":5.395186,"is_reserved":false,"is_disabled":false,"rental_uris":{"android":"levelo://app?vid=f74230ba-b946-49c8-965a-f3d58b59d3d4","ios":"levelo://app?vid=f74230ba-b946-49c8-965a-f3d58b59d3d4"},"vehicle_type_id":"4","last_reported":1702987988,"current_range_meters":23200,"station_id":"ce4bhm12rcd13ifvqgkg","pricing_plan_id":"free"},{"bike_id":"aa2b98b6-9df8-44a2-b9e1-545e26671592","system_id":"levelo_inurba_marseille","lat":43.25102,"lon":5.403214,"is_reserved":false,"is_disabled":false,"rental_uris":{"android":"levelo://app?vid=aa2b98b6-9df8-44a2-b9e1-545e26671592","ios":"levelo://app?vid=aa2b98b6-9df8-44a2-b9e1-545e26671592"},"vehicle_type_id":"4","last_reported":1702987988,"current_range_meters":21200,"station_id":"ce4bhlh2rcd13ifvqgig","pricing_plan_id":"free"},{"bike_id":"0214baf3-c224-4654-9b77-d10008a046b5","system_id":"levelo_inurba_marseille","lat":43.25102,"lon":5.403214,"is_reserved":false,"is_disabled":false,"rental_uris":{"android":"levelo://app?vid=0214baf3-c224-4654-9b77-d10008a046b5","ios":"levelo://app?vid=0214baf3-c224-4654-9b77-d10008a046b5"},"vehicle_type_id":"4","last_reported":1702987988,"current_range_meters":24800,"station_id":"ce4bhlh2rcd13ifvqgig","pricing_plan_id":"free"},{"bike_id":"440e2292-d803-49ac-8a93-b43fb8a50cb3","system_id":"levelo_inurba_marseille","lat":43.25102,"lon":5.403214,"is_reserved":false,"is_disabled":false,"rental_uris":{"android":"levelo://app?vid=440e2292-d803-49ac-8a93-b43fb8a50cb3","ios":"levelo://app?vid=440e2292-d803-49ac-8a93-b43fb8a50cb3"},"vehicle_type_id":"4","last_reported":1702987988,"current_range_meters":10800,"station_id":"ce4bhlh2rcd13ifvqgig","pricing_plan_id":"free"},{"bike_id":"193f4956-6ecb-495f-880a-f15714376bba","system_id":"levelo_inurba_marseille","lat":43.246461,"lon":5.389014,"is_reserved":false,"is_disabled":false,"rental_uris":{"android":"levelo://app?vid=193f4956-6ecb-495f-880a-f15714376bba","ios":"levelo://app?vid=193f4956-6ecb-495f-880a-f15714376bba"},"vehicle_type_id":"4","last_reported":1702987988,"current_range_meters":29200,"station_id":"ce4bhg12rcd13ifvqf60","pricing_plan_id":"free"},{"bike_id":"f533e1d6-4874-4a5d-ae0a-070b4fd23b9a","system_id":"levelo_inurba_marseille","lat":43.240623,"lon":5.377642,"is_reserved":false,"is_disabled":false,"rental_uris":{"android":"levelo://app?vid=f533e1d6-4874-4a5d-ae0a-070b4fd23b9a","ios":"levelo://app?vid=f533e1d6-4874-4a5d-ae0a-070b4fd23b9a"},"vehicle_type_id":"4","last_reported":1702987988,"current_range_meters":21600,"station_id":"ce4bhnp2rcd13ifvqgvg","pricing_plan_id":"free"},{"bike_id":"965fa32e-3c84-4347-9f74-e98b21103a94","system_id":"levelo_inurba_marseille","lat":43.240623,"lon":5.377642,"is_reserved":false,"is_disabled":false,"rental_uris":{"android":"levelo://app?vid=965fa32e-3c84-4347-9f74-e98b21103a94","ios":"levelo://app?vid=965fa32e-3c84-4347-9f74-e98b21103a94"},"vehicle_type_id":"4","last_reported":1702987988,"current_range_meters":12800,"station_id":"ce4bhnp2rcd13ifvqgvg","pricing_plan_id":"free"},{"bike_id":"af11e2b0-b4f5-4d3a-8c38-b9abb87d52f8","system_id":"levelo_inurba_marseille","lat":43.240623,"lon":5.377642,"is_reserved":false,"is_disabled":false,"rental_uris":{"android":"levelo://app?vid=af11e2b0-b4f5-4d3a-8c38-b9abb87d52f8","ios":"levelo://app?vid=af11e2b0-b4f5-4d3a-8c38-b9abb87d52f8"},"vehicle_type_id":"4","last_reported":1702987988,"current_range_meters":17600,"station_id":"ce4bhnp2rcd13ifvqgvg","pricing_plan_id":"free"},{"bike_id":"f383bbf8-a31a-44a4-903a-c2e09b8f69c9","system_id":"levelo_inurba_marseille","lat":43.240623,"lon":5.377642,"is_reserved":false,"is_disabled":false,"rental_uris":{"android":"levelo://app?vid=f383bbf8-a31a-44a4-903a-c2e09b8f69c9","ios":"levelo://app?vid=f383bbf8-a31a-44a4-903a-c2e09b8f69c9"},"vehicle_type_id":"4","last_reported":1702987988,"current_range_meters":29600,"station_id":"ce4bhnp2rcd13ifvqgvg","pricing_plan_id":"free"},{"bike_id":"7c41bd73-c271-447a-99f3-84880f0750f2","system_id":"levelo_inurba_marseille","lat":43.240623,"lon":5.377642,"is_reserved":false,"is_disabled":false,"rental_uris":{"android":"levelo://app?vid=7c41bd73-c271-447a-99f3-84880f0750f2","ios":"levelo://app?vid=7c41bd73-c271-447a-99f3-84880f0750f2"},"vehicle_type_id":"4","last_reported":1702987988,"current_range_meters":16000,"station_id":"ce4bhnp2rcd13ifvqgvg","pricing_plan_id":"free"},{"bike_id":"1239951e-752f-4a5f-b29d-b8225e3f6eb5","system_id":"levelo_inurba_marseille","lat":43.240623,"lon":5.377642,"is_reserved":false,"is_disabled":false,"rental_uris":{"android":"levelo://app?vid=1239951e-752f-4a5f-b29d-b8225e3f6eb5","ios":"levelo://app?vid=1239951e-752f-4a5f-b29d-b8225e3f6eb5"},"vehicle_type_id":"4","last_reported":1702987988,"current_range_meters":16000,"station_id":"ce4bhnp2rcd13ifvqgvg","pricing_plan_id":"free"},{"bike_id":"897fb750-56e6-4092-9321-97fce8c309a2","system_id":"levelo_inurba_marseille","lat":43.240623,"lon":5.377642,"is_reserved":false,"is_disabled":false,"rental_uris":{"android":"levelo://app?vid=897fb750-56e6-4092-9321-97fce8c309a2","ios":"levelo://app?vid=897fb750-56e6-4092-9321-97fce8c309a2"},"vehicle_type_id":"4","last_reported":1702987988,"current_range_meters":6800,"station_id":"ce4bhnp2rcd13ifvqgvg","pricing_plan_id":"free"},{"bike_id":"73ace906-341b-40e9-b198-90f9bc20a9b2","system_id":"levelo_inurba_marseille","lat":43.240623,"lon":5.377642,"is_reserved":false,"is_disabled":false,"rental_uris":{"android":"levelo://app?vid=73ace906-341b-40e9-b198-90f9bc20a9b2","ios":"levelo://app?vid=73ace906-341b-40e9-b198-90f9bc20a9b2"},"vehicle_type_id":"4","last_reported":1702987988,"current_range_meters":18800,"station_id":"ce4bhnp2rcd13ifvqgvg","pricing_plan_id":"free"},{"bike_id":"faf7571f-98f0-4e5b-8487-06f0d5633c0c","system_id":"levelo_inurba_marseille","lat":43.240623,"lon":5.377642,"is_reserved":false,"is_disabled":false,"rental_uris":{"android":"levelo://app?vid=faf7571f-98f0-4e5b-8487-06f0d5633c0c","ios":"levelo://app?vid=faf7571f-98f0-4e5b-8487-06f0d5633c0c"},"vehicle_type_id":"4","last_reported":1702987988,"current_range_meters":18400,"station_id":"ce4bhnp2rcd13ifvqgvg","pricing_plan_id":"free"},{"bike_id":"668dc7ac-5ed9-4df5-b0af-1d6e3f4e7c77","system_id":"levelo_inurba_marseille","lat":43.240623,"lon":5.377642,"is_reserved":false,"is_disabled":false,"rental_uris":{"android":"levelo://app?vid=668dc7ac-5ed9-4df5-b0af-1d6e3f4e7c77","ios":"levelo://app?vid=668dc7ac-5ed9-4df5-b0af-1d6e3f4e7c77"},"vehicle_type_id":"4","last_reported":1702987988,"current_range_meters":31200,"station_id":"ce4bhnp2rcd13ifvqgvg","pricing_plan_id":"free"},