{"last_updated":1767366733,"ttl":60,"version":"2.2","data":{"bikes":[{"bike_id":"3282aea1-9bed-44e6-a833-eea50b551ac8","system_id":"levelo_inurba_marseille","lat":43.26927,"lon":5.38919,"is_reserved":false,"is_disabled":false,"rental_uris":{"android":"levelo://app?vid=3282aea1-9bed-44e6-a833-eea50b551ac8","ios":"levelo://app?vid=3282aea1-9bed-44e6-a833-eea50b551ac8"},"vehicle_type_id":"4","last_reported":1767366733,"current_range_meters":2800,"station_id":"ce4bhhh2rcd13ifvqfl0","pricing_plan_id":"cebpf4jnsgd1na2vs0mg"},{"bike_id":"511ef639-6465-4a99-b234-834e209f6dd9","system_id":"levelo_inurba_marseille","lat":43.29026,"lon":5.35604,"is_reserved":false,"is_disabled":false,"rental_uris":{"android":"levelo://app?vid=511ef639-6465-4a99-b234-834e209f6dd9","ios":"levelo://app?vid=511ef639-6465-4a99-b234-834e209f6dd9"},"vehicle_type_id":"4","last_reported":1767366733,"current_range_meters":2800,"station_id":"ce4bhb92rcd13ifvqen0","pricing_plan_id":"cebpf4jnsgd1na2vs0mg"},{"bike_id":"eef596e1-c15c-414e-b2d7-639d05ffb26f","system_id":"levelo_inurba_marseille","lat":43.29008,"lon":5.35592,"is_reserved":false,"is_disabled":false,"rental_uris":{"android":"levelo://app?vid=eef596e1-c15c-414e-b2d7-639d05ffb26f","ios":"levelo://app?vid=eef596e1-c15c-414e-b2d7-639d05ffb26f"},"vehicle_type_id":"4","last_reported":1767366733,"current_range_meters":2800,"station_id":"ce4bhb92rcd13ifvqen0","pricing_plan_id":"cebpf4jnsgd1na2vs0mg"},{"bike_id":"f4d931c1-2c16-4c38-b61d-ce86ae56fffa","system_id":"levelo_inurba_marseille","lat":43.30595,"lon":5.37229,"is_reserved":false,"is_disabled":false,"rental_uris":{"android":"levelo://app?vid=f4d931c1-2c16-4c38-b61d-ce86ae56fffa","ios":"levelo://app?vid=f4d931c1-2c16-4c38-b61d-ce86ae56fffa"},"vehicle_type_id":"4","last_reported":1767366733,"current_range_meters":2800,"station_id":"ce4bgqh2rcd13ifvqc4g","pricing_plan_id":"cebpf4jnsgd1na2vs0mg"},{"bike_id":"36d74e8b-e7bb-45a9-b561-7cf5df285571","system_id":"levelo_inurba_marseille","lat":43.29172,"lon":5.37157,"is_reserved":false,"is_disabled":false,"rental_uris":{"android":"levelo://app?vid=36d74e8b-e7bb-45a9-b561-7cf5df285571","ios":"levelo://app?vid=36d74e8b-e7bb-45a9-b561-7cf5df285571"},"vehicle_type_id":"4","last_reported":1767366733,"current_range_meters":2800,"station_id":"ce4bha92rcd13ifvqeh0","pricing_plan_id":"cebpf4jnsgd1na2vs0mg"},{"bike_id":"0d8b64dc-d3a4-4c37-80be-c48d945a81e3","system_id":"levelo_inurba_marseille","lat":43.28455,"lon":5.38571,"is_reserved":false,"is_disabled":false,"rental_uris":{"android":"levelo://app?vid=0d8b64dc-d3a4-4c37-80be-c48d945a81e3","ios":"levelo://app?vid=0d8b64dc-d3a4-4c37-80be-c48d945a81e3"},"vehicle_type_id":"4","last_reported":1767366733,"current_range_meters":2800,"station_id":"ce4bh8p2rcd13ifvqeb0","pricing_plan_id":"cebpf4jnsgd1na2vs0mg"},{"bike_id":"23dd68b5-83fe-4e9e-b59e-9beb906eba90","system_id":"levelo_inurba_marseille","lat":43.28411,"lon":5.34967,"is_reserved":false,"is_disabled":false,"rental_uris":{"android":"levelo://app?vid=23dd68b5-83fe-4e9e-b59e-9beb906eba90","ios":"levelo://app?vid=23dd68b5-83fe-4e9e-b59e-9beb906eba90"},"vehicle_type_id":"4","last_reported":1767366733,"current_range_meters":2800,"station_id":"ce4bhbh2rcd13ifvqepg","pricing_plan_id":"cebpf4jnsgd1na2vs0mg"},{"bike_id":"f5874137-eb3e-444b-8ed1-e05ae39e6b15","system_id":"levelo_inurba_marseille","lat":43.290033,"lon":5.356034,"is_reserved":false,"is_disabled":false,"rental_uris":{"android":"levelo://app?vid=f5874137-eb3e-444b-8ed1-e05ae39e6b15","ios":"levelo://app?vid=f5874137-eb3e-444b-8ed1-e05ae39e6b15"},"vehicle_type_id":"4","last_reported":1767366733,"current_range_meters":2800,"station_id":"","pricing_plan_id":"cebpf4jnsgd1na2vs0mg"},{"bike_id":"edb144c4-7934-4963-a970-3320a0ca02a8","system_id":"levelo_inurba_marseille","lat":43.21766,"lon":5.34604,"is_reserved":false,"is_disabled":false,"rental_uris":{"android":"levelo://app?vid=edb144c4-7934-4963-a970-3320a0ca02a8","ios":"levelo://app?vid=edb144c4-7934-4963-a970-3320a0ca02a8"},"vehicle_type_id":"4","last_reported":1767366733,"current_range_meters":2800,"station_id":"st_cvj6r9ubvosntc0bgbag","pricing_plan_id":"cebpf4jnsgd1na2vs0mg"},{"bike_id":"f9e9fd89-b7c6-4e84-90bb-2a2dc045365a","system_id":"levelo_inurba_marseille","lat":43.25917,"lon":5.40913,"is_reserved":false,"is_disabled":false,"rental_uris":{"android":"levelo://app?vid=f9e9fd89-b7c6-4e84-90bb-2a2dc045365a","ios":"levelo://app?vid=f9e9fd89-b7c6-4e84-90bb-2a2dc045365a"},"vehicle_type_id":"4","last_reported":1767366733,"current_range_meters":2800,"station_id":"ce4bhm92rcd13ifvqglg","pricing_plan_id":"cebpf4jnsgd1na2vs0mg"},{"bike_id":"9e8ce63b-7fdb-459c-9880-aedf818d47ff","system_id":"levelo_inurba_marseille","lat":43.273718,"lon":5.362661,"is_reserved":false,"is_disabled":false,"rental_uris":{"android":"levelo://app?vid=9e8ce63b-7fdb-459c-9880-aedf818d47ff","ios":"levelo://app?vid=9e8ce63b-7fdb-459c-9880-aedf818d47ff"},"vehicle_type_id":"4","last_reported":1767366733,"current_range_meters":3200,"station_id":"ce4bhbh2rcd13ifvqeo0","pricing_plan_id":"cebpf4jnsgd1na2vs0mg"},{"bike_id":"ca7ad85d-25c8-4c23-9813-aca9ed6afbac","system_id":"levelo_inurba_marseille","lat":43.29293,"lon":5.37456,"is_reserved":false,"is_disabled":false,"rental_uris":{"android":"levelo://app?vid=ca7ad85d-25c8-4c23-9813-aca9ed6afbac","ios":"levelo://app?vid=ca7ad85d-25c8-4c23-9813-aca9ed6afbac"},"vehicle_type_id":"4","last_reported":1767366733,"current_range_meters":3200,"station_id":"ce4bgi12rcd13ifvqb70","pricing_plan_id":"cebpf4jnsgd1na2vs0mg"},{"bike_id":"37bd9d9d-c1e9-45db-a535-1fba11d49103","system_id":"levelo_inurba_marseille","lat":43.297139,"lon":5.365984,"is_reserved":false,"is_disabled":false,"rental_uris":{"android":"levelo://app?vid=37bd9d9d-c1e9-45db-a535-1fba11d49103","ios":"levelo://app?vid=37bd9d9d-c1e9-45db-a535-1fba11d49103"},"vehicle_type_id":"4","last_reported":1767366733,"current_range_meters":3200,"station_id":"","pricing_plan_id":"cebpf4jnsgd1na2vs0mg"},{"bike_id":"b5f80a1c-7345-44ae-9c2d-843287ace1f8","system_id":"levelo_inurba_marseille","lat":43.27435,"lon":5.42456,"is_reserved":false,"is_disabled":false,"rental_uris":{"android":"levelo://app?vid=b5f80a1c-7345-44ae-9c2d-843287ace1f8","ios":"levelo://app?vid=b5f80a1c-7345-44ae-9c2d-843287ace1f8"},"vehicle_type_id":"4","last_reported":1767366733,"current_range_meters":3200,"station_id":"","pricing_plan_id":"cebpf4jnsgd1na2vs0mg"},{"bike_id":"9e5dafc7-f2da-4d0b-b668-e32cc043ceb4","system_id":"levelo_inurba_marseille","lat":43.28047,"lon":5.40073,"is_reserved":false,"is_disabled":false,"rental_uris":{"android":"levelo://app?vid=9e5dafc7-f2da-4d0b-b668-e32cc043ceb4","ios":"levelo://app?vid=9e5dafc7-f2da-4d0b-b668-e32cc043ceb4"},"vehicle_type_id":"4","last_reported":1767366733,"current_range_meters":3200,"station_id":"","pricing_plan_id":"cebpf4jnsgd1na2vs0mg"},{"bike_id":"e81f6402-b575-44f8-9405-25f53ea6d92c","system_id":"levelo_inurba_marseille","lat":43.29577,"lon":5.37508,"is_reserved":false,"is_disabled":false,"rental_uris":{"android":"levelo://app?vid=e81f6402-b575-44f8-9405-25f53ea6d92c","ios":"levelo://app?vid=e81f6402-b575-44f8-9405-25f53ea6d92c"},"vehicle_type_id":"4","last_reported":1767366733,"current_range_meters":3200,"station_id":"ce4bgh92rcd13ifvqb50","pricing_plan_id":"cebpf4jnsgd1na2vs0mg"},{"bike_id":"1df6f2eb-8ce6-46dd-9e05-521b6341b098","system_id":"levelo_inurba_marseille","lat":43.29259,"lon":5.38441,"is_reserved":false,"is_disabled":false,"rental_uris":{"android":"levelo://app?vid=1df6f2eb-8ce6-46dd-9e05-521b6341b098","ios":"levelo://app?vid=1df6f2eb-8ce6-46dd-9e05-521b6341b098"},"vehicle_type_id":"4","last_reported":1767366733,"current_range_meters":3200,"station_id":"ce4bh692rcd13ifvqea0","pricing_plan_id":"cebpf4jnsgd1na2vs0mg"},{"bike_id":"a89fcd65-3d18-45df-add8-bd4009ee6f38","system_id":"levelo_inurba_marseille","lat":43.27367,"lon":5.36255,"is_reserved":false,"is_disabled":false,"rental_uris":{"android":"levelo://app?vid=a89fcd65-3d18-45df-add8-bd4009ee6f38","ios":"levelo://app?vid=a89fcd65-3d18-45df-add8-bd4009ee6f38"},"vehicle_type_id":"4","last_reported":1767366733,"current_range_meters":3600,"station_id":"ce4bhbh2rcd13ifvqeo0","pricing_plan_id":"cebpf4jnsgd1na2vs0mg"},{"bike_id":"bab6c1c2-f12e-46d9-a502-3cafe8a0028a","system_id":"levelo_inurba_marseille","lat":43.28485,"lon":5.38408,"is_reserved":false,"is_disabled":false,"rental_uris":{"android":"levelo://app?vid=bab6c1c2-f12e-46d9-a502-3cafe8a0028a","ios":"levelo://app?vid=bab6c1c2-f12e-46d9-a502-3cafe8a0028a"},"vehicle_type_id":"4","last_reported":1767366733,"current_range_meters":3600,"station_id":"ce4bh512rcd13ifvqe3g","pricing_plan_id":"cebpf4jnsgd1na2vs0mg"},{"bike_id":"bac91e1c-a1f5-447f-acb7-9e5dc2afb6b4","system_id":"levelo_inurba_marseille","lat":43.27919,"lon":5.39577,"is_reserved":false,"is_disabled":false,"rental_uris":{"android":"levelo://app?vid=bac91e1c-a1f5-447f-acb7-9e5dc2afb6b4","ios":"levelo://app?vid=bac91e1c-a1f5-447f-acb7-9e5dc2afb6b4"},"vehicle_type_id":"4","last_reported":1767366733,"current_range_meters":3600,"station_id":"ce4bhf92rcd13ifvqf40","pricing_plan_id":"cebpf4jnsgd1na2vs0mg"},{"bike_id":"b7b45069-db90-481b-990e-3ae29014917e","system_id":"levelo_inurba_marseille","lat":43.29601,"lon":5.380991,"is_reserved":false,"is_disabled":false,"rental_uris":{"android":"levelo://app?vid=b7b45069-db90-481b-990e-3ae29014917e","ios":"levelo://app?vid=b7b45069-db90-481b-990e-3ae29014917e"},"vehicle_type_id":"4","last_reported":1767366733,"current_range_meters":3600,"station_id":"ce4bgl12rcd13ifvqbo0","pricing_plan_id":"cebpf4jnsgd1na2vs0mg"},{"bike_id":"5c7b4edf-b831-4a38-8100-8520e77e0367","system_id":"levelo_inurba_marseille","lat":43.2923,"lon":5.36072,"is_reserved":false,"is_disabled":false,"rental_uris":{"android":"levelo://app?vid=5c7b4edf-b831-4a38-8100-8520e77e0367","ios":"levelo://app?vid=5c7b4edf-b831-4a38-8100-8520e77e0367"},"vehicle_type_id":"4","last_reported":1767366733,"current_range_meters":3600,"station_id":"ce4bhbh2rcd13ifvqeqg","pricing_plan_id":"cebpf4jnsgd1na2vs0mg"},{"bike_id":"56239029-2555-45d5-8255-1067c8875012","system_id":"levelo_inurba_marseille","lat":43.30307,"lon":5.36893,"is_reserved":false,"is_disabled":false,"rental_uris":{"android":"levelo://app?vid=56239029-2555-45d5-8255-1067c8875012","ios":"levelo://app?vid=56239029-2555-45d5-8255-1067c8875012"},"vehicle_type_id":"4","last_reported":1767366733,"current_range_meters":3600,"station_id":"ce4bgqh2rcd13ifvqc5g","pricing_plan_id":"cebpf4jnsgd1na2vs0mg"},{"bike_id":"963c86c3-395b-4cc4-9220-f82de5ab570d","system_id":"levelo_inurba_marseille","lat":43.28485,"lon":5.38415,"is_reserved":false,"is_disabled":false,"rental_uris":{"android":"levelo://app?vid=963c86c3-395b-4cc4-9220-f82de5ab570d","ios":"levelo://app?vid=963c86c3-395b-4cc4-9220-f82de5ab570d"},"vehicle_type_id":"4","last_reported":1767366733,"current_range_meters":4000,"station_id":"ce4bh512rcd13ifvqe3g","pricing_plan_id":"cebpf4jnsgd1na2vs0mg"},{"bike_id":"7f8bc2f4-3256-4176-a803-fa7e148de4c6","system_id":"levelo_inurba_marseille","lat":43.243653,"lon":5.408556,"is_reserved":false,"is_disabled":false,"rental_uris":{"android":"levelo://app?vid=7f8bc2f4-3256-4176-a803-fa7e148de4c6","ios":"levelo://app?vid=7f8bc2f4-3256-4176-a803-fa7e148de4c6"},"vehicle_type_id":"4","last_reported":1767366733,"current_range_meters":4000,"station_id":"","pricing_plan_id":"cebpf4jnsgd1na2vs0mg"},{"bike_id":"ca3f2db3-b93a-4ad8-90f8-de36e33fe8b4","system_id":"levelo_inurba_marseille","lat":43.225329,"lon":5.348285,"is_reserved":false,"is_disabled":false,"rental_uris":{"android":"levelo://app?vid=ca3f2db3-b93a-4ad8-90f8-de36e33fe8b4","ios":"levelo://app?vid=ca3f2db3-b93a-4ad8-90f8-de36e33fe8b4"},"vehicle_type_id":"4","last_reported":1767366733,"current_range_meters":4000,"station_id":"","pricing_plan_id":"cebpf4jnsgd1na2vs0mg"},{"bike_id":"a7b72f1d-402b-4c49-bfdc-aeef5ca27b2b","system_id":"levelo_inurba_marseille","lat":43.27682,"lon":5.38864,"is_reserved":false,"is_disabled":false,"rental_uris":{"android":"levelo://app?vid=a7b72f1d-402b-4c49-bfdc-aeef5ca27b2b","ios":"levelo://app?vid=a7b72f1d-402b-4c49-bfdc-aeef5ca27b2b"},"vehicle_type_id":"4","last_reported":1767366733,"current_range_meters":4000,"station_id":"ce4bhi12rcd13ifvqfo0","pricing_plan_id":"cebpf4jnsgd1na2vs0mg"},{"bike_id":"ea5031e4-b749-4d48-ba29-71e8d8d5383b","system_id":"levelo_inurba_marseille","lat":43.26402,"lon":5.37394,"is_reserved":false,"is_disabled":false,"rental_uris":{"android":"levelo://app?vid=ea5031e4-b749-4d48-ba29-71e8d8d5383b","ios":"levelo://app?vid=ea5031e4-b749-4d48-ba29-71e8d8d5383b"},"vehicle_type_id":"4","last_reported":1767366733,"current_range_meters":4000,"station_id":"","pricing_plan_id":"cebpf4jnsgd1na2vs0mg"},{"bike_id":"ca2a4141-2d11-4724-ae9a-5df9c6e34715","system_id":"levelo_inurba_marseille","lat":43.24661,"lon":5.38871,"is_reserved":false,"is_disabled":false,"rental_uris":{"android":"levelo://app?vid=ca2a4141-2d11-4724-ae9a-5df9c6e34715","ios":"levelo://app?vid=ca2a4141-2d11-4724-ae9a-5df9c6e34715"},"vehicle_type_id":"4","last_reported":1767366733,"current_range_meters":4000,"station_id":"ce4bhg12rcd13ifvqf60","pricing_plan_id":"cebpf4jnsgd1na2vs0mg"},{"bike_id":"63b905f2-fa78-42d1-b404-57450ef3b697","system_id":"levelo_inurba_marseille","lat":43.29914,"lon":5.37489,"is_reserved":false,"is_disabled":false,"rental_uris":{"android":"levelo://app?vid=63b905f2-fa78-42d1-b404-57450ef3b697","ios":"levelo://app?vid=63b905f2-fa78-42d1-b404-57450ef3b697"},"vehicle_type_id":"4","last_reported":1767366733,"current_range_meters":4000,"station_id":"ce4bgjh2rcd13ifvqbg0","pricing_plan_id":"cebpf4jnsgd1na2vs0mg"},{"bike_id":"d6a5d85a-c29d-4472-a9ac-7dc14fcba280","system_id":"levelo_inurba_marseille","lat":43.2732,"lon":5.39077,"is_reserved":false,"is_disabled":false,"rental_uris":{"android":"levelo://app?vid=d6a5d85a-c29d-4472-a9ac-7dc14fcba280","ios":"levelo://app?vid=d6a5d85a-c29d-4472-a9ac-7dc14fcba280"},"vehicle_type_id":"4","last_reported":1767366733,"current_range_meters":4000,"station_id":"ce4bhgp2rcd13ifvqfe0","pricing_plan_id":"cebpf4jnsgd1na2vs0mg"},{"bike_id":"10082815-dbf9-4a48-b9bb-b7d9a21347fa","system_id":"levelo_inurba_marseille","lat":43.21736,"lon":5.34598,"is_reserved":false,"is_disabled":false,"rental_uris":{"android":"levelo://app?vid=10082815-dbf9-4a48-b9bb-b7d9a21347fa","ios":"levelo://app?vid=10082815-dbf9-4a48-b9bb-b7d9a21347fa"},"vehicle_type_id":"4","last_reported":1767366733,"current_range_meters":4000,"station_id":"st_cvj6r9ubvosntc0bgbag","pricing_plan_id":"cebpf4jnsgd1na2vs0mg"},{"bike_id":"84e86dfc-b61a-42c1-93b8-a112038f791b","system_id":"levelo_inurba_marseille","lat":43.28614,"lon":5.35108,"is_reserved":false,"is_disabled":false,"rental_uris":{"android":"levelo://app?vid=84e86dfc-b61a-42c1-93b8-a112038f791b","ios":"levelo://app?vid=84e86dfc-b61a-42c1-93b8-a112038f791b"},"vehicle_type_id":"4","last_reported":1767366733,"current_range_meters":4000,"station_id":"ce4bhch2rcd13ifvqeug","pricing_plan_id":"cebpf4jnsgd1na2vs0mg"},{"bike_id":"71b139ef-f789-4fb4-a5c9-6b07fff96957","system_id":"levelo_inurba_marseille","lat":43.29614,"lon":5.38091,"is_reserved":false,"is_disabled":false,"rental_uris":{"android":"levelo://app?vid=71b139ef-f789-4fb4-a5c9-6b07fff96957","ios":"levelo://app?vid=71b139ef-f789-4fb4-a5c9-6b07fff96957"},"vehicle_type_id":"4","last_reported":1767366733,"current_range_meters":4400,"station_id":"ce4bgl12rcd13ifvqbo0","pricing_plan_id":"cebpf4jnsgd1na2vs0mg"},{"bike_id":"050e959a-9871-4f6e-9753-b712be43446d","system_id":"levelo_inurba_marseille","lat":43.26567,"lon":5.37317,"is_reserved":false,"is_disabled":false,"rental_uris":{"android":"levelo://app?vid=050e959a-9871-4f6e-9753-b712be43446d","ios":"levelo://app?vid=050e959a-9871-4f6e-9753-b712be43446d"},"vehicle_type_id":"4","last_reported":1767366733,"current_range_meters":4400,"station_id":"ce4bhg12rcd13ifvqf70","pricing_plan_id":"cebpf4jnsgd1na2vs0mg"},{"bike_id":"5fb6044e-9e86-4cd7-8369-9dae8661f801","system_id":"levelo_inurba_marseille","lat":43.26554,"lon":5.40345,"is_reserved":false,"is_disabled":false,"rental_uris":{"android":"levelo://app?vid=5fb6044e-9e86-4cd7-8369-9dae8661f801","ios":"levelo://app?vid=5fb6044e-9e86-4cd7-8369-9dae8661f801"},"vehicle_type_id":"4","last_reported":1767366733,"current_range_meters":4400,"station_id":"ce4bhmp2rcd13ifvqgng","pricing_plan_id":"cebpf4jnsgd1na2vs0mg"},{"bike_id":"92840846-0c51-4b75-b1e9-a8352316ac69","system_id":"levelo_inurba_marseille","lat":43.2861,"lon":5.3706,"is_reserved":false,"is_disabled":false,"rental_uris":{"android":"levelo://app?vid=92840846-0c51-4b75-b1e9-a8352316ac69","ios":"levelo://app?vid=92840846-0c51-4b75-b1e9-a8352316ac69"},"vehicle_type_id":"4","last_reported":1767366733,"current_range_meters":4400,"station_id":"ce4bht12rcd13ifvqi60","pricing_plan_id":"cebpf4jnsgd1na2vs0mg"},{"bike_id":"205fdab9-cf95-45a4-97ac-58ff7cd8d956","system_id":"levelo_inurba_marseille","lat":43.297872,"lon":5.403994,"is_reserved":false,"is_disabled":false,"rental_uris":{"android":"levelo://app?vid=205fdab9-cf95-45a4-97ac-58ff7cd8d956","ios":"levelo://app?vid=205fdab9-cf95-45a4-97ac-58ff7cd8d956"},"vehicle_type_id":"4","last_reported":1767366733,"current_range_meters":4400,"station_id":"ce4bh112rcd13ifvqd90","pricing_plan_id":"cebpf4jnsgd1na2vs0mg"},{"bike_id":"650cf425-f87e-4c30-9156-354d5fef94cd","system_id":"levelo_inurba_marseille","lat":43.30131,"lon":5.36723,"is_reserved":false,"is_disabled":false,"rental_uris":{"android":"levelo://app?vid=650cf425-f87e-4c30-9156-354d5fef94cd","ios":"levelo://app?vid=650cf425-f87e-4c30-9156-354d5fef94cd"},"vehicle_type_id":"4","last_reported":1767366733,"current_range_meters":4400,"station_id":"","pricing_plan_id":"cebpf4jnsgd1na2vs0mg"},{"bike_id":"71feabac-18bb-4c38-9f1c-553d18ed10d6","system_id":"levelo_inurba_marseille","lat":43.29603,"lon":5.37178,"is_reserved":false,"is_disabled":false,"rental_uris":{"android":"levelo://app?vid=71feabac-18bb-4c38-9f1c-553d18ed10d6","ios":"levelo://app?vid=71feabac-18bb-4c38-9f1c-553d18ed10d6"},"vehicle_type_id":"4","last_reported":1767366733,"current_range_meters":4400,"station_id":"ce4bgnh2rcd13ifvqc0g","pricing_plan_id":"cebpf4jnsgd1na2vs0mg"},{"bike_id":"2418b0ea-c658-45ec-b4c3-7a8e0d344da9","system_id":"levelo_inurba_marseille","lat":43.246227,"lon":5.388511,"is_reserved":false,"is_disabled":false,"rental_uris":{"android":"levelo://app?vid=2418b0ea-c658-45ec-b4c3-7a8e0d344da9","ios":"levelo://app?vid=2418b0ea-c658-45ec-b4c3-7a8e0d344da9"},"vehicle_type_id":"4","last_reported":1767366733,"current_range_meters":4400,"station_id":"ce4bhg12rcd13ifvqf60","pricing_plan_id":"cebpf4jnsgd1na2vs0mg"},{"bike_id":"68cae0a8-5152-442a-bb6c-73da28f06bb1","system_id":"levelo_inurba_marseille","lat":43.27818,"lon":5.407109,"is_reserved":false,"is_disabled":false,"rental_uris":{"android":"levelo://app?vid=68cae0a8-5152-442a-bb6c-73da28f06bb1","ios":"levelo://app?vid=68cae0a8-5152-442a-bb6c-73da28f06bb1"},"vehicle_type_id":"4","last_reported":1767366733,"current_range_meters":4400,"station_id":"ce4bhnh2rcd13ifvqgtg","pricing_plan_id":"cebpf4jnsgd1na2vs0mg"},{"bike_id":"aabacd76-f112-4181-b100-4cb3a61c2bcf","system_id":"levelo_inurba_marseille","lat":43.29263,"lon":5.38447,"is_reserved":false,"is_disabled":false,"rental_uris":{"android":"levelo://app?vid=aabacd76-f112-4181-b100-4cb3a61c2bcf","ios":"levelo://app?vid=aabacd76-f112-4181-b100-4cb3a61c2bcf"},"vehicle_type_id":"4","last_reported":1767366733,"current_range_meters":4400,"station_id":"ce4bh692rcd13ifvqea0","pricing_plan_id":"cebpf4jnsgd1na2vs0mg"},{"bike_id":"4443e18d-5376-4af7-b6ad-67b62d3aa606","system_id":"levelo_inurba_marseille","lat":43.23805,"lon":5.36652,"is_reserved":false,"is_disabled":false,"rental_uris":{"android":"levelo://app?vid=4443e18d-5376-4af7-b6ad-67b62d3aa606","ios":"levelo://app?vid=4443e18d-5376-4af7-b6ad-67b62d3aa606"},"vehicle_type_id":"4","last_reported":1767366733,"current_range_meters":4400,"station_id":"st_d3nk18o9ro0c73en2l3g","pricing_plan_id":"cebpf4jnsgd1na2vs0mg"},{"bike_id":"c5eccde9-0e47-4ebf-8703-27d083300362","system_id":"levelo_inurba_marseille","lat":43.21746,"lon":5.34603,"is_reserved":false,"is_disabled":false,"rental_uris":{"android":"levelo://app?vid=c5eccde9-0e47-4ebf-8703-27d083300362","ios":"levelo://app?vid=c5eccde9-0e47-4ebf-8703-27d083300362"},"vehicle_type_id":"4","last_reported":1767366733,"current_range_meters":4400,"station_id":"st_cvj6r9ubvosntc0bgbag","pricing_plan_id":"cebpf4jnsgd1na2vs0mg"},{"bike_id":"c4e0cf5e-2998-4b98-ace6-4071a76bb0c4","system_id":"levelo_inurba_marseille","lat":43.255,"lon":5.37652,"is_reserved":false,"is_disabled":false,"rental_uris":{"android":"levelo://app?vid=c4e0cf5e-2998-4b98-ace6-4071a76bb0c4","ios":"levelo://app?vid=c4e0cf5e-2998-4b98-ace6-4071a76bb0c4"},"vehicle_type_id":"4","last_reported":1767366733,"current_range_meters":4800,"station_id":"ce4bhh12rcd13ifvqff0","pricing_plan_id":"cebpf4jnsgd1na2vs0mg"},{"bike_id":"02382ba1-c53a-4d54-ae09-ac85bbe6d34b","system_id":"levelo_inurba_marseille","lat":43.29304,"lon":5.37445,"is_reserved":false,"is_disabled":false,"rental_uris":{"android":"levelo://app?vid=02382ba1-c53a-4d54-ae09-ac85bbe6d34b","ios":"levelo://app?vid=02382ba1-c53a-4d54-ae09-ac85bbe6d34b"},"vehicle_type_id":"4","last_reported":1767366733,"current_range_meters":4800,"station_id":"ce4bgi12rcd13ifvqb70","pricing_plan_id":"cebpf4jnsgd1na2vs0mg"},{"bike_id":"e1bd9a54-ef5b-41c0-977d-301633065d5f","system_id":"levelo_inurba_marseille","lat":43.30215,"lon":5.39471,"is_reserved":false,"is_disabled":false,"rental_uris":{"android":"levelo://app?vid=e1bd9a54-ef5b-41c0-977d-301633065d5f","ios":"levelo://app?vid=e1bd9a54-ef5b-41c0-977d-301633065d5f"},"vehicle_type_id":"4","last_reported":1767366733,"current_range_meters":4800,"station_id":"ce4bh0p2rcd13ifvqd70","pricing_plan_id":"cebpf4jnsgd1na2vs0mg"},{"bike_id":"2d762c5b-fc6b-498f-9ba7-edde63454b8f","system_id":"levelo_inurba_marseille","lat":43.289424,"lon":5.363785,"is_reserved":false,"is_disabled":false,"rental_uris":{"android":"levelo://app?vid=2d762c5b-fc6b-498f-9ba7-edde63454b8f","ios":"levelo://app?vid=2d762c5b-fc6b-498f-9ba7-edde63454b8f"},"vehicle_type_id":"4","last_reported":1767366733,"current_range_meters":4800,"station_id":"ce4bhc92rcd13ifvqetg","pricing_plan_id":"cebpf4jnsgd1na2vs0mg"},{"bike_id":"5ece2ba8-71c3-4ca5-913f-e9207975660a","system_id":"levelo_inurba_marseille","lat":43.22935,"lon":5.35411,"is_reserved":false,"is_disabled":false,"rental_uris":{"android":"levelo://app?vid=5ece2ba8-71c3-4ca5-913f-e9207975660a","ios":"levelo://app?vid=5ece2ba8-71c3-4ca5-913f-e9207975660a"},"vehicle_type_id":"4","last_reported":1767366733,"current_range_meters":4800,"station_id":"cpo3532slgdg3j2ikp40","pricing_plan_id":"cebpf4jnsgd1na2vs0mg"},{"bike_id":"d49fd2c9-dca5-4864-87e0-359520dd27b8","system_id":"levelo_inurba_marseille","lat":43.26128,"lon":5.39758,"is_reserved":false,"is_disabled":false,"rental_uris":{"android":"levelo://app?vid=d49fd2c9-dca5-4864-87e0-359520dd27b8","ios":"levelo://app?vid=d49fd2c9-dca5-4864-87e0-359520dd27b8"},"vehicle_type_id":"4","last_reported":1767366733,"current_range_meters":4800,"station_id":"","pricing_plan_id":"cebpf4jnsgd1na2vs0mg"},{"bike_id":"40ddd74c-1e22-4da5-8163-a8af2ddf3f65","system_id":"levelo_inurba_marseille","lat":43.26495,"lon":5.39545,"is_reserved":false,"is_disabled":false,"rental_uris":{"android":"levelo://app?vid=40ddd74c-1e22-4da5-8163-a8af2ddf3f65","ios":"levelo://app?vid=40ddd74c-1e22-4da5-8163-a8af2ddf3f65"},"vehicle_type_id":"4","last_reported":1767366733,"current_range_meters":4800,"station_id":"ce4bhi12rcd13ifvqfq0","pricing_plan_id":"cebpf4jnsgd1na2vs0mg"},{"bike_id":"c87e7e49-bf8f-4f27-bd3e-fa5b7e551ee6","system_id":"levelo_inurba_marseille","lat":43.21758,"lon":5.34601,"is_reserved":false,"is_disabled":false,"rental_uris":{"android":"levelo://app?vid=c87e7e49-bf8f-4f27-bd3e-fa5b7e551ee6","ios":"levelo://app?vid=c87e7e49-bf8f-4f27-bd3e-fa5b7e551ee6"},"vehicle_type_id":"4","last_reported":1767366733,"current_range_meters":5600,"station_id":"st_cvj6r9ubvosntc0bgbag","pricing_plan_id":"cebpf4jnsgd1na2vs0mg"},{"bike_id":"bab8f5ce-6ea3-45fd-aa21-29b68816a77a","system_id":"levelo_inurba_marseille","lat":43.26508,"lon":5.39552,"is_reserved":false,"is_disabled":false,"rental_uris":{"android":"levelo://app?vid=bab8f5ce-6ea3-45fd-aa21-29b68816a77a","ios":"levelo://app?vid=bab8f5ce-6ea3-45fd-aa21-29b68816a77a"},"vehicle_type_id":"4","last_reported":1767366733,"current_range_meters":5600,"station_id":"ce4bhi12rcd13ifvqfq0","pricing_plan_id":"cebpf4jnsgd1na2vs0mg"},{"bike_id":"85c0d9fd-9ae4-4d14-bbf5-3d50829a1b4d","system_id":"levelo_inurba_marseille","lat":43.29925,"lon":5.36472,"is_reserved":false,"is_disabled":false,"rental_uris":{"android":"levelo://app?vid=85c0d9fd-9ae4-4d14-bbf5-3d50829a1b4d","ios":"levelo://app?vid=85c0d9fd-9ae4-4d14-bbf5-3d50829a1b4d"},"vehicle_type_id":"4","last_reported":1767366733,"current_range_meters":5600,"station_id":"ce4bgm92rcd13ifvqbr0","pricing_plan_id":"cebpf4jnsgd1na2vs0mg"},{"bike_id":"13fe360a-3ffe-4bef-8dd1-ba53a03cb644","system_id":"levelo_inurba_marseille","lat":43.286,"lon":5.39905,"is_reserved":false,"is_disabled":false,"rental_uris":{"android":"levelo://app?vid=13fe360a-3ffe-4bef-8dd1-ba53a03cb644","ios":"levelo://app?vid=13fe360a-3ffe-4bef-8dd1-ba53a03cb644"},"vehicle_type_id":"4","last_reported":1767366733,"current_range_meters":5600,"station_id":"st_d4a7ka997mjs738ck50g","pricing_plan_id":"cebpf4jnsgd1na2vs0mg"},{"bike_id":"8f744ecb-2f34-47f3-8582-15a1ac4a40b9","system_id":"levelo_inurba_marseille","lat":43.2721,"lon":5.39189,"is_reserved":false,"is_disabled":false,"rental_uris":{"android":"levelo://app?vid=8f744ecb-2f34-47f3-8582-15a1ac4a40b9","ios":"levelo://app?vid=8f744ecb-2f34-47f3-8582-15a1ac4a40b9"},"vehicle_type_id":"4","last_reported":1767366733,"current_range_meters":5600,"station_id":"ce4bhhp2rcd13ifvqfm0","pricing_plan_id":"cebpf4jnsgd1na2vs0mg"},{"bike_id":"3ee08b2f-90b4-41d3-952a-950e65bcad22","system_id":"levelo_inurba_marseille","lat":43.29934,"lon":5.36562,"is_reserved":false,"is_disabled":false,"rental_uris":{"android":"levelo://app?vid=3ee08b2f-90b4-41d3-952a-950e65bcad22","ios":"levelo://app?vid=3ee08b2f-90b4-41d3-952a-950e65bcad22"},"vehicle_type_id":"4","last_reported":1767366733,"current_range_meters":5600,"station_id":"ce4bgm92rcd13ifvqbr0","pricing_plan_id":"cebpf4jnsgd1na2vs0mg"},{"bike_id":"848e38e5-d8e5-48c3-a484-bede77fb431e","system_id":"levelo_inurba_marseille","lat":43.282659,"lon":5.350543,"is_reserved":false,"is_disabled":false,"rental_uris":{"android":"levelo://app?vid=848e38e5-d8e5-48c3-a484-bede77fb431e","ios":"levelo://app?vid=848e38e5-d8e5-48c3-a484-bede77fb431e"},"vehicle_type_id":"4","last_reported":1767366733,"current_range_meters":5600,"station_id":"ce4bhbp2rcd13ifvqerg","pricing_plan_id":"cebpf4jnsgd1na2vs0mg"},{"bike_id":"ddaed63a-660f-4d81-a854-378c8fd8eea8","system_id":"levelo_inurba_marseille","lat":43.298632,"lon":5.39731,"is_reserved":false,"is_disabled":false,"rental_uris":{"android":"levelo://app?vid=ddaed63a-660f-4d81-a854-378c8fd8eea8","ios":"levelo://app?vid=ddaed63a-660f-4d81-a854-378c8fd8eea8"},"vehicle_type_id":"4","last_reported":1767366733,"current_range_meters":5600,"station_id":"ce4bh0h2rcd13ifvqd50","pricing_plan_id":"cebpf4jnsgd1na2vs0mg"},{"bike_id":"2c1cdf0e-48d8-4e2b-a4b1-5e1348b33c4a","system_id":"levelo_inurba_marseille","lat":43.27067,"lon":5.4228,"is_reserved":false,"is_disabled":false,"rental_uris":{"android":"levelo://app?vid=2c1cdf0e-48d8-4e2b-a4b1-5e1348b33c4a","ios":"levelo://app?vid=2c1cdf0e-48d8-4e2b-a4b1-5e1348b33c4a"},"vehicle_type_id":"4","last_reported":1767366733,"current_range_meters":5600,"station_id":"ce4bhk92rcd13ifvqgb0","pricing_plan_id":"cebpf4jnsgd1na2vs0mg"},{"bike_id":"62bbb4f8-cd37-4703-914d-4c2cbb4345e1","system_id":"levelo_inurba_marseille","lat":43.28066,"lon":5.39653,"is_reserved":false,"is_disabled":false,"rental_uris":{"android":"levelo://app?vid=62bbb4f8-cd37-4703-914d-4c2cbb4345e1","ios":"levelo://app?vid=62bbb4f8-cd37-4703-914d-4c2cbb4345e1"},"vehicle_type_id":"4","last_reported":1767366733,"current_range_meters":6000,"station_id":"ce4bho12rcd13ifvqh2g","pricing_plan_id":"cebpf4jnsgd1na2vs0mg"},{"bike_id":"8b1044c7-9903-454d-8bf7-ca846b48a9e1","system_id":"levelo_inurba_marseille","lat":43.290619,"lon":5.371599,"is_reserved":false,"is_disabled":false,"rental_uris":{"android":"levelo://app?vid=8b1044c7-9903-454d-8bf7-ca846b48a9e1","ios":"levelo://app?vid=8b1044c7-9903-454d-8bf7-ca846b48a9e1"},"vehicle_type_id":"4","last_reported":1767366733,"current_range_meters":6000,"station_id":"ce4bh5p2rcd13ifvqe4g","pricing_plan_id":"cebpf4jnsgd1na2vs0mg"},{"bike_id":"a37546a5-5ed0-437a-8b08-467eedf47722","system_id":"levelo_inurba_marseille","lat":43.245405,"lon":5.395258,"is_reserved":false,"is_disabled":false,"rental_uris":{"android":"levelo://app?vid=a37546a5-5ed0-437a-8b08-467eedf47722","ios":"levelo://app?vid=a37546a5-5ed0-437a-8b08-467eedf47722"},"vehicle_type_id":"4","last_reported":1767366733,"current_range_meters":6000,"station_id":"ce4bhlp2rcd13ifvqgjg","pricing_plan_id":"cebpf4jnsgd1na2vs0mg"},{"bike_id":"b6c2de47-37fa-44c1-ae2a-ab2b9c904820","system_id":"levelo_inurba_marseille","lat":43.28482,"lon":5.38435,"is_reserved":false,"is_disabled":false,"rental_uris":{"android":"levelo://app?vid=b6c2de47-37fa-44c1-ae2a-ab2b9c904820","ios":"levelo://app?vid=b6c2de47-37fa-44c1-ae2a-ab2b9c904820"},"vehicle_type_id":"4","last_reported":1767366733,"current_range_meters":6000,"station_id":"ce4bh512rcd13ifvqe3g","pricing_plan_id":"cebpf4jnsgd1na2vs0mg"},{"bike_id":"d4c6dc95-f402-4619-8161-a90cb01a834e","system_id":"levelo_inurba_marseille","lat":43.28855,"lon":5.42509,"is_reserved":false,"is_disabled":false,"rental_uris":{"android":"levelo://app?vid=d4c6dc95-f402-4619-8161-a90cb01a834e","ios":"levelo://app?vid=d4c6dc95-f402-4619-8161-a90cb01a834e"},"vehicle_type_id":"4","last_reported":1767366733,"current_range_meters":6000,"station_id":"st_d3b462108ojc7389ooeg","pricing_plan_id":"cebpf4jnsgd1na2vs0mg"},{"bike_id":"303fc977-bc34-40d7-a7b6-1a8c63d2d925","system_id":"levelo_inurba_marseille","lat":43.225326,"lon":5.348292,"is_reserved":false,"is_disabled":false,"rental_uris":{"android":"levelo://app?vid=303fc977-bc34-40d7-a7b6-1a8c63d2d925","ios":"levelo://app?vid=303fc977-bc34-40d7-a7b6-1a8c63d2d925"},"vehicle_type_id":"4","last_reported":1767366733,"current_range_meters":6000,"station_id":"","pricing_plan_id":"cebpf4jnsgd1na2vs0mg"},{"bike_id":"27eab711-3794-4c67-b72c-787e5b4b546b","system_id":"levelo_inurba_marseille","lat":43.25585,"lon":5.38223,"is_reserved":false,"is_disabled":false,"rental_uris":{"android":"levelo://app?vid=27eab711-3794-4c67-b72c-787e5b4b546b","ios":"levelo://app?vid=27eab711-3794-4c67-b72c-787e5b4b546b"},"vehicle_type_id":"4","last_reported":1767366733,"current_range_meters":6000,"station_id":"ce4bhih2rcd13ifvqfs0","pricing_plan_id":"cebpf4jnsgd1na2vs0mg"},{"bike_id":"50c49c36-164f-43ef-bcb0-c52d433fdcc7","system_id":"levelo_inurba_marseille","lat":43.3149,"lon":5.37295,"is_reserved":false,"is_disabled":false,"rental_uris":{"android":"levelo://app?vid=50c49c36-164f-43ef-bcb0-c52d433fdcc7","ios":"levelo://app?vid=50c49c36-164f-43ef-bcb0-c52d433fdcc7"},"vehicle_type_id":"4","last_reported":1767366733,"current_range_meters":6000,"station_id":"ce4bgt12rcd13ifvqcd0","pricing_plan_id":"cebpf4jnsgd1na2vs0mg"},{"bike_id":"2573c545-f2d4-4ad8-9d30-55ccbf225a22","system_id":"levelo_inurba_marseille","lat":43.269157,"lon":5.368153,"is_reserved":false,"is_disabled":false,"rental_uris":{"android":"levelo://app?vid=2573c545-f2d4-4ad8-9d30-55ccbf225a22","ios":"levelo://app?vid=2573c545-f2d4-4ad8-9d30-55ccbf225a22"},"vehicle_type_id":"4","last_reported":1767366733,"current_range_meters":6000,"station_id":"","pricing_plan_id":"cebpf4jnsgd1na2vs0mg"},{"bike_id":"c4e56799-8730-4a5a-aca5-78ee89cd124a","system_id":"levelo_inurba_marseille","lat":43.24821,"lon":5.37444,"is_reserved":false,"is_disabled":false,"rental_uris":{"android":"levelo://app?vid=c4e56799-8730-4a5a-aca5-78ee89cd124a","ios":"levelo://app?vid=c4e56799-8730-4a5a-aca5-78ee89cd124a"},"vehicle_type_id":"4","last_reported":1767366733,"current_range_meters":6000,"station_id":"ce4bhgh2rcd13ifvqfb0","pricing_plan_id":"cebpf4jnsgd1na2vs0mg"},{"bike_id":"ead7dd8d-77ea-4b67-b1fb-95ddc6c818a5","system_id":"levelo_inurba_marseille","lat":43.31412,"lon":5.38102,"is_reserved":false,"is_disabled":false,"rental_uris":{"android":"levelo://app?vid=ead7dd8d-77ea-4b67-b1fb-95ddc6c818a5","ios":"levelo://app?vid=ead7dd8d-77ea-4b67-b1fb-95ddc6c818a5"},"vehicle_type_id":"4","last_reported":1767366733,"current_range_meters":6000,"station_id":"","pricing_plan_id":"cebpf4jnsgd1na2vs0mg"},{"bike_id":"b31512d9-98b1-48d8-b891-a7377d76c41d","system_id":"levelo_inurba_marseille","lat":43.29973,"lon":5.37172,"is_reserved":false,"is_disabled":false,"rental_uris":{"android":"levelo://app?vid=b31512d9-98b1-48d8-b891-a7377d76c41d","ios":"levelo://app?vid=b31512d9-98b1-48d8-b891-a7377d76c41d"},"vehicle_type_id":"4","last_reported":1767366733,"current_range_meters":6000,"station_id":"ce4bgr92rcd13ifvqc7g","pricing_plan_id":"cebpf4jnsgd1na2vs0mg"},{"bike_id":"eb29c3aa-f32a-40d5-9aee-e0083bcc217d","system_id":"levelo_inurba_marseille","lat":43.29006,"lon":5.35614,"is_reserved":false,"is_disabled":false,"rental_uris":{"android":"levelo://app?vid=eb29c3aa-f32a-40d5-9aee-e0083bcc217d","ios":"levelo://app?vid=eb29c3aa-f32a-40d5-9aee-e0083bcc217d"},"vehicle_type_id":"4","last_reported":1767366733,"current_range_meters":6000,"station_id":"ce4bhb92rcd13ifvqen0","pricing_plan_id":"cebpf4jnsgd1na2vs0mg"},{"bike_id":"3fd00cb0-0645-4a8c-874a-2e0df62cb4f5","system_id":"levelo_inurba_marseille","lat":43.29725,"lon":5.38001,"is_reserved":false,"is_disabled":false,"rental_uris":{"android":"levelo://app?vid=3fd00cb0-0645-4a8c-874a-2e0df62cb4f5","ios":"levelo://app?vid=3fd00cb0-0645-4a8c-874a-2e0df62cb4f5"},"vehicle_type_id":"4","last_reported":1767366733,"current_range_meters":6000,"station_id":"","pricing_plan_id":"cebpf4jnsgd1na2vs0mg"},{"bike_id":"da51a696-5705-48cd-a174-f63e3c15d9de","system_id":"levelo_inurba_marseille","lat":43.28864,"lon":5.4253,"is_reserved":false,"is_disabled":false,"rental_uris":{"android":"levelo://app?vid=da51a696-5705-48cd-a174-f63e3c15d9de","ios":"levelo://app?vid=da51a696-5705-48cd-a174-f63e3c15d9de"},"vehicle_type_id":"4","last_reported":1767366733,"current_range_meters":6000,"station_id":"st_d3b462108ojc7389ooeg","pricing_plan_id":"cebpf4jnsgd1na2vs0mg"},{"bike_id":"3726ff5a-3e12-42b0-b68f-b0200516c587","system_id":"levelo_inurba_marseille","lat":43.21197,"lon":5.35083,"is_reserved":false,"is_disabled":false,"rental_uris":{"android":"levelo://app?vid=3726ff5a-3e12-42b0-b68f-b0200516c587","ios":"levelo://app?vid=3726ff5a-3e12-42b0-b68f-b0200516c587"},"vehicle_type_id":"4","last_reported":1767366733,"current_range_meters":6000,"station_id":"st_cvj6sg6p6f1abm77japg","pricing_plan_id":"cebpf4jnsgd1na2vs0mg"},{"bike_id":"f27266f2-134d-4427-aa11-062d0347bd59","system_id":"levelo_inurba_marseille","lat":43.289358,"lon":5.366425,"is_reserved":false,"is_disabled":false,"rental_uris":{"android":"levelo://app?vid=f27266f2-134d-4427-aa11-062d0347bd59","ios":"levelo://app?vid=f27266f2-134d-4427-aa11-062d0347bd59"},"vehicle_type_id":"4","last_reported":1767366733,"current_range_meters":6000,"station_id":"ce4bhap2rcd13ifvqek0","pricing_plan_id":"cebpf4jnsgd1na2vs0mg"},{"bike_id":"bebec6bc-9df3-406e-90bc-396ce2b3b0b3","system_id":"levelo_inurba_marseille","lat":43.2636,"lon":5.37418,"is_reserved":false,"is_disabled":false,"rental_uris":{"android":"levelo://app?vid=bebec6bc-9df3-406e-90bc-396ce2b3b0b3","ios":"levelo://app?vid=bebec6bc-9df3-406e-90bc-396ce2b3b0b3"},"vehicle_type_id":"4","last_reported":1767366733,"current_range_meters":6000,"station_id":"","pricing_plan_id":"cebpf4jnsgd1na2vs0mg"},{"bike_id":"31074345-6b13-45ef-b79c-26566c89aa06","system_id":"levelo_inurba_marseille","lat":43.31053,"lon":5.37198,"is_reserved":false,"is_disabled":false,"rental_uris":{"android":"levelo://app?vid=31074345-6b13-45ef-b79c-26566c89aa06","ios":"levelo://app?vid=31074345-6b13-45ef-b79c-26566c89aa06"},"vehicle_type_id":"4","last_reported":1767366733,"current_range_meters":6400,"station_id":"st_d4kl2rp97mjs73e7tdfg","pricing_plan_id":"cebpf4jnsgd1na2vs0mg"},{"bike_id":"ae9b9bf1-6148-4597-b7ba-fc09cf9817ae","system_id":"levelo_inurba_marseille","lat":43.28845,"lon":5.35865,"is_reserved":false,"is_disabled":false,"rental_uris":{"android":"levelo://app?vid=ae9b9bf1-6148-4597-b7ba-fc09cf9817ae","ios":"levelo://app?vid=ae9b9bf1-6148-4597-b7ba-fc09cf9817ae"},"vehicle_type_id":"4","last_reported":1767366733,"current_range_meters":6400,"station_id":"ce4bhb12rcd13ifvqem0","pricing_plan_id":"cebpf4jnsgd1na2vs0mg"},{"bike_id":"a8518dc9-4901-4466-9667-46ce3fa9dce4","system_id":"levelo_inurba_marseille","lat":43.29083,"lon":5.3717,"is_reserved":false,"is_disabled":false,"rental_uris":{"android":"levelo://app?vid=a8518dc9-4901-4466-9667-46ce3fa9dce4","ios":"levelo://app?vid=a8518dc9-4901-4466-9667-46ce3fa9dce4"},"vehicle_type_id":"4","last_reported":1767366733,"current_range_meters":6400,"station_id":"ce4bh5p2rcd13ifvqe4g","pricing_plan_id":"cebpf4jnsgd1na2vs0mg"},{"bike_id":"54045760-2072-46e5-a5c4-00c3b9646aa6","system_id":"levelo_inurba_marseille","lat":43.29984,"lon":5.371922,"is_reserved":false,"is_disabled":false,"rental_uris":{"android":"levelo://app?vid=54045760-2072-46e5-a5c4-00c3b9646aa6","ios":"levelo://app?vid=54045760-2072-46e5-a5c4-00c3b9646aa6"},"vehicle_type_id":"4","last_reported":1767366733,"current_range_meters":6400,"station_id":"ce4bgr92rcd13ifvqc7g","pricing_plan_id":"cebpf4jnsgd1na2vs0mg"},{"bike_id":"dc9feb7e-742c-4c15-83bb-7db4fa4848d4","system_id":"levelo_inurba_marseille","lat":43.32047,"lon":5.37184,"is_reserved":false,"is_disabled":false,"rental_uris":{"android":"levelo://app?vid=dc9feb7e-742c-4c15-83bb-7db4fa4848d4","ios":"levelo://app?vid=dc9feb7e-742c-4c15-83bb-7db4fa4848d4"},"vehicle_type_id":"4","last_reported":1767366733,"current_range_meters":6400,"station_id":"","pricing_plan_id":"cebpf4jnsgd1na2vs0mg"},{"bike_id":"7ac98c64-2424-49b0-be1b-1d86a6975c42","system_id":"levelo_inurba_marseille","lat":43.28991,"lon":5.35608,"is_reserved":false,"is_disabled":false,"rental_uris":{"android":"levelo://app?vid=7ac98c64-2424-49b0-be1b-1d86a6975c42","ios":"levelo://app?vid=7ac98c64-2424-49b0-be1b-1d86a6975c42"},"vehicle_type_id":"4","last_reported":1767366733,"current_range_meters":6400,"station_id":"ce4bhb92rcd13ifvqen0","pricing_plan_id":"cebpf4jnsgd1na2vs0mg"},{"bike_id":"ab98afa8-4907-4b9f-b6c6-75e71a064cde","system_id":"levelo_inurba_marseille","lat":43.25649,"lon":5.41016,"is_reserved":false,"is_disabled":false,"rental_uris":{"android":"levelo://app?vid=ab98afa8-4907-4b9f-b6c6-75e71a064cde","ios":"levelo://app?vid=ab98afa8-4907-4b9f-b6c6-75e71a064cde"},"vehicle_type_id":"4","last_reported":1767366733,"current_range_meters":6400,"station_id":"","pricing_plan_id":"cebpf4jnsgd1na2vs0mg"},{"bike_id":"adee5904-d2f9-48c4-ad58-68d27b5bb40a","system_id":"levelo_inurba_marseille","lat":43.2927,"lon":5.37677,"is_reserved":false,"is_disabled":false,"rental_uris":{"android":"levelo://app?vid=adee5904-d2f9-48c4-ad58-68d27b5bb40a","ios":"levelo://app?vid=adee5904-d2f9-48c4-ad58-68d27b5bb40a"},"vehicle_type_id":"4","last_reported":1767366733,"current_range_meters":6400,"station_id":"ce4bgi12rcd13ifvqb80","pricing_plan_id":"cebpf4jnsgd1na2vs0mg"},{"bike_id":"7dc167ed-e729-46cb-8916-7d2c82275190","system_id":"levelo_inurba_marseille","lat":43.217474,"lon":5.345991,"is_reserved":false,"is_disabled":false,"rental_uris":{"android":"levelo://app?vid=7dc167ed-e729-46cb-8916-7d2c82275190","ios":"levelo://app?vid=7dc167ed-e729-46cb-8916-7d2c82275190"},"vehicle_type_id":"4","last_reported":1767366733,"current_range_meters":6400,"station_id":"","pricing_plan_id":"cebpf4jnsgd1na2vs0mg"},{"bike_id":"08793bdf-bae6-4989-a3e8-8fa2dc512947","system_id":"levelo_inurba_marseille","lat":43.21184,"lon":5.35083,"is_reserved":false,"is_disabled":false,"rental_uris":{"android":"levelo://app?vid=08793bdf-bae6-4989-a3e8-8fa2dc512947","ios":"levelo://app?vid=08793bdf-bae6-4989-a3e8-8fa2dc512947"},"vehicle_type_id":"4","last_reported":1767366733,"current_range_meters":6400,"station_id":"st_cvj6sg6p6f1abm77japg","pricing_plan_id":"cebpf4jnsgd1na2vs0mg"},{"bike_id":"1498f079-e300-4265-837b-8da7d97aca06","system_id":"levelo_inurba_marseille","lat":43.241659,"lon":5.363939,"is_reserved":false,"is_disabled":false,"rental_uris":{"android":"levelo://app?vid=1498f079-e300-4265-837b-8da7d97aca06","ios":"levelo://app?vid=1498f079-e300-4265-837b-8da7d97aca06"},"vehicle_type_id":"4","last_reported":1767366733,"current_range_meters":6400,"station_id":"cpo36qri1sfpv3e86is0","pricing_plan_id":"cebpf4jnsgd1na2vs0mg"},{"bike_id":"d19172e9-4830-4cd2-ad8c-633f8c9fb7d7","system_id":"levelo_inurba_marseille","lat":43.27063,"lon":5.38313,"is_reserved":false,"is_disabled":false,"rental_uris":{"android":"levelo://app?vid=d19172e9-4830-4cd2-ad8c-633f8c9fb7d7","ios":"levelo://app?vid=d19172e9-4830-4cd2-ad8c-633f8c9fb7d7"},"vehicle_type_id":"4","last_reported":1767366733,"current_range_meters":6400,"station_id":"st_d3n2fo6cfp8s73cte1j0","pricing_plan_id":"cebpf4jnsgd1na2vs0mg"},{"bike_id":"e4e8e267-4d9a-4fdc-89b5-cfa26e68d494","system_id":"levelo_inurba_marseille","lat":43.24155,"lon":5.36396,"is_reserved":false,"is_disabled":false,"rental_uris":{"android":"levelo://app?vid=e4e8e267-4d9a-4fdc-89b5-cfa26e68d494","ios":"levelo://app?vid=e4e8e267-4d9a-4fdc-89b5-cfa26e68d494"},"vehicle_type_id":"4","last_reported":1767366733,"current_range_meters":6400,"station_id":"cpo36qri1sfpv3e86is0","pricing_plan_id":"cebpf4jnsgd1na2vs0mg"},{"bike_id":"71673f29-1dbb-4dc6-9280-1a5b5bc3d3a8","system_id":"levelo_inurba_marseille","lat":43.26934,"lon":5.38918,"is_reserved":false,"is_disabled":false,"rental_uris":{"android":"levelo://app?vid=71673f29-1dbb-4dc6-9280-1a5b5bc3d3a8","ios":"levelo://app?vid=71673f29-1dbb-4dc6-9280-1a5b5bc3d3a8"},"vehicle_type_id":"4","last_reported":1767366733,"current_range_meters":6400,"station_id":"ce4bhhh2rcd13ifvqfl0","pricing_plan_id":"cebpf4jnsgd1na2vs0mg"},{"bike_id":"961a4b80-6a80-41fc-af4e-cb7c655480a6","system_id":"levelo_inurba_marseille","lat":43.28304,"lon":5.3983,"is_reserved":false,"is_disabled":true,"rental_uris":{"android":"levelo://app?vid=961a4b80-6a80-41fc-af4e-cb7c655480a6","ios":"levelo://app?vid=961a4b80-6a80-41fc-af4e-cb7c655480a6"},"vehicle_type_id":"4","last_reported":1767366733,"current_range_meters":6400,"station_id":"","pricing_plan_id":"cebpf4jnsgd1na2vs0mg"},{"bike_id":"f3a4c2fd-c27a-4ca6-bbe5-3949d2a88808","system_id":"levelo_inurba_marseille","lat":43.28576,"lon":5.42978,"is_reserved":false,"is_disabled":false,"rental_uris":{"android":"levelo://app?vid=f3a4c2fd-c27a-4ca6-bbe5-3949d2a88808","ios":"levelo://app?vid=f3a4c2fd-c27a-4ca6-bbe5-3949d2a88808"},"vehicle_type_id":"4","last_reported":1767366733,"current_range_meters":6400,"station_id":"","pricing_plan_id":"cebpf4jnsgd1na2vs0mg"},{"bike_id":"406f64a0-da6e-49db-a7ac-d7a777f3175c","system_id":"levelo_inurba_marseille","lat":43.27318,"lon":5.3907,"is_reserved":false,"is_disabled":false,"rental_uris":{"android":"levelo://app?vid=406f64a0-da6e-49db-a7ac-d7a777f3175c","ios":"levelo://app?vid=406f64a0-da6e-49db-a7ac-d7a777f3175c"},"vehicle_type_id":"4","last_reported":1767366733,"current_range_meters":6400,"station_id":"ce4bhgp2rcd13ifvqfe0","pricing_plan_id":"cebpf4jnsgd1na2vs0mg"},{"bike_id":"c06c1a23-e527-45f2-b506-7898ce209f75","system_id":"levelo_inurba_marseille","lat":43.29581,"lon":5.37519,"is_reserved":false,"is_disabled":false,"rental_uris":{"android":"levelo://app?vid=c06c1a23-e527-45f2-b506-7898ce209f75","ios":"levelo://app?vid=c06c1a23-e527-45f2-b506-7898ce209f75"},"vehicle_type_id":"4","last_reported":1767366733,"current_range_meters":6400,"station_id":"ce4bgh92rcd13ifvqb50","pricing_plan_id":"cebpf4jnsgd1na2vs0mg"},{"bike_id":"82531106-0439-4e0f-aada-cc7719a5d5e0","system_id":"levelo_inurba_marseille","lat":43.27951,"lon":5.41042,"is_reserved":false,"is_disabled":false,"rental_uris":{"android":"levelo://app?vid=82531106-0439-4e0f-aada-cc7719a5d5e0","ios":"levelo://app?vid=82531106-0439-4e0f-aada-cc7719a5d5e0"},"vehicle_type_id":"4","last_reported":1767366733,"current_range_meters":6400,"station_id":"ce4bhnp2rcd13ifvqh0g","pricing_plan_id":"cebpf4jnsgd1na2vs0mg"},{"bike_id":"432896d7-8846-4b2c-853b-3d0404cd1bb5","system_id":"levelo_inurba_marseille","lat":43.26779,"lon":5.39422,"is_reserved":false,"is_disabled":false,"rental_uris":{"android":"levelo://app?vid=432896d7-8846-4b2c-853b-3d0404cd1bb5","ios":"levelo://app?vid=432896d7-8846-4b2c-853b-3d0404cd1bb5"},"vehicle_type_id":"4","last_reported":1767366733,"current_range_meters":6400,"station_id":"ce4bhh12rcd13ifvqfg0","pricing_plan_id":"cebpf4jnsgd1na2vs0mg"},{"bike_id":"efd33062-2cef-445f-af98-648f578e9c2a","system_id":"levelo_inurba_marseille","lat":43.32651,"lon":5.41944,"is_reserved":false,"is_disabled":false,"rental_uris":{"android":"levelo://app?vid=efd33062-2cef-445f-af98-648f578e9c2a","ios":"levelo://app?vid=efd33062-2cef-445f-af98-648f578e9c2a"},"vehicle_type_id":"4","last_reported":1767366733,"current_range_meters":6800,"station_id":"","pricing_plan_id":"cebpf4jnsgd1na2vs0mg"},{"bike_id":"b7c65842-363d-43c4-92b2-529d07ea43d3","system_id":"levelo_inurba_marseille","lat":43.25848,"lon":5.39849,"is_reserved":false,"is_disabled":false,"rental_uris":{"android":"levelo://app?vid=b7c65842-363d-43c4-92b2-529d07ea43d3","ios":"levelo://app?vid=b7c65842-363d-43c4-92b2-529d07ea43d3"},"vehicle_type_id":"4","last_reported":1767366733,"current_range_meters":6800,"station_id":"","pricing_plan_id":"cebpf4jnsgd1na2vs0mg"},{"bike_id":"2d0e5927-d8b7-48b0-aad5-b6fc4a24c9e8","system_id":"levelo_inurba_marseille","lat":43.240778,"lon":5.377605,"is_reserved":false,"is_disabled":false,"rental_uris":{"android":"levelo://app?vid=2d0e5927-d8b7-48b0-aad5-b6fc4a24c9e8","ios":"levelo://app?vid=2d0e5927-d8b7-48b0-aad5-b6fc4a24c9e8"},"vehicle_type_id":"4","last_reported":1767366733,"current_range_meters":6800,"station_id":"ce4bhnp2rcd13ifvqgvg","pricing_plan_id":"cebpf4jnsgd1na2vs0mg"},{"bike_id":"5d64b1d9-59fb-4d57-9b2b-5de60919d0d5","system_id":"levelo_inurba_marseille","lat":43.29217,"lon":5.37031,"is_reserved":false,"is_disabled":false,"rental_uris":{"android":"levelo://app?vid=5d64b1d9-59fb-4d57-9b2b-5de60919d0d5","ios":"levelo://app?vid=5d64b1d9-59fb-4d57-9b2b-5de60919d0d5"},"vehicle_type_id":"4","last_reported":1767366733,"current_range_meters":6800,"station_id":"","pricing_plan_id":"cebpf4jnsgd1na2vs0mg"},{"bike_id":"a9ea035c-3b5c-4772-8ae7-d836506c0b03","system_id":"levelo_inurba_marseille","lat":43.29723,"lon":5.37691,"is_reserved":false,"is_disabled":false,"rental_uris":{"android":"levelo://app?vid=a9ea035c-3b5c-4772-8ae7-d836506c0b03","ios":"levelo://app?vid=a9ea035c-3b5c-4772-8ae7-d836506c0b03"},"vehicle_type_id":"4","last_reported":1767366733,"current_range_meters":6800,"station_id":"ce4bgkh2rcd13ifvqbl0","pricing_plan_id":"cebpf4jnsgd1na2vs0mg"},{"bike_id":"e0da2405-6606-4b04-a6ad-fabcf56b9c21","system_id":"levelo_inurba_marseille","lat":43.25335,"lon":5.4216,"is_reserved":false,"is_disabled":false,"rental_uris":{"android":"levelo://app?vid=e0da2405-6606-4b04-a6ad-fabcf56b9c21","ios":"levelo://app?vid=e0da2405-6606-4b04-a6ad-fabcf56b9c21"},"vehicle_type_id":"4","last_reported":1767366733,"current_range_meters":6800,"station_id":"st_d2m65c5bi1j21697t3ng","pricing_plan_id":"cebpf4jnsgd1na2vs0mg"},{"bike_id":"d8431e58-d3e8-4456-9570-729e3ebbcc73","system_id":"levelo_inurba_marseille","lat":43.30181,"lon":5.37261,"is_reserved":false,"is_disabled":false,"rental_uris":{"android":"levelo://app?vid=d8431e58-d3e8-4456-9570-729e3ebbcc73","ios":"levelo://app?vid=d8431e58-d3e8-4456-9570-729e3ebbcc73"},"vehicle_type_id":"4","last_reported":1767366733,"current_range_meters":6800,"station_id":"","pricing_plan_id":"cebpf4jnsgd1na2vs0mg"},{"bike_id":"6b34a822-c9f9-4f83-9b8b-49bde0d95675","system_id":"levelo_inurba_marseille","lat":43.2848,"lon":5.38414,"is_reserved":false,"is_disabled":false,"rental_uris":{"android":"levelo://app?vid=6b34a822-c9f9-4f83-9b8b-49bde0d95675","ios":"levelo://app?vid=6b34a822-c9f9-4f83-9b8b-49bde0d95675"},"vehicle_type_id":"4","last_reported":1767366733,"current_range_meters":6800,"station_id":"ce4bh512rcd13ifvqe3g","pricing_plan_id":"cebpf4jnsgd1na2vs0mg"},{"bike_id":"65ba77ad-47b8-41a3-b923-1ab8572210c6","system_id":"levelo_inurba_marseille","lat":43.31089,"lon":5.3852,"is_reserved":false,"is_disabled":false,"rental_uris":{"android":"levelo://app?vid=65ba77ad-47b8-41a3-b923-1ab8572210c6","ios":"levelo://app?vid=65ba77ad-47b8-41a3-b923-1ab8572210c6"},"vehicle_type_id":"4","last_reported":1767366733,"current_range_meters":6800,"station_id":"","pricing_plan_id":"cebpf4jnsgd1na2vs0mg"},{"bike_id":"7111ffcd-e35c-4931-9037-38e9fb585758","system_id":"levelo_inurba_marseille","lat":43.313584,"lon":5.367226,"is_reserved":false,"is_disabled":false,"rental_uris":{"android":"levelo://app?vid=7111ffcd-e35c-4931-9037-38e9fb585758","ios":"levelo://app?vid=7111ffcd-e35c-4931-9037-38e9fb585758"},"vehicle_type_id":"4","last_reported":1767366733,"current_range_meters":6800,"station_id":"ce4bgr92rcd13ifvqc6g","pricing_plan_id":"cebpf4jnsgd1na2vs0mg"},{"bike_id":"770adec0-43e5-4e4d-997f-51d8dafd046a","system_id":"levelo_inurba_marseille","lat":43.278336,"lon":5.392054,"is_reserved":false,"is_disabled":false,"rental_uris":{"android":"levelo://app?vid=770adec0-43e5-4e4d-997f-51d8dafd046a","ios":"levelo://app?vid=770adec0-43e5-4e4d-997f-51d8dafd046a"},"vehicle_type_id":"4","last_reported":1767366733,"current_range_meters":6800,"station_id":"ce4bhjp2rcd13ifvqga0","pricing_plan_id":"cebpf4jnsgd1na2vs0mg"},{"bike_id":"ead1444d-eac1-417f-b268-ce9ed5abb843","system_id":"levelo_inurba_marseille","lat":43.29691,"lon":5.37294,"is_reserved":false,"is_disabled":false,"rental_uris":{"android":"levelo://app?vid=ead1444d-eac1-417f-b268-ce9ed5abb843","ios":"levelo://app?vid=ead1444d-eac1-417f-b268-ce9ed5abb843"},"vehicle_type_id":"4","last_reported":1767366733,"current_range_meters":6800,"station_id":"ce4bgk12rcd13ifvqbj0","pricing_plan_id":"cebpf4jnsgd1na2vs0mg"},{"bike_id":"8224caa3-15d0-456f-92e2-31899714d653","system_id":"levelo_inurba_marseille","lat":43.29941,"lon":5.36567,"is_reserved":false,"is_disabled":false,"rental_uris":{"android":"levelo://app?vid=8224caa3-15d0-456f-92e2-31899714d653","ios":"levelo://app?vid=8224caa3-15d0-456f-92e2-31899714d653"},"vehicle_type_id":"4","last_reported":1767366733,"current_range_meters":6800,"station_id":"ce4bgm92rcd13ifvqbr0","pricing_plan_id":"cebpf4jnsgd1na2vs0mg"},{"bike_id":"9a253175-fef0-4c75-a8d8-bb357322efb0","system_id":"levelo_inurba_marseille","lat":43.21199,"lon":5.35079,"is_reserved":false,"is_disabled":false,"rental_uris":{"android":"levelo://app?vid=9a253175-fef0-4c75-a8d8-bb357322efb0","ios":"levelo://app?vid=9a253175-fef0-4c75-a8d8-bb357322efb0"},"vehicle_type_id":"4","last_reported":1767366733,"current_range_meters":6800,"station_id":"st_cvj6sg6p6f1abm77japg","pricing_plan_id":"cebpf4jnsgd1na2vs0mg"},{"bike_id":"1e76a634-1236-4429-a6ca-562668962923","system_id":"levelo_inurba_marseille","lat":43.25223,"lon":5.39464,"is_reserved":false,"is_disabled":false,"rental_uris":{"android":"levelo://app?vid=1e76a634-1236-4429-a6ca-562668962923","ios":"levelo://app?vid=1e76a634-1236-4429-a6ca-562668962923"},"vehicle_type_id":"4","last_reported":1767366733,"current_range_meters":7200,"station_id":"","pricing_plan_id":"cebpf4jnsgd1na2vs0mg"},{"bike_id":"8109d6d7-4665-497e-9af4-2f345dec74ac","system_id":"levelo_inurba_marseille","lat":43.29533,"lon":5.3855,"is_reserved":false,"is_disabled":false,"rental_uris":{"android":"levelo://app?vid=8109d6d7-4665-497e-9af4-2f345dec74ac","ios":"levelo://app?vid=8109d6d7-4665-497e-9af4-2f345dec74ac"},"vehicle_type_id":"4","last_reported":1767366733,"current_range_meters":7200,"station_id":"ce4bgih2rcd13ifvqba0","pricing_plan_id":"cebpf4jnsgd1na2vs0mg"},{"bike_id":"3b652abb-4144-4a5b-8035-ab28a7ba1f33","system_id":"levelo_inurba_marseille","lat":43.28132,"lon":5.42646,"is_reserved":false,"is_disabled":false,"rental_uris":{"android":"levelo://app?vid=3b652abb-4144-4a5b-8035-ab28a7ba1f33","ios":"levelo://app?vid=3b652abb-4144-4a5b-8035-ab28a7ba1f33"},"vehicle_type_id":"4","last_reported":1767366733,"current_range_meters":7200,"station_id":"ce4bhnh2rcd13ifvqgug","pricing_plan_id":"cebpf4jnsgd1na2vs0mg"},{"bike_id":"de9d8f55-29e3-42b0-946b-498c3787e02c","system_id":"levelo_inurba_marseille","lat":43.23146,"lon":5.43676,"is_reserved":false,"is_disabled":false,"rental_uris":{"android":"levelo://app?vid=de9d8f55-29e3-42b0-946b-498c3787e02c","ios":"levelo://app?vid=de9d8f55-29e3-42b0-946b-498c3787e02c"},"vehicle_type_id":"4","last_reported":1767366733,"current_range_meters":7200,"station_id":"ce4bhmp2rcd13ifvqgog","pricing_plan_id":"cebpf4jnsgd1na2vs0mg"},{"bike_id":"021e3b37-eded-4570-9563-b3c02625b5ec","system_id":"levelo_inurba_marseille","lat":43.27952,"lon":5.41061,"is_reserved":false,"is_disabled":true,"rental_uris":{"android":"levelo://app?vid=021e3b37-eded-4570-9563-b3c02625b5ec","ios":"levelo://app?vid=021e3b37-eded-4570-9563-b3c02625b5ec"},"vehicle_type_id":"4","last_reported":1767366733,"current_range_meters":7200,"station_id":"ce4bhnp2rcd13ifvqh0g","pricing_plan_id":"cebpf4jnsgd1na2vs0mg"},{"bike_id":"c96328dd-0bf3-4689-abd3-7be2c7f0275a","system_id":"levelo_inurba_marseille","lat":43.24995,"lon":5.40526,"is_reserved":false,"is_disabled":false,"rental_uris":{"android":"levelo://app?vid=c96328dd-0bf3-4689-abd3-7be2c7f0275a","ios":"levelo://app?vid=c96328dd-0bf3-4689-abd3-7be2c7f0275a"},"vehicle_type_id":"4","last_reported":1767366733,"current_range_meters":7200,"station_id":"","pricing_plan_id":"cebpf4jnsgd1na2vs0mg"},{"bike_id":"f82d391f-fa54-4944-99a1-f43326016a14","system_id":"levelo_inurba_marseille","lat":43.31756,"lon":5.38983,"is_reserved":false,"is_disabled":false,"rental_uris":{"android":"levelo://app?vid=f82d391f-fa54-4944-99a1-f43326016a14","ios":"levelo://app?vid=f82d391f-fa54-4944-99a1-f43326016a14"},"vehicle_type_id":"4","last_reported":1767366733,"current_range_meters":7200,"station_id":"ce4bhqp2rcd13ifvqhng","pricing_plan_id":"cebpf4jnsgd1na2vs0mg"},{"bike_id":"50a1ce80-e2ae-4637-b1b3-c5d653d75cd1","system_id":"levelo_inurba_marseille","lat":43.318895,"lon":5.390288,"is_reserved":false,"is_disabled":false,"rental_uris":{"android":"levelo://app?vid=50a1ce80-e2ae-4637-b1b3-c5d653d75cd1","ios":"levelo://app?vid=50a1ce80-e2ae-4637-b1b3-c5d653d75cd1"},"vehicle_type_id":"4","last_reported":1767366733,"current_range_meters":7200,"station_id":"","pricing_plan_id":"cebpf4jnsgd1na2vs0mg"},{"bike_id":"0cd458c9-10b6-4d0a-ac68-60b950016087","system_id":"levelo_inurba_marseille","lat":43.21194,"lon":5.35074,"is_reserved":false,"is_disabled":false,"rental_uris":{"android":"levelo://app?vid=0cd458c9-10b6-4d0a-ac68-60b950016087","ios":"levelo://app?vid=0cd458c9-10b6-4d0a-ac68-60b950016087"},"vehicle_type_id":"4","last_reported":1767366733,"current_range_meters":7200,"station_id":"st_cvj6sg6p6f1abm77japg","pricing_plan_id":"cebpf4jnsgd1na2vs0mg"},{"bike_id":"460b6c3f-63bf-4c5b-82de-473812b845b9","system_id":"levelo_inurba_marseille","lat":43.212,"lon":5.35071,"is_reserved":false,"is_disabled":false,"rental_uris":{"android":"levelo://app?vid=460b6c3f-63bf-4c5b-82de-473812b845b9","ios":"levelo://app?vid=460b6c3f-63bf-4c5b-82de-473812b845b9"},"vehicle_type_id":"4","last_reported":1767366733,"current_range_meters":7200,"station_id":"st_cvj6sg6p6f1abm77japg","pricing_plan_id":"cebpf4jnsgd1na2vs0mg"},{"bike_id":"650654d1-6b19-458f-97df-c0f29c65087f","system_id":"levelo_inurba_marseille","lat":43.26509,"lon":5.39523,"is_reserved":false,"is_disabled":false,"rental_uris":{"android":"levelo://app?vid=650654d1-6b19-458f-97df-c0f29c65087f","ios":"levelo://app?vid=650654d1-6b19-458f-97df-c0f29c65087f"},"vehicle_type_id":"4","last_reported":1767366733,"current_range_meters":7200,"station_id":"ce4bhi12rcd13ifvqfq0","pricing_plan_id":"cebpf4jnsgd1na2vs0mg"},{"bike_id":"3abbcdb5-2ef5-4a4f-ab5b-ee286c3cac62","system_id":"levelo_inurba_marseille","lat":43.21763,"lon":5.34609,"is_reserved":false,"is_disabled":false,"rental_uris":{"android":"levelo://app?vid=3abbcdb5-2ef5-4a4f-ab5b-ee286c3cac62","ios":"levelo://app?vid=3abbcdb5-2ef5-4a4f-ab5b-ee286c3cac62"},"vehicle_type_id":"4","last_reported":1767366733,"current_range_meters":7200,"station_id":"st_cvj6r9ubvosntc0bgbag","pricing_plan_id":"cebpf4jnsgd1na2vs0mg"},{"bike_id":"99070325-c1a2-425d-aa2c-f2976de310a9","system_id":"levelo_inurba_marseille","lat":43.32498,"lon":5.38283,"is_reserved":false,"is_disabled":false,"rental_uris":{"android":"levelo://app?vid=99070325-c1a2-425d-aa2c-f2976de310a9","ios":"levelo://app?vid=99070325-c1a2-425d-aa2c-f2976de310a9"},"vehicle_type_id":"4","last_reported":1767366733,"current_range_meters":7200,"station_id":"st_d4asgbiv49dc73anf9m0","pricing_plan_id":"cebpf4jnsgd1na2vs0mg"},{"bike_id":"25f1743a-a2b2-454e-84ce-5c43f5ea30d3","system_id":"levelo_inurba_marseille","lat":43.29907,"lon":5.43663,"is_reserved":false,"is_disabled":false,"rental_uris":{"android":"levelo://app?vid=25f1743a-a2b2-454e-84ce-5c43f5ea30d3","ios":"levelo://app?vid=25f1743a-a2b2-454e-84ce-5c43f5ea30d3"},"vehicle_type_id":"4","last_reported":1767366733,"current_range_meters":7200,"station_id":"ce4bhpp2rcd13ifvqhfg","pricing_plan_id":"cebpf4jnsgd1na2vs0mg"},{"bike_id":"4ac5b475-7d04-4263-9c42-e1d966bf4f2e","system_id":"levelo_inurba_marseille","lat":43.231876,"lon":5.400042,"is_reserved":false,"is_disabled":false,"rental_uris":{"android":"levelo://app?vid=4ac5b475-7d04-4263-9c42-e1d966bf4f2e","ios":"levelo://app?vid=4ac5b475-7d04-4263-9c42-e1d966bf4f2e"},"vehicle_type_id":"4","last_reported":1767366733,"current_range_meters":7200,"station_id":"ce4bhn12rcd13ifvqgqg","pricing_plan_id":"cebpf4jnsgd1na2vs0mg"},{"bike_id":"1f4701d5-d340-4df9-98f7-8c976bc059e9","system_id":"levelo_inurba_marseille","lat":43.28301,"lon":5.35041,"is_reserved":false,"is_disabled":false,"rental_uris":{"android":"levelo://app?vid=1f4701d5-d340-4df9-98f7-8c976bc059e9","ios":"levelo://app?vid=1f4701d5-d340-4df9-98f7-8c976bc059e9"},"vehicle_type_id":"4","last_reported":1767366733,"current_range_meters":7200,"station_id":"ce4bhbp2rcd13ifvqerg","pricing_plan_id":"cebpf4jnsgd1na2vs0mg"},{"bike_id":"4982929f-e9ea-44a7-92da-b076dc2891f7","system_id":"levelo_inurba_marseille","lat":43.25004,"lon":5.38937,"is_reserved":false,"is_disabled":false,"rental_uris":{"android":"levelo://app?vid=4982929f-e9ea-44a7-92da-b076dc2891f7","ios":"levelo://app?vid=4982929f-e9ea-44a7-92da-b076dc2891f7"},"vehicle_type_id":"4","last_reported":1767366733,"current_range_meters":7200,"station_id":"ce4bhgp2rcd13ifvqfd0","pricing_plan_id":"cebpf4jnsgd1na2vs0mg"},{"bike_id":"e0decbbd-66f2-41ff-95bf-ae2a7b2f4e23","system_id":"levelo_inurba_marseille","lat":43.28636,"lon":5.42636,"is_reserved":false,"is_disabled":false,"rental_uris":{"android":"levelo://app?vid=e0decbbd-66f2-41ff-95bf-ae2a7b2f4e23","ios":"levelo://app?vid=e0decbbd-66f2-41ff-95bf-ae2a7b2f4e23"},"vehicle_type_id":"4","last_reported":1767366733,"current_range_meters":7200,"station_id":"","pricing_plan_id":"cebpf4jnsgd1na2vs0mg"},{"bike_id":"772124ba-5420-4e94-ba55-32ef5db59e17","system_id":"levelo_inurba_marseille","lat":43.2805,"lon":5.35336,"is_reserved":false,"is_disabled":false,"rental_uris":{"android":"levelo://app?vid=772124ba-5420-4e94-ba55-32ef5db59e17","ios":"levelo://app?vid=772124ba-5420-4e94-ba55-32ef5db59e17"},"vehicle_type_id":"4","last_reported":1767366733,"current_range_meters":7200,"station_id":"","pricing_plan_id":"cebpf4jnsgd1na2vs0mg"},{"bike_id":"3ea63038-6c6b-45f0-b75e-c21acaf1cee5","system_id":"levelo_inurba_marseille","lat":43.27398,"lon":5.39377,"is_reserved":false,"is_disabled":false,"rental_uris":{"android":"levelo://app?vid=3ea63038-6c6b-45f0-b75e-c21acaf1cee5","ios":"levelo://app?vid=3ea63038-6c6b-45f0-b75e-c21acaf1cee5"},"vehicle_type_id":"4","last_reported":1767366733,"current_range_meters":7200,"station_id":"ce4bhdp2rcd13ifvqf20","pricing_plan_id":"cebpf4jnsgd1na2vs0mg"},{"bike_id":"aa4c0c3c-20a8-4dcd-8254-3a59efbed1dc","system_id":"levelo_inurba_marseille","lat":43.28441,"lon":5.38465,"is_reserved":false,"is_disabled":false,"rental_uris":{"android":"levelo://app?vid=aa4c0c3c-20a8-4dcd-8254-3a59efbed1dc","ios":"levelo://app?vid=aa4c0c3c-20a8-4dcd-8254-3a59efbed1dc"},"vehicle_type_id":"4","last_reported":1767366733,"current_range_meters":8000,"station_id":"","pricing_plan_id":"cebpf4jnsgd1na2vs0mg"},{"bike_id":"4e9b7826-9833-4a84-8916-93badf36f6d2","system_id":"levelo_inurba_marseille","lat":43.225351,"lon":5.348319,"is_reserved":false,"is_disabled":false,"rental_uris":{"android":"levelo://app?vid=4e9b7826-9833-4a84-8916-93badf36f6d2","ios":"levelo://app?vid=4e9b7826-9833-4a84-8916-93badf36f6d2"},"vehicle_type_id":"4","last_reported":1767366733,"current_range_meters":8000,"station_id":"","pricing_plan_id":"cebpf4jnsgd1na2vs0mg"},{"bike_id":"9cd60386-b05b-46f8-9f2d-306997d41220","system_id":"levelo_inurba_marseille","lat":43.25834,"lon":5.39429,"is_reserved":false,"is_disabled":true,"rental_uris":{"android":"levelo://app?vid=9cd60386-b05b-46f8-9f2d-306997d41220","ios":"levelo://app?vid=9cd60386-b05b-46f8-9f2d-306997d41220"},"vehicle_type_id":"4","last_reported":1767366733,"current_range_meters":8000,"station_id":"ce4bhip2rcd13ifvqft0","pricing_plan_id":"cebpf4jnsgd1na2vs0mg"},{"bike_id":"60a24bfa-71d1-4394-8423-89ffbc06474e","system_id":"levelo_inurba_marseille","lat":43.302816,"lon":5.376592,"is_reserved":false,"is_disabled":false,"rental_uris":{"android":"levelo://app?vid=60a24bfa-71d1-4394-8423-89ffbc06474e","ios":"levelo://app?vid=60a24bfa-71d1-4394-8423-89ffbc06474e"},"vehicle_type_id":"4","last_reported":1767366733,"current_range_meters":8000,"station_id":"ce4bguh2rcd13ifvqcj0","pricing_plan_id":"cebpf4jnsgd1na2vs0mg"},{"bike_id":"22f63695-08a2-40ef-b111-47d67428bd54","system_id":"levelo_inurba_marseille","lat":43.279758,"lon":5.387327,"is_reserved":false,"is_disabled":false,"rental_uris":{"android":"levelo://app?vid=22f63695-08a2-40ef-b111-47d67428bd54","ios":"levelo://app?vid=22f63695-08a2-40ef-b111-47d67428bd54"},"vehicle_type_id":"4","last_reported":1767366733,"current_range_meters":8000,"station_id":"ce4bhg12rcd13ifvqf80","pricing_plan_id":"cebpf4jnsgd1na2vs0mg"},{"bike_id":"01a071de-5bd4-45f6-be3f-8eb9ec8ae002","system_id":"levelo_inurba_marseille","lat":43.280035,"lon":5.400104,"is_reserved":false,"is_disabled":false,"rental_uris":{"android":"levelo://app?vid=01a071de-5bd4-45f6-be3f-8eb9ec8ae002","ios":"levelo://app?vid=01a071de-5bd4-45f6-be3f-8eb9ec8ae002"},"vehicle_type_id":"4","last_reported":1767366733,"current_range_meters":8000,"station_id":"ce4bho92rcd13ifvqh4g","pricing_plan_id":"cebpf4jnsgd1na2vs0mg"},{"bike_id":"b6633023-7126-4061-b725-029707af05dd","system_id":"levelo_inurba_marseille","lat":43.28085,"lon":5.39657,"is_reserved":false,"is_disabled":false,"rental_uris":{"android":"levelo://app?vid=b6633023-7126-4061-b725-029707af05dd","ios":"levelo://app?vid=b6633023-7126-4061-b725-029707af05dd"},"vehicle_type_id":"4","last_reported":1767366733,"current_range_meters":8000,"station_id":"ce4bho12rcd13ifvqh2g","pricing_plan_id":"cebpf4jnsgd1na2vs0mg"},{"bike_id":"275fe993-82e9-414f-ad4d-1f5394ebb649","system_id":"levelo_inurba_marseille","lat":43.2951,"lon":5.37498,"is_reserved":false,"is_disabled":false,"rental_uris":{"android":"levelo://app?vid=275fe993-82e9-414f-ad4d-1f5394ebb649","ios":"levelo://app?vid=275fe993-82e9-414f-ad4d-1f5394ebb649"},"vehicle_type_id":"4","last_reported":1767366733,"current_range_meters":8000,"station_id":"ce4bgkp2rcd13ifvqbmg","pricing_plan_id":"cebpf4jnsgd1na2vs0mg"},{"bike_id":"8242c39d-e217-46ca-95aa-b68fdf12538a","system_id":"levelo_inurba_marseille","lat":43.29611,"lon":5.3772,"is_reserved":false,"is_disabled":false,"rental_uris":{"android":"levelo://app?vid=8242c39d-e217-46ca-95aa-b68fdf12538a","ios":"levelo://app?vid=8242c39d-e217-46ca-95aa-b68fdf12538a"},"vehicle_type_id":"4","last_reported":1767366733,"current_range_meters":8000,"station_id":"ce4bgi92rcd13ifvqb90","pricing_plan_id":"cebpf4jnsgd1na2vs0mg"},{"bike_id":"ba5733a6-8ff3-4669-a527-c03ed130461a","system_id":"levelo_inurba_marseille","lat":43.2841,"lon":5.35015,"is_reserved":false,"is_disabled":false,"rental_uris":{"android":"levelo://app?vid=ba5733a6-8ff3-4669-a527-c03ed130461a","ios":"levelo://app?vid=ba5733a6-8ff3-4669-a527-c03ed130461a"},"vehicle_type_id":"4","last_reported":1767366733,"current_range_meters":8000,"station_id":"ce4bhbh2rcd13ifvqepg","pricing_plan_id":"cebpf4jnsgd1na2vs0mg"},{"bike_id":"3ec44dab-28b8-4b5e-957d-d76f4fbaf546","system_id":"levelo_inurba_marseille","lat":43.29009,"lon":5.35617,"is_reserved":false,"is_disabled":false,"rental_uris":{"android":"levelo://app?vid=3ec44dab-28b8-4b5e-957d-d76f4fbaf546","ios":"levelo://app?vid=3ec44dab-28b8-4b5e-957d-d76f4fbaf546"},"vehicle_type_id":"4","last_reported":1767366733,"current_range_meters":8000,"station_id":"ce4bhb92rcd13ifvqen0","pricing_plan_id":"cebpf4jnsgd1na2vs0mg"},{"bike_id":"185e0c2e-84e6-4755-93a3-88817b0eaaae","system_id":"levelo_inurba_marseille","lat":43.23793,"lon":5.36629,"is_reserved":false,"is_disabled":false,"rental_uris":{"android":"levelo://app?vid=185e0c2e-84e6-4755-93a3-88817b0eaaae","ios":"levelo://app?vid=185e0c2e-84e6-4755-93a3-88817b0eaaae"},"vehicle_type_id":"4","last_reported":1767366733,"current_range_meters":8000,"station_id":"st_d3nk18o9ro0c73en2l3g","pricing_plan_id":"cebpf4jnsgd1na2vs0mg"},{"bike_id":"ede609ee-7743-4891-9863-ee99fc2daecf","system_id":"levelo_inurba_marseille","lat":43.295773,"lon":5.375078,"is_reserved":false,"is_disabled":false,"rental_uris":{"android":"levelo://app?vid=ede609ee-7743-4891-9863-ee99fc2daecf","ios":"levelo://app?vid=ede609ee-7743-4891-9863-ee99fc2daecf"},"vehicle_type_id":"4","last_reported":1767366733,"current_range_meters":8000,"station_id":"ce4bgh92rcd13ifvqb50","pricing_plan_id":"cebpf4jnsgd1na2vs0mg"},{"bike_id":"bd7dae58-f8aa-4f2d-a017-ca84a32c9968","system_id":"levelo_inurba_marseille","lat":43.24152,"lon":5.36379,"is_reserved":false,"is_disabled":false,"rental_uris":{"android":"levelo://app?vid=bd7dae58-f8aa-4f2d-a017-ca84a32c9968","ios":"levelo://app?vid=bd7dae58-f8aa-4f2d-a017-ca84a32c9968"},"vehicle_type_id":"4","last_reported":1767366733,"current_range_meters":8000,"station_id":"cpo36qri1sfpv3e86is0","pricing_plan_id":"cebpf4jnsgd1na2vs0mg"},{"bike_id":"f89a7ab5-4f10-40db-80a7-7c57c53bb059","system_id":"levelo_inurba_marseille","lat":43.2672,"lon":5.40671,"is_reserved":false,"is_disabled":false,"rental_uris":{"android":"levelo://app?vid=f89a7ab5-4f10-40db-80a7-7c57c53bb059","ios":"levelo://app?vid=f89a7ab5-4f10-40db-80a7-7c57c53bb059"},"vehicle_type_id":"4","last_reported":1767366733,"current_range_meters":8000,"station_id":"","pricing_plan_id":"cebpf4jnsgd1na2vs0mg"},{"bike_id":"28402ba4-545e-40bf-99ce-3a6d2cb26dc4","system_id":"levelo_inurba_marseille","lat":43.30595,"lon":5.37233,"is_reserved":false,"is_disabled":false,"rental_uris":{"android":"levelo://app?vid=28402ba4-545e-40bf-99ce-3a6d2cb26dc4","ios":"levelo://app?vid=28402ba4-545e-40bf-99ce-3a6d2cb26dc4"},"vehicle_type_id":"4","last_reported":1767366733,"current_range_meters":8000,"station_id":"ce4bgqh2rcd13ifvqc4g","pricing_plan_id":"cebpf4jnsgd1na2vs0mg"},{"bike_id":"0cd444de-9d90-4bf4-b0ed-a8723f8900d3","system_id":"levelo_inurba_marseille","lat":43.29022,"lon":5.35629,"is_reserved":false,"is_disabled":false,"rental_uris":{"android":"levelo://app?vid=0cd444de-9d90-4bf4-b0ed-a8723f8900d3","ios":"levelo://app?vid=0cd444de-9d90-4bf4-b0ed-a8723f8900d3"},"vehicle_type_id":"4","last_reported":1767366733,"current_range_meters":8000,"station_id":"ce4bhb92rcd13ifvqen0","pricing_plan_id":"cebpf4jnsgd1na2vs0mg"},{"bike_id":"96415ff9-cd65-4594-b519-e8462c67afcf","system_id":"levelo_inurba_marseille","lat":43.28539,"lon":5.441039,"is_reserved":false,"is_disabled":false,"rental_uris":{"android":"levelo://app?vid=96415ff9-cd65-4594-b519-e8462c67afcf","ios":"levelo://app?vid=96415ff9-cd65-4594-b519-e8462c67afcf"},"vehicle_type_id":"4","last_reported":1767366733,"current_range_meters":8000,"station_id":"st_d3j3df2ikq2c7380ej80","pricing_plan_id":"cebpf4jnsgd1na2vs0mg"},{"bike_id":"cadc82e3-3c1e-4b3f-8452-04462e4f5cfd","system_id":"levelo_inurba_marseille","lat":43.23163,"lon":5.43734,"is_reserved":false,"is_disabled":false,"rental_uris":{"android":"levelo://app?vid=cadc82e3-3c1e-4b3f-8452-04462e4f5cfd","ios":"levelo://app?vid=cadc82e3-3c1e-4b3f-8452-04462e4f5cfd"},"vehicle_type_id":"4","last_reported":1767366733,"current_range_meters":8000,"station_id":"ce4bhmp2rcd13ifvqgog","pricing_plan_id":"cebpf4jnsgd1na2vs0mg"},{"bike_id":"42d77009-fa58-4df2-b896-ba647ada43e5","system_id":"levelo_inurba_marseille","lat":43.27902,"lon":5.40473,"is_reserved":false,"is_disabled":false,"rental_uris":{"android":"levelo://app?vid=42d77009-fa58-4df2-b896-ba647ada43e5","ios":"levelo://app?vid=42d77009-fa58-4df2-b896-ba647ada43e5"},"vehicle_type_id":"4","last_reported":1767366733,"current_range_meters":8000,"station_id":"","pricing_plan_id":"cebpf4jnsgd1na2vs0mg"},{"bike_id":"81640354-1fdb-4e0c-8b2a-c31f90862a44","system_id":"levelo_inurba_marseille","lat":43.30504,"lon":5.39421,"is_reserved":false,"is_disabled":false,"rental_uris":{"android":"levelo://app?vid=81640354-1fdb-4e0c-8b2a-c31f90862a44","ios":"levelo://app?vid=81640354-1fdb-4e0c-8b2a-c31f90862a44"},"vehicle_type_id":"4","last_reported":1767366733,"current_range_meters":8000,"station_id":"","pricing_plan_id":"cebpf4jnsgd1na2vs0mg"},{"bike_id":"0136f340-2ac9-4a5b-8037-bacf705d6056","system_id":"levelo_inurba_marseille","lat":43.26065,"lon":5.39394,"is_reserved":false,"is_disabled":false,"rental_uris":{"android":"levelo://app?vid=0136f340-2ac9-4a5b-8037-bacf705d6056","ios":"levelo://app?vid=0136f340-2ac9-4a5b-8037-bacf705d6056"},"vehicle_type_id":"4","last_reported":1767366733,"current_range_meters":8000,"station_id":"ce4bhh92rcd13ifvqfj0","pricing_plan_id":"cebpf4jnsgd1na2vs0mg"},{"bike_id":"b62193e6-744b-4181-8bcc-23d13e78d12b","system_id":"levelo_inurba_marseille","lat":43.26558,"lon":5.40318,"is_reserved":false,"is_disabled":false,"rental_uris":{"android":"levelo://app?vid=b62193e6-744b-4181-8bcc-23d13e78d12b","ios":"levelo://app?vid=b62193e6-744b-4181-8bcc-23d13e78d12b"},"vehicle_type_id":"4","last_reported":1767366733,"current_range_meters":8400,"station_id":"ce4bhmp2rcd13ifvqgng","pricing_plan_id":"cebpf4jnsgd1na2vs0mg"},{"bike_id":"2d42aa17-c3b7-4399-a80f-3190c91cb12e","system_id":"levelo_inurba_marseille","lat":43.29766,"lon":5.4399,"is_reserved":false,"is_disabled":false,"rental_uris":{"android":"levelo://app?vid=2d42aa17-c3b7-4399-a80f-3190c91cb12e","ios":"levelo://app?vid=2d42aa17-c3b7-4399-a80f-3190c91cb12e"},"vehicle_type_id":"4","last_reported":1767366733,"current_range_meters":8400,"station_id":"st_d3jp68qikq2c7381ktn0","pricing_plan_id":"cebpf4jnsgd1na2vs0mg"},{"bike_id":"2989d543-09b9-4cc7-9209-a8569842b8c1","system_id":"levelo_inurba_marseille","lat":43.21744,"lon":5.34606,"is_reserved":false,"is_disabled":false,"rental_uris":{"android":"levelo://app?vid=2989d543-09b9-4cc7-9209-a8569842b8c1","ios":"levelo://app?vid=2989d543-09b9-4cc7-9209-a8569842b8c1"},"vehicle_type_id":"4","last_reported":1767366733,"current_range_meters":8400,"station_id":"st_cvj6r9ubvosntc0bgbag","pricing_plan_id":"cebpf4jnsgd1na2vs0mg"},{"bike_id":"2b8bea13-f963-4af9-873f-0adbe68583d4","system_id":"levelo_inurba_marseille","lat":43.28859,"lon":5.42511,"is_reserved":false,"is_disabled":false,"rental_uris":{"android":"levelo://app?vid=2b8bea13-f963-4af9-873f-0adbe68583d4","ios":"levelo://app?vid=2b8bea13-f963-4af9-873f-0adbe68583d4"},"vehicle_type_id":"4","last_reported":1767366733,"current_range_meters":8400,"station_id":"st_d3b462108ojc7389ooeg","pricing_plan_id":"cebpf4jnsgd1na2vs0mg"},{"bike_id":"b6b7a146-8a76-4eb7-abd8-58e5d94b3994","system_id":"levelo_inurba_marseille","lat":43.24634,"lon":5.43163,"is_reserved":false,"is_disabled":false,"rental_uris":{"android":"levelo://app?vid=b6b7a146-8a76-4eb7-abd8-58e5d94b3994","ios":"levelo://app?vid=b6b7a146-8a76-4eb7-abd8-58e5d94b3994"},"vehicle_type_id":"4","last_reported":1767366733,"current_range_meters":8400,"station_id":"st_d2m6c4gdas8pm72e190g","pricing_plan_id":"cebpf4jnsgd1na2vs0mg"},{"bike_id":"68760415-b79d-45e2-af26-b3bf92005dff","system_id":"levelo_inurba_marseille","lat":43.29298,"lon":5.374606,"is_reserved":false,"is_disabled":false,"rental_uris":{"android":"levelo://app?vid=68760415-b79d-45e2-af26-b3bf92005dff","ios":"levelo://app?vid=68760415-b79d-45e2-af26-b3bf92005dff"},"vehicle_type_id":"4","last_reported":1767366733,"current_range_meters":8400,"station_id":"ce4bgi12rcd13ifvqb70","pricing_plan_id":"cebpf4jnsgd1na2vs0mg"},{"bike_id":"d17e6fe2-7a1e-4970-bf2f-cb8626ca5cf3","system_id":"levelo_inurba_marseille","lat":43.28621,"lon":5.35107,"is_reserved":false,"is_disabled":false,"rental_uris":{"android":"levelo://app?vid=d17e6fe2-7a1e-4970-bf2f-cb8626ca5cf3","ios":"levelo://app?vid=d17e6fe2-7a1e-4970-bf2f-cb8626ca5cf3"},"vehicle_type_id":"4","last_reported":1767366733,"current_range_meters":8400,"station_id":"ce4bhch2rcd13ifvqeug","pricing_plan_id":"cebpf4jnsgd1na2vs0mg"},{"bike_id":"c7520a13-b022-4cba-860a-1d0a7964595c","system_id":"levelo_inurba_marseille","lat":43.230662,"lon":5.35507,"is_reserved":false,"is_disabled":false,"rental_uris":{"android":"levelo://app?vid=c7520a13-b022-4cba-860a-1d0a7964595c","ios":"levelo://app?vid=c7520a13-b022-4cba-860a-1d0a7964595c"},"vehicle_type_id":"4","last_reported":1767366733,"current_range_meters":8400,"station_id":"cpo3342slgdg3j2ifvpg","pricing_plan_id":"cebpf4jnsgd1na2vs0mg"},{"bike_id":"046f6f6d-1f73-42b5-99cc-1960f79b5648","system_id":"levelo_inurba_marseille","lat":43.29674,"lon":5.37301,"is_reserved":false,"is_disabled":false,"rental_uris":{"android":"levelo://app?vid=046f6f6d-1f73-42b5-99cc-1960f79b5648","ios":"levelo://app?vid=046f6f6d-1f73-42b5-99cc-1960f79b5648"},"vehicle_type_id":"4","last_reported":1767366733,"current_range_meters":8400,"station_id":"ce4bgk12rcd13ifvqbj0","pricing_plan_id":"cebpf4jnsgd1na2vs0mg"},{"bike_id":"4eb49ed5-3edb-450d-a189-d84f0a121255","system_id":"levelo_inurba_marseille","lat":43.28999,"lon":5.3561,"is_reserved":false,"is_disabled":false,"rental_uris":{"android":"levelo://app?vid=4eb49ed5-3edb-450d-a189-d84f0a121255","ios":"levelo://app?vid=4eb49ed5-3edb-450d-a189-d84f0a121255"},"vehicle_type_id":"4","last_reported":1767366733,"current_range_meters":8400,"station_id":"ce4bhb92rcd13ifvqen0","pricing_plan_id":"cebpf4jnsgd1na2vs0mg"},{"bike_id":"ccfc82e2-7111-46fc-9d55-f2d3ae4e5db0","system_id":"levelo_inurba_marseille","lat":43.28936,"lon":5.36631,"is_reserved":false,"is_disabled":false,"rental_uris":{"android":"levelo://app?vid=ccfc82e2-7111-46fc-9d55-f2d3ae4e5db0","ios":"levelo://app?vid=ccfc82e2-7111-46fc-9d55-f2d3ae4e5db0"},"vehicle_type_id":"4","last_reported":1767366733,"current_range_meters":8400,"station_id":"ce4bhap2rcd13ifvqek0","pricing_plan_id":"cebpf4jnsgd1na2vs0mg"},{"bike_id":"1f3dd7a1-5535-4fc0-834e-8c50cf78bb81","system_id":"levelo_inurba_marseille","lat":43.29767,"lon":5.37595,"is_reserved":false,"is_disabled":false,"rental_uris":{"android":"levelo://app?vid=1f3dd7a1-5535-4fc0-834e-8c50cf78bb81","ios":"levelo://app?vid=1f3dd7a1-5535-4fc0-834e-8c50cf78bb81"},"vehicle_type_id":"4","last_reported":1767366733,"current_range_meters":8400,"station_id":"","pricing_plan_id":"cebpf4jnsgd1na2vs0mg"},{"bike_id":"dbf219a1-b870-4abc-be69-3d6c5a8a7a68","system_id":"levelo_inurba_marseille","lat":43.284688,"lon":5.384265,"is_reserved":false,"is_disabled":false,"rental_uris":{"android":"levelo://app?vid=dbf219a1-b870-4abc-be69-3d6c5a8a7a68","ios":"levelo://app?vid=dbf219a1-b870-4abc-be69-3d6c5a8a7a68"},"vehicle_type_id":"4","last_reported":1767366733,"current_range_meters":8400,"station_id":"ce4bh512rcd13ifvqe3g","pricing_plan_id":"cebpf4jnsgd1na2vs0mg"},{"bike_id":"91cb2a4e-20f3-491f-aaf3-92b41a5985d9","system_id":"levelo_inurba_marseille","lat":43.28479,"lon":5.38424,"is_reserved":false,"is_disabled":true,"rental_uris":{"android":"levelo://app?vid=91cb2a4e-20f3-491f-aaf3-92b41a5985d9","ios":"levelo://app?vid=91cb2a4e-20f3-491f-aaf3-92b41a5985d9"},"vehicle_type_id":"4","last_reported":1767366733,"current_range_meters":8400,"station_id":"ce4bh512rcd13ifvqe3g","pricing_plan_id":"cebpf4jnsgd1na2vs0mg"},{"bike_id":"a6b30b96-6422-4f6a-a539-620dc43a669f","system_id":"levelo_inurba_marseille","lat":43.28536,"lon":5.44115,"is_reserved":false,"is_disabled":false,"rental_uris":{"android":"levelo://app?vid=a6b30b96-6422-4f6a-a539-620dc43a669f","ios":"levelo://app?vid=a6b30b96-6422-4f6a-a539-620dc43a669f"},"vehicle_type_id":"4","last_reported":1767366733,"current_range_meters":8400,"station_id":"st_d3j3df2ikq2c7380ej80","pricing_plan_id":"cebpf4jnsgd1na2vs0mg"},{"bike_id":"50627e64-48ff-427e-9cb5-c3d8f7b5dfe0","system_id":"levelo_inurba_marseille","lat":43.29258,"lon":5.38443,"is_reserved":false,"is_disabled":false,"rental_uris":{"android":"levelo://app?vid=50627e64-48ff-427e-9cb5-c3d8f7b5dfe0","ios":"levelo://app?vid=50627e64-48ff-427e-9cb5-c3d8f7b5dfe0"},"vehicle_type_id":"4","last_reported":1767366733,"current_range_meters":8400,"station_id":"ce4bh692rcd13ifvqea0","pricing_plan_id":"cebpf4jnsgd1na2vs0mg"},{"bike_id":"aaad646b-1f64-4c1d-84b2-64bc4850cdf0","system_id":"levelo_inurba_marseille","lat":43.30551,"lon":5.36563,"is_reserved":false,"is_disabled":false,"rental_uris":{"android":"levelo://app?vid=aaad646b-1f64-4c1d-84b2-64bc4850cdf0","ios":"levelo://app?vid=aaad646b-1f64-4c1d-84b2-64bc4850cdf0"},"vehicle_type_id":"4","last_reported":1767366733,"current_range_meters":8400,"station_id":"ce4bgs12rcd13ifvqcag","pricing_plan_id":"cebpf4jnsgd1na2vs0mg"},{"bike_id":"f0ceec93-779f-47ba-8807-2aa439a68c8f","system_id":"levelo_inurba_marseille","lat":43.28689,"lon":5.37401,"is_reserved":false,"is_disabled":false,"rental_uris":{"android":"levelo://app?vid=f0ceec93-779f-47ba-8807-2aa439a68c8f","ios":"levelo://app?vid=f0ceec93-779f-47ba-8807-2aa439a68c8f"},"vehicle_type_id":"4","last_reported":1767366733,"current_range_meters":8400,"station_id":"ce4bh3p2rcd13ifvqdq0","pricing_plan_id":"cebpf4jnsgd1na2vs0mg"},{"bike_id":"83e50346-c21e-466e-8922-aea3198152db","system_id":"levelo_inurba_marseille","lat":43.23775,"lon":5.36642,"is_reserved":false,"is_disabled":false,"rental_uris":{"android":"levelo://app?vid=83e50346-c21e-466e-8922-aea3198152db","ios":"levelo://app?vid=83e50346-c21e-466e-8922-aea3198152db"},"vehicle_type_id":"4","last_reported":1767366733,"current_range_meters":8400,"station_id":"st_d3nk18o9ro0c73en2l3g","pricing_plan_id":"cebpf4jnsgd1na2vs0mg"},{"bike_id":"6dd8e8b5-7ce2-4a7a-9f76-de8624376801","system_id":"levelo_inurba_marseille","lat":43.24825,"lon":5.37417,"is_reserved":false,"is_disabled":false,"rental_uris":{"android":"levelo://app?vid=6dd8e8b5-7ce2-4a7a-9f76-de8624376801","ios":"levelo://app?vid=6dd8e8b5-7ce2-4a7a-9f76-de8624376801"},"vehicle_type_id":"4","last_reported":1767366733,"current_range_meters":8800,"station_id":"ce4bhgh2rcd13ifvqfb0","pricing_plan_id":"cebpf4jnsgd1na2vs0mg"},{"bike_id":"9feea015-e373-4e65-a8f2-66772efb3348","system_id":"levelo_inurba_marseille","lat":43.24765,"lon":5.3761,"is_reserved":false,"is_disabled":false,"rental_uris":{"android":"levelo://app?vid=9feea015-e373-4e65-a8f2-66772efb3348","ios":"levelo://app?vid=9feea015-e373-4e65-a8f2-66772efb3348"},"vehicle_type_id":"4","last_reported":1767366733,"current_range_meters":8800,"station_id":"","pricing_plan_id":"cebpf4jnsgd1na2vs0mg"},{"bike_id":"a69f5702-a727-4e11-b236-d1f7b2ff1174","system_id":"levelo_inurba_marseille","lat":43.30796,"lon":5.4353,"is_reserved":false,"is_disabled":false,"rental_uris":{"android":"levelo://app?vid=a69f5702-a727-4e11-b236-d1f7b2ff1174","ios":"levelo://app?vid=a69f5702-a727-4e11-b236-d1f7b2ff1174"},"vehicle_type_id":"4","last_reported":1767366733,"current_range_meters":8800,"station_id":"","pricing_plan_id":"cebpf4jnsgd1na2vs0mg"},{"bike_id":"06556e06-3200-4994-ba20-46a52280b856","system_id":"levelo_inurba_marseille","lat":43.21761,"lon":5.34602,"is_reserved":false,"is_disabled":false,"rental_uris":{"android":"levelo://app?vid=06556e06-3200-4994-ba20-46a52280b856","ios":"levelo://app?vid=06556e06-3200-4994-ba20-46a52280b856"},"vehicle_type_id":"4","last_reported":1767366733,"current_range_meters":8800,"station_id":"st_cvj6r9ubvosntc0bgbag","pricing_plan_id":"cebpf4jnsgd1na2vs0mg"},{"bike_id":"04c541f3-b297-498e-a18e-c8c36a4fe14d","system_id":"levelo_inurba_marseille","lat":43.21198,"lon":5.35105,"is_reserved":false,"is_disabled":false,"rental_uris":{"android":"levelo://app?vid=04c541f3-b297-498e-a18e-c8c36a4fe14d","ios":"levelo://app?vid=04c541f3-b297-498e-a18e-c8c36a4fe14d"},"vehicle_type_id":"4","last_reported":1767366733,"current_range_meters":8800,"station_id":"st_cvj6sg6p6f1abm77japg","pricing_plan_id":"cebpf4jnsgd1na2vs0mg"},{"bike_id":"a029077d-028b-496a-966a-48cf4c5b0bf6","system_id":"levelo_inurba_marseille","lat":43.28005,"lon":5.400138,"is_reserved":false,"is_disabled":false,"rental_uris":{"android":"levelo://app?vid=a029077d-028b-496a-966a-48cf4c5b0bf6","ios":"levelo://app?vid=a029077d-028b-496a-966a-48cf4c5b0bf6"},"vehicle_type_id":"4","last_reported":1767366733,"current_range_meters":8800,"station_id":"ce4bho92rcd13ifvqh4g","pricing_plan_id":"cebpf4jnsgd1na2vs0mg"},{"bike_id":"b923061f-732c-414c-9e7d-5dc13758b511","system_id":"levelo_inurba_marseille","lat":43.28098,"lon":5.39668,"is_reserved":false,"is_disabled":false,"rental_uris":{"android":"levelo://app?vid=b923061f-732c-414c-9e7d-5dc13758b511","ios":"levelo://app?vid=b923061f-732c-414c-9e7d-5dc13758b511"},"vehicle_type_id":"4","last_reported":1767366733,"current_range_meters":8800,"station_id":"ce4bho12rcd13ifvqh2g","pricing_plan_id":"cebpf4jnsgd1na2vs0mg"},{"bike_id":"306081a2-d539-46c0-aa97-98b5e78347e1","system_id":"levelo_inurba_marseille","lat":43.30255,"lon":5.37689,"is_reserved":false,"is_disabled":false,"rental_uris":{"android":"levelo://app?vid=306081a2-d539-46c0-aa97-98b5e78347e1","ios":"levelo://app?vid=306081a2-d539-46c0-aa97-98b5e78347e1"},"vehicle_type_id":"4","last_reported":1767366733,"current_range_meters":8800,"station_id":"ce4bguh2rcd13ifvqcj0","pricing_plan_id":"cebpf4jnsgd1na2vs0mg"},{"bike_id":"07c022e4-2904-498b-a209-52464d0f1648","system_id":"levelo_inurba_marseille","lat":43.29605,"lon":5.38102,"is_reserved":false,"is_disabled":false,"rental_uris":{"android":"levelo://app?vid=07c022e4-2904-498b-a209-52464d0f1648","ios":"levelo://app?vid=07c022e4-2904-498b-a209-52464d0f1648"},"vehicle_type_id":"4","last_reported":1767366733,"current_range_meters":8800,"station_id":"ce4bgl12rcd13ifvqbo0","pricing_plan_id":"cebpf4jnsgd1na2vs0mg"},{"bike_id":"3e9b8a52-1c26-4230-9ad9-77fb07c3ca7e","system_id":"levelo_inurba_marseille","lat":43.314971,"lon":5.373154,"is_reserved":false,"is_disabled":false,"rental_uris":{"android":"levelo://app?vid=3e9b8a52-1c26-4230-9ad9-77fb07c3ca7e","ios":"levelo://app?vid=3e9b8a52-1c26-4230-9ad9-77fb07c3ca7e"},"vehicle_type_id":"4","last_reported":1767366733,"current_range_meters":8800,"station_id":"","pricing_plan_id":"cebpf4jnsgd1na2vs0mg"},{"bike_id":"d7047870-e930-4dca-9d1e-e2f73db022e3","system_id":"levelo_inurba_marseille","lat":43.296187,"lon":5.371566,"is_reserved":false,"is_disabled":false,"rental_uris":{"android":"levelo://app?vid=d7047870-e930-4dca-9d1e-e2f73db022e3","ios":"levelo://app?vid=d7047870-e930-4dca-9d1e-e2f73db022e3"},"vehicle_type_id":"4","last_reported":1767366733,"current_range_meters":8800,"station_id":"ce4bgnh2rcd13ifvqc0g","pricing_plan_id":"cebpf4jnsgd1na2vs0mg"},{"bike_id":"222fb9ec-2875-4ac5-9c40-850f5a12dca5","system_id":"levelo_inurba_marseille","lat":43.269498,"lon":5.386341,"is_reserved":false,"is_disabled":false,"rental_uris":{"android":"levelo://app?vid=222fb9ec-2875-4ac5-9c40-850f5a12dca5","ios":"levelo://app?vid=222fb9ec-2875-4ac5-9c40-850f5a12dca5"},"vehicle_type_id":"4","last_reported":1767366733,"current_range_meters":8800,"station_id":"ce4bhh92rcd13ifvqfh0","pricing_plan_id":"cebpf4jnsgd1na2vs0mg"},{"bike_id":"1324860b-83ca-4a5c-ac5d-5e8f6006dada","system_id":"levelo_inurba_marseille","lat":43.28487,"lon":5.38418,"is_reserved":false,"is_disabled":false,"rental_uris":{"android":"levelo://app?vid=1324860b-83ca-4a5c-ac5d-5e8f6006dada","ios":"levelo://app?vid=1324860b-83ca-4a5c-ac5d-5e8f6006dada"},"vehicle_type_id":"4","last_reported":1767366733,"current_range_meters":8800,"station_id":"ce4bh512rcd13ifvqe3g","pricing_plan_id":"cebpf4jnsgd1na2vs0mg"},{"bike_id":"f3962737-94b9-4206-bf68-00425886742a","system_id":"levelo_inurba_marseille","lat":43.24407,"lon":5.37097,"is_reserved":false,"is_disabled":false,"rental_uris":{"android":"levelo://app?vid=f3962737-94b9-4206-bf68-00425886742a","ios":"levelo://app?vid=f3962737-94b9-4206-bf68-00425886742a"},"vehicle_type_id":"4","last_reported":1767366733,"current_range_meters":8800,"station_id":"ce4bhhh2rcd13ifvqfk0","pricing_plan_id":"cebpf4jnsgd1na2vs0mg"},{"bike_id":"a8d7b9c9-9770-4e82-9b2c-b9849dc5f248","system_id":"levelo_inurba_marseille","lat":43.27068,"lon":5.42276,"is_reserved":false,"is_disabled":false,"rental_uris":{"android":"levelo://app?vid=a8d7b9c9-9770-4e82-9b2c-b9849dc5f248","ios":"levelo://app?vid=a8d7b9c9-9770-4e82-9b2c-b9849dc5f248"},"vehicle_type_id":"4","last_reported":1767366733,"current_range_meters":8800,"station_id":"ce4bhk92rcd13ifvqgb0","pricing_plan_id":"cebpf4jnsgd1na2vs0mg"},{"bike_id":"4930b15a-3055-46ef-b4ff-4f39799a0b26","system_id":"levelo_inurba_marseille","lat":43.29938,"lon":5.36532,"is_reserved":false,"is_disabled":false,"rental_uris":{"android":"levelo://app?vid=4930b15a-3055-46ef-b4ff-4f39799a0b26","ios":"levelo://app?vid=4930b15a-3055-46ef-b4ff-4f39799a0b26"},"vehicle_type_id":"4","last_reported":1767366733,"current_range_meters":8800,"station_id":"ce4bgm92rcd13ifvqbr0","pricing_plan_id":"cebpf4jnsgd1na2vs0mg"},{"bike_id":"43c1a78b-d396-4314-be34-9c431dabef43","system_id":"levelo_inurba_marseille","lat":43.270658,"lon":5.422844,"is_reserved":false,"is_disabled":false,"rental_uris":{"android":"levelo://app?vid=43c1a78b-d396-4314-be34-9c431dabef43","ios":"levelo://app?vid=43c1a78b-d396-4314-be34-9c431dabef43"},"vehicle_type_id":"4","last_reported":1767366733,"current_range_meters":8800,"station_id":"ce4bhk92rcd13ifvqgb0","pricing_plan_id":"cebpf4jnsgd1na2vs0mg"},{"bike_id":"3685b9d1-5502-4285-85c5-c40c8b8f9d2a","system_id":"levelo_inurba_marseille","lat":43.33225,"lon":5.40594,"is_reserved":false,"is_disabled":false,"rental_uris":{"android":"levelo://app?vid=3685b9d1-5502-4285-85c5-c40c8b8f9d2a","ios":"levelo://app?vid=3685b9d1-5502-4285-85c5-c40c8b8f9d2a"},"vehicle_type_id":"4","last_reported":1767366733,"current_range_meters":8800,"station_id":"","pricing_plan_id":"cebpf4jnsgd1na2vs0mg"},{"bike_id":"bc37c0d9-122a-4d74-b3e1-5b0dc8a43908","system_id":"levelo_inurba_marseille","lat":43.284902,"lon":5.428735,"is_reserved":false,"is_disabled":false,"rental_uris":{"android":"levelo://app?vid=bc37c0d9-122a-4d74-b3e1-5b0dc8a43908","ios":"levelo://app?vid=bc37c0d9-122a-4d74-b3e1-5b0dc8a43908"},"vehicle_type_id":"4","last_reported":1767366733,"current_range_meters":8800,"station_id":"","pricing_plan_id":"cebpf4jnsgd1na2vs0mg"},{"bike_id":"0d6bb5ad-dcd1-405b-b68d-99b30db1c271","system_id":"levelo_inurba_marseille","lat":43.27836,"lon":5.38581,"is_reserved":false,"is_disabled":false,"rental_uris":{"android":"levelo://app?vid=0d6bb5ad-dcd1-405b-b68d-99b30db1c271","ios":"levelo://app?vid=0d6bb5ad-dcd1-405b-b68d-99b30db1c271"},"vehicle_type_id":"4","last_reported":1767366733,"current_range_meters":8800,"station_id":"","pricing_plan_id":"cebpf4jnsgd1na2vs0mg"},{"bike_id":"5b8e0877-74d0-4505-84b4-8c7975a373e7","system_id":"levelo_inurba_marseille","lat":43.296681,"lon":5.380036,"is_reserved":false,"is_disabled":false,"rental_uris":{"android":"levelo://app?vid=5b8e0877-74d0-4505-84b4-8c7975a373e7","ios":"levelo://app?vid=5b8e0877-74d0-4505-84b4-8c7975a373e7"},"vehicle_type_id":"4","last_reported":1767366733,"current_range_meters":8800,"station_id":"","pricing_plan_id":"cebpf4jnsgd1na2vs0mg"},{"bike_id":"7ccf3239-489f-41e4-9cae-69cb2127857a","system_id":"levelo_inurba_marseille","lat":43.29014,"lon":5.38121,"is_reserved":false,"is_disabled":false,"rental_uris":{"android":"levelo://app?vid=7ccf3239-489f-41e4-9cae-69cb2127857a","ios":"levelo://app?vid=7ccf3239-489f-41e4-9cae-69cb2127857a"},"vehicle_type_id":"4","last_reported":1767366733,"current_range_meters":9200,"station_id":"ce4bh4p2rcd13ifvqe1g","pricing_plan_id":"cebpf4jnsgd1na2vs0mg"},{"bike_id":"1a2e827f-a91b-4509-9bcf-79e8768d832c","system_id":"levelo_inurba_marseille","lat":43.211853,"lon":5.35089,"is_reserved":false,"is_disabled":false,"rental_uris":{"android":"levelo://app?vid=1a2e827f-a91b-4509-9bcf-79e8768d832c","ios":"levelo://app?vid=1a2e827f-a91b-4509-9bcf-79e8768d832c"},"vehicle_type_id":"4","last_reported":1767366733,"current_range_meters":9200,"station_id":"","pricing_plan_id":"cebpf4jnsgd1na2vs0mg"},{"bike_id":"081e0fab-3d03-4c48-bb94-cc3c47c837cb","system_id":"levelo_inurba_marseille","lat":43.230616,"lon":5.35507,"is_reserved":false,"is_disabled":true,"rental_uris":{"android":"levelo://app?vid=081e0fab-3d03-4c48-bb94-cc3c47c837cb","ios":"levelo://app?vid=081e0fab-3d03-4c48-bb94-cc3c47c837cb"},"vehicle_type_id":"4","last_reported":1767366733,"current_range_meters":9200,"station_id":"cpo3342slgdg3j2ifvpg","pricing_plan_id":"cebpf4jnsgd1na2vs0mg"},{"bike_id":"649b874c-2158-4c53-8651-f5e61cfdd6d4","system_id":"levelo_inurba_marseille","lat":43.22538,"lon":5.34837,"is_reserved":false,"is_disabled":false,"rental_uris":{"android":"levelo://app?vid=649b874c-2158-4c53-8651-f5e61cfdd6d4","ios":"levelo://app?vid=649b874c-2158-4c53-8651-f5e61cfdd6d4"},"vehicle_type_id":"4","last_reported":1767366733,"current_range_meters":9200,"station_id":"","pricing_plan_id":"cebpf4jnsgd1na2vs0mg"},{"bike_id":"61fae4ff-2397-4842-852a-e1069beef8c4","system_id":"levelo_inurba_marseille","lat":43.2853,"lon":5.44095,"is_reserved":false,"is_disabled":false,"rental_uris":{"android":"levelo://app?vid=61fae4ff-2397-4842-852a-e1069beef8c4","ios":"levelo://app?vid=61fae4ff-2397-4842-852a-e1069beef8c4"},"vehicle_type_id":"4","last_reported":1767366733,"current_range_meters":9200,"station_id":"st_d3j3df2ikq2c7380ej80","pricing_plan_id":"cebpf4jnsgd1na2vs0mg"},{"bike_id":"cacd189b-364d-4b1a-8882-a16ba27a8c11","system_id":"levelo_inurba_marseille","lat":43.23794,"lon":5.36618,"is_reserved":false,"is_disabled":false,"rental_uris":{"android":"levelo://app?vid=cacd189b-364d-4b1a-8882-a16ba27a8c11","ios":"levelo://app?vid=cacd189b-364d-4b1a-8882-a16ba27a8c11"},"vehicle_type_id":"4","last_reported":1767366733,"current_range_meters":9200,"station_id":"st_d3nk18o9ro0c73en2l3g","pricing_plan_id":"cebpf4jnsgd1na2vs0mg"},{"bike_id":"c71f86c2-6363-41d0-b8db-8f9291ee18b9","system_id":"levelo_inurba_marseille","lat":43.225353,"lon":5.348347,"is_reserved":false,"is_disabled":false,"rental_uris":{"android":"levelo://app?vid=c71f86c2-6363-41d0-b8db-8f9291ee18b9","ios":"levelo://app?vid=c71f86c2-6363-41d0-b8db-8f9291ee18b9"},"vehicle_type_id":"4","last_reported":1767366733,"current_range_meters":9200,"station_id":"","pricing_plan_id":"cebpf4jnsgd1na2vs0mg"},{"bike_id":"6f089a7e-e81b-483c-a174-dfec5ca5abcf","system_id":"levelo_inurba_marseille","lat":43.24072,"lon":5.37759,"is_reserved":false,"is_disabled":false,"rental_uris":{"android":"levelo://app?vid=6f089a7e-e81b-483c-a174-dfec5ca5abcf","ios":"levelo://app?vid=6f089a7e-e81b-483c-a174-dfec5ca5abcf"},"vehicle_type_id":"4","last_reported":1767366733,"current_range_meters":9200,"station_id":"ce4bhnp2rcd13ifvqgvg","pricing_plan_id":"cebpf4jnsgd1na2vs0mg"},{"bike_id":"70863109-1d9f-4cf0-8c43-29a5e3efd5a3","system_id":"levelo_inurba_marseille","lat":43.28004,"lon":5.40391,"is_reserved":false,"is_disabled":false,"rental_uris":{"android":"levelo://app?vid=70863109-1d9f-4cf0-8c43-29a5e3efd5a3","ios":"levelo://app?vid=70863109-1d9f-4cf0-8c43-29a5e3efd5a3"},"vehicle_type_id":"4","last_reported":1767366733,"current_range_meters":9200,"station_id":"","pricing_plan_id":"cebpf4jnsgd1na2vs0mg"},{"bike_id":"b57c6de1-75ed-4b1e-805d-0d85c3a79980","system_id":"levelo_inurba_marseille","lat":43.29189,"lon":5.35807,"is_reserved":false,"is_disabled":false,"rental_uris":{"android":"levelo://app?vid=b57c6de1-75ed-4b1e-805d-0d85c3a79980","ios":"levelo://app?vid=b57c6de1-75ed-4b1e-805d-0d85c3a79980"},"vehicle_type_id":"4","last_reported":1767366733,"current_range_meters":9200,"station_id":"ce4bhb12rcd13ifvqel0","pricing_plan_id":"cebpf4jnsgd1na2vs0mg"},{"bike_id":"dc55e18c-67b4-4279-9e79-6b49129449a5","system_id":"levelo_inurba_marseille","lat":43.2885,"lon":5.45484,"is_reserved":false,"is_disabled":false,"rental_uris":{"android":"levelo://app?vid=dc55e18c-67b4-4279-9e79-6b49129449a5","ios":"levelo://app?vid=dc55e18c-67b4-4279-9e79-6b49129449a5"},"vehicle_type_id":"4","last_reported":1767366733,"current_range_meters":9200,"station_id":"","pricing_plan_id":"cebpf4jnsgd1na2vs0mg"},{"bike_id":"5d9168d6-f5e0-4ee1-84d2-cb5f1e22c876","system_id":"levelo_inurba_marseille","lat":43.243942,"lon":5.370469,"is_reserved":false,"is_disabled":false,"rental_uris":{"android":"levelo://app?vid=5d9168d6-f5e0-4ee1-84d2-cb5f1e22c876","ios":"levelo://app?vid=5d9168d6-f5e0-4ee1-84d2-cb5f1e22c876"},"vehicle_type_id":"4","last_reported":1767366733,"current_range_meters":9200,"station_id":"ce4bhhh2rcd13ifvqfk0","pricing_plan_id":"cebpf4jnsgd1na2vs0mg"},{"bike_id":"8ee7a6a3-472a-44c6-b2fd-568ddd132cb8","system_id":"levelo_inurba_marseille","lat":43.26793,"lon":5.39419,"is_reserved":false,"is_disabled":false,"rental_uris":{"android":"levelo://app?vid=8ee7a6a3-472a-44c6-b2fd-568ddd132cb8","ios":"levelo://app?vid=8ee7a6a3-472a-44c6-b2fd-568ddd132cb8"},"vehicle_type_id":"4","last_reported":1767366733,"current_range_meters":9200,"station_id":"ce4bhh12rcd13ifvqfg0","pricing_plan_id":"cebpf4jnsgd1na2vs0mg"},{"bike_id":"be34864a-9081-4de9-80b6-37a3cde517d0","system_id":"levelo_inurba_marseille","lat":43.280852,"lon":5.396665,"is_reserved":false,"is_disabled":false,"rental_uris":{"android":"levelo://app?vid=be34864a-9081-4de9-80b6-37a3cde517d0","ios":"levelo://app?vid=be34864a-9081-4de9-80b6-37a3cde517d0"},"vehicle_type_id":"4","last_reported":1767366733,"current_range_meters":9200,"station_id":"ce4bho12rcd13ifvqh2g","pricing_plan_id":"cebpf4jnsgd1na2vs0mg"},{"bike_id":"bd20cbe2-eda3-4f39-93d1-adda95e404fc","system_id":"levelo_inurba_marseille","lat":43.27427,"lon":5.39414,"is_reserved":false,"is_disabled":true,"rental_uris":{"android":"levelo://app?vid=bd20cbe2-eda3-4f39-93d1-adda95e404fc","ios":"levelo://app?vid=bd20cbe2-eda3-4f39-93d1-adda95e404fc"},"vehicle_type_id":"4","last_reported":1767366733,"current_range_meters":9600,"station_id":"ce4bhdp2rcd13ifvqf20","pricing_plan_id":"cebpf4jnsgd1na2vs0mg"},{"bike_id":"607f6356-92f4-49b1-8436-7911c576c661","system_id":"levelo_inurba_marseille","lat":43.29273,"lon":5.37411,"is_reserved":false,"is_disabled":false,"rental_uris":{"android":"levelo://app?vid=607f6356-92f4-49b1-8436-7911c576c661","ios":"levelo://app?vid=607f6356-92f4-49b1-8436-7911c576c661"},"vehicle_type_id":"4","last_reported":1767366733,"current_range_meters":9600,"station_id":"ce4bgi12rcd13ifvqb70","pricing_plan_id":"cebpf4jnsgd1na2vs0mg"},{"bike_id":"67bf8f90-a5df-42e7-b267-9ae66edff758","system_id":"levelo_inurba_marseille","lat":43.30604,"lon":5.37608,"is_reserved":false,"is_disabled":false,"rental_uris":{"android":"levelo://app?vid=67bf8f90-a5df-42e7-b267-9ae66edff758","ios":"levelo://app?vid=67bf8f90-a5df-42e7-b267-9ae66edff758"},"vehicle_type_id":"4","last_reported":1767366733,"current_range_meters":9600,"station_id":"","pricing_plan_id":"cebpf4jnsgd1na2vs0mg"},{"bike_id":"58368be6-e0f4-47ca-8c29-4c03258836e5","system_id":"levelo_inurba_marseille","lat":43.299569,"lon":5.400987,"is_reserved":false,"is_disabled":false,"rental_uris":{"android":"levelo://app?vid=58368be6-e0f4-47ca-8c29-4c03258836e5","ios":"levelo://app?vid=58368be6-e0f4-47ca-8c29-4c03258836e5"},"vehicle_type_id":"4","last_reported":1767366733,"current_range_meters":9600,"station_id":"ce4bh3p2rcd13ifvqdp0","pricing_plan_id":"cebpf4jnsgd1na2vs0mg"},{"bike_id":"e0effb5a-e8c9-4234-ae32-e89cc890b254","system_id":"levelo_inurba_marseille","lat":43.288655,"lon":5.425333,"is_reserved":false,"is_disabled":false,"rental_uris":{"android":"levelo://app?vid=e0effb5a-e8c9-4234-ae32-e89cc890b254","ios":"levelo://app?vid=e0effb5a-e8c9-4234-ae32-e89cc890b254"},"vehicle_type_id":"4","last_reported":1767366733,"current_range_meters":9600,"station_id":"st_d3b462108ojc7389ooeg","pricing_plan_id":"cebpf4jnsgd1na2vs0mg"},{"bike_id":"1c049e5b-b3eb-4985-9f60-a621f5ea8094","system_id":"levelo_inurba_marseille","lat":43.29989,"lon":5.40327,"is_reserved":false,"is_disabled":false,"rental_uris":{"android":"levelo://app?vid=1c049e5b-b3eb-4985-9f60-a621f5ea8094","ios":"levelo://app?vid=1c049e5b-b3eb-4985-9f60-a621f5ea8094"},"vehicle_type_id":"4","last_reported":1767366733,"current_range_meters":9600,"station_id":"","pricing_plan_id":"cebpf4jnsgd1na2vs0mg"},{"bike_id":"63141a2f-efcf-4cad-8eaa-6a7f7f21c924","system_id":"levelo_inurba_marseille","lat":43.28883,"lon":5.42531,"is_reserved":false,"is_disabled":false,"rental_uris":{"android":"levelo://app?vid=63141a2f-efcf-4cad-8eaa-6a7f7f21c924","ios":"levelo://app?vid=63141a2f-efcf-4cad-8eaa-6a7f7f21c924"},"vehicle_type_id":"4","last_reported":1767366733,"current_range_meters":9600,"station_id":"st_d3b462108ojc7389ooeg","pricing_plan_id":"cebpf4jnsgd1na2vs0mg"},{"bike_id":"4c94cc94-034d-45a6-a887-bd55bd7d531b","system_id":"levelo_inurba_marseille","lat":43.30546,"lon":5.38326,"is_reserved":false,"is_disabled":false,"rental_uris":{"android":"levelo://app?vid=4c94cc94-034d-45a6-a887-bd55bd7d531b","ios":"levelo://app?vid=4c94cc94-034d-45a6-a887-bd55bd7d531b"},"vehicle_type_id":"4","last_reported":1767366733,"current_range_meters":9600,"station_id":"","pricing_plan_id":"cebpf4jnsgd1na2vs0mg"},{"bike_id":"b069e66b-3d24-44ee-a3b6-26964d74bee5","system_id":"levelo_inurba_marseille","lat":43.28029,"lon":5.40602,"is_reserved":false,"is_disabled":false,"rental_uris":{"android":"levelo://app?vid=b069e66b-3d24-44ee-a3b6-26964d74bee5","ios":"levelo://app?vid=b069e66b-3d24-44ee-a3b6-26964d74bee5"},"vehicle_type_id":"4","last_reported":1767366733,"current_range_meters":9600,"station_id":"","pricing_plan_id":"cebpf4jnsgd1na2vs0mg"},{"bike_id":"135f5aae-6876-4e42-bdaa-6c13991f4488","system_id":"levelo_inurba_marseille","lat":43.24166,"lon":5.36393,"is_reserved":false,"is_disabled":false,"rental_uris":{"android":"levelo://app?vid=135f5aae-6876-4e42-bdaa-6c13991f4488","ios":"levelo://app?vid=135f5aae-6876-4e42-bdaa-6c13991f4488"},"vehicle_type_id":"4","last_reported":1767366733,"current_range_meters":9600,"station_id":"cpo36qri1sfpv3e86is0","pricing_plan_id":"cebpf4jnsgd1na2vs0mg"},{"bike_id":"a5e341dd-f678-4ec1-a7c6-1c53bd98d5b6","system_id":"levelo_inurba_marseille","lat":43.29732,"lon":5.38035,"is_reserved":false,"is_disabled":false,"rental_uris":{"android":"levelo://app?vid=a5e341dd-f678-4ec1-a7c6-1c53bd98d5b6","ios":"levelo://app?vid=a5e341dd-f678-4ec1-a7c6-1c53bd98d5b6"},"vehicle_type_id":"4","last_reported":1767366733,"current_range_meters":9600,"station_id":"","pricing_plan_id":"cebpf4jnsgd1na2vs0mg"},{"bike_id":"662018fb-e5a7-4ee8-a674-08ede42ece6a","system_id":"levelo_inurba_marseille","lat":43.31198,"lon":5.3692,"is_reserved":false,"is_disabled":false,"rental_uris":{"android":"levelo://app?vid=662018fb-e5a7-4ee8-a674-08ede42ece6a","ios":"levelo://app?vid=662018fb-e5a7-4ee8-a674-08ede42ece6a"},"vehicle_type_id":"4","last_reported":1767366733,"current_range_meters":9600,"station_id":"","pricing_plan_id":"cebpf4jnsgd1na2vs0mg"},