{"last_updated":1734217701,"ttl":60,"version":"2.2","data":{"bikes":[{"bike_id":"45c22bfb-3859-46ca-bbdd-b43970628095","system_id":"levelo_inurba_marseille","lat":43.23185,"lon":5.39992,"is_reserved":false,"is_disabled":false,"rental_uris":{"android":"levelo://app?vid=45c22bfb-3859-46ca-bbdd-b43970628095","ios":"levelo://app?vid=45c22bfb-3859-46ca-bbdd-b43970628095"},"vehicle_type_id":"4","last_reported":1734217701,"current_range_meters":19600,"station_id":"ce4bhn12rcd13ifvqgqg","pricing_plan_id":"cebpf4jnsgd1na2vs0mg"},{"bike_id":"646d615d-b8ef-4796-822a-34bd6dbc380a","system_id":"levelo_inurba_marseille","lat":43.26785,"lon":5.39419,"is_reserved":false,"is_disabled":false,"rental_uris":{"android":"levelo://app?vid=646d615d-b8ef-4796-822a-34bd6dbc380a","ios":"levelo://app?vid=646d615d-b8ef-4796-822a-34bd6dbc380a"},"vehicle_type_id":"4","last_reported":1734217701,"current_range_meters":38800,"station_id":"ce4bhh12rcd13ifvqfg0","pricing_plan_id":"cebpf4jnsgd1na2vs0mg"},{"bike_id":"6a684703-b86d-480c-a944-c1ff37dbc508","system_id":"levelo_inurba_marseille","lat":43.29312,"lon":5.3717,"is_reserved":false,"is_disabled":true,"rental_uris":{"android":"levelo://app?vid=6a684703-b86d-480c-a944-c1ff37dbc508","ios":"levelo://app?vid=6a684703-b86d-480c-a944-c1ff37dbc508"},"vehicle_type_id":"4","last_reported":1734217701,"current_range_meters":800,"station_id":"ce4bgh92rcd13ifvqb40","pricing_plan_id":"cebpf4jnsgd1na2vs0mg"},{"bike_id":"50b3a443-a67d-4bc4-85df-95f6908841be","system_id":"levelo_inurba_marseille","lat":43.23193,"lon":5.3555,"is_reserved":false,"is_disabled":false,"rental_uris":{"android":"levelo://app?vid=50b3a443-a67d-4bc4-85df-95f6908841be","ios":"levelo://app?vid=50b3a443-a67d-4bc4-85df-95f6908841be"},"vehicle_type_id":"4","last_reported":1734217701,"current_range_meters":16400,"station_id":"ce4bhu92rcd13ifvqi70","pricing_plan_id":"cebpf4jnsgd1na2vs0mg"},{"bike_id":"94b979c3-9e1d-4bf0-8c65-683476d94fc6","system_id":"levelo_inurba_marseille","lat":43.28863,"lon":5.39309,"is_reserved":false,"is_disabled":false,"rental_uris":{"android":"levelo://app?vid=94b979c3-9e1d-4bf0-8c65-683476d94fc6","ios":"levelo://app?vid=94b979c3-9e1d-4bf0-8c65-683476d94fc6"},"vehicle_type_id":"4","last_reported":1734217701,"current_range_meters":36000,"station_id":"ce4bh2p2rcd13ifvqdi0","pricing_plan_id":"cebpf4jnsgd1na2vs0mg"},{"bike_id":"ed9edba7-d3f1-4e95-8555-1252dbf70dce","system_id":"levelo_inurba_marseille","lat":43.27574,"lon":5.38418,"is_reserved":false,"is_disabled":true,"rental_uris":{"android":"levelo://app?vid=ed9edba7-d3f1-4e95-8555-1252dbf70dce","ios":"levelo://app?vid=ed9edba7-d3f1-4e95-8555-1252dbf70dce"},"vehicle_type_id":"4","last_reported":1734217701,"current_range_meters":38000,"station_id":"ce4bhh92rcd13ifvqfi0","pricing_plan_id":"cebpf4jnsgd1na2vs0mg"},{"bike_id":"767bd7f7-f068-49b4-a91d-aee7712bfd36","system_id":"levelo_inurba_marseille","lat":43.31521,"lon":5.37282,"is_reserved":false,"is_disabled":false,"rental_uris":{"android":"levelo://app?vid=767bd7f7-f068-49b4-a91d-aee7712bfd36","ios":"levelo://app?vid=767bd7f7-f068-49b4-a91d-aee7712bfd36"},"vehicle_type_id":"4","last_reported":1734217701,"current_range_meters":38800,"station_id":"ce4bgt12rcd13ifvqcd0","pricing_plan_id":"cebpf4jnsgd1na2vs0mg"},{"bike_id":"3e258113-9778-420e-8069-9e3310976294","system_id":"levelo_inurba_marseille","lat":43.29499,"lon":5.373835,"is_reserved":false,"is_disabled":false,"rental_uris":{"android":"levelo://app?vid=3e258113-9778-420e-8069-9e3310976294","ios":"levelo://app?vid=3e258113-9778-420e-8069-9e3310976294"},"vehicle_type_id":"4","last_reported":1734217701,"current_range_meters":10800,"station_id":"ce4bgop2rcd13ifvqc1g","pricing_plan_id":"cebpf4jnsgd1na2vs0mg"},{"bike_id":"b9909b1b-7dc0-43e0-9eac-af3c1c280ed0","system_id":"levelo_inurba_marseille","lat":43.29068,"lon":5.35759,"is_reserved":false,"is_disabled":false,"rental_uris":{"android":"levelo://app?vid=b9909b1b-7dc0-43e0-9eac-af3c1c280ed0","ios":"levelo://app?vid=b9909b1b-7dc0-43e0-9eac-af3c1c280ed0"},"vehicle_type_id":"4","last_reported":1734217701,"current_range_meters":10800,"station_id":"","pricing_plan_id":"cebpf4jnsgd1na2vs0mg"},{"bike_id":"a5df68ae-5bff-4473-86b9-d03b0d9fbbc3","system_id":"levelo_inurba_marseille","lat":43.28938,"lon":5.36634,"is_reserved":false,"is_disabled":false,"rental_uris":{"android":"levelo://app?vid=a5df68ae-5bff-4473-86b9-d03b0d9fbbc3","ios":"levelo://app?vid=a5df68ae-5bff-4473-86b9-d03b0d9fbbc3"},"vehicle_type_id":"4","last_reported":1734217701,"current_range_meters":23200,"station_id":"ce4bhap2rcd13ifvqek0","pricing_plan_id":"cebpf4jnsgd1na2vs0mg"},{"bike_id":"023e9fe7-d71a-46b0-96c7-778e7c2b1925","system_id":"levelo_inurba_marseille","lat":43.30143,"lon":5.38775,"is_reserved":false,"is_disabled":false,"rental_uris":{"android":"levelo://app?vid=023e9fe7-d71a-46b0-96c7-778e7c2b1925","ios":"levelo://app?vid=023e9fe7-d71a-46b0-96c7-778e7c2b1925"},"vehicle_type_id":"4","last_reported":1734217701,"current_range_meters":22800,"station_id":"ce4bhoh2rcd13ifvqh6g","pricing_plan_id":"cebpf4jnsgd1na2vs0mg"},{"bike_id":"2aabb9e3-ae45-4b17-b10d-af50e235d80a","system_id":"levelo_inurba_marseille","lat":43.26788,"lon":5.39926,"is_reserved":false,"is_disabled":true,"rental_uris":{"android":"levelo://app?vid=2aabb9e3-ae45-4b17-b10d-af50e235d80a","ios":"levelo://app?vid=2aabb9e3-ae45-4b17-b10d-af50e235d80a"},"vehicle_type_id":"4","last_reported":1734217701,"current_range_meters":0,"station_id":"","pricing_plan_id":"cebpf4jnsgd1na2vs0mg"},{"bike_id":"707fb3ca-9aaa-4891-90ae-4a971299a89a","system_id":"levelo_inurba_marseille","lat":43.29885,"lon":5.38885,"is_reserved":false,"is_disabled":false,"rental_uris":{"android":"levelo://app?vid=707fb3ca-9aaa-4891-90ae-4a971299a89a","ios":"levelo://app?vid=707fb3ca-9aaa-4891-90ae-4a971299a89a"},"vehicle_type_id":"4","last_reported":1734217701,"current_range_meters":38800,"station_id":"ce4bh392rcd13ifvqdl0","pricing_plan_id":"cebpf4jnsgd1na2vs0mg"},{"bike_id":"d0e85661-eea5-4b39-9df2-cda64a4c3cd6","system_id":"levelo_inurba_marseille","lat":43.30882,"lon":5.3719,"is_reserved":false,"is_disabled":false,"rental_uris":{"android":"levelo://app?vid=d0e85661-eea5-4b39-9df2-cda64a4c3cd6","ios":"levelo://app?vid=d0e85661-eea5-4b39-9df2-cda64a4c3cd6"},"vehicle_type_id":"4","last_reported":1734217701,"current_range_meters":38000,"station_id":"ce4bguh2rcd13ifvqckg","pricing_plan_id":"cebpf4jnsgd1na2vs0mg"},{"bike_id":"a839feba-19e0-43dc-accc-15584f393366","system_id":"levelo_inurba_marseille","lat":43.28458,"lon":5.3588,"is_reserved":false,"is_disabled":false,"rental_uris":{"android":"levelo://app?vid=a839feba-19e0-43dc-accc-15584f393366","ios":"levelo://app?vid=a839feba-19e0-43dc-accc-15584f393366"},"vehicle_type_id":"4","last_reported":1734217701,"current_range_meters":35200,"station_id":"ce4bhah2rcd13ifvqei0","pricing_plan_id":"cebpf4jnsgd1na2vs0mg"},{"bike_id":"3595e955-9243-4ebf-a4ff-5df2907e8d74","system_id":"levelo_inurba_marseille","lat":43.32289,"lon":5.38276,"is_reserved":false,"is_disabled":false,"rental_uris":{"android":"levelo://app?vid=3595e955-9243-4ebf-a4ff-5df2907e8d74","ios":"levelo://app?vid=3595e955-9243-4ebf-a4ff-5df2907e8d74"},"vehicle_type_id":"4","last_reported":1734217701,"current_range_meters":38800,"station_id":"ce4bhr12rcd13ifvqhqg","pricing_plan_id":"cebpf4jnsgd1na2vs0mg"},{"bike_id":"f630154d-3aae-41d3-a130-dc2e5df19002","system_id":"levelo_inurba_marseille","lat":43.29711,"lon":5.36606,"is_reserved":false,"is_disabled":false,"rental_uris":{"android":"levelo://app?vid=f630154d-3aae-41d3-a130-dc2e5df19002","ios":"levelo://app?vid=f630154d-3aae-41d3-a130-dc2e5df19002"},"vehicle_type_id":"4","last_reported":1734217701,"current_range_meters":20400,"station_id":"ce4bgn12rcd13ifvqbt0","pricing_plan_id":"cebpf4jnsgd1na2vs0mg"},{"bike_id":"e2e5ca26-ae0f-40ee-98f0-8a717fd53b58","system_id":"levelo_inurba_marseille","lat":43.3113,"lon":5.37758,"is_reserved":false,"is_disabled":false,"rental_uris":{"android":"levelo://app?vid=e2e5ca26-ae0f-40ee-98f0-8a717fd53b58","ios":"levelo://app?vid=e2e5ca26-ae0f-40ee-98f0-8a717fd53b58"},"vehicle_type_id":"4","last_reported":1734217701,"current_range_meters":38800,"station_id":"ce4bgt92rcd13ifvqcg0","pricing_plan_id":"cebpf4jnsgd1na2vs0mg"},{"bike_id":"10d86881-8d9a-4f83-bffe-9892cefb80a1","system_id":"levelo_inurba_marseille","lat":43.29048,"lon":5.37068,"is_reserved":false,"is_disabled":false,"rental_uris":{"android":"levelo://app?vid=10d86881-8d9a-4f83-bffe-9892cefb80a1","ios":"levelo://app?vid=10d86881-8d9a-4f83-bffe-9892cefb80a1"},"vehicle_type_id":"4","last_reported":1734217701,"current_range_meters":30000,"station_id":"ce4bh292rcd13ifvqdf0","pricing_plan_id":"cebpf4jnsgd1na2vs0mg"},{"bike_id":"496b9119-850a-49b3-bf98-295bb079ca7c","system_id":"levelo_inurba_marseille","lat":43.28203,"lon":5.44573,"is_reserved":false,"is_disabled":false,"rental_uris":{"android":"levelo://app?vid=496b9119-850a-49b3-bf98-295bb079ca7c","ios":"levelo://app?vid=496b9119-850a-49b3-bf98-295bb079ca7c"},"vehicle_type_id":"4","last_reported":1734217701,"current_range_meters":8000,"station_id":"","pricing_plan_id":"cebpf4jnsgd1na2vs0mg"},{"bike_id":"dc789fe6-4fa7-476d-9fb9-0afdc463ba3e","system_id":"levelo_inurba_marseille","lat":43.28,"lon":5.41664,"is_reserved":false,"is_disabled":false,"rental_uris":{"android":"levelo://app?vid=dc789fe6-4fa7-476d-9fb9-0afdc463ba3e","ios":"levelo://app?vid=dc789fe6-4fa7-476d-9fb9-0afdc463ba3e"},"vehicle_type_id":"4","last_reported":1734217701,"current_range_meters":39200,"station_id":"ce4bho12rcd13ifvqh1g","pricing_plan_id":"cebpf4jnsgd1na2vs0mg"},{"bike_id":"02d391e2-40b6-4da2-8f35-ccd1462fa0ba","system_id":"levelo_inurba_marseille","lat":43.30602,"lon":5.37234,"is_reserved":false,"is_disabled":false,"rental_uris":{"android":"levelo://app?vid=02d391e2-40b6-4da2-8f35-ccd1462fa0ba","ios":"levelo://app?vid=02d391e2-40b6-4da2-8f35-ccd1462fa0ba"},"vehicle_type_id":"4","last_reported":1734217701,"current_range_meters":20400,"station_id":"ce4bgqh2rcd13ifvqc4g","pricing_plan_id":"cebpf4jnsgd1na2vs0mg"},{"bike_id":"5e6f02bf-6783-43f4-ac3e-e922e375a372","system_id":"levelo_inurba_marseille","lat":43.32062,"lon":5.41548,"is_reserved":false,"is_disabled":false,"rental_uris":{"android":"levelo://app?vid=5e6f02bf-6783-43f4-ac3e-e922e375a372","ios":"levelo://app?vid=5e6f02bf-6783-43f4-ac3e-e922e375a372"},"vehicle_type_id":"4","last_reported":1734217701,"current_range_meters":36400,"station_id":"ce4bhqh2rcd13ifvqhmg","pricing_plan_id":"cebpf4jnsgd1na2vs0mg"},{"bike_id":"86cb7df1-1625-4004-bdb3-0ec39ee459bd","system_id":"levelo_inurba_marseille","lat":43.27442,"lon":5.38487,"is_reserved":false,"is_disabled":false,"rental_uris":{"android":"levelo://app?vid=86cb7df1-1625-4004-bdb3-0ec39ee459bd","ios":"levelo://app?vid=86cb7df1-1625-4004-bdb3-0ec39ee459bd"},"vehicle_type_id":"4","last_reported":1734217701,"current_range_meters":30000,"station_id":"ce4bhh92rcd13ifvqfh0","pricing_plan_id":"cebpf4jnsgd1na2vs0mg"},{"bike_id":"09aa2f3c-9555-44b2-a34d-05acc5333b88","system_id":"levelo_inurba_marseille","lat":43.27949,"lon":5.41041,"is_reserved":false,"is_disabled":false,"rental_uris":{"android":"levelo://app?vid=09aa2f3c-9555-44b2-a34d-05acc5333b88","ios":"levelo://app?vid=09aa2f3c-9555-44b2-a34d-05acc5333b88"},"vehicle_type_id":"4","last_reported":1734217701,"current_range_meters":38400,"station_id":"ce4bhnp2rcd13ifvqh0g","pricing_plan_id":"cebpf4jnsgd1na2vs0mg"},{"bike_id":"243d8a32-8675-42ff-8a0a-1d7d8c05b7b1","system_id":"levelo_inurba_marseille","lat":43.32656,"lon":5.40997,"is_reserved":false,"is_disabled":false,"rental_uris":{"android":"levelo://app?vid=243d8a32-8675-42ff-8a0a-1d7d8c05b7b1","ios":"levelo://app?vid=243d8a32-8675-42ff-8a0a-1d7d8c05b7b1"},"vehicle_type_id":"4","last_reported":1734217701,"current_range_meters":8800,"station_id":"ce4bhpp2rcd13ifvqhgg","pricing_plan_id":"cebpf4jnsgd1na2vs0mg"},{"bike_id":"d5c89c1f-3bad-4af2-9449-e04c277a4696","system_id":"levelo_inurba_marseille","lat":43.29985,"lon":5.41305,"is_reserved":false,"is_disabled":true,"rental_uris":{"android":"levelo://app?vid=d5c89c1f-3bad-4af2-9449-e04c277a4696","ios":"levelo://app?vid=d5c89c1f-3bad-4af2-9449-e04c277a4696"},"vehicle_type_id":"4","last_reported":1734217701,"current_range_meters":38000,"station_id":"ce4bhp12rcd13ifvqh9g","pricing_plan_id":"cebpf4jnsgd1na2vs0mg"},{"bike_id":"e6c17fa1-6fd0-4ca1-9951-48e979ee6abc","system_id":"levelo_inurba_marseille","lat":43.265614,"lon":5.372801,"is_reserved":false,"is_disabled":true,"rental_uris":{"android":"levelo://app?vid=e6c17fa1-6fd0-4ca1-9951-48e979ee6abc","ios":"levelo://app?vid=e6c17fa1-6fd0-4ca1-9951-48e979ee6abc"},"vehicle_type_id":"4","last_reported":1734217701,"current_range_meters":0,"station_id":"ce4bhg12rcd13ifvqf70","pricing_plan_id":"cebpf4jnsgd1na2vs0mg"},{"bike_id":"5c679723-d67a-46e7-ae99-5aca11b06651","system_id":"levelo_inurba_marseille","lat":43.31264,"lon":5.40158,"is_reserved":false,"is_disabled":false,"rental_uris":{"android":"levelo://app?vid=5c679723-d67a-46e7-ae99-5aca11b06651","ios":"levelo://app?vid=5c679723-d67a-46e7-ae99-5aca11b06651"},"vehicle_type_id":"4","last_reported":1734217701,"current_range_meters":28800,"station_id":"ce4bh092rcd13ifvqd30","pricing_plan_id":"cebpf4jnsgd1na2vs0mg"},{"bike_id":"5dcb142e-3766-4e2c-b1fe-c9ebbc5d3c50","system_id":"levelo_inurba_marseille","lat":43.31992,"lon":5.3815,"is_reserved":false,"is_disabled":false,"rental_uris":{"android":"levelo://app?vid=5dcb142e-3766-4e2c-b1fe-c9ebbc5d3c50","ios":"levelo://app?vid=5dcb142e-3766-4e2c-b1fe-c9ebbc5d3c50"},"vehicle_type_id":"4","last_reported":1734217701,"current_range_meters":38000,"station_id":"ce4bhr12rcd13ifvqhpg","pricing_plan_id":"cebpf4jnsgd1na2vs0mg"},{"bike_id":"af84f0d6-0da8-41c2-b16a-2d81040dffb1","system_id":"levelo_inurba_marseille","lat":43.241668,"lon":5.397293,"is_reserved":false,"is_disabled":false,"rental_uris":{"android":"levelo://app?vid=af84f0d6-0da8-41c2-b16a-2d81040dffb1","ios":"levelo://app?vid=af84f0d6-0da8-41c2-b16a-2d81040dffb1"},"vehicle_type_id":"4","last_reported":1734217701,"current_range_meters":28000,"station_id":"ce4bhn12rcd13ifvqgpg","pricing_plan_id":"cebpf4jnsgd1na2vs0mg"},{"bike_id":"476a7d49-84d5-41c4-9e80-123da142b241","system_id":"levelo_inurba_marseille","lat":43.29719,"lon":5.3661,"is_reserved":false,"is_disabled":false,"rental_uris":{"android":"levelo://app?vid=476a7d49-84d5-41c4-9e80-123da142b241","ios":"levelo://app?vid=476a7d49-84d5-41c4-9e80-123da142b241"},"vehicle_type_id":"4","last_reported":1734217701,"current_range_meters":38800,"station_id":"ce4bgn12rcd13ifvqbt0","pricing_plan_id":"cebpf4jnsgd1na2vs0mg"},{"bike_id":"89c28168-9e53-422f-a68c-5ee6ccf55d1e","system_id":"levelo_inurba_marseille","lat":43.297171,"lon":5.376742,"is_reserved":false,"is_disabled":false,"rental_uris":{"android":"levelo://app?vid=89c28168-9e53-422f-a68c-5ee6ccf55d1e","ios":"levelo://app?vid=89c28168-9e53-422f-a68c-5ee6ccf55d1e"},"vehicle_type_id":"4","last_reported":1734217701,"current_range_meters":38800,"station_id":"ce4bgkh2rcd13ifvqbl0","pricing_plan_id":"cebpf4jnsgd1na2vs0mg"},{"bike_id":"be15b9e1-574c-45f1-b914-fc0b9a33b109","system_id":"levelo_inurba_marseille","lat":43.250493,"lon":5.41679,"is_reserved":false,"is_disabled":false,"rental_uris":{"android":"levelo://app?vid=be15b9e1-574c-45f1-b914-fc0b9a33b109","ios":"levelo://app?vid=be15b9e1-574c-45f1-b914-fc0b9a33b109"},"vehicle_type_id":"4","last_reported":1734217701,"current_range_meters":15200,"station_id":"","pricing_plan_id":"cebpf4jnsgd1na2vs0mg"},{"bike_id":"faeeed3d-e1ea-42b2-8154-c03c65ca9361","system_id":"levelo_inurba_marseille","lat":43.26225,"lon":5.37223,"is_reserved":false,"is_disabled":true,"rental_uris":{"android":"levelo://app?vid=faeeed3d-e1ea-42b2-8154-c03c65ca9361","ios":"levelo://app?vid=faeeed3d-e1ea-42b2-8154-c03c65ca9361"},"vehicle_type_id":"4","last_reported":1734217701,"current_range_meters":0,"station_id":"","pricing_plan_id":"cebpf4jnsgd1na2vs0mg"},{"bike_id":"729fa8dc-8d11-4bb2-84ae-4f833157e902","system_id":"levelo_inurba_marseille","lat":43.29574,"lon":5.39979,"is_reserved":false,"is_disabled":false,"rental_uris":{"android":"levelo://app?vid=729fa8dc-8d11-4bb2-84ae-4f833157e902","ios":"levelo://app?vid=729fa8dc-8d11-4bb2-84ae-4f833157e902"},"vehicle_type_id":"4","last_reported":1734217701,"current_range_meters":16000,"station_id":"ce4bh312rcd13ifvqdj0","pricing_plan_id":"cebpf4jnsgd1na2vs0mg"},{"bike_id":"8bc2629d-782c-426d-a834-8e5e7d2d5eae","system_id":"levelo_inurba_marseille","lat":43.31339,"lon":5.39682,"is_reserved":false,"is_disabled":false,"rental_uris":{"android":"levelo://app?vid=8bc2629d-782c-426d-a834-8e5e7d2d5eae","ios":"levelo://app?vid=8bc2629d-782c-426d-a834-8e5e7d2d5eae"},"vehicle_type_id":"4","last_reported":1734217701,"current_range_meters":38800,"station_id":"ce4bgvp2rcd13ifvqcu0","pricing_plan_id":"cebpf4jnsgd1na2vs0mg"},{"bike_id":"26ff61e6-cec3-4794-8805-3bff09a4d108","system_id":"levelo_inurba_marseille","lat":43.29201,"lon":5.35799,"is_reserved":false,"is_disabled":false,"rental_uris":{"android":"levelo://app?vid=26ff61e6-cec3-4794-8805-3bff09a4d108","ios":"levelo://app?vid=26ff61e6-cec3-4794-8805-3bff09a4d108"},"vehicle_type_id":"4","last_reported":1734217701,"current_range_meters":36800,"station_id":"ce4bhb12rcd13ifvqel0","pricing_plan_id":"cebpf4jnsgd1na2vs0mg"},{"bike_id":"6d233442-1f06-40c2-8154-9aabcfcd3454","system_id":"levelo_inurba_marseille","lat":43.3189,"lon":5.4073,"is_reserved":false,"is_disabled":false,"rental_uris":{"android":"levelo://app?vid=6d233442-1f06-40c2-8154-9aabcfcd3454","ios":"levelo://app?vid=6d233442-1f06-40c2-8154-9aabcfcd3454"},"vehicle_type_id":"4","last_reported":1734217701,"current_range_meters":38800,"station_id":"ce4bh0p2rcd13ifvqd70","pricing_plan_id":"cebpf4jnsgd1na2vs0mg"},{"bike_id":"2e2ae1e2-0153-447d-8453-4be72f1a64d7","system_id":"levelo_inurba_marseille","lat":43.30615,"lon":5.37214,"is_reserved":false,"is_disabled":false,"rental_uris":{"android":"levelo://app?vid=2e2ae1e2-0153-447d-8453-4be72f1a64d7","ios":"levelo://app?vid=2e2ae1e2-0153-447d-8453-4be72f1a64d7"},"vehicle_type_id":"4","last_reported":1734217701,"current_range_meters":39200,"station_id":"ce4bgqh2rcd13ifvqc4g","pricing_plan_id":"cebpf4jnsgd1na2vs0mg"},{"bike_id":"299cdfa7-55ab-45de-8dbe-4f564308fa76","system_id":"levelo_inurba_marseille","lat":43.28466,"lon":5.35882,"is_reserved":false,"is_disabled":false,"rental_uris":{"android":"levelo://app?vid=299cdfa7-55ab-45de-8dbe-4f564308fa76","ios":"levelo://app?vid=299cdfa7-55ab-45de-8dbe-4f564308fa76"},"vehicle_type_id":"4","last_reported":1734217701,"current_range_meters":33200,"station_id":"ce4bhah2rcd13ifvqei0","pricing_plan_id":"cebpf4jnsgd1na2vs0mg"},{"bike_id":"7d6c35b2-6ef5-45b0-bdf1-466f360a33d1","system_id":"levelo_inurba_marseille","lat":43.30931,"lon":5.40136,"is_reserved":false,"is_disabled":false,"rental_uris":{"android":"levelo://app?vid=7d6c35b2-6ef5-45b0-bdf1-466f360a33d1","ios":"levelo://app?vid=7d6c35b2-6ef5-45b0-bdf1-466f360a33d1"},"vehicle_type_id":"4","last_reported":1734217701,"current_range_meters":29600,"station_id":"ce4bgvp2rcd13ifvqct0","pricing_plan_id":"cebpf4jnsgd1na2vs0mg"},{"bike_id":"8c9a5da4-dc3f-4150-a808-aa276248a783","system_id":"levelo_inurba_marseille","lat":43.30605,"lon":5.39354,"is_reserved":false,"is_disabled":false,"rental_uris":{"android":"levelo://app?vid=8c9a5da4-dc3f-4150-a808-aa276248a783","ios":"levelo://app?vid=8c9a5da4-dc3f-4150-a808-aa276248a783"},"vehicle_type_id":"4","last_reported":1734217701,"current_range_meters":35600,"station_id":"ce4bh0p2rcd13ifvqd80","pricing_plan_id":"cebpf4jnsgd1na2vs0mg"},{"bike_id":"3258e1ab-e0b5-4f3b-9b62-7836d94eb61a","system_id":"levelo_inurba_marseille","lat":43.32658,"lon":5.40993,"is_reserved":false,"is_disabled":false,"rental_uris":{"android":"levelo://app?vid=3258e1ab-e0b5-4f3b-9b62-7836d94eb61a","ios":"levelo://app?vid=3258e1ab-e0b5-4f3b-9b62-7836d94eb61a"},"vehicle_type_id":"4","last_reported":1734217701,"current_range_meters":36000,"station_id":"ce4bhpp2rcd13ifvqhgg","pricing_plan_id":"cebpf4jnsgd1na2vs0mg"},{"bike_id":"ccb0bd57-8fd0-4a14-a2f1-a98cf5042768","system_id":"levelo_inurba_marseille","lat":43.30869,"lon":5.39619,"is_reserved":false,"is_disabled":false,"rental_uris":{"android":"levelo://app?vid=ccb0bd57-8fd0-4a14-a2f1-a98cf5042768","ios":"levelo://app?vid=ccb0bd57-8fd0-4a14-a2f1-a98cf5042768"},"vehicle_type_id":"4","last_reported":1734217701,"current_range_meters":28400,"station_id":"ce4bh012rcd13ifvqcv0","pricing_plan_id":"cebpf4jnsgd1na2vs0mg"},{"bike_id":"e00d66cc-b150-49e8-ae6d-e9090bf6d114","system_id":"levelo_inurba_marseille","lat":43.29053,"lon":5.37147,"is_reserved":false,"is_disabled":false,"rental_uris":{"android":"levelo://app?vid=e00d66cc-b150-49e8-ae6d-e9090bf6d114","ios":"levelo://app?vid=e00d66cc-b150-49e8-ae6d-e9090bf6d114"},"vehicle_type_id":"4","last_reported":1734217701,"current_range_meters":11200,"station_id":"ce4bh5p2rcd13ifvqe4g","pricing_plan_id":"cebpf4jnsgd1na2vs0mg"},{"bike_id":"88341ea4-6ea4-4722-b434-08ec41b7663f","system_id":"levelo_inurba_marseille","lat":43.30601,"lon":5.39343,"is_reserved":false,"is_disabled":true,"rental_uris":{"android":"levelo://app?vid=88341ea4-6ea4-4722-b434-08ec41b7663f","ios":"levelo://app?vid=88341ea4-6ea4-4722-b434-08ec41b7663f"},"vehicle_type_id":"4","last_reported":1734217701,"current_range_meters":31200,"station_id":"ce4bh0p2rcd13ifvqd80","pricing_plan_id":"cebpf4jnsgd1na2vs0mg"},{"bike_id":"edaea664-24e0-4d6c-aa7a-497f5c5f88f6","system_id":"levelo_inurba_marseille","lat":43.27016,"lon":5.39126,"is_reserved":false,"is_disabled":true,"rental_uris":{"android":"levelo://app?vid=edaea664-24e0-4d6c-aa7a-497f5c5f88f6","ios":"levelo://app?vid=edaea664-24e0-4d6c-aa7a-497f5c5f88f6"},"vehicle_type_id":"4","last_reported":1734217701,"current_range_meters":0,"station_id":"","pricing_plan_id":"cebpf4jnsgd1na2vs0mg"},{"bike_id":"637f7e23-be3b-4aa9-87cb-5d394800192c","system_id":"levelo_inurba_marseille","lat":43.31715,"lon":5.437,"is_reserved":false,"is_disabled":false,"rental_uris":{"android":"levelo://app?vid=637f7e23-be3b-4aa9-87cb-5d394800192c","ios":"levelo://app?vid=637f7e23-be3b-4aa9-87cb-5d394800192c"},"vehicle_type_id":"4","last_reported":1734217701,"current_range_meters":38800,"station_id":"ce4bhp92rcd13ifvqhcg","pricing_plan_id":"cebpf4jnsgd1na2vs0mg"},{"bike_id":"372bdabf-b91c-41f7-88b9-da5a3c44cc39","system_id":"levelo_inurba_marseille","lat":43.23133,"lon":5.43754,"is_reserved":false,"is_disabled":false,"rental_uris":{"android":"levelo://app?vid=372bdabf-b91c-41f7-88b9-da5a3c44cc39","ios":"levelo://app?vid=372bdabf-b91c-41f7-88b9-da5a3c44cc39"},"vehicle_type_id":"4","last_reported":1734217701,"current_range_meters":36400,"station_id":"ce4bhmp2rcd13ifvqgog","pricing_plan_id":"cebpf4jnsgd1na2vs0mg"},{"bike_id":"840517c9-5921-40ba-ade6-d8d7a768cdb5","system_id":"levelo_inurba_marseille","lat":43.28922,"lon":5.36614,"is_reserved":false,"is_disabled":false,"rental_uris":{"android":"levelo://app?vid=840517c9-5921-40ba-ade6-d8d7a768cdb5","ios":"levelo://app?vid=840517c9-5921-40ba-ade6-d8d7a768cdb5"},"vehicle_type_id":"4","last_reported":1734217701,"current_range_meters":27600,"station_id":"ce4bhap2rcd13ifvqek0","pricing_plan_id":"cebpf4jnsgd1na2vs0mg"},{"bike_id":"4901ce31-1e58-4b51-bf83-dff5618cb868","system_id":"levelo_inurba_marseille","lat":43.29303,"lon":5.37459,"is_reserved":false,"is_disabled":false,"rental_uris":{"android":"levelo://app?vid=4901ce31-1e58-4b51-bf83-dff5618cb868","ios":"levelo://app?vid=4901ce31-1e58-4b51-bf83-dff5618cb868"},"vehicle_type_id":"4","last_reported":1734217701,"current_range_meters":32000,"station_id":"ce4bgi12rcd13ifvqb70","pricing_plan_id":"cebpf4jnsgd1na2vs0mg"},{"bike_id":"da306aef-acdc-4ea6-b097-95f7b1d0455e","system_id":"levelo_inurba_marseille","lat":43.31195,"lon":5.36846,"is_reserved":false,"is_disabled":false,"rental_uris":{"android":"levelo://app?vid=da306aef-acdc-4ea6-b097-95f7b1d0455e","ios":"levelo://app?vid=da306aef-acdc-4ea6-b097-95f7b1d0455e"},"vehicle_type_id":"4","last_reported":1734217701,"current_range_meters":37600,"station_id":"ce4bgl92rcd13ifvqbq0","pricing_plan_id":"cebpf4jnsgd1na2vs0mg"},{"bike_id":"5bc6bac3-9aa7-4da0-9f64-e1134e52c491","system_id":"levelo_inurba_marseille","lat":43.28156,"lon":5.42641,"is_reserved":false,"is_disabled":false,"rental_uris":{"android":"levelo://app?vid=5bc6bac3-9aa7-4da0-9f64-e1134e52c491","ios":"levelo://app?vid=5bc6bac3-9aa7-4da0-9f64-e1134e52c491"},"vehicle_type_id":"4","last_reported":1734217701,"current_range_meters":19200,"station_id":"ce4bhnh2rcd13ifvqgug","pricing_plan_id":"cebpf4jnsgd1na2vs0mg"},{"bike_id":"0e545a65-9ae7-4ff9-8ddd-fa9316a710e3","system_id":"levelo_inurba_marseille","lat":43.28701,"lon":5.37389,"is_reserved":false,"is_disabled":false,"rental_uris":{"android":"levelo://app?vid=0e545a65-9ae7-4ff9-8ddd-fa9316a710e3","ios":"levelo://app?vid=0e545a65-9ae7-4ff9-8ddd-fa9316a710e3"},"vehicle_type_id":"4","last_reported":1734217701,"current_range_meters":38400,"station_id":"ce4bh3p2rcd13ifvqdq0","pricing_plan_id":"cebpf4jnsgd1na2vs0mg"},{"bike_id":"0bf81dcc-c1c3-4e43-a815-57d9ca14a9a2","system_id":"levelo_inurba_marseille","lat":43.30805,"lon":5.43525,"is_reserved":false,"is_disabled":false,"rental_uris":{"android":"levelo://app?vid=0bf81dcc-c1c3-4e43-a815-57d9ca14a9a2","ios":"levelo://app?vid=0bf81dcc-c1c3-4e43-a815-57d9ca14a9a2"},"vehicle_type_id":"4","last_reported":1734217701,"current_range_meters":34800,"station_id":"ce4bhph2rcd13ifvqheg","pricing_plan_id":"cebpf4jnsgd1na2vs0mg"},{"bike_id":"ba6abc17-2a1f-45c6-8711-b118d10bc680","system_id":"levelo_inurba_marseille","lat":43.28939,"lon":5.36392,"is_reserved":false,"is_disabled":false,"rental_uris":{"android":"levelo://app?vid=ba6abc17-2a1f-45c6-8711-b118d10bc680","ios":"levelo://app?vid=ba6abc17-2a1f-45c6-8711-b118d10bc680"},"vehicle_type_id":"4","last_reported":1734217701,"current_range_meters":34000,"station_id":"ce4bhc92rcd13ifvqetg","pricing_plan_id":"cebpf4jnsgd1na2vs0mg"},{"bike_id":"82d2deac-e154-4bd7-b34d-957379fd607c","system_id":"levelo_inurba_marseille","lat":43.32269,"lon":5.38241,"is_reserved":false,"is_disabled":false,"rental_uris":{"android":"levelo://app?vid=82d2deac-e154-4bd7-b34d-957379fd607c","ios":"levelo://app?vid=82d2deac-e154-4bd7-b34d-957379fd607c"},"vehicle_type_id":"4","last_reported":1734217701,"current_range_meters":10800,"station_id":"ce4bhr12rcd13ifvqhqg","pricing_plan_id":"cebpf4jnsgd1na2vs0mg"},{"bike_id":"d0915087-09b2-4ff8-becc-05a6a3d45ea4","system_id":"levelo_inurba_marseille","lat":43.28704,"lon":5.37387,"is_reserved":false,"is_disabled":false,"rental_uris":{"android":"levelo://app?vid=d0915087-09b2-4ff8-becc-05a6a3d45ea4","ios":"levelo://app?vid=d0915087-09b2-4ff8-becc-05a6a3d45ea4"},"vehicle_type_id":"4","last_reported":1734217701,"current_range_meters":28800,"station_id":"ce4bh3p2rcd13ifvqdq0","pricing_plan_id":"cebpf4jnsgd1na2vs0mg"},{"bike_id":"4fe5b802-6d4a-478f-80f7-e4f6837b7ef9","system_id":"levelo_inurba_marseille","lat":43.26941,"lon":5.40248,"is_reserved":false,"is_disabled":false,"rental_uris":{"android":"levelo://app?vid=4fe5b802-6d4a-478f-80f7-e4f6837b7ef9","ios":"levelo://app?vid=4fe5b802-6d4a-478f-80f7-e4f6837b7ef9"},"vehicle_type_id":"4","last_reported":1734217701,"current_range_meters":38800,"station_id":"cjm6bp8fraef2m0cb0m0","pricing_plan_id":"cebpf4jnsgd1na2vs0mg"},{"bike_id":"2e49a40c-05a6-431f-a5a8-7cc0b8d0184a","system_id":"levelo_inurba_marseille","lat":43.27107,"lon":5.4087,"is_reserved":false,"is_disabled":false,"rental_uris":{"android":"levelo://app?vid=2e49a40c-05a6-431f-a5a8-7cc0b8d0184a","ios":"levelo://app?vid=2e49a40c-05a6-431f-a5a8-7cc0b8d0184a"},"vehicle_type_id":"4","last_reported":1734217701,"current_range_meters":20000,"station_id":"ce4bhl12rcd13ifvqgf0","pricing_plan_id":"cebpf4jnsgd1na2vs0mg"},{"bike_id":"fd4efec3-03a9-456d-9f3e-04aeb194cc68","system_id":"levelo_inurba_marseille","lat":43.25824,"lon":5.39431,"is_reserved":false,"is_disabled":false,"rental_uris":{"android":"levelo://app?vid=fd4efec3-03a9-456d-9f3e-04aeb194cc68","ios":"levelo://app?vid=fd4efec3-03a9-456d-9f3e-04aeb194cc68"},"vehicle_type_id":"4","last_reported":1734217701,"current_range_meters":33200,"station_id":"ce4bhip2rcd13ifvqft0","pricing_plan_id":"cebpf4jnsgd1na2vs0mg"},{"bike_id":"6994f3dd-5742-486e-b28b-ea715f1289aa","system_id":"levelo_inurba_marseille","lat":43.33614,"lon":5.41003,"is_reserved":false,"is_disabled":false,"rental_uris":{"android":"levelo://app?vid=6994f3dd-5742-486e-b28b-ea715f1289aa","ios":"levelo://app?vid=6994f3dd-5742-486e-b28b-ea715f1289aa"},"vehicle_type_id":"4","last_reported":1734217701,"current_range_meters":12000,"station_id":"ce4bhqh2rcd13ifvqhmg","pricing_plan_id":"cebpf4jnsgd1na2vs0mg"},{"bike_id":"dfdefa1a-36e5-482a-aafa-f01de140dff1","system_id":"levelo_inurba_marseille","lat":43.28443,"lon":5.35894,"is_reserved":false,"is_disabled":false,"rental_uris":{"android":"levelo://app?vid=dfdefa1a-36e5-482a-aafa-f01de140dff1","ios":"levelo://app?vid=dfdefa1a-36e5-482a-aafa-f01de140dff1"},"vehicle_type_id":"4","last_reported":1734217701,"current_range_meters":28000,"station_id":"ce4bhah2rcd13ifvqei0","pricing_plan_id":"cebpf4jnsgd1na2vs0mg"},{"bike_id":"7482f887-7952-4f02-a5dc-546e954acfc6","system_id":"levelo_inurba_marseille","lat":43.29417,"lon":5.38638,"is_reserved":false,"is_disabled":true,"rental_uris":{"android":"levelo://app?vid=7482f887-7952-4f02-a5dc-546e954acfc6","ios":"levelo://app?vid=7482f887-7952-4f02-a5dc-546e954acfc6"},"vehicle_type_id":"4","last_reported":1734217701,"current_range_meters":7200,"station_id":"ce4bh2h2rcd13ifvqdh0","pricing_plan_id":"cebpf4jnsgd1na2vs0mg"},{"bike_id":"adc4ecf9-5f4c-49e0-915f-2787f3778b82","system_id":"levelo_inurba_marseille","lat":43.32288,"lon":5.38245,"is_reserved":false,"is_disabled":false,"rental_uris":{"android":"levelo://app?vid=adc4ecf9-5f4c-49e0-915f-2787f3778b82","ios":"levelo://app?vid=adc4ecf9-5f4c-49e0-915f-2787f3778b82"},"vehicle_type_id":"4","last_reported":1734217701,"current_range_meters":38800,"station_id":"ce4bhr12rcd13ifvqhqg","pricing_plan_id":"cebpf4jnsgd1na2vs0mg"},{"bike_id":"2071f054-5a90-4b26-bab7-f4ec1d1dd648","system_id":"levelo_inurba_marseille","lat":43.28104,"lon":5.37841,"is_reserved":false,"is_disabled":false,"rental_uris":{"android":"levelo://app?vid=2071f054-5a90-4b26-bab7-f4ec1d1dd648","ios":"levelo://app?vid=2071f054-5a90-4b26-bab7-f4ec1d1dd648"},"vehicle_type_id":"4","last_reported":1734217701,"current_range_meters":38800,"station_id":"ce4bha12rcd13ifvqee0","pricing_plan_id":"cebpf4jnsgd1na2vs0mg"},{"bike_id":"0e6e5fe9-00fb-4612-a30a-a69ff66f7186","system_id":"levelo_inurba_marseille","lat":43.32656,"lon":5.40995,"is_reserved":false,"is_disabled":false,"rental_uris":{"android":"levelo://app?vid=0e6e5fe9-00fb-4612-a30a-a69ff66f7186","ios":"levelo://app?vid=0e6e5fe9-00fb-4612-a30a-a69ff66f7186"},"vehicle_type_id":"4","last_reported":1734217701,"current_range_meters":22000,"station_id":"ce4bhpp2rcd13ifvqhgg","pricing_plan_id":"cebpf4jnsgd1na2vs0mg"},{"bike_id":"2fde2325-c422-42fb-bd6a-b015a704ab42","system_id":"levelo_inurba_marseille","lat":43.25113,"lon":5.4032,"is_reserved":false,"is_disabled":false,"rental_uris":{"android":"levelo://app?vid=2fde2325-c422-42fb-bd6a-b015a704ab42","ios":"levelo://app?vid=2fde2325-c422-42fb-bd6a-b015a704ab42"},"vehicle_type_id":"4","last_reported":1734217701,"current_range_meters":17200,"station_id":"ce4bhlh2rcd13ifvqgig","pricing_plan_id":"cebpf4jnsgd1na2vs0mg"},{"bike_id":"261c8340-9746-4274-8bee-ecfa837e9a1c","system_id":"levelo_inurba_marseille","lat":43.29526,"lon":5.39045,"is_reserved":false,"is_disabled":false,"rental_uris":{"android":"levelo://app?vid=261c8340-9746-4274-8bee-ecfa837e9a1c","ios":"levelo://app?vid=261c8340-9746-4274-8bee-ecfa837e9a1c"},"vehicle_type_id":"4","last_reported":1734217701,"current_range_meters":18800,"station_id":"ce4bh3p2rcd13ifvqdp0","pricing_plan_id":"cebpf4jnsgd1na2vs0mg"},{"bike_id":"199419ba-c84a-400d-bd91-0b0240050a13","system_id":"levelo_inurba_marseille","lat":43.27534,"lon":5.38726,"is_reserved":false,"is_disabled":false,"rental_uris":{"android":"levelo://app?vid=199419ba-c84a-400d-bd91-0b0240050a13","ios":"levelo://app?vid=199419ba-c84a-400d-bd91-0b0240050a13"},"vehicle_type_id":"4","last_reported":1734217701,"current_range_meters":34800,"station_id":"","pricing_plan_id":"cebpf4jnsgd1na2vs0mg"},{"bike_id":"a1abd726-fd87-45bf-9b5e-9f491dff3981","system_id":"levelo_inurba_marseille","lat":43.28709,"lon":5.37938,"is_reserved":false,"is_disabled":false,"rental_uris":{"android":"levelo://app?vid=a1abd726-fd87-45bf-9b5e-9f491dff3981","ios":"levelo://app?vid=a1abd726-fd87-45bf-9b5e-9f491dff3981"},"vehicle_type_id":"4","last_reported":1734217701,"current_range_meters":36400,"station_id":"ce4bh9p2rcd13ifvqec0","pricing_plan_id":"cebpf4jnsgd1na2vs0mg"},{"bike_id":"ae0bdd7b-187c-409c-b2b3-37aac32d4db3","system_id":"levelo_inurba_marseille","lat":43.32366,"lon":5.36769,"is_reserved":false,"is_disabled":false,"rental_uris":{"android":"levelo://app?vid=ae0bdd7b-187c-409c-b2b3-37aac32d4db3","ios":"levelo://app?vid=ae0bdd7b-187c-409c-b2b3-37aac32d4db3"},"vehicle_type_id":"4","last_reported":1734217701,"current_range_meters":38000,"station_id":"ce4bhsh2rcd13ifvqi2g","pricing_plan_id":"cebpf4jnsgd1na2vs0mg"},{"bike_id":"f7800697-1d13-4354-bf51-00a013d79518","system_id":"levelo_inurba_marseille","lat":43.29723,"lon":5.37679,"is_reserved":false,"is_disabled":false,"rental_uris":{"android":"levelo://app?vid=f7800697-1d13-4354-bf51-00a013d79518","ios":"levelo://app?vid=f7800697-1d13-4354-bf51-00a013d79518"},"vehicle_type_id":"4","last_reported":1734217701,"current_range_meters":38800,"station_id":"ce4bgkh2rcd13ifvqbl0","pricing_plan_id":"cebpf4jnsgd1na2vs0mg"},{"bike_id":"42cfffe7-8d2a-4a4f-b8f4-c4e4f1a96726","system_id":"levelo_inurba_marseille","lat":43.26552,"lon":5.37285,"is_reserved":false,"is_disabled":false,"rental_uris":{"android":"levelo://app?vid=42cfffe7-8d2a-4a4f-b8f4-c4e4f1a96726","ios":"levelo://app?vid=42cfffe7-8d2a-4a4f-b8f4-c4e4f1a96726"},"vehicle_type_id":"4","last_reported":1734217701,"current_range_meters":10800,"station_id":"ce4bhg12rcd13ifvqf70","pricing_plan_id":"cebpf4jnsgd1na2vs0mg"},{"bike_id":"9ad311dd-c450-4f09-933a-ef53d4559dc3","system_id":"levelo_inurba_marseille","lat":43.26996,"lon":5.39863,"is_reserved":false,"is_disabled":false,"rental_uris":{"android":"levelo://app?vid=9ad311dd-c450-4f09-933a-ef53d4559dc3","ios":"levelo://app?vid=9ad311dd-c450-4f09-933a-ef53d4559dc3"},"vehicle_type_id":"4","last_reported":1734217701,"current_range_meters":25200,"station_id":"","pricing_plan_id":"cebpf4jnsgd1na2vs0mg"},{"bike_id":"37456efc-92e9-4863-91c7-bd4d94a41119","system_id":"levelo_inurba_marseille","lat":43.284969,"lon":5.401787,"is_reserved":false,"is_disabled":false,"rental_uris":{"android":"levelo://app?vid=37456efc-92e9-4863-91c7-bd4d94a41119","ios":"levelo://app?vid=37456efc-92e9-4863-91c7-bd4d94a41119"},"vehicle_type_id":"4","last_reported":1734217701,"current_range_meters":11600,"station_id":"","pricing_plan_id":"cebpf4jnsgd1na2vs0mg"},{"bike_id":"123e146a-854c-4e79-886f-1db5d5371d0c","system_id":"levelo_inurba_marseille","lat":43.31997,"lon":5.3815,"is_reserved":false,"is_disabled":false,"rental_uris":{"android":"levelo://app?vid=123e146a-854c-4e79-886f-1db5d5371d0c","ios":"levelo://app?vid=123e146a-854c-4e79-886f-1db5d5371d0c"},"vehicle_type_id":"4","last_reported":1734217701,"current_range_meters":38800,"station_id":"ce4bhr12rcd13ifvqhpg","pricing_plan_id":"cebpf4jnsgd1na2vs0mg"},{"bike_id":"44db9a9d-ddc8-4756-b796-1d8de4c4d278","system_id":"levelo_inurba_marseille","lat":43.31995,"lon":5.381639,"is_reserved":false,"is_disabled":false,"rental_uris":{"android":"levelo://app?vid=44db9a9d-ddc8-4756-b796-1d8de4c4d278","ios":"levelo://app?vid=44db9a9d-ddc8-4756-b796-1d8de4c4d278"},"vehicle_type_id":"4","last_reported":1734217701,"current_range_meters":25200,"station_id":"ce4bhr12rcd13ifvqhpg","pricing_plan_id":"cebpf4jnsgd1na2vs0mg"},{"bike_id":"af67ac53-ba21-4ff0-8334-95679e9ff2cc","system_id":"levelo_inurba_marseille","lat":43.278805,"lon":5.388003,"is_reserved":false,"is_disabled":true,"rental_uris":{"android":"levelo://app?vid=af67ac53-ba21-4ff0-8334-95679e9ff2cc","ios":"levelo://app?vid=af67ac53-ba21-4ff0-8334-95679e9ff2cc"},"vehicle_type_id":"4","last_reported":1734217701,"current_range_meters":400,"station_id":"","pricing_plan_id":"cebpf4jnsgd1na2vs0mg"},{"bike_id":"63a5defd-a58c-4810-bb28-266e8709e246","system_id":"levelo_inurba_marseille","lat":43.29298,"lon":5.37443,"is_reserved":false,"is_disabled":false,"rental_uris":{"android":"levelo://app?vid=63a5defd-a58c-4810-bb28-266e8709e246","ios":"levelo://app?vid=63a5defd-a58c-4810-bb28-266e8709e246"},"vehicle_type_id":"4","last_reported":1734217701,"current_range_meters":28800,"station_id":"ce4bgi12rcd13ifvqb70","pricing_plan_id":"cebpf4jnsgd1na2vs0mg"},{"bike_id":"af3cf5fc-8f4b-4054-b231-9398597286a2","system_id":"levelo_inurba_marseille","lat":43.31369,"lon":5.38497,"is_reserved":false,"is_disabled":false,"rental_uris":{"android":"levelo://app?vid=af3cf5fc-8f4b-4054-b231-9398597286a2","ios":"levelo://app?vid=af3cf5fc-8f4b-4054-b231-9398597286a2"},"vehicle_type_id":"4","last_reported":1734217701,"current_range_meters":16800,"station_id":"ce4bgt92rcd13ifvqcf0","pricing_plan_id":"cebpf4jnsgd1na2vs0mg"},{"bike_id":"51fd7664-4274-4c81-a174-1e64bd9c4e61","system_id":"levelo_inurba_marseille","lat":43.29598,"lon":5.38084,"is_reserved":false,"is_disabled":false,"rental_uris":{"android":"levelo://app?vid=51fd7664-4274-4c81-a174-1e64bd9c4e61","ios":"levelo://app?vid=51fd7664-4274-4c81-a174-1e64bd9c4e61"},"vehicle_type_id":"4","last_reported":1734217701,"current_range_meters":17600,"station_id":"ce4bgl12rcd13ifvqbo0","pricing_plan_id":"cebpf4jnsgd1na2vs0mg"},{"bike_id":"65c35bc5-9ca0-4e78-bfed-44f8e22c9522","system_id":"levelo_inurba_marseille","lat":43.29559,"lon":5.37543,"is_reserved":false,"is_disabled":false,"rental_uris":{"android":"levelo://app?vid=65c35bc5-9ca0-4e78-bfed-44f8e22c9522","ios":"levelo://app?vid=65c35bc5-9ca0-4e78-bfed-44f8e22c9522"},"vehicle_type_id":"4","last_reported":1734217701,"current_range_meters":24000,"station_id":"ce4bgh92rcd13ifvqb50","pricing_plan_id":"cebpf4jnsgd1na2vs0mg"},{"bike_id":"fc43bfe3-9f6d-4964-8d03-4526a28744ff","system_id":"levelo_inurba_marseille","lat":43.23964,"lon":5.36633,"is_reserved":false,"is_disabled":false,"rental_uris":{"android":"levelo://app?vid=fc43bfe3-9f6d-4964-8d03-4526a28744ff","ios":"levelo://app?vid=fc43bfe3-9f6d-4964-8d03-4526a28744ff"},"vehicle_type_id":"4","last_reported":1734217701,"current_range_meters":38400,"station_id":"ce4bhi12rcd13ifvqfp0","pricing_plan_id":"cebpf4jnsgd1na2vs0mg"},{"bike_id":"2988f1ab-6c1e-40e5-a4d4-4636eac9d97c","system_id":"levelo_inurba_marseille","lat":43.29205,"lon":5.39342,"is_reserved":false,"is_disabled":false,"rental_uris":{"android":"levelo://app?vid=2988f1ab-6c1e-40e5-a4d4-4636eac9d97c","ios":"levelo://app?vid=2988f1ab-6c1e-40e5-a4d4-4636eac9d97c"},"vehicle_type_id":"4","last_reported":1734217701,"current_range_meters":30000,"station_id":"ce4bh192rcd13ifvqdd0","pricing_plan_id":"cebpf4jnsgd1na2vs0mg"},{"bike_id":"b85872e2-d5a7-4457-b819-0f18328fca20","system_id":"levelo_inurba_marseille","lat":43.3033,"lon":5.40441,"is_reserved":false,"is_disabled":false,"rental_uris":{"android":"levelo://app?vid=b85872e2-d5a7-4457-b819-0f18328fca20","ios":"levelo://app?vid=b85872e2-d5a7-4457-b819-0f18328fca20"},"vehicle_type_id":"4","last_reported":1734217701,"current_range_meters":28800,"station_id":"ce4bh012rcd13ifvqd10","pricing_plan_id":"cebpf4jnsgd1na2vs0mg"},{"bike_id":"d65fcea9-51ba-41f0-86fd-e798dfdd6f09","system_id":"levelo_inurba_marseille","lat":43.28708,"lon":5.38308,"is_reserved":false,"is_disabled":true,"rental_uris":{"android":"levelo://app?vid=d65fcea9-51ba-41f0-86fd-e798dfdd6f09","ios":"levelo://app?vid=d65fcea9-51ba-41f0-86fd-e798dfdd6f09"},"vehicle_type_id":"4","last_reported":1734217701,"current_range_meters":0,"station_id":"","pricing_plan_id":"cebpf4jnsgd1na2vs0mg"},{"bike_id":"656d8740-9b85-4a93-86ce-9d32a0e761f7","system_id":"levelo_inurba_marseille","lat":43.31074,"lon":5.38347,"is_reserved":false,"is_disabled":true,"rental_uris":{"android":"levelo://app?vid=656d8740-9b85-4a93-86ce-9d32a0e761f7","ios":"levelo://app?vid=656d8740-9b85-4a93-86ce-9d32a0e761f7"},"vehicle_type_id":"4","last_reported":1734217701,"current_range_meters":28400,"station_id":"ce4bgv92rcd13ifvqcr0","pricing_plan_id":"cebpf4jnsgd1na2vs0mg"},{"bike_id":"30b09c14-5db6-4bdd-8ec0-8d8fd355bef3","system_id":"levelo_inurba_marseille","lat":43.29886,"lon":5.39736,"is_reserved":false,"is_disabled":true,"rental_uris":{"android":"levelo://app?vid=30b09c14-5db6-4bdd-8ec0-8d8fd355bef3","ios":"levelo://app?vid=30b09c14-5db6-4bdd-8ec0-8d8fd355bef3"},"vehicle_type_id":"4","last_reported":1734217701,"current_range_meters":4800,"station_id":"ce4bh0h2rcd13ifvqd50","pricing_plan_id":"cebpf4jnsgd1na2vs0mg"},{"bike_id":"f08c808c-af08-40b8-81c3-97739c995b77","system_id":"levelo_inurba_marseille","lat":43.30127,"lon":5.39864,"is_reserved":false,"is_disabled":true,"rental_uris":{"android":"levelo://app?vid=f08c808c-af08-40b8-81c3-97739c995b77","ios":"levelo://app?vid=f08c808c-af08-40b8-81c3-97739c995b77"},"vehicle_type_id":"4","last_reported":1734217701,"current_range_meters":30800,"station_id":"ce4bh0h2rcd13ifvqd40","pricing_plan_id":"cebpf4jnsgd1na2vs0mg"},{"bike_id":"86970bbe-b814-43c9-89a2-85f507f309fa","system_id":"levelo_inurba_marseille","lat":43.30525,"lon":5.38433,"is_reserved":false,"is_disabled":true,"rental_uris":{"android":"levelo://app?vid=86970bbe-b814-43c9-89a2-85f507f309fa","ios":"levelo://app?vid=86970bbe-b814-43c9-89a2-85f507f309fa"},"vehicle_type_id":"4","last_reported":1734217701,"current_range_meters":6800,"station_id":"ce4bgg92rcd13ifvqb30","pricing_plan_id":"cebpf4jnsgd1na2vs0mg"},{"bike_id":"1aef2695-2f13-4907-9895-0dde7107f61b","system_id":"levelo_inurba_marseille","lat":43.28363,"lon":5.38082,"is_reserved":false,"is_disabled":false,"rental_uris":{"android":"levelo://app?vid=1aef2695-2f13-4907-9895-0dde7107f61b","ios":"levelo://app?vid=1aef2695-2f13-4907-9895-0dde7107f61b"},"vehicle_type_id":"4","last_reported":1734217701,"current_range_meters":18000,"station_id":"ce4bh412rcd13ifvqdr0","pricing_plan_id":"cebpf4jnsgd1na2vs0mg"},{"bike_id":"96969163-05be-4d1c-a728-67794615bdfc","system_id":"levelo_inurba_marseille","lat":43.29002,"lon":5.38996,"is_reserved":false,"is_disabled":false,"rental_uris":{"android":"levelo://app?vid=96969163-05be-4d1c-a728-67794615bdfc","ios":"levelo://app?vid=96969163-05be-4d1c-a728-67794615bdfc"},"vehicle_type_id":"4","last_reported":1734217701,"current_range_meters":18800,"station_id":"","pricing_plan_id":"cebpf4jnsgd1na2vs0mg"},{"bike_id":"64203de9-e72b-4d66-9a84-7a315c7ed37f","system_id":"levelo_inurba_marseille","lat":43.29453,"lon":5.3741,"is_reserved":false,"is_disabled":true,"rental_uris":{"android":"levelo://app?vid=64203de9-e72b-4d66-9a84-7a315c7ed37f","ios":"levelo://app?vid=64203de9-e72b-4d66-9a84-7a315c7ed37f"},"vehicle_type_id":"4","last_reported":1734217701,"current_range_meters":0,"station_id":"","pricing_plan_id":"cebpf4jnsgd1na2vs0mg"},{"bike_id":"43a2fa1d-314c-4a4d-b7c9-aa2f198eb73b","system_id":"levelo_inurba_marseille","lat":43.30126,"lon":5.38744,"is_reserved":false,"is_disabled":true,"rental_uris":{"android":"levelo://app?vid=43a2fa1d-314c-4a4d-b7c9-aa2f198eb73b","ios":"levelo://app?vid=43a2fa1d-314c-4a4d-b7c9-aa2f198eb73b"},"vehicle_type_id":"4","last_reported":1734217701,"current_range_meters":32800,"station_id":"ce4bghh2rcd13ifvqb60","pricing_plan_id":"cebpf4jnsgd1na2vs0mg"},{"bike_id":"f40a8800-0282-4e19-ba2d-6a4b73090705","system_id":"levelo_inurba_marseille","lat":43.28687,"lon":5.38654,"is_reserved":false,"is_disabled":true,"rental_uris":{"android":"levelo://app?vid=f40a8800-0282-4e19-ba2d-6a4b73090705","ios":"levelo://app?vid=f40a8800-0282-4e19-ba2d-6a4b73090705"},"vehicle_type_id":"4","last_reported":1734217701,"current_range_meters":30000,"station_id":"ce4bh492rcd13ifvqdug","pricing_plan_id":"cebpf4jnsgd1na2vs0mg"},{"bike_id":"61b4d76d-d048-44b0-917e-5dcd4b4ce85f","system_id":"levelo_inurba_marseille","lat":43.28468,"lon":5.35887,"is_reserved":false,"is_disabled":false,"rental_uris":{"android":"levelo://app?vid=61b4d76d-d048-44b0-917e-5dcd4b4ce85f","ios":"levelo://app?vid=61b4d76d-d048-44b0-917e-5dcd4b4ce85f"},"vehicle_type_id":"4","last_reported":1734217701,"current_range_meters":16000,"station_id":"ce4bhah2rcd13ifvqei0","pricing_plan_id":"cebpf4jnsgd1na2vs0mg"},{"bike_id":"ee86875a-7fd8-4803-839e-f9dfb16c4db6","system_id":"levelo_inurba_marseille","lat":43.23123,"lon":5.43711,"is_reserved":false,"is_disabled":false,"rental_uris":{"android":"levelo://app?vid=ee86875a-7fd8-4803-839e-f9dfb16c4db6","ios":"levelo://app?vid=ee86875a-7fd8-4803-839e-f9dfb16c4db6"},"vehicle_type_id":"4","last_reported":1734217701,"current_range_meters":6800,"station_id":"ce4bhmp2rcd13ifvqgog","pricing_plan_id":"cebpf4jnsgd1na2vs0mg"},{"bike_id":"70c673d5-6066-4faf-b215-c0e7165e8d28","system_id":"levelo_inurba_marseille","lat":43.26058,"lon":5.39387,"is_reserved":false,"is_disabled":false,"rental_uris":{"android":"levelo://app?vid=70c673d5-6066-4faf-b215-c0e7165e8d28","ios":"levelo://app?vid=70c673d5-6066-4faf-b215-c0e7165e8d28"},"vehicle_type_id":"4","last_reported":1734217701,"current_range_meters":8400,"station_id":"ce4bhh92rcd13ifvqfj0","pricing_plan_id":"cebpf4jnsgd1na2vs0mg"},{"bike_id":"475a3d4d-9c7d-4f22-a276-68871137052a","system_id":"levelo_inurba_marseille","lat":43.30608,"lon":5.37217,"is_reserved":false,"is_disabled":false,"rental_uris":{"android":"levelo://app?vid=475a3d4d-9c7d-4f22-a276-68871137052a","ios":"levelo://app?vid=475a3d4d-9c7d-4f22-a276-68871137052a"},"vehicle_type_id":"4","last_reported":1734217701,"current_range_meters":33600,"station_id":"ce4bgqh2rcd13ifvqc4g","pricing_plan_id":"cebpf4jnsgd1na2vs0mg"},{"bike_id":"6d8ef379-5d2c-41e5-bd8d-51a3cd22fbe0","system_id":"levelo_inurba_marseille","lat":43.24163,"lon":5.39699,"is_reserved":false,"is_disabled":true,"rental_uris":{"android":"levelo://app?vid=6d8ef379-5d2c-41e5-bd8d-51a3cd22fbe0","ios":"levelo://app?vid=6d8ef379-5d2c-41e5-bd8d-51a3cd22fbe0"},"vehicle_type_id":"4","last_reported":1734217701,"current_range_meters":25600,"station_id":"ce4bhn12rcd13ifvqgpg","pricing_plan_id":"cebpf4jnsgd1na2vs0mg"},{"bike_id":"e2200d13-01c2-4911-8571-0e3065ed5868","system_id":"levelo_inurba_marseille","lat":43.29163,"lon":5.37151,"is_reserved":false,"is_disabled":false,"rental_uris":{"android":"levelo://app?vid=e2200d13-01c2-4911-8571-0e3065ed5868","ios":"levelo://app?vid=e2200d13-01c2-4911-8571-0e3065ed5868"},"vehicle_type_id":"4","last_reported":1734217701,"current_range_meters":30000,"station_id":"ce4bha92rcd13ifvqeh0","pricing_plan_id":"cebpf4jnsgd1na2vs0mg"},{"bike_id":"a292a457-10f9-4b48-a0ef-624edd7a1383","system_id":"levelo_inurba_marseille","lat":43.31368,"lon":5.38488,"is_reserved":false,"is_disabled":false,"rental_uris":{"android":"levelo://app?vid=a292a457-10f9-4b48-a0ef-624edd7a1383","ios":"levelo://app?vid=a292a457-10f9-4b48-a0ef-624edd7a1383"},"vehicle_type_id":"4","last_reported":1734217701,"current_range_meters":29600,"station_id":"ce4bgt92rcd13ifvqcf0","pricing_plan_id":"cebpf4jnsgd1na2vs0mg"},{"bike_id":"d155e5dc-01d8-403a-892d-340cef9712f2","system_id":"levelo_inurba_marseille","lat":43.31055,"lon":5.38348,"is_reserved":false,"is_disabled":false,"rental_uris":{"android":"levelo://app?vid=d155e5dc-01d8-403a-892d-340cef9712f2","ios":"levelo://app?vid=d155e5dc-01d8-403a-892d-340cef9712f2"},"vehicle_type_id":"4","last_reported":1734217701,"current_range_meters":17600,"station_id":"ce4bgv92rcd13ifvqcr0","pricing_plan_id":"cebpf4jnsgd1na2vs0mg"},{"bike_id":"38cbe152-ac56-4cf6-82ec-171fa60594d2","system_id":"levelo_inurba_marseille","lat":43.31999,"lon":5.38161,"is_reserved":false,"is_disabled":false,"rental_uris":{"android":"levelo://app?vid=38cbe152-ac56-4cf6-82ec-171fa60594d2","ios":"levelo://app?vid=38cbe152-ac56-4cf6-82ec-171fa60594d2"},"vehicle_type_id":"4","last_reported":1734217701,"current_range_meters":22800,"station_id":"ce4bhr12rcd13ifvqhpg","pricing_plan_id":"cebpf4jnsgd1na2vs0mg"},{"bike_id":"99c6b58f-7dcd-4bf9-9a17-642f49713be1","system_id":"levelo_inurba_marseille","lat":43.28104,"lon":5.37834,"is_reserved":false,"is_disabled":false,"rental_uris":{"android":"levelo://app?vid=99c6b58f-7dcd-4bf9-9a17-642f49713be1","ios":"levelo://app?vid=99c6b58f-7dcd-4bf9-9a17-642f49713be1"},"vehicle_type_id":"4","last_reported":1734217701,"current_range_meters":17200,"station_id":"ce4bha12rcd13ifvqee0","pricing_plan_id":"cebpf4jnsgd1na2vs0mg"},{"bike_id":"94d3b65f-b412-4192-92ba-1abce16b21ca","system_id":"levelo_inurba_marseille","lat":43.30309,"lon":5.36886,"is_reserved":false,"is_disabled":false,"rental_uris":{"android":"levelo://app?vid=94d3b65f-b412-4192-92ba-1abce16b21ca","ios":"levelo://app?vid=94d3b65f-b412-4192-92ba-1abce16b21ca"},"vehicle_type_id":"4","last_reported":1734217701,"current_range_meters":38800,"station_id":"ce4bgqh2rcd13ifvqc5g","pricing_plan_id":"cebpf4jnsgd1na2vs0mg"},{"bike_id":"07154a6e-1aad-4b6f-8cd5-49a1da2b8e24","system_id":"levelo_inurba_marseille","lat":43.23158,"lon":5.437,"is_reserved":false,"is_disabled":false,"rental_uris":{"android":"levelo://app?vid=07154a6e-1aad-4b6f-8cd5-49a1da2b8e24","ios":"levelo://app?vid=07154a6e-1aad-4b6f-8cd5-49a1da2b8e24"},"vehicle_type_id":"4","last_reported":1734217701,"current_range_meters":38800,"station_id":"ce4bhmp2rcd13ifvqgog","pricing_plan_id":"cebpf4jnsgd1na2vs0mg"},{"bike_id":"acda9170-8058-4395-be1d-4f9f6510eb74","system_id":"levelo_inurba_marseille","lat":43.27883,"lon":5.38016,"is_reserved":false,"is_disabled":false,"rental_uris":{"android":"levelo://app?vid=acda9170-8058-4395-be1d-4f9f6510eb74","ios":"levelo://app?vid=acda9170-8058-4395-be1d-4f9f6510eb74"},"vehicle_type_id":"4","last_reported":1734217701,"current_range_meters":28400,"station_id":"ce4bhf92rcd13ifvqf50","pricing_plan_id":"cebpf4jnsgd1na2vs0mg"},{"bike_id":"d980ca44-3e03-47a3-889e-844108016641","system_id":"levelo_inurba_marseille","lat":43.25498,"lon":5.37649,"is_reserved":false,"is_disabled":false,"rental_uris":{"android":"levelo://app?vid=d980ca44-3e03-47a3-889e-844108016641","ios":"levelo://app?vid=d980ca44-3e03-47a3-889e-844108016641"},"vehicle_type_id":"4","last_reported":1734217701,"current_range_meters":30800,"station_id":"ce4bhh12rcd13ifvqff0","pricing_plan_id":"cebpf4jnsgd1na2vs0mg"},{"bike_id":"02d49aeb-cead-41d0-839b-1aa639a0e13f","system_id":"levelo_inurba_marseille","lat":43.28161,"lon":5.42642,"is_reserved":false,"is_disabled":false,"rental_uris":{"android":"levelo://app?vid=02d49aeb-cead-41d0-839b-1aa639a0e13f","ios":"levelo://app?vid=02d49aeb-cead-41d0-839b-1aa639a0e13f"},"vehicle_type_id":"4","last_reported":1734217701,"current_range_meters":17200,"station_id":"ce4bhnh2rcd13ifvqgug","pricing_plan_id":"cebpf4jnsgd1na2vs0mg"},{"bike_id":"39d81795-dce6-4cb7-8e04-e0d06c45730c","system_id":"levelo_inurba_marseille","lat":43.29536,"lon":5.39388,"is_reserved":false,"is_disabled":false,"rental_uris":{"android":"levelo://app?vid=39d81795-dce6-4cb7-8e04-e0d06c45730c","ios":"levelo://app?vid=39d81795-dce6-4cb7-8e04-e0d06c45730c"},"vehicle_type_id":"4","last_reported":1734217701,"current_range_meters":31200,"station_id":"ce4bh292rcd13ifvqdf0","pricing_plan_id":"cebpf4jnsgd1na2vs0mg"},{"bike_id":"1ce9162e-8087-4fe2-8381-489324a22350","system_id":"levelo_inurba_marseille","lat":43.25866,"lon":5.39898,"is_reserved":false,"is_disabled":false,"rental_uris":{"android":"levelo://app?vid=1ce9162e-8087-4fe2-8381-489324a22350","ios":"levelo://app?vid=1ce9162e-8087-4fe2-8381-489324a22350"},"vehicle_type_id":"4","last_reported":1734217701,"current_range_meters":28400,"station_id":"ce4bhl92rcd13ifvqghg","pricing_plan_id":"cebpf4jnsgd1na2vs0mg"},{"bike_id":"6b10d37b-3846-4f7e-8b9d-57ca79bbb675","system_id":"levelo_inurba_marseille","lat":43.29542,"lon":5.38546,"is_reserved":false,"is_disabled":true,"rental_uris":{"android":"levelo://app?vid=6b10d37b-3846-4f7e-8b9d-57ca79bbb675","ios":"levelo://app?vid=6b10d37b-3846-4f7e-8b9d-57ca79bbb675"},"vehicle_type_id":"4","last_reported":1734217701,"current_range_meters":36400,"station_id":"ce4bgih2rcd13ifvqba0","pricing_plan_id":"cebpf4jnsgd1na2vs0mg"},{"bike_id":"9703c418-561c-4947-909b-5280aa1605c3","system_id":"levelo_inurba_marseille","lat":43.24175,"lon":5.39727,"is_reserved":false,"is_disabled":false,"rental_uris":{"android":"levelo://app?vid=9703c418-561c-4947-909b-5280aa1605c3","ios":"levelo://app?vid=9703c418-561c-4947-909b-5280aa1605c3"},"vehicle_type_id":"4","last_reported":1734217701,"current_range_meters":38800,"station_id":"ce4bhn12rcd13ifvqgpg","pricing_plan_id":"cebpf4jnsgd1na2vs0mg"},{"bike_id":"377ad416-b0ae-445f-b4f6-76ea4fd47056","system_id":"levelo_inurba_marseille","lat":43.27909,"lon":5.38001,"is_reserved":false,"is_disabled":false,"rental_uris":{"android":"levelo://app?vid=377ad416-b0ae-445f-b4f6-76ea4fd47056","ios":"levelo://app?vid=377ad416-b0ae-445f-b4f6-76ea4fd47056"},"vehicle_type_id":"4","last_reported":1734217701,"current_range_meters":12400,"station_id":"ce4bhf92rcd13ifvqf50","pricing_plan_id":"cebpf4jnsgd1na2vs0mg"},{"bike_id":"d8e94e75-3aa5-47f1-8653-d4f3799d65f8","system_id":"levelo_inurba_marseille","lat":43.29604,"lon":5.38092,"is_reserved":false,"is_disabled":false,"rental_uris":{"android":"levelo://app?vid=d8e94e75-3aa5-47f1-8653-d4f3799d65f8","ios":"levelo://app?vid=d8e94e75-3aa5-47f1-8653-d4f3799d65f8"},"vehicle_type_id":"4","last_reported":1734217701,"current_range_meters":38800,"station_id":"ce4bgl12rcd13ifvqbo0","pricing_plan_id":"cebpf4jnsgd1na2vs0mg"},{"bike_id":"73a5e47c-cd4d-43db-8435-971a31f159ec","system_id":"levelo_inurba_marseille","lat":43.29306,"lon":5.37157,"is_reserved":false,"is_disabled":false,"rental_uris":{"android":"levelo://app?vid=73a5e47c-cd4d-43db-8435-971a31f159ec","ios":"levelo://app?vid=73a5e47c-cd4d-43db-8435-971a31f159ec"},"vehicle_type_id":"4","last_reported":1734217701,"current_range_meters":35600,"station_id":"ce4bgh92rcd13ifvqb40","pricing_plan_id":"cebpf4jnsgd1na2vs0mg"},{"bike_id":"39354760-b4ca-4e18-a4fd-42820764a17b","system_id":"levelo_inurba_marseille","lat":43.26212,"lon":5.37437,"is_reserved":false,"is_disabled":false,"rental_uris":{"android":"levelo://app?vid=39354760-b4ca-4e18-a4fd-42820764a17b","ios":"levelo://app?vid=39354760-b4ca-4e18-a4fd-42820764a17b"},"vehicle_type_id":"4","last_reported":1734217701,"current_range_meters":16800,"station_id":"ce4bhgp2rcd13ifvqfc0","pricing_plan_id":"cebpf4jnsgd1na2vs0mg"},{"bike_id":"c7100cf8-cc8e-43c5-9619-3c289e92afef","system_id":"levelo_inurba_marseille","lat":43.29167,"lon":5.37154,"is_reserved":false,"is_disabled":false,"rental_uris":{"android":"levelo://app?vid=c7100cf8-cc8e-43c5-9619-3c289e92afef","ios":"levelo://app?vid=c7100cf8-cc8e-43c5-9619-3c289e92afef"},"vehicle_type_id":"4","last_reported":1734217701,"current_range_meters":38800,"station_id":"ce4bha92rcd13ifvqeh0","pricing_plan_id":"cebpf4jnsgd1na2vs0mg"},{"bike_id":"a9ecf1a4-de37-454b-a62a-1c76f78bfd81","system_id":"levelo_inurba_marseille","lat":43.24648,"lon":5.38893,"is_reserved":false,"is_disabled":false,"rental_uris":{"android":"levelo://app?vid=a9ecf1a4-de37-454b-a62a-1c76f78bfd81","ios":"levelo://app?vid=a9ecf1a4-de37-454b-a62a-1c76f78bfd81"},"vehicle_type_id":"4","last_reported":1734217701,"current_range_meters":28800,"station_id":"ce4bhg12rcd13ifvqf60","pricing_plan_id":"cebpf4jnsgd1na2vs0mg"},{"bike_id":"693c1ece-3329-4985-9a2b-c90b1fe06ddf","system_id":"levelo_inurba_marseille","lat":43.3176,"lon":5.39013,"is_reserved":false,"is_disabled":false,"rental_uris":{"android":"levelo://app?vid=693c1ece-3329-4985-9a2b-c90b1fe06ddf","ios":"levelo://app?vid=693c1ece-3329-4985-9a2b-c90b1fe06ddf"},"vehicle_type_id":"4","last_reported":1734217701,"current_range_meters":27600,"station_id":"ce4bhqp2rcd13ifvqhng","pricing_plan_id":"cebpf4jnsgd1na2vs0mg"},{"bike_id":"b4f28572-e9c3-4d89-a9c6-b22627fb6aff","system_id":"levelo_inurba_marseille","lat":43.3254,"lon":5.41446,"is_reserved":false,"is_disabled":false,"rental_uris":{"android":"levelo://app?vid=b4f28572-e9c3-4d89-a9c6-b22627fb6aff","ios":"levelo://app?vid=b4f28572-e9c3-4d89-a9c6-b22627fb6aff"},"vehicle_type_id":"4","last_reported":1734217701,"current_range_meters":23200,"station_id":"ce4bhq12rcd13ifvqhhg","pricing_plan_id":"cebpf4jnsgd1na2vs0mg"},{"bike_id":"5c962dda-b22e-470a-995c-451dd81da0e3","system_id":"levelo_inurba_marseille","lat":43.289429,"lon":5.363943,"is_reserved":false,"is_disabled":false,"rental_uris":{"android":"levelo://app?vid=5c962dda-b22e-470a-995c-451dd81da0e3","ios":"levelo://app?vid=5c962dda-b22e-470a-995c-451dd81da0e3"},"vehicle_type_id":"4","last_reported":1734217701,"current_range_meters":3600,"station_id":"ce4bhc92rcd13ifvqetg","pricing_plan_id":"cebpf4jnsgd1na2vs0mg"},{"bike_id":"f98e7e7f-5920-4770-8e6a-e1e9626c2cb5","system_id":"levelo_inurba_marseille","lat":43.25785,"lon":5.39377,"is_reserved":false,"is_disabled":false,"rental_uris":{"android":"levelo://app?vid=f98e7e7f-5920-4770-8e6a-e1e9626c2cb5","ios":"levelo://app?vid=f98e7e7f-5920-4770-8e6a-e1e9626c2cb5"},"vehicle_type_id":"4","last_reported":1734217701,"current_range_meters":10000,"station_id":"","pricing_plan_id":"cebpf4jnsgd1na2vs0mg"},{"bike_id":"55ce578e-dec3-47c6-bc2a-3369d6d751b1","system_id":"levelo_inurba_marseille","lat":43.2319,"lon":5.39982,"is_reserved":false,"is_disabled":true,"rental_uris":{"android":"levelo://app?vid=55ce578e-dec3-47c6-bc2a-3369d6d751b1","ios":"levelo://app?vid=55ce578e-dec3-47c6-bc2a-3369d6d751b1"},"vehicle_type_id":"4","last_reported":1734217701,"current_range_meters":400,"station_id":"ce4bhn12rcd13ifvqgqg","pricing_plan_id":"cebpf4jnsgd1na2vs0mg"},{"bike_id":"5a8eccc2-579d-4dab-956a-ea35819dffee","system_id":"levelo_inurba_marseille","lat":43.28356,"lon":5.38099,"is_reserved":false,"is_disabled":false,"rental_uris":{"android":"levelo://app?vid=5a8eccc2-579d-4dab-956a-ea35819dffee","ios":"levelo://app?vid=5a8eccc2-579d-4dab-956a-ea35819dffee"},"vehicle_type_id":"4","last_reported":1734217701,"current_range_meters":23200,"station_id":"ce4bh412rcd13ifvqdr0","pricing_plan_id":"cebpf4jnsgd1na2vs0mg"},{"bike_id":"4e3eebec-f009-4887-809b-5f30495d5092","system_id":"levelo_inurba_marseille","lat":43.286996,"lon":5.373932,"is_reserved":false,"is_disabled":true,"rental_uris":{"android":"levelo://app?vid=4e3eebec-f009-4887-809b-5f30495d5092","ios":"levelo://app?vid=4e3eebec-f009-4887-809b-5f30495d5092"},"vehicle_type_id":"4","last_reported":1734217701,"current_range_meters":24400,"station_id":"ce4bh3p2rcd13ifvqdq0","pricing_plan_id":"cebpf4jnsgd1na2vs0mg"},{"bike_id":"eb1496f4-67ed-47fd-8660-60023378367f","system_id":"levelo_inurba_marseille","lat":43.294212,"lon":5.374322,"is_reserved":false,"is_disabled":true,"rental_uris":{"android":"levelo://app?vid=eb1496f4-67ed-47fd-8660-60023378367f","ios":"levelo://app?vid=eb1496f4-67ed-47fd-8660-60023378367f"},"vehicle_type_id":"4","last_reported":1734217701,"current_range_meters":0,"station_id":"","pricing_plan_id":"cebpf4jnsgd1na2vs0mg"},{"bike_id":"71adf873-8534-4b4c-88ad-a35b28cb9554","system_id":"levelo_inurba_marseille","lat":43.24744,"lon":5.41148,"is_reserved":false,"is_disabled":false,"rental_uris":{"android":"levelo://app?vid=71adf873-8534-4b4c-88ad-a35b28cb9554","ios":"levelo://app?vid=71adf873-8534-4b4c-88ad-a35b28cb9554"},"vehicle_type_id":"4","last_reported":1734217701,"current_range_meters":22400,"station_id":"","pricing_plan_id":"cebpf4jnsgd1na2vs0mg"},{"bike_id":"c0c3fc51-3be3-4932-a397-78224f09cbb8","system_id":"levelo_inurba_marseille","lat":43.312243,"lon":5.368653,"is_reserved":false,"is_disabled":false,"rental_uris":{"android":"levelo://app?vid=c0c3fc51-3be3-4932-a397-78224f09cbb8","ios":"levelo://app?vid=c0c3fc51-3be3-4932-a397-78224f09cbb8"},"vehicle_type_id":"4","last_reported":1734217701,"current_range_meters":30000,"station_id":"ce4bgl92rcd13ifvqbq0","pricing_plan_id":"cebpf4jnsgd1na2vs0mg"},{"bike_id":"30ebf9e5-e6c0-48c8-b762-4f7bbd57689f","system_id":"levelo_inurba_marseille","lat":43.28938,"lon":5.36386,"is_reserved":false,"is_disabled":false,"rental_uris":{"android":"levelo://app?vid=30ebf9e5-e6c0-48c8-b762-4f7bbd57689f","ios":"levelo://app?vid=30ebf9e5-e6c0-48c8-b762-4f7bbd57689f"},"vehicle_type_id":"4","last_reported":1734217701,"current_range_meters":38000,"station_id":"ce4bhc92rcd13ifvqetg","pricing_plan_id":"cebpf4jnsgd1na2vs0mg"},{"bike_id":"1dde6f4b-4f52-49f7-98b1-3ea7bce0474f","system_id":"levelo_inurba_marseille","lat":43.31536,"lon":5.38025,"is_reserved":false,"is_disabled":false,"rental_uris":{"android":"levelo://app?vid=1dde6f4b-4f52-49f7-98b1-3ea7bce0474f","ios":"levelo://app?vid=1dde6f4b-4f52-49f7-98b1-3ea7bce0474f"},"vehicle_type_id":"4","last_reported":1734217701,"current_range_meters":14400,"station_id":"ce4bhsp2rcd13ifvqi50","pricing_plan_id":"cebpf4jnsgd1na2vs0mg"},{"bike_id":"07d979f7-1654-42f5-ad09-d36bbb5a529f","system_id":"levelo_inurba_marseille","lat":43.30951,"lon":5.39038,"is_reserved":false,"is_disabled":false,"rental_uris":{"android":"levelo://app?vid=07d979f7-1654-42f5-ad09-d36bbb5a529f","ios":"levelo://app?vid=07d979f7-1654-42f5-ad09-d36bbb5a529f"},"vehicle_type_id":"4","last_reported":1734217701,"current_range_meters":8800,"station_id":"ce4bgup2rcd13ifvqco0","pricing_plan_id":"cebpf4jnsgd1na2vs0mg"},{"bike_id":"e417af0d-29ea-459e-9bdd-15daa8ff17e0","system_id":"levelo_inurba_marseille","lat":43.29544,"lon":5.38544,"is_reserved":false,"is_disabled":true,"rental_uris":{"android":"levelo://app?vid=e417af0d-29ea-459e-9bdd-15daa8ff17e0","ios":"levelo://app?vid=e417af0d-29ea-459e-9bdd-15daa8ff17e0"},"vehicle_type_id":"4","last_reported":1734217701,"current_range_meters":38800,"station_id":"ce4bgih2rcd13ifvqba0","pricing_plan_id":"cebpf4jnsgd1na2vs0mg"},{"bike_id":"7d1db28c-edeb-4a91-9b40-97c4e6901127","system_id":"levelo_inurba_marseille","lat":43.25722,"lon":5.41103,"is_reserved":false,"is_disabled":false,"rental_uris":{"android":"levelo://app?vid=7d1db28c-edeb-4a91-9b40-97c4e6901127","ios":"levelo://app?vid=7d1db28c-edeb-4a91-9b40-97c4e6901127"},"vehicle_type_id":"4","last_reported":1734217701,"current_range_meters":26000,"station_id":"ce4bhkp2rcd13ifvqgd0","pricing_plan_id":"cebpf4jnsgd1na2vs0mg"},{"bike_id":"3b4cd93b-06b2-471a-8225-1e869c3bab9a","system_id":"levelo_inurba_marseille","lat":43.32371,"lon":5.38883,"is_reserved":false,"is_disabled":false,"rental_uris":{"android":"levelo://app?vid=3b4cd93b-06b2-471a-8225-1e869c3bab9a","ios":"levelo://app?vid=3b4cd93b-06b2-471a-8225-1e869c3bab9a"},"vehicle_type_id":"4","last_reported":1734217701,"current_range_meters":38000,"station_id":"ce4bhqp2rcd13ifvqhog","pricing_plan_id":"cebpf4jnsgd1na2vs0mg"},{"bike_id":"abdf81ec-e98d-4dee-9e25-ca8f28442f23","system_id":"levelo_inurba_marseille","lat":43.29741,"lon":5.40717,"is_reserved":false,"is_disabled":true,"rental_uris":{"android":"levelo://app?vid=abdf81ec-e98d-4dee-9e25-ca8f28442f23","ios":"levelo://app?vid=abdf81ec-e98d-4dee-9e25-ca8f28442f23"},"vehicle_type_id":"4","last_reported":1734217701,"current_range_meters":400,"station_id":"","pricing_plan_id":"cebpf4jnsgd1na2vs0mg"},{"bike_id":"56a44aec-4383-4004-9164-02ac5de8f956","system_id":"levelo_inurba_marseille","lat":43.28838,"lon":5.35852,"is_reserved":false,"is_disabled":false,"rental_uris":{"android":"levelo://app?vid=56a44aec-4383-4004-9164-02ac5de8f956","ios":"levelo://app?vid=56a44aec-4383-4004-9164-02ac5de8f956"},"vehicle_type_id":"4","last_reported":1734217701,"current_range_meters":21600,"station_id":"ce4bhb12rcd13ifvqem0","pricing_plan_id":"cebpf4jnsgd1na2vs0mg"},{"bike_id":"748a382e-7fe2-4a58-a98a-ff4a5538255b","system_id":"levelo_inurba_marseille","lat":43.31351,"lon":5.38484,"is_reserved":false,"is_disabled":false,"rental_uris":{"android":"levelo://app?vid=748a382e-7fe2-4a58-a98a-ff4a5538255b","ios":"levelo://app?vid=748a382e-7fe2-4a58-a98a-ff4a5538255b"},"vehicle_type_id":"4","last_reported":1734217701,"current_range_meters":36000,"station_id":"ce4bgt92rcd13ifvqcf0","pricing_plan_id":"cebpf4jnsgd1na2vs0mg"},{"bike_id":"4a10ded7-00ff-4ff3-bc89-44b487cf8699","system_id":"levelo_inurba_marseille","lat":43.25117,"lon":5.40319,"is_reserved":false,"is_disabled":false,"rental_uris":{"android":"levelo://app?vid=4a10ded7-00ff-4ff3-bc89-44b487cf8699","ios":"levelo://app?vid=4a10ded7-00ff-4ff3-bc89-44b487cf8699"},"vehicle_type_id":"4","last_reported":1734217701,"current_range_meters":38800,"station_id":"ce4bhlh2rcd13ifvqgig","pricing_plan_id":"cebpf4jnsgd1na2vs0mg"},{"bike_id":"228fe83d-8ed9-4f3f-8b58-1ad5b3077b00","system_id":"levelo_inurba_marseille","lat":43.30419,"lon":5.397515,"is_reserved":false,"is_disabled":false,"rental_uris":{"android":"levelo://app?vid=228fe83d-8ed9-4f3f-8b58-1ad5b3077b00","ios":"levelo://app?vid=228fe83d-8ed9-4f3f-8b58-1ad5b3077b00"},"vehicle_type_id":"4","last_reported":1734217701,"current_range_meters":36000,"station_id":"ce4bh092rcd13ifvqd20","pricing_plan_id":"cebpf4jnsgd1na2vs0mg"},{"bike_id":"17cc4ddb-de8e-47e0-b9b2-0d9cd13f8f19","system_id":"levelo_inurba_marseille","lat":43.33607,"lon":5.41017,"is_reserved":false,"is_disabled":false,"rental_uris":{"android":"levelo://app?vid=17cc4ddb-de8e-47e0-b9b2-0d9cd13f8f19","ios":"levelo://app?vid=17cc4ddb-de8e-47e0-b9b2-0d9cd13f8f19"},"vehicle_type_id":"4","last_reported":1734217701,"current_range_meters":12000,"station_id":"ce4bhqh2rcd13ifvqhmg","pricing_plan_id":"cebpf4jnsgd1na2vs0mg"},{"bike_id":"7d026d14-a0e9-4049-9986-1da549904113","system_id":"levelo_inurba_marseille","lat":43.29611,"lon":5.37731,"is_reserved":false,"is_disabled":false,"rental_uris":{"android":"levelo://app?vid=7d026d14-a0e9-4049-9986-1da549904113","ios":"levelo://app?vid=7d026d14-a0e9-4049-9986-1da549904113"},"vehicle_type_id":"4","last_reported":1734217701,"current_range_meters":38800,"station_id":"ce4bgi92rcd13ifvqb90","pricing_plan_id":"cebpf4jnsgd1na2vs0mg"},{"bike_id":"ecbfcd56-e2e9-411a-916b-327a5fa7e43b","system_id":"levelo_inurba_marseille","lat":43.30005,"lon":5.37347,"is_reserved":false,"is_disabled":false,"rental_uris":{"android":"levelo://app?vid=ecbfcd56-e2e9-411a-916b-327a5fa7e43b","ios":"levelo://app?vid=ecbfcd56-e2e9-411a-916b-327a5fa7e43b"},"vehicle_type_id":"4","last_reported":1734217701,"current_range_meters":27200,"station_id":"","pricing_plan_id":"cebpf4jnsgd1na2vs0mg"},{"bike_id":"dee7398a-3607-4e69-9b07-0033a83a8559","system_id":"levelo_inurba_marseille","lat":43.29984,"lon":5.38501,"is_reserved":false,"is_disabled":false,"rental_uris":{"android":"levelo://app?vid=dee7398a-3607-4e69-9b07-0033a83a8559","ios":"levelo://app?vid=dee7398a-3607-4e69-9b07-0033a83a8559"},"vehicle_type_id":"4","last_reported":1734217701,"current_range_meters":38800,"station_id":"ce4bgj92rcd13ifvqbd0","pricing_plan_id":"cebpf4jnsgd1na2vs0mg"},{"bike_id":"b9054db8-7d6f-4542-ae2d-1bd9d8895a1a","system_id":"levelo_inurba_marseille","lat":43.323484,"lon":5.367566,"is_reserved":false,"is_disabled":false,"rental_uris":{"android":"levelo://app?vid=b9054db8-7d6f-4542-ae2d-1bd9d8895a1a","ios":"levelo://app?vid=b9054db8-7d6f-4542-ae2d-1bd9d8895a1a"},"vehicle_type_id":"4","last_reported":1734217701,"current_range_meters":38800,"station_id":"ce4bhsh2rcd13ifvqi2g","pricing_plan_id":"cebpf4jnsgd1na2vs0mg"},{"bike_id":"a170ba40-17b7-4bf6-90f8-c07a5cf55709","system_id":"levelo_inurba_marseille","lat":43.2465,"lon":5.38886,"is_reserved":false,"is_disabled":true,"rental_uris":{"android":"levelo://app?vid=a170ba40-17b7-4bf6-90f8-c07a5cf55709","ios":"levelo://app?vid=a170ba40-17b7-4bf6-90f8-c07a5cf55709"},"vehicle_type_id":"4","last_reported":1734217701,"current_range_meters":38800,"station_id":"ce4bhg12rcd13ifvqf60","pricing_plan_id":"cebpf4jnsgd1na2vs0mg"},{"bike_id":"b89cd02a-44c8-4fbb-83be-fee20ca926ec","system_id":"levelo_inurba_marseille","lat":43.25121,"lon":5.40328,"is_reserved":false,"is_disabled":false,"rental_uris":{"android":"levelo://app?vid=b89cd02a-44c8-4fbb-83be-fee20ca926ec","ios":"levelo://app?vid=b89cd02a-44c8-4fbb-83be-fee20ca926ec"},"vehicle_type_id":"4","last_reported":1734217701,"current_range_meters":8400,"station_id":"ce4bhlh2rcd13ifvqgig","pricing_plan_id":"cebpf4jnsgd1na2vs0mg"},{"bike_id":"732c69f4-fe96-40a0-9af1-8248f0259181","system_id":"levelo_inurba_marseille","lat":43.31081,"lon":5.38363,"is_reserved":false,"is_disabled":false,"rental_uris":{"android":"levelo://app?vid=732c69f4-fe96-40a0-9af1-8248f0259181","ios":"levelo://app?vid=732c69f4-fe96-40a0-9af1-8248f0259181"},"vehicle_type_id":"4","last_reported":1734217701,"current_range_meters":16400,"station_id":"ce4bgv92rcd13ifvqcr0","pricing_plan_id":"cebpf4jnsgd1na2vs0mg"},{"bike_id":"5b6ca433-01a6-4103-9759-da4f588af137","system_id":"levelo_inurba_marseille","lat":43.27913,"lon":5.38006,"is_reserved":false,"is_disabled":false,"rental_uris":{"android":"levelo://app?vid=5b6ca433-01a6-4103-9759-da4f588af137","ios":"levelo://app?vid=5b6ca433-01a6-4103-9759-da4f588af137"},"vehicle_type_id":"4","last_reported":1734217701,"current_range_meters":18800,"station_id":"ce4bhf92rcd13ifvqf50","pricing_plan_id":"cebpf4jnsgd1na2vs0mg"},{"bike_id":"275ee744-5d9b-4ac8-bb35-a47c0223f564","system_id":"levelo_inurba_marseille","lat":43.325487,"lon":5.414367,"is_reserved":false,"is_disabled":false,"rental_uris":{"android":"levelo://app?vid=275ee744-5d9b-4ac8-bb35-a47c0223f564","ios":"levelo://app?vid=275ee744-5d9b-4ac8-bb35-a47c0223f564"},"vehicle_type_id":"4","last_reported":1734217701,"current_range_meters":38800,"station_id":"ce4bhq12rcd13ifvqhhg","pricing_plan_id":"cebpf4jnsgd1na2vs0mg"},{"bike_id":"c51154b5-1034-4fc0-8fac-d1d2e91dba39","system_id":"levelo_inurba_marseille","lat":43.23062,"lon":5.35494,"is_reserved":false,"is_disabled":false,"rental_uris":{"android":"levelo://app?vid=c51154b5-1034-4fc0-8fac-d1d2e91dba39","ios":"levelo://app?vid=c51154b5-1034-4fc0-8fac-d1d2e91dba39"},"vehicle_type_id":"4","last_reported":1734217701,"current_range_meters":8800,"station_id":"cpo3342slgdg3j2ifvpg","pricing_plan_id":"cebpf4jnsgd1na2vs0mg"},{"bike_id":"5cca0271-574f-47ce-96cc-d2585a5b5673","system_id":"levelo_inurba_marseille","lat":43.29417,"lon":5.38627,"is_reserved":false,"is_disabled":false,"rental_uris":{"android":"levelo://app?vid=5cca0271-574f-47ce-96cc-d2585a5b5673","ios":"levelo://app?vid=5cca0271-574f-47ce-96cc-d2585a5b5673"},"vehicle_type_id":"4","last_reported":1734217701,"current_range_meters":18800,"station_id":"ce4bh2h2rcd13ifvqdh0","pricing_plan_id":"cebpf4jnsgd1na2vs0mg"},{"bike_id":"d361eec5-1d66-4054-83a1-879726484406","system_id":"levelo_inurba_marseille","lat":43.31308,"lon":5.3971,"is_reserved":false,"is_disabled":false,"rental_uris":{"android":"levelo://app?vid=d361eec5-1d66-4054-83a1-879726484406","ios":"levelo://app?vid=d361eec5-1d66-4054-83a1-879726484406"},"vehicle_type_id":"4","last_reported":1734217701,"current_range_meters":36400,"station_id":"ce4bgvp2rcd13ifvqcu0","pricing_plan_id":"cebpf4jnsgd1na2vs0mg"},{"bike_id":"b072affc-306c-4825-8b43-0a2cd7f84860","system_id":"levelo_inurba_marseille","lat":43.32371,"lon":5.38882,"is_reserved":false,"is_disabled":false,"rental_uris":{"android":"levelo://app?vid=b072affc-306c-4825-8b43-0a2cd7f84860","ios":"levelo://app?vid=b072affc-306c-4825-8b43-0a2cd7f84860"},"vehicle_type_id":"4","last_reported":1734217701,"current_range_meters":9200,"station_id":"ce4bhqp2rcd13ifvqhog","pricing_plan_id":"cebpf4jnsgd1na2vs0mg"},{"bike_id":"266f7fca-62d8-462d-83ba-67663ab9bbef","system_id":"levelo_inurba_marseille","lat":43.25158,"lon":5.40303,"is_reserved":false,"is_disabled":false,"rental_uris":{"android":"levelo://app?vid=266f7fca-62d8-462d-83ba-67663ab9bbef","ios":"levelo://app?vid=266f7fca-62d8-462d-83ba-67663ab9bbef"},"vehicle_type_id":"4","last_reported":1734217701,"current_range_meters":38000,"station_id":"","pricing_plan_id":"cebpf4jnsgd1na2vs0mg"},{"bike_id":"2add9805-6fe1-496b-95ec-c3450a7c4a57","system_id":"levelo_inurba_marseille","lat":43.30052,"lon":5.37406,"is_reserved":false,"is_disabled":true,"rental_uris":{"android":"levelo://app?vid=2add9805-6fe1-496b-95ec-c3450a7c4a57","ios":"levelo://app?vid=2add9805-6fe1-496b-95ec-c3450a7c4a57"},"vehicle_type_id":"4","last_reported":1734217701,"current_range_meters":0,"station_id":"","pricing_plan_id":"cebpf4jnsgd1na2vs0mg"},{"bike_id":"e6daa3b0-d355-4eb9-8e91-304a7094997b","system_id":"levelo_inurba_marseille","lat":43.2989,"lon":5.4367,"is_reserved":false,"is_disabled":false,"rental_uris":{"android":"levelo://app?vid=e6daa3b0-d355-4eb9-8e91-304a7094997b","ios":"levelo://app?vid=e6daa3b0-d355-4eb9-8e91-304a7094997b"},"vehicle_type_id":"4","last_reported":1734217701,"current_range_meters":18000,"station_id":"ce4bhpp2rcd13ifvqhfg","pricing_plan_id":"cebpf4jnsgd1na2vs0mg"},{"bike_id":"104ceb5b-ffeb-462d-afa4-5c623377a4ce","system_id":"levelo_inurba_marseille","lat":43.25818,"lon":5.39428,"is_reserved":false,"is_disabled":false,"rental_uris":{"android":"levelo://app?vid=104ceb5b-ffeb-462d-afa4-5c623377a4ce","ios":"levelo://app?vid=104ceb5b-ffeb-462d-afa4-5c623377a4ce"},"vehicle_type_id":"4","last_reported":1734217701,"current_range_meters":17600,"station_id":"ce4bhip2rcd13ifvqft0","pricing_plan_id":"cebpf4jnsgd1na2vs0mg"},{"bike_id":"fabc0430-593f-48af-8609-5df6565dc6c4","system_id":"levelo_inurba_marseille","lat":43.25115,"lon":5.40318,"is_reserved":false,"is_disabled":false,"rental_uris":{"android":"levelo://app?vid=fabc0430-593f-48af-8609-5df6565dc6c4","ios":"levelo://app?vid=fabc0430-593f-48af-8609-5df6565dc6c4"},"vehicle_type_id":"4","last_reported":1734217701,"current_range_meters":7200,"station_id":"ce4bhlh2rcd13ifvqgig","pricing_plan_id":"cebpf4jnsgd1na2vs0mg"},{"bike_id":"e739486a-a11b-424b-994c-a3eb8bd887d7","system_id":"levelo_inurba_marseille","lat":43.27812,"lon":5.40707,"is_reserved":false,"is_disabled":false,"rental_uris":{"android":"levelo://app?vid=e739486a-a11b-424b-994c-a3eb8bd887d7","ios":"levelo://app?vid=e739486a-a11b-424b-994c-a3eb8bd887d7"},"vehicle_type_id":"4","last_reported":1734217701,"current_range_meters":28400,"station_id":"ce4bhnh2rcd13ifvqgtg","pricing_plan_id":"cebpf4jnsgd1na2vs0mg"},{"bike_id":"25f12e79-018c-41bd-91c5-2920abe4de33","system_id":"levelo_inurba_marseille","lat":43.28672,"lon":5.38662,"is_reserved":false,"is_disabled":false,"rental_uris":{"android":"levelo://app?vid=25f12e79-018c-41bd-91c5-2920abe4de33","ios":"levelo://app?vid=25f12e79-018c-41bd-91c5-2920abe4de33"},"vehicle_type_id":"4","last_reported":1734217701,"current_range_meters":38800,"station_id":"ce4bh492rcd13ifvqdug","pricing_plan_id":"cebpf4jnsgd1na2vs0mg"},{"bike_id":"21591caf-5015-404e-b449-b0dbc024d5d7","system_id":"levelo_inurba_marseille","lat":43.31122,"lon":5.3776,"is_reserved":false,"is_disabled":false,"rental_uris":{"android":"levelo://app?vid=21591caf-5015-404e-b449-b0dbc024d5d7","ios":"levelo://app?vid=21591caf-5015-404e-b449-b0dbc024d5d7"},"vehicle_type_id":"4","last_reported":1734217701,"current_range_meters":32000,"station_id":"ce4bgt92rcd13ifvqcg0","pricing_plan_id":"cebpf4jnsgd1na2vs0mg"},{"bike_id":"47f19aef-b2fd-4399-87eb-c59939d56e58","system_id":"levelo_inurba_marseille","lat":43.24404,"lon":5.37045,"is_reserved":false,"is_disabled":false,"rental_uris":{"android":"levelo://app?vid=47f19aef-b2fd-4399-87eb-c59939d56e58","ios":"levelo://app?vid=47f19aef-b2fd-4399-87eb-c59939d56e58"},"vehicle_type_id":"4","last_reported":1734217701,"current_range_meters":38000,"station_id":"ce4bhhh2rcd13ifvqfk0","pricing_plan_id":"cebpf4jnsgd1na2vs0mg"},{"bike_id":"72bdc4f6-9d1d-42c9-ac9e-f6bf19c7da8a","system_id":"levelo_inurba_marseille","lat":43.24052,"lon":5.37728,"is_reserved":false,"is_disabled":false,"rental_uris":{"android":"levelo://app?vid=72bdc4f6-9d1d-42c9-ac9e-f6bf19c7da8a","ios":"levelo://app?vid=72bdc4f6-9d1d-42c9-ac9e-f6bf19c7da8a"},"vehicle_type_id":"4","last_reported":1734217701,"current_range_meters":38800,"station_id":"ce4bhnp2rcd13ifvqgvg","pricing_plan_id":"cebpf4jnsgd1na2vs0mg"},{"bike_id":"56266a76-ba72-4e71-8e56-13aed47b955b","system_id":"levelo_inurba_marseille","lat":43.2466,"lon":5.38163,"is_reserved":false,"is_disabled":false,"rental_uris":{"android":"levelo://app?vid=56266a76-ba72-4e71-8e56-13aed47b955b","ios":"levelo://app?vid=56266a76-ba72-4e71-8e56-13aed47b955b"},"vehicle_type_id":"4","last_reported":1734217701,"current_range_meters":16000,"station_id":"ce4bhih2rcd13ifvqfr0","pricing_plan_id":"cebpf4jnsgd1na2vs0mg"},{"bike_id":"c200ae5a-1bfc-41c1-b6e0-48b629950315","system_id":"levelo_inurba_marseille","lat":43.255,"lon":5.37645,"is_reserved":false,"is_disabled":false,"rental_uris":{"android":"levelo://app?vid=c200ae5a-1bfc-41c1-b6e0-48b629950315","ios":"levelo://app?vid=c200ae5a-1bfc-41c1-b6e0-48b629950315"},"vehicle_type_id":"4","last_reported":1734217701,"current_range_meters":39200,"station_id":"ce4bhh12rcd13ifvqff0","pricing_plan_id":"cebpf4jnsgd1na2vs0mg"},{"bike_id":"af5005fc-d058-4152-a2f0-a599ec2fe143","system_id":"levelo_inurba_marseille","lat":43.322924,"lon":5.382744,"is_reserved":false,"is_disabled":false,"rental_uris":{"android":"levelo://app?vid=af5005fc-d058-4152-a2f0-a599ec2fe143","ios":"levelo://app?vid=af5005fc-d058-4152-a2f0-a599ec2fe143"},"vehicle_type_id":"4","last_reported":1734217701,"current_range_meters":38800,"station_id":"ce4bhr12rcd13ifvqhqg","pricing_plan_id":"cebpf4jnsgd1na2vs0mg"},{"bike_id":"3650d84c-d2fd-4728-abeb-b9accdfa7210","system_id":"levelo_inurba_marseille","lat":43.30239,"lon":5.40073,"is_reserved":false,"is_disabled":true,"rental_uris":{"android":"levelo://app?vid=3650d84c-d2fd-4728-abeb-b9accdfa7210","ios":"levelo://app?vid=3650d84c-d2fd-4728-abeb-b9accdfa7210"},"vehicle_type_id":"4","last_reported":1734217701,"current_range_meters":25200,"station_id":"ce4bgvh2rcd13ifvqcs0","pricing_plan_id":"cebpf4jnsgd1na2vs0mg"},{"bike_id":"b76bfadb-6288-4939-8ca7-fc00e8227f70","system_id":"levelo_inurba_marseille","lat":43.31076,"lon":5.38342,"is_reserved":false,"is_disabled":true,"rental_uris":{"android":"levelo://app?vid=b76bfadb-6288-4939-8ca7-fc00e8227f70","ios":"levelo://app?vid=b76bfadb-6288-4939-8ca7-fc00e8227f70"},"vehicle_type_id":"4","last_reported":1734217701,"current_range_meters":0,"station_id":"ce4bgv92rcd13ifvqcr0","pricing_plan_id":"cebpf4jnsgd1na2vs0mg"},{"bike_id":"176b5502-2cee-40d6-9199-9d999fe4c0b6","system_id":"levelo_inurba_marseille","lat":43.31174,"lon":5.38719,"is_reserved":false,"is_disabled":false,"rental_uris":{"android":"levelo://app?vid=176b5502-2cee-40d6-9199-9d999fe4c0b6","ios":"levelo://app?vid=176b5502-2cee-40d6-9199-9d999fe4c0b6"},"vehicle_type_id":"4","last_reported":1734217701,"current_range_meters":4400,"station_id":"ce4bgv12rcd13ifvqcp0","pricing_plan_id":"cebpf4jnsgd1na2vs0mg"},{"bike_id":"be3cc1f6-59b3-48d9-8415-8e7c09047a60","system_id":"levelo_inurba_marseille","lat":43.25118,"lon":5.4031,"is_reserved":false,"is_disabled":false,"rental_uris":{"android":"levelo://app?vid=be3cc1f6-59b3-48d9-8415-8e7c09047a60","ios":"levelo://app?vid=be3cc1f6-59b3-48d9-8415-8e7c09047a60"},"vehicle_type_id":"4","last_reported":1734217701,"current_range_meters":38800,"station_id":"ce4bhlh2rcd13ifvqgig","pricing_plan_id":"cebpf4jnsgd1na2vs0mg"},{"bike_id":"015807c2-d8ed-4edf-9107-26002822eefa","system_id":"levelo_inurba_marseille","lat":43.30544,"lon":5.384205,"is_reserved":false,"is_disabled":false,"rental_uris":{"android":"levelo://app?vid=015807c2-d8ed-4edf-9107-26002822eefa","ios":"levelo://app?vid=015807c2-d8ed-4edf-9107-26002822eefa"},"vehicle_type_id":"4","last_reported":1734217701,"current_range_meters":18800,"station_id":"ce4bgg92rcd13ifvqb30","pricing_plan_id":"cebpf4jnsgd1na2vs0mg"},{"bike_id":"b2313dc6-ce87-4506-95f2-ae16210a1d62","system_id":"levelo_inurba_marseille","lat":43.29051,"lon":5.35928,"is_reserved":false,"is_disabled":false,"rental_uris":{"android":"levelo://app?vid=b2313dc6-ce87-4506-95f2-ae16210a1d62","ios":"levelo://app?vid=b2313dc6-ce87-4506-95f2-ae16210a1d62"},"vehicle_type_id":"4","last_reported":1734217701,"current_range_meters":22400,"station_id":"ce4bha92rcd13ifvqeg0","pricing_plan_id":"cebpf4jnsgd1na2vs0mg"},{"bike_id":"425f721e-4481-4245-9dd4-65f65f07aa6c","system_id":"levelo_inurba_marseille","lat":43.28461,"lon":5.35888,"is_reserved":false,"is_disabled":false,"rental_uris":{"android":"levelo://app?vid=425f721e-4481-4245-9dd4-65f65f07aa6c","ios":"levelo://app?vid=425f721e-4481-4245-9dd4-65f65f07aa6c"},"vehicle_type_id":"4","last_reported":1734217701,"current_range_meters":28000,"station_id":"ce4bhah2rcd13ifvqei0","pricing_plan_id":"cebpf4jnsgd1na2vs0mg"},{"bike_id":"fe15cdca-eba9-4058-b6ff-a9ea16c9049c","system_id":"levelo_inurba_marseille","lat":43.2964,"lon":5.40618,"is_reserved":false,"is_disabled":false,"rental_uris":{"android":"levelo://app?vid=fe15cdca-eba9-4058-b6ff-a9ea16c9049c","ios":"levelo://app?vid=fe15cdca-eba9-4058-b6ff-a9ea16c9049c"},"vehicle_type_id":"4","last_reported":1734217701,"current_range_meters":37600,"station_id":"ce4bh0h2rcd13ifvqd60","pricing_plan_id":"cebpf4jnsgd1na2vs0mg"},{"bike_id":"27e3e284-342c-40a8-901e-bae9ad28ff08","system_id":"levelo_inurba_marseille","lat":43.34154,"lon":5.40902,"is_reserved":false,"is_disabled":false,"rental_uris":{"android":"levelo://app?vid=27e3e284-342c-40a8-901e-bae9ad28ff08","ios":"levelo://app?vid=27e3e284-342c-40a8-901e-bae9ad28ff08"},"vehicle_type_id":"4","last_reported":1734217701,"current_range_meters":33600,"station_id":"ce4bhqh2rcd13ifvqhlg","pricing_plan_id":"cebpf4jnsgd1na2vs0mg"},{"bike_id":"6cb5f94f-eade-4b7c-b995-84c805be74f9","system_id":"levelo_inurba_marseille","lat":43.33779,"lon":5.37414,"is_reserved":false,"is_disabled":false,"rental_uris":{"android":"levelo://app?vid=6cb5f94f-eade-4b7c-b995-84c805be74f9","ios":"levelo://app?vid=6cb5f94f-eade-4b7c-b995-84c805be74f9"},"vehicle_type_id":"4","last_reported":1734217701,"current_range_meters":37600,"station_id":"","pricing_plan_id":"cebpf4jnsgd1na2vs0mg"},{"bike_id":"58071d0b-1ca9-417a-a438-41b7fa75a0ec","system_id":"levelo_inurba_marseille","lat":43.29201,"lon":5.39307,"is_reserved":false,"is_disabled":true,"rental_uris":{"android":"levelo://app?vid=58071d0b-1ca9-417a-a438-41b7fa75a0ec","ios":"levelo://app?vid=58071d0b-1ca9-417a-a438-41b7fa75a0ec"},"vehicle_type_id":"4","last_reported":1734217701,"current_range_meters":2800,"station_id":"ce4bh192rcd13ifvqdd0","pricing_plan_id":"cebpf4jnsgd1na2vs0mg"},{"bike_id":"dfd7df50-b96e-4d10-81c7-84ad94dd9a10","system_id":"levelo_inurba_marseille","lat":43.31757,"lon":5.39019,"is_reserved":false,"is_disabled":false,"rental_uris":{"android":"levelo://app?vid=dfd7df50-b96e-4d10-81c7-84ad94dd9a10","ios":"levelo://app?vid=dfd7df50-b96e-4d10-81c7-84ad94dd9a10"},"vehicle_type_id":"4","last_reported":1734217701,"current_range_meters":38800,"station_id":"ce4bhqp2rcd13ifvqhng","pricing_plan_id":"cebpf4jnsgd1na2vs0mg"},{"bike_id":"c39ee407-5e3f-4207-a22c-6f4f5a3c264f","system_id":"levelo_inurba_marseille","lat":43.2847,"lon":5.38415,"is_reserved":false,"is_disabled":false,"rental_uris":{"android":"levelo://app?vid=c39ee407-5e3f-4207-a22c-6f4f5a3c264f","ios":"levelo://app?vid=c39ee407-5e3f-4207-a22c-6f4f5a3c264f"},"vehicle_type_id":"4","last_reported":1734217701,"current_range_meters":38800,"station_id":"ce4bh512rcd13ifvqe3g","pricing_plan_id":"cebpf4jnsgd1na2vs0mg"},{"bike_id":"5698604e-aaa5-42b6-9f56-06778c2d2e5a","system_id":"levelo_inurba_marseille","lat":43.25111,"lon":5.40323,"is_reserved":false,"is_disabled":false,"rental_uris":{"android":"levelo://app?vid=5698604e-aaa5-42b6-9f56-06778c2d2e5a","ios":"levelo://app?vid=5698604e-aaa5-42b6-9f56-06778c2d2e5a"},"vehicle_type_id":"4","last_reported":1734217701,"current_range_meters":38800,"station_id":"ce4bhlh2rcd13ifvqgig","pricing_plan_id":"cebpf4jnsgd1na2vs0mg"},{"bike_id":"0a646241-c519-49e3-958d-6acd5fe9c130","system_id":"levelo_inurba_marseille","lat":43.3302,"lon":5.39041,"is_reserved":false,"is_disabled":false,"rental_uris":{"android":"levelo://app?vid=0a646241-c519-49e3-958d-6acd5fe9c130","ios":"levelo://app?vid=0a646241-c519-49e3-958d-6acd5fe9c130"},"vehicle_type_id":"4","last_reported":1734217701,"current_range_meters":38800,"station_id":"ce4bhr92rcd13ifvqhrg","pricing_plan_id":"cebpf4jnsgd1na2vs0mg"},{"bike_id":"cfdfd01c-b2c2-41e6-9b96-7c8b8a24df63","system_id":"levelo_inurba_marseille","lat":43.28007,"lon":5.44289,"is_reserved":false,"is_disabled":false,"rental_uris":{"android":"levelo://app?vid=cfdfd01c-b2c2-41e6-9b96-7c8b8a24df63","ios":"levelo://app?vid=cfdfd01c-b2c2-41e6-9b96-7c8b8a24df63"},"vehicle_type_id":"4","last_reported":1734217701,"current_range_meters":21600,"station_id":"","pricing_plan_id":"cebpf4jnsgd1na2vs0mg"},{"bike_id":"62be7227-74b7-4792-b3e9-793f45ae0003","system_id":"levelo_inurba_marseille","lat":43.24544,"lon":5.39524,"is_reserved":false,"is_disabled":false,"rental_uris":{"android":"levelo://app?vid=62be7227-74b7-4792-b3e9-793f45ae0003","ios":"levelo://app?vid=62be7227-74b7-4792-b3e9-793f45ae0003"},"vehicle_type_id":"4","last_reported":1734217701,"current_range_meters":32400,"station_id":"ce4bhlp2rcd13ifvqgjg","pricing_plan_id":"cebpf4jnsgd1na2vs0mg"},{"bike_id":"47d51823-b4b3-45b6-9ade-fc0f4eab7fa6","system_id":"levelo_inurba_marseille","lat":43.289442,"lon":5.363913,"is_reserved":false,"is_disabled":false,"rental_uris":{"android":"levelo://app?vid=47d51823-b4b3-45b6-9ade-fc0f4eab7fa6","ios":"levelo://app?vid=47d51823-b4b3-45b6-9ade-fc0f4eab7fa6"},"vehicle_type_id":"4","last_reported":1734217701,"current_range_meters":10000,"station_id":"ce4bhc92rcd13ifvqetg","pricing_plan_id":"cebpf4jnsgd1na2vs0mg"},{"bike_id":"ca59d865-1951-4846-a717-a349b9e50e7c","system_id":"levelo_inurba_marseille","lat":43.27624,"lon":5.36103,"is_reserved":false,"is_disabled":true,"rental_uris":{"android":"levelo://app?vid=ca59d865-1951-4846-a717-a349b9e50e7c","ios":"levelo://app?vid=ca59d865-1951-4846-a717-a349b9e50e7c"},"vehicle_type_id":"4","last_reported":1734217701,"current_range_meters":34800,"station_id":"ce4bgj92rcd13ifvqbe0","pricing_plan_id":"cebpf4jnsgd1na2vs0mg"},{"bike_id":"a75b0b59-df42-4a6e-966c-49b99f720a95","system_id":"levelo_inurba_marseille","lat":43.23971,"lon":5.36632,"is_reserved":false,"is_disabled":false,"rental_uris":{"android":"levelo://app?vid=a75b0b59-df42-4a6e-966c-49b99f720a95","ios":"levelo://app?vid=a75b0b59-df42-4a6e-966c-49b99f720a95"},"vehicle_type_id":"4","last_reported":1734217701,"current_range_meters":8400,"station_id":"ce4bhi12rcd13ifvqfp0","pricing_plan_id":"cebpf4jnsgd1na2vs0mg"},{"bike_id":"395f00bb-96c1-495a-b9a7-15c0cfab0a08","system_id":"levelo_inurba_marseille","lat":43.30329,"lon":5.40432,"is_reserved":false,"is_disabled":false,"rental_uris":{"android":"levelo://app?vid=395f00bb-96c1-495a-b9a7-15c0cfab0a08","ios":"levelo://app?vid=395f00bb-96c1-495a-b9a7-15c0cfab0a08"},"vehicle_type_id":"4","last_reported":1734217701,"current_range_meters":21600,"station_id":"ce4bh012rcd13ifvqd10","pricing_plan_id":"cebpf4jnsgd1na2vs0mg"},{"bike_id":"283ec910-2b59-4ffd-bbff-9867d116f826","system_id":"levelo_inurba_marseille","lat":43.337444,"lon":5.374475,"is_reserved":false,"is_disabled":true,"rental_uris":{"android":"levelo://app?vid=283ec910-2b59-4ffd-bbff-9867d116f826","ios":"levelo://app?vid=283ec910-2b59-4ffd-bbff-9867d116f826"},"vehicle_type_id":"4","last_reported":1734217701,"current_range_meters":0,"station_id":"","pricing_plan_id":"cebpf4jnsgd1na2vs0mg"},{"bike_id":"44bb1ee1-6608-426b-ad9e-5efdc1a7eac0","system_id":"levelo_inurba_marseille","lat":43.33789,"lon":5.37482,"is_reserved":false,"is_disabled":false,"rental_uris":{"android":"levelo://app?vid=44bb1ee1-6608-426b-ad9e-5efdc1a7eac0","ios":"levelo://app?vid=44bb1ee1-6608-426b-ad9e-5efdc1a7eac0"},"vehicle_type_id":"4","last_reported":1734217701,"current_range_meters":23200,"station_id":"","pricing_plan_id":"cebpf4jnsgd1na2vs0mg"},{"bike_id":"e78f402b-9c1a-444b-98c7-75df8c5e7136","system_id":"levelo_inurba_marseille","lat":43.30914,"lon":5.36846,"is_reserved":false,"is_disabled":false,"rental_uris":{"android":"levelo://app?vid=e78f402b-9c1a-444b-98c7-75df8c5e7136","ios":"levelo://app?vid=e78f402b-9c1a-444b-98c7-75df8c5e7136"},"vehicle_type_id":"4","last_reported":1734217701,"current_range_meters":38800,"station_id":"ce4bgn92rcd13ifvqbvg","pricing_plan_id":"cebpf4jnsgd1na2vs0mg"},{"bike_id":"fb7e1849-9459-4869-a89e-9b7992e645fc","system_id":"levelo_inurba_marseille","lat":43.30886,"lon":5.39637,"is_reserved":false,"is_disabled":false,"rental_uris":{"android":"levelo://app?vid=fb7e1849-9459-4869-a89e-9b7992e645fc","ios":"levelo://app?vid=fb7e1849-9459-4869-a89e-9b7992e645fc"},"vehicle_type_id":"4","last_reported":1734217701,"current_range_meters":38800,"station_id":"ce4bh012rcd13ifvqcv0","pricing_plan_id":"cebpf4jnsgd1na2vs0mg"},{"bike_id":"bbffd889-750b-4762-ae94-78458d50ea91","system_id":"levelo_inurba_marseille","lat":43.33728,"lon":5.39188,"is_reserved":false,"is_disabled":false,"rental_uris":{"android":"levelo://app?vid=bbffd889-750b-4762-ae94-78458d50ea91","ios":"levelo://app?vid=bbffd889-750b-4762-ae94-78458d50ea91"},"vehicle_type_id":"4","last_reported":1734217701,"current_range_meters":38800,"station_id":"ce4bhr92rcd13ifvqhsg","pricing_plan_id":"cebpf4jnsgd1na2vs0mg"},{"bike_id":"deb6eddb-fa5f-42e0-a3a4-a53bb91ef7c2","system_id":"levelo_inurba_marseille","lat":43.29881,"lon":5.39734,"is_reserved":false,"is_disabled":false,"rental_uris":{"android":"levelo://app?vid=deb6eddb-fa5f-42e0-a3a4-a53bb91ef7c2","ios":"levelo://app?vid=deb6eddb-fa5f-42e0-a3a4-a53bb91ef7c2"},"vehicle_type_id":"4","last_reported":1734217701,"current_range_meters":30400,"station_id":"ce4bh0h2rcd13ifvqd50","pricing_plan_id":"cebpf4jnsgd1na2vs0mg"},{"bike_id":"6af93c5c-2369-4249-9874-540f27f0edd3","system_id":"levelo_inurba_marseille","lat":43.33721,"lon":5.39177,"is_reserved":false,"is_disabled":false,"rental_uris":{"android":"levelo://app?vid=6af93c5c-2369-4249-9874-540f27f0edd3","ios":"levelo://app?vid=6af93c5c-2369-4249-9874-540f27f0edd3"},"vehicle_type_id":"4","last_reported":1734217701,"current_range_meters":11200,"station_id":"ce4bhr92rcd13ifvqhsg","pricing_plan_id":"cebpf4jnsgd1na2vs0mg"},{"bike_id":"aae088da-2eae-4c85-885f-eb90c01aef74","system_id":"levelo_inurba_marseille","lat":43.30116,"lon":5.38766,"is_reserved":false,"is_disabled":false,"rental_uris":{"android":"levelo://app?vid=aae088da-2eae-4c85-885f-eb90c01aef74","ios":"levelo://app?vid=aae088da-2eae-4c85-885f-eb90c01aef74"},"vehicle_type_id":"4","last_reported":1734217701,"current_range_meters":30400,"station_id":"ce4bghh2rcd13ifvqb60","pricing_plan_id":"cebpf4jnsgd1na2vs0mg"},{"bike_id":"7a6fbafa-c405-41ec-babd-da89473cb281","system_id":"levelo_inurba_marseille","lat":43.27491,"lon":5.4244,"is_reserved":false,"is_disabled":false,"rental_uris":{"android":"levelo://app?vid=7a6fbafa-c405-41ec-babd-da89473cb281","ios":"levelo://app?vid=7a6fbafa-c405-41ec-babd-da89473cb281"},"vehicle_type_id":"4","last_reported":1734217701,"current_range_meters":32400,"station_id":"ce4bhn92rcd13ifvqgrg","pricing_plan_id":"cebpf4jnsgd1na2vs0mg"},{"bike_id":"6e6a004b-462d-4b03-aeaa-2611256f0d89","system_id":"levelo_inurba_marseille","lat":43.28123,"lon":5.38934,"is_reserved":false,"is_disabled":true,"rental_uris":{"android":"levelo://app?vid=6e6a004b-462d-4b03-aeaa-2611256f0d89","ios":"levelo://app?vid=6e6a004b-462d-4b03-aeaa-2611256f0d89"},"vehicle_type_id":"4","last_reported":1734217701,"current_range_meters":0,"station_id":"","pricing_plan_id":"cebpf4jnsgd1na2vs0mg"},{"bike_id":"8353d0bf-38a8-4f42-b58d-25e98c305bb2","system_id":"levelo_inurba_marseille","lat":43.29279,"lon":5.40117,"is_reserved":false,"is_disabled":false,"rental_uris":{"android":"levelo://app?vid=8353d0bf-38a8-4f42-b58d-25e98c305bb2","ios":"levelo://app?vid=8353d0bf-38a8-4f42-b58d-25e98c305bb2"},"vehicle_type_id":"4","last_reported":1734217701,"current_range_meters":37600,"station_id":"ce4bh312rcd13ifvqdk0","pricing_plan_id":"cebpf4jnsgd1na2vs0mg"},{"bike_id":"3cc2fb91-5b74-4845-b3a1-e1c9812d789a","system_id":"levelo_inurba_marseille","lat":43.278334,"lon":5.392006,"is_reserved":false,"is_disabled":false,"rental_uris":{"android":"levelo://app?vid=3cc2fb91-5b74-4845-b3a1-e1c9812d789a","ios":"levelo://app?vid=3cc2fb91-5b74-4845-b3a1-e1c9812d789a"},"vehicle_type_id":"4","last_reported":1734217701,"current_range_meters":12400,"station_id":"ce4bhi12rcd13ifvqfo0","pricing_plan_id":"cebpf4jnsgd1na2vs0mg"},{"bike_id":"a42f5994-229b-4ba6-b3f2-7045ec6149a1","system_id":"levelo_inurba_marseille","lat":43.24647,"lon":5.38901,"is_reserved":false,"is_disabled":false,"rental_uris":{"android":"levelo://app?vid=a42f5994-229b-4ba6-b3f2-7045ec6149a1","ios":"levelo://app?vid=a42f5994-229b-4ba6-b3f2-7045ec6149a1"},"vehicle_type_id":"4","last_reported":1734217701,"current_range_meters":11200,"station_id":"ce4bhg12rcd13ifvqf60","pricing_plan_id":"cebpf4jnsgd1na2vs0mg"},{"bike_id":"b6604a83-0149-48df-b9e4-986fd078aebd","system_id":"levelo_inurba_marseille","lat":43.28698,"lon":5.3739,"is_reserved":false,"is_disabled":false,"rental_uris":{"android":"levelo://app?vid=b6604a83-0149-48df-b9e4-986fd078aebd","ios":"levelo://app?vid=b6604a83-0149-48df-b9e4-986fd078aebd"},"vehicle_type_id":"4","last_reported":1734217701,"current_range_meters":36400,"station_id":"ce4bh3p2rcd13ifvqdq0","pricing_plan_id":"cebpf4jnsgd1na2vs0mg"},{"bike_id":"fa8fabdf-8787-4822-beb1-82eb2b713949","system_id":"levelo_inurba_marseille","lat":43.30794,"lon":5.38158,"is_reserved":false,"is_disabled":false,"rental_uris":{"android":"levelo://app?vid=fa8fabdf-8787-4822-beb1-82eb2b713949","ios":"levelo://app?vid=fa8fabdf-8787-4822-beb1-82eb2b713949"},"vehicle_type_id":"4","last_reported":1734217701,"current_range_meters":32000,"station_id":"ce4bgt12rcd13ifvqce0","pricing_plan_id":"cebpf4jnsgd1na2vs0mg"},{"bike_id":"ed9a6af3-2f16-46f1-8fc7-fd7a4a8d26f4","system_id":"levelo_inurba_marseille","lat":43.27377,"lon":5.36254,"is_reserved":false,"is_disabled":false,"rental_uris":{"android":"levelo://app?vid=ed9a6af3-2f16-46f1-8fc7-fd7a4a8d26f4","ios":"levelo://app?vid=ed9a6af3-2f16-46f1-8fc7-fd7a4a8d26f4"},"vehicle_type_id":"4","last_reported":1734217701,"current_range_meters":38800,"station_id":"ce4bhbh2rcd13ifvqeo0","pricing_plan_id":"cebpf4jnsgd1na2vs0mg"},{"bike_id":"6cb6228e-a9de-4dac-9537-cd8e1a150de2","system_id":"levelo_inurba_marseille","lat":43.32457,"lon":5.3656,"is_reserved":false,"is_disabled":false,"rental_uris":{"android":"levelo://app?vid=6cb6228e-a9de-4dac-9537-cd8e1a150de2","ios":"levelo://app?vid=6cb6228e-a9de-4dac-9537-cd8e1a150de2"},"vehicle_type_id":"4","last_reported":1734217701,"current_range_meters":22800,"station_id":"ce4bhs12rcd13ifvqhvg","pricing_plan_id":"cebpf4jnsgd1na2vs0mg"},{"bike_id":"2486d544-0292-4cbc-abc8-324d72621448","system_id":"levelo_inurba_marseille","lat":43.31507,"lon":5.37293,"is_reserved":false,"is_disabled":false,"rental_uris":{"android":"levelo://app?vid=2486d544-0292-4cbc-abc8-324d72621448","ios":"levelo://app?vid=2486d544-0292-4cbc-abc8-324d72621448"},"vehicle_type_id":"4","last_reported":1734217701,"current_range_meters":36400,"station_id":"ce4bgt12rcd13ifvqcd0","pricing_plan_id":"cebpf4jnsgd1na2vs0mg"},{"bike_id":"e67bad9c-3af3-4a96-b576-1960031a95e6","system_id":"levelo_inurba_marseille","lat":43.311184,"lon":5.377585,"is_reserved":false,"is_disabled":false,"rental_uris":{"android":"levelo://app?vid=e67bad9c-3af3-4a96-b576-1960031a95e6","ios":"levelo://app?vid=e67bad9c-3af3-4a96-b576-1960031a95e6"},"vehicle_type_id":"4","last_reported":1734217701,"current_range_meters":17200,"station_id":"ce4bgt92rcd13ifvqcg0","pricing_plan_id":"cebpf4jnsgd1na2vs0mg"},{"bike_id":"924c4a0a-e91e-43bb-9107-ce44f113c62e","system_id":"levelo_inurba_marseille","lat":43.27072,"lon":5.42282,"is_reserved":false,"is_disabled":false,"rental_uris":{"android":"levelo://app?vid=924c4a0a-e91e-43bb-9107-ce44f113c62e","ios":"levelo://app?vid=924c4a0a-e91e-43bb-9107-ce44f113c62e"},"vehicle_type_id":"4","last_reported":1734217701,"current_range_meters":28400,"station_id":"ce4bhk92rcd13ifvqgb0","pricing_plan_id":"cebpf4jnsgd1na2vs0mg"},{"bike_id":"e8aaa0b9-a913-404f-8e2c-26bf81f1a708","system_id":"levelo_inurba_marseille","lat":43.34142,"lon":5.40917,"is_reserved":false,"is_disabled":false,"rental_uris":{"android":"levelo://app?vid=e8aaa0b9-a913-404f-8e2c-26bf81f1a708","ios":"levelo://app?vid=e8aaa0b9-a913-404f-8e2c-26bf81f1a708"},"vehicle_type_id":"4","last_reported":1734217701,"current_range_meters":38400,"station_id":"ce4bhqh2rcd13ifvqhlg","pricing_plan_id":"cebpf4jnsgd1na2vs0mg"},{"bike_id":"353a1bc0-78da-4bca-86fd-d10c1bc2c510","system_id":"levelo_inurba_marseille","lat":43.29872,"lon":5.38901,"is_reserved":false,"is_disabled":false,"rental_uris":{"android":"levelo://app?vid=353a1bc0-78da-4bca-86fd-d10c1bc2c510","ios":"levelo://app?vid=353a1bc0-78da-4bca-86fd-d10c1bc2c510"},"vehicle_type_id":"4","last_reported":1734217701,"current_range_meters":31200,"station_id":"ce4bh392rcd13ifvqdl0","pricing_plan_id":"cebpf4jnsgd1na2vs0mg"},{"bike_id":"0957e723-c870-4f34-810a-e05226c802b8","system_id":"levelo_inurba_marseille","lat":43.29963,"lon":5.41317,"is_reserved":false,"is_disabled":false,"rental_uris":{"android":"levelo://app?vid=0957e723-c870-4f34-810a-e05226c802b8","ios":"levelo://app?vid=0957e723-c870-4f34-810a-e05226c802b8"},"vehicle_type_id":"4","last_reported":1734217701,"current_range_meters":30000,"station_id":"ce4bhp12rcd13ifvqh9g","pricing_plan_id":"cebpf4jnsgd1na2vs0mg"},{"bike_id":"299e54a2-4aa1-46ed-abd2-9ff34f25e086","system_id":"levelo_inurba_marseille","lat":43.30578,"lon":5.36579,"is_reserved":false,"is_disabled":false,"rental_uris":{"android":"levelo://app?vid=299e54a2-4aa1-46ed-abd2-9ff34f25e086","ios":"levelo://app?vid=299e54a2-4aa1-46ed-abd2-9ff34f25e086"},"vehicle_type_id":"4","last_reported":1734217701,"current_range_meters":16800,"station_id":"ce4bgs12rcd13ifvqcag","pricing_plan_id":"cebpf4jnsgd1na2vs0mg"},{"bike_id":"3599291f-7f07-46b8-9fec-0f3c5f3a7817","system_id":"levelo_inurba_marseille","lat":43.27994,"lon":5.40027,"is_reserved":false,"is_disabled":false,"rental_uris":{"android":"levelo://app?vid=3599291f-7f07-46b8-9fec-0f3c5f3a7817","ios":"levelo://app?vid=3599291f-7f07-46b8-9fec-0f3c5f3a7817"},"vehicle_type_id":"4","last_reported":1734217701,"current_range_meters":30000,"station_id":"ce4bho92rcd13ifvqh4g","pricing_plan_id":"cebpf4jnsgd1na2vs0mg"},{"bike_id":"07aaffff-6c5a-4390-a6e5-b91a437396ec","system_id":"levelo_inurba_marseille","lat":43.24163,"lon":5.36391,"is_reserved":false,"is_disabled":false,"rental_uris":{"android":"levelo://app?vid=07aaffff-6c5a-4390-a6e5-b91a437396ec","ios":"levelo://app?vid=07aaffff-6c5a-4390-a6e5-b91a437396ec"},"vehicle_type_id":"4","last_reported":1734217701,"current_range_meters":9200,"station_id":"cpo36qri1sfpv3e86is0","pricing_plan_id":"cebpf4jnsgd1na2vs0mg"},{"bike_id":"171f5513-5f2f-4ab3-8b50-ea5fa30dcecc","system_id":"levelo_inurba_marseille","lat":43.29062,"lon":5.37145,"is_reserved":false,"is_disabled":false,"rental_uris":{"android":"levelo://app?vid=171f5513-5f2f-4ab3-8b50-ea5fa30dcecc","ios":"levelo://app?vid=171f5513-5f2f-4ab3-8b50-ea5fa30dcecc"},"vehicle_type_id":"4","last_reported":1734217701,"current_range_meters":38400,"station_id":"ce4bh5p2rcd13ifvqe4g","pricing_plan_id":"cebpf4jnsgd1na2vs0mg"},{"bike_id":"a36172b4-1d88-4dee-82f7-dfb2da414d3a","system_id":"levelo_inurba_marseille","lat":43.25082,"lon":5.3952,"is_reserved":false,"is_disabled":false,"rental_uris":{"android":"levelo://app?vid=a36172b4-1d88-4dee-82f7-dfb2da414d3a","ios":"levelo://app?vid=a36172b4-1d88-4dee-82f7-dfb2da414d3a"},"vehicle_type_id":"4","last_reported":1734217701,"current_range_meters":14400,"station_id":"ce4bhm12rcd13ifvqgkg","pricing_plan_id":"cebpf4jnsgd1na2vs0mg"},{"bike_id":"b0154b6d-1b89-4bcc-8e33-61047a96762c","system_id":"levelo_inurba_marseille","lat":43.30094,"lon":5.39081,"is_reserved":false,"is_disabled":false,"rental_uris":{"android":"levelo://app?vid=b0154b6d-1b89-4bcc-8e33-61047a96762c","ios":"levelo://app?vid=b0154b6d-1b89-4bcc-8e33-61047a96762c"},