{"last_updated":1740906512,"ttl":60,"version":"2.2","data":{"bikes":[{"bike_id":"498c2ace-4821-4676-a9ac-9368b02a49b6","system_id":"levelo_inurba_marseille","lat":43.33799,"lon":5.37386,"is_reserved":false,"is_disabled":false,"rental_uris":{"android":"levelo://app?vid=498c2ace-4821-4676-a9ac-9368b02a49b6","ios":"levelo://app?vid=498c2ace-4821-4676-a9ac-9368b02a49b6"},"vehicle_type_id":"4","last_reported":1740906512,"current_range_meters":26000,"station_id":"","pricing_plan_id":"cebpf4jnsgd1na2vs0mg"},{"bike_id":"819fc6fd-4768-4c11-82f9-0b5fd0b62d4a","system_id":"levelo_inurba_marseille","lat":43.34247,"lon":5.37792,"is_reserved":false,"is_disabled":true,"rental_uris":{"android":"levelo://app?vid=819fc6fd-4768-4c11-82f9-0b5fd0b62d4a","ios":"levelo://app?vid=819fc6fd-4768-4c11-82f9-0b5fd0b62d4a"},"vehicle_type_id":"4","last_reported":1740906512,"current_range_meters":0,"station_id":"","pricing_plan_id":"cebpf4jnsgd1na2vs0mg"},{"bike_id":"d5458f89-73a3-43f1-9894-000389f52995","system_id":"levelo_inurba_marseille","lat":43.27586,"lon":5.41509,"is_reserved":false,"is_disabled":true,"rental_uris":{"android":"levelo://app?vid=d5458f89-73a3-43f1-9894-000389f52995","ios":"levelo://app?vid=d5458f89-73a3-43f1-9894-000389f52995"},"vehicle_type_id":"4","last_reported":1740906512,"current_range_meters":0,"station_id":"","pricing_plan_id":"cebpf4jnsgd1na2vs0mg"},{"bike_id":"ea6a02cb-3810-403c-ab47-423df20fff9f","system_id":"levelo_inurba_marseille","lat":43.27742,"lon":5.4152,"is_reserved":false,"is_disabled":true,"rental_uris":{"android":"levelo://app?vid=ea6a02cb-3810-403c-ab47-423df20fff9f","ios":"levelo://app?vid=ea6a02cb-3810-403c-ab47-423df20fff9f"},"vehicle_type_id":"4","last_reported":1740906512,"current_range_meters":0,"station_id":"","pricing_plan_id":"cebpf4jnsgd1na2vs0mg"},{"bike_id":"afcec8eb-28d8-4889-8879-0897cb5957e3","system_id":"levelo_inurba_marseille","lat":43.27964,"lon":5.40587,"is_reserved":false,"is_disabled":true,"rental_uris":{"android":"levelo://app?vid=afcec8eb-28d8-4889-8879-0897cb5957e3","ios":"levelo://app?vid=afcec8eb-28d8-4889-8879-0897cb5957e3"},"vehicle_type_id":"4","last_reported":1740906512,"current_range_meters":0,"station_id":"","pricing_plan_id":"cebpf4jnsgd1na2vs0mg"},{"bike_id":"88fab14f-5fb9-40fc-b994-02f93336a096","system_id":"levelo_inurba_marseille","lat":43.24401,"lon":5.37065,"is_reserved":false,"is_disabled":true,"rental_uris":{"android":"levelo://app?vid=88fab14f-5fb9-40fc-b994-02f93336a096","ios":"levelo://app?vid=88fab14f-5fb9-40fc-b994-02f93336a096"},"vehicle_type_id":"4","last_reported":1740906512,"current_range_meters":0,"station_id":"ce4bhhh2rcd13ifvqfk0","pricing_plan_id":"cebpf4jnsgd1na2vs0mg"},{"bike_id":"a376fec7-9a5c-425d-9c99-803eb416ad3c","system_id":"levelo_inurba_marseille","lat":43.2558,"lon":5.38228,"is_reserved":false,"is_disabled":true,"rental_uris":{"android":"levelo://app?vid=a376fec7-9a5c-425d-9c99-803eb416ad3c","ios":"levelo://app?vid=a376fec7-9a5c-425d-9c99-803eb416ad3c"},"vehicle_type_id":"4","last_reported":1740906512,"current_range_meters":0,"station_id":"ce4bhih2rcd13ifvqfs0","pricing_plan_id":"cebpf4jnsgd1na2vs0mg"},{"bike_id":"5436cbb2-8984-4ba2-b474-b72f609ae74e","system_id":"levelo_inurba_marseille","lat":43.24554,"lon":5.39539,"is_reserved":false,"is_disabled":true,"rental_uris":{"android":"levelo://app?vid=5436cbb2-8984-4ba2-b474-b72f609ae74e","ios":"levelo://app?vid=5436cbb2-8984-4ba2-b474-b72f609ae74e"},"vehicle_type_id":"4","last_reported":1740906512,"current_range_meters":0,"station_id":"ce4bhlp2rcd13ifvqgjg","pricing_plan_id":"cebpf4jnsgd1na2vs0mg"},{"bike_id":"70d8c7b3-610a-419e-b50d-afe9250d43ba","system_id":"levelo_inurba_marseille","lat":43.29558,"lon":5.42293,"is_reserved":false,"is_disabled":true,"rental_uris":{"android":"levelo://app?vid=70d8c7b3-610a-419e-b50d-afe9250d43ba","ios":"levelo://app?vid=70d8c7b3-610a-419e-b50d-afe9250d43ba"},"vehicle_type_id":"4","last_reported":1740906512,"current_range_meters":800,"station_id":"ce4bhph2rcd13ifvqhdg","pricing_plan_id":"cebpf4jnsgd1na2vs0mg"},{"bike_id":"303c2b96-5131-48b9-8dd0-e5a82865f4bc","system_id":"levelo_inurba_marseille","lat":43.35345,"lon":5.36523,"is_reserved":false,"is_disabled":true,"rental_uris":{"android":"levelo://app?vid=303c2b96-5131-48b9-8dd0-e5a82865f4bc","ios":"levelo://app?vid=303c2b96-5131-48b9-8dd0-e5a82865f4bc"},"vehicle_type_id":"4","last_reported":1740906512,"current_range_meters":1200,"station_id":"","pricing_plan_id":"cebpf4jnsgd1na2vs0mg"},{"bike_id":"b1e39aeb-3ed2-4034-959a-f2122aaef359","system_id":"levelo_inurba_marseille","lat":43.23232,"lon":5.39958,"is_reserved":false,"is_disabled":true,"rental_uris":{"android":"levelo://app?vid=b1e39aeb-3ed2-4034-959a-f2122aaef359","ios":"levelo://app?vid=b1e39aeb-3ed2-4034-959a-f2122aaef359"},"vehicle_type_id":"4","last_reported":1740906512,"current_range_meters":1600,"station_id":"","pricing_plan_id":"cebpf4jnsgd1na2vs0mg"},{"bike_id":"f6077c38-6680-42e0-916d-e88ab372d6d5","system_id":"levelo_inurba_marseille","lat":43.26062,"lon":5.375072,"is_reserved":false,"is_disabled":false,"rental_uris":{"android":"levelo://app?vid=f6077c38-6680-42e0-916d-e88ab372d6d5","ios":"levelo://app?vid=f6077c38-6680-42e0-916d-e88ab372d6d5"},"vehicle_type_id":"4","last_reported":1740906512,"current_range_meters":2000,"station_id":"ce4bh292rcd13ifvqdg0","pricing_plan_id":"cebpf4jnsgd1na2vs0mg"},{"bike_id":"f4bfc55f-67f4-4deb-8143-22cdba9acfb4","system_id":"levelo_inurba_marseille","lat":43.34732,"lon":5.38054,"is_reserved":false,"is_disabled":false,"rental_uris":{"android":"levelo://app?vid=f4bfc55f-67f4-4deb-8143-22cdba9acfb4","ios":"levelo://app?vid=f4bfc55f-67f4-4deb-8143-22cdba9acfb4"},"vehicle_type_id":"4","last_reported":1740906512,"current_range_meters":2800,"station_id":"","pricing_plan_id":"cebpf4jnsgd1na2vs0mg"},{"bike_id":"77270442-ac42-4ebe-9625-10b4c2f7e855","system_id":"levelo_inurba_marseille","lat":43.30422,"lon":5.41283,"is_reserved":false,"is_disabled":false,"rental_uris":{"android":"levelo://app?vid=77270442-ac42-4ebe-9625-10b4c2f7e855","ios":"levelo://app?vid=77270442-ac42-4ebe-9625-10b4c2f7e855"},"vehicle_type_id":"4","last_reported":1740906512,"current_range_meters":2800,"station_id":"ce4bhop2rcd13ifvqh8g","pricing_plan_id":"cebpf4jnsgd1na2vs0mg"},{"bike_id":"a65cb524-c756-42a0-9639-a6505770c05b","system_id":"levelo_inurba_marseille","lat":43.350646,"lon":5.36609,"is_reserved":false,"is_disabled":false,"rental_uris":{"android":"levelo://app?vid=a65cb524-c756-42a0-9639-a6505770c05b","ios":"levelo://app?vid=a65cb524-c756-42a0-9639-a6505770c05b"},"vehicle_type_id":"4","last_reported":1740906512,"current_range_meters":3200,"station_id":"","pricing_plan_id":"cebpf4jnsgd1na2vs0mg"},{"bike_id":"0d3dca6a-d590-4e72-a1ae-af700e6dffe8","system_id":"levelo_inurba_marseille","lat":43.30879,"lon":5.3966,"is_reserved":false,"is_disabled":false,"rental_uris":{"android":"levelo://app?vid=0d3dca6a-d590-4e72-a1ae-af700e6dffe8","ios":"levelo://app?vid=0d3dca6a-d590-4e72-a1ae-af700e6dffe8"},"vehicle_type_id":"4","last_reported":1740906512,"current_range_meters":3600,"station_id":"ce4bh012rcd13ifvqcv0","pricing_plan_id":"cebpf4jnsgd1na2vs0mg"},{"bike_id":"c40fc13e-1c97-4952-9af0-30ae574d48da","system_id":"levelo_inurba_marseille","lat":43.3089,"lon":5.39639,"is_reserved":false,"is_disabled":false,"rental_uris":{"android":"levelo://app?vid=c40fc13e-1c97-4952-9af0-30ae574d48da","ios":"levelo://app?vid=c40fc13e-1c97-4952-9af0-30ae574d48da"},"vehicle_type_id":"4","last_reported":1740906512,"current_range_meters":3600,"station_id":"ce4bh012rcd13ifvqcv0","pricing_plan_id":"cebpf4jnsgd1na2vs0mg"},{"bike_id":"89fb1ae9-3cfa-4523-b435-403d5912d4ea","system_id":"levelo_inurba_marseille","lat":43.27499,"lon":5.42454,"is_reserved":false,"is_disabled":false,"rental_uris":{"android":"levelo://app?vid=89fb1ae9-3cfa-4523-b435-403d5912d4ea","ios":"levelo://app?vid=89fb1ae9-3cfa-4523-b435-403d5912d4ea"},"vehicle_type_id":"4","last_reported":1740906512,"current_range_meters":4400,"station_id":"ce4bhn92rcd13ifvqgrg","pricing_plan_id":"cebpf4jnsgd1na2vs0mg"},{"bike_id":"5d52c4f8-1fa3-4c68-bec0-2cbcc05a9978","system_id":"levelo_inurba_marseille","lat":43.23195,"lon":5.35553,"is_reserved":false,"is_disabled":false,"rental_uris":{"android":"levelo://app?vid=5d52c4f8-1fa3-4c68-bec0-2cbcc05a9978","ios":"levelo://app?vid=5d52c4f8-1fa3-4c68-bec0-2cbcc05a9978"},"vehicle_type_id":"4","last_reported":1740906512,"current_range_meters":4800,"station_id":"ce4bhu92rcd13ifvqi70","pricing_plan_id":"cebpf4jnsgd1na2vs0mg"},{"bike_id":"14144dff-7421-4064-b353-0584b513eb4b","system_id":"levelo_inurba_marseille","lat":43.2893,"lon":5.384,"is_reserved":false,"is_disabled":false,"rental_uris":{"android":"levelo://app?vid=14144dff-7421-4064-b353-0584b513eb4b","ios":"levelo://app?vid=14144dff-7421-4064-b353-0584b513eb4b"},"vehicle_type_id":"4","last_reported":1740906512,"current_range_meters":5600,"station_id":"ce4bh612rcd13ifvqe6g","pricing_plan_id":"cebpf4jnsgd1na2vs0mg"},{"bike_id":"1587aa86-38ea-4b5c-a6e7-02bc3269abbd","system_id":"levelo_inurba_marseille","lat":43.28449,"lon":5.392,"is_reserved":false,"is_disabled":false,"rental_uris":{"android":"levelo://app?vid=1587aa86-38ea-4b5c-a6e7-02bc3269abbd","ios":"levelo://app?vid=1587aa86-38ea-4b5c-a6e7-02bc3269abbd"},"vehicle_type_id":"4","last_reported":1740906512,"current_range_meters":6000,"station_id":"ce4bhoh2rcd13ifvqh5g","pricing_plan_id":"cebpf4jnsgd1na2vs0mg"},{"bike_id":"b7992443-8e68-40d9-ab23-1a5ece5fbee5","system_id":"levelo_inurba_marseille","lat":43.24826,"lon":5.41841,"is_reserved":false,"is_disabled":false,"rental_uris":{"android":"levelo://app?vid=b7992443-8e68-40d9-ab23-1a5ece5fbee5","ios":"levelo://app?vid=b7992443-8e68-40d9-ab23-1a5ece5fbee5"},"vehicle_type_id":"4","last_reported":1740906512,"current_range_meters":6400,"station_id":"","pricing_plan_id":"cebpf4jnsgd1na2vs0mg"},{"bike_id":"5d400628-6942-4692-924b-707edb439f1f","system_id":"levelo_inurba_marseille","lat":43.28686,"lon":5.37387,"is_reserved":false,"is_disabled":false,"rental_uris":{"android":"levelo://app?vid=5d400628-6942-4692-924b-707edb439f1f","ios":"levelo://app?vid=5d400628-6942-4692-924b-707edb439f1f"},"vehicle_type_id":"4","last_reported":1740906512,"current_range_meters":6400,"station_id":"ce4bh3p2rcd13ifvqdq0","pricing_plan_id":"cebpf4jnsgd1na2vs0mg"},{"bike_id":"91e4eca4-5f46-4caf-a496-87b2159675c8","system_id":"levelo_inurba_marseille","lat":43.28947,"lon":5.36412,"is_reserved":false,"is_disabled":false,"rental_uris":{"android":"levelo://app?vid=91e4eca4-5f46-4caf-a496-87b2159675c8","ios":"levelo://app?vid=91e4eca4-5f46-4caf-a496-87b2159675c8"},"vehicle_type_id":"4","last_reported":1740906512,"current_range_meters":6400,"station_id":"ce4bhc92rcd13ifvqetg","pricing_plan_id":"cebpf4jnsgd1na2vs0mg"},{"bike_id":"b9f74bbf-61ba-4dad-839e-3b0704b491f4","system_id":"levelo_inurba_marseille","lat":43.26156,"lon":5.40416,"is_reserved":false,"is_disabled":false,"rental_uris":{"android":"levelo://app?vid=b9f74bbf-61ba-4dad-839e-3b0704b491f4","ios":"levelo://app?vid=b9f74bbf-61ba-4dad-839e-3b0704b491f4"},"vehicle_type_id":"4","last_reported":1740906512,"current_range_meters":6400,"station_id":"ce4bhmh2rcd13ifvqgmg","pricing_plan_id":"cebpf4jnsgd1na2vs0mg"},{"bike_id":"3e993898-cdfc-4bc6-9f78-9ed206eb2b40","system_id":"levelo_inurba_marseille","lat":43.27496,"lon":5.42468,"is_reserved":false,"is_disabled":false,"rental_uris":{"android":"levelo://app?vid=3e993898-cdfc-4bc6-9f78-9ed206eb2b40","ios":"levelo://app?vid=3e993898-cdfc-4bc6-9f78-9ed206eb2b40"},"vehicle_type_id":"4","last_reported":1740906512,"current_range_meters":6400,"station_id":"ce4bhn92rcd13ifvqgrg","pricing_plan_id":"cebpf4jnsgd1na2vs0mg"},{"bike_id":"364b209e-752e-45ea-b26c-06b2552c1833","system_id":"levelo_inurba_marseille","lat":43.231908,"lon":5.355653,"is_reserved":false,"is_disabled":false,"rental_uris":{"android":"levelo://app?vid=364b209e-752e-45ea-b26c-06b2552c1833","ios":"levelo://app?vid=364b209e-752e-45ea-b26c-06b2552c1833"},"vehicle_type_id":"4","last_reported":1740906512,"current_range_meters":6400,"station_id":"ce4bhu92rcd13ifvqi70","pricing_plan_id":"cebpf4jnsgd1na2vs0mg"},{"bike_id":"9f2f5afa-dba6-4a22-a334-4307fd9e7da8","system_id":"levelo_inurba_marseille","lat":43.269353,"lon":5.366576,"is_reserved":false,"is_disabled":false,"rental_uris":{"android":"levelo://app?vid=9f2f5afa-dba6-4a22-a334-4307fd9e7da8","ios":"levelo://app?vid=9f2f5afa-dba6-4a22-a334-4307fd9e7da8"},"vehicle_type_id":"4","last_reported":1740906512,"current_range_meters":6400,"station_id":"cki0cbj6b192h4jlfktg","pricing_plan_id":"cebpf4jnsgd1na2vs0mg"},{"bike_id":"49cf196d-46c2-4b6a-b1ce-adef85481502","system_id":"levelo_inurba_marseille","lat":43.24162,"lon":5.36393,"is_reserved":false,"is_disabled":false,"rental_uris":{"android":"levelo://app?vid=49cf196d-46c2-4b6a-b1ce-adef85481502","ios":"levelo://app?vid=49cf196d-46c2-4b6a-b1ce-adef85481502"},"vehicle_type_id":"4","last_reported":1740906512,"current_range_meters":6400,"station_id":"cpo36qri1sfpv3e86is0","pricing_plan_id":"cebpf4jnsgd1na2vs0mg"},{"bike_id":"49e9cdc7-76a5-4b66-ae2d-61c73beb73a8","system_id":"levelo_inurba_marseille","lat":43.24172,"lon":5.36417,"is_reserved":false,"is_disabled":false,"rental_uris":{"android":"levelo://app?vid=49e9cdc7-76a5-4b66-ae2d-61c73beb73a8","ios":"levelo://app?vid=49e9cdc7-76a5-4b66-ae2d-61c73beb73a8"},"vehicle_type_id":"4","last_reported":1740906512,"current_range_meters":6400,"station_id":"cpo36qri1sfpv3e86is0","pricing_plan_id":"cebpf4jnsgd1na2vs0mg"},{"bike_id":"593edb3c-7add-4a3d-9dbe-95cef549de0d","system_id":"levelo_inurba_marseille","lat":43.23311,"lon":5.36085,"is_reserved":false,"is_disabled":false,"rental_uris":{"android":"levelo://app?vid=593edb3c-7add-4a3d-9dbe-95cef549de0d","ios":"levelo://app?vid=593edb3c-7add-4a3d-9dbe-95cef549de0d"},"vehicle_type_id":"4","last_reported":1740906512,"current_range_meters":6800,"station_id":"","pricing_plan_id":"cebpf4jnsgd1na2vs0mg"},{"bike_id":"10a09f4b-928d-42e1-87c7-1996117e3d26","system_id":"levelo_inurba_marseille","lat":43.30952,"lon":5.39047,"is_reserved":false,"is_disabled":false,"rental_uris":{"android":"levelo://app?vid=10a09f4b-928d-42e1-87c7-1996117e3d26","ios":"levelo://app?vid=10a09f4b-928d-42e1-87c7-1996117e3d26"},"vehicle_type_id":"4","last_reported":1740906512,"current_range_meters":6800,"station_id":"ce4bgup2rcd13ifvqco0","pricing_plan_id":"cebpf4jnsgd1na2vs0mg"},{"bike_id":"5b73c424-717f-4e99-be2f-9bee1e715131","system_id":"levelo_inurba_marseille","lat":43.316949,"lon":5.404674,"is_reserved":false,"is_disabled":false,"rental_uris":{"android":"levelo://app?vid=5b73c424-717f-4e99-be2f-9bee1e715131","ios":"levelo://app?vid=5b73c424-717f-4e99-be2f-9bee1e715131"},"vehicle_type_id":"4","last_reported":1740906512,"current_range_meters":6800,"station_id":"ce4bh012rcd13ifvqd00","pricing_plan_id":"cebpf4jnsgd1na2vs0mg"},{"bike_id":"bddf37d4-a2ae-4c74-bcad-602e7e9ee614","system_id":"levelo_inurba_marseille","lat":43.24652,"lon":5.38176,"is_reserved":false,"is_disabled":false,"rental_uris":{"android":"levelo://app?vid=bddf37d4-a2ae-4c74-bcad-602e7e9ee614","ios":"levelo://app?vid=bddf37d4-a2ae-4c74-bcad-602e7e9ee614"},"vehicle_type_id":"4","last_reported":1740906512,"current_range_meters":6800,"station_id":"ce4bhih2rcd13ifvqfr0","pricing_plan_id":"cebpf4jnsgd1na2vs0mg"},{"bike_id":"9b596371-d612-49f2-b81f-de4bef0d4e5a","system_id":"levelo_inurba_marseille","lat":43.241641,"lon":5.363964,"is_reserved":false,"is_disabled":false,"rental_uris":{"android":"levelo://app?vid=9b596371-d612-49f2-b81f-de4bef0d4e5a","ios":"levelo://app?vid=9b596371-d612-49f2-b81f-de4bef0d4e5a"},"vehicle_type_id":"4","last_reported":1740906512,"current_range_meters":6800,"station_id":"cpo36qri1sfpv3e86is0","pricing_plan_id":"cebpf4jnsgd1na2vs0mg"},{"bike_id":"ce5b717b-8065-41cb-ac73-ea554cd5c020","system_id":"levelo_inurba_marseille","lat":43.26558,"lon":5.38993,"is_reserved":false,"is_disabled":false,"rental_uris":{"android":"levelo://app?vid=ce5b717b-8065-41cb-ac73-ea554cd5c020","ios":"levelo://app?vid=ce5b717b-8065-41cb-ac73-ea554cd5c020"},"vehicle_type_id":"4","last_reported":1740906512,"current_range_meters":7200,"station_id":"ce4bhe12rcd13ifvqf30","pricing_plan_id":"cebpf4jnsgd1na2vs0mg"},{"bike_id":"53ebed9a-fd1a-4d94-96e3-0c8bc5887ace","system_id":"levelo_inurba_marseille","lat":43.314261,"lon":5.393884,"is_reserved":false,"is_disabled":false,"rental_uris":{"android":"levelo://app?vid=53ebed9a-fd1a-4d94-96e3-0c8bc5887ace","ios":"levelo://app?vid=53ebed9a-fd1a-4d94-96e3-0c8bc5887ace"},"vehicle_type_id":"4","last_reported":1740906512,"current_range_meters":8000,"station_id":"","pricing_plan_id":"cebpf4jnsgd1na2vs0mg"},{"bike_id":"fd4ceb47-7745-40bf-b9f8-cbc3ab65ca1f","system_id":"levelo_inurba_marseille","lat":43.232,"lon":5.40002,"is_reserved":false,"is_disabled":false,"rental_uris":{"android":"levelo://app?vid=fd4ceb47-7745-40bf-b9f8-cbc3ab65ca1f","ios":"levelo://app?vid=fd4ceb47-7745-40bf-b9f8-cbc3ab65ca1f"},"vehicle_type_id":"4","last_reported":1740906512,"current_range_meters":8000,"station_id":"ce4bhn12rcd13ifvqgqg","pricing_plan_id":"cebpf4jnsgd1na2vs0mg"},{"bike_id":"2465d0f3-b53e-4158-b58b-297ce0ef79a6","system_id":"levelo_inurba_marseille","lat":43.28164,"lon":5.42646,"is_reserved":false,"is_disabled":false,"rental_uris":{"android":"levelo://app?vid=2465d0f3-b53e-4158-b58b-297ce0ef79a6","ios":"levelo://app?vid=2465d0f3-b53e-4158-b58b-297ce0ef79a6"},"vehicle_type_id":"4","last_reported":1740906512,"current_range_meters":8000,"station_id":"ce4bhnh2rcd13ifvqgug","pricing_plan_id":"cebpf4jnsgd1na2vs0mg"},{"bike_id":"24b426ec-114a-4cca-b485-1331408dda43","system_id":"levelo_inurba_marseille","lat":43.24075,"lon":5.37752,"is_reserved":false,"is_disabled":false,"rental_uris":{"android":"levelo://app?vid=24b426ec-114a-4cca-b485-1331408dda43","ios":"levelo://app?vid=24b426ec-114a-4cca-b485-1331408dda43"},"vehicle_type_id":"4","last_reported":1740906512,"current_range_meters":8000,"station_id":"ce4bhnp2rcd13ifvqgvg","pricing_plan_id":"cebpf4jnsgd1na2vs0mg"},{"bike_id":"72ff5b47-6584-466f-b94c-365470641023","system_id":"levelo_inurba_marseille","lat":43.31176,"lon":5.38705,"is_reserved":false,"is_disabled":false,"rental_uris":{"android":"levelo://app?vid=72ff5b47-6584-466f-b94c-365470641023","ios":"levelo://app?vid=72ff5b47-6584-466f-b94c-365470641023"},"vehicle_type_id":"4","last_reported":1740906512,"current_range_meters":8400,"station_id":"ce4bgv12rcd13ifvqcp0","pricing_plan_id":"cebpf4jnsgd1na2vs0mg"},{"bike_id":"23cab17d-b6bb-40e7-9520-7101829b0f11","system_id":"levelo_inurba_marseille","lat":43.2845,"lon":5.35908,"is_reserved":false,"is_disabled":false,"rental_uris":{"android":"levelo://app?vid=23cab17d-b6bb-40e7-9520-7101829b0f11","ios":"levelo://app?vid=23cab17d-b6bb-40e7-9520-7101829b0f11"},"vehicle_type_id":"4","last_reported":1740906512,"current_range_meters":8400,"station_id":"ce4bhah2rcd13ifvqei0","pricing_plan_id":"cebpf4jnsgd1na2vs0mg"},{"bike_id":"b811c60a-6933-40a7-84ba-ba9cab9803d2","system_id":"levelo_inurba_marseille","lat":43.2501,"lon":5.38935,"is_reserved":false,"is_disabled":false,"rental_uris":{"android":"levelo://app?vid=b811c60a-6933-40a7-84ba-ba9cab9803d2","ios":"levelo://app?vid=b811c60a-6933-40a7-84ba-ba9cab9803d2"},"vehicle_type_id":"4","last_reported":1740906512,"current_range_meters":8400,"station_id":"ce4bhgp2rcd13ifvqfd0","pricing_plan_id":"cebpf4jnsgd1na2vs0mg"},{"bike_id":"63bd5179-e096-4fc2-9ddf-a04ead103bc0","system_id":"levelo_inurba_marseille","lat":43.28294,"lon":5.39193,"is_reserved":false,"is_disabled":false,"rental_uris":{"android":"levelo://app?vid=63bd5179-e096-4fc2-9ddf-a04ead103bc0","ios":"levelo://app?vid=63bd5179-e096-4fc2-9ddf-a04ead103bc0"},"vehicle_type_id":"4","last_reported":1740906512,"current_range_meters":8800,"station_id":"","pricing_plan_id":"cebpf4jnsgd1na2vs0mg"},{"bike_id":"4a01e614-9a34-4e70-9e02-4e744008ae90","system_id":"levelo_inurba_marseille","lat":43.31392,"lon":5.39192,"is_reserved":false,"is_disabled":false,"rental_uris":{"android":"levelo://app?vid=4a01e614-9a34-4e70-9e02-4e744008ae90","ios":"levelo://app?vid=4a01e614-9a34-4e70-9e02-4e744008ae90"},"vehicle_type_id":"4","last_reported":1740906512,"current_range_meters":8800,"station_id":"","pricing_plan_id":"cebpf4jnsgd1na2vs0mg"},{"bike_id":"5fefb01a-d69c-499a-962f-b14234e39f08","system_id":"levelo_inurba_marseille","lat":43.29629,"lon":5.37725,"is_reserved":false,"is_disabled":false,"rental_uris":{"android":"levelo://app?vid=5fefb01a-d69c-499a-962f-b14234e39f08","ios":"levelo://app?vid=5fefb01a-d69c-499a-962f-b14234e39f08"},"vehicle_type_id":"4","last_reported":1740906512,"current_range_meters":9200,"station_id":"ce4bgi92rcd13ifvqb90","pricing_plan_id":"cebpf4jnsgd1na2vs0mg"},{"bike_id":"6ee4df46-f1e7-483b-af3f-fbecab444f61","system_id":"levelo_inurba_marseille","lat":43.262,"lon":5.37931,"is_reserved":false,"is_disabled":false,"rental_uris":{"android":"levelo://app?vid=6ee4df46-f1e7-483b-af3f-fbecab444f61","ios":"levelo://app?vid=6ee4df46-f1e7-483b-af3f-fbecab444f61"},"vehicle_type_id":"4","last_reported":1740906512,"current_range_meters":9200,"station_id":"ce4bhjp2rcd13ifvqg90","pricing_plan_id":"cebpf4jnsgd1na2vs0mg"},{"bike_id":"3b2662a5-424c-4217-a420-af728284556d","system_id":"levelo_inurba_marseille","lat":43.25743,"lon":5.41115,"is_reserved":false,"is_disabled":false,"rental_uris":{"android":"levelo://app?vid=3b2662a5-424c-4217-a420-af728284556d","ios":"levelo://app?vid=3b2662a5-424c-4217-a420-af728284556d"},"vehicle_type_id":"4","last_reported":1740906512,"current_range_meters":9200,"station_id":"ce4bhkp2rcd13ifvqgd0","pricing_plan_id":"cebpf4jnsgd1na2vs0mg"},{"bike_id":"0693b9d6-4a9d-4e38-bfa2-80f934bcc2e3","system_id":"levelo_inurba_marseille","lat":43.2417,"lon":5.36404,"is_reserved":false,"is_disabled":false,"rental_uris":{"android":"levelo://app?vid=0693b9d6-4a9d-4e38-bfa2-80f934bcc2e3","ios":"levelo://app?vid=0693b9d6-4a9d-4e38-bfa2-80f934bcc2e3"},"vehicle_type_id":"4","last_reported":1740906512,"current_range_meters":9200,"station_id":"cpo36qri1sfpv3e86is0","pricing_plan_id":"cebpf4jnsgd1na2vs0mg"},{"bike_id":"0e4d5d36-7d5d-4fbf-9597-759cc9a1b223","system_id":"levelo_inurba_marseille","lat":43.30563,"lon":5.37246,"is_reserved":false,"is_disabled":false,"rental_uris":{"android":"levelo://app?vid=0e4d5d36-7d5d-4fbf-9597-759cc9a1b223","ios":"levelo://app?vid=0e4d5d36-7d5d-4fbf-9597-759cc9a1b223"},"vehicle_type_id":"4","last_reported":1740906512,"current_range_meters":9600,"station_id":"","pricing_plan_id":"cebpf4jnsgd1na2vs0mg"},{"bike_id":"1697087c-3a15-4d2b-8fbc-57126afe45c3","system_id":"levelo_inurba_marseille","lat":43.23161,"lon":5.43692,"is_reserved":false,"is_disabled":false,"rental_uris":{"android":"levelo://app?vid=1697087c-3a15-4d2b-8fbc-57126afe45c3","ios":"levelo://app?vid=1697087c-3a15-4d2b-8fbc-57126afe45c3"},"vehicle_type_id":"4","last_reported":1740906512,"current_range_meters":9600,"station_id":"ce4bhmp2rcd13ifvqgog","pricing_plan_id":"cebpf4jnsgd1na2vs0mg"},{"bike_id":"a4fa36b4-7a41-4d3b-8edc-0027bce1b33c","system_id":"levelo_inurba_marseille","lat":43.25384,"lon":5.41425,"is_reserved":false,"is_disabled":false,"rental_uris":{"android":"levelo://app?vid=a4fa36b4-7a41-4d3b-8edc-0027bce1b33c","ios":"levelo://app?vid=a4fa36b4-7a41-4d3b-8edc-0027bce1b33c"},"vehicle_type_id":"4","last_reported":1740906512,"current_range_meters":10000,"station_id":"","pricing_plan_id":"cebpf4jnsgd1na2vs0mg"},{"bike_id":"08b66ead-5970-4c42-aef8-8434df652915","system_id":"levelo_inurba_marseille","lat":43.27623,"lon":5.36104,"is_reserved":false,"is_disabled":false,"rental_uris":{"android":"levelo://app?vid=08b66ead-5970-4c42-aef8-8434df652915","ios":"levelo://app?vid=08b66ead-5970-4c42-aef8-8434df652915"},"vehicle_type_id":"4","last_reported":1740906512,"current_range_meters":10000,"station_id":"ce4bgj92rcd13ifvqbe0","pricing_plan_id":"cebpf4jnsgd1na2vs0mg"},{"bike_id":"52ef3aa4-5f13-4be7-b2ea-94c69c4bc5ae","system_id":"levelo_inurba_marseille","lat":43.30447,"lon":5.38896,"is_reserved":false,"is_disabled":false,"rental_uris":{"android":"levelo://app?vid=52ef3aa4-5f13-4be7-b2ea-94c69c4bc5ae","ios":"levelo://app?vid=52ef3aa4-5f13-4be7-b2ea-94c69c4bc5ae"},"vehicle_type_id":"4","last_reported":1740906512,"current_range_meters":10000,"station_id":"ce4bgk12rcd13ifvqbi0","pricing_plan_id":"cebpf4jnsgd1na2vs0mg"},{"bike_id":"3ba7bed1-3305-440d-a97c-7e9401981732","system_id":"levelo_inurba_marseille","lat":43.29207,"lon":5.39308,"is_reserved":false,"is_disabled":false,"rental_uris":{"android":"levelo://app?vid=3ba7bed1-3305-440d-a97c-7e9401981732","ios":"levelo://app?vid=3ba7bed1-3305-440d-a97c-7e9401981732"},"vehicle_type_id":"4","last_reported":1740906512,"current_range_meters":10000,"station_id":"ce4bh192rcd13ifvqdd0","pricing_plan_id":"cebpf4jnsgd1na2vs0mg"},{"bike_id":"fb18759c-f3ca-4612-8704-baf08a44bab2","system_id":"levelo_inurba_marseille","lat":43.28485,"lon":5.35015,"is_reserved":false,"is_disabled":false,"rental_uris":{"android":"levelo://app?vid=fb18759c-f3ca-4612-8704-baf08a44bab2","ios":"levelo://app?vid=fb18759c-f3ca-4612-8704-baf08a44bab2"},"vehicle_type_id":"4","last_reported":1740906512,"current_range_meters":10000,"station_id":"ce4bhbh2rcd13ifvqepg","pricing_plan_id":"cebpf4jnsgd1na2vs0mg"},{"bike_id":"94fa0b73-5864-4665-bdbb-eb6df01414c8","system_id":"levelo_inurba_marseille","lat":43.2466,"lon":5.38167,"is_reserved":false,"is_disabled":false,"rental_uris":{"android":"levelo://app?vid=94fa0b73-5864-4665-bdbb-eb6df01414c8","ios":"levelo://app?vid=94fa0b73-5864-4665-bdbb-eb6df01414c8"},"vehicle_type_id":"4","last_reported":1740906512,"current_range_meters":10000,"station_id":"ce4bhih2rcd13ifvqfr0","pricing_plan_id":"cebpf4jnsgd1na2vs0mg"},{"bike_id":"dca47370-0af2-4b83-9276-f3814af3b64b","system_id":"levelo_inurba_marseille","lat":43.24561,"lon":5.39541,"is_reserved":false,"is_disabled":false,"rental_uris":{"android":"levelo://app?vid=dca47370-0af2-4b83-9276-f3814af3b64b","ios":"levelo://app?vid=dca47370-0af2-4b83-9276-f3814af3b64b"},"vehicle_type_id":"4","last_reported":1740906512,"current_range_meters":10000,"station_id":"ce4bhlp2rcd13ifvqgjg","pricing_plan_id":"cebpf4jnsgd1na2vs0mg"},{"bike_id":"49740944-d3c3-4593-a80d-2aff0de21358","system_id":"levelo_inurba_marseille","lat":43.29964,"lon":5.37016,"is_reserved":false,"is_disabled":false,"rental_uris":{"android":"levelo://app?vid=49740944-d3c3-4593-a80d-2aff0de21358","ios":"levelo://app?vid=49740944-d3c3-4593-a80d-2aff0de21358"},"vehicle_type_id":"4","last_reported":1740906512,"current_range_meters":10800,"station_id":"","pricing_plan_id":"cebpf4jnsgd1na2vs0mg"},{"bike_id":"cbeff9af-2821-498e-8353-cbbe4b72cc62","system_id":"levelo_inurba_marseille","lat":43.25015,"lon":5.38944,"is_reserved":false,"is_disabled":false,"rental_uris":{"android":"levelo://app?vid=cbeff9af-2821-498e-8353-cbbe4b72cc62","ios":"levelo://app?vid=cbeff9af-2821-498e-8353-cbbe4b72cc62"},"vehicle_type_id":"4","last_reported":1740906512,"current_range_meters":10800,"station_id":"ce4bhgp2rcd13ifvqfd0","pricing_plan_id":"cebpf4jnsgd1na2vs0mg"},{"bike_id":"f711a177-8c95-4e96-bcaf-e6e0dc33f59e","system_id":"levelo_inurba_marseille","lat":43.24401,"lon":5.37046,"is_reserved":false,"is_disabled":false,"rental_uris":{"android":"levelo://app?vid=f711a177-8c95-4e96-bcaf-e6e0dc33f59e","ios":"levelo://app?vid=f711a177-8c95-4e96-bcaf-e6e0dc33f59e"},"vehicle_type_id":"4","last_reported":1740906512,"current_range_meters":10800,"station_id":"ce4bhhh2rcd13ifvqfk0","pricing_plan_id":"cebpf4jnsgd1na2vs0mg"},{"bike_id":"bbcad7a0-3558-4710-b9fc-e88f0b23aeac","system_id":"levelo_inurba_marseille","lat":43.25725,"lon":5.411,"is_reserved":false,"is_disabled":false,"rental_uris":{"android":"levelo://app?vid=bbcad7a0-3558-4710-b9fc-e88f0b23aeac","ios":"levelo://app?vid=bbcad7a0-3558-4710-b9fc-e88f0b23aeac"},"vehicle_type_id":"4","last_reported":1740906512,"current_range_meters":10800,"station_id":"ce4bhkp2rcd13ifvqgd0","pricing_plan_id":"cebpf4jnsgd1na2vs0mg"},{"bike_id":"f4af2fc5-12b1-413f-b3e8-70775a52b007","system_id":"levelo_inurba_marseille","lat":43.24176,"lon":5.39725,"is_reserved":false,"is_disabled":false,"rental_uris":{"android":"levelo://app?vid=f4af2fc5-12b1-413f-b3e8-70775a52b007","ios":"levelo://app?vid=f4af2fc5-12b1-413f-b3e8-70775a52b007"},"vehicle_type_id":"4","last_reported":1740906512,"current_range_meters":10800,"station_id":"ce4bhn12rcd13ifvqgpg","pricing_plan_id":"cebpf4jnsgd1na2vs0mg"},{"bike_id":"86dd6f08-624d-41d0-a5d0-1247711ab12d","system_id":"levelo_inurba_marseille","lat":43.24067,"lon":5.37798,"is_reserved":false,"is_disabled":false,"rental_uris":{"android":"levelo://app?vid=86dd6f08-624d-41d0-a5d0-1247711ab12d","ios":"levelo://app?vid=86dd6f08-624d-41d0-a5d0-1247711ab12d"},"vehicle_type_id":"4","last_reported":1740906512,"current_range_meters":10800,"station_id":"ce4bhnp2rcd13ifvqgvg","pricing_plan_id":"cebpf4jnsgd1na2vs0mg"},{"bike_id":"6d56352d-b599-405b-812c-cff82b78bb6e","system_id":"levelo_inurba_marseille","lat":43.33763,"lon":5.37414,"is_reserved":false,"is_disabled":false,"rental_uris":{"android":"levelo://app?vid=6d56352d-b599-405b-812c-cff82b78bb6e","ios":"levelo://app?vid=6d56352d-b599-405b-812c-cff82b78bb6e"},"vehicle_type_id":"4","last_reported":1740906512,"current_range_meters":11200,"station_id":"","pricing_plan_id":"cebpf4jnsgd1na2vs0mg"},{"bike_id":"d2c363b3-bacf-4359-85f2-7dc9f8b4aa4d","system_id":"levelo_inurba_marseille","lat":43.31684,"lon":5.40474,"is_reserved":false,"is_disabled":false,"rental_uris":{"android":"levelo://app?vid=d2c363b3-bacf-4359-85f2-7dc9f8b4aa4d","ios":"levelo://app?vid=d2c363b3-bacf-4359-85f2-7dc9f8b4aa4d"},"vehicle_type_id":"4","last_reported":1740906512,"current_range_meters":11200,"station_id":"ce4bh012rcd13ifvqd00","pricing_plan_id":"cebpf4jnsgd1na2vs0mg"},{"bike_id":"e2b1a97c-05f9-4994-8c76-5c4c26614832","system_id":"levelo_inurba_marseille","lat":43.26583,"lon":5.37323,"is_reserved":false,"is_disabled":false,"rental_uris":{"android":"levelo://app?vid=e2b1a97c-05f9-4994-8c76-5c4c26614832","ios":"levelo://app?vid=e2b1a97c-05f9-4994-8c76-5c4c26614832"},"vehicle_type_id":"4","last_reported":1740906512,"current_range_meters":11200,"station_id":"ce4bhg12rcd13ifvqf70","pricing_plan_id":"cebpf4jnsgd1na2vs0mg"},{"bike_id":"254c7125-1cc4-4ba9-a2be-9a69e2dfeebb","system_id":"levelo_inurba_marseille","lat":43.26782,"lon":5.39416,"is_reserved":false,"is_disabled":false,"rental_uris":{"android":"levelo://app?vid=254c7125-1cc4-4ba9-a2be-9a69e2dfeebb","ios":"levelo://app?vid=254c7125-1cc4-4ba9-a2be-9a69e2dfeebb"},"vehicle_type_id":"4","last_reported":1740906512,"current_range_meters":11200,"station_id":"ce4bhh12rcd13ifvqfg0","pricing_plan_id":"cebpf4jnsgd1na2vs0mg"},{"bike_id":"97efda35-6204-44de-b93b-817189a09671","system_id":"levelo_inurba_marseille","lat":43.2557,"lon":5.38247,"is_reserved":false,"is_disabled":false,"rental_uris":{"android":"levelo://app?vid=97efda35-6204-44de-b93b-817189a09671","ios":"levelo://app?vid=97efda35-6204-44de-b93b-817189a09671"},"vehicle_type_id":"4","last_reported":1740906512,"current_range_meters":11200,"station_id":"ce4bhih2rcd13ifvqfs0","pricing_plan_id":"cebpf4jnsgd1na2vs0mg"},{"bike_id":"27d57ba8-cb2b-4da3-bcfc-1efd3956d0fa","system_id":"levelo_inurba_marseille","lat":43.29546,"lon":5.42285,"is_reserved":false,"is_disabled":false,"rental_uris":{"android":"levelo://app?vid=27d57ba8-cb2b-4da3-bcfc-1efd3956d0fa","ios":"levelo://app?vid=27d57ba8-cb2b-4da3-bcfc-1efd3956d0fa"},"vehicle_type_id":"4","last_reported":1740906512,"current_range_meters":11200,"station_id":"ce4bhph2rcd13ifvqhdg","pricing_plan_id":"cebpf4jnsgd1na2vs0mg"},{"bike_id":"b98067e1-b08a-4374-a620-5d56e9f060ee","system_id":"levelo_inurba_marseille","lat":43.30144,"lon":5.38078,"is_reserved":false,"is_disabled":false,"rental_uris":{"android":"levelo://app?vid=b98067e1-b08a-4374-a620-5d56e9f060ee","ios":"levelo://app?vid=b98067e1-b08a-4374-a620-5d56e9f060ee"},"vehicle_type_id":"4","last_reported":1740906512,"current_range_meters":11600,"station_id":"ce4bgjp2rcd13ifvqbh0","pricing_plan_id":"cebpf4jnsgd1na2vs0mg"},{"bike_id":"370c4868-a594-4085-88b8-164b41c30fea","system_id":"levelo_inurba_marseille","lat":43.29019,"lon":5.35599,"is_reserved":false,"is_disabled":false,"rental_uris":{"android":"levelo://app?vid=370c4868-a594-4085-88b8-164b41c30fea","ios":"levelo://app?vid=370c4868-a594-4085-88b8-164b41c30fea"},"vehicle_type_id":"4","last_reported":1740906512,"current_range_meters":11600,"station_id":"ce4bhb92rcd13ifvqen0","pricing_plan_id":"cebpf4jnsgd1na2vs0mg"},{"bike_id":"cd538505-baa5-40dd-a27f-178a17096b27","system_id":"levelo_inurba_marseille","lat":43.29202,"lon":5.36068,"is_reserved":false,"is_disabled":false,"rental_uris":{"android":"levelo://app?vid=cd538505-baa5-40dd-a27f-178a17096b27","ios":"levelo://app?vid=cd538505-baa5-40dd-a27f-178a17096b27"},"vehicle_type_id":"4","last_reported":1740906512,"current_range_meters":11600,"station_id":"ce4bhbh2rcd13ifvqeqg","pricing_plan_id":"cebpf4jnsgd1na2vs0mg"},{"bike_id":"e43f4f71-054c-410e-9efa-c6d5ef79ac61","system_id":"levelo_inurba_marseille","lat":43.24168,"lon":5.39735,"is_reserved":false,"is_disabled":false,"rental_uris":{"android":"levelo://app?vid=e43f4f71-054c-410e-9efa-c6d5ef79ac61","ios":"levelo://app?vid=e43f4f71-054c-410e-9efa-c6d5ef79ac61"},"vehicle_type_id":"4","last_reported":1740906512,"current_range_meters":11600,"station_id":"ce4bhn12rcd13ifvqgpg","pricing_plan_id":"cebpf4jnsgd1na2vs0mg"},{"bike_id":"abdce9a5-165a-430d-93c6-b1980bc72eea","system_id":"levelo_inurba_marseille","lat":43.313,"lon":5.39734,"is_reserved":false,"is_disabled":false,"rental_uris":{"android":"levelo://app?vid=abdce9a5-165a-430d-93c6-b1980bc72eea","ios":"levelo://app?vid=abdce9a5-165a-430d-93c6-b1980bc72eea"},"vehicle_type_id":"4","last_reported":1740906512,"current_range_meters":12000,"station_id":"","pricing_plan_id":"cebpf4jnsgd1na2vs0mg"},{"bike_id":"c272f144-1302-4356-8d7d-046dcce3b360","system_id":"levelo_inurba_marseille","lat":43.26211,"lon":5.379238,"is_reserved":false,"is_disabled":false,"rental_uris":{"android":"levelo://app?vid=c272f144-1302-4356-8d7d-046dcce3b360","ios":"levelo://app?vid=c272f144-1302-4356-8d7d-046dcce3b360"},"vehicle_type_id":"4","last_reported":1740906512,"current_range_meters":12000,"station_id":"ce4bhjp2rcd13ifvqg90","pricing_plan_id":"cebpf4jnsgd1na2vs0mg"},{"bike_id":"39c1dd7d-9a10-44b7-9513-368af5f5261b","system_id":"levelo_inurba_marseille","lat":43.30358,"lon":5.3689,"is_reserved":false,"is_disabled":false,"rental_uris":{"android":"levelo://app?vid=39c1dd7d-9a10-44b7-9513-368af5f5261b","ios":"levelo://app?vid=39c1dd7d-9a10-44b7-9513-368af5f5261b"},"vehicle_type_id":"4","last_reported":1740906512,"current_range_meters":12400,"station_id":"ce4bgqh2rcd13ifvqc5g","pricing_plan_id":"cebpf4jnsgd1na2vs0mg"},{"bike_id":"14da2a3a-0d3b-4102-84c6-346945a4b8ae","system_id":"levelo_inurba_marseille","lat":43.31275,"lon":5.40173,"is_reserved":false,"is_disabled":false,"rental_uris":{"android":"levelo://app?vid=14da2a3a-0d3b-4102-84c6-346945a4b8ae","ios":"levelo://app?vid=14da2a3a-0d3b-4102-84c6-346945a4b8ae"},"vehicle_type_id":"4","last_reported":1740906512,"current_range_meters":12400,"station_id":"ce4bh092rcd13ifvqd30","pricing_plan_id":"cebpf4jnsgd1na2vs0mg"},{"bike_id":"bc8aa798-f930-448d-990e-f5b91ae1768e","system_id":"levelo_inurba_marseille","lat":43.28734,"lon":5.36093,"is_reserved":false,"is_disabled":false,"rental_uris":{"android":"levelo://app?vid=bc8aa798-f930-448d-990e-f5b91ae1768e","ios":"levelo://app?vid=bc8aa798-f930-448d-990e-f5b91ae1768e"},"vehicle_type_id":"4","last_reported":1740906512,"current_range_meters":12400,"station_id":"cki0cbj6b192h4jlfktg","pricing_plan_id":"cebpf4jnsgd1na2vs0mg"},{"bike_id":"3c9c65ff-a2a8-4c52-a6f4-62bcc77556ef","system_id":"levelo_inurba_marseille","lat":43.24163,"lon":5.36392,"is_reserved":false,"is_disabled":false,"rental_uris":{"android":"levelo://app?vid=3c9c65ff-a2a8-4c52-a6f4-62bcc77556ef","ios":"levelo://app?vid=3c9c65ff-a2a8-4c52-a6f4-62bcc77556ef"},"vehicle_type_id":"4","last_reported":1740906512,"current_range_meters":12400,"station_id":"cpo36qri1sfpv3e86is0","pricing_plan_id":"cebpf4jnsgd1na2vs0mg"},{"bike_id":"28094c26-ebf7-4f10-9752-a86036fd897f","system_id":"levelo_inurba_marseille","lat":43.28419,"lon":5.349894,"is_reserved":false,"is_disabled":false,"rental_uris":{"android":"levelo://app?vid=28094c26-ebf7-4f10-9752-a86036fd897f","ios":"levelo://app?vid=28094c26-ebf7-4f10-9752-a86036fd897f"},"vehicle_type_id":"4","last_reported":1740906512,"current_range_meters":12800,"station_id":"ce4bhbh2rcd13ifvqepg","pricing_plan_id":"cebpf4jnsgd1na2vs0mg"},{"bike_id":"8fd6e265-67e3-4ac3-8b33-e46f35485ff3","system_id":"levelo_inurba_marseille","lat":43.27912,"lon":5.3958,"is_reserved":false,"is_disabled":false,"rental_uris":{"android":"levelo://app?vid=8fd6e265-67e3-4ac3-8b33-e46f35485ff3","ios":"levelo://app?vid=8fd6e265-67e3-4ac3-8b33-e46f35485ff3"},"vehicle_type_id":"4","last_reported":1740906512,"current_range_meters":12800,"station_id":"ce4bhf92rcd13ifvqf40","pricing_plan_id":"cebpf4jnsgd1na2vs0mg"},{"bike_id":"49645587-4897-47af-80cb-ea0df5af90cc","system_id":"levelo_inurba_marseille","lat":43.2622,"lon":5.37455,"is_reserved":false,"is_disabled":false,"rental_uris":{"android":"levelo://app?vid=49645587-4897-47af-80cb-ea0df5af90cc","ios":"levelo://app?vid=49645587-4897-47af-80cb-ea0df5af90cc"},"vehicle_type_id":"4","last_reported":1740906512,"current_range_meters":12800,"station_id":"ce4bhgp2rcd13ifvqfc0","pricing_plan_id":"cebpf4jnsgd1na2vs0mg"},{"bike_id":"4013bc6c-c7f7-4089-af65-618d0eeef3f4","system_id":"levelo_inurba_marseille","lat":43.245485,"lon":5.395326,"is_reserved":false,"is_disabled":false,"rental_uris":{"android":"levelo://app?vid=4013bc6c-c7f7-4089-af65-618d0eeef3f4","ios":"levelo://app?vid=4013bc6c-c7f7-4089-af65-618d0eeef3f4"},"vehicle_type_id":"4","last_reported":1740906512,"current_range_meters":12800,"station_id":"ce4bhlp2rcd13ifvqgjg","pricing_plan_id":"cebpf4jnsgd1na2vs0mg"},{"bike_id":"ed8bb562-d048-4d97-a62c-052cc210d3b2","system_id":"levelo_inurba_marseille","lat":43.317105,"lon":5.437116,"is_reserved":false,"is_disabled":false,"rental_uris":{"android":"levelo://app?vid=ed8bb562-d048-4d97-a62c-052cc210d3b2","ios":"levelo://app?vid=ed8bb562-d048-4d97-a62c-052cc210d3b2"},"vehicle_type_id":"4","last_reported":1740906512,"current_range_meters":12800,"station_id":"ce4bhp92rcd13ifvqhcg","pricing_plan_id":"cebpf4jnsgd1na2vs0mg"},{"bike_id":"88d09cbc-1497-4fea-99b9-c1fe29ff58f0","system_id":"levelo_inurba_marseille","lat":43.28047,"lon":5.36572,"is_reserved":false,"is_disabled":false,"rental_uris":{"android":"levelo://app?vid=88d09cbc-1497-4fea-99b9-c1fe29ff58f0","ios":"levelo://app?vid=88d09cbc-1497-4fea-99b9-c1fe29ff58f0"},"vehicle_type_id":"4","last_reported":1740906512,"current_range_meters":13600,"station_id":"","pricing_plan_id":"cebpf4jnsgd1na2vs0mg"},{"bike_id":"3f1c5b0e-6cb1-4bd0-b31c-4fcbb4650943","system_id":"levelo_inurba_marseille","lat":43.28855,"lon":5.35828,"is_reserved":false,"is_disabled":false,"rental_uris":{"android":"levelo://app?vid=3f1c5b0e-6cb1-4bd0-b31c-4fcbb4650943","ios":"levelo://app?vid=3f1c5b0e-6cb1-4bd0-b31c-4fcbb4650943"},"vehicle_type_id":"4","last_reported":1740906512,"current_range_meters":13600,"station_id":"ce4bhb12rcd13ifvqem0","pricing_plan_id":"cebpf4jnsgd1na2vs0mg"},{"bike_id":"8c528749-43df-40d6-b9b4-e80d7e8bda23","system_id":"levelo_inurba_marseille","lat":43.26559,"lon":5.37296,"is_reserved":false,"is_disabled":false,"rental_uris":{"android":"levelo://app?vid=8c528749-43df-40d6-b9b4-e80d7e8bda23","ios":"levelo://app?vid=8c528749-43df-40d6-b9b4-e80d7e8bda23"},"vehicle_type_id":"4","last_reported":1740906512,"current_range_meters":13600,"station_id":"ce4bhg12rcd13ifvqf70","pricing_plan_id":"cebpf4jnsgd1na2vs0mg"},{"bike_id":"04374387-317f-463f-bfc7-2e3d3c3c7b98","system_id":"levelo_inurba_marseille","lat":43.24139,"lon":5.39699,"is_reserved":false,"is_disabled":false,"rental_uris":{"android":"levelo://app?vid=04374387-317f-463f-bfc7-2e3d3c3c7b98","ios":"levelo://app?vid=04374387-317f-463f-bfc7-2e3d3c3c7b98"},"vehicle_type_id":"4","last_reported":1740906512,"current_range_meters":13600,"station_id":"ce4bhn12rcd13ifvqgpg","pricing_plan_id":"cebpf4jnsgd1na2vs0mg"},{"bike_id":"848e1728-4a39-474c-b550-8bc497cd3e33","system_id":"levelo_inurba_marseille","lat":43.32367,"lon":5.36767,"is_reserved":false,"is_disabled":false,"rental_uris":{"android":"levelo://app?vid=848e1728-4a39-474c-b550-8bc497cd3e33","ios":"levelo://app?vid=848e1728-4a39-474c-b550-8bc497cd3e33"},"vehicle_type_id":"4","last_reported":1740906512,"current_range_meters":13600,"station_id":"ce4bhsh2rcd13ifvqi2g","pricing_plan_id":"cebpf4jnsgd1na2vs0mg"},{"bike_id":"b89b9e97-65c4-4473-a19f-c73995b54f7e","system_id":"levelo_inurba_marseille","lat":43.23056,"lon":5.35497,"is_reserved":false,"is_disabled":false,"rental_uris":{"android":"levelo://app?vid=b89b9e97-65c4-4473-a19f-c73995b54f7e","ios":"levelo://app?vid=b89b9e97-65c4-4473-a19f-c73995b54f7e"},"vehicle_type_id":"4","last_reported":1740906512,"current_range_meters":13600,"station_id":"cpo3342slgdg3j2ifvpg","pricing_plan_id":"cebpf4jnsgd1na2vs0mg"},{"bike_id":"2e9c27d3-7345-4cf1-8b14-d9496e0e96ab","system_id":"levelo_inurba_marseille","lat":43.30901,"lon":5.39611,"is_reserved":false,"is_disabled":false,"rental_uris":{"android":"levelo://app?vid=2e9c27d3-7345-4cf1-8b14-d9496e0e96ab","ios":"levelo://app?vid=2e9c27d3-7345-4cf1-8b14-d9496e0e96ab"},"vehicle_type_id":"4","last_reported":1740906512,"current_range_meters":14000,"station_id":"ce4bh012rcd13ifvqcv0","pricing_plan_id":"cebpf4jnsgd1na2vs0mg"},{"bike_id":"8e886d15-f7c9-408d-8ce6-c26a75e0d003","system_id":"levelo_inurba_marseille","lat":43.31708,"lon":5.40461,"is_reserved":false,"is_disabled":false,"rental_uris":{"android":"levelo://app?vid=8e886d15-f7c9-408d-8ce6-c26a75e0d003","ios":"levelo://app?vid=8e886d15-f7c9-408d-8ce6-c26a75e0d003"},"vehicle_type_id":"4","last_reported":1740906512,"current_range_meters":14000,"station_id":"ce4bh012rcd13ifvqd00","pricing_plan_id":"cebpf4jnsgd1na2vs0mg"},{"bike_id":"8c41848f-4779-43e5-81a6-bbcb1f8bd000","system_id":"levelo_inurba_marseille","lat":43.27348,"lon":5.39094,"is_reserved":false,"is_disabled":false,"rental_uris":{"android":"levelo://app?vid=8c41848f-4779-43e5-81a6-bbcb1f8bd000","ios":"levelo://app?vid=8c41848f-4779-43e5-81a6-bbcb1f8bd000"},"vehicle_type_id":"4","last_reported":1740906512,"current_range_meters":14000,"station_id":"ce4bhgp2rcd13ifvqfe0","pricing_plan_id":"cebpf4jnsgd1na2vs0mg"},{"bike_id":"61e3c74e-7012-4cb6-8ef4-17db5d82fdf7","system_id":"levelo_inurba_marseille","lat":43.2531,"lon":5.39289,"is_reserved":false,"is_disabled":false,"rental_uris":{"android":"levelo://app?vid=61e3c74e-7012-4cb6-8ef4-17db5d82fdf7","ios":"levelo://app?vid=61e3c74e-7012-4cb6-8ef4-17db5d82fdf7"},"vehicle_type_id":"4","last_reported":1740906512,"current_range_meters":14400,"station_id":"","pricing_plan_id":"cebpf4jnsgd1na2vs0mg"},{"bike_id":"6b504e4c-8634-4014-8db3-76b3faa36f95","system_id":"levelo_inurba_marseille","lat":43.3017,"lon":5.38092,"is_reserved":false,"is_disabled":false,"rental_uris":{"android":"levelo://app?vid=6b504e4c-8634-4014-8db3-76b3faa36f95","ios":"levelo://app?vid=6b504e4c-8634-4014-8db3-76b3faa36f95"},"vehicle_type_id":"4","last_reported":1740906512,"current_range_meters":14400,"station_id":"ce4bgjp2rcd13ifvqbh0","pricing_plan_id":"cebpf4jnsgd1na2vs0mg"},{"bike_id":"bff943d6-157c-4fde-8a62-68c660481aa5","system_id":"levelo_inurba_marseille","lat":43.25123,"lon":5.40346,"is_reserved":false,"is_disabled":false,"rental_uris":{"android":"levelo://app?vid=bff943d6-157c-4fde-8a62-68c660481aa5","ios":"levelo://app?vid=bff943d6-157c-4fde-8a62-68c660481aa5"},"vehicle_type_id":"4","last_reported":1740906512,"current_range_meters":14400,"station_id":"ce4bhlh2rcd13ifvqgig","pricing_plan_id":"cebpf4jnsgd1na2vs0mg"},{"bike_id":"6641d379-f97c-46bc-9a0d-767526e51f5d","system_id":"levelo_inurba_marseille","lat":43.25131,"lon":5.4032,"is_reserved":false,"is_disabled":false,"rental_uris":{"android":"levelo://app?vid=6641d379-f97c-46bc-9a0d-767526e51f5d","ios":"levelo://app?vid=6641d379-f97c-46bc-9a0d-767526e51f5d"},"vehicle_type_id":"4","last_reported":1740906512,"current_range_meters":14400,"station_id":"ce4bhlh2rcd13ifvqgig","pricing_plan_id":"cebpf4jnsgd1na2vs0mg"},{"bike_id":"d582d420-ad76-4943-9aaa-ec3ad66c7cfa","system_id":"levelo_inurba_marseille","lat":43.24064,"lon":5.37761,"is_reserved":false,"is_disabled":false,"rental_uris":{"android":"levelo://app?vid=d582d420-ad76-4943-9aaa-ec3ad66c7cfa","ios":"levelo://app?vid=d582d420-ad76-4943-9aaa-ec3ad66c7cfa"},"vehicle_type_id":"4","last_reported":1740906512,"current_range_meters":14400,"station_id":"ce4bhnp2rcd13ifvqgvg","pricing_plan_id":"cebpf4jnsgd1na2vs0mg"},{"bike_id":"3435514d-ac1e-4be3-a87f-54af706bc07c","system_id":"levelo_inurba_marseille","lat":43.30486,"lon":5.37894,"is_reserved":false,"is_disabled":false,"rental_uris":{"android":"levelo://app?vid=3435514d-ac1e-4be3-a87f-54af706bc07c","ios":"levelo://app?vid=3435514d-ac1e-4be3-a87f-54af706bc07c"},"vehicle_type_id":"4","last_reported":1740906512,"current_range_meters":15200,"station_id":"ce4bgup2rcd13ifvqcn0","pricing_plan_id":"cebpf4jnsgd1na2vs0mg"},{"bike_id":"83c87a3f-f875-4ca6-b287-fd750606da22","system_id":"levelo_inurba_marseille","lat":43.23192,"lon":5.39998,"is_reserved":false,"is_disabled":false,"rental_uris":{"android":"levelo://app?vid=83c87a3f-f875-4ca6-b287-fd750606da22","ios":"levelo://app?vid=83c87a3f-f875-4ca6-b287-fd750606da22"},"vehicle_type_id":"4","last_reported":1740906512,"current_range_meters":15200,"station_id":"ce4bhn12rcd13ifvqgqg","pricing_plan_id":"cebpf4jnsgd1na2vs0mg"},{"bike_id":"91cd1291-c326-482f-9ece-15bf98878fb6","system_id":"levelo_inurba_marseille","lat":43.31994,"lon":5.3814,"is_reserved":false,"is_disabled":false,"rental_uris":{"android":"levelo://app?vid=91cd1291-c326-482f-9ece-15bf98878fb6","ios":"levelo://app?vid=91cd1291-c326-482f-9ece-15bf98878fb6"},"vehicle_type_id":"4","last_reported":1740906512,"current_range_meters":15200,"station_id":"ce4bhr12rcd13ifvqhpg","pricing_plan_id":"cebpf4jnsgd1na2vs0mg"},{"bike_id":"fd2a23d4-87bf-4c92-a29f-6fc7c6c5fc9b","system_id":"levelo_inurba_marseille","lat":43.2997,"lon":5.37619,"is_reserved":false,"is_disabled":false,"rental_uris":{"android":"levelo://app?vid=fd2a23d4-87bf-4c92-a29f-6fc7c6c5fc9b","ios":"levelo://app?vid=fd2a23d4-87bf-4c92-a29f-6fc7c6c5fc9b"},"vehicle_type_id":"4","last_reported":1740906512,"current_range_meters":16000,"station_id":"","pricing_plan_id":"cebpf4jnsgd1na2vs0mg"},{"bike_id":"96090500-e92b-4618-a8ce-3e71815df01c","system_id":"levelo_inurba_marseille","lat":43.31065,"lon":5.38237,"is_reserved":false,"is_disabled":false,"rental_uris":{"android":"levelo://app?vid=96090500-e92b-4618-a8ce-3e71815df01c","ios":"levelo://app?vid=96090500-e92b-4618-a8ce-3e71815df01c"},"vehicle_type_id":"4","last_reported":1740906512,"current_range_meters":16000,"station_id":"","pricing_plan_id":"cebpf4jnsgd1na2vs0mg"},{"bike_id":"f46a3fbc-015d-42e0-85cc-af57e1da87be","system_id":"levelo_inurba_marseille","lat":43.297037,"lon":5.373232,"is_reserved":false,"is_disabled":false,"rental_uris":{"android":"levelo://app?vid=f46a3fbc-015d-42e0-85cc-af57e1da87be","ios":"levelo://app?vid=f46a3fbc-015d-42e0-85cc-af57e1da87be"},"vehicle_type_id":"4","last_reported":1740906512,"current_range_meters":16000,"station_id":"ce4bgk12rcd13ifvqbj0","pricing_plan_id":"cebpf4jnsgd1na2vs0mg"},{"bike_id":"021024b2-d7f2-4303-ad4b-64d047e1cf29","system_id":"levelo_inurba_marseille","lat":43.30944,"lon":5.40172,"is_reserved":false,"is_disabled":false,"rental_uris":{"android":"levelo://app?vid=021024b2-d7f2-4303-ad4b-64d047e1cf29","ios":"levelo://app?vid=021024b2-d7f2-4303-ad4b-64d047e1cf29"},"vehicle_type_id":"4","last_reported":1740906512,"current_range_meters":16000,"station_id":"ce4bgvp2rcd13ifvqct0","pricing_plan_id":"cebpf4jnsgd1na2vs0mg"},{"bike_id":"c48342d4-d5b4-4ddb-b19b-dd80bcfdee25","system_id":"levelo_inurba_marseille","lat":43.3042,"lon":5.39748,"is_reserved":false,"is_disabled":false,"rental_uris":{"android":"levelo://app?vid=c48342d4-d5b4-4ddb-b19b-dd80bcfdee25","ios":"levelo://app?vid=c48342d4-d5b4-4ddb-b19b-dd80bcfdee25"},"vehicle_type_id":"4","last_reported":1740906512,"current_range_meters":16000,"station_id":"ce4bh092rcd13ifvqd20","pricing_plan_id":"cebpf4jnsgd1na2vs0mg"},{"bike_id":"6d13a634-3969-4704-8104-ef55e819d437","system_id":"levelo_inurba_marseille","lat":43.275,"lon":5.4246,"is_reserved":false,"is_disabled":false,"rental_uris":{"android":"levelo://app?vid=6d13a634-3969-4704-8104-ef55e819d437","ios":"levelo://app?vid=6d13a634-3969-4704-8104-ef55e819d437"},"vehicle_type_id":"4","last_reported":1740906512,"current_range_meters":16000,"station_id":"ce4bhn92rcd13ifvqgrg","pricing_plan_id":"cebpf4jnsgd1na2vs0mg"},{"bike_id":"18ed809a-93be-4ceb-a90d-b4661309b51d","system_id":"levelo_inurba_marseille","lat":43.30929,"lon":5.37486,"is_reserved":false,"is_disabled":false,"rental_uris":{"android":"levelo://app?vid=18ed809a-93be-4ceb-a90d-b4661309b51d","ios":"levelo://app?vid=18ed809a-93be-4ceb-a90d-b4661309b51d"},"vehicle_type_id":"4","last_reported":1740906512,"current_range_meters":16400,"station_id":"","pricing_plan_id":"cebpf4jnsgd1na2vs0mg"},{"bike_id":"7b00d7fe-db87-497f-a3ab-7c741a134fc7","system_id":"levelo_inurba_marseille","lat":43.29679,"lon":5.37298,"is_reserved":false,"is_disabled":false,"rental_uris":{"android":"levelo://app?vid=7b00d7fe-db87-497f-a3ab-7c741a134fc7","ios":"levelo://app?vid=7b00d7fe-db87-497f-a3ab-7c741a134fc7"},"vehicle_type_id":"4","last_reported":1740906512,"current_range_meters":16400,"station_id":"ce4bgk12rcd13ifvqbj0","pricing_plan_id":"cebpf4jnsgd1na2vs0mg"},{"bike_id":"319abd2e-fb1d-4d18-9162-7ce610338051","system_id":"levelo_inurba_marseille","lat":43.31083,"lon":5.38351,"is_reserved":false,"is_disabled":false,"rental_uris":{"android":"levelo://app?vid=319abd2e-fb1d-4d18-9162-7ce610338051","ios":"levelo://app?vid=319abd2e-fb1d-4d18-9162-7ce610338051"},"vehicle_type_id":"4","last_reported":1740906512,"current_range_meters":16400,"station_id":"ce4bgv92rcd13ifvqcr0","pricing_plan_id":"cebpf4jnsgd1na2vs0mg"},{"bike_id":"86eaf335-11b7-40e5-aeb8-dc4ff2cf4e40","system_id":"levelo_inurba_marseille","lat":43.28033,"lon":5.36959,"is_reserved":false,"is_disabled":false,"rental_uris":{"android":"levelo://app?vid=86eaf335-11b7-40e5-aeb8-dc4ff2cf4e40","ios":"levelo://app?vid=86eaf335-11b7-40e5-aeb8-dc4ff2cf4e40"},"vehicle_type_id":"4","last_reported":1740906512,"current_range_meters":16400,"station_id":"ce4bha12rcd13ifvqef0","pricing_plan_id":"cebpf4jnsgd1na2vs0mg"},{"bike_id":"9181a5ec-449b-4ace-941b-8b0c1362c76f","system_id":"levelo_inurba_marseille","lat":43.26581,"lon":5.373,"is_reserved":false,"is_disabled":false,"rental_uris":{"android":"levelo://app?vid=9181a5ec-449b-4ace-941b-8b0c1362c76f","ios":"levelo://app?vid=9181a5ec-449b-4ace-941b-8b0c1362c76f"},"vehicle_type_id":"4","last_reported":1740906512,"current_range_meters":16400,"station_id":"ce4bhg12rcd13ifvqf70","pricing_plan_id":"cebpf4jnsgd1na2vs0mg"},{"bike_id":"d66b749a-0808-469e-b143-0787b08d816b","system_id":"levelo_inurba_marseille","lat":43.26217,"lon":5.37456,"is_reserved":false,"is_disabled":false,"rental_uris":{"android":"levelo://app?vid=d66b749a-0808-469e-b143-0787b08d816b","ios":"levelo://app?vid=d66b749a-0808-469e-b143-0787b08d816b"},"vehicle_type_id":"4","last_reported":1740906512,"current_range_meters":16400,"station_id":"ce4bhgp2rcd13ifvqfc0","pricing_plan_id":"cebpf4jnsgd1na2vs0mg"},{"bike_id":"0f05a555-e598-43c7-bb27-5b9b48daab9f","system_id":"levelo_inurba_marseille","lat":43.24403,"lon":5.37064,"is_reserved":false,"is_disabled":false,"rental_uris":{"android":"levelo://app?vid=0f05a555-e598-43c7-bb27-5b9b48daab9f","ios":"levelo://app?vid=0f05a555-e598-43c7-bb27-5b9b48daab9f"},"vehicle_type_id":"4","last_reported":1740906512,"current_range_meters":16400,"station_id":"ce4bhhh2rcd13ifvqfk0","pricing_plan_id":"cebpf4jnsgd1na2vs0mg"},{"bike_id":"5394a918-4b01-4a8a-88ce-d3c6273f3a78","system_id":"levelo_inurba_marseille","lat":43.23186,"lon":5.39991,"is_reserved":false,"is_disabled":false,"rental_uris":{"android":"levelo://app?vid=5394a918-4b01-4a8a-88ce-d3c6273f3a78","ios":"levelo://app?vid=5394a918-4b01-4a8a-88ce-d3c6273f3a78"},"vehicle_type_id":"4","last_reported":1740906512,"current_range_meters":16400,"station_id":"ce4bhn12rcd13ifvqgqg","pricing_plan_id":"cebpf4jnsgd1na2vs0mg"},{"bike_id":"c5b35fc3-133b-4fcd-9bc1-000b1b46221f","system_id":"levelo_inurba_marseille","lat":43.24155,"lon":5.36405,"is_reserved":false,"is_disabled":false,"rental_uris":{"android":"levelo://app?vid=c5b35fc3-133b-4fcd-9bc1-000b1b46221f","ios":"levelo://app?vid=c5b35fc3-133b-4fcd-9bc1-000b1b46221f"},"vehicle_type_id":"4","last_reported":1740906512,"current_range_meters":16400,"station_id":"cpo36qri1sfpv3e86is0","pricing_plan_id":"cebpf4jnsgd1na2vs0mg"},{"bike_id":"d29e82e5-442b-4177-903e-3742ab7d0a8c","system_id":"levelo_inurba_marseille","lat":43.30044,"lon":5.37425,"is_reserved":false,"is_disabled":false,"rental_uris":{"android":"levelo://app?vid=d29e82e5-442b-4177-903e-3742ab7d0a8c","ios":"levelo://app?vid=d29e82e5-442b-4177-903e-3742ab7d0a8c"},"vehicle_type_id":"4","last_reported":1740906512,"current_range_meters":16800,"station_id":"","pricing_plan_id":"cebpf4jnsgd1na2vs0mg"},{"bike_id":"cc836fe0-3cfd-4fe9-beb4-1fec15d76872","system_id":"levelo_inurba_marseille","lat":43.30429,"lon":5.37356,"is_reserved":false,"is_disabled":false,"rental_uris":{"android":"levelo://app?vid=cc836fe0-3cfd-4fe9-beb4-1fec15d76872","ios":"levelo://app?vid=cc836fe0-3cfd-4fe9-beb4-1fec15d76872"},"vehicle_type_id":"4","last_reported":1740906512,"current_range_meters":16800,"station_id":"","pricing_plan_id":"cebpf4jnsgd1na2vs0mg"},{"bike_id":"deffce95-b5c0-417b-9e47-20e943ab4dfb","system_id":"levelo_inurba_marseille","lat":43.3138,"lon":5.3671,"is_reserved":false,"is_disabled":false,"rental_uris":{"android":"levelo://app?vid=deffce95-b5c0-417b-9e47-20e943ab4dfb","ios":"levelo://app?vid=deffce95-b5c0-417b-9e47-20e943ab4dfb"},"vehicle_type_id":"4","last_reported":1740906512,"current_range_meters":16800,"station_id":"ce4bgr92rcd13ifvqc6g","pricing_plan_id":"cebpf4jnsgd1na2vs0mg"},{"bike_id":"e69260b5-1711-443e-b6f4-5183d73c03cb","system_id":"levelo_inurba_marseille","lat":43.31391,"lon":5.38504,"is_reserved":false,"is_disabled":false,"rental_uris":{"android":"levelo://app?vid=e69260b5-1711-443e-b6f4-5183d73c03cb","ios":"levelo://app?vid=e69260b5-1711-443e-b6f4-5183d73c03cb"},"vehicle_type_id":"4","last_reported":1740906512,"current_range_meters":16800,"station_id":"ce4bgt92rcd13ifvqcf0","pricing_plan_id":"cebpf4jnsgd1na2vs0mg"},{"bike_id":"7db43eb6-7958-4186-b8b9-e43251749c5b","system_id":"levelo_inurba_marseille","lat":43.286743,"lon":5.363745,"is_reserved":false,"is_disabled":false,"rental_uris":{"android":"levelo://app?vid=7db43eb6-7958-4186-b8b9-e43251749c5b","ios":"levelo://app?vid=7db43eb6-7958-4186-b8b9-e43251749c5b"},"vehicle_type_id":"4","last_reported":1740906512,"current_range_meters":16800,"station_id":"ce4bhah2rcd13ifvqej0","pricing_plan_id":"cebpf4jnsgd1na2vs0mg"},{"bike_id":"35de5d9e-453d-4b6e-a49a-d72de279088a","system_id":"levelo_inurba_marseille","lat":43.2619,"lon":5.3746,"is_reserved":false,"is_disabled":false,"rental_uris":{"android":"levelo://app?vid=35de5d9e-453d-4b6e-a49a-d72de279088a","ios":"levelo://app?vid=35de5d9e-453d-4b6e-a49a-d72de279088a"},"vehicle_type_id":"4","last_reported":1740906512,"current_range_meters":16800,"station_id":"ce4bhgp2rcd13ifvqfc0","pricing_plan_id":"cebpf4jnsgd1na2vs0mg"},{"bike_id":"eb5d9bae-61e9-40c0-9bed-5bb20f6ccc63","system_id":"levelo_inurba_marseille","lat":43.26217,"lon":5.37442,"is_reserved":false,"is_disabled":false,"rental_uris":{"android":"levelo://app?vid=eb5d9bae-61e9-40c0-9bed-5bb20f6ccc63","ios":"levelo://app?vid=eb5d9bae-61e9-40c0-9bed-5bb20f6ccc63"},"vehicle_type_id":"4","last_reported":1740906512,"current_range_meters":16800,"station_id":"ce4bhgp2rcd13ifvqfc0","pricing_plan_id":"cebpf4jnsgd1na2vs0mg"},{"bike_id":"6ce3bdcf-eed3-49ef-9944-a3960ea63367","system_id":"levelo_inurba_marseille","lat":43.24994,"lon":5.38949,"is_reserved":false,"is_disabled":false,"rental_uris":{"android":"levelo://app?vid=6ce3bdcf-eed3-49ef-9944-a3960ea63367","ios":"levelo://app?vid=6ce3bdcf-eed3-49ef-9944-a3960ea63367"},"vehicle_type_id":"4","last_reported":1740906512,"current_range_meters":16800,"station_id":"ce4bhgp2rcd13ifvqfd0","pricing_plan_id":"cebpf4jnsgd1na2vs0mg"},{"bike_id":"d741aaf3-6062-460e-b109-b5b0486e37ac","system_id":"levelo_inurba_marseille","lat":43.29552,"lon":5.4228,"is_reserved":false,"is_disabled":false,"rental_uris":{"android":"levelo://app?vid=d741aaf3-6062-460e-b109-b5b0486e37ac","ios":"levelo://app?vid=d741aaf3-6062-460e-b109-b5b0486e37ac"},"vehicle_type_id":"4","last_reported":1740906512,"current_range_meters":16800,"station_id":"ce4bhph2rcd13ifvqhdg","pricing_plan_id":"cebpf4jnsgd1na2vs0mg"},{"bike_id":"982a6c2e-2f14-45e6-81c3-569abb57b097","system_id":"levelo_inurba_marseille","lat":43.23063,"lon":5.35497,"is_reserved":false,"is_disabled":false,"rental_uris":{"android":"levelo://app?vid=982a6c2e-2f14-45e6-81c3-569abb57b097","ios":"levelo://app?vid=982a6c2e-2f14-45e6-81c3-569abb57b097"},"vehicle_type_id":"4","last_reported":1740906512,"current_range_meters":16800,"station_id":"cpo3342slgdg3j2ifvpg","pricing_plan_id":"cebpf4jnsgd1na2vs0mg"},{"bike_id":"8c418afa-4a43-45d0-83c2-1c17c420fa81","system_id":"levelo_inurba_marseille","lat":43.26222,"lon":5.37496,"is_reserved":false,"is_disabled":false,"rental_uris":{"android":"levelo://app?vid=8c418afa-4a43-45d0-83c2-1c17c420fa81","ios":"levelo://app?vid=8c418afa-4a43-45d0-83c2-1c17c420fa81"},"vehicle_type_id":"4","last_reported":1740906512,"current_range_meters":17200,"station_id":"","pricing_plan_id":"cebpf4jnsgd1na2vs0mg"},{"bike_id":"719ef6db-c414-43d3-8272-8f3b5ad61202","system_id":"levelo_inurba_marseille","lat":43.29519,"lon":5.37544,"is_reserved":false,"is_disabled":false,"rental_uris":{"android":"levelo://app?vid=719ef6db-c414-43d3-8272-8f3b5ad61202","ios":"levelo://app?vid=719ef6db-c414-43d3-8272-8f3b5ad61202"},"vehicle_type_id":"4","last_reported":1740906512,"current_range_meters":17200,"station_id":"ce4bgkp2rcd13ifvqbmg","pricing_plan_id":"cebpf4jnsgd1na2vs0mg"},{"bike_id":"820c8b76-0cf5-4dee-be14-6b64711321ad","system_id":"levelo_inurba_marseille","lat":43.284668,"lon":5.358805,"is_reserved":false,"is_disabled":false,"rental_uris":{"android":"levelo://app?vid=820c8b76-0cf5-4dee-be14-6b64711321ad","ios":"levelo://app?vid=820c8b76-0cf5-4dee-be14-6b64711321ad"},"vehicle_type_id":"4","last_reported":1740906512,"current_range_meters":17200,"station_id":"ce4bhah2rcd13ifvqei0","pricing_plan_id":"cebpf4jnsgd1na2vs0mg"},{"bike_id":"b7bc7bab-d4be-4174-a464-7dffb7fd3700","system_id":"levelo_inurba_marseille","lat":43.27896,"lon":5.39575,"is_reserved":false,"is_disabled":false,"rental_uris":{"android":"levelo://app?vid=b7bc7bab-d4be-4174-a464-7dffb7fd3700","ios":"levelo://app?vid=b7bc7bab-d4be-4174-a464-7dffb7fd3700"},"vehicle_type_id":"4","last_reported":1740906512,"current_range_meters":17200,"station_id":"ce4bhf92rcd13ifvqf40","pricing_plan_id":"cebpf4jnsgd1na2vs0mg"},{"bike_id":"7677f52e-c269-4ae6-9a4d-a36f51bf4aea","system_id":"levelo_inurba_marseille","lat":43.2797,"lon":5.38722,"is_reserved":false,"is_disabled":false,"rental_uris":{"android":"levelo://app?vid=7677f52e-c269-4ae6-9a4d-a36f51bf4aea","ios":"levelo://app?vid=7677f52e-c269-4ae6-9a4d-a36f51bf4aea"},"vehicle_type_id":"4","last_reported":1740906512,"current_range_meters":17200,"station_id":"ce4bhg12rcd13ifvqf80","pricing_plan_id":"cebpf4jnsgd1na2vs0mg"},{"bike_id":"2da2b4ec-c898-4dfc-9971-62b8e5fc309c","system_id":"levelo_inurba_marseille","lat":43.24802,"lon":5.37458,"is_reserved":false,"is_disabled":false,"rental_uris":{"android":"levelo://app?vid=2da2b4ec-c898-4dfc-9971-62b8e5fc309c","ios":"levelo://app?vid=2da2b4ec-c898-4dfc-9971-62b8e5fc309c"},"vehicle_type_id":"4","last_reported":1740906512,"current_range_meters":17200,"station_id":"ce4bhgh2rcd13ifvqfb0","pricing_plan_id":"cebpf4jnsgd1na2vs0mg"},{"bike_id":"46b42730-9dd3-44c5-91a9-d6d931f385c3","system_id":"levelo_inurba_marseille","lat":43.254915,"lon":5.376577,"is_reserved":false,"is_disabled":false,"rental_uris":{"android":"levelo://app?vid=46b42730-9dd3-44c5-91a9-d6d931f385c3","ios":"levelo://app?vid=46b42730-9dd3-44c5-91a9-d6d931f385c3"},"vehicle_type_id":"4","last_reported":1740906512,"current_range_meters":17200,"station_id":"ce4bhh12rcd13ifvqff0","pricing_plan_id":"cebpf4jnsgd1na2vs0mg"},{"bike_id":"670122a3-157a-4ef1-82d1-a5574649dac0","system_id":"levelo_inurba_marseille","lat":43.23947,"lon":5.36631,"is_reserved":false,"is_disabled":false,"rental_uris":{"android":"levelo://app?vid=670122a3-157a-4ef1-82d1-a5574649dac0","ios":"levelo://app?vid=670122a3-157a-4ef1-82d1-a5574649dac0"},"vehicle_type_id":"4","last_reported":1740906512,"current_range_meters":17200,"station_id":"ce4bhi12rcd13ifvqfp0","pricing_plan_id":"cebpf4jnsgd1na2vs0mg"},{"bike_id":"0b85d778-5f42-41f6-99e6-93c2062ce94d","system_id":"levelo_inurba_marseille","lat":43.31699,"lon":5.43711,"is_reserved":false,"is_disabled":false,"rental_uris":{"android":"levelo://app?vid=0b85d778-5f42-41f6-99e6-93c2062ce94d","ios":"levelo://app?vid=0b85d778-5f42-41f6-99e6-93c2062ce94d"},"vehicle_type_id":"4","last_reported":1740906512,"current_range_meters":17200,"station_id":"ce4bhp92rcd13ifvqhcg","pricing_plan_id":"cebpf4jnsgd1na2vs0mg"},{"bike_id":"5e9383e6-d569-4323-b86a-253cf010007a","system_id":"levelo_inurba_marseille","lat":43.30139,"lon":5.39863,"is_reserved":false,"is_disabled":false,"rental_uris":{"android":"levelo://app?vid=5e9383e6-d569-4323-b86a-253cf010007a","ios":"levelo://app?vid=5e9383e6-d569-4323-b86a-253cf010007a"},"vehicle_type_id":"4","last_reported":1740906512,"current_range_meters":17600,"station_id":"ce4bh0h2rcd13ifvqd40","pricing_plan_id":"cebpf4jnsgd1na2vs0mg"},{"bike_id":"bff98128-9c93-42f8-9f97-dafd3a25a319","system_id":"levelo_inurba_marseille","lat":43.29193,"lon":5.35804,"is_reserved":false,"is_disabled":false,"rental_uris":{"android":"levelo://app?vid=bff98128-9c93-42f8-9f97-dafd3a25a319","ios":"levelo://app?vid=bff98128-9c93-42f8-9f97-dafd3a25a319"},"vehicle_type_id":"4","last_reported":1740906512,"current_range_meters":17600,"station_id":"ce4bhb12rcd13ifvqel0","pricing_plan_id":"cebpf4jnsgd1na2vs0mg"},{"bike_id":"417fbd7d-d6d8-4c3a-98dd-ce0156edb9f1","system_id":"levelo_inurba_marseille","lat":43.28425,"lon":5.3498,"is_reserved":false,"is_disabled":false,"rental_uris":{"android":"levelo://app?vid=417fbd7d-d6d8-4c3a-98dd-ce0156edb9f1","ios":"levelo://app?vid=417fbd7d-d6d8-4c3a-98dd-ce0156edb9f1"},"vehicle_type_id":"4","last_reported":1740906512,"current_range_meters":17600,"station_id":"ce4bhbh2rcd13ifvqepg","pricing_plan_id":"cebpf4jnsgd1na2vs0mg"},{"bike_id":"aa6a3d6e-55a5-4093-b598-d24e4a99a410","system_id":"levelo_inurba_marseille","lat":43.27566,"lon":5.38433,"is_reserved":false,"is_disabled":false,"rental_uris":{"android":"levelo://app?vid=aa6a3d6e-55a5-4093-b598-d24e4a99a410","ios":"levelo://app?vid=aa6a3d6e-55a5-4093-b598-d24e4a99a410"},"vehicle_type_id":"4","last_reported":1740906512,"current_range_meters":17600,"station_id":"ce4bhh92rcd13ifvqfi0","pricing_plan_id":"cebpf4jnsgd1na2vs0mg"},{"bike_id":"d7455ef1-0ce2-47d7-a2ab-1379fc9a165f","system_id":"levelo_inurba_marseille","lat":43.27625,"lon":5.36124,"is_reserved":false,"is_disabled":false,"rental_uris":{"android":"levelo://app?vid=d7455ef1-0ce2-47d7-a2ab-1379fc9a165f","ios":"levelo://app?vid=d7455ef1-0ce2-47d7-a2ab-1379fc9a165f"},"vehicle_type_id":"4","last_reported":1740906512,"current_range_meters":18000,"station_id":"ce4bgj92rcd13ifvqbe0","pricing_plan_id":"cebpf4jnsgd1na2vs0mg"},{"bike_id":"ed3fdd04-4f01-4dec-bae0-dc817c8e7da9","system_id":"levelo_inurba_marseille","lat":43.30642,"lon":5.37212,"is_reserved":false,"is_disabled":false,"rental_uris":{"android":"levelo://app?vid=ed3fdd04-4f01-4dec-bae0-dc817c8e7da9","ios":"levelo://app?vid=ed3fdd04-4f01-4dec-bae0-dc817c8e7da9"},"vehicle_type_id":"4","last_reported":1740906512,"current_range_meters":18000,"station_id":"ce4bgqh2rcd13ifvqc4g","pricing_plan_id":"cebpf4jnsgd1na2vs0mg"},{"bike_id":"ae8b146d-daad-47c5-8235-24ea2da30b35","system_id":"levelo_inurba_marseille","lat":43.31121,"lon":5.37768,"is_reserved":false,"is_disabled":false,"rental_uris":{"android":"levelo://app?vid=ae8b146d-daad-47c5-8235-24ea2da30b35","ios":"levelo://app?vid=ae8b146d-daad-47c5-8235-24ea2da30b35"},"vehicle_type_id":"4","last_reported":1740906512,"current_range_meters":18000,"station_id":"ce4bgt92rcd13ifvqcg0","pricing_plan_id":"cebpf4jnsgd1na2vs0mg"},{"bike_id":"2c6be751-3c58-4407-b1d2-da7d26abef79","system_id":"levelo_inurba_marseille","lat":43.30965,"lon":5.39034,"is_reserved":false,"is_disabled":false,"rental_uris":{"android":"levelo://app?vid=2c6be751-3c58-4407-b1d2-da7d26abef79","ios":"levelo://app?vid=2c6be751-3c58-4407-b1d2-da7d26abef79"},"vehicle_type_id":"4","last_reported":1740906512,"current_range_meters":18000,"station_id":"ce4bgup2rcd13ifvqco0","pricing_plan_id":"cebpf4jnsgd1na2vs0mg"},{"bike_id":"f272d3eb-5b50-4b03-a07b-597d54e42bc1","system_id":"levelo_inurba_marseille","lat":43.311671,"lon":5.387071,"is_reserved":false,"is_disabled":false,"rental_uris":{"android":"levelo://app?vid=f272d3eb-5b50-4b03-a07b-597d54e42bc1","ios":"levelo://app?vid=f272d3eb-5b50-4b03-a07b-597d54e42bc1"},"vehicle_type_id":"4","last_reported":1740906512,"current_range_meters":18000,"station_id":"ce4bgv12rcd13ifvqcp0","pricing_plan_id":"cebpf4jnsgd1na2vs0mg"},{"bike_id":"a0203017-7af2-42d1-8cbe-20465dd07b9e","system_id":"levelo_inurba_marseille","lat":43.31712,"lon":5.40456,"is_reserved":false,"is_disabled":false,"rental_uris":{"android":"levelo://app?vid=a0203017-7af2-42d1-8cbe-20465dd07b9e","ios":"levelo://app?vid=a0203017-7af2-42d1-8cbe-20465dd07b9e"},"vehicle_type_id":"4","last_reported":1740906512,"current_range_meters":18000,"station_id":"ce4bh012rcd13ifvqd00","pricing_plan_id":"cebpf4jnsgd1na2vs0mg"},{"bike_id":"6a2292a1-a61f-4b87-8a48-2984c20e944f","system_id":"levelo_inurba_marseille","lat":43.30136,"lon":5.39843,"is_reserved":false,"is_disabled":false,"rental_uris":{"android":"levelo://app?vid=6a2292a1-a61f-4b87-8a48-2984c20e944f","ios":"levelo://app?vid=6a2292a1-a61f-4b87-8a48-2984c20e944f"},"vehicle_type_id":"4","last_reported":1740906512,"current_range_meters":18000,"station_id":"ce4bh0h2rcd13ifvqd40","pricing_plan_id":"cebpf4jnsgd1na2vs0mg"},{"bike_id":"eaa57fee-06ba-46a7-9e6a-dc1c754f60a1","system_id":"levelo_inurba_marseille","lat":43.306483,"lon":5.400953,"is_reserved":false,"is_disabled":false,"rental_uris":{"android":"levelo://app?vid=eaa57fee-06ba-46a7-9e6a-dc1c754f60a1","ios":"levelo://app?vid=eaa57fee-06ba-46a7-9e6a-dc1c754f60a1"},"vehicle_type_id":"4","last_reported":1740906512,"current_range_meters":18000,"station_id":"ce4bh112rcd13ifvqda0","pricing_plan_id":"cebpf4jnsgd1na2vs0mg"},{"bike_id":"ffdcdbfc-09a4-45b1-9bf2-534681bcb080","system_id":"levelo_inurba_marseille","lat":43.26183,"lon":5.374658,"is_reserved":false,"is_disabled":false,"rental_uris":{"android":"levelo://app?vid=ffdcdbfc-09a4-45b1-9bf2-534681bcb080","ios":"levelo://app?vid=ffdcdbfc-09a4-45b1-9bf2-534681bcb080"},"vehicle_type_id":"4","last_reported":1740906512,"current_range_meters":18000,"station_id":"ce4bhgp2rcd13ifvqfc0","pricing_plan_id":"cebpf4jnsgd1na2vs0mg"},{"bike_id":"426a327e-17c2-4196-b926-96fb1c073c2b","system_id":"levelo_inurba_marseille","lat":43.27325,"lon":5.3912,"is_reserved":false,"is_disabled":false,"rental_uris":{"android":"levelo://app?vid=426a327e-17c2-4196-b926-96fb1c073c2b","ios":"levelo://app?vid=426a327e-17c2-4196-b926-96fb1c073c2b"},"vehicle_type_id":"4","last_reported":1740906512,"current_range_meters":18000,"station_id":"ce4bhgp2rcd13ifvqfe0","pricing_plan_id":"cebpf4jnsgd1na2vs0mg"},{"bike_id":"52c30768-823c-4f29-9a33-bf074f73acb0","system_id":"levelo_inurba_marseille","lat":43.28059,"lon":5.39688,"is_reserved":false,"is_disabled":false,"rental_uris":{"android":"levelo://app?vid=52c30768-823c-4f29-9a33-bf074f73acb0","ios":"levelo://app?vid=52c30768-823c-4f29-9a33-bf074f73acb0"},"vehicle_type_id":"4","last_reported":1740906512,"current_range_meters":18000,"station_id":"ce4bho12rcd13ifvqh2g","pricing_plan_id":"cebpf4jnsgd1na2vs0mg"},{"bike_id":"815d7400-5b5f-493d-b032-6bb79e6a8b09","system_id":"levelo_inurba_marseille","lat":43.33008,"lon":5.3904,"is_reserved":false,"is_disabled":false,"rental_uris":{"android":"levelo://app?vid=815d7400-5b5f-493d-b032-6bb79e6a8b09","ios":"levelo://app?vid=815d7400-5b5f-493d-b032-6bb79e6a8b09"},"vehicle_type_id":"4","last_reported":1740906512,"current_range_meters":18000,"station_id":"ce4bhr92rcd13ifvqhrg","pricing_plan_id":"cebpf4jnsgd1na2vs0mg"},{"bike_id":"32fae168-5de4-475a-bd55-4a77931437e4","system_id":"levelo_inurba_marseille","lat":43.2453,"lon":5.39864,"is_reserved":false,"is_disabled":false,"rental_uris":{"android":"levelo://app?vid=32fae168-5de4-475a-bd55-4a77931437e4","ios":"levelo://app?vid=32fae168-5de4-475a-bd55-4a77931437e4"},"vehicle_type_id":"4","last_reported":1740906512,"current_range_meters":18800,"station_id":"","pricing_plan_id":"cebpf4jnsgd1na2vs0mg"},{"bike_id":"b58db059-3276-43ce-bdfe-55757589d75b","system_id":"levelo_inurba_marseille","lat":43.31141,"lon":5.38742,"is_reserved":false,"is_disabled":false,"rental_uris":{"android":"levelo://app?vid=b58db059-3276-43ce-bdfe-55757589d75b","ios":"levelo://app?vid=b58db059-3276-43ce-bdfe-55757589d75b"},"vehicle_type_id":"4","last_reported":1740906512,"current_range_meters":18800,"station_id":"ce4bgv12rcd13ifvqcp0","pricing_plan_id":"cebpf4jnsgd1na2vs0mg"},{"bike_id":"d7d5621a-531b-4f63-99b0-ea5b09b24407","system_id":"levelo_inurba_marseille","lat":43.24649,"lon":5.389,"is_reserved":false,"is_disabled":false,"rental_uris":{"android":"levelo://app?vid=d7d5621a-531b-4f63-99b0-ea5b09b24407","ios":"levelo://app?vid=d7d5621a-531b-4f63-99b0-ea5b09b24407"},"vehicle_type_id":"4","last_reported":1740906512,"current_range_meters":18800,"station_id":"ce4bhg12rcd13ifvqf60","pricing_plan_id":"cebpf4jnsgd1na2vs0mg"},{"bike_id":"84e0ff70-61ba-47da-bc86-d92fd2f41654","system_id":"levelo_inurba_marseille","lat":43.24984,"lon":5.38963,"is_reserved":false,"is_disabled":false,"rental_uris":{"android":"levelo://app?vid=84e0ff70-61ba-47da-bc86-d92fd2f41654","ios":"levelo://app?vid=84e0ff70-61ba-47da-bc86-d92fd2f41654"},"vehicle_type_id":"4","last_reported":1740906512,"current_range_meters":18800,"station_id":"ce4bhgp2rcd13ifvqfd0","pricing_plan_id":"cebpf4jnsgd1na2vs0mg"},{"bike_id":"069c1166-5158-41b3-9977-e5085ec6d73e","system_id":"levelo_inurba_marseille","lat":43.30465,"lon":5.38924,"is_reserved":false,"is_disabled":false,"rental_uris":{"android":"levelo://app?vid=069c1166-5158-41b3-9977-e5085ec6d73e","ios":"levelo://app?vid=069c1166-5158-41b3-9977-e5085ec6d73e"},"vehicle_type_id":"4","last_reported":1740906512,"current_range_meters":19200,"station_id":"","pricing_plan_id":"cebpf4jnsgd1na2vs0mg"},{"bike_id":"efeefb48-ee5c-4fea-87d0-1910089a3e45","system_id":"levelo_inurba_marseille","lat":43.276123,"lon":5.361064,"is_reserved":false,"is_disabled":false,"rental_uris":{"android":"levelo://app?vid=efeefb48-ee5c-4fea-87d0-1910089a3e45","ios":"levelo://app?vid=efeefb48-ee5c-4fea-87d0-1910089a3e45"},"vehicle_type_id":"4","last_reported":1740906512,"current_range_meters":19200,"station_id":"ce4bgj92rcd13ifvqbe0","pricing_plan_id":"cebpf4jnsgd1na2vs0mg"},{"bike_id":"453068aa-c17d-43bf-9cdd-03e2ddd93a1e","system_id":"levelo_inurba_marseille","lat":43.309114,"lon":5.368449,"is_reserved":false,"is_disabled":false,"rental_uris":{"android":"levelo://app?vid=453068aa-c17d-43bf-9cdd-03e2ddd93a1e","ios":"levelo://app?vid=453068aa-c17d-43bf-9cdd-03e2ddd93a1e"},"vehicle_type_id":"4","last_reported":1740906512,"current_range_meters":19200,"station_id":"ce4bgn92rcd13ifvqbvg","pricing_plan_id":"cebpf4jnsgd1na2vs0mg"},{"bike_id":"d1c0e715-6329-4d33-8e66-23065f23123c","system_id":"levelo_inurba_marseille","lat":43.28388,"lon":5.34988,"is_reserved":false,"is_disabled":false,"rental_uris":{"android":"levelo://app?vid=d1c0e715-6329-4d33-8e66-23065f23123c","ios":"levelo://app?vid=d1c0e715-6329-4d33-8e66-23065f23123c"},"vehicle_type_id":"4","last_reported":1740906512,"current_range_meters":19200,"station_id":"ce4bhbh2rcd13ifvqepg","pricing_plan_id":"cebpf4jnsgd1na2vs0mg"},{"bike_id":"8b8dac59-5a32-461f-b294-2e7dfb0d9559","system_id":"levelo_inurba_marseille","lat":43.24818,"lon":5.3746,"is_reserved":false,"is_disabled":false,"rental_uris":{"android":"levelo://app?vid=8b8dac59-5a32-461f-b294-2e7dfb0d9559","ios":"levelo://app?vid=8b8dac59-5a32-461f-b294-2e7dfb0d9559"},"vehicle_type_id":"4","last_reported":1740906512,"current_range_meters":19200,"station_id":"ce4bhgh2rcd13ifvqfb0","pricing_plan_id":"cebpf4jnsgd1na2vs0mg"},{"bike_id":"67a0de88-ba36-4298-b13d-b95a224ba097","system_id":"levelo_inurba_marseille","lat":43.270753,"lon":5.422773,"is_reserved":false,"is_disabled":false,"rental_uris":{"android":"levelo://app?vid=67a0de88-ba36-4298-b13d-b95a224ba097","ios":"levelo://app?vid=67a0de88-ba36-4298-b13d-b95a224ba097"},"vehicle_type_id":"4","last_reported":1740906512,"current_range_meters":19200,"station_id":"ce4bhk92rcd13ifvqgb0","pricing_plan_id":"cebpf4jnsgd1na2vs0mg"},{"bike_id":"af96de68-672c-4869-9dea-d06f90b00b70","system_id":"levelo_inurba_marseille","lat":43.26248,"lon":5.40465,"is_reserved":false,"is_disabled":false,"rental_uris":{"android":"levelo://app?vid=af96de68-672c-4869-9dea-d06f90b00b70","ios":"levelo://app?vid=af96de68-672c-4869-9dea-d06f90b00b70"},"vehicle_type_id":"4","last_reported":1740906512,"current_range_meters":19200,"station_id":"ce4bhmh2rcd13ifvqgmg","pricing_plan_id":"cebpf4jnsgd1na2vs0mg"},{"bike_id":"c998d71d-70fb-4a65-865b-053b01eba41f","system_id":"levelo_inurba_marseille","lat":43.27488,"lon":5.42454,"is_reserved":false,"is_disabled":false,"rental_uris":{"android":"levelo://app?vid=c998d71d-70fb-4a65-865b-053b01eba41f","ios":"levelo://app?vid=c998d71d-70fb-4a65-865b-053b01eba41f"},"vehicle_type_id":"4","last_reported":1740906512,"current_range_meters":19200,"station_id":"ce4bhn92rcd13ifvqgrg","pricing_plan_id":"cebpf4jnsgd1na2vs0mg"},{"bike_id":"76f0ecc2-74d2-4458-9089-c4bdf8553e65","system_id":"levelo_inurba_marseille","lat":43.27181,"lon":5.41866,"is_reserved":false,"is_disabled":false,"rental_uris":{"android":"levelo://app?vid=76f0ecc2-74d2-4458-9089-c4bdf8553e65","ios":"levelo://app?vid=76f0ecc2-74d2-4458-9089-c4bdf8553e65"},"vehicle_type_id":"4","last_reported":1740906512,"current_range_meters":19600,"station_id":"","pricing_plan_id":"cebpf4jnsgd1na2vs0mg"},{"bike_id":"fc340232-711b-42bd-877d-07c90d091e4a","system_id":"levelo_inurba_marseille","lat":43.30542,"lon":5.36535,"is_reserved":false,"is_disabled":false,"rental_uris":{"android":"levelo://app?vid=fc340232-711b-42bd-877d-07c90d091e4a","ios":"levelo://app?vid=fc340232-711b-42bd-877d-07c90d091e4a"},"vehicle_type_id":"4","last_reported":1740906512,"current_range_meters":19600,"station_id":"ce4bgs12rcd13ifvqcag","pricing_plan_id":"cebpf4jnsgd1na2vs0mg"},{"bike_id":"724aa8a6-9860-420a-85a8-0833ed500836","system_id":"levelo_inurba_marseille","lat":43.31082,"lon":5.37777,"is_reserved":false,"is_disabled":false,"rental_uris":{"android":"levelo://app?vid=724aa8a6-9860-420a-85a8-0833ed500836","ios":"levelo://app?vid=724aa8a6-9860-420a-85a8-0833ed500836"},"vehicle_type_id":"4","last_reported":1740906512,"current_range_meters":19600,"station_id":"ce4bgt92rcd13ifvqcg0","pricing_plan_id":"cebpf4jnsgd1na2vs0mg"},{"bike_id":"3b77ce11-c991-41c5-aaeb-e13aac4b5826","system_id":"levelo_inurba_marseille","lat":43.317057,"lon":5.40447,"is_reserved":false,"is_disabled":false,"rental_uris":{"android":"levelo://app?vid=3b77ce11-c991-41c5-aaeb-e13aac4b5826","ios":"levelo://app?vid=3b77ce11-c991-41c5-aaeb-e13aac4b5826"},"vehicle_type_id":"4","last_reported":1740906512,"current_range_meters":19600,"station_id":"ce4bh012rcd13ifvqd00","pricing_plan_id":"cebpf4jnsgd1na2vs0mg"},{"bike_id":"bdcb3a76-1fb1-4027-8ea9-2f7950d1e77a","system_id":"levelo_inurba_marseille","lat":43.23174,"lon":5.40001,"is_reserved":false,"is_disabled":false,"rental_uris":{"android":"levelo://app?vid=bdcb3a76-1fb1-4027-8ea9-2f7950d1e77a","ios":"levelo://app?vid=bdcb3a76-1fb1-4027-8ea9-2f7950d1e77a"},"vehicle_type_id":"4","last_reported":1740906512,"current_range_meters":19600,"station_id":"ce4bhn12rcd13ifvqgqg","pricing_plan_id":"cebpf4jnsgd1na2vs0mg"},{"bike_id":"76394e5b-b5d3-409a-954a-e09b2559a295","system_id":"levelo_inurba_marseille","lat":43.23197,"lon":5.35556,"is_reserved":false,"is_disabled":false,"rental_uris":{"android":"levelo://app?vid=76394e5b-b5d3-409a-954a-e09b2559a295","ios":"levelo://app?vid=76394e5b-b5d3-409a-954a-e09b2559a295"},"vehicle_type_id":"4","last_reported":1740906512,"current_range_meters":19600,"station_id":"ce4bhu92rcd13ifvqi70","pricing_plan_id":"cebpf4jnsgd1na2vs0mg"},{"bike_id":"ee64b076-db53-4a07-8a61-f790fb3d7f18","system_id":"levelo_inurba_marseille","lat":43.29598,"lon":5.37335,"is_reserved":false,"is_disabled":false,"rental_uris":{"android":"levelo://app?vid=ee64b076-db53-4a07-8a61-f790fb3d7f18","ios":"levelo://app?vid=ee64b076-db53-4a07-8a61-f790fb3d7f18"},"vehicle_type_id":"4","last_reported":1740906512,"current_range_meters":20000,"station_id":"","pricing_plan_id":"cebpf4jnsgd1na2vs0mg"},{"bike_id":"6bb507ed-81ef-4820-85a8-c7226219068f","system_id":"levelo_inurba_marseille","lat":43.302732,"lon":5.377207,"is_reserved":false,"is_disabled":false,"rental_uris":{"android":"levelo://app?vid=6bb507ed-81ef-4820-85a8-c7226219068f","ios":"levelo://app?vid=6bb507ed-81ef-4820-85a8-c7226219068f"},"vehicle_type_id":"4","last_reported":1740906512,"current_range_meters":20000,"station_id":"ce4bguh2rcd13ifvqcj0","pricing_plan_id":"cebpf4jnsgd1na2vs0mg"},{"bike_id":"a06ffb0f-b127-4dfb-b837-a459af22c2c9","system_id":"levelo_inurba_marseille","lat":43.284892,"lon":5.385766,"is_reserved":false,"is_disabled":false,"rental_uris":{"android":"levelo://app?vid=a06ffb0f-b127-4dfb-b837-a459af22c2c9","ios":"levelo://app?vid=a06ffb0f-b127-4dfb-b837-a459af22c2c9"},"vehicle_type_id":"4","last_reported":1740906512,"current_range_meters":20000,"station_id":"ce4bh8p2rcd13ifvqeb0","pricing_plan_id":"cebpf4jnsgd1na2vs0mg"},{"bike_id":"c3f0bf3a-a9ea-43e6-a61c-d09f70523538","system_id":"levelo_inurba_marseille","lat":43.25886,"lon":5.3836,"is_reserved":false,"is_disabled":false,"rental_uris":{"android":"levelo://app?vid=c3f0bf3a-a9ea-43e6-a61c-d09f70523538","ios":"levelo://app?vid=c3f0bf3a-a9ea-43e6-a61c-d09f70523538"},"vehicle_type_id":"4","last_reported":1740906512,"current_range_meters":20400,"station_id":"","pricing_plan_id":"cebpf4jnsgd1na2vs0mg"},{"bike_id":"3a92d28d-0d56-416c-a6ed-d1de02421614","system_id":"levelo_inurba_marseille","lat":43.28647,"lon":5.38564,"is_reserved":false,"is_disabled":false,"rental_uris":{"android":"levelo://app?vid=3a92d28d-0d56-416c-a6ed-d1de02421614","ios":"levelo://app?vid=3a92d28d-0d56-416c-a6ed-d1de02421614"},"vehicle_type_id":"4","last_reported":1740906512,"current_range_meters":20400,"station_id":"","pricing_plan_id":"cebpf4jnsgd1na2vs0mg"},{"bike_id":"82134c02-9d90-49f5-a276-c97cf5b93bb5","system_id":"levelo_inurba_marseille","lat":43.305992,"lon":5.372334,"is_reserved":false,"is_disabled":false,"rental_uris":{"android":"levelo://app?vid=82134c02-9d90-49f5-a276-c97cf5b93bb5","ios":"levelo://app?vid=82134c02-9d90-49f5-a276-c97cf5b93bb5"},"vehicle_type_id":"4","last_reported":1740906512,"current_range_meters":20400,"station_id":"ce4bgnh2rcd13ifvqc0g","pricing_plan_id":"cebpf4jnsgd1na2vs0mg"},{"bike_id":"1f738027-1ad8-4718-9b26-1d0637ee8393","system_id":"levelo_inurba_marseille","lat":43.31165,"lon":5.38729,"is_reserved":false,"is_disabled":false,"rental_uris":{"android":"levelo://app?vid=1f738027-1ad8-4718-9b26-1d0637ee8393","ios":"levelo://app?vid=1f738027-1ad8-4718-9b26-1d0637ee8393"},"vehicle_type_id":"4","last_reported":1740906512,"current_range_meters":20400,"station_id":"ce4bgv12rcd13ifvqcp0","pricing_plan_id":"cebpf4jnsgd1na2vs0mg"},{"bike_id":"8a247025-ec00-48d3-824a-482c59b16425","system_id":"levelo_inurba_marseille","lat":43.31062,"lon":5.38352,"is_reserved":false,"is_disabled":false,"rental_uris":{"android":"levelo://app?vid=8a247025-ec00-48d3-824a-482c59b16425","ios":"levelo://app?vid=8a247025-ec00-48d3-824a-482c59b16425"},"vehicle_type_id":"4","last_reported":1740906512,"current_range_meters":20400,"station_id":"ce4bgv92rcd13ifvqcr0","pricing_plan_id":"cebpf4jnsgd1na2vs0mg"},{"bike_id":"f259daad-c89f-444d-aefc-c4cdbeff563d","system_id":"levelo_inurba_marseille","lat":43.30637,"lon":5.40094,"is_reserved":false,"is_disabled":false,"rental_uris":{"android":"levelo://app?vid=f259daad-c89f-444d-aefc-c4cdbeff563d","ios":"levelo://app?vid=f259daad-c89f-444d-aefc-c4cdbeff563d"},"vehicle_type_id":"4","last_reported":1740906512,"current_range_meters":20400,"station_id":"ce4bh112rcd13ifvqda0","pricing_plan_id":"cebpf4jnsgd1na2vs0mg"},{"bike_id":"51af01d5-6db5-4076-bb18-764dc4ec7a11","system_id":"levelo_inurba_marseille","lat":43.27375,"lon":5.36258,"is_reserved":false,"is_disabled":false,"rental_uris":{"android":"levelo://app?vid=51af01d5-6db5-4076-bb18-764dc4ec7a11","ios":"levelo://app?vid=51af01d5-6db5-4076-bb18-764dc4ec7a11"},"vehicle_type_id":"4","last_reported":1740906512,"current_range_meters":20400,"station_id":"ce4bhbh2rcd13ifvqeo0","pricing_plan_id":"cebpf4jnsgd1na2vs0mg"},{"bike_id":"360cb8fb-ae2d-4942-a777-0b20fe1843ea","system_id":"levelo_inurba_marseille","lat":43.265493,"lon":5.372841,"is_reserved":false,"is_disabled":false,"rental_uris":{"android":"levelo://app?vid=360cb8fb-ae2d-4942-a777-0b20fe1843ea","ios":"levelo://app?vid=360cb8fb-ae2d-4942-a777-0b20fe1843ea"},"vehicle_type_id":"4","last_reported":1740906512,"current_range_meters":20400,"station_id":"ce4bhg12rcd13ifvqf70","pricing_plan_id":"cebpf4jnsgd1na2vs0mg"},{"bike_id":"fd351392-8b14-4c01-8023-5ff7d23da5cf","system_id":"levelo_inurba_marseille","lat":43.26581,"lon":5.37329,"is_reserved":false,"is_disabled":false,"rental_uris":{"android":"levelo://app?vid=fd351392-8b14-4c01-8023-5ff7d23da5cf","ios":"levelo://app?vid=fd351392-8b14-4c01-8023-5ff7d23da5cf"},"vehicle_type_id":"4","last_reported":1740906512,"current_range_meters":20400,"station_id":"ce4bhg12rcd13ifvqf70","pricing_plan_id":"cebpf4jnsgd1na2vs0mg"},{"bike_id":"0426b467-687f-4f85-94ac-c3a52f78d7ff","system_id":"levelo_inurba_marseille","lat":43.2669,"lon":5.38274,"is_reserved":false,"is_disabled":false,"rental_uris":{"android":"levelo://app?vid=0426b467-687f-4f85-94ac-c3a52f78d7ff","ios":"levelo://app?vid=0426b467-687f-4f85-94ac-c3a52f78d7ff"},"vehicle_type_id":"4","last_reported":1740906512,"current_range_meters":20400,"station_id":"ce4bhg92rcd13ifvqf90","pricing_plan_id":"cebpf4jnsgd1na2vs0mg"},{"bike_id":"bc916fbe-3905-4d9c-b367-4f1dbc4aac09","system_id":"levelo_inurba_marseille","lat":43.27333,"lon":5.39108,"is_reserved":false,"is_disabled":false,"rental_uris":{"android":"levelo://app?vid=bc916fbe-3905-4d9c-b367-4f1dbc4aac09","ios":"levelo://app?vid=bc916fbe-3905-4d9c-b367-4f1dbc4aac09"},"vehicle_type_id":"4","last_reported":1740906512,"current_range_meters":20400,"station_id":"ce4bhgp2rcd13ifvqfe0","pricing_plan_id":"cebpf4jnsgd1na2vs0mg"},{"bike_id":"78161bf6-54be-4660-9185-dd97c4ac7322","system_id":"levelo_inurba_marseille","lat":43.262256,"lon":5.404437,"is_reserved":false,"is_disabled":false,"rental_uris":{"android":"levelo://app?vid=78161bf6-54be-4660-9185-dd97c4ac7322","ios":"levelo://app?vid=78161bf6-54be-4660-9185-dd97c4ac7322"},"vehicle_type_id":"4","last_reported":1740906512,"current_range_meters":20400,"station_id":"ce4bhmh2rcd13ifvqgmg","pricing_plan_id":"cebpf4jnsgd1na2vs0mg"},{"bike_id":"79c19455-280d-4e2f-948c-fd250f209730","system_id":"levelo_inurba_marseille","lat":43.3053,"lon":5.36554,"is_reserved":false,"is_disabled":false,"rental_uris":{"android":"levelo://app?vid=79c19455-280d-4e2f-948c-fd250f209730","ios":"levelo://app?vid=79c19455-280d-4e2f-948c-fd250f209730"},"vehicle_type_id":"4","last_reported":1740906512,"current_range_meters":20800,"station_id":"ce4bgs12rcd13ifvqcag","pricing_plan_id":"cebpf4jnsgd1na2vs0mg"},{"bike_id":"4fb82f53-d921-4e34-9bfd-63bd8822c151","system_id":"levelo_inurba_marseille","lat":43.30305,"lon":5.37698,"is_reserved":false,"is_disabled":false,"rental_uris":{"android":"levelo://app?vid=4fb82f53-d921-4e34-9bfd-63bd8822c151","ios":"levelo://app?vid=4fb82f53-d921-4e34-9bfd-63bd8822c151"},"vehicle_type_id":"4","last_reported":1740906512,"current_range_meters":20800,"station_id":"ce4bguh2rcd13ifvqcj0","pricing_plan_id":"cebpf4jnsgd1na2vs0mg"},{"bike_id":"e1b36eeb-c151-4853-8481-576973144b6d","system_id":"levelo_inurba_marseille","lat":43.262,"lon":5.37934,"is_reserved":false,"is_disabled":false,"rental_uris":{"android":"levelo://app?vid=e1b36eeb-c151-4853-8481-576973144b6d","ios":"levelo://app?vid=e1b36eeb-c151-4853-8481-576973144b6d"},"vehicle_type_id":"4","last_reported":1740906512,"current_range_meters":20800,"station_id":"ce4bhjp2rcd13ifvqg90","pricing_plan_id":"cebpf4jnsgd1na2vs0mg"},{"bike_id":"123d5adf-8e93-46cc-93b8-80cd2a012f7c","system_id":"levelo_inurba_marseille","lat":43.27056,"lon":5.4229,"is_reserved":false,"is_disabled":false,"rental_uris":{"android":"levelo://app?vid=123d5adf-8e93-46cc-93b8-80cd2a012f7c","ios":"levelo://app?vid=123d5adf-8e93-46cc-93b8-80cd2a012f7c"},"vehicle_type_id":"4","last_reported":1740906512,"current_range_meters":20800,"station_id":"ce4bhk92rcd13ifvqgb0","pricing_plan_id":"cebpf4jnsgd1na2vs0mg"},{"bike_id":"01e049af-0789-4a36-bd5f-ff83f6dddbf2","system_id":"levelo_inurba_marseille","lat":43.25112,"lon":5.403306,"is_reserved":false,"is_disabled":false,"rental_uris":{"android":"levelo://app?vid=01e049af-0789-4a36-bd5f-ff83f6dddbf2","ios":"levelo://app?vid=01e049af-0789-4a36-bd5f-ff83f6dddbf2"},"vehicle_type_id":"4","last_reported":1740906512,"current_range_meters":20800,"station_id":"ce4bhlh2rcd13ifvqgig","pricing_plan_id":"cebpf4jnsgd1na2vs0mg"},{"bike_id":"81389cd8-51fb-45ff-ad9c-7bca8b462d46","system_id":"levelo_inurba_marseille","lat":43.25935,"lon":5.40909,"is_reserved":false,"is_disabled":false,"rental_uris":{"android":"levelo://app?vid=81389cd8-51fb-45ff-ad9c-7bca8b462d46","ios":"levelo://app?vid=81389cd8-51fb-45ff-ad9c-7bca8b462d46"},"vehicle_type_id":"4","last_reported":1740906512,"current_range_meters":20800,"station_id":"ce4bhm92rcd13ifvqglg","pricing_plan_id":"cebpf4jnsgd1na2vs0mg"},{"bike_id":"493c1265-079d-4b8f-a176-83cc18078bc3","system_id":"levelo_inurba_marseille","lat":43.30167,"lon":5.38081,"is_reserved":false,"is_disabled":false,"rental_uris":{"android":"levelo://app?vid=493c1265-079d-4b8f-a176-83cc18078bc3","ios":"levelo://app?vid=493c1265-079d-4b8f-a176-83cc18078bc3"},"vehicle_type_id":"4","last_reported":1740906512,"current_range_meters":21600,"station_id":"ce4bgjp2rcd13ifvqbh0","pricing_plan_id":"cebpf4jnsgd1na2vs0mg"},{"bike_id":"d6beba02-7dad-4051-a7b4-506e792f8f4e","system_id":"levelo_inurba_marseille","lat":43.28483,"lon":5.38417,"is_reserved":false,"is_disabled":false,"rental_uris":{"android":"levelo://app?vid=d6beba02-7dad-4051-a7b4-506e792f8f4e","ios":"levelo://app?vid=d6beba02-7dad-4051-a7b4-506e792f8f4e"},"vehicle_type_id":"4","last_reported":1740906512,"current_range_meters":21600,"station_id":"ce4bh512rcd13ifvqe3g","pricing_plan_id":"cebpf4jnsgd1na2vs0mg"},{"bike_id":"f468e213-926e-470a-8e79-e04571cf82e6","system_id":"levelo_inurba_marseille","lat":43.28467,"lon":5.35899,"is_reserved":false,"is_disabled":false,"rental_uris":{"android":"levelo://app?vid=f468e213-926e-470a-8e79-e04571cf82e6","ios":"levelo://app?vid=f468e213-926e-470a-8e79-e04571cf82e6"},"vehicle_type_id":"4","last_reported":1740906512,"current_range_meters":21600,"station_id":"ce4bhah2rcd13ifvqei0","pricing_plan_id":"cebpf4jnsgd1na2vs0mg"},{"bike_id":"3bc08441-4826-48b6-a7e2-7e3821e381df","system_id":"levelo_inurba_marseille","lat":43.28408,"lon":5.35001,"is_reserved":false,"is_disabled":false,"rental_uris":{"android":"levelo://app?vid=3bc08441-4826-48b6-a7e2-7e3821e381df","ios":"levelo://app?vid=3bc08441-4826-48b6-a7e2-7e3821e381df"},"vehicle_type_id":"4","last_reported":1740906512,"current_range_meters":21600,"station_id":"ce4bhbh2rcd13ifvqepg","pricing_plan_id":"cebpf4jnsgd1na2vs0mg"},{"bike_id":"8d79b535-61bd-48d6-9fb9-2b66f58f8b92","system_id":"levelo_inurba_marseille","lat":43.279114,"lon":5.395796,"is_reserved":false,"is_disabled":false,"rental_uris":{"android":"levelo://app?vid=8d79b535-61bd-48d6-9fb9-2b66f58f8b92","ios":"levelo://app?vid=8d79b535-61bd-48d6-9fb9-2b66f58f8b92"},"vehicle_type_id":"4","last_reported":1740906512,"current_range_meters":21600,"station_id":"ce4bhf92rcd13ifvqf40","pricing_plan_id":"cebpf4jnsgd1na2vs0mg"},{"bike_id":"de513b12-ff60-426d-ab16-62bb8af2ab82","system_id":"levelo_inurba_marseille","lat":43.26546,"lon":5.37279,"is_reserved":false,"is_disabled":false,"rental_uris":{"android":"levelo://app?vid=de513b12-ff60-426d-ab16-62bb8af2ab82","ios":"levelo://app?vid=de513b12-ff60-426d-ab16-62bb8af2ab82"},"vehicle_type_id":"4","last_reported":1740906512,"current_range_meters":21600,"station_id":"ce4bhg12rcd13ifvqf70","pricing_plan_id":"cebpf4jnsgd1na2vs0mg"},{"bike_id":"2b83e759-deef-400e-97a4-f10fe5ca1ef6","system_id":"levelo_inurba_marseille","lat":43.27508,"lon":5.42473,"is_reserved":false,"is_disabled":false,"rental_uris":{"android":"levelo://app?vid=2b83e759-deef-400e-97a4-f10fe5ca1ef6","ios":"levelo://app?vid=2b83e759-deef-400e-97a4-f10fe5ca1ef6"},"vehicle_type_id":"4","last_reported":1740906512,"current_range_meters":21600,"station_id":"ce4bhn92rcd13ifvqgrg","pricing_plan_id":"cebpf4jnsgd1na2vs0mg"},{"bike_id":"7512517d-ad22-427f-a405-1666b413d5cc","system_id":"levelo_inurba_marseille","lat":43.24815,"lon":5.41182,"is_reserved":false,"is_disabled":false,"rental_uris":{"android":"levelo://app?vid=7512517d-ad22-427f-a405-1666b413d5cc","ios":"levelo://app?vid=7512517d-ad22-427f-a405-1666b413d5cc"},"vehicle_type_id":"4","last_reported":1740906512,"current_range_meters":22000,"station_id":"","pricing_plan_id":"cebpf4jnsgd1na2vs0mg"},{"bike_id":"4f31b6bd-5f1f-476a-8200-0addafeb3713","system_id":"levelo_inurba_marseille","lat":43.30249,"lon":5.40076,"is_reserved":false,"is_disabled":false,"rental_uris":{"android":"levelo://app?vid=4f31b6bd-5f1f-476a-8200-0addafeb3713","ios":"levelo://app?vid=4f31b6bd-5f1f-476a-8200-0addafeb3713"},"vehicle_type_id":"4","last_reported":1740906512,"current_range_meters":22000,"station_id":"ce4bgvh2rcd13ifvqcs0","pricing_plan_id":"cebpf4jnsgd1na2vs0mg"},{"bike_id":"32d1e315-966d-45b8-926a-6d27604a3504","system_id":"levelo_inurba_marseille","lat":43.241703,"lon":5.397391,"is_reserved":false,"is_disabled":false,"rental_uris":{"android":"levelo://app?vid=32d1e315-966d-45b8-926a-6d27604a3504","ios":"levelo://app?vid=32d1e315-966d-45b8-926a-6d27604a3504"},"vehicle_type_id":"4","last_reported":1740906512,"current_range_meters":22000,"station_id":"ce4bhn12rcd13ifvqgpg","pricing_plan_id":"cebpf4jnsgd1na2vs0mg"},{"bike_id":"e393036a-bb36-4687-ba9a-ef85163fb1b6","system_id":"levelo_inurba_marseille","lat":43.31992,"lon":5.38201,"is_reserved":false,"is_disabled":false,"rental_uris":{"android":"levelo://app?vid=e393036a-bb36-4687-ba9a-ef85163fb1b6","ios":"levelo://app?vid=e393036a-bb36-4687-ba9a-ef85163fb1b6"},"vehicle_type_id":"4","last_reported":1740906512,"current_range_meters":22000,"station_id":"ce4bhr12rcd13ifvqhpg","pricing_plan_id":"cebpf4jnsgd1na2vs0mg"},{"bike_id":"0b1d16a8-c879-4989-bfe7-7eb35a59ec23","system_id":"levelo_inurba_marseille","lat":43.25181,"lon":5.37827,"is_reserved":false,"is_disabled":false,"rental_uris":{"android":"levelo://app?vid=0b1d16a8-c879-4989-bfe7-7eb35a59ec23","ios":"levelo://app?vid=0b1d16a8-c879-4989-bfe7-7eb35a59ec23"},"vehicle_type_id":"4","last_reported":1740906512,"current_range_meters":22400,"station_id":"","pricing_plan_id":"cebpf4jnsgd1na2vs0mg"},{"bike_id":"05f79b85-f3d0-43dc-8446-f0e096c99a76","system_id":"levelo_inurba_marseille","lat":43.29373,"lon":5.42843,"is_reserved":false,"is_disabled":false,"rental_uris":{"android":"levelo://app?vid=05f79b85-f3d0-43dc-8446-f0e096c99a76","ios":"levelo://app?vid=05f79b85-f3d0-43dc-8446-f0e096c99a76"},"vehicle_type_id":"4","last_reported":1740906512,"current_range_meters":22400,"station_id":"","pricing_plan_id":"cebpf4jnsgd1na2vs0mg"},{"bike_id":"6d6d6a2d-0fdb-436b-8cbc-2325162682bf","system_id":"levelo_inurba_marseille","lat":43.29041,"lon":5.39966,"is_reserved":false,"is_disabled":false,"rental_uris":{"android":"levelo://app?vid=6d6d6a2d-0fdb-436b-8cbc-2325162682bf","ios":"levelo://app?vid=6d6d6a2d-0fdb-436b-8cbc-2325162682bf"},"vehicle_type_id":"4","last_reported":1740906512,"current_range_meters":22400,"station_id":"ce4bh392rcd13ifvqdm0","pricing_plan_id":"cebpf4jnsgd1na2vs0mg"},{"bike_id":"e19db42d-e57f-469b-b1a1-a6a2297ac4ac","system_id":"levelo_inurba_marseille","lat":43.28518,"lon":5.38506,"is_reserved":false,"is_disabled":false,"rental_uris":{"android":"levelo://app?vid=e19db42d-e57f-469b-b1a1-a6a2297ac4ac","ios":"levelo://app?vid=e19db42d-e57f-469b-b1a1-a6a2297ac4ac"},"vehicle_type_id":"4","last_reported":1740906512,"current_range_meters":22400,"station_id":"ce4bh8p2rcd13ifvqeb0","pricing_plan_id":"cebpf4jnsgd1na2vs0mg"},{"bike_id":"07f82009-c8f1-4391-84e6-84171d67685a","system_id":"levelo_inurba_marseille","lat":43.29199,"lon":5.35808,"is_reserved":false,"is_disabled":false,"rental_uris":{"android":"levelo://app?vid=07f82009-c8f1-4391-84e6-84171d67685a","ios":"levelo://app?vid=07f82009-c8f1-4391-84e6-84171d67685a"},"vehicle_type_id":"4","last_reported":1740906512,"current_range_meters":22400,"station_id":"ce4bhb12rcd13ifvqel0","pricing_plan_id":"cebpf4jnsgd1na2vs0mg"},{"bike_id":"f2ab4cfc-d619-483d-9a32-71f8a1cc6cc7","system_id":"levelo_inurba_marseille","lat":43.26562,"lon":5.37303,"is_reserved":false,"is_disabled":false,"rental_uris":{"android":"levelo://app?vid=f2ab4cfc-d619-483d-9a32-71f8a1cc6cc7","ios":"levelo://app?vid=f2ab4cfc-d619-483d-9a32-71f8a1cc6cc7"},"vehicle_type_id":"4","last_reported":1740906512,"current_range_meters":22400,"station_id":"ce4bhg12rcd13ifvqf70","pricing_plan_id":"cebpf4jnsgd1na2vs0mg"},{"bike_id":"1a8209a9-1338-4ac6-a49d-9f9f1c1fa9d5","system_id":"levelo_inurba_marseille","lat":43.25493,"lon":5.37648,"is_reserved":false,"is_disabled":false,"rental_uris":{"android":"levelo://app?vid=1a8209a9-1338-4ac6-a49d-9f9f1c1fa9d5","ios":"levelo://app?vid=1a8209a9-1338-4ac6-a49d-9f9f1c1fa9d5"},"vehicle_type_id":"4","last_reported":1740906512,"current_range_meters":22400,"station_id":"ce4bhh12rcd13ifvqff0","pricing_plan_id":"cebpf4jnsgd1na2vs0mg"},{"bike_id":"a00416df-0816-45d0-8e3a-08d0a7e69fe2","system_id":"levelo_inurba_marseille","lat":43.23068,"lon":5.35494,"is_reserved":false,"is_disabled":false,"rental_uris":{"android":"levelo://app?vid=a00416df-0816-45d0-8e3a-08d0a7e69fe2","ios":"levelo://app?vid=a00416df-0816-45d0-8e3a-08d0a7e69fe2"},"vehicle_type_id":"4","last_reported":1740906512,"current_range_meters":22400,"station_id":"cpo3342slgdg3j2ifvpg","pricing_plan_id":"cebpf4jnsgd1na2vs0mg"},{"bike_id":"4300cf9b-3f21-4db1-957e-9b9d93ea7ac9","system_id":"levelo_inurba_marseille","lat":43.31075,"lon":5.381416,"is_reserved":false,"is_disabled":false,"rental_uris":{"android":"levelo://app?vid=4300cf9b-3f21-4db1-957e-9b9d93ea7ac9","ios":"levelo://app?vid=4300cf9b-3f21-4db1-957e-9b9d93ea7ac9"},"vehicle_type_id":"4","last_reported":1740906512,"current_range_meters":22800,"station_id":"","pricing_plan_id":"cebpf4jnsgd1na2vs0mg"},{"bike_id":"5ad54a13-89bc-4c57-950f-1a234e6a9e5c","system_id":"levelo_inurba_marseille","lat":43.2791,"lon":5.39578,"is_reserved":false,"is_disabled":false,"rental_uris":{"android":"levelo://app?vid=5ad54a13-89bc-4c57-950f-1a234e6a9e5c","ios":"levelo://app?vid=5ad54a13-89bc-4c57-950f-1a234e6a9e5c"},"vehicle_type_id":"4","last_reported":1740906512,"current_range_meters":22800,"station_id":"ce4bhf92rcd13ifvqf40","pricing_plan_id":"cebpf4jnsgd1na2vs0mg"},{"bike_id":"03d0bb2e-d59a-4ab7-8aae-23bcd2b9f0fd","system_id":"levelo_inurba_marseille","lat":43.26559,"lon":5.37285,"is_reserved":false,"is_disabled":false,"rental_uris":{"android":"levelo://app?vid=03d0bb2e-d59a-4ab7-8aae-23bcd2b9f0fd","ios":"levelo://app?vid=03d0bb2e-d59a-4ab7-8aae-23bcd2b9f0fd"},"vehicle_type_id":"4","last_reported":1740906512,"current_range_meters":22800,"station_id":"ce4bhg12rcd13ifvqf70","pricing_plan_id":"cebpf4jnsgd1na2vs0mg"},{"bike_id":"b2be101e-e9dd-4507-9cf2-a3a88fe9cc4c","system_id":"levelo_inurba_marseille","lat":43.24398,"lon":5.37057,"is_reserved":false,"is_disabled":false,"rental_uris":{"android":"levelo://app?vid=b2be101e-e9dd-4507-9cf2-a3a88fe9cc4c","ios":"levelo://app?vid=b2be101e-e9dd-4507-9cf2-a3a88fe9cc4c"},"vehicle_type_id":"4","last_reported":1740906512,"current_range_meters":22800,"station_id":"ce4bhhh2rcd13ifvqfk0","pricing_plan_id":"cebpf4jnsgd1na2vs0mg"},{"bike_id":"dac87b93-e3ed-458c-839f-439ca09be570","system_id":"levelo_inurba_marseille","lat":43.26207,"lon":5.37925,"is_reserved":false,"is_disabled":false,"rental_uris":{"android":"levelo://app?vid=dac87b93-e3ed-458c-839f-439ca09be570","ios":"levelo://app?vid=dac87b93-e3ed-458c-839f-439ca09be570"},"vehicle_type_id":"4","last_reported":1740906512,"current_range_meters":22800,"station_id":"ce4bhjp2rcd13ifvqg90","pricing_plan_id":"cebpf4jnsgd1na2vs0mg"},{"bike_id":"f11b80db-99bc-4f82-96b4-1868078d4bf3","system_id":"levelo_inurba_marseille","lat":43.29969,"lon":5.41316,"is_reserved":false,"is_disabled":false,"rental_uris":{"android":"levelo://app?vid=f11b80db-99bc-4f82-96b4-1868078d4bf3","ios":"levelo://app?vid=f11b80db-99bc-4f82-96b4-1868078d4bf3"},"vehicle_type_id":"4","last_reported":1740906512,"current_range_meters":22800,"station_id":"ce4bhp12rcd13ifvqh9g","pricing_plan_id":"cebpf4jnsgd1na2vs0mg"},{"bike_id":"f04e9f64-fec8-4818-a25d-c29a5730cc2a","system_id":"levelo_inurba_marseille","lat":43.29557,"lon":5.42286,"is_reserved":false,"is_disabled":false,"rental_uris":{"android":"levelo://app?vid=f04e9f64-fec8-4818-a25d-c29a5730cc2a","ios":"levelo://app?vid=f04e9f64-fec8-4818-a25d-c29a5730cc2a"},"vehicle_type_id":"4","last_reported":1740906512,"current_range_meters":22800,"station_id":"ce4bhph2rcd13ifvqhdg","pricing_plan_id":"cebpf4jnsgd1na2vs0mg"},{"bike_id":"7de37663-e449-48c9-ac79-a870fff4f712","system_id":"levelo_inurba_marseille","lat":43.30934,"lon":5.40147,"is_reserved":false,"is_disabled":false,"rental_uris":{"android":"levelo://app?vid=7de37663-e449-48c9-ac79-a870fff4f712","ios":"levelo://app?vid=7de37663-e449-48c9-ac79-a870fff4f712"},"vehicle_type_id":"4","last_reported":1740906512,"current_range_meters":23200,"station_id":"ce4bgvp2rcd13ifvqct0","pricing_plan_id":"cebpf4jnsgd1na2vs0mg"},{"bike_id":"00290b84-bfde-48b6-b407-a7b1212027dc","system_id":"levelo_inurba_marseille","lat":43.29239,"lon":5.40913,"is_reserved":false,"is_disabled":false,"rental_uris":{"android":"levelo://app?vid=00290b84-bfde-48b6-b407-a7b1212027dc","ios":"levelo://app?vid=00290b84-bfde-48b6-b407-a7b1212027dc"},"vehicle_type_id":"4","last_reported":1740906512,"current_range_meters":23200,"station_id":"ce4bh192rcd13ifvqdc0","pricing_plan_id":"cebpf4jnsgd1na2vs0mg"},{"bike_id":"a81377ab-f959-4183-b74d-05a1b8ee49d0","system_id":"levelo_inurba_marseille","lat":43.290521,"lon":5.35923,"is_reserved":false,"is_disabled":false,"rental_uris":{"android":"levelo://app?vid=a81377ab-f959-4183-b74d-05a1b8ee49d0","ios":"levelo://app?vid=a81377ab-f959-4183-b74d-05a1b8ee49d0"},"vehicle_type_id":"4","last_reported":1740906512,"current_range_meters":23200,"station_id":"ce4bha92rcd13ifvqeg0","pricing_plan_id":"cebpf4jnsgd1na2vs0mg"},