{"last_updated":1732986433,"ttl":60,"version":"2.2","data":{"bikes":[{"bike_id":"859dd084-49d8-4c54-8fc8-f5aba05e7c90","system_id":"levelo_inurba_marseille","lat":43.29702,"lon":5.36616,"is_reserved":false,"is_disabled":true,"rental_uris":{"android":"levelo://app?vid=859dd084-49d8-4c54-8fc8-f5aba05e7c90","ios":"levelo://app?vid=859dd084-49d8-4c54-8fc8-f5aba05e7c90"},"vehicle_type_id":"4","last_reported":1732986434,"current_range_meters":4800,"station_id":"ce4bgn12rcd13ifvqbt0","pricing_plan_id":"cebpf4jnsgd1na2vs0mg"},{"bike_id":"65acab11-bbde-49e5-89bd-03230392718b","system_id":"levelo_inurba_marseille","lat":43.29047,"lon":5.359,"is_reserved":false,"is_disabled":false,"rental_uris":{"android":"levelo://app?vid=65acab11-bbde-49e5-89bd-03230392718b","ios":"levelo://app?vid=65acab11-bbde-49e5-89bd-03230392718b"},"vehicle_type_id":"4","last_reported":1732986434,"current_range_meters":12800,"station_id":"ce4bha92rcd13ifvqeg0","pricing_plan_id":"cebpf4jnsgd1na2vs0mg"},{"bike_id":"53f0ac88-7ce1-4424-8bc3-fe15772e56ed","system_id":"levelo_inurba_marseille","lat":43.2318,"lon":5.39989,"is_reserved":false,"is_disabled":false,"rental_uris":{"android":"levelo://app?vid=53f0ac88-7ce1-4424-8bc3-fe15772e56ed","ios":"levelo://app?vid=53f0ac88-7ce1-4424-8bc3-fe15772e56ed"},"vehicle_type_id":"4","last_reported":1732986434,"current_range_meters":3600,"station_id":"ce4bhn12rcd13ifvqgqg","pricing_plan_id":"cebpf4jnsgd1na2vs0mg"},{"bike_id":"e786a599-e454-4710-b13e-193034451ef2","system_id":"levelo_inurba_marseille","lat":43.26786,"lon":5.39416,"is_reserved":false,"is_disabled":false,"rental_uris":{"android":"levelo://app?vid=e786a599-e454-4710-b13e-193034451ef2","ios":"levelo://app?vid=e786a599-e454-4710-b13e-193034451ef2"},"vehicle_type_id":"4","last_reported":1732986434,"current_range_meters":10800,"station_id":"ce4bhh12rcd13ifvqfg0","pricing_plan_id":"cebpf4jnsgd1na2vs0mg"},{"bike_id":"b856c8b4-412d-4c25-bdd4-e6b29aed04cb","system_id":"levelo_inurba_marseille","lat":43.22933,"lon":5.35379,"is_reserved":false,"is_disabled":false,"rental_uris":{"android":"levelo://app?vid=b856c8b4-412d-4c25-bdd4-e6b29aed04cb","ios":"levelo://app?vid=b856c8b4-412d-4c25-bdd4-e6b29aed04cb"},"vehicle_type_id":"4","last_reported":1732986434,"current_range_meters":38800,"station_id":"cpo3532slgdg3j2ikp40","pricing_plan_id":"cebpf4jnsgd1na2vs0mg"},{"bike_id":"31a1dcae-1578-495e-acc7-bf9bffb61265","system_id":"levelo_inurba_marseille","lat":43.29263,"lon":5.40909,"is_reserved":false,"is_disabled":false,"rental_uris":{"android":"levelo://app?vid=31a1dcae-1578-495e-acc7-bf9bffb61265","ios":"levelo://app?vid=31a1dcae-1578-495e-acc7-bf9bffb61265"},"vehicle_type_id":"4","last_reported":1732986434,"current_range_meters":6400,"station_id":"ce4bh192rcd13ifvqdc0","pricing_plan_id":"cebpf4jnsgd1na2vs0mg"},{"bike_id":"24b58811-c922-45fc-9bd8-9af52b722bc3","system_id":"levelo_inurba_marseille","lat":43.32481,"lon":5.36568,"is_reserved":false,"is_disabled":false,"rental_uris":{"android":"levelo://app?vid=24b58811-c922-45fc-9bd8-9af52b722bc3","ios":"levelo://app?vid=24b58811-c922-45fc-9bd8-9af52b722bc3"},"vehicle_type_id":"4","last_reported":1732986434,"current_range_meters":26800,"station_id":"ce4bhs12rcd13ifvqhvg","pricing_plan_id":"cebpf4jnsgd1na2vs0mg"},{"bike_id":"f632f0b7-d9e8-406d-8a57-298ff10fbd98","system_id":"levelo_inurba_marseille","lat":43.295805,"lon":5.367338,"is_reserved":false,"is_disabled":false,"rental_uris":{"android":"levelo://app?vid=f632f0b7-d9e8-406d-8a57-298ff10fbd98","ios":"levelo://app?vid=f632f0b7-d9e8-406d-8a57-298ff10fbd98"},"vehicle_type_id":"4","last_reported":1732986434,"current_range_meters":2000,"station_id":"ce4bgph2rcd13ifvqc2g","pricing_plan_id":"cebpf4jnsgd1na2vs0mg"},{"bike_id":"85019b17-4d15-496a-b276-b23b002090f1","system_id":"levelo_inurba_marseille","lat":43.29623,"lon":5.37169,"is_reserved":false,"is_disabled":true,"rental_uris":{"android":"levelo://app?vid=85019b17-4d15-496a-b276-b23b002090f1","ios":"levelo://app?vid=85019b17-4d15-496a-b276-b23b002090f1"},"vehicle_type_id":"4","last_reported":1732986434,"current_range_meters":0,"station_id":"ce4bgnh2rcd13ifvqc0g","pricing_plan_id":"cebpf4jnsgd1na2vs0mg"},{"bike_id":"5bf551dc-5904-47d7-8e31-594cb0e36832","system_id":"levelo_inurba_marseille","lat":43.29092,"lon":5.38148,"is_reserved":false,"is_disabled":false,"rental_uris":{"android":"levelo://app?vid=5bf551dc-5904-47d7-8e31-594cb0e36832","ios":"levelo://app?vid=5bf551dc-5904-47d7-8e31-594cb0e36832"},"vehicle_type_id":"4","last_reported":1732986434,"current_range_meters":32000,"station_id":"ce4bh512rcd13ifvqe2g","pricing_plan_id":"cebpf4jnsgd1na2vs0mg"},{"bike_id":"966791e8-cdff-4838-a42b-c9b609a533a7","system_id":"levelo_inurba_marseille","lat":43.26982,"lon":5.39083,"is_reserved":false,"is_disabled":true,"rental_uris":{"android":"levelo://app?vid=966791e8-cdff-4838-a42b-c9b609a533a7","ios":"levelo://app?vid=966791e8-cdff-4838-a42b-c9b609a533a7"},"vehicle_type_id":"4","last_reported":1732986434,"current_range_meters":0,"station_id":"","pricing_plan_id":"cebpf4jnsgd1na2vs0mg"},{"bike_id":"0dfb5348-2a41-4497-89ed-f8bc96f05e25","system_id":"levelo_inurba_marseille","lat":43.299,"lon":5.3747,"is_reserved":false,"is_disabled":false,"rental_uris":{"android":"levelo://app?vid=0dfb5348-2a41-4497-89ed-f8bc96f05e25","ios":"levelo://app?vid=0dfb5348-2a41-4497-89ed-f8bc96f05e25"},"vehicle_type_id":"4","last_reported":1732986434,"current_range_meters":38800,"station_id":"ce4bgjh2rcd13ifvqbg0","pricing_plan_id":"cebpf4jnsgd1na2vs0mg"},{"bike_id":"7974306f-50f1-4979-96e6-42a3a669c81a","system_id":"levelo_inurba_marseille","lat":43.32002,"lon":5.38163,"is_reserved":false,"is_disabled":false,"rental_uris":{"android":"levelo://app?vid=7974306f-50f1-4979-96e6-42a3a669c81a","ios":"levelo://app?vid=7974306f-50f1-4979-96e6-42a3a669c81a"},"vehicle_type_id":"4","last_reported":1732986434,"current_range_meters":9600,"station_id":"ce4bhr12rcd13ifvqhpg","pricing_plan_id":"cebpf4jnsgd1na2vs0mg"},{"bike_id":"2e965160-11cb-4834-80f5-a7fab44babd9","system_id":"levelo_inurba_marseille","lat":43.28841,"lon":5.3584,"is_reserved":false,"is_disabled":false,"rental_uris":{"android":"levelo://app?vid=2e965160-11cb-4834-80f5-a7fab44babd9","ios":"levelo://app?vid=2e965160-11cb-4834-80f5-a7fab44babd9"},"vehicle_type_id":"4","last_reported":1732986434,"current_range_meters":28000,"station_id":"ce4bhb12rcd13ifvqem0","pricing_plan_id":"cebpf4jnsgd1na2vs0mg"},{"bike_id":"1d23a736-5ed5-41f4-9e1c-f80fa80c3362","system_id":"levelo_inurba_marseille","lat":43.29306,"lon":5.37158,"is_reserved":false,"is_disabled":false,"rental_uris":{"android":"levelo://app?vid=1d23a736-5ed5-41f4-9e1c-f80fa80c3362","ios":"levelo://app?vid=1d23a736-5ed5-41f4-9e1c-f80fa80c3362"},"vehicle_type_id":"4","last_reported":1732986434,"current_range_meters":36400,"station_id":"ce4bgh92rcd13ifvqb40","pricing_plan_id":"cebpf4jnsgd1na2vs0mg"},{"bike_id":"9567433a-0689-4d8e-a727-494f7827fbdc","system_id":"levelo_inurba_marseille","lat":43.29003,"lon":5.35619,"is_reserved":false,"is_disabled":false,"rental_uris":{"android":"levelo://app?vid=9567433a-0689-4d8e-a727-494f7827fbdc","ios":"levelo://app?vid=9567433a-0689-4d8e-a727-494f7827fbdc"},"vehicle_type_id":"4","last_reported":1732986434,"current_range_meters":17200,"station_id":"ce4bhb92rcd13ifvqen0","pricing_plan_id":"cebpf4jnsgd1na2vs0mg"},{"bike_id":"967bbe53-1c3e-458e-b466-3d96c1320a19","system_id":"levelo_inurba_marseille","lat":43.30146,"lon":5.37423,"is_reserved":false,"is_disabled":false,"rental_uris":{"android":"levelo://app?vid=967bbe53-1c3e-458e-b466-3d96c1320a19","ios":"levelo://app?vid=967bbe53-1c3e-458e-b466-3d96c1320a19"},"vehicle_type_id":"4","last_reported":1732986434,"current_range_meters":7200,"station_id":"ce4bgs92rcd13ifvqcc0","pricing_plan_id":"cebpf4jnsgd1na2vs0mg"},{"bike_id":"4c372f2d-9233-4b44-8a57-21c51baa82b5","system_id":"levelo_inurba_marseille","lat":43.31171,"lon":5.38708,"is_reserved":false,"is_disabled":true,"rental_uris":{"android":"levelo://app?vid=4c372f2d-9233-4b44-8a57-21c51baa82b5","ios":"levelo://app?vid=4c372f2d-9233-4b44-8a57-21c51baa82b5"},"vehicle_type_id":"4","last_reported":1732986434,"current_range_meters":0,"station_id":"ce4bgv12rcd13ifvqcp0","pricing_plan_id":"cebpf4jnsgd1na2vs0mg"},{"bike_id":"c7124f38-3d56-473c-9e8b-76061f1c5a09","system_id":"levelo_inurba_marseille","lat":43.27077,"lon":5.42281,"is_reserved":false,"is_disabled":true,"rental_uris":{"android":"levelo://app?vid=c7124f38-3d56-473c-9e8b-76061f1c5a09","ios":"levelo://app?vid=c7124f38-3d56-473c-9e8b-76061f1c5a09"},"vehicle_type_id":"4","last_reported":1732986434,"current_range_meters":400,"station_id":"ce4bhk92rcd13ifvqgb0","pricing_plan_id":"cebpf4jnsgd1na2vs0mg"},{"bike_id":"b0bd4cdf-7308-45f0-8e99-a0d5811907ff","system_id":"levelo_inurba_marseille","lat":43.25444,"lon":5.38164,"is_reserved":false,"is_disabled":true,"rental_uris":{"android":"levelo://app?vid=b0bd4cdf-7308-45f0-8e99-a0d5811907ff","ios":"levelo://app?vid=b0bd4cdf-7308-45f0-8e99-a0d5811907ff"},"vehicle_type_id":"4","last_reported":1732986434,"current_range_meters":0,"station_id":"","pricing_plan_id":"cebpf4jnsgd1na2vs0mg"},{"bike_id":"1ee2db70-f7fb-4f5d-85cf-a17cf866a012","system_id":"levelo_inurba_marseille","lat":43.25866,"lon":5.399,"is_reserved":false,"is_disabled":false,"rental_uris":{"android":"levelo://app?vid=1ee2db70-f7fb-4f5d-85cf-a17cf866a012","ios":"levelo://app?vid=1ee2db70-f7fb-4f5d-85cf-a17cf866a012"},"vehicle_type_id":"4","last_reported":1732986434,"current_range_meters":26000,"station_id":"ce4bhl92rcd13ifvqghg","pricing_plan_id":"cebpf4jnsgd1na2vs0mg"},{"bike_id":"2b934695-b4e9-4969-8beb-09d4426506f4","system_id":"levelo_inurba_marseille","lat":43.29263,"lon":5.38456,"is_reserved":false,"is_disabled":true,"rental_uris":{"android":"levelo://app?vid=2b934695-b4e9-4969-8beb-09d4426506f4","ios":"levelo://app?vid=2b934695-b4e9-4969-8beb-09d4426506f4"},"vehicle_type_id":"4","last_reported":1732986434,"current_range_meters":0,"station_id":"ce4bh692rcd13ifvqea0","pricing_plan_id":"cebpf4jnsgd1na2vs0mg"},{"bike_id":"f0ca66be-c5fa-4f1d-8e2b-9450ca0243d7","system_id":"levelo_inurba_marseille","lat":43.30159,"lon":5.38083,"is_reserved":false,"is_disabled":true,"rental_uris":{"android":"levelo://app?vid=f0ca66be-c5fa-4f1d-8e2b-9450ca0243d7","ios":"levelo://app?vid=f0ca66be-c5fa-4f1d-8e2b-9450ca0243d7"},"vehicle_type_id":"4","last_reported":1732986434,"current_range_meters":36400,"station_id":"ce4bgjp2rcd13ifvqbh0","pricing_plan_id":"cebpf4jnsgd1na2vs0mg"},{"bike_id":"3c241112-0e96-425e-8646-c6f08bf02411","system_id":"levelo_inurba_marseille","lat":43.24655,"lon":5.38899,"is_reserved":false,"is_disabled":false,"rental_uris":{"android":"levelo://app?vid=3c241112-0e96-425e-8646-c6f08bf02411","ios":"levelo://app?vid=3c241112-0e96-425e-8646-c6f08bf02411"},"vehicle_type_id":"4","last_reported":1732986434,"current_range_meters":39200,"station_id":"ce4bhg12rcd13ifvqf60","pricing_plan_id":"cebpf4jnsgd1na2vs0mg"},{"bike_id":"6f7949e1-de87-4a49-8620-fec27e04447f","system_id":"levelo_inurba_marseille","lat":43.33737,"lon":5.39195,"is_reserved":false,"is_disabled":false,"rental_uris":{"android":"levelo://app?vid=6f7949e1-de87-4a49-8620-fec27e04447f","ios":"levelo://app?vid=6f7949e1-de87-4a49-8620-fec27e04447f"},"vehicle_type_id":"4","last_reported":1732986434,"current_range_meters":27200,"station_id":"ce4bhr92rcd13ifvqhsg","pricing_plan_id":"cebpf4jnsgd1na2vs0mg"},{"bike_id":"cc8ec91c-04e3-40fe-be3e-31782128b12d","system_id":"levelo_inurba_marseille","lat":43.24664,"lon":5.38165,"is_reserved":false,"is_disabled":false,"rental_uris":{"android":"levelo://app?vid=cc8ec91c-04e3-40fe-be3e-31782128b12d","ios":"levelo://app?vid=cc8ec91c-04e3-40fe-be3e-31782128b12d"},"vehicle_type_id":"4","last_reported":1732986434,"current_range_meters":16000,"station_id":"ce4bhih2rcd13ifvqfr0","pricing_plan_id":"cebpf4jnsgd1na2vs0mg"},{"bike_id":"9dd59929-37d4-4bcf-87ad-cda48552c986","system_id":"levelo_inurba_marseille","lat":43.3169,"lon":5.40478,"is_reserved":false,"is_disabled":false,"rental_uris":{"android":"levelo://app?vid=9dd59929-37d4-4bcf-87ad-cda48552c986","ios":"levelo://app?vid=9dd59929-37d4-4bcf-87ad-cda48552c986"},"vehicle_type_id":"4","last_reported":1732986434,"current_range_meters":29600,"station_id":"ce4bh012rcd13ifvqd00","pricing_plan_id":"cebpf4jnsgd1na2vs0mg"},{"bike_id":"7066298c-8444-4dbb-8e5a-afa45f0890f5","system_id":"levelo_inurba_marseille","lat":43.28855,"lon":5.39324,"is_reserved":false,"is_disabled":true,"rental_uris":{"android":"levelo://app?vid=7066298c-8444-4dbb-8e5a-afa45f0890f5","ios":"levelo://app?vid=7066298c-8444-4dbb-8e5a-afa45f0890f5"},"vehicle_type_id":"4","last_reported":1732986434,"current_range_meters":11600,"station_id":"ce4bh2p2rcd13ifvqdi0","pricing_plan_id":"cebpf4jnsgd1na2vs0mg"},{"bike_id":"79da6e11-068f-4f85-891a-bf5d6033ae1b","system_id":"levelo_inurba_marseille","lat":43.291943,"lon":5.393143,"is_reserved":false,"is_disabled":true,"rental_uris":{"android":"levelo://app?vid=79da6e11-068f-4f85-891a-bf5d6033ae1b","ios":"levelo://app?vid=79da6e11-068f-4f85-891a-bf5d6033ae1b"},"vehicle_type_id":"4","last_reported":1732986434,"current_range_meters":24000,"station_id":"ce4bh192rcd13ifvqdd0","pricing_plan_id":"cebpf4jnsgd1na2vs0mg"},{"bike_id":"4c404965-ca05-4820-944f-38e5ed39f1ff","system_id":"levelo_inurba_marseille","lat":43.28925,"lon":5.3839,"is_reserved":false,"is_disabled":false,"rental_uris":{"android":"levelo://app?vid=4c404965-ca05-4820-944f-38e5ed39f1ff","ios":"levelo://app?vid=4c404965-ca05-4820-944f-38e5ed39f1ff"},"vehicle_type_id":"4","last_reported":1732986434,"current_range_meters":38800,"station_id":"ce4bh612rcd13ifvqe6g","pricing_plan_id":"cebpf4jnsgd1na2vs0mg"},{"bike_id":"cae60800-c5a0-43ca-80b0-fdf27513f971","system_id":"levelo_inurba_marseille","lat":43.29536,"lon":5.3751,"is_reserved":false,"is_disabled":false,"rental_uris":{"android":"levelo://app?vid=cae60800-c5a0-43ca-80b0-fdf27513f971","ios":"levelo://app?vid=cae60800-c5a0-43ca-80b0-fdf27513f971"},"vehicle_type_id":"4","last_reported":1732986434,"current_range_meters":14400,"station_id":"ce4bgkp2rcd13ifvqbmg","pricing_plan_id":"cebpf4jnsgd1na2vs0mg"},{"bike_id":"f26bfa4f-1b03-4d40-bd8a-9396393c620d","system_id":"levelo_inurba_marseille","lat":43.25586,"lon":5.38233,"is_reserved":false,"is_disabled":false,"rental_uris":{"android":"levelo://app?vid=f26bfa4f-1b03-4d40-bd8a-9396393c620d","ios":"levelo://app?vid=f26bfa4f-1b03-4d40-bd8a-9396393c620d"},"vehicle_type_id":"4","last_reported":1732986434,"current_range_meters":38800,"station_id":"ce4bhih2rcd13ifvqfs0","pricing_plan_id":"cebpf4jnsgd1na2vs0mg"},{"bike_id":"8bb3f199-51ec-4782-bbf0-4948bb68010d","system_id":"levelo_inurba_marseille","lat":43.27183,"lon":5.41001,"is_reserved":false,"is_disabled":false,"rental_uris":{"android":"levelo://app?vid=8bb3f199-51ec-4782-bbf0-4948bb68010d","ios":"levelo://app?vid=8bb3f199-51ec-4782-bbf0-4948bb68010d"},"vehicle_type_id":"4","last_reported":1732986434,"current_range_meters":20000,"station_id":"ce4bhl12rcd13ifvqgf0","pricing_plan_id":"cebpf4jnsgd1na2vs0mg"},{"bike_id":"4cd0fae9-9b96-4c08-80a7-0987ebb39a57","system_id":"levelo_inurba_marseille","lat":43.29009,"lon":5.3564,"is_reserved":false,"is_disabled":true,"rental_uris":{"android":"levelo://app?vid=4cd0fae9-9b96-4c08-80a7-0987ebb39a57","ios":"levelo://app?vid=4cd0fae9-9b96-4c08-80a7-0987ebb39a57"},"vehicle_type_id":"4","last_reported":1732986434,"current_range_meters":0,"station_id":"ce4bhb92rcd13ifvqen0","pricing_plan_id":"cebpf4jnsgd1na2vs0mg"},{"bike_id":"98037c3a-9b2c-4fc3-b5c9-984ee3607601","system_id":"levelo_inurba_marseille","lat":43.3236,"lon":5.36765,"is_reserved":false,"is_disabled":false,"rental_uris":{"android":"levelo://app?vid=98037c3a-9b2c-4fc3-b5c9-984ee3607601","ios":"levelo://app?vid=98037c3a-9b2c-4fc3-b5c9-984ee3607601"},"vehicle_type_id":"4","last_reported":1732986434,"current_range_meters":7200,"station_id":"ce4bhsh2rcd13ifvqi2g","pricing_plan_id":"cebpf4jnsgd1na2vs0mg"},{"bike_id":"44d79380-0bdf-4fb4-8fdb-01d2fa6eeeb3","system_id":"levelo_inurba_marseille","lat":43.26682,"lon":5.38268,"is_reserved":false,"is_disabled":true,"rental_uris":{"android":"levelo://app?vid=44d79380-0bdf-4fb4-8fdb-01d2fa6eeeb3","ios":"levelo://app?vid=44d79380-0bdf-4fb4-8fdb-01d2fa6eeeb3"},"vehicle_type_id":"4","last_reported":1732986434,"current_range_meters":21600,"station_id":"ce4bhg92rcd13ifvqf90","pricing_plan_id":"cebpf4jnsgd1na2vs0mg"},{"bike_id":"c1ccbfac-b9f9-4292-ad44-bf10e4a9f2f2","system_id":"levelo_inurba_marseille","lat":43.26663,"lon":5.38281,"is_reserved":false,"is_disabled":false,"rental_uris":{"android":"levelo://app?vid=c1ccbfac-b9f9-4292-ad44-bf10e4a9f2f2","ios":"levelo://app?vid=c1ccbfac-b9f9-4292-ad44-bf10e4a9f2f2"},"vehicle_type_id":"4","last_reported":1732986434,"current_range_meters":39200,"station_id":"ce4bhg92rcd13ifvqf90","pricing_plan_id":"cebpf4jnsgd1na2vs0mg"},{"bike_id":"c3b5c072-c86c-4e11-964e-dae7db79e3e2","system_id":"levelo_inurba_marseille","lat":43.29879,"lon":5.38912,"is_reserved":false,"is_disabled":false,"rental_uris":{"android":"levelo://app?vid=c3b5c072-c86c-4e11-964e-dae7db79e3e2","ios":"levelo://app?vid=c3b5c072-c86c-4e11-964e-dae7db79e3e2"},"vehicle_type_id":"4","last_reported":1732986434,"current_range_meters":13600,"station_id":"ce4bh392rcd13ifvqdl0","pricing_plan_id":"cebpf4jnsgd1na2vs0mg"},{"bike_id":"8f56fc28-5628-451d-acc5-4cbcefc8016c","system_id":"levelo_inurba_marseille","lat":43.28972,"lon":5.37839,"is_reserved":false,"is_disabled":true,"rental_uris":{"android":"levelo://app?vid=8f56fc28-5628-451d-acc5-4cbcefc8016c","ios":"levelo://app?vid=8f56fc28-5628-451d-acc5-4cbcefc8016c"},"vehicle_type_id":"4","last_reported":1732986434,"current_range_meters":1600,"station_id":"ce4bh9p2rcd13ifvqed0","pricing_plan_id":"cebpf4jnsgd1na2vs0mg"},{"bike_id":"57ee1e43-622b-403b-b422-8262af109822","system_id":"levelo_inurba_marseille","lat":43.30134,"lon":5.38772,"is_reserved":false,"is_disabled":false,"rental_uris":{"android":"levelo://app?vid=57ee1e43-622b-403b-b422-8262af109822","ios":"levelo://app?vid=57ee1e43-622b-403b-b422-8262af109822"},"vehicle_type_id":"4","last_reported":1732986434,"current_range_meters":27200,"station_id":"ce4bghh2rcd13ifvqb60","pricing_plan_id":"cebpf4jnsgd1na2vs0mg"},{"bike_id":"01fdf9cf-8e8d-4439-8430-8e7662854c2a","system_id":"levelo_inurba_marseille","lat":43.262073,"lon":5.379299,"is_reserved":false,"is_disabled":false,"rental_uris":{"android":"levelo://app?vid=01fdf9cf-8e8d-4439-8430-8e7662854c2a","ios":"levelo://app?vid=01fdf9cf-8e8d-4439-8430-8e7662854c2a"},"vehicle_type_id":"4","last_reported":1732986434,"current_range_meters":8000,"station_id":"ce4bhjp2rcd13ifvqg90","pricing_plan_id":"cebpf4jnsgd1na2vs0mg"},{"bike_id":"b0cea9bc-74be-4c25-a56f-e7f8b0ea7632","system_id":"levelo_inurba_marseille","lat":43.32664,"lon":5.40996,"is_reserved":false,"is_disabled":false,"rental_uris":{"android":"levelo://app?vid=b0cea9bc-74be-4c25-a56f-e7f8b0ea7632","ios":"levelo://app?vid=b0cea9bc-74be-4c25-a56f-e7f8b0ea7632"},"vehicle_type_id":"4","last_reported":1732986434,"current_range_meters":29600,"station_id":"ce4bhpp2rcd13ifvqhgg","pricing_plan_id":"cebpf4jnsgd1na2vs0mg"},{"bike_id":"1aa61925-f4ba-4fd5-b1de-08db522586c3","system_id":"levelo_inurba_marseille","lat":43.27058,"lon":5.40263,"is_reserved":false,"is_disabled":true,"rental_uris":{"android":"levelo://app?vid=1aa61925-f4ba-4fd5-b1de-08db522586c3","ios":"levelo://app?vid=1aa61925-f4ba-4fd5-b1de-08db522586c3"},"vehicle_type_id":"4","last_reported":1732986434,"current_range_meters":0,"station_id":"ce4bhk92rcd13ifvqgc0","pricing_plan_id":"cebpf4jnsgd1na2vs0mg"},{"bike_id":"694ada16-62be-4cd2-822e-a4599887121c","system_id":"levelo_inurba_marseille","lat":43.23191,"lon":5.35557,"is_reserved":false,"is_disabled":false,"rental_uris":{"android":"levelo://app?vid=694ada16-62be-4cd2-822e-a4599887121c","ios":"levelo://app?vid=694ada16-62be-4cd2-822e-a4599887121c"},"vehicle_type_id":"4","last_reported":1732986434,"current_range_meters":36000,"station_id":"ce4bhu92rcd13ifvqi70","pricing_plan_id":"cebpf4jnsgd1na2vs0mg"},{"bike_id":"67fa2a9e-eed8-4ed6-bdd8-7d1023a52b4e","system_id":"levelo_inurba_marseille","lat":43.26937,"lon":5.38925,"is_reserved":false,"is_disabled":true,"rental_uris":{"android":"levelo://app?vid=67fa2a9e-eed8-4ed6-bdd8-7d1023a52b4e","ios":"levelo://app?vid=67fa2a9e-eed8-4ed6-bdd8-7d1023a52b4e"},"vehicle_type_id":"4","last_reported":1732986434,"current_range_meters":9200,"station_id":"ce4bhhh2rcd13ifvqfl0","pricing_plan_id":"cebpf4jnsgd1na2vs0mg"},{"bike_id":"7aea2cc0-8fb7-4051-bad9-d49d559b2b34","system_id":"levelo_inurba_marseille","lat":43.30883,"lon":5.39646,"is_reserved":false,"is_disabled":false,"rental_uris":{"android":"levelo://app?vid=7aea2cc0-8fb7-4051-bad9-d49d559b2b34","ios":"levelo://app?vid=7aea2cc0-8fb7-4051-bad9-d49d559b2b34"},"vehicle_type_id":"4","last_reported":1732986434,"current_range_meters":22000,"station_id":"ce4bh012rcd13ifvqcv0","pricing_plan_id":"cebpf4jnsgd1na2vs0mg"},{"bike_id":"94c62b19-e6f6-4fd5-b847-62a1c583ec31","system_id":"levelo_inurba_marseille","lat":43.28927,"lon":5.38383,"is_reserved":false,"is_disabled":false,"rental_uris":{"android":"levelo://app?vid=94c62b19-e6f6-4fd5-b847-62a1c583ec31","ios":"levelo://app?vid=94c62b19-e6f6-4fd5-b847-62a1c583ec31"},"vehicle_type_id":"4","last_reported":1732986434,"current_range_meters":37600,"station_id":"ce4bh612rcd13ifvqe6g","pricing_plan_id":"cebpf4jnsgd1na2vs0mg"},{"bike_id":"2beefa24-68a8-412b-a561-b952b896e415","system_id":"levelo_inurba_marseille","lat":43.30948,"lon":5.39044,"is_reserved":false,"is_disabled":false,"rental_uris":{"android":"levelo://app?vid=2beefa24-68a8-412b-a561-b952b896e415","ios":"levelo://app?vid=2beefa24-68a8-412b-a561-b952b896e415"},"vehicle_type_id":"4","last_reported":1732986434,"current_range_meters":26800,"station_id":"ce4bgup2rcd13ifvqco0","pricing_plan_id":"cebpf4jnsgd1na2vs0mg"},{"bike_id":"f453dc37-c945-448b-80e2-38bae3f013a5","system_id":"levelo_inurba_marseille","lat":43.32022,"lon":5.38139,"is_reserved":false,"is_disabled":false,"rental_uris":{"android":"levelo://app?vid=f453dc37-c945-448b-80e2-38bae3f013a5","ios":"levelo://app?vid=f453dc37-c945-448b-80e2-38bae3f013a5"},"vehicle_type_id":"4","last_reported":1732986434,"current_range_meters":33600,"station_id":"ce4bhr12rcd13ifvqhpg","pricing_plan_id":"cebpf4jnsgd1na2vs0mg"},{"bike_id":"3d2542c0-c220-41d3-a246-bae8450336b3","system_id":"levelo_inurba_marseille","lat":43.33025,"lon":5.39038,"is_reserved":false,"is_disabled":false,"rental_uris":{"android":"levelo://app?vid=3d2542c0-c220-41d3-a246-bae8450336b3","ios":"levelo://app?vid=3d2542c0-c220-41d3-a246-bae8450336b3"},"vehicle_type_id":"4","last_reported":1732986434,"current_range_meters":15200,"station_id":"ce4bhr92rcd13ifvqhrg","pricing_plan_id":"cebpf4jnsgd1na2vs0mg"},{"bike_id":"db859837-cb21-41ca-b64b-3ebed09d2649","system_id":"levelo_inurba_marseille","lat":43.26686,"lon":5.38268,"is_reserved":false,"is_disabled":true,"rental_uris":{"android":"levelo://app?vid=db859837-cb21-41ca-b64b-3ebed09d2649","ios":"levelo://app?vid=db859837-cb21-41ca-b64b-3ebed09d2649"},"vehicle_type_id":"4","last_reported":1732986434,"current_range_meters":1200,"station_id":"ce4bhg92rcd13ifvqf90","pricing_plan_id":"cebpf4jnsgd1na2vs0mg"},{"bike_id":"48ae2f92-29e4-484b-b3b9-bae69ccc2d07","system_id":"levelo_inurba_marseille","lat":43.26942,"lon":5.40261,"is_reserved":false,"is_disabled":false,"rental_uris":{"android":"levelo://app?vid=48ae2f92-29e4-484b-b3b9-bae69ccc2d07","ios":"levelo://app?vid=48ae2f92-29e4-484b-b3b9-bae69ccc2d07"},"vehicle_type_id":"4","last_reported":1732986434,"current_range_meters":15200,"station_id":"cjm6bp8fraef2m0cb0m0","pricing_plan_id":"cebpf4jnsgd1na2vs0mg"},{"bike_id":"b048c7f8-26ab-4136-af35-eaceb31d65ab","system_id":"levelo_inurba_marseille","lat":43.29893,"lon":5.43677,"is_reserved":false,"is_disabled":false,"rental_uris":{"android":"levelo://app?vid=b048c7f8-26ab-4136-af35-eaceb31d65ab","ios":"levelo://app?vid=b048c7f8-26ab-4136-af35-eaceb31d65ab"},"vehicle_type_id":"4","last_reported":1732986434,"current_range_meters":17200,"station_id":"ce4bhpp2rcd13ifvqhfg","pricing_plan_id":"cebpf4jnsgd1na2vs0mg"},{"bike_id":"f8968860-9ebe-425f-866f-a253a48101dd","system_id":"levelo_inurba_marseille","lat":43.28458,"lon":5.35899,"is_reserved":false,"is_disabled":true,"rental_uris":{"android":"levelo://app?vid=f8968860-9ebe-425f-866f-a253a48101dd","ios":"levelo://app?vid=f8968860-9ebe-425f-866f-a253a48101dd"},"vehicle_type_id":"4","last_reported":1732986434,"current_range_meters":4400,"station_id":"ce4bhah2rcd13ifvqei0","pricing_plan_id":"cebpf4jnsgd1na2vs0mg"},{"bike_id":"bc749360-3ce4-4dd6-a0ac-83aa82c323a7","system_id":"levelo_inurba_marseille","lat":43.28155,"lon":5.42644,"is_reserved":false,"is_disabled":true,"rental_uris":{"android":"levelo://app?vid=bc749360-3ce4-4dd6-a0ac-83aa82c323a7","ios":"levelo://app?vid=bc749360-3ce4-4dd6-a0ac-83aa82c323a7"},"vehicle_type_id":"4","last_reported":1732986434,"current_range_meters":34800,"station_id":"ce4bhnh2rcd13ifvqgug","pricing_plan_id":"cebpf4jnsgd1na2vs0mg"},{"bike_id":"f79d9ea2-0ace-4e3c-a531-2ea8f6923c89","system_id":"levelo_inurba_marseille","lat":43.28347,"lon":5.3811,"is_reserved":false,"is_disabled":false,"rental_uris":{"android":"levelo://app?vid=f79d9ea2-0ace-4e3c-a531-2ea8f6923c89","ios":"levelo://app?vid=f79d9ea2-0ace-4e3c-a531-2ea8f6923c89"},"vehicle_type_id":"4","last_reported":1732986434,"current_range_meters":29600,"station_id":"ce4bh412rcd13ifvqdr0","pricing_plan_id":"cebpf4jnsgd1na2vs0mg"},{"bike_id":"558747a2-4017-443c-bd21-43d4dcdb19d0","system_id":"levelo_inurba_marseille","lat":43.23195,"lon":5.35554,"is_reserved":false,"is_disabled":false,"rental_uris":{"android":"levelo://app?vid=558747a2-4017-443c-bd21-43d4dcdb19d0","ios":"levelo://app?vid=558747a2-4017-443c-bd21-43d4dcdb19d0"},"vehicle_type_id":"4","last_reported":1732986434,"current_range_meters":38800,"station_id":"ce4bhu92rcd13ifvqi70","pricing_plan_id":"cebpf4jnsgd1na2vs0mg"},{"bike_id":"4d4c884f-6933-49c0-8899-f9856d90f44d","system_id":"levelo_inurba_marseille","lat":43.29748,"lon":5.37971,"is_reserved":false,"is_disabled":true,"rental_uris":{"android":"levelo://app?vid=4d4c884f-6933-49c0-8899-f9856d90f44d","ios":"levelo://app?vid=4d4c884f-6933-49c0-8899-f9856d90f44d"},"vehicle_type_id":"4","last_reported":1732986434,"current_range_meters":0,"station_id":"","pricing_plan_id":"cebpf4jnsgd1na2vs0mg"},{"bike_id":"49383f8c-5e0c-4bb5-aa2b-e1c81f4536f3","system_id":"levelo_inurba_marseille","lat":43.32286,"lon":5.38267,"is_reserved":false,"is_disabled":false,"rental_uris":{"android":"levelo://app?vid=49383f8c-5e0c-4bb5-aa2b-e1c81f4536f3","ios":"levelo://app?vid=49383f8c-5e0c-4bb5-aa2b-e1c81f4536f3"},"vehicle_type_id":"4","last_reported":1732986434,"current_range_meters":29600,"station_id":"ce4bhr12rcd13ifvqhqg","pricing_plan_id":"cebpf4jnsgd1na2vs0mg"},{"bike_id":"e5753695-4bbb-4064-b72c-6dab9a292b74","system_id":"levelo_inurba_marseille","lat":43.28719,"lon":5.37393,"is_reserved":false,"is_disabled":false,"rental_uris":{"android":"levelo://app?vid=e5753695-4bbb-4064-b72c-6dab9a292b74","ios":"levelo://app?vid=e5753695-4bbb-4064-b72c-6dab9a292b74"},"vehicle_type_id":"4","last_reported":1732986434,"current_range_meters":35200,"station_id":"ce4bh3p2rcd13ifvqdq0","pricing_plan_id":"cebpf4jnsgd1na2vs0mg"},{"bike_id":"541d54dd-42eb-4288-bb01-ab2f6edebd5a","system_id":"levelo_inurba_marseille","lat":43.3171,"lon":5.43711,"is_reserved":false,"is_disabled":false,"rental_uris":{"android":"levelo://app?vid=541d54dd-42eb-4288-bb01-ab2f6edebd5a","ios":"levelo://app?vid=541d54dd-42eb-4288-bb01-ab2f6edebd5a"},"vehicle_type_id":"4","last_reported":1732986434,"current_range_meters":27200,"station_id":"ce4bhp92rcd13ifvqhcg","pricing_plan_id":"cebpf4jnsgd1na2vs0mg"},{"bike_id":"9009be37-c6b1-406b-b0a8-fbab355f715e","system_id":"levelo_inurba_marseille","lat":43.33763,"lon":5.37495,"is_reserved":false,"is_disabled":false,"rental_uris":{"android":"levelo://app?vid=9009be37-c6b1-406b-b0a8-fbab355f715e","ios":"levelo://app?vid=9009be37-c6b1-406b-b0a8-fbab355f715e"},"vehicle_type_id":"4","last_reported":1732986434,"current_range_meters":35600,"station_id":"","pricing_plan_id":"cebpf4jnsgd1na2vs0mg"},{"bike_id":"5a8e5be0-ffa3-4120-90cf-ff1441e3e895","system_id":"levelo_inurba_marseille","lat":43.28858,"lon":5.35837,"is_reserved":false,"is_disabled":false,"rental_uris":{"android":"levelo://app?vid=5a8e5be0-ffa3-4120-90cf-ff1441e3e895","ios":"levelo://app?vid=5a8e5be0-ffa3-4120-90cf-ff1441e3e895"},"vehicle_type_id":"4","last_reported":1732986434,"current_range_meters":16000,"station_id":"ce4bhb12rcd13ifvqem0","pricing_plan_id":"cebpf4jnsgd1na2vs0mg"},{"bike_id":"b7b33697-14a7-4110-9b8b-4194e6ef5f3f","system_id":"levelo_inurba_marseille","lat":43.27287,"lon":5.39213,"is_reserved":false,"is_disabled":true,"rental_uris":{"android":"levelo://app?vid=b7b33697-14a7-4110-9b8b-4194e6ef5f3f","ios":"levelo://app?vid=b7b33697-14a7-4110-9b8b-4194e6ef5f3f"},"vehicle_type_id":"4","last_reported":1732986434,"current_range_meters":400,"station_id":"","pricing_plan_id":"cebpf4jnsgd1na2vs0mg"},{"bike_id":"0b6aee06-e735-46a7-803e-8a833830fabf","system_id":"levelo_inurba_marseille","lat":43.30363,"lon":5.41885,"is_reserved":false,"is_disabled":true,"rental_uris":{"android":"levelo://app?vid=0b6aee06-e735-46a7-803e-8a833830fabf","ios":"levelo://app?vid=0b6aee06-e735-46a7-803e-8a833830fabf"},"vehicle_type_id":"4","last_reported":1732986434,"current_range_meters":0,"station_id":"ce4bhop2rcd13ifvqh7g","pricing_plan_id":"cebpf4jnsgd1na2vs0mg"},{"bike_id":"ac49fba4-30df-4893-b052-7d9d76fd86a2","system_id":"levelo_inurba_marseille","lat":43.29258,"lon":5.38434,"is_reserved":false,"is_disabled":true,"rental_uris":{"android":"levelo://app?vid=ac49fba4-30df-4893-b052-7d9d76fd86a2","ios":"levelo://app?vid=ac49fba4-30df-4893-b052-7d9d76fd86a2"},"vehicle_type_id":"4","last_reported":1732986434,"current_range_meters":17200,"station_id":"ce4bh692rcd13ifvqea0","pricing_plan_id":"cebpf4jnsgd1na2vs0mg"},{"bike_id":"be1ea8ae-bb6c-4cc9-9878-4dd6e7c328d6","system_id":"levelo_inurba_marseille","lat":43.32109,"lon":5.36778,"is_reserved":false,"is_disabled":false,"rental_uris":{"android":"levelo://app?vid=be1ea8ae-bb6c-4cc9-9878-4dd6e7c328d6","ios":"levelo://app?vid=be1ea8ae-bb6c-4cc9-9878-4dd6e7c328d6"},"vehicle_type_id":"4","last_reported":1732986434,"current_range_meters":30000,"station_id":"ce4bhrh2rcd13ifvqhug","pricing_plan_id":"cebpf4jnsgd1na2vs0mg"},{"bike_id":"3abdb507-aca9-41cf-ab5c-c13fb795c3a0","system_id":"levelo_inurba_marseille","lat":43.284054,"lon":5.349836,"is_reserved":false,"is_disabled":true,"rental_uris":{"android":"levelo://app?vid=3abdb507-aca9-41cf-ab5c-c13fb795c3a0","ios":"levelo://app?vid=3abdb507-aca9-41cf-ab5c-c13fb795c3a0"},"vehicle_type_id":"4","last_reported":1732986434,"current_range_meters":38800,"station_id":"ce4bhbh2rcd13ifvqepg","pricing_plan_id":"cebpf4jnsgd1na2vs0mg"},{"bike_id":"659c3713-9f69-48d4-ab56-f16999acb99a","system_id":"levelo_inurba_marseille","lat":43.33023,"lon":5.39043,"is_reserved":false,"is_disabled":false,"rental_uris":{"android":"levelo://app?vid=659c3713-9f69-48d4-ab56-f16999acb99a","ios":"levelo://app?vid=659c3713-9f69-48d4-ab56-f16999acb99a"},"vehicle_type_id":"4","last_reported":1732986434,"current_range_meters":25600,"station_id":"ce4bhr92rcd13ifvqhrg","pricing_plan_id":"cebpf4jnsgd1na2vs0mg"},{"bike_id":"954089e9-feaa-4445-b593-2ccef45bd958","system_id":"levelo_inurba_marseille","lat":43.25113,"lon":5.40325,"is_reserved":false,"is_disabled":false,"rental_uris":{"android":"levelo://app?vid=954089e9-feaa-4445-b593-2ccef45bd958","ios":"levelo://app?vid=954089e9-feaa-4445-b593-2ccef45bd958"},"vehicle_type_id":"4","last_reported":1732986434,"current_range_meters":8000,"station_id":"ce4bhlh2rcd13ifvqgig","pricing_plan_id":"cebpf4jnsgd1na2vs0mg"},{"bike_id":"97b35c0e-7e77-4f0a-83fa-58fbc99a2959","system_id":"levelo_inurba_marseille","lat":43.337444,"lon":5.374475,"is_reserved":false,"is_disabled":false,"rental_uris":{"android":"levelo://app?vid=97b35c0e-7e77-4f0a-83fa-58fbc99a2959","ios":"levelo://app?vid=97b35c0e-7e77-4f0a-83fa-58fbc99a2959"},"vehicle_type_id":"4","last_reported":1732986434,"current_range_meters":34800,"station_id":"","pricing_plan_id":"cebpf4jnsgd1na2vs0mg"},{"bike_id":"90e6624d-f15b-40a9-aa21-66d0047fb8c0","system_id":"levelo_inurba_marseille","lat":43.33733,"lon":5.37469,"is_reserved":false,"is_disabled":false,"rental_uris":{"android":"levelo://app?vid=90e6624d-f15b-40a9-aa21-66d0047fb8c0","ios":"levelo://app?vid=90e6624d-f15b-40a9-aa21-66d0047fb8c0"},"vehicle_type_id":"4","last_reported":1732986434,"current_range_meters":10000,"station_id":"","pricing_plan_id":"cebpf4jnsgd1na2vs0mg"},{"bike_id":"5d7560ca-2d2d-46fd-ba91-63027f6383d6","system_id":"levelo_inurba_marseille","lat":43.31214,"lon":5.36859,"is_reserved":false,"is_disabled":true,"rental_uris":{"android":"levelo://app?vid=5d7560ca-2d2d-46fd-ba91-63027f6383d6","ios":"levelo://app?vid=5d7560ca-2d2d-46fd-ba91-63027f6383d6"},"vehicle_type_id":"4","last_reported":1732986434,"current_range_meters":1600,"station_id":"ce4bgl92rcd13ifvqbq0","pricing_plan_id":"cebpf4jnsgd1na2vs0mg"},{"bike_id":"d8893ea1-0749-47d0-bcb7-133a48050ff5","system_id":"levelo_inurba_marseille","lat":43.24651,"lon":5.38903,"is_reserved":false,"is_disabled":false,"rental_uris":{"android":"levelo://app?vid=d8893ea1-0749-47d0-bcb7-133a48050ff5","ios":"levelo://app?vid=d8893ea1-0749-47d0-bcb7-133a48050ff5"},"vehicle_type_id":"4","last_reported":1732986434,"current_range_meters":9200,"station_id":"ce4bhg12rcd13ifvqf60","pricing_plan_id":"cebpf4jnsgd1na2vs0mg"},{"bike_id":"c460178b-6df6-4478-98a9-6104412c9c24","system_id":"levelo_inurba_marseille","lat":43.28503,"lon":5.40435,"is_reserved":false,"is_disabled":true,"rental_uris":{"android":"levelo://app?vid=c460178b-6df6-4478-98a9-6104412c9c24","ios":"levelo://app?vid=c460178b-6df6-4478-98a9-6104412c9c24"},"vehicle_type_id":"4","last_reported":1732986434,"current_range_meters":1600,"station_id":"","pricing_plan_id":"cebpf4jnsgd1na2vs0mg"},{"bike_id":"256ed7b4-aff1-4687-9338-98ca1590cf7b","system_id":"levelo_inurba_marseille","lat":43.3374,"lon":5.37455,"is_reserved":false,"is_disabled":false,"rental_uris":{"android":"levelo://app?vid=256ed7b4-aff1-4687-9338-98ca1590cf7b","ios":"levelo://app?vid=256ed7b4-aff1-4687-9338-98ca1590cf7b"},"vehicle_type_id":"4","last_reported":1732986434,"current_range_meters":24400,"station_id":"","pricing_plan_id":"cebpf4jnsgd1na2vs0mg"},{"bike_id":"bfac96be-84ea-4d46-b8ec-2d2ec42af2b7","system_id":"levelo_inurba_marseille","lat":43.24809,"lon":5.37456,"is_reserved":false,"is_disabled":false,"rental_uris":{"android":"levelo://app?vid=bfac96be-84ea-4d46-b8ec-2d2ec42af2b7","ios":"levelo://app?vid=bfac96be-84ea-4d46-b8ec-2d2ec42af2b7"},"vehicle_type_id":"4","last_reported":1732986434,"current_range_meters":39200,"station_id":"ce4bhgh2rcd13ifvqfb0","pricing_plan_id":"cebpf4jnsgd1na2vs0mg"},{"bike_id":"064861a6-5a15-4e22-bc40-26ea165590ab","system_id":"levelo_inurba_marseille","lat":43.29196,"lon":5.39313,"is_reserved":false,"is_disabled":true,"rental_uris":{"android":"levelo://app?vid=064861a6-5a15-4e22-bc40-26ea165590ab","ios":"levelo://app?vid=064861a6-5a15-4e22-bc40-26ea165590ab"},"vehicle_type_id":"4","last_reported":1732986434,"current_range_meters":28000,"station_id":"ce4bh192rcd13ifvqdd0","pricing_plan_id":"cebpf4jnsgd1na2vs0mg"},{"bike_id":"b8d221d1-00cf-4129-b324-48f704893d04","system_id":"levelo_inurba_marseille","lat":43.28442,"lon":5.37531,"is_reserved":false,"is_disabled":true,"rental_uris":{"android":"levelo://app?vid=b8d221d1-00cf-4129-b324-48f704893d04","ios":"levelo://app?vid=b8d221d1-00cf-4129-b324-48f704893d04"},"vehicle_type_id":"4","last_reported":1732986434,"current_range_meters":0,"station_id":"","pricing_plan_id":"cebpf4jnsgd1na2vs0mg"},{"bike_id":"e8fa7be1-2407-41a7-b843-e7c70f1917ef","system_id":"levelo_inurba_marseille","lat":43.27611,"lon":5.36109,"is_reserved":false,"is_disabled":true,"rental_uris":{"android":"levelo://app?vid=e8fa7be1-2407-41a7-b843-e7c70f1917ef","ios":"levelo://app?vid=e8fa7be1-2407-41a7-b843-e7c70f1917ef"},"vehicle_type_id":"4","last_reported":1732986434,"current_range_meters":0,"station_id":"ce4bgj92rcd13ifvqbe0","pricing_plan_id":"cebpf4jnsgd1na2vs0mg"},{"bike_id":"a4404dac-00c5-4861-a1ae-6d042a4030f1","system_id":"levelo_inurba_marseille","lat":43.33743,"lon":5.37473,"is_reserved":false,"is_disabled":false,"rental_uris":{"android":"levelo://app?vid=a4404dac-00c5-4861-a1ae-6d042a4030f1","ios":"levelo://app?vid=a4404dac-00c5-4861-a1ae-6d042a4030f1"},"vehicle_type_id":"4","last_reported":1732986434,"current_range_meters":8800,"station_id":"","pricing_plan_id":"cebpf4jnsgd1na2vs0mg"},{"bike_id":"9c88cc15-92bd-4b57-a3de-523adcebf2b9","system_id":"levelo_inurba_marseille","lat":43.31332,"lon":5.39709,"is_reserved":false,"is_disabled":false,"rental_uris":{"android":"levelo://app?vid=9c88cc15-92bd-4b57-a3de-523adcebf2b9","ios":"levelo://app?vid=9c88cc15-92bd-4b57-a3de-523adcebf2b9"},"vehicle_type_id":"4","last_reported":1732986434,"current_range_meters":0,"station_id":"ce4bgvp2rcd13ifvqcu0","pricing_plan_id":"cebpf4jnsgd1na2vs0mg"},{"bike_id":"204fc75e-4d06-445a-918d-d342a0d8eebe","system_id":"levelo_inurba_marseille","lat":43.26681,"lon":5.38268,"is_reserved":false,"is_disabled":true,"rental_uris":{"android":"levelo://app?vid=204fc75e-4d06-445a-918d-d342a0d8eebe","ios":"levelo://app?vid=204fc75e-4d06-445a-918d-d342a0d8eebe"},"vehicle_type_id":"4","last_reported":1732986434,"current_range_meters":1200,"station_id":"ce4bhg92rcd13ifvqf90","pricing_plan_id":"cebpf4jnsgd1na2vs0mg"},{"bike_id":"89669971-da86-4f45-8e31-5521e42cb808","system_id":"levelo_inurba_marseille","lat":43.28459,"lon":5.35896,"is_reserved":false,"is_disabled":false,"rental_uris":{"android":"levelo://app?vid=89669971-da86-4f45-8e31-5521e42cb808","ios":"levelo://app?vid=89669971-da86-4f45-8e31-5521e42cb808"},"vehicle_type_id":"4","last_reported":1732986434,"current_range_meters":25600,"station_id":"ce4bhah2rcd13ifvqei0","pricing_plan_id":"cebpf4jnsgd1na2vs0mg"},{"bike_id":"ae110baa-6fa5-463d-9c19-2aa3237d6213","system_id":"levelo_inurba_marseille","lat":43.23193,"lon":5.35561,"is_reserved":false,"is_disabled":false,"rental_uris":{"android":"levelo://app?vid=ae110baa-6fa5-463d-9c19-2aa3237d6213","ios":"levelo://app?vid=ae110baa-6fa5-463d-9c19-2aa3237d6213"},"vehicle_type_id":"4","last_reported":1732986434,"current_range_meters":24800,"station_id":"ce4bhu92rcd13ifvqi70","pricing_plan_id":"cebpf4jnsgd1na2vs0mg"},{"bike_id":"cd64a4e4-7dd1-4319-a2a3-5c11ddf00832","system_id":"levelo_inurba_marseille","lat":43.290698,"lon":5.371583,"is_reserved":false,"is_disabled":false,"rental_uris":{"android":"levelo://app?vid=cd64a4e4-7dd1-4319-a2a3-5c11ddf00832","ios":"levelo://app?vid=cd64a4e4-7dd1-4319-a2a3-5c11ddf00832"},"vehicle_type_id":"4","last_reported":1732986434,"current_range_meters":36400,"station_id":"ce4bh5p2rcd13ifvqe4g","pricing_plan_id":"cebpf4jnsgd1na2vs0mg"},{"bike_id":"a38ecd7b-a85d-46ba-a33b-c7409f7505c5","system_id":"levelo_inurba_marseille","lat":43.30353,"lon":5.41881,"is_reserved":false,"is_disabled":false,"rental_uris":{"android":"levelo://app?vid=a38ecd7b-a85d-46ba-a33b-c7409f7505c5","ios":"levelo://app?vid=a38ecd7b-a85d-46ba-a33b-c7409f7505c5"},"vehicle_type_id":"4","last_reported":1732986434,"current_range_meters":27200,"station_id":"ce4bhop2rcd13ifvqh7g","pricing_plan_id":"cebpf4jnsgd1na2vs0mg"},{"bike_id":"9700beae-0fbf-4e58-beda-d02b6fed27fe","system_id":"levelo_inurba_marseille","lat":43.337444,"lon":5.374475,"is_reserved":false,"is_disabled":false,"rental_uris":{"android":"levelo://app?vid=9700beae-0fbf-4e58-beda-d02b6fed27fe","ios":"levelo://app?vid=9700beae-0fbf-4e58-beda-d02b6fed27fe"},"vehicle_type_id":"4","last_reported":1732986434,"current_range_meters":38000,"station_id":"","pricing_plan_id":"cebpf4jnsgd1na2vs0mg"},{"bike_id":"dc64387b-bd31-45ba-8e8d-e1b3cc9142e8","system_id":"levelo_inurba_marseille","lat":43.29276,"lon":5.36841,"is_reserved":false,"is_disabled":false,"rental_uris":{"android":"levelo://app?vid=dc64387b-bd31-45ba-8e8d-e1b3cc9142e8","ios":"levelo://app?vid=dc64387b-bd31-45ba-8e8d-e1b3cc9142e8"},"vehicle_type_id":"4","last_reported":1732986434,"current_range_meters":6800,"station_id":"ce4bhbp2rcd13ifvqesg","pricing_plan_id":"cebpf4jnsgd1na2vs0mg"},{"bike_id":"4cbc56bc-2894-4b0d-a20c-4ad79db29639","system_id":"levelo_inurba_marseille","lat":43.29071,"lon":5.37165,"is_reserved":false,"is_disabled":false,"rental_uris":{"android":"levelo://app?vid=4cbc56bc-2894-4b0d-a20c-4ad79db29639","ios":"levelo://app?vid=4cbc56bc-2894-4b0d-a20c-4ad79db29639"},"vehicle_type_id":"4","last_reported":1732986434,"current_range_meters":37600,"station_id":"ce4bh5p2rcd13ifvqe4g","pricing_plan_id":"cebpf4jnsgd1na2vs0mg"},{"bike_id":"df14af07-1450-4823-ac05-75a4bb186b43","system_id":"levelo_inurba_marseille","lat":43.2837,"lon":5.38629,"is_reserved":false,"is_disabled":false,"rental_uris":{"android":"levelo://app?vid=df14af07-1450-4823-ac05-75a4bb186b43","ios":"levelo://app?vid=df14af07-1450-4823-ac05-75a4bb186b43"},"vehicle_type_id":"4","last_reported":1732986434,"current_range_meters":27600,"station_id":"ce4bh492rcd13ifvqdvg","pricing_plan_id":"cebpf4jnsgd1na2vs0mg"},{"bike_id":"0a5eaca4-f299-43d9-a0a7-c7be0ad486f9","system_id":"levelo_inurba_marseille","lat":43.27971,"lon":5.3876,"is_reserved":false,"is_disabled":false,"rental_uris":{"android":"levelo://app?vid=0a5eaca4-f299-43d9-a0a7-c7be0ad486f9","ios":"levelo://app?vid=0a5eaca4-f299-43d9-a0a7-c7be0ad486f9"},"vehicle_type_id":"4","last_reported":1732986434,"current_range_meters":34000,"station_id":"ce4bhg12rcd13ifvqf80","pricing_plan_id":"cebpf4jnsgd1na2vs0mg"},{"bike_id":"1b3cfe64-71c1-42ce-b697-f06ec425cf67","system_id":"levelo_inurba_marseille","lat":43.29198,"lon":5.39308,"is_reserved":false,"is_disabled":true,"rental_uris":{"android":"levelo://app?vid=1b3cfe64-71c1-42ce-b697-f06ec425cf67","ios":"levelo://app?vid=1b3cfe64-71c1-42ce-b697-f06ec425cf67"},"vehicle_type_id":"4","last_reported":1732986434,"current_range_meters":0,"station_id":"ce4bh192rcd13ifvqdd0","pricing_plan_id":"cebpf4jnsgd1na2vs0mg"},{"bike_id":"4a2be555-d056-454c-bed3-fe781ba86f8e","system_id":"levelo_inurba_marseille","lat":43.25886,"lon":5.39954,"is_reserved":false,"is_disabled":true,"rental_uris":{"android":"levelo://app?vid=4a2be555-d056-454c-bed3-fe781ba86f8e","ios":"levelo://app?vid=4a2be555-d056-454c-bed3-fe781ba86f8e"},"vehicle_type_id":"4","last_reported":1732986434,"current_range_meters":0,"station_id":"","pricing_plan_id":"cebpf4jnsgd1na2vs0mg"},{"bike_id":"0762035b-11a6-43b1-906c-953817361917","system_id":"levelo_inurba_marseille","lat":43.324804,"lon":5.365594,"is_reserved":false,"is_disabled":false,"rental_uris":{"android":"levelo://app?vid=0762035b-11a6-43b1-906c-953817361917","ios":"levelo://app?vid=0762035b-11a6-43b1-906c-953817361917"},"vehicle_type_id":"4","last_reported":1732986434,"current_range_meters":39200,"station_id":"ce4bhs12rcd13ifvqhvg","pricing_plan_id":"cebpf4jnsgd1na2vs0mg"},{"bike_id":"464322fb-fd6d-40e8-a43d-536bd3e518f1","system_id":"levelo_inurba_marseille","lat":43.287842,"lon":5.363054,"is_reserved":false,"is_disabled":false,"rental_uris":{"android":"levelo://app?vid=464322fb-fd6d-40e8-a43d-536bd3e518f1","ios":"levelo://app?vid=464322fb-fd6d-40e8-a43d-536bd3e518f1"},"vehicle_type_id":"4","last_reported":1732986434,"current_range_meters":35600,"station_id":"cki0cbj6b192h4jlfktg","pricing_plan_id":"cebpf4jnsgd1na2vs0mg"},{"bike_id":"8942a591-de10-4ccf-b053-77881b8b9160","system_id":"levelo_inurba_marseille","lat":43.25002,"lon":5.3893,"is_reserved":false,"is_disabled":true,"rental_uris":{"android":"levelo://app?vid=8942a591-de10-4ccf-b053-77881b8b9160","ios":"levelo://app?vid=8942a591-de10-4ccf-b053-77881b8b9160"},"vehicle_type_id":"4","last_reported":1732986434,"current_range_meters":0,"station_id":"ce4bhgp2rcd13ifvqfd0","pricing_plan_id":"cebpf4jnsgd1na2vs0mg"},{"bike_id":"41329919-d8a6-4529-9c36-e6723e50ee60","system_id":"levelo_inurba_marseille","lat":43.30301,"lon":5.39198,"is_reserved":false,"is_disabled":true,"rental_uris":{"android":"levelo://app?vid=41329919-d8a6-4529-9c36-e6723e50ee60","ios":"levelo://app?vid=41329919-d8a6-4529-9c36-e6723e50ee60"},"vehicle_type_id":"4","last_reported":1732986434,"current_range_meters":35600,"station_id":"ce4bgkh2rcd13ifvqbk0","pricing_plan_id":"cebpf4jnsgd1na2vs0mg"},{"bike_id":"f9e38304-47c0-472e-ba01-8ebbcd8adaf6","system_id":"levelo_inurba_marseille","lat":43.2717,"lon":5.4099,"is_reserved":false,"is_disabled":true,"rental_uris":{"android":"levelo://app?vid=f9e38304-47c0-472e-ba01-8ebbcd8adaf6","ios":"levelo://app?vid=f9e38304-47c0-472e-ba01-8ebbcd8adaf6"},"vehicle_type_id":"4","last_reported":1732986434,"current_range_meters":11200,"station_id":"ce4bhl12rcd13ifvqgf0","pricing_plan_id":"cebpf4jnsgd1na2vs0mg"},{"bike_id":"80ee5806-271f-4b24-a602-2dc27d804313","system_id":"levelo_inurba_marseille","lat":43.32114,"lon":5.36773,"is_reserved":false,"is_disabled":false,"rental_uris":{"android":"levelo://app?vid=80ee5806-271f-4b24-a602-2dc27d804313","ios":"levelo://app?vid=80ee5806-271f-4b24-a602-2dc27d804313"},"vehicle_type_id":"4","last_reported":1732986434,"current_range_meters":8800,"station_id":"ce4bhrh2rcd13ifvqhug","pricing_plan_id":"cebpf4jnsgd1na2vs0mg"},{"bike_id":"5d7f71b2-bb02-495b-80e3-1e95dd1f2aab","system_id":"levelo_inurba_marseille","lat":43.29925,"lon":5.37469,"is_reserved":false,"is_disabled":false,"rental_uris":{"android":"levelo://app?vid=5d7f71b2-bb02-495b-80e3-1e95dd1f2aab","ios":"levelo://app?vid=5d7f71b2-bb02-495b-80e3-1e95dd1f2aab"},"vehicle_type_id":"4","last_reported":1732986434,"current_range_meters":38800,"station_id":"ce4bgjh2rcd13ifvqbg0","pricing_plan_id":"cebpf4jnsgd1na2vs0mg"},{"bike_id":"000b518d-442b-4752-8b9a-e2fc3654d286","system_id":"levelo_inurba_marseille","lat":43.29437,"lon":5.39759,"is_reserved":false,"is_disabled":true,"rental_uris":{"android":"levelo://app?vid=000b518d-442b-4752-8b9a-e2fc3654d286","ios":"levelo://app?vid=000b518d-442b-4752-8b9a-e2fc3654d286"},"vehicle_type_id":"4","last_reported":1732986434,"current_range_meters":22400,"station_id":"ce4bh3h2rcd13ifvqdo0","pricing_plan_id":"cebpf4jnsgd1na2vs0mg"},{"bike_id":"fde7b678-dd5e-4ce7-b11f-2591f9b3ae36","system_id":"levelo_inurba_marseille","lat":43.2952,"lon":5.39406,"is_reserved":false,"is_disabled":false,"rental_uris":{"android":"levelo://app?vid=fde7b678-dd5e-4ce7-b11f-2591f9b3ae36","ios":"levelo://app?vid=fde7b678-dd5e-4ce7-b11f-2591f9b3ae36"},"vehicle_type_id":"4","last_reported":1732986434,"current_range_meters":38800,"station_id":"ce4bh292rcd13ifvqdf0","pricing_plan_id":"cebpf4jnsgd1na2vs0mg"},{"bike_id":"b2da2633-98d6-42c6-aa7f-68fbf806b027","system_id":"levelo_inurba_marseille","lat":43.31268,"lon":5.40175,"is_reserved":false,"is_disabled":false,"rental_uris":{"android":"levelo://app?vid=b2da2633-98d6-42c6-aa7f-68fbf806b027","ios":"levelo://app?vid=b2da2633-98d6-42c6-aa7f-68fbf806b027"},"vehicle_type_id":"4","last_reported":1732986434,"current_range_meters":39200,"station_id":"ce4bh092rcd13ifvqd30","pricing_plan_id":"cebpf4jnsgd1na2vs0mg"},{"bike_id":"489fc078-53ba-46cd-9b33-a7c9c289306b","system_id":"levelo_inurba_marseille","lat":43.26942,"lon":5.40246,"is_reserved":false,"is_disabled":true,"rental_uris":{"android":"levelo://app?vid=489fc078-53ba-46cd-9b33-a7c9c289306b","ios":"levelo://app?vid=489fc078-53ba-46cd-9b33-a7c9c289306b"},"vehicle_type_id":"4","last_reported":1732986434,"current_range_meters":0,"station_id":"cjm6bp8fraef2m0cb0m0","pricing_plan_id":"cebpf4jnsgd1na2vs0mg"},{"bike_id":"981f5323-76ee-4aff-abdb-308b2ece5ca8","system_id":"levelo_inurba_marseille","lat":43.33729,"lon":5.39182,"is_reserved":false,"is_disabled":false,"rental_uris":{"android":"levelo://app?vid=981f5323-76ee-4aff-abdb-308b2ece5ca8","ios":"levelo://app?vid=981f5323-76ee-4aff-abdb-308b2ece5ca8"},"vehicle_type_id":"4","last_reported":1732986434,"current_range_meters":38800,"station_id":"ce4bhr92rcd13ifvqhsg","pricing_plan_id":"cebpf4jnsgd1na2vs0mg"},{"bike_id":"4691b678-f604-46b2-bff5-4e3b3a69a693","system_id":"levelo_inurba_marseille","lat":43.29253,"lon":5.38451,"is_reserved":false,"is_disabled":true,"rental_uris":{"android":"levelo://app?vid=4691b678-f604-46b2-bff5-4e3b3a69a693","ios":"levelo://app?vid=4691b678-f604-46b2-bff5-4e3b3a69a693"},"vehicle_type_id":"4","last_reported":1732986434,"current_range_meters":0,"station_id":"ce4bh692rcd13ifvqea0","pricing_plan_id":"cebpf4jnsgd1na2vs0mg"},{"bike_id":"b535dfd0-ec01-4a13-996f-71245b6113cc","system_id":"levelo_inurba_marseille","lat":43.27979,"lon":5.41236,"is_reserved":false,"is_disabled":true,"rental_uris":{"android":"levelo://app?vid=b535dfd0-ec01-4a13-996f-71245b6113cc","ios":"levelo://app?vid=b535dfd0-ec01-4a13-996f-71245b6113cc"},"vehicle_type_id":"4","last_reported":1732986434,"current_range_meters":800,"station_id":"","pricing_plan_id":"cebpf4jnsgd1na2vs0mg"},{"bike_id":"caab5f43-83a3-464a-ad6d-267c593f1271","system_id":"levelo_inurba_marseille","lat":43.26555,"lon":5.37289,"is_reserved":false,"is_disabled":false,"rental_uris":{"android":"levelo://app?vid=caab5f43-83a3-464a-ad6d-267c593f1271","ios":"levelo://app?vid=caab5f43-83a3-464a-ad6d-267c593f1271"},"vehicle_type_id":"4","last_reported":1732986434,"current_range_meters":26000,"station_id":"ce4bhg12rcd13ifvqf70","pricing_plan_id":"cebpf4jnsgd1na2vs0mg"},{"bike_id":"c708c9e6-c46e-449c-873d-bb4f6f1eb744","system_id":"levelo_inurba_marseille","lat":43.2842,"lon":5.37516,"is_reserved":false,"is_disabled":false,"rental_uris":{"android":"levelo://app?vid=c708c9e6-c46e-449c-873d-bb4f6f1eb744","ios":"levelo://app?vid=c708c9e6-c46e-449c-873d-bb4f6f1eb744"},"vehicle_type_id":"4","last_reported":1732986434,"current_range_meters":16400,"station_id":"ce4bh412rcd13ifvqds0","pricing_plan_id":"cebpf4jnsgd1na2vs0mg"},{"bike_id":"b642d79a-bd2c-495a-acdd-099583f67bf5","system_id":"levelo_inurba_marseille","lat":43.3229,"lon":5.38257,"is_reserved":false,"is_disabled":false,"rental_uris":{"android":"levelo://app?vid=b642d79a-bd2c-495a-acdd-099583f67bf5","ios":"levelo://app?vid=b642d79a-bd2c-495a-acdd-099583f67bf5"},"vehicle_type_id":"4","last_reported":1732986434,"current_range_meters":30400,"station_id":"ce4bhr12rcd13ifvqhqg","pricing_plan_id":"cebpf4jnsgd1na2vs0mg"},{"bike_id":"29a80c71-9648-4a26-b6c9-5f69092eaa01","system_id":"levelo_inurba_marseille","lat":43.2707,"lon":5.42279,"is_reserved":false,"is_disabled":false,"rental_uris":{"android":"levelo://app?vid=29a80c71-9648-4a26-b6c9-5f69092eaa01","ios":"levelo://app?vid=29a80c71-9648-4a26-b6c9-5f69092eaa01"},"vehicle_type_id":"4","last_reported":1732986434,"current_range_meters":38800,"station_id":"ce4bhk92rcd13ifvqgb0","pricing_plan_id":"cebpf4jnsgd1na2vs0mg"},{"bike_id":"9177c18d-e474-4d35-bdcd-837fee3b44a4","system_id":"levelo_inurba_marseille","lat":43.28677,"lon":5.37398,"is_reserved":false,"is_disabled":false,"rental_uris":{"android":"levelo://app?vid=9177c18d-e474-4d35-bdcd-837fee3b44a4","ios":"levelo://app?vid=9177c18d-e474-4d35-bdcd-837fee3b44a4"},"vehicle_type_id":"4","last_reported":1732986434,"current_range_meters":35600,"station_id":"ce4bh3p2rcd13ifvqdq0","pricing_plan_id":"cebpf4jnsgd1na2vs0mg"},{"bike_id":"0174841e-8011-4a7b-bd18-480101bee765","system_id":"levelo_inurba_marseille","lat":43.23965,"lon":5.36624,"is_reserved":false,"is_disabled":true,"rental_uris":{"android":"levelo://app?vid=0174841e-8011-4a7b-bd18-480101bee765","ios":"levelo://app?vid=0174841e-8011-4a7b-bd18-480101bee765"},"vehicle_type_id":"4","last_reported":1732986434,"current_range_meters":0,"station_id":"ce4bhi12rcd13ifvqfp0","pricing_plan_id":"cebpf4jnsgd1na2vs0mg"},{"bike_id":"57f6809c-71df-4d3d-9905-96c2a8483077","system_id":"levelo_inurba_marseille","lat":43.24166,"lon":5.36395,"is_reserved":false,"is_disabled":false,"rental_uris":{"android":"levelo://app?vid=57f6809c-71df-4d3d-9905-96c2a8483077","ios":"levelo://app?vid=57f6809c-71df-4d3d-9905-96c2a8483077"},"vehicle_type_id":"4","last_reported":1732986434,"current_range_meters":14400,"station_id":"cpo36qri1sfpv3e86is0","pricing_plan_id":"cebpf4jnsgd1na2vs0mg"},{"bike_id":"5266e56c-fec7-47f4-8ba4-85edce46295d","system_id":"levelo_inurba_marseille","lat":43.28156,"lon":5.42651,"is_reserved":false,"is_disabled":false,"rental_uris":{"android":"levelo://app?vid=5266e56c-fec7-47f4-8ba4-85edce46295d","ios":"levelo://app?vid=5266e56c-fec7-47f4-8ba4-85edce46295d"},"vehicle_type_id":"4","last_reported":1732986434,"current_range_meters":32800,"station_id":"ce4bhnh2rcd13ifvqgug","pricing_plan_id":"cebpf4jnsgd1na2vs0mg"},{"bike_id":"bd431f25-ba7f-4453-be70-c1766ec5a31f","system_id":"levelo_inurba_marseille","lat":43.31485,"lon":5.37309,"is_reserved":false,"is_disabled":false,"rental_uris":{"android":"levelo://app?vid=bd431f25-ba7f-4453-be70-c1766ec5a31f","ios":"levelo://app?vid=bd431f25-ba7f-4453-be70-c1766ec5a31f"},"vehicle_type_id":"4","last_reported":1732986434,"current_range_meters":6000,"station_id":"ce4bgt12rcd13ifvqcd0","pricing_plan_id":"cebpf4jnsgd1na2vs0mg"},{"bike_id":"0142d6ca-0df3-4818-9b8d-2df3c8064b24","system_id":"levelo_inurba_marseille","lat":43.24221,"lon":5.37384,"is_reserved":false,"is_disabled":false,"rental_uris":{"android":"levelo://app?vid=0142d6ca-0df3-4818-9b8d-2df3c8064b24","ios":"levelo://app?vid=0142d6ca-0df3-4818-9b8d-2df3c8064b24"},"vehicle_type_id":"4","last_reported":1732986434,"current_range_meters":37600,"station_id":"ce4bhg12rcd13ifvqf60","pricing_plan_id":"cebpf4jnsgd1na2vs0mg"},{"bike_id":"a233b25b-869e-422b-bf5e-63d3d8ff686f","system_id":"levelo_inurba_marseille","lat":43.30932,"lon":5.40154,"is_reserved":false,"is_disabled":true,"rental_uris":{"android":"levelo://app?vid=a233b25b-869e-422b-bf5e-63d3d8ff686f","ios":"levelo://app?vid=a233b25b-869e-422b-bf5e-63d3d8ff686f"},"vehicle_type_id":"4","last_reported":1732986434,"current_range_meters":24000,"station_id":"ce4bgvp2rcd13ifvqct0","pricing_plan_id":"cebpf4jnsgd1na2vs0mg"},{"bike_id":"14603f7c-e634-431b-90ff-f1d3547e5a2e","system_id":"levelo_inurba_marseille","lat":43.28484,"lon":5.37465,"is_reserved":false,"is_disabled":false,"rental_uris":{"android":"levelo://app?vid=14603f7c-e634-431b-90ff-f1d3547e5a2e","ios":"levelo://app?vid=14603f7c-e634-431b-90ff-f1d3547e5a2e"},"vehicle_type_id":"4","last_reported":1732986434,"current_range_meters":27600,"station_id":"ce4bh412rcd13ifvqds0","pricing_plan_id":"cebpf4jnsgd1na2vs0mg"},{"bike_id":"12ba7dd0-6a56-48af-8971-129f9405fb29","system_id":"levelo_inurba_marseille","lat":43.32484,"lon":5.36565,"is_reserved":false,"is_disabled":false,"rental_uris":{"android":"levelo://app?vid=12ba7dd0-6a56-48af-8971-129f9405fb29","ios":"levelo://app?vid=12ba7dd0-6a56-48af-8971-129f9405fb29"},"vehicle_type_id":"4","last_reported":1732986434,"current_range_meters":12400,"station_id":"ce4bhs12rcd13ifvqhvg","pricing_plan_id":"cebpf4jnsgd1na2vs0mg"},{"bike_id":"3c77f46c-7f4d-4089-bcf9-0405b8b749e4","system_id":"levelo_inurba_marseille","lat":43.31997,"lon":5.38166,"is_reserved":false,"is_disabled":false,"rental_uris":{"android":"levelo://app?vid=3c77f46c-7f4d-4089-bcf9-0405b8b749e4","ios":"levelo://app?vid=3c77f46c-7f4d-4089-bcf9-0405b8b749e4"},"vehicle_type_id":"4","last_reported":1732986434,"current_range_meters":38000,"station_id":"ce4bhr12rcd13ifvqhpg","pricing_plan_id":"cebpf4jnsgd1na2vs0mg"},{"bike_id":"7db095fe-335f-455d-9456-2582bbc72d93","system_id":"levelo_inurba_marseille","lat":43.29896,"lon":5.4366,"is_reserved":false,"is_disabled":false,"rental_uris":{"android":"levelo://app?vid=7db095fe-335f-455d-9456-2582bbc72d93","ios":"levelo://app?vid=7db095fe-335f-455d-9456-2582bbc72d93"},"vehicle_type_id":"4","last_reported":1732986434,"current_range_meters":22400,"station_id":"ce4bhpp2rcd13ifvqhfg","pricing_plan_id":"cebpf4jnsgd1na2vs0mg"},{"bike_id":"af835ed0-2d1c-4d8a-a111-0d4bdc96e174","system_id":"levelo_inurba_marseille","lat":43.290344,"lon":5.386442,"is_reserved":false,"is_disabled":false,"rental_uris":{"android":"levelo://app?vid=af835ed0-2d1c-4d8a-a111-0d4bdc96e174","ios":"levelo://app?vid=af835ed0-2d1c-4d8a-a111-0d4bdc96e174"},"vehicle_type_id":"4","last_reported":1732986434,"current_range_meters":10000,"station_id":"ce4bh4p2rcd13ifvqe0g","pricing_plan_id":"cebpf4jnsgd1na2vs0mg"},{"bike_id":"e01f77f3-e372-43fa-ad77-ff023023404a","system_id":"levelo_inurba_marseille","lat":43.26035,"lon":5.37551,"is_reserved":false,"is_disabled":false,"rental_uris":{"android":"levelo://app?vid=e01f77f3-e372-43fa-ad77-ff023023404a","ios":"levelo://app?vid=e01f77f3-e372-43fa-ad77-ff023023404a"},"vehicle_type_id":"4","last_reported":1732986434,"current_range_meters":7200,"station_id":"ce4bhgh2rcd13ifvqfa0","pricing_plan_id":"cebpf4jnsgd1na2vs0mg"},{"bike_id":"2304999b-2615-446b-8352-377527763972","system_id":"levelo_inurba_marseille","lat":43.2951,"lon":5.3904,"is_reserved":false,"is_disabled":false,"rental_uris":{"android":"levelo://app?vid=2304999b-2615-446b-8352-377527763972","ios":"levelo://app?vid=2304999b-2615-446b-8352-377527763972"},"vehicle_type_id":"4","last_reported":1732986434,"current_range_meters":16000,"station_id":"ce4bh3p2rcd13ifvqdp0","pricing_plan_id":"cebpf4jnsgd1na2vs0mg"},{"bike_id":"482eab27-04fd-499d-9021-ea7bb0e1a0c7","system_id":"levelo_inurba_marseille","lat":43.29582,"lon":5.3674,"is_reserved":false,"is_disabled":false,"rental_uris":{"android":"levelo://app?vid=482eab27-04fd-499d-9021-ea7bb0e1a0c7","ios":"levelo://app?vid=482eab27-04fd-499d-9021-ea7bb0e1a0c7"},"vehicle_type_id":"4","last_reported":1732986434,"current_range_meters":38400,"station_id":"ce4bgph2rcd13ifvqc2g","pricing_plan_id":"cebpf4jnsgd1na2vs0mg"},{"bike_id":"e551bc68-b2ed-492b-a956-e7a573412909","system_id":"levelo_inurba_marseille","lat":43.29281,"lon":5.36848,"is_reserved":false,"is_disabled":false,"rental_uris":{"android":"levelo://app?vid=e551bc68-b2ed-492b-a956-e7a573412909","ios":"levelo://app?vid=e551bc68-b2ed-492b-a956-e7a573412909"},"vehicle_type_id":"4","last_reported":1732986434,"current_range_meters":39200,"station_id":"ce4bhbp2rcd13ifvqesg","pricing_plan_id":"cebpf4jnsgd1na2vs0mg"},{"bike_id":"27d13c7a-6338-48dc-81dd-618b3e4ff60b","system_id":"levelo_inurba_marseille","lat":43.28363,"lon":5.38637,"is_reserved":false,"is_disabled":true,"rental_uris":{"android":"levelo://app?vid=27d13c7a-6338-48dc-81dd-618b3e4ff60b","ios":"levelo://app?vid=27d13c7a-6338-48dc-81dd-618b3e4ff60b"},"vehicle_type_id":"4","last_reported":1732986434,"current_range_meters":38400,"station_id":"ce4bh492rcd13ifvqdvg","pricing_plan_id":"cebpf4jnsgd1na2vs0mg"},{"bike_id":"8dfa1ade-6c19-4ef5-ac48-af2b098b49de","system_id":"levelo_inurba_marseille","lat":43.28612,"lon":5.37059,"is_reserved":false,"is_disabled":false,"rental_uris":{"android":"levelo://app?vid=8dfa1ade-6c19-4ef5-ac48-af2b098b49de","ios":"levelo://app?vid=8dfa1ade-6c19-4ef5-ac48-af2b098b49de"},"vehicle_type_id":"4","last_reported":1732986434,"current_range_meters":31200,"station_id":"ce4bht12rcd13ifvqi60","pricing_plan_id":"cebpf4jnsgd1na2vs0mg"},{"bike_id":"13151158-c4ba-49c7-a920-9a61c5dd56f2","system_id":"levelo_inurba_marseille","lat":43.23963,"lon":5.36637,"is_reserved":false,"is_disabled":true,"rental_uris":{"android":"levelo://app?vid=13151158-c4ba-49c7-a920-9a61c5dd56f2","ios":"levelo://app?vid=13151158-c4ba-49c7-a920-9a61c5dd56f2"},"vehicle_type_id":"4","last_reported":1732986434,"current_range_meters":0,"station_id":"ce4bhi12rcd13ifvqfp0","pricing_plan_id":"cebpf4jnsgd1na2vs0mg"},{"bike_id":"5df6808d-6cda-4f0c-b0f7-815a04899887","system_id":"levelo_inurba_marseille","lat":43.27984,"lon":5.38693,"is_reserved":false,"is_disabled":false,"rental_uris":{"android":"levelo://app?vid=5df6808d-6cda-4f0c-b0f7-815a04899887","ios":"levelo://app?vid=5df6808d-6cda-4f0c-b0f7-815a04899887"},"vehicle_type_id":"4","last_reported":1732986434,"current_range_meters":16000,"station_id":"ce4bhg12rcd13ifvqf80","pricing_plan_id":"cebpf4jnsgd1na2vs0mg"},{"bike_id":"49f16cea-5c58-4d2b-8f2d-0041e7f37190","system_id":"levelo_inurba_marseille","lat":43.30254,"lon":5.40067,"is_reserved":false,"is_disabled":false,"rental_uris":{"android":"levelo://app?vid=49f16cea-5c58-4d2b-8f2d-0041e7f37190","ios":"levelo://app?vid=49f16cea-5c58-4d2b-8f2d-0041e7f37190"},"vehicle_type_id":"4","last_reported":1732986434,"current_range_meters":38000,"station_id":"ce4bgvh2rcd13ifvqcs0","pricing_plan_id":"cebpf4jnsgd1na2vs0mg"},{"bike_id":"30fb5d1c-11bc-450b-af39-f34318ec6003","system_id":"levelo_inurba_marseille","lat":43.27998,"lon":5.40012,"is_reserved":false,"is_disabled":true,"rental_uris":{"android":"levelo://app?vid=30fb5d1c-11bc-450b-af39-f34318ec6003","ios":"levelo://app?vid=30fb5d1c-11bc-450b-af39-f34318ec6003"},"vehicle_type_id":"4","last_reported":1732986434,"current_range_meters":0,"station_id":"ce4bho92rcd13ifvqh4g","pricing_plan_id":"cebpf4jnsgd1na2vs0mg"},{"bike_id":"f051c08e-bbe0-4b23-a6eb-8ded68b79716","system_id":"levelo_inurba_marseille","lat":43.29095,"lon":5.38147,"is_reserved":false,"is_disabled":false,"rental_uris":{"android":"levelo://app?vid=f051c08e-bbe0-4b23-a6eb-8ded68b79716","ios":"levelo://app?vid=f051c08e-bbe0-4b23-a6eb-8ded68b79716"},"vehicle_type_id":"4","last_reported":1732986434,"current_range_meters":38800,"station_id":"ce4bh512rcd13ifvqe2g","pricing_plan_id":"cebpf4jnsgd1na2vs0mg"},{"bike_id":"cf9f3a3f-ec66-4a92-abcd-f016e9c0310b","system_id":"levelo_inurba_marseille","lat":43.33022,"lon":5.39039,"is_reserved":false,"is_disabled":false,"rental_uris":{"android":"levelo://app?vid=cf9f3a3f-ec66-4a92-abcd-f016e9c0310b","ios":"levelo://app?vid=cf9f3a3f-ec66-4a92-abcd-f016e9c0310b"},"vehicle_type_id":"4","last_reported":1732986434,"current_range_meters":40000,"station_id":"ce4bhr92rcd13ifvqhrg","pricing_plan_id":"cebpf4jnsgd1na2vs0mg"},{"bike_id":"388b990b-45f1-4c97-a63e-771d3d13629e","system_id":"levelo_inurba_marseille","lat":43.25085,"lon":5.39525,"is_reserved":false,"is_disabled":false,"rental_uris":{"android":"levelo://app?vid=388b990b-45f1-4c97-a63e-771d3d13629e","ios":"levelo://app?vid=388b990b-45f1-4c97-a63e-771d3d13629e"},"vehicle_type_id":"4","last_reported":1732986434,"current_range_meters":24800,"station_id":"ce4bhm12rcd13ifvqgkg","pricing_plan_id":"cebpf4jnsgd1na2vs0mg"},{"bike_id":"6f5ced74-757b-4f45-bace-e4a82fbc87da","system_id":"levelo_inurba_marseille","lat":43.30644,"lon":5.40078,"is_reserved":false,"is_disabled":true,"rental_uris":{"android":"levelo://app?vid=6f5ced74-757b-4f45-bace-e4a82fbc87da","ios":"levelo://app?vid=6f5ced74-757b-4f45-bace-e4a82fbc87da"},"vehicle_type_id":"4","last_reported":1732986434,"current_range_meters":37600,"station_id":"ce4bh112rcd13ifvqda0","pricing_plan_id":"cebpf4jnsgd1na2vs0mg"},{"bike_id":"f4d19859-dbfb-4982-b796-c8007145699f","system_id":"levelo_inurba_marseille","lat":43.28612,"lon":5.35108,"is_reserved":false,"is_disabled":true,"rental_uris":{"android":"levelo://app?vid=f4d19859-dbfb-4982-b796-c8007145699f","ios":"levelo://app?vid=f4d19859-dbfb-4982-b796-c8007145699f"},"vehicle_type_id":"4","last_reported":1732986434,"current_range_meters":22000,"station_id":"ce4bhch2rcd13ifvqeug","pricing_plan_id":"cebpf4jnsgd1na2vs0mg"},{"bike_id":"325d482a-35b8-4f93-940d-0b71a2d9a73b","system_id":"levelo_inurba_marseille","lat":43.2972,"lon":5.37696,"is_reserved":false,"is_disabled":false,"rental_uris":{"android":"levelo://app?vid=325d482a-35b8-4f93-940d-0b71a2d9a73b","ios":"levelo://app?vid=325d482a-35b8-4f93-940d-0b71a2d9a73b"},"vehicle_type_id":"4","last_reported":1732986434,"current_range_meters":31200,"station_id":"ce4bgkh2rcd13ifvqbl0","pricing_plan_id":"cebpf4jnsgd1na2vs0mg"},{"bike_id":"bfb856cf-7615-4aa7-a7e4-859a62ce8248","system_id":"levelo_inurba_marseille","lat":43.33746,"lon":5.37475,"is_reserved":false,"is_disabled":false,"rental_uris":{"android":"levelo://app?vid=bfb856cf-7615-4aa7-a7e4-859a62ce8248","ios":"levelo://app?vid=bfb856cf-7615-4aa7-a7e4-859a62ce8248"},"vehicle_type_id":"4","last_reported":1732986434,"current_range_meters":16000,"station_id":"","pricing_plan_id":"cebpf4jnsgd1na2vs0mg"},{"bike_id":"9f701a2f-5ee6-4b8d-bac2-b6646022822c","system_id":"levelo_inurba_marseille","lat":43.24074,"lon":5.377651,"is_reserved":false,"is_disabled":false,"rental_uris":{"android":"levelo://app?vid=9f701a2f-5ee6-4b8d-bac2-b6646022822c","ios":"levelo://app?vid=9f701a2f-5ee6-4b8d-bac2-b6646022822c"},"vehicle_type_id":"4","last_reported":1732986434,"current_range_meters":38800,"station_id":"ce4bhnp2rcd13ifvqgvg","pricing_plan_id":"cebpf4jnsgd1na2vs0mg"},{"bike_id":"5baa659d-e71f-42bc-8f51-d692490970ed","system_id":"levelo_inurba_marseille","lat":43.30354,"lon":5.41889,"is_reserved":false,"is_disabled":true,"rental_uris":{"android":"levelo://app?vid=5baa659d-e71f-42bc-8f51-d692490970ed","ios":"levelo://app?vid=5baa659d-e71f-42bc-8f51-d692490970ed"},"vehicle_type_id":"4","last_reported":1732986434,"current_range_meters":0,"station_id":"ce4bhop2rcd13ifvqh7g","pricing_plan_id":"cebpf4jnsgd1na2vs0mg"},{"bike_id":"73bc946f-2c71-4665-9dc2-46ce8c8fae1e","system_id":"levelo_inurba_marseille","lat":43.30596,"lon":5.39362,"is_reserved":false,"is_disabled":false,"rental_uris":{"android":"levelo://app?vid=73bc946f-2c71-4665-9dc2-46ce8c8fae1e","ios":"levelo://app?vid=73bc946f-2c71-4665-9dc2-46ce8c8fae1e"},"vehicle_type_id":"4","last_reported":1732986434,"current_range_meters":22400,"station_id":"ce4bh0p2rcd13ifvqd80","pricing_plan_id":"cebpf4jnsgd1na2vs0mg"},{"bike_id":"4abebe2b-dec7-442c-a6a0-da33deb742de","system_id":"levelo_inurba_marseille","lat":43.32114,"lon":5.36785,"is_reserved":false,"is_disabled":false,"rental_uris":{"android":"levelo://app?vid=4abebe2b-dec7-442c-a6a0-da33deb742de","ios":"levelo://app?vid=4abebe2b-dec7-442c-a6a0-da33deb742de"},"vehicle_type_id":"4","last_reported":1732986434,"current_range_meters":36400,"station_id":"ce4bhrh2rcd13ifvqhug","pricing_plan_id":"cebpf4jnsgd1na2vs0mg"},{"bike_id":"76e42a74-aff4-443f-b5c2-3b8cf2e09e35","system_id":"levelo_inurba_marseille","lat":43.29278,"lon":5.36847,"is_reserved":false,"is_disabled":false,"rental_uris":{"android":"levelo://app?vid=76e42a74-aff4-443f-b5c2-3b8cf2e09e35","ios":"levelo://app?vid=76e42a74-aff4-443f-b5c2-3b8cf2e09e35"},"vehicle_type_id":"4","last_reported":1732986434,"current_range_meters":26800,"station_id":"ce4bhbp2rcd13ifvqesg","pricing_plan_id":"cebpf4jnsgd1na2vs0mg"},{"bike_id":"1ddc44f0-9033-4177-95ce-6ad7c6789e2f","system_id":"levelo_inurba_marseille","lat":43.29802,"lon":5.38094,"is_reserved":false,"is_disabled":false,"rental_uris":{"android":"levelo://app?vid=1ddc44f0-9033-4177-95ce-6ad7c6789e2f","ios":"levelo://app?vid=1ddc44f0-9033-4177-95ce-6ad7c6789e2f"},"vehicle_type_id":"4","last_reported":1732986434,"current_range_meters":22400,"station_id":"ce4bgip2rcd13ifvqbb0","pricing_plan_id":"cebpf4jnsgd1na2vs0mg"},{"bike_id":"e033e60b-21ca-4948-b012-51d0c71466ec","system_id":"levelo_inurba_marseille","lat":43.268053,"lon":5.402767,"is_reserved":false,"is_disabled":false,"rental_uris":{"android":"levelo://app?vid=e033e60b-21ca-4948-b012-51d0c71466ec","ios":"levelo://app?vid=e033e60b-21ca-4948-b012-51d0c71466ec"},"vehicle_type_id":"4","last_reported":1732986434,"current_range_meters":39200,"station_id":"ce501612rcd8frsf0b60","pricing_plan_id":"cebpf4jnsgd1na2vs0mg"},{"bike_id":"4bb9455a-5ef4-48eb-9058-f09e95f0db7f","system_id":"levelo_inurba_marseille","lat":43.29275,"lon":5.36857,"is_reserved":false,"is_disabled":false,"rental_uris":{"android":"levelo://app?vid=4bb9455a-5ef4-48eb-9058-f09e95f0db7f","ios":"levelo://app?vid=4bb9455a-5ef4-48eb-9058-f09e95f0db7f"},"vehicle_type_id":"4","last_reported":1732986434,"current_range_meters":38800,"station_id":"ce4bhbp2rcd13ifvqesg","pricing_plan_id":"cebpf4jnsgd1na2vs0mg"},{"bike_id":"38b07847-4b97-4430-b30f-5bc22a4263e7","system_id":"levelo_inurba_marseille","lat":43.23056,"lon":5.35494,"is_reserved":false,"is_disabled":false,"rental_uris":{"android":"levelo://app?vid=38b07847-4b97-4430-b30f-5bc22a4263e7","ios":"levelo://app?vid=38b07847-4b97-4430-b30f-5bc22a4263e7"},"vehicle_type_id":"4","last_reported":1732986434,"current_range_meters":38800,"station_id":"cpo3342slgdg3j2ifvpg","pricing_plan_id":"cebpf4jnsgd1na2vs0mg"},{"bike_id":"7dc2caec-37b5-482a-abad-d1d2f62e7e82","system_id":"levelo_inurba_marseille","lat":43.31208,"lon":5.36846,"is_reserved":false,"is_disabled":true,"rental_uris":{"android":"levelo://app?vid=7dc2caec-37b5-482a-abad-d1d2f62e7e82","ios":"levelo://app?vid=7dc2caec-37b5-482a-abad-d1d2f62e7e82"},"vehicle_type_id":"4","last_reported":1732986434,"current_range_meters":0,"station_id":"ce4bgl92rcd13ifvqbq0","pricing_plan_id":"cebpf4jnsgd1na2vs0mg"},{"bike_id":"f7e6ae30-1fb8-4301-9a08-304db570cfea","system_id":"levelo_inurba_marseille","lat":43.28568,"lon":5.39487,"is_reserved":false,"is_disabled":true,"rental_uris":{"android":"levelo://app?vid=f7e6ae30-1fb8-4301-9a08-304db570cfea","ios":"levelo://app?vid=f7e6ae30-1fb8-4301-9a08-304db570cfea"},"vehicle_type_id":"4","last_reported":1732986434,"current_range_meters":0,"station_id":"ce4bh292rcd13ifvqdg0","pricing_plan_id":"cebpf4jnsgd1na2vs0mg"},{"bike_id":"9dd1fc98-a89e-437a-b707-6eb8b3c899e8","system_id":"levelo_inurba_marseille","lat":43.29041,"lon":5.35911,"is_reserved":false,"is_disabled":true,"rental_uris":{"android":"levelo://app?vid=9dd1fc98-a89e-437a-b707-6eb8b3c899e8","ios":"levelo://app?vid=9dd1fc98-a89e-437a-b707-6eb8b3c899e8"},"vehicle_type_id":"4","last_reported":1732986434,"current_range_meters":0,"station_id":"ce4bha92rcd13ifvqeg0","pricing_plan_id":"cebpf4jnsgd1na2vs0mg"},{"bike_id":"aea6b7a8-fa3c-4842-89c6-693b08a99724","system_id":"levelo_inurba_marseille","lat":43.33752,"lon":5.37428,"is_reserved":false,"is_disabled":false,"rental_uris":{"android":"levelo://app?vid=aea6b7a8-fa3c-4842-89c6-693b08a99724","ios":"levelo://app?vid=aea6b7a8-fa3c-4842-89c6-693b08a99724"},"vehicle_type_id":"4","last_reported":1732986434,"current_range_meters":38400,"station_id":"","pricing_plan_id":"cebpf4jnsgd1na2vs0mg"},{"bike_id":"289ee5bd-2f8f-4b9e-bcff-2b016b792078","system_id":"levelo_inurba_marseille","lat":43.29913,"lon":5.3747,"is_reserved":false,"is_disabled":false,"rental_uris":{"android":"levelo://app?vid=289ee5bd-2f8f-4b9e-bcff-2b016b792078","ios":"levelo://app?vid=289ee5bd-2f8f-4b9e-bcff-2b016b792078"},"vehicle_type_id":"4","last_reported":1732986434,"current_range_meters":29600,"station_id":"ce4bgjh2rcd13ifvqbg0","pricing_plan_id":"cebpf4jnsgd1na2vs0mg"},{"bike_id":"1b4091b4-9da5-4e08-a623-15bd0eb83e75","system_id":"levelo_inurba_marseille","lat":43.29299,"lon":5.37191,"is_reserved":false,"is_disabled":true,"rental_uris":{"android":"levelo://app?vid=1b4091b4-9da5-4e08-a623-15bd0eb83e75","ios":"levelo://app?vid=1b4091b4-9da5-4e08-a623-15bd0eb83e75"},"vehicle_type_id":"4","last_reported":1732986434,"current_range_meters":12400,"station_id":"ce4bgh92rcd13ifvqb40","pricing_plan_id":"cebpf4jnsgd1na2vs0mg"},{"bike_id":"a5909545-3e09-4859-9fda-9ffe4e6e4883","system_id":"levelo_inurba_marseille","lat":43.23066,"lon":5.35492,"is_reserved":false,"is_disabled":false,"rental_uris":{"android":"levelo://app?vid=a5909545-3e09-4859-9fda-9ffe4e6e4883","ios":"levelo://app?vid=a5909545-3e09-4859-9fda-9ffe4e6e4883"},"vehicle_type_id":"4","last_reported":1732986434,"current_range_meters":10800,"station_id":"cpo3342slgdg3j2ifvpg","pricing_plan_id":"cebpf4jnsgd1na2vs0mg"},{"bike_id":"01dd0f6c-5d7c-4e63-a161-668f65657b81","system_id":"levelo_inurba_marseille","lat":43.22938,"lon":5.35383,"is_reserved":false,"is_disabled":false,"rental_uris":{"android":"levelo://app?vid=01dd0f6c-5d7c-4e63-a161-668f65657b81","ios":"levelo://app?vid=01dd0f6c-5d7c-4e63-a161-668f65657b81"},"vehicle_type_id":"4","last_reported":1732986434,"current_range_meters":40000,"station_id":"cpo3532slgdg3j2ikp40","pricing_plan_id":"cebpf4jnsgd1na2vs0mg"},{"bike_id":"bad8fd08-8313-45db-871c-8086b5ccf894","system_id":"levelo_inurba_marseille","lat":43.26951,"lon":5.38638,"is_reserved":false,"is_disabled":false,"rental_uris":{"android":"levelo://app?vid=bad8fd08-8313-45db-871c-8086b5ccf894","ios":"levelo://app?vid=bad8fd08-8313-45db-871c-8086b5ccf894"},"vehicle_type_id":"4","last_reported":1732986434,"current_range_meters":38400,"station_id":"ce4bhh92rcd13ifvqfh0","pricing_plan_id":"cebpf4jnsgd1na2vs0mg"},{"bike_id":"26574650-f3c5-4496-af68-033e727c7c94","system_id":"levelo_inurba_marseille","lat":43.33023,"lon":5.39049,"is_reserved":false,"is_disabled":false,"rental_uris":{"android":"levelo://app?vid=26574650-f3c5-4496-af68-033e727c7c94","ios":"levelo://app?vid=26574650-f3c5-4496-af68-033e727c7c94"},"vehicle_type_id":"4","last_reported":1732986434,"current_range_meters":36800,"station_id":"ce4bhr92rcd13ifvqhrg","pricing_plan_id":"cebpf4jnsgd1na2vs0mg"},{"bike_id":"b895191b-c886-4b58-97e9-3ec6dbd78a86","system_id":"levelo_inurba_marseille","lat":43.28854,"lon":5.35841,"is_reserved":false,"is_disabled":false,"rental_uris":{"android":"levelo://app?vid=b895191b-c886-4b58-97e9-3ec6dbd78a86","ios":"levelo://app?vid=b895191b-c886-4b58-97e9-3ec6dbd78a86"},"vehicle_type_id":"4","last_reported":1732986434,"current_range_meters":33600,"station_id":"ce4bhb12rcd13ifvqem0","pricing_plan_id":"cebpf4jnsgd1na2vs0mg"},{"bike_id":"e5951ee3-4a5a-4ebb-b469-096c5188dfa3","system_id":"levelo_inurba_marseille","lat":43.23199,"lon":5.3557,"is_reserved":false,"is_disabled":false,"rental_uris":{"android":"levelo://app?vid=e5951ee3-4a5a-4ebb-b469-096c5188dfa3","ios":"levelo://app?vid=e5951ee3-4a5a-4ebb-b469-096c5188dfa3"},"vehicle_type_id":"4","last_reported":1732986434,"current_range_meters":17200,"station_id":"ce4bhu92rcd13ifvqi70","pricing_plan_id":"cebpf4jnsgd1na2vs0mg"},{"bike_id":"f9a63393-5401-4f98-ae5a-dfbb8291ab6d","system_id":"levelo_inurba_marseille","lat":43.3004,"lon":5.37551,"is_reserved":false,"is_disabled":true,"rental_uris":{"android":"levelo://app?vid=f9a63393-5401-4f98-ae5a-dfbb8291ab6d","ios":"levelo://app?vid=f9a63393-5401-4f98-ae5a-dfbb8291ab6d"},"vehicle_type_id":"4","last_reported":1732986434,"current_range_meters":0,"station_id":"","pricing_plan_id":"cebpf4jnsgd1na2vs0mg"},{"bike_id":"440efa8d-2f43-4b50-94d9-f326b7db78ae","system_id":"levelo_inurba_marseille","lat":43.2962,"lon":5.37154,"is_reserved":false,"is_disabled":false,"rental_uris":{"android":"levelo://app?vid=440efa8d-2f43-4b50-94d9-f326b7db78ae","ios":"levelo://app?vid=440efa8d-2f43-4b50-94d9-f326b7db78ae"},"vehicle_type_id":"4","last_reported":1732986434,"current_range_meters":31200,"station_id":"ce4bgnh2rcd13ifvqc0g","pricing_plan_id":"cebpf4jnsgd1na2vs0mg"},{"bike_id":"b38c09bb-a215-4e8b-b764-0091f548550c","system_id":"levelo_inurba_marseille","lat":43.22946,"lon":5.35398,"is_reserved":false,"is_disabled":false,"rental_uris":{"android":"levelo://app?vid=b38c09bb-a215-4e8b-b764-0091f548550c","ios":"levelo://app?vid=b38c09bb-a215-4e8b-b764-0091f548550c"},"vehicle_type_id":"4","last_reported":1732986434,"current_range_meters":38800,"station_id":"cpo3532slgdg3j2ikp40","pricing_plan_id":"cebpf4jnsgd1na2vs0mg"},{"bike_id":"12eb8744-d6e3-4cc2-a8a3-67560abc1e26","system_id":"levelo_inurba_marseille","lat":43.22927,"lon":5.3538,"is_reserved":false,"is_disabled":false,"rental_uris":{"android":"levelo://app?vid=12eb8744-d6e3-4cc2-a8a3-67560abc1e26","ios":"levelo://app?vid=12eb8744-d6e3-4cc2-a8a3-67560abc1e26"},"vehicle_type_id":"4","last_reported":1732986434,"current_range_meters":16800,"station_id":"cpo3532slgdg3j2ikp40","pricing_plan_id":"cebpf4jnsgd1na2vs0mg"},{"bike_id":"209edce5-94bd-42b7-894c-233f806592a5","system_id":"levelo_inurba_marseille","lat":43.32358,"lon":5.36756,"is_reserved":false,"is_disabled":false,"rental_uris":{"android":"levelo://app?vid=209edce5-94bd-42b7-894c-233f806592a5","ios":"levelo://app?vid=209edce5-94bd-42b7-894c-233f806592a5"},"vehicle_type_id":"4","last_reported":1732986434,"current_range_meters":28000,"station_id":"ce4bhsh2rcd13ifvqi2g","pricing_plan_id":"cebpf4jnsgd1na2vs0mg"},{"bike_id":"ea461fa6-489e-4de7-89c7-2f448445227c","system_id":"levelo_inurba_marseille","lat":43.29299,"lon":5.3718,"is_reserved":false,"is_disabled":true,"rental_uris":{"android":"levelo://app?vid=ea461fa6-489e-4de7-89c7-2f448445227c","ios":"levelo://app?vid=ea461fa6-489e-4de7-89c7-2f448445227c"},"vehicle_type_id":"4","last_reported":1732986434,"current_range_meters":38800,"station_id":"ce4bgh92rcd13ifvqb40","pricing_plan_id":"cebpf4jnsgd1na2vs0mg"},{"bike_id":"b0bda3a0-8d9d-4bd3-a5b8-75ccdf39fdf3","system_id":"levelo_inurba_marseille","lat":43.29442,"lon":5.3976,"is_reserved":false,"is_disabled":true,"rental_uris":{"android":"levelo://app?vid=b0bda3a0-8d9d-4bd3-a5b8-75ccdf39fdf3","ios":"levelo://app?vid=b0bda3a0-8d9d-4bd3-a5b8-75ccdf39fdf3"},"vehicle_type_id":"4","last_reported":1732986434,"current_range_meters":28000,"station_id":"ce4bh3h2rcd13ifvqdo0","pricing_plan_id":"cebpf4jnsgd1na2vs0mg"},{"bike_id":"04791269-9bad-451a-a252-9b63a8db9660","system_id":"levelo_inurba_marseille","lat":43.28036,"lon":5.36942,"is_reserved":false,"is_disabled":false,"rental_uris":{"android":"levelo://app?vid=04791269-9bad-451a-a252-9b63a8db9660","ios":"levelo://app?vid=04791269-9bad-451a-a252-9b63a8db9660"},"vehicle_type_id":"4","last_reported":1732986434,"current_range_meters":7200,"station_id":"ce4bha12rcd13ifvqef0","pricing_plan_id":"cebpf4jnsgd1na2vs0mg"},{"bike_id":"7ccf88b2-cdce-48c4-b025-37c607f52a42","system_id":"levelo_inurba_marseille","lat":43.29792,"lon":5.38088,"is_reserved":false,"is_disabled":false,"rental_uris":{"android":"levelo://app?vid=7ccf88b2-cdce-48c4-b025-37c607f52a42","ios":"levelo://app?vid=7ccf88b2-cdce-48c4-b025-37c607f52a42"},"vehicle_type_id":"4","last_reported":1732986434,"current_range_meters":18000,"station_id":"ce4bgip2rcd13ifvqbb0","pricing_plan_id":"cebpf4jnsgd1na2vs0mg"},{"bike_id":"61a0a5c5-6290-481d-8779-0e904252739b","system_id":"levelo_inurba_marseille","lat":43.32544,"lon":5.4143,"is_reserved":false,"is_disabled":false,"rental_uris":{"android":"levelo://app?vid=61a0a5c5-6290-481d-8779-0e904252739b","ios":"levelo://app?vid=61a0a5c5-6290-481d-8779-0e904252739b"},"vehicle_type_id":"4","last_reported":1732986434,"current_range_meters":22400,"station_id":"ce4bhq12rcd13ifvqhhg","pricing_plan_id":"cebpf4jnsgd1na2vs0mg"},{"bike_id":"ffee92d3-4119-470f-811e-5a167fe07917","system_id":"levelo_inurba_marseille","lat":43.33024,"lon":5.39039,"is_reserved":false,"is_disabled":false,"rental_uris":{"android":"levelo://app?vid=ffee92d3-4119-470f-811e-5a167fe07917","ios":"levelo://app?vid=ffee92d3-4119-470f-811e-5a167fe07917"},"vehicle_type_id":"4","last_reported":1732986434,"current_range_meters":40000,"station_id":"ce4bhr92rcd13ifvqhrg","pricing_plan_id":"cebpf4jnsgd1na2vs0mg"},{"bike_id":"d4ff2000-3fbe-4ed7-8e22-e1bf58d4ebe7","system_id":"levelo_inurba_marseille","lat":43.295471,"lon":5.422868,"is_reserved":false,"is_disabled":false,"rental_uris":{"android":"levelo://app?vid=d4ff2000-3fbe-4ed7-8e22-e1bf58d4ebe7","ios":"levelo://app?vid=d4ff2000-3fbe-4ed7-8e22-e1bf58d4ebe7"},"vehicle_type_id":"4","last_reported":1732986434,"current_range_meters":14000,"station_id":"ce4bhph2rcd13ifvqhdg","pricing_plan_id":"cebpf4jnsgd1na2vs0mg"},{"bike_id":"83c3ef48-59a7-4a3c-b678-4cee1d7f4aae","system_id":"levelo_inurba_marseille","lat":43.25818,"lon":5.39439,"is_reserved":false,"is_disabled":true,"rental_uris":{"android":"levelo://app?vid=83c3ef48-59a7-4a3c-b678-4cee1d7f4aae","ios":"levelo://app?vid=83c3ef48-59a7-4a3c-b678-4cee1d7f4aae"},"vehicle_type_id":"4","last_reported":1732986434,"current_range_meters":1200,"station_id":"ce4bhip2rcd13ifvqft0","pricing_plan_id":"cebpf4jnsgd1na2vs0mg"},{"bike_id":"38798db8-5bd5-4792-b41b-6f809d1b1c45","system_id":"levelo_inurba_marseille","lat":43.319962,"lon":5.381599,"is_reserved":false,"is_disabled":false,"rental_uris":{"android":"levelo://app?vid=38798db8-5bd5-4792-b41b-6f809d1b1c45","ios":"levelo://app?vid=38798db8-5bd5-4792-b41b-6f809d1b1c45"},"vehicle_type_id":"4","last_reported":1732986434,"current_range_meters":18000,"station_id":"ce4bhr12rcd13ifvqhpg","pricing_plan_id":"cebpf4jnsgd1na2vs0mg"},{"bike_id":"4f7d45ef-7d61-41e4-93ae-e39543ce3066","system_id":"levelo_inurba_marseille","lat":43.28042,"lon":5.36941,"is_reserved":false,"is_disabled":false,"rental_uris":{"android":"levelo://app?vid=4f7d45ef-7d61-41e4-93ae-e39543ce3066","ios":"levelo://app?vid=4f7d45ef-7d61-41e4-93ae-e39543ce3066"},"vehicle_type_id":"4","last_reported":1732986434,"current_range_meters":36400,"station_id":"ce4bha12rcd13ifvqef0","pricing_plan_id":"cebpf4jnsgd1na2vs0mg"},{"bike_id":"8c05a29e-728a-4b29-80bd-40718114c6e8","system_id":"levelo_inurba_marseille","lat":43.30274,"lon":5.37702,"is_reserved":false,"is_disabled":false,"rental_uris":{"android":"levelo://app?vid=8c05a29e-728a-4b29-80bd-40718114c6e8","ios":"levelo://app?vid=8c05a29e-728a-4b29-80bd-40718114c6e8"},"vehicle_type_id":"4","last_reported":1732986434,"current_range_meters":36000,"station_id":"ce4bguh2rcd13ifvqcj0","pricing_plan_id":"cebpf4jnsgd1na2vs0mg"},{"bike_id":"ed151763-9b18-498c-894b-855dfd42d28d","system_id":"levelo_inurba_marseille","lat":43.26033,"lon":5.37551,"is_reserved":false,"is_disabled":true,"rental_uris":{"android":"levelo://app?vid=ed151763-9b18-498c-894b-855dfd42d28d","ios":"levelo://app?vid=ed151763-9b18-498c-894b-855dfd42d28d"},"vehicle_type_id":"4","last_reported":1732986434,"current_range_meters":0,"station_id":"ce4bhgh2rcd13ifvqfa0","pricing_plan_id":"cebpf4jnsgd1na2vs0mg"},{"bike_id":"62edf88c-6b39-4bd2-b87e-e81d7482be78","system_id":"levelo_inurba_marseille","lat":43.31228,"lon":5.36861,"is_reserved":false,"is_disabled":false,"rental_uris":{"android":"levelo://app?vid=62edf88c-6b39-4bd2-b87e-e81d7482be78","ios":"levelo://app?vid=62edf88c-6b39-4bd2-b87e-e81d7482be78"},"vehicle_type_id":"4","last_reported":1732986434,"current_range_meters":28000,"station_id":"ce4bgl92rcd13ifvqbq0","pricing_plan_id":"cebpf4jnsgd1na2vs0mg"},{"bike_id":"8b7bc44b-c481-433f-b397-5cd095f261fd","system_id":"levelo_inurba_marseille","lat":43.23194,"lon":5.35558,"is_reserved":false,"is_disabled":false,"rental_uris":{"android":"levelo://app?vid=8b7bc44b-c481-433f-b397-5cd095f261fd","ios":"levelo://app?vid=8b7bc44b-c481-433f-b397-5cd095f261fd"},"vehicle_type_id":"4","last_reported":1732986434,"current_range_meters":18000,"station_id":"ce4bhu92rcd13ifvqi70","pricing_plan_id":"cebpf4jnsgd1na2vs0mg"},{"bike_id":"96b27800-f11c-44a0-a1c4-be400e11057c","system_id":"levelo_inurba_marseille","lat":43.30927,"lon":5.40148,"is_reserved":false,"is_disabled":true,"rental_uris":{"android":"levelo://app?vid=96b27800-f11c-44a0-a1c4-be400e11057c","ios":"levelo://app?vid=96b27800-f11c-44a0-a1c4-be400e11057c"},"vehicle_type_id":"4","last_reported":1732986434,"current_range_meters":0,"station_id":"ce4bgvp2rcd13ifvqct0","pricing_plan_id":"cebpf4jnsgd1na2vs0mg"},{"bike_id":"70f64254-5023-4e6f-873b-fb36d0fd8152","system_id":"levelo_inurba_marseille","lat":43.33023,"lon":5.39039,"is_reserved":false,"is_disabled":false,"rental_uris":{"android":"levelo://app?vid=70f64254-5023-4e6f-873b-fb36d0fd8152","ios":"levelo://app?vid=70f64254-5023-4e6f-873b-fb36d0fd8152"},"vehicle_type_id":"4","last_reported":1732986434,"current_range_meters":19200,"station_id":"ce4bhr92rcd13ifvqhrg","pricing_plan_id":"cebpf4jnsgd1na2vs0mg"},{"bike_id":"af54962f-872b-4136-a665-79ff614bd18a","system_id":"levelo_inurba_marseille","lat":43.28659,"lon":5.36354,"is_reserved":false,"is_disabled":false,"rental_uris":{"android":"levelo://app?vid=af54962f-872b-4136-a665-79ff614bd18a","ios":"levelo://app?vid=af54962f-872b-4136-a665-79ff614bd18a"},"vehicle_type_id":"4","last_reported":1732986434,"current_range_meters":24000,"station_id":"ce4bhah2rcd13ifvqej0","pricing_plan_id":"cebpf4jnsgd1na2vs0mg"},{"bike_id":"2e9a5d7a-4e5f-4943-beee-9a571e32da73","system_id":"levelo_inurba_marseille","lat":43.29264,"lon":5.38448,"is_reserved":false,"is_disabled":false,"rental_uris":{"android":"levelo://app?vid=2e9a5d7a-4e5f-4943-beee-9a571e32da73","ios":"levelo://app?vid=2e9a5d7a-4e5f-4943-beee-9a571e32da73"},"vehicle_type_id":"4","last_reported":1732986434,"current_range_meters":26000,"station_id":"ce4bh692rcd13ifvqea0","pricing_plan_id":"cebpf4jnsgd1na2vs0mg"},{"bike_id":"43746d86-8a13-4845-9faf-ae69b548d714","system_id":"levelo_inurba_marseille","lat":43.29459,"lon":5.37917,"is_reserved":false,"is_disabled":true,"rental_uris":{"android":"levelo://app?vid=43746d86-8a13-4845-9faf-ae69b548d714","ios":"levelo://app?vid=43746d86-8a13-4845-9faf-ae69b548d714"},"vehicle_type_id":"4","last_reported":1732986434,"current_range_meters":0,"station_id":"","pricing_plan_id":"cebpf4jnsgd1na2vs0mg"},{"bike_id":"fe48b4b1-012c-4163-9909-fb6b5220c692","system_id":"levelo_inurba_marseille","lat":43.29523,"lon":5.39406,"is_reserved":false,"is_disabled":true,"rental_uris":{"android":"levelo://app?vid=fe48b4b1-012c-4163-9909-fb6b5220c692","ios":"levelo://app?vid=fe48b4b1-012c-4163-9909-fb6b5220c692"},"vehicle_type_id":"4","last_reported":1732986434,"current_range_meters":0,"station_id":"ce4bh292rcd13ifvqdf0","pricing_plan_id":"cebpf4jnsgd1na2vs0mg"},{"bike_id":"6a6d2bce-2322-4739-920d-d863ed9f7029","system_id":"levelo_inurba_marseille","lat":43.24662,"lon":5.38167,"is_reserved":false,"is_disabled":false,"rental_uris":{"android":"levelo://app?vid=6a6d2bce-2322-4739-920d-d863ed9f7029","ios":"levelo://app?vid=6a6d2bce-2322-4739-920d-d863ed9f7029"},"vehicle_type_id":"4","last_reported":1732986434,"current_range_meters":39200,"station_id":"ce4bhih2rcd13ifvqfr0","pricing_plan_id":"cebpf4jnsgd1na2vs0mg"},{"bike_id":"9979e5f3-09f5-472f-965d-b2b1eecad99e","system_id":"levelo_inurba_marseille","lat":43.29724,"lon":5.37694,"is_reserved":false,"is_disabled":false,"rental_uris":{"android":"levelo://app?vid=9979e5f3-09f5-472f-965d-b2b1eecad99e","ios":"levelo://app?vid=9979e5f3-09f5-472f-965d-b2b1eecad99e"},"vehicle_type_id":"4","last_reported":1732986434,"current_range_meters":38400,"station_id":"ce4bgkh2rcd13ifvqbl0","pricing_plan_id":"cebpf4jnsgd1na2vs0mg"},{"bike_id":"1e2eaa3c-fb22-42b8-9e83-41ea512d2c4b","system_id":"levelo_inurba_marseille","lat":43.28706,"lon":5.39994,"is_reserved":false,"is_disabled":true,"rental_uris":{"android":"levelo://app?vid=1e2eaa3c-fb22-42b8-9e83-41ea512d2c4b","ios":"levelo://app?vid=1e2eaa3c-fb22-42b8-9e83-41ea512d2c4b"},"vehicle_type_id":"4","last_reported":1732986434,"current_range_meters":12400,"station_id":"ce4bho92rcd13ifvqh3g","pricing_plan_id":"cebpf4jnsgd1na2vs0mg"},{"bike_id":"efe32a30-d075-42b3-88a6-e2a1a28f2121","system_id":"levelo_inurba_marseille","lat":43.28027,"lon":5.36941,"is_reserved":false,"is_disabled":false,"rental_uris":{"android":"levelo://app?vid=efe32a30-d075-42b3-88a6-e2a1a28f2121","ios":"levelo://app?vid=efe32a30-d075-42b3-88a6-e2a1a28f2121"},"vehicle_type_id":"4","last_reported":1732986434,"current_range_meters":21600,"station_id":"ce4bha12rcd13ifvqef0","pricing_plan_id":"cebpf4jnsgd1na2vs0mg"},{"bike_id":"e21b3065-5a48-45e5-803f-bb6f621849b4","system_id":"levelo_inurba_marseille","lat":43.31223,"lon":5.36853,"is_reserved":false,"is_disabled":false,"rental_uris":{"android":"levelo://app?vid=e21b3065-5a48-45e5-803f-bb6f621849b4","ios":"levelo://app?vid=e21b3065-5a48-45e5-803f-bb6f621849b4"},"vehicle_type_id":"4","last_reported":1732986434,"current_range_meters":14400,"station_id":"ce4bgl92rcd13ifvqbq0","pricing_plan_id":"cebpf4jnsgd1na2vs0mg"},{"bike_id":"c7f6ddb8-4a40-417f-9164-36f32d6bad26","system_id":"levelo_inurba_marseille","lat":43.3229,"lon":5.38277,"is_reserved":false,"is_disabled":false,"rental_uris":{"android":"levelo://app?vid=c7f6ddb8-4a40-417f-9164-36f32d6bad26","ios":"levelo://app?vid=c7f6ddb8-4a40-417f-9164-36f32d6bad26"},"vehicle_type_id":"4","last_reported":1732986434,"current_range_meters":4000,"station_id":"ce4bhr12rcd13ifvqhqg","pricing_plan_id":"cebpf4jnsgd1na2vs0mg"},{"bike_id":"96530ca4-72e1-4d9d-8dc9-436b246d7fbe","system_id":"levelo_inurba_marseille","lat":43.26778,"lon":5.3942,"is_reserved":false,"is_disabled":false,"rental_uris":{"android":"levelo://app?vid=96530ca4-72e1-4d9d-8dc9-436b246d7fbe","ios":"levelo://app?vid=96530ca4-72e1-4d9d-8dc9-436b246d7fbe"},"vehicle_type_id":"4","last_reported":1732986434,"current_range_meters":28000,"station_id":"ce4bhh12rcd13ifvqfg0","pricing_plan_id":"cebpf4jnsgd1na2vs0mg"},{"bike_id":"15e24c31-4292-4084-bcd3-e24f0a31685e","system_id":"levelo_inurba_marseille","lat":43.28422,"lon":5.34988,"is_reserved":false,"is_disabled":true,"rental_uris":{"android":"levelo://app?vid=15e24c31-4292-4084-bcd3-e24f0a31685e","ios":"levelo://app?vid=15e24c31-4292-4084-bcd3-e24f0a31685e"},"vehicle_type_id":"4","last_reported":1732986434,"current_range_meters":34000,"station_id":"ce4bhbh2rcd13ifvqepg","pricing_plan_id":"cebpf4jnsgd1na2vs0mg"},{"bike_id":"b3d12ac5-e065-4b77-83d8-6cd36d3a39d9","system_id":"levelo_inurba_marseille","lat":43.33739,"lon":5.37463,"is_reserved":false,"is_disabled":false,"rental_uris":{"android":"levelo://app?vid=b3d12ac5-e065-4b77-83d8-6cd36d3a39d9","ios":"levelo://app?vid=b3d12ac5-e065-4b77-83d8-6cd36d3a39d9"},"vehicle_type_id":"4","last_reported":1732986434,"current_range_meters":9600,"station_id":"","pricing_plan_id":"cebpf4jnsgd1na2vs0mg"},{"bike_id":"c67affd0-758a-47c8-bb19-f58fff7a7b97","system_id":"levelo_inurba_marseille","lat":43.33021,"lon":5.39049,"is_reserved":false,"is_disabled":false,"rental_uris":{"android":"levelo://app?vid=c67affd0-758a-47c8-bb19-f58fff7a7b97","ios":"levelo://app?vid=c67affd0-758a-47c8-bb19-f58fff7a7b97"},"vehicle_type_id":"4","last_reported":1732986434,"current_range_meters":40000,"station_id":"ce4bhr92rcd13ifvqhrg","pricing_plan_id":"cebpf4jnsgd1na2vs0mg"},{"bike_id":"ed2e18cb-6b73-482a-997d-872d2e2185a6","system_id":"levelo_inurba_marseille","lat":43.22931,"lon":5.35372,"is_reserved":false,"is_disabled":false,"rental_uris":{"android":"levelo://app?vid=ed2e18cb-6b73-482a-997d-872d2e2185a6","ios":"levelo://app?vid=ed2e18cb-6b73-482a-997d-872d2e2185a6"},"vehicle_type_id":"4","last_reported":1732986434,"current_range_meters":40000,"station_id":"cpo3532slgdg3j2ikp40","pricing_plan_id":"cebpf4jnsgd1na2vs0mg"},{"bike_id":"262e8f2c-bc4f-4df8-b897-3e2488dfebe7","system_id":"levelo_inurba_marseille","lat":43.28727,"lon":5.3794,"is_reserved":false,"is_disabled":false,"rental_uris":{"android":"levelo://app?vid=262e8f2c-bc4f-4df8-b897-3e2488dfebe7","ios":"levelo://app?vid=262e8f2c-bc4f-4df8-b897-3e2488dfebe7"},"vehicle_type_id":"4","last_reported":1732986434,"current_range_meters":20800,"station_id":"ce4bh9p2rcd13ifvqec0","pricing_plan_id":"cebpf4jnsgd1na2vs0mg"},{"bike_id":"9681ad63-cd70-42be-b7f9-6cb424ce6cb8","system_id":"levelo_inurba_marseille","lat":43.29003,"lon":5.35604,"is_reserved":false,"is_disabled":false,"rental_uris":{"android":"levelo://app?vid=9681ad63-cd70-42be-b7f9-6cb424ce6cb8","ios":"levelo://app?vid=9681ad63-cd70-42be-b7f9-6cb424ce6cb8"},"vehicle_type_id":"4","last_reported":1732986434,"current_range_meters":16000,"station_id":"ce4bhb92rcd13ifvqen0","pricing_plan_id":"cebpf4jnsgd1na2vs0mg"},{"bike_id":"3618ce5c-a69e-4302-8d36-f68fc147381b","system_id":"levelo_inurba_marseille","lat":43.29264,"lon":5.38445,"is_reserved":false,"is_disabled":false,"rental_uris":{"android":"levelo://app?vid=3618ce5c-a69e-4302-8d36-f68fc147381b","ios":"levelo://app?vid=3618ce5c-a69e-4302-8d36-f68fc147381b"},"vehicle_type_id":"4","last_reported":1732986434,"current_range_meters":22800,"station_id":"ce4bh692rcd13ifvqea0","pricing_plan_id":"cebpf4jnsgd1na2vs0mg"},{"bike_id":"a76c3d74-c6d8-484e-8987-3d7c08164b65","system_id":"levelo_inurba_marseille","lat":43.28422,"lon":5.37518,"is_reserved":false,"is_disabled":false,"rental_uris":{"android":"levelo://app?vid=a76c3d74-c6d8-484e-8987-3d7c08164b65","ios":"levelo://app?vid=a76c3d74-c6d8-484e-8987-3d7c08164b65"},"vehicle_type_id":"4","last_reported":1732986434,"current_range_meters":38800,"station_id":"","pricing_plan_id":"cebpf4jnsgd1na2vs0mg"},{"bike_id":"fc4d15f5-6256-45a3-90d6-77bb4c676955","system_id":"levelo_inurba_marseille","lat":43.296284,"lon":5.377877,"is_reserved":false,"is_disabled":true,"rental_uris":{"android":"levelo://app?vid=fc4d15f5-6256-45a3-90d6-77bb4c676955","ios":"levelo://app?vid=fc4d15f5-6256-45a3-90d6-77bb4c676955"},"vehicle_type_id":"4","last_reported":1732986434,"current_range_meters":24000,"station_id":"","pricing_plan_id":"cebpf4jnsgd1na2vs0mg"},{"bike_id":"beeb2be5-0989-4268-b001-0df8e71e155f","system_id":"levelo_inurba_marseille","lat":43.29225,"lon":5.36049,"is_reserved":false,"is_disabled":true,"rental_uris":{"android":"levelo://app?vid=beeb2be5-0989-4268-b001-0df8e71e155f","ios":"levelo://app?vid=beeb2be5-0989-4268-b001-0df8e71e155f"},"vehicle_type_id":"4","last_reported":1732986434,"current_range_meters":1200,"station_id":"ce4bgnh2rcd13ifvqc0g","pricing_plan_id":"cebpf4jnsgd1na2vs0mg"},{"bike_id":"36646e44-1b7f-468a-bf5e-02b6871ba3e8","system_id":"levelo_inurba_marseille","lat":43.29503,"lon":5.39047,"is_reserved":false,"is_disabled":false,"rental_uris":{"android":"levelo://app?vid=36646e44-1b7f-468a-bf5e-02b6871ba3e8","ios":"levelo://app?vid=36646e44-1b7f-468a-bf5e-02b6871ba3e8"},"vehicle_type_id":"4","last_reported":1732986434,"current_range_meters":20800,"station_id":"ce4bh3p2rcd13ifvqdp0","pricing_plan_id":"cebpf4jnsgd1na2vs0mg"},{"bike_id":"a16afe75-0fd4-4a69-b96a-bb6ed635780c","system_id":"levelo_inurba_marseille","lat":43.31123,"lon":5.3777,"is_reserved":false,"is_disabled":true,"rental_uris":{"android":"levelo://app?vid=a16afe75-0fd4-4a69-b96a-bb6ed635780c","ios":"levelo://app?vid=a16afe75-0fd4-4a69-b96a-bb6ed635780c"},"vehicle_type_id":"4","last_reported":1732986434,"current_range_meters":20400,"station_id":"ce4bgt92rcd13ifvqcg0","pricing_plan_id":"cebpf4jnsgd1na2vs0mg"},{"bike_id":"b4826a07-a115-45a3-9936-785ff8fe4ce2","system_id":"levelo_inurba_marseille","lat":43.28844,"lon":5.39306,"is_reserved":false,"is_disabled":true,"rental_uris":{"android":"levelo://app?vid=b4826a07-a115-45a3-9936-785ff8fe4ce2","ios":"levelo://app?vid=b4826a07-a115-45a3-9936-785ff8fe4ce2"},"vehicle_type_id":"4","last_reported":1732986434,"current_range_meters":400,"station_id":"ce4bh2p2rcd13ifvqdi0","pricing_plan_id":"cebpf4jnsgd1na2vs0mg"},{"bike_id":"da719756-3742-4209-8d60-b3804f08c501","system_id":"levelo_inurba_marseille","lat":43.29792,"lon":5.37988,"is_reserved":false,"is_disabled":false,"rental_uris":{"android":"levelo://app?vid=da719756-3742-4209-8d60-b3804f08c501","ios":"levelo://app?vid=da719756-3742-4209-8d60-b3804f08c501"},"vehicle_type_id":"4","last_reported":1732986434,"current_range_meters":26800,"station_id":"","pricing_plan_id":"cebpf4jnsgd1na2vs0mg"},{"bike_id":"ae484449-9c08-49aa-8ca8-c701c477c6ad","system_id":"levelo_inurba_marseille","lat":43.2811,"lon":5.37843,"is_reserved":false,"is_disabled":false,"rental_uris":{"android":"levelo://app?vid=ae484449-9c08-49aa-8ca8-c701c477c6ad","ios":"levelo://app?vid=ae484449-9c08-49aa-8ca8-c701c477c6ad"},"vehicle_type_id":"4","last_reported":1732986434,"current_range_meters":16000,"station_id":"ce4bha12rcd13ifvqee0","pricing_plan_id":"cebpf4jnsgd1na2vs0mg"},{"bike_id":"5547a441-9653-482c-905c-97a54076438b","system_id":"levelo_inurba_marseille","lat":43.32355,"lon":5.36749,"is_reserved":false,"is_disabled":false,"rental_uris":{"android":"levelo://app?vid=5547a441-9653-482c-905c-97a54076438b","ios":"levelo://app?vid=5547a441-9653-482c-905c-97a54076438b"},"vehicle_type_id":"4","last_reported":1732986434,"current_range_meters":14400,"station_id":"ce4bhsh2rcd13ifvqi2g","pricing_plan_id":"cebpf4jnsgd1na2vs0mg"},{"bike_id":"8d028105-3dea-4488-99f9-3177306144a6","system_id":"levelo_inurba_marseille","lat":43.29352,"lon":5.42817,"is_reserved":false,"is_disabled":false,"rental_uris":{"android":"levelo://app?vid=8d028105-3dea-4488-99f9-3177306144a6","ios":"levelo://app?vid=8d028105-3dea-4488-99f9-3177306144a6"},"vehicle_type_id":"4","last_reported":1732986434,"current_range_meters":16000,"station_id":"","pricing_plan_id":"cebpf4jnsgd1na2vs0mg"},{"bike_id":"38277011-0e5f-4110-9d7c-38b65f4dc854","system_id":"levelo_inurba_marseille","lat":43.29272,"lon":5.36852,"is_reserved":false,"is_disabled":false,"rental_uris":{"android":"levelo://app?vid=38277011-0e5f-4110-9d7c-38b65f4dc854","ios":"levelo://app?vid=38277011-0e5f-4110-9d7c-38b65f4dc854"},"vehicle_type_id":"4","last_reported":1732986434,"current_range_meters":27600,"station_id":"ce4bhbp2rcd13ifvqesg","pricing_plan_id":"cebpf4jnsgd1na2vs0mg"},{"bike_id":"8a81048a-64bd-48df-8fe0-8d92216dc5e3","system_id":"levelo_inurba_marseille","lat":43.27981,"lon":5.38753,"is_reserved":false,"is_disabled":false,"rental_uris":{"android":"levelo://app?vid=8a81048a-64bd-48df-8fe0-8d92216dc5e3","ios":"levelo://app?vid=8a81048a-64bd-48df-8fe0-8d92216dc5e3"},"vehicle_type_id":"4","last_reported":1732986434,"current_range_meters":38800,"station_id":"ce4bhg12rcd13ifvqf80","pricing_plan_id":"cebpf4jnsgd1na2vs0mg"},{"bike_id":"b6672c8b-0abf-4df1-a858-e79f34cc99ee","system_id":"levelo_inurba_marseille","lat":43.28839,"lon":5.39327,"is_reserved":false,"is_disabled":false,"rental_uris":{"android":"levelo://app?vid=b6672c8b-0abf-4df1-a858-e79f34cc99ee","ios":"levelo://app?vid=b6672c8b-0abf-4df1-a858-e79f34cc99ee"},"vehicle_type_id":"4","last_reported":1732986434,"current_range_meters":35600,"station_id":"ce4bh2p2rcd13ifvqdi0","pricing_plan_id":"cebpf4jnsgd1na2vs0mg"},{"bike_id":"ec78731e-ce80-486c-9aae-f5e93d0afadd","system_id":"levelo_inurba_marseille","lat":43.27947,"lon":5.41056,"is_reserved":false,"is_disabled":false,"rental_uris":{"android":"levelo://app?vid=ec78731e-ce80-486c-9aae-f5e93d0afadd","ios":"levelo://app?vid=ec78731e-ce80-486c-9aae-f5e93d0afadd"},"vehicle_type_id":"4","last_reported":1732986434,"current_range_meters":30800,"station_id":"ce4bhnp2rcd13ifvqh0g","pricing_plan_id":"cebpf4jnsgd1na2vs0mg"},{"bike_id":"a721aa7b-8481-4df2-a9b0-8825cfdd1794","system_id":"levelo_inurba_marseille","lat":43.28489,"lon":5.38565,"is_reserved":false,"is_disabled":false,"rental_uris":{"android":"levelo://app?vid=a721aa7b-8481-4df2-a9b0-8825cfdd1794","ios":"levelo://app?vid=a721aa7b-8481-4df2-a9b0-8825cfdd1794"},"vehicle_type_id":"4","last_reported":1732986434,"current_range_meters":39200,"station_id":"ce4bh8p2rcd13ifvqeb0","pricing_plan_id":"cebpf4jnsgd1na2vs0mg"},{"bike_id":"b69579fa-8e8f-41b9-bc0a-2a716393d399","system_id":"levelo_inurba_marseille","lat":43.31758,"lon":5.39023,"is_reserved":false,"is_disabled":false,"rental_uris":{"android":"levelo://app?vid=b69579fa-8e8f-41b9-bc0a-2a716393d399","ios":"levelo://app?vid=b69579fa-8e8f-41b9-bc0a-2a716393d399"},"vehicle_type_id":"4","last_reported":1732986434,"current_range_meters":38800,"station_id":"ce4bhqp2rcd13ifvqhng","pricing_plan_id":"cebpf4jnsgd1na2vs0mg"},{"bike_id":"9bc8c65a-39ab-4760-9bd4-98cf64dfeec4","system_id":"levelo_inurba_marseille","lat":43.24166,"lon":5.36406,"is_reserved":false,"is_disabled":false,"rental_uris":{"android":"levelo://app?vid=9bc8c65a-39ab-4760-9bd4-98cf64dfeec4","ios":"levelo://app?vid=9bc8c65a-39ab-4760-9bd4-98cf64dfeec4"},"vehicle_type_id":"4","last_reported":1732986434,"current_range_meters":21600,"station_id":"cpo36qri1sfpv3e86is0","pricing_plan_id":"cebpf4jnsgd1na2vs0mg"},{"bike_id":"2b4e8979-c74b-45c9-a255-ac783085f65f","system_id":"levelo_inurba_marseille","lat":43.31066,"lon":5.38357,"is_reserved":false,"is_disabled":false,"rental_uris":{"android":"levelo://app?vid=2b4e8979-c74b-45c9-a255-ac783085f65f","ios":"levelo://app?vid=2b4e8979-c74b-45c9-a255-ac783085f65f"},"vehicle_type_id":"4","last_reported":1732986434,"current_range_meters":36000,"station_id":"ce4bgv92rcd13ifvqcr0","pricing_plan_id":"cebpf4jnsgd1na2vs0mg"},{"bike_id":"14a4f0e3-d54f-47b8-a445-c36225f4c58d","system_id":"levelo_inurba_marseille","lat":43.24541,"lon":5.39531,"is_reserved":false,"is_disabled":true,"rental_uris":{"android":"levelo://app?vid=14a4f0e3-d54f-47b8-a445-c36225f4c58d","ios":"levelo://app?vid=14a4f0e3-d54f-47b8-a445-c36225f4c58d"},"vehicle_type_id":"4","last_reported":1732986434,"current_range_meters":0,"station_id":"ce4bhlp2rcd13ifvqgjg","pricing_plan_id":"cebpf4jnsgd1na2vs0mg"},