{"last_updated":1749812953,"ttl":60,"version":"2.2","data":{"bikes":[{"bike_id":"b31f0139-170f-4194-984f-4386218a1e9d","system_id":"levelo_inurba_marseille","lat":43.33771,"lon":5.37424,"is_reserved":false,"is_disabled":true,"rental_uris":{"android":"levelo://app?vid=b31f0139-170f-4194-984f-4386218a1e9d","ios":"levelo://app?vid=b31f0139-170f-4194-984f-4386218a1e9d"},"vehicle_type_id":"4","last_reported":1749812953,"current_range_meters":0,"station_id":"","pricing_plan_id":"cebpf4jnsgd1na2vs0mg"},{"bike_id":"1acfb620-cad7-48c0-8901-d7a5b74a5b65","system_id":"levelo_inurba_marseille","lat":43.33751,"lon":5.37456,"is_reserved":false,"is_disabled":false,"rental_uris":{"android":"levelo://app?vid=1acfb620-cad7-48c0-8901-d7a5b74a5b65","ios":"levelo://app?vid=1acfb620-cad7-48c0-8901-d7a5b74a5b65"},"vehicle_type_id":"4","last_reported":1749812953,"current_range_meters":4000,"station_id":"","pricing_plan_id":"cebpf4jnsgd1na2vs0mg"},{"bike_id":"bf89d78c-eb96-40d5-beb0-f402ef102cc1","system_id":"levelo_inurba_marseille","lat":43.337444,"lon":5.374475,"is_reserved":false,"is_disabled":true,"rental_uris":{"android":"levelo://app?vid=bf89d78c-eb96-40d5-beb0-f402ef102cc1","ios":"levelo://app?vid=bf89d78c-eb96-40d5-beb0-f402ef102cc1"},"vehicle_type_id":"4","last_reported":1749812953,"current_range_meters":0,"station_id":"","pricing_plan_id":"cebpf4jnsgd1na2vs0mg"},{"bike_id":"5077581b-cebb-46fc-ba69-4fa8272d4810","system_id":"levelo_inurba_marseille","lat":43.2136,"lon":5.3552,"is_reserved":false,"is_disabled":true,"rental_uris":{"android":"levelo://app?vid=5077581b-cebb-46fc-ba69-4fa8272d4810","ios":"levelo://app?vid=5077581b-cebb-46fc-ba69-4fa8272d4810"},"vehicle_type_id":"4","last_reported":1749812953,"current_range_meters":0,"station_id":"","pricing_plan_id":"cebpf4jnsgd1na2vs0mg"},{"bike_id":"fe881d36-1c57-4464-8d16-970bb306816f","system_id":"levelo_inurba_marseille","lat":43.224762,"lon":5.347523,"is_reserved":false,"is_disabled":true,"rental_uris":{"android":"levelo://app?vid=fe881d36-1c57-4464-8d16-970bb306816f","ios":"levelo://app?vid=fe881d36-1c57-4464-8d16-970bb306816f"},"vehicle_type_id":"4","last_reported":1749812953,"current_range_meters":0,"station_id":"","pricing_plan_id":"cebpf4jnsgd1na2vs0mg"},{"bike_id":"7c6a9c32-3bbe-4d4c-8294-1969d0688a87","system_id":"levelo_inurba_marseille","lat":43.28454,"lon":5.42066,"is_reserved":false,"is_disabled":true,"rental_uris":{"android":"levelo://app?vid=7c6a9c32-3bbe-4d4c-8294-1969d0688a87","ios":"levelo://app?vid=7c6a9c32-3bbe-4d4c-8294-1969d0688a87"},"vehicle_type_id":"4","last_reported":1749812953,"current_range_meters":0,"station_id":"","pricing_plan_id":"cebpf4jnsgd1na2vs0mg"},{"bike_id":"66b1cbfb-c132-4ef4-922c-0beab9b5a350","system_id":"levelo_inurba_marseille","lat":43.29737,"lon":5.45979,"is_reserved":false,"is_disabled":true,"rental_uris":{"android":"levelo://app?vid=66b1cbfb-c132-4ef4-922c-0beab9b5a350","ios":"levelo://app?vid=66b1cbfb-c132-4ef4-922c-0beab9b5a350"},"vehicle_type_id":"4","last_reported":1749812953,"current_range_meters":0,"station_id":"","pricing_plan_id":"cebpf4jnsgd1na2vs0mg"},{"bike_id":"492f4bbd-1190-4ef2-b66a-479ffe91b09b","system_id":"levelo_inurba_marseille","lat":43.337444,"lon":5.374475,"is_reserved":false,"is_disabled":true,"rental_uris":{"android":"levelo://app?vid=492f4bbd-1190-4ef2-b66a-479ffe91b09b","ios":"levelo://app?vid=492f4bbd-1190-4ef2-b66a-479ffe91b09b"},"vehicle_type_id":"4","last_reported":1749812953,"current_range_meters":0,"station_id":"","pricing_plan_id":"cebpf4jnsgd1na2vs0mg"},{"bike_id":"a9b6bf99-4070-4437-bb20-72962ae30b90","system_id":"levelo_inurba_marseille","lat":43.27457,"lon":5.36396,"is_reserved":false,"is_disabled":true,"rental_uris":{"android":"levelo://app?vid=a9b6bf99-4070-4437-bb20-72962ae30b90","ios":"levelo://app?vid=a9b6bf99-4070-4437-bb20-72962ae30b90"},"vehicle_type_id":"4","last_reported":1749812953,"current_range_meters":0,"station_id":"","pricing_plan_id":"cebpf4jnsgd1na2vs0mg"},{"bike_id":"4fbe4a54-b0fd-482c-90b5-4604ff2bff8c","system_id":"levelo_inurba_marseille","lat":43.28573,"lon":5.3949,"is_reserved":false,"is_disabled":true,"rental_uris":{"android":"levelo://app?vid=4fbe4a54-b0fd-482c-90b5-4604ff2bff8c","ios":"levelo://app?vid=4fbe4a54-b0fd-482c-90b5-4604ff2bff8c"},"vehicle_type_id":"4","last_reported":1749812953,"current_range_meters":0,"station_id":"ce4bh292rcd13ifvqdg0","pricing_plan_id":"cebpf4jnsgd1na2vs0mg"},{"bike_id":"f19faaa8-3728-4668-9431-3379380f1b50","system_id":"levelo_inurba_marseille","lat":43.2848,"lon":5.38406,"is_reserved":false,"is_disabled":true,"rental_uris":{"android":"levelo://app?vid=f19faaa8-3728-4668-9431-3379380f1b50","ios":"levelo://app?vid=f19faaa8-3728-4668-9431-3379380f1b50"},"vehicle_type_id":"4","last_reported":1749812953,"current_range_meters":0,"station_id":"ce4bh512rcd13ifvqe3g","pricing_plan_id":"cebpf4jnsgd1na2vs0mg"},{"bike_id":"9a1941df-da43-4f0d-92e1-9552bcdb241b","system_id":"levelo_inurba_marseille","lat":43.2901,"lon":5.35607,"is_reserved":false,"is_disabled":true,"rental_uris":{"android":"levelo://app?vid=9a1941df-da43-4f0d-92e1-9552bcdb241b","ios":"levelo://app?vid=9a1941df-da43-4f0d-92e1-9552bcdb241b"},"vehicle_type_id":"4","last_reported":1749812953,"current_range_meters":0,"station_id":"ce4bhb92rcd13ifvqen0","pricing_plan_id":"cebpf4jnsgd1na2vs0mg"},{"bike_id":"a6059978-6375-44f1-965f-99de05c08aaf","system_id":"levelo_inurba_marseille","lat":43.30365,"lon":5.4189,"is_reserved":false,"is_disabled":true,"rental_uris":{"android":"levelo://app?vid=a6059978-6375-44f1-965f-99de05c08aaf","ios":"levelo://app?vid=a6059978-6375-44f1-965f-99de05c08aaf"},"vehicle_type_id":"4","last_reported":1749812953,"current_range_meters":0,"station_id":"ce4bhop2rcd13ifvqh7g","pricing_plan_id":"cebpf4jnsgd1na2vs0mg"},{"bike_id":"f208827c-0447-4ed6-8bd7-2bf02b807d65","system_id":"levelo_inurba_marseille","lat":43.2996,"lon":5.385,"is_reserved":false,"is_disabled":true,"rental_uris":{"android":"levelo://app?vid=f208827c-0447-4ed6-8bd7-2bf02b807d65","ios":"levelo://app?vid=f208827c-0447-4ed6-8bd7-2bf02b807d65"},"vehicle_type_id":"4","last_reported":1749812953,"current_range_meters":400,"station_id":"ce4bgj92rcd13ifvqbd0","pricing_plan_id":"cebpf4jnsgd1na2vs0mg"},{"bike_id":"f0b0b1a2-c7eb-4b82-a143-d0f592edd7a6","system_id":"levelo_inurba_marseille","lat":43.269228,"lon":5.388813,"is_reserved":false,"is_disabled":true,"rental_uris":{"android":"levelo://app?vid=f0b0b1a2-c7eb-4b82-a143-d0f592edd7a6","ios":"levelo://app?vid=f0b0b1a2-c7eb-4b82-a143-d0f592edd7a6"},"vehicle_type_id":"4","last_reported":1749812953,"current_range_meters":400,"station_id":"ce4bhhh2rcd13ifvqfl0","pricing_plan_id":"cebpf4jnsgd1na2vs0mg"},{"bike_id":"a5652db6-c4dd-41f1-afe5-06a93e19d8ff","system_id":"levelo_inurba_marseille","lat":43.24607,"lon":5.39295,"is_reserved":false,"is_disabled":true,"rental_uris":{"android":"levelo://app?vid=a5652db6-c4dd-41f1-afe5-06a93e19d8ff","ios":"levelo://app?vid=a5652db6-c4dd-41f1-afe5-06a93e19d8ff"},"vehicle_type_id":"4","last_reported":1749812953,"current_range_meters":800,"station_id":"","pricing_plan_id":"cebpf4jnsgd1na2vs0mg"},{"bike_id":"80138c14-2e42-4fe5-b990-65dde2470259","system_id":"levelo_inurba_marseille","lat":43.22921,"lon":5.35371,"is_reserved":false,"is_disabled":true,"rental_uris":{"android":"levelo://app?vid=80138c14-2e42-4fe5-b990-65dde2470259","ios":"levelo://app?vid=80138c14-2e42-4fe5-b990-65dde2470259"},"vehicle_type_id":"4","last_reported":1749812953,"current_range_meters":800,"station_id":"cpo3532slgdg3j2ikp40","pricing_plan_id":"cebpf4jnsgd1na2vs0mg"},{"bike_id":"5c219ba0-bd6f-4ec1-8199-9fc28d07f25c","system_id":"levelo_inurba_marseille","lat":43.32291,"lon":5.4468,"is_reserved":false,"is_disabled":true,"rental_uris":{"android":"levelo://app?vid=5c219ba0-bd6f-4ec1-8199-9fc28d07f25c","ios":"levelo://app?vid=5c219ba0-bd6f-4ec1-8199-9fc28d07f25c"},"vehicle_type_id":"4","last_reported":1749812953,"current_range_meters":1200,"station_id":"","pricing_plan_id":"cebpf4jnsgd1na2vs0mg"},{"bike_id":"45c26521-5933-492a-b25a-2a5dd5c8a627","system_id":"levelo_inurba_marseille","lat":43.26804,"lon":5.40264,"is_reserved":false,"is_disabled":true,"rental_uris":{"android":"levelo://app?vid=45c26521-5933-492a-b25a-2a5dd5c8a627","ios":"levelo://app?vid=45c26521-5933-492a-b25a-2a5dd5c8a627"},"vehicle_type_id":"4","last_reported":1749812953,"current_range_meters":1200,"station_id":"ce501612rcd8frsf0b60","pricing_plan_id":"cebpf4jnsgd1na2vs0mg"},{"bike_id":"36bb6181-813c-45d6-b75b-69b665d97c99","system_id":"levelo_inurba_marseille","lat":43.28663,"lon":5.35158,"is_reserved":false,"is_disabled":true,"rental_uris":{"android":"levelo://app?vid=36bb6181-813c-45d6-b75b-69b665d97c99","ios":"levelo://app?vid=36bb6181-813c-45d6-b75b-69b665d97c99"},"vehicle_type_id":"4","last_reported":1749812953,"current_range_meters":1600,"station_id":"","pricing_plan_id":"cebpf4jnsgd1na2vs0mg"},{"bike_id":"7268f868-3777-4ac4-be8c-1edbf0de83d1","system_id":"levelo_inurba_marseille","lat":43.30937,"lon":5.40146,"is_reserved":false,"is_disabled":true,"rental_uris":{"android":"levelo://app?vid=7268f868-3777-4ac4-be8c-1edbf0de83d1","ios":"levelo://app?vid=7268f868-3777-4ac4-be8c-1edbf0de83d1"},"vehicle_type_id":"4","last_reported":1749812953,"current_range_meters":2000,"station_id":"ce4bgvp2rcd13ifvqct0","pricing_plan_id":"cebpf4jnsgd1na2vs0mg"},{"bike_id":"3d290de3-5136-47a1-80a0-83df527ec998","system_id":"levelo_inurba_marseille","lat":43.30326,"lon":5.40435,"is_reserved":false,"is_disabled":true,"rental_uris":{"android":"levelo://app?vid=3d290de3-5136-47a1-80a0-83df527ec998","ios":"levelo://app?vid=3d290de3-5136-47a1-80a0-83df527ec998"},"vehicle_type_id":"4","last_reported":1749812953,"current_range_meters":2000,"station_id":"ce4bh012rcd13ifvqd10","pricing_plan_id":"cebpf4jnsgd1na2vs0mg"},{"bike_id":"3d1d54b8-df5a-4e6a-9578-8d658c2fadb9","system_id":"levelo_inurba_marseille","lat":43.29021,"lon":5.38127,"is_reserved":false,"is_disabled":true,"rental_uris":{"android":"levelo://app?vid=3d1d54b8-df5a-4e6a-9578-8d658c2fadb9","ios":"levelo://app?vid=3d1d54b8-df5a-4e6a-9578-8d658c2fadb9"},"vehicle_type_id":"4","last_reported":1749812953,"current_range_meters":2000,"station_id":"ce4bh4p2rcd13ifvqe1g","pricing_plan_id":"cebpf4jnsgd1na2vs0mg"},{"bike_id":"24e6d095-1275-43f8-8ff9-74dfde69913f","system_id":"levelo_inurba_marseille","lat":43.26034,"lon":5.37544,"is_reserved":false,"is_disabled":false,"rental_uris":{"android":"levelo://app?vid=24e6d095-1275-43f8-8ff9-74dfde69913f","ios":"levelo://app?vid=24e6d095-1275-43f8-8ff9-74dfde69913f"},"vehicle_type_id":"4","last_reported":1749812953,"current_range_meters":2800,"station_id":"ce4bhgh2rcd13ifvqfa0","pricing_plan_id":"cebpf4jnsgd1na2vs0mg"},{"bike_id":"8e108a83-e2bf-43e0-9b41-3765b051abd1","system_id":"levelo_inurba_marseille","lat":43.28046,"lon":5.349468,"is_reserved":false,"is_disabled":false,"rental_uris":{"android":"levelo://app?vid=8e108a83-e2bf-43e0-9b41-3765b051abd1","ios":"levelo://app?vid=8e108a83-e2bf-43e0-9b41-3765b051abd1"},"vehicle_type_id":"4","last_reported":1749812953,"current_range_meters":3200,"station_id":"","pricing_plan_id":"cebpf4jnsgd1na2vs0mg"},{"bike_id":"18b85f56-5dba-4490-99f2-84ac364b5cec","system_id":"levelo_inurba_marseille","lat":43.31328,"lon":5.39683,"is_reserved":false,"is_disabled":false,"rental_uris":{"android":"levelo://app?vid=18b85f56-5dba-4490-99f2-84ac364b5cec","ios":"levelo://app?vid=18b85f56-5dba-4490-99f2-84ac364b5cec"},"vehicle_type_id":"4","last_reported":1749812953,"current_range_meters":3600,"station_id":"ce4bgvp2rcd13ifvqcu0","pricing_plan_id":"cebpf4jnsgd1na2vs0mg"},{"bike_id":"8946f973-eb2d-4296-82e2-85cb4ee1a82d","system_id":"levelo_inurba_marseille","lat":43.28363,"lon":5.38095,"is_reserved":false,"is_disabled":false,"rental_uris":{"android":"levelo://app?vid=8946f973-eb2d-4296-82e2-85cb4ee1a82d","ios":"levelo://app?vid=8946f973-eb2d-4296-82e2-85cb4ee1a82d"},"vehicle_type_id":"4","last_reported":1749812953,"current_range_meters":3600,"station_id":"ce4bh412rcd13ifvqdr0","pricing_plan_id":"cebpf4jnsgd1na2vs0mg"},{"bike_id":"c08869ec-3a0e-457d-8510-2a7db1165520","system_id":"levelo_inurba_marseille","lat":43.27493,"lon":5.42445,"is_reserved":false,"is_disabled":false,"rental_uris":{"android":"levelo://app?vid=c08869ec-3a0e-457d-8510-2a7db1165520","ios":"levelo://app?vid=c08869ec-3a0e-457d-8510-2a7db1165520"},"vehicle_type_id":"4","last_reported":1749812953,"current_range_meters":3600,"station_id":"ce4bhn92rcd13ifvqgrg","pricing_plan_id":"cebpf4jnsgd1na2vs0mg"},{"bike_id":"93e7cf6c-6492-4eac-9990-f0cacbd48521","system_id":"levelo_inurba_marseille","lat":43.278086,"lon":5.407133,"is_reserved":false,"is_disabled":false,"rental_uris":{"android":"levelo://app?vid=93e7cf6c-6492-4eac-9990-f0cacbd48521","ios":"levelo://app?vid=93e7cf6c-6492-4eac-9990-f0cacbd48521"},"vehicle_type_id":"4","last_reported":1749812953,"current_range_meters":3600,"station_id":"ce4bhnh2rcd13ifvqgtg","pricing_plan_id":"cebpf4jnsgd1na2vs0mg"},{"bike_id":"90e6ec47-1ec1-496f-a1f6-8183b247fedd","system_id":"levelo_inurba_marseille","lat":43.25494,"lon":5.37659,"is_reserved":false,"is_disabled":false,"rental_uris":{"android":"levelo://app?vid=90e6ec47-1ec1-496f-a1f6-8183b247fedd","ios":"levelo://app?vid=90e6ec47-1ec1-496f-a1f6-8183b247fedd"},"vehicle_type_id":"4","last_reported":1749812953,"current_range_meters":4000,"station_id":"ce4bhh12rcd13ifvqff0","pricing_plan_id":"cebpf4jnsgd1na2vs0mg"},{"bike_id":"435b9435-3408-4688-9cb0-dc630c9bd1db","system_id":"levelo_inurba_marseille","lat":43.24165,"lon":5.36418,"is_reserved":false,"is_disabled":false,"rental_uris":{"android":"levelo://app?vid=435b9435-3408-4688-9cb0-dc630c9bd1db","ios":"levelo://app?vid=435b9435-3408-4688-9cb0-dc630c9bd1db"},"vehicle_type_id":"4","last_reported":1749812953,"current_range_meters":4000,"station_id":"cpo36qri1sfpv3e86is0","pricing_plan_id":"cebpf4jnsgd1na2vs0mg"},{"bike_id":"bfad8db5-4661-4ebf-8640-dd771ede3bb9","system_id":"levelo_inurba_marseille","lat":43.30593,"lon":5.39351,"is_reserved":false,"is_disabled":false,"rental_uris":{"android":"levelo://app?vid=bfad8db5-4661-4ebf-8640-dd771ede3bb9","ios":"levelo://app?vid=bfad8db5-4661-4ebf-8640-dd771ede3bb9"},"vehicle_type_id":"4","last_reported":1749812953,"current_range_meters":4400,"station_id":"ce4bh0p2rcd13ifvqd80","pricing_plan_id":"cebpf4jnsgd1na2vs0mg"},{"bike_id":"f332fde2-dc92-4a98-8499-acf0fa5d3cae","system_id":"levelo_inurba_marseille","lat":43.24164,"lon":5.36406,"is_reserved":false,"is_disabled":false,"rental_uris":{"android":"levelo://app?vid=f332fde2-dc92-4a98-8499-acf0fa5d3cae","ios":"levelo://app?vid=f332fde2-dc92-4a98-8499-acf0fa5d3cae"},"vehicle_type_id":"4","last_reported":1749812953,"current_range_meters":4400,"station_id":"cpo36qri1sfpv3e86is0","pricing_plan_id":"cebpf4jnsgd1na2vs0mg"},{"bike_id":"39b061f8-0506-42f6-ae2c-490b050d230e","system_id":"levelo_inurba_marseille","lat":43.29967,"lon":5.38484,"is_reserved":false,"is_disabled":false,"rental_uris":{"android":"levelo://app?vid=39b061f8-0506-42f6-ae2c-490b050d230e","ios":"levelo://app?vid=39b061f8-0506-42f6-ae2c-490b050d230e"},"vehicle_type_id":"4","last_reported":1749812953,"current_range_meters":7200,"station_id":"ce4bgj92rcd13ifvqbd0","pricing_plan_id":"cebpf4jnsgd1na2vs0mg"},{"bike_id":"92c939a7-6da3-497d-82d7-8f81c3b71e65","system_id":"levelo_inurba_marseille","lat":43.266785,"lon":5.382733,"is_reserved":false,"is_disabled":false,"rental_uris":{"android":"levelo://app?vid=92c939a7-6da3-497d-82d7-8f81c3b71e65","ios":"levelo://app?vid=92c939a7-6da3-497d-82d7-8f81c3b71e65"},"vehicle_type_id":"4","last_reported":1749812953,"current_range_meters":7200,"station_id":"ce4bhg92rcd13ifvqf90","pricing_plan_id":"cebpf4jnsgd1na2vs0mg"},{"bike_id":"a426bcb6-9733-433a-b425-ccc13f254a65","system_id":"levelo_inurba_marseille","lat":43.29572,"lon":5.44243,"is_reserved":false,"is_disabled":false,"rental_uris":{"android":"levelo://app?vid=a426bcb6-9733-433a-b425-ccc13f254a65","ios":"levelo://app?vid=a426bcb6-9733-433a-b425-ccc13f254a65"},"vehicle_type_id":"4","last_reported":1749812953,"current_range_meters":8000,"station_id":"","pricing_plan_id":"cebpf4jnsgd1na2vs0mg"},{"bike_id":"501fe5cc-ec9f-4031-8e12-9c9a87dfd25d","system_id":"levelo_inurba_marseille","lat":43.31781,"lon":5.40608,"is_reserved":false,"is_disabled":false,"rental_uris":{"android":"levelo://app?vid=501fe5cc-ec9f-4031-8e12-9c9a87dfd25d","ios":"levelo://app?vid=501fe5cc-ec9f-4031-8e12-9c9a87dfd25d"},"vehicle_type_id":"4","last_reported":1749812953,"current_range_meters":8000,"station_id":"","pricing_plan_id":"cebpf4jnsgd1na2vs0mg"},{"bike_id":"a25b84b4-c252-4eda-97fb-1a1f22303c5d","system_id":"levelo_inurba_marseille","lat":43.313893,"lon":5.37425,"is_reserved":false,"is_disabled":false,"rental_uris":{"android":"levelo://app?vid=a25b84b4-c252-4eda-97fb-1a1f22303c5d","ios":"levelo://app?vid=a25b84b4-c252-4eda-97fb-1a1f22303c5d"},"vehicle_type_id":"4","last_reported":1749812953,"current_range_meters":8000,"station_id":"","pricing_plan_id":"cebpf4jnsgd1na2vs0mg"},{"bike_id":"31ee3d02-e246-49d4-a546-e77821bc2142","system_id":"levelo_inurba_marseille","lat":43.26957,"lon":5.38634,"is_reserved":false,"is_disabled":false,"rental_uris":{"android":"levelo://app?vid=31ee3d02-e246-49d4-a546-e77821bc2142","ios":"levelo://app?vid=31ee3d02-e246-49d4-a546-e77821bc2142"},"vehicle_type_id":"4","last_reported":1749812953,"current_range_meters":8000,"station_id":"ce4bhh92rcd13ifvqfh0","pricing_plan_id":"cebpf4jnsgd1na2vs0mg"},{"bike_id":"d37798cc-4905-4ac4-b76f-b756d8f4a069","system_id":"levelo_inurba_marseille","lat":43.28155,"lon":5.42638,"is_reserved":false,"is_disabled":false,"rental_uris":{"android":"levelo://app?vid=d37798cc-4905-4ac4-b76f-b756d8f4a069","ios":"levelo://app?vid=d37798cc-4905-4ac4-b76f-b756d8f4a069"},"vehicle_type_id":"4","last_reported":1749812953,"current_range_meters":8000,"station_id":"ce4bhnh2rcd13ifvqgug","pricing_plan_id":"cebpf4jnsgd1na2vs0mg"},{"bike_id":"68416748-718b-42ce-8894-6f8fa6f79900","system_id":"levelo_inurba_marseille","lat":43.32334,"lon":5.4062,"is_reserved":false,"is_disabled":false,"rental_uris":{"android":"levelo://app?vid=68416748-718b-42ce-8894-6f8fa6f79900","ios":"levelo://app?vid=68416748-718b-42ce-8894-6f8fa6f79900"},"vehicle_type_id":"4","last_reported":1749812953,"current_range_meters":8000,"station_id":"ce4bhq92rcd13ifvqhjg","pricing_plan_id":"cebpf4jnsgd1na2vs0mg"},{"bike_id":"d3c5213e-66c6-4d73-9200-a083333368ee","system_id":"levelo_inurba_marseille","lat":43.295218,"lon":5.390335,"is_reserved":false,"is_disabled":false,"rental_uris":{"android":"levelo://app?vid=d3c5213e-66c6-4d73-9200-a083333368ee","ios":"levelo://app?vid=d3c5213e-66c6-4d73-9200-a083333368ee"},"vehicle_type_id":"4","last_reported":1749812953,"current_range_meters":8400,"station_id":"ce4bh3p2rcd13ifvqdp0","pricing_plan_id":"cebpf4jnsgd1na2vs0mg"},{"bike_id":"f2e005d8-fa62-4895-a157-e412c35649d1","system_id":"levelo_inurba_marseille","lat":43.23966,"lon":5.36635,"is_reserved":false,"is_disabled":false,"rental_uris":{"android":"levelo://app?vid=f2e005d8-fa62-4895-a157-e412c35649d1","ios":"levelo://app?vid=f2e005d8-fa62-4895-a157-e412c35649d1"},"vehicle_type_id":"4","last_reported":1749812953,"current_range_meters":8400,"station_id":"ce4bhi12rcd13ifvqfp0","pricing_plan_id":"cebpf4jnsgd1na2vs0mg"},{"bike_id":"97421c04-2630-4fc1-9da9-b17d88602c5f","system_id":"levelo_inurba_marseille","lat":43.337599,"lon":5.374395,"is_reserved":false,"is_disabled":false,"rental_uris":{"android":"levelo://app?vid=97421c04-2630-4fc1-9da9-b17d88602c5f","ios":"levelo://app?vid=97421c04-2630-4fc1-9da9-b17d88602c5f"},"vehicle_type_id":"4","last_reported":1749812953,"current_range_meters":8800,"station_id":"","pricing_plan_id":"cebpf4jnsgd1na2vs0mg"},{"bike_id":"3bdb47fe-0f4d-4e36-bfdb-2d2509b0a553","system_id":"levelo_inurba_marseille","lat":43.25101,"lon":5.37897,"is_reserved":false,"is_disabled":false,"rental_uris":{"android":"levelo://app?vid=3bdb47fe-0f4d-4e36-bfdb-2d2509b0a553","ios":"levelo://app?vid=3bdb47fe-0f4d-4e36-bfdb-2d2509b0a553"},"vehicle_type_id":"4","last_reported":1749812953,"current_range_meters":8800,"station_id":"","pricing_plan_id":"cebpf4jnsgd1na2vs0mg"},{"bike_id":"8d60347d-541c-40fb-90ca-203bf6bd520a","system_id":"levelo_inurba_marseille","lat":43.27126,"lon":5.3639,"is_reserved":false,"is_disabled":false,"rental_uris":{"android":"levelo://app?vid=8d60347d-541c-40fb-90ca-203bf6bd520a","ios":"levelo://app?vid=8d60347d-541c-40fb-90ca-203bf6bd520a"},"vehicle_type_id":"4","last_reported":1749812953,"current_range_meters":8800,"station_id":"","pricing_plan_id":"cebpf4jnsgd1na2vs0mg"},{"bike_id":"e8194c17-9a11-499d-8902-5b81d69279a8","system_id":"levelo_inurba_marseille","lat":43.2991,"lon":5.38134,"is_reserved":false,"is_disabled":false,"rental_uris":{"android":"levelo://app?vid=e8194c17-9a11-499d-8902-5b81d69279a8","ios":"levelo://app?vid=e8194c17-9a11-499d-8902-5b81d69279a8"},"vehicle_type_id":"4","last_reported":1749812953,"current_range_meters":8800,"station_id":"ce4bgj12rcd13ifvqbc0","pricing_plan_id":"cebpf4jnsgd1na2vs0mg"},{"bike_id":"f5005393-4401-4df7-8594-84a8bd8fe608","system_id":"levelo_inurba_marseille","lat":43.26687,"lon":5.38269,"is_reserved":false,"is_disabled":false,"rental_uris":{"android":"levelo://app?vid=f5005393-4401-4df7-8594-84a8bd8fe608","ios":"levelo://app?vid=f5005393-4401-4df7-8594-84a8bd8fe608"},"vehicle_type_id":"4","last_reported":1749812953,"current_range_meters":8800,"station_id":"ce4bhg92rcd13ifvqf90","pricing_plan_id":"cebpf4jnsgd1na2vs0mg"},{"bike_id":"1268e070-f02d-4537-93df-0bfd5c4daa05","system_id":"levelo_inurba_marseille","lat":43.32704,"lon":5.37646,"is_reserved":false,"is_disabled":false,"rental_uris":{"android":"levelo://app?vid=1268e070-f02d-4537-93df-0bfd5c4daa05","ios":"levelo://app?vid=1268e070-f02d-4537-93df-0bfd5c4daa05"},"vehicle_type_id":"4","last_reported":1749812953,"current_range_meters":9200,"station_id":"","pricing_plan_id":"cebpf4jnsgd1na2vs0mg"},{"bike_id":"f1f38369-f5a0-43bf-bac9-1108ee6b8be2","system_id":"levelo_inurba_marseille","lat":43.29929,"lon":5.36551,"is_reserved":false,"is_disabled":false,"rental_uris":{"android":"levelo://app?vid=f1f38369-f5a0-43bf-bac9-1108ee6b8be2","ios":"levelo://app?vid=f1f38369-f5a0-43bf-bac9-1108ee6b8be2"},"vehicle_type_id":"4","last_reported":1749812953,"current_range_meters":9200,"station_id":"ce4bgm92rcd13ifvqbr0","pricing_plan_id":"cebpf4jnsgd1na2vs0mg"},{"bike_id":"e920c52b-6982-4903-beab-878c2e4d94ee","system_id":"levelo_inurba_marseille","lat":43.300901,"lon":5.390845,"is_reserved":false,"is_disabled":false,"rental_uris":{"android":"levelo://app?vid=e920c52b-6982-4903-beab-878c2e4d94ee","ios":"levelo://app?vid=e920c52b-6982-4903-beab-878c2e4d94ee"},"vehicle_type_id":"4","last_reported":1749812953,"current_range_meters":9200,"station_id":"ce4bh192rcd13ifvqdb0","pricing_plan_id":"cebpf4jnsgd1na2vs0mg"},{"bike_id":"025991ba-466c-42d6-85cc-21a61b7366cf","system_id":"levelo_inurba_marseille","lat":43.23962,"lon":5.36623,"is_reserved":false,"is_disabled":false,"rental_uris":{"android":"levelo://app?vid=025991ba-466c-42d6-85cc-21a61b7366cf","ios":"levelo://app?vid=025991ba-466c-42d6-85cc-21a61b7366cf"},"vehicle_type_id":"4","last_reported":1749812953,"current_range_meters":9200,"station_id":"ce4bhi12rcd13ifvqfp0","pricing_plan_id":"cebpf4jnsgd1na2vs0mg"},{"bike_id":"0e4c0a39-98ff-4bb6-959b-dae33a7cf4ba","system_id":"levelo_inurba_marseille","lat":43.25815,"lon":5.39425,"is_reserved":false,"is_disabled":false,"rental_uris":{"android":"levelo://app?vid=0e4c0a39-98ff-4bb6-959b-dae33a7cf4ba","ios":"levelo://app?vid=0e4c0a39-98ff-4bb6-959b-dae33a7cf4ba"},"vehicle_type_id":"4","last_reported":1749812953,"current_range_meters":9200,"station_id":"ce4bhip2rcd13ifvqft0","pricing_plan_id":"cebpf4jnsgd1na2vs0mg"},{"bike_id":"2ae3497c-45b2-474e-a61b-246541dfb5a5","system_id":"levelo_inurba_marseille","lat":43.31406,"lon":5.36809,"is_reserved":false,"is_disabled":false,"rental_uris":{"android":"levelo://app?vid=2ae3497c-45b2-474e-a61b-246541dfb5a5","ios":"levelo://app?vid=2ae3497c-45b2-474e-a61b-246541dfb5a5"},"vehicle_type_id":"4","last_reported":1749812953,"current_range_meters":9600,"station_id":"","pricing_plan_id":"cebpf4jnsgd1na2vs0mg"},{"bike_id":"a8c0aafa-7de9-42a9-b055-078a6ff101cc","system_id":"levelo_inurba_marseille","lat":43.273755,"lon":5.362677,"is_reserved":false,"is_disabled":false,"rental_uris":{"android":"levelo://app?vid=a8c0aafa-7de9-42a9-b055-078a6ff101cc","ios":"levelo://app?vid=a8c0aafa-7de9-42a9-b055-078a6ff101cc"},"vehicle_type_id":"4","last_reported":1749812953,"current_range_meters":9600,"station_id":"ce4bhbh2rcd13ifvqeo0","pricing_plan_id":"cebpf4jnsgd1na2vs0mg"},{"bike_id":"f5840e6f-97e8-4ede-bde1-fb0dae78568a","system_id":"levelo_inurba_marseille","lat":43.26195,"lon":5.37442,"is_reserved":false,"is_disabled":false,"rental_uris":{"android":"levelo://app?vid=f5840e6f-97e8-4ede-bde1-fb0dae78568a","ios":"levelo://app?vid=f5840e6f-97e8-4ede-bde1-fb0dae78568a"},"vehicle_type_id":"4","last_reported":1749812953,"current_range_meters":9600,"station_id":"ce4bhgp2rcd13ifvqfc0","pricing_plan_id":"cebpf4jnsgd1na2vs0mg"},{"bike_id":"c34bbb0b-dbee-4ba1-afcd-fd1087748bfe","system_id":"levelo_inurba_marseille","lat":43.2549,"lon":5.37655,"is_reserved":false,"is_disabled":false,"rental_uris":{"android":"levelo://app?vid=c34bbb0b-dbee-4ba1-afcd-fd1087748bfe","ios":"levelo://app?vid=c34bbb0b-dbee-4ba1-afcd-fd1087748bfe"},"vehicle_type_id":"4","last_reported":1749812953,"current_range_meters":9600,"station_id":"ce4bhh12rcd13ifvqff0","pricing_plan_id":"cebpf4jnsgd1na2vs0mg"},{"bike_id":"3a11c5a8-e636-4a8e-97c5-5f95a0b7cfbb","system_id":"levelo_inurba_marseille","lat":43.33779,"lon":5.39199,"is_reserved":false,"is_disabled":false,"rental_uris":{"android":"levelo://app?vid=3a11c5a8-e636-4a8e-97c5-5f95a0b7cfbb","ios":"levelo://app?vid=3a11c5a8-e636-4a8e-97c5-5f95a0b7cfbb"},"vehicle_type_id":"4","last_reported":1749812953,"current_range_meters":10000,"station_id":"","pricing_plan_id":"cebpf4jnsgd1na2vs0mg"},{"bike_id":"d868bd62-3c5e-4130-a7d2-3bd9b314843a","system_id":"levelo_inurba_marseille","lat":43.27014,"lon":5.42803,"is_reserved":false,"is_disabled":false,"rental_uris":{"android":"levelo://app?vid=d868bd62-3c5e-4130-a7d2-3bd9b314843a","ios":"levelo://app?vid=d868bd62-3c5e-4130-a7d2-3bd9b314843a"},"vehicle_type_id":"4","last_reported":1749812953,"current_range_meters":10000,"station_id":"","pricing_plan_id":"cebpf4jnsgd1na2vs0mg"},{"bike_id":"e5ef7447-82af-477b-846f-d44631249354","system_id":"levelo_inurba_marseille","lat":43.32492,"lon":5.38819,"is_reserved":false,"is_disabled":false,"rental_uris":{"android":"levelo://app?vid=e5ef7447-82af-477b-846f-d44631249354","ios":"levelo://app?vid=e5ef7447-82af-477b-846f-d44631249354"},"vehicle_type_id":"4","last_reported":1749812953,"current_range_meters":10000,"station_id":"","pricing_plan_id":"cebpf4jnsgd1na2vs0mg"},{"bike_id":"06ac0d78-197e-43f2-8448-6d412c2bd889","system_id":"levelo_inurba_marseille","lat":43.2962,"lon":5.37156,"is_reserved":false,"is_disabled":false,"rental_uris":{"android":"levelo://app?vid=06ac0d78-197e-43f2-8448-6d412c2bd889","ios":"levelo://app?vid=06ac0d78-197e-43f2-8448-6d412c2bd889"},"vehicle_type_id":"4","last_reported":1749812953,"current_range_meters":10000,"station_id":"ce4bgnh2rcd13ifvqc0g","pricing_plan_id":"cebpf4jnsgd1na2vs0mg"},{"bike_id":"96763e20-df6d-4de2-83b9-70df2fa985e1","system_id":"levelo_inurba_marseille","lat":43.30426,"lon":5.41287,"is_reserved":false,"is_disabled":false,"rental_uris":{"android":"levelo://app?vid=96763e20-df6d-4de2-83b9-70df2fa985e1","ios":"levelo://app?vid=96763e20-df6d-4de2-83b9-70df2fa985e1"},"vehicle_type_id":"4","last_reported":1749812953,"current_range_meters":10000,"station_id":"ce4bhop2rcd13ifvqh8g","pricing_plan_id":"cebpf4jnsgd1na2vs0mg"},{"bike_id":"063eff84-b62e-4128-85ed-5896eed2f5f4","system_id":"levelo_inurba_marseille","lat":43.313107,"lon":5.375139,"is_reserved":false,"is_disabled":false,"rental_uris":{"android":"levelo://app?vid=063eff84-b62e-4128-85ed-5896eed2f5f4","ios":"levelo://app?vid=063eff84-b62e-4128-85ed-5896eed2f5f4"},"vehicle_type_id":"4","last_reported":1749812953,"current_range_meters":10800,"station_id":"","pricing_plan_id":"cebpf4jnsgd1na2vs0mg"},{"bike_id":"efef7ea9-dfe7-4a71-9a42-eb2cee9bc37e","system_id":"levelo_inurba_marseille","lat":43.3121,"lon":5.37212,"is_reserved":false,"is_disabled":false,"rental_uris":{"android":"levelo://app?vid=efef7ea9-dfe7-4a71-9a42-eb2cee9bc37e","ios":"levelo://app?vid=efef7ea9-dfe7-4a71-9a42-eb2cee9bc37e"},"vehicle_type_id":"4","last_reported":1749812953,"current_range_meters":10800,"station_id":"","pricing_plan_id":"cebpf4jnsgd1na2vs0mg"},{"bike_id":"e91fcf6f-b51b-4e14-b3af-503f229ed8e2","system_id":"levelo_inurba_marseille","lat":43.29612,"lon":5.37725,"is_reserved":false,"is_disabled":false,"rental_uris":{"android":"levelo://app?vid=e91fcf6f-b51b-4e14-b3af-503f229ed8e2","ios":"levelo://app?vid=e91fcf6f-b51b-4e14-b3af-503f229ed8e2"},"vehicle_type_id":"4","last_reported":1749812953,"current_range_meters":10800,"station_id":"ce4bgi92rcd13ifvqb90","pricing_plan_id":"cebpf4jnsgd1na2vs0mg"},{"bike_id":"8908a014-bb86-4c38-9e16-64abeba2f401","system_id":"levelo_inurba_marseille","lat":43.30144,"lon":5.38057,"is_reserved":false,"is_disabled":false,"rental_uris":{"android":"levelo://app?vid=8908a014-bb86-4c38-9e16-64abeba2f401","ios":"levelo://app?vid=8908a014-bb86-4c38-9e16-64abeba2f401"},"vehicle_type_id":"4","last_reported":1749812953,"current_range_meters":10800,"station_id":"ce4bgjp2rcd13ifvqbh0","pricing_plan_id":"cebpf4jnsgd1na2vs0mg"},{"bike_id":"8b606687-f4a4-405f-bea9-43db72a2e22f","system_id":"levelo_inurba_marseille","lat":43.30148,"lon":5.37413,"is_reserved":false,"is_disabled":false,"rental_uris":{"android":"levelo://app?vid=8b606687-f4a4-405f-bea9-43db72a2e22f","ios":"levelo://app?vid=8b606687-f4a4-405f-bea9-43db72a2e22f"},"vehicle_type_id":"4","last_reported":1749812953,"current_range_meters":10800,"station_id":"ce4bgs92rcd13ifvqcc0","pricing_plan_id":"cebpf4jnsgd1na2vs0mg"},{"bike_id":"ff9f8434-0a7e-4939-a735-c0b0bbb9609c","system_id":"levelo_inurba_marseille","lat":43.273779,"lon":5.362562,"is_reserved":false,"is_disabled":false,"rental_uris":{"android":"levelo://app?vid=ff9f8434-0a7e-4939-a735-c0b0bbb9609c","ios":"levelo://app?vid=ff9f8434-0a7e-4939-a735-c0b0bbb9609c"},"vehicle_type_id":"4","last_reported":1749812953,"current_range_meters":10800,"station_id":"ce4bhbh2rcd13ifvqeo0","pricing_plan_id":"cebpf4jnsgd1na2vs0mg"},{"bike_id":"0c28c555-a34d-40c5-b03e-5a87d301f65b","system_id":"levelo_inurba_marseille","lat":43.292675,"lon":5.384345,"is_reserved":false,"is_disabled":false,"rental_uris":{"android":"levelo://app?vid=0c28c555-a34d-40c5-b03e-5a87d301f65b","ios":"levelo://app?vid=0c28c555-a34d-40c5-b03e-5a87d301f65b"},"vehicle_type_id":"4","last_reported":1749812953,"current_range_meters":10800,"station_id":"ce4bhjp2rcd13ifvqg90","pricing_plan_id":"cebpf4jnsgd1na2vs0mg"},{"bike_id":"11f5a2f8-198e-4ee2-ac99-0039be9bd70d","system_id":"levelo_inurba_marseille","lat":43.25687,"lon":5.41956,"is_reserved":false,"is_disabled":false,"rental_uris":{"android":"levelo://app?vid=11f5a2f8-198e-4ee2-ac99-0039be9bd70d","ios":"levelo://app?vid=11f5a2f8-198e-4ee2-ac99-0039be9bd70d"},"vehicle_type_id":"4","last_reported":1749812953,"current_range_meters":11200,"station_id":"","pricing_plan_id":"cebpf4jnsgd1na2vs0mg"},{"bike_id":"cac16850-0e6d-465a-bbca-79973376e09f","system_id":"levelo_inurba_marseille","lat":43.27539,"lon":5.38998,"is_reserved":false,"is_disabled":false,"rental_uris":{"android":"levelo://app?vid=cac16850-0e6d-465a-bbca-79973376e09f","ios":"levelo://app?vid=cac16850-0e6d-465a-bbca-79973376e09f"},"vehicle_type_id":"4","last_reported":1749812953,"current_range_meters":11200,"station_id":"","pricing_plan_id":"cebpf4jnsgd1na2vs0mg"},{"bike_id":"b2e7b183-af44-4407-b1f1-97aaa5ac9d62","system_id":"levelo_inurba_marseille","lat":43.30545,"lon":5.36523,"is_reserved":false,"is_disabled":false,"rental_uris":{"android":"levelo://app?vid=b2e7b183-af44-4407-b1f1-97aaa5ac9d62","ios":"levelo://app?vid=b2e7b183-af44-4407-b1f1-97aaa5ac9d62"},"vehicle_type_id":"4","last_reported":1749812953,"current_range_meters":11200,"station_id":"ce4bgs12rcd13ifvqcag","pricing_plan_id":"cebpf4jnsgd1na2vs0mg"},{"bike_id":"5e921d9c-18f1-482e-8cc4-4cb430ed8e49","system_id":"levelo_inurba_marseille","lat":43.3014,"lon":5.37404,"is_reserved":false,"is_disabled":false,"rental_uris":{"android":"levelo://app?vid=5e921d9c-18f1-482e-8cc4-4cb430ed8e49","ios":"levelo://app?vid=5e921d9c-18f1-482e-8cc4-4cb430ed8e49"},"vehicle_type_id":"4","last_reported":1749812953,"current_range_meters":11200,"station_id":"ce4bgs92rcd13ifvqcc0","pricing_plan_id":"cebpf4jnsgd1na2vs0mg"},{"bike_id":"78e4331f-c67f-4812-a1cf-4af0acc5e2d6","system_id":"levelo_inurba_marseille","lat":43.32364,"lon":5.367316,"is_reserved":false,"is_disabled":false,"rental_uris":{"android":"levelo://app?vid=78e4331f-c67f-4812-a1cf-4af0acc5e2d6","ios":"levelo://app?vid=78e4331f-c67f-4812-a1cf-4af0acc5e2d6"},"vehicle_type_id":"4","last_reported":1749812953,"current_range_meters":11200,"station_id":"ce4bhsh2rcd13ifvqi2g","pricing_plan_id":"cebpf4jnsgd1na2vs0mg"},{"bike_id":"2eafea4e-7d72-4b13-a9fb-cb35379eaa24","system_id":"levelo_inurba_marseille","lat":43.29614,"lon":5.38083,"is_reserved":false,"is_disabled":false,"rental_uris":{"android":"levelo://app?vid=2eafea4e-7d72-4b13-a9fb-cb35379eaa24","ios":"levelo://app?vid=2eafea4e-7d72-4b13-a9fb-cb35379eaa24"},"vehicle_type_id":"4","last_reported":1749812953,"current_range_meters":11600,"station_id":"ce4bgl12rcd13ifvqbo0","pricing_plan_id":"cebpf4jnsgd1na2vs0mg"},{"bike_id":"03ae7806-68ef-4183-b3ec-15d142859ef2","system_id":"levelo_inurba_marseille","lat":43.30876,"lon":5.37197,"is_reserved":false,"is_disabled":false,"rental_uris":{"android":"levelo://app?vid=03ae7806-68ef-4183-b3ec-15d142859ef2","ios":"levelo://app?vid=03ae7806-68ef-4183-b3ec-15d142859ef2"},"vehicle_type_id":"4","last_reported":1749812953,"current_range_meters":11600,"station_id":"ce4bguh2rcd13ifvqckg","pricing_plan_id":"cebpf4jnsgd1na2vs0mg"},{"bike_id":"80dfe1ef-3eba-4d3c-b7eb-761256f8791b","system_id":"levelo_inurba_marseille","lat":43.30881,"lon":5.3719,"is_reserved":false,"is_disabled":false,"rental_uris":{"android":"levelo://app?vid=80dfe1ef-3eba-4d3c-b7eb-761256f8791b","ios":"levelo://app?vid=80dfe1ef-3eba-4d3c-b7eb-761256f8791b"},"vehicle_type_id":"4","last_reported":1749812953,"current_range_meters":11600,"station_id":"ce4bguh2rcd13ifvqckg","pricing_plan_id":"cebpf4jnsgd1na2vs0mg"},{"bike_id":"95c3053e-0f50-4151-a506-146213a65f40","system_id":"levelo_inurba_marseille","lat":43.29874,"lon":5.38904,"is_reserved":false,"is_disabled":false,"rental_uris":{"android":"levelo://app?vid=95c3053e-0f50-4151-a506-146213a65f40","ios":"levelo://app?vid=95c3053e-0f50-4151-a506-146213a65f40"},"vehicle_type_id":"4","last_reported":1749812953,"current_range_meters":11600,"station_id":"ce4bh392rcd13ifvqdl0","pricing_plan_id":"cebpf4jnsgd1na2vs0mg"},{"bike_id":"e3090e73-608d-49d7-917c-b0d225170417","system_id":"levelo_inurba_marseille","lat":43.2926,"lon":5.3684,"is_reserved":false,"is_disabled":false,"rental_uris":{"android":"levelo://app?vid=e3090e73-608d-49d7-917c-b0d225170417","ios":"levelo://app?vid=e3090e73-608d-49d7-917c-b0d225170417"},"vehicle_type_id":"4","last_reported":1749812953,"current_range_meters":11600,"station_id":"ce4bhbp2rcd13ifvqesg","pricing_plan_id":"cebpf4jnsgd1na2vs0mg"},{"bike_id":"800566c9-0631-49de-9024-d9e5d3c5a0b0","system_id":"levelo_inurba_marseille","lat":43.27213,"lon":5.39185,"is_reserved":false,"is_disabled":false,"rental_uris":{"android":"levelo://app?vid=800566c9-0631-49de-9024-d9e5d3c5a0b0","ios":"levelo://app?vid=800566c9-0631-49de-9024-d9e5d3c5a0b0"},"vehicle_type_id":"4","last_reported":1749812953,"current_range_meters":11600,"station_id":"ce4bhhp2rcd13ifvqfm0","pricing_plan_id":"cebpf4jnsgd1na2vs0mg"},{"bike_id":"1a5bde47-bf3b-4cd4-b091-da658f66aa67","system_id":"levelo_inurba_marseille","lat":43.32549,"lon":5.41507,"is_reserved":false,"is_disabled":false,"rental_uris":{"android":"levelo://app?vid=1a5bde47-bf3b-4cd4-b091-da658f66aa67","ios":"levelo://app?vid=1a5bde47-bf3b-4cd4-b091-da658f66aa67"},"vehicle_type_id":"4","last_reported":1749812953,"current_range_meters":11600,"station_id":"ce4bhq12rcd13ifvqhhg","pricing_plan_id":"cebpf4jnsgd1na2vs0mg"},{"bike_id":"41902e46-3363-402b-89a9-77321257c96b","system_id":"levelo_inurba_marseille","lat":43.32363,"lon":5.36739,"is_reserved":false,"is_disabled":false,"rental_uris":{"android":"levelo://app?vid=41902e46-3363-402b-89a9-77321257c96b","ios":"levelo://app?vid=41902e46-3363-402b-89a9-77321257c96b"},"vehicle_type_id":"4","last_reported":1749812953,"current_range_meters":11600,"station_id":"ce4bhsh2rcd13ifvqi2g","pricing_plan_id":"cebpf4jnsgd1na2vs0mg"},{"bike_id":"346f3f80-6b15-4406-b905-bb78596f5bac","system_id":"levelo_inurba_marseille","lat":43.32364,"lon":5.36756,"is_reserved":false,"is_disabled":false,"rental_uris":{"android":"levelo://app?vid=346f3f80-6b15-4406-b905-bb78596f5bac","ios":"levelo://app?vid=346f3f80-6b15-4406-b905-bb78596f5bac"},"vehicle_type_id":"4","last_reported":1749812953,"current_range_meters":11600,"station_id":"ce4bhsh2rcd13ifvqi2g","pricing_plan_id":"cebpf4jnsgd1na2vs0mg"},{"bike_id":"9b3fa288-f2b8-4819-b75f-e276eaeca798","system_id":"levelo_inurba_marseille","lat":43.2979,"lon":5.37111,"is_reserved":false,"is_disabled":false,"rental_uris":{"android":"levelo://app?vid=9b3fa288-f2b8-4819-b75f-e276eaeca798","ios":"levelo://app?vid=9b3fa288-f2b8-4819-b75f-e276eaeca798"},"vehicle_type_id":"4","last_reported":1749812953,"current_range_meters":12000,"station_id":"ce4bgop2rcd13ifvqc1g","pricing_plan_id":"cebpf4jnsgd1na2vs0mg"},{"bike_id":"095356e2-42ff-430d-94a5-379ba0845578","system_id":"levelo_inurba_marseille","lat":43.306,"lon":5.37244,"is_reserved":false,"is_disabled":false,"rental_uris":{"android":"levelo://app?vid=095356e2-42ff-430d-94a5-379ba0845578","ios":"levelo://app?vid=095356e2-42ff-430d-94a5-379ba0845578"},"vehicle_type_id":"4","last_reported":1749812953,"current_range_meters":12000,"station_id":"ce4bgqh2rcd13ifvqc4g","pricing_plan_id":"cebpf4jnsgd1na2vs0mg"},{"bike_id":"d3c2c15d-1fc6-4b22-a13e-ddd837cdf627","system_id":"levelo_inurba_marseille","lat":43.2547,"lon":5.3764,"is_reserved":false,"is_disabled":false,"rental_uris":{"android":"levelo://app?vid=d3c2c15d-1fc6-4b22-a13e-ddd837cdf627","ios":"levelo://app?vid=d3c2c15d-1fc6-4b22-a13e-ddd837cdf627"},"vehicle_type_id":"4","last_reported":1749812953,"current_range_meters":12000,"station_id":"ce4bhh12rcd13ifvqff0","pricing_plan_id":"cebpf4jnsgd1na2vs0mg"},{"bike_id":"5b0c3ff8-247c-4928-97e1-b79badce49c8","system_id":"levelo_inurba_marseille","lat":43.32659,"lon":5.40985,"is_reserved":false,"is_disabled":false,"rental_uris":{"android":"levelo://app?vid=5b0c3ff8-247c-4928-97e1-b79badce49c8","ios":"levelo://app?vid=5b0c3ff8-247c-4928-97e1-b79badce49c8"},"vehicle_type_id":"4","last_reported":1749812953,"current_range_meters":12000,"station_id":"ce4bhpp2rcd13ifvqhgg","pricing_plan_id":"cebpf4jnsgd1na2vs0mg"},{"bike_id":"8bca9568-3ad8-4b04-a52d-0210c5555d25","system_id":"levelo_inurba_marseille","lat":43.32094,"lon":5.36806,"is_reserved":false,"is_disabled":false,"rental_uris":{"android":"levelo://app?vid=8bca9568-3ad8-4b04-a52d-0210c5555d25","ios":"levelo://app?vid=8bca9568-3ad8-4b04-a52d-0210c5555d25"},"vehicle_type_id":"4","last_reported":1749812953,"current_range_meters":12000,"station_id":"ce4bhrh2rcd13ifvqhug","pricing_plan_id":"cebpf4jnsgd1na2vs0mg"},{"bike_id":"189ffa26-a8a7-479b-a91f-709cf7567885","system_id":"levelo_inurba_marseille","lat":43.29846,"lon":5.36276,"is_reserved":false,"is_disabled":false,"rental_uris":{"android":"levelo://app?vid=189ffa26-a8a7-479b-a91f-709cf7567885","ios":"levelo://app?vid=189ffa26-a8a7-479b-a91f-709cf7567885"},"vehicle_type_id":"4","last_reported":1749812953,"current_range_meters":12400,"station_id":"ce4bgpp2rcd13ifvqc3g","pricing_plan_id":"cebpf4jnsgd1na2vs0mg"},{"bike_id":"f254054a-3189-403a-8473-dd116ef864eb","system_id":"levelo_inurba_marseille","lat":43.319118,"lon":5.408161,"is_reserved":false,"is_disabled":false,"rental_uris":{"android":"levelo://app?vid=f254054a-3189-403a-8473-dd116ef864eb","ios":"levelo://app?vid=f254054a-3189-403a-8473-dd116ef864eb"},"vehicle_type_id":"4","last_reported":1749812953,"current_range_meters":12400,"station_id":"ce4bhq12rcd13ifvqhig","pricing_plan_id":"cebpf4jnsgd1na2vs0mg"},{"bike_id":"68c6b6c9-495e-4ca1-9f50-58ed08ec70fe","system_id":"levelo_inurba_marseille","lat":43.241651,"lon":5.363889,"is_reserved":false,"is_disabled":false,"rental_uris":{"android":"levelo://app?vid=68c6b6c9-495e-4ca1-9f50-58ed08ec70fe","ios":"levelo://app?vid=68c6b6c9-495e-4ca1-9f50-58ed08ec70fe"},"vehicle_type_id":"4","last_reported":1749812953,"current_range_meters":12400,"station_id":"cpo36qri1sfpv3e86is0","pricing_plan_id":"cebpf4jnsgd1na2vs0mg"},{"bike_id":"57976d0a-3723-4820-a8ea-3ecc6d9223eb","system_id":"levelo_inurba_marseille","lat":43.24677,"lon":5.38156,"is_reserved":false,"is_disabled":false,"rental_uris":{"android":"levelo://app?vid=57976d0a-3723-4820-a8ea-3ecc6d9223eb","ios":"levelo://app?vid=57976d0a-3723-4820-a8ea-3ecc6d9223eb"},"vehicle_type_id":"4","last_reported":1749812953,"current_range_meters":12800,"station_id":"ce4bhih2rcd13ifvqfr0","pricing_plan_id":"cebpf4jnsgd1na2vs0mg"},{"bike_id":"5e2bfc27-85c3-49e6-b8ce-22f100e4dece","system_id":"levelo_inurba_marseille","lat":43.24159,"lon":5.36388,"is_reserved":false,"is_disabled":false,"rental_uris":{"android":"levelo://app?vid=5e2bfc27-85c3-49e6-b8ce-22f100e4dece","ios":"levelo://app?vid=5e2bfc27-85c3-49e6-b8ce-22f100e4dece"},"vehicle_type_id":"4","last_reported":1749812953,"current_range_meters":12800,"station_id":"cpo36qri1sfpv3e86is0","pricing_plan_id":"cebpf4jnsgd1na2vs0mg"},{"bike_id":"72a332f0-5a00-4445-9fb4-522ab9efec7b","system_id":"levelo_inurba_marseille","lat":43.21748,"lon":5.34597,"is_reserved":false,"is_disabled":false,"rental_uris":{"android":"levelo://app?vid=72a332f0-5a00-4445-9fb4-522ab9efec7b","ios":"levelo://app?vid=72a332f0-5a00-4445-9fb4-522ab9efec7b"},"vehicle_type_id":"4","last_reported":1749812953,"current_range_meters":12800,"station_id":"st_cvj6r9ubvosntc0bgbag","pricing_plan_id":"cebpf4jnsgd1na2vs0mg"},{"bike_id":"5f977929-ccb4-449a-8fdc-f2bf323c78e2","system_id":"levelo_inurba_marseille","lat":43.337444,"lon":5.374475,"is_reserved":false,"is_disabled":false,"rental_uris":{"android":"levelo://app?vid=5f977929-ccb4-449a-8fdc-f2bf323c78e2","ios":"levelo://app?vid=5f977929-ccb4-449a-8fdc-f2bf323c78e2"},"vehicle_type_id":"4","last_reported":1749812953,"current_range_meters":13600,"station_id":"","pricing_plan_id":"cebpf4jnsgd1na2vs0mg"},{"bike_id":"ea83c1aa-cc17-4b0f-98d0-76f855780c9f","system_id":"levelo_inurba_marseille","lat":43.26556,"lon":5.37281,"is_reserved":false,"is_disabled":false,"rental_uris":{"android":"levelo://app?vid=ea83c1aa-cc17-4b0f-98d0-76f855780c9f","ios":"levelo://app?vid=ea83c1aa-cc17-4b0f-98d0-76f855780c9f"},"vehicle_type_id":"4","last_reported":1749812953,"current_range_meters":13600,"station_id":"ce4bhg12rcd13ifvqf70","pricing_plan_id":"cebpf4jnsgd1na2vs0mg"},{"bike_id":"6facbc0d-f1b5-4dc3-86d4-5c1204834925","system_id":"levelo_inurba_marseille","lat":43.28051,"lon":5.34813,"is_reserved":false,"is_disabled":false,"rental_uris":{"android":"levelo://app?vid=6facbc0d-f1b5-4dc3-86d4-5c1204834925","ios":"levelo://app?vid=6facbc0d-f1b5-4dc3-86d4-5c1204834925"},"vehicle_type_id":"4","last_reported":1749812953,"current_range_meters":14000,"station_id":"","pricing_plan_id":"cebpf4jnsgd1na2vs0mg"},{"bike_id":"8723bae1-91a8-489d-89a7-e73fef29f936","system_id":"levelo_inurba_marseille","lat":43.29036,"lon":5.39982,"is_reserved":false,"is_disabled":false,"rental_uris":{"android":"levelo://app?vid=8723bae1-91a8-489d-89a7-e73fef29f936","ios":"levelo://app?vid=8723bae1-91a8-489d-89a7-e73fef29f936"},"vehicle_type_id":"4","last_reported":1749812953,"current_range_meters":14000,"station_id":"ce4bh392rcd13ifvqdm0","pricing_plan_id":"cebpf4jnsgd1na2vs0mg"},{"bike_id":"326cc913-bdbc-48c2-9a88-414846f09512","system_id":"levelo_inurba_marseille","lat":43.32363,"lon":5.36767,"is_reserved":false,"is_disabled":false,"rental_uris":{"android":"levelo://app?vid=326cc913-bdbc-48c2-9a88-414846f09512","ios":"levelo://app?vid=326cc913-bdbc-48c2-9a88-414846f09512"},"vehicle_type_id":"4","last_reported":1749812953,"current_range_meters":14000,"station_id":"ce4bhsh2rcd13ifvqi2g","pricing_plan_id":"cebpf4jnsgd1na2vs0mg"},{"bike_id":"4befabab-b2ad-40ca-8a59-2e8290dfa17a","system_id":"levelo_inurba_marseille","lat":43.30142,"lon":5.37413,"is_reserved":false,"is_disabled":false,"rental_uris":{"android":"levelo://app?vid=4befabab-b2ad-40ca-8a59-2e8290dfa17a","ios":"levelo://app?vid=4befabab-b2ad-40ca-8a59-2e8290dfa17a"},"vehicle_type_id":"4","last_reported":1749812953,"current_range_meters":14400,"station_id":"ce4bgs92rcd13ifvqcc0","pricing_plan_id":"cebpf4jnsgd1na2vs0mg"},{"bike_id":"61c3acd4-a287-4de5-b602-1437a6d1ec59","system_id":"levelo_inurba_marseille","lat":43.27496,"lon":5.42444,"is_reserved":false,"is_disabled":false,"rental_uris":{"android":"levelo://app?vid=61c3acd4-a287-4de5-b602-1437a6d1ec59","ios":"levelo://app?vid=61c3acd4-a287-4de5-b602-1437a6d1ec59"},"vehicle_type_id":"4","last_reported":1749812953,"current_range_meters":14400,"station_id":"ce4bhn92rcd13ifvqgrg","pricing_plan_id":"cebpf4jnsgd1na2vs0mg"},{"bike_id":"30cf5bad-1e77-47f0-a309-394fea7ded6d","system_id":"levelo_inurba_marseille","lat":43.24649,"lon":5.38883,"is_reserved":false,"is_disabled":false,"rental_uris":{"android":"levelo://app?vid=30cf5bad-1e77-47f0-a309-394fea7ded6d","ios":"levelo://app?vid=30cf5bad-1e77-47f0-a309-394fea7ded6d"},"vehicle_type_id":"4","last_reported":1749812953,"current_range_meters":14800,"station_id":"ce4bhg12rcd13ifvqf60","pricing_plan_id":"cebpf4jnsgd1na2vs0mg"},{"bike_id":"46b0b5a1-064f-442e-91c5-40010846a42f","system_id":"levelo_inurba_marseille","lat":43.2782,"lon":5.40715,"is_reserved":false,"is_disabled":false,"rental_uris":{"android":"levelo://app?vid=46b0b5a1-064f-442e-91c5-40010846a42f","ios":"levelo://app?vid=46b0b5a1-064f-442e-91c5-40010846a42f"},"vehicle_type_id":"4","last_reported":1749812953,"current_range_meters":14800,"station_id":"ce4bhnh2rcd13ifvqgtg","pricing_plan_id":"cebpf4jnsgd1na2vs0mg"},{"bike_id":"c0bd4251-d527-48a7-9378-e4e80c1c274f","system_id":"levelo_inurba_marseille","lat":43.3185,"lon":5.37363,"is_reserved":false,"is_disabled":false,"rental_uris":{"android":"levelo://app?vid=c0bd4251-d527-48a7-9378-e4e80c1c274f","ios":"levelo://app?vid=c0bd4251-d527-48a7-9378-e4e80c1c274f"},"vehicle_type_id":"4","last_reported":1749812953,"current_range_meters":15200,"station_id":"","pricing_plan_id":"cebpf4jnsgd1na2vs0mg"},{"bike_id":"1cdcee42-9bb0-4aec-a136-79bace70428b","system_id":"levelo_inurba_marseille","lat":43.2175,"lon":5.34602,"is_reserved":false,"is_disabled":false,"rental_uris":{"android":"levelo://app?vid=1cdcee42-9bb0-4aec-a136-79bace70428b","ios":"levelo://app?vid=1cdcee42-9bb0-4aec-a136-79bace70428b"},"vehicle_type_id":"4","last_reported":1749812953,"current_range_meters":15200,"station_id":"st_cvj6r9ubvosntc0bgbag","pricing_plan_id":"cebpf4jnsgd1na2vs0mg"},{"bike_id":"7835a476-bf82-41b7-87e3-950cf4d733b9","system_id":"levelo_inurba_marseille","lat":43.28102,"lon":5.35671,"is_reserved":false,"is_disabled":false,"rental_uris":{"android":"levelo://app?vid=7835a476-bf82-41b7-87e3-950cf4d733b9","ios":"levelo://app?vid=7835a476-bf82-41b7-87e3-950cf4d733b9"},"vehicle_type_id":"4","last_reported":1749812953,"current_range_meters":16000,"station_id":"","pricing_plan_id":"cebpf4jnsgd1na2vs0mg"},{"bike_id":"fb8c9100-b8d2-44e7-b20a-cf7844a23a7e","system_id":"levelo_inurba_marseille","lat":43.28361,"lon":5.38104,"is_reserved":false,"is_disabled":false,"rental_uris":{"android":"levelo://app?vid=fb8c9100-b8d2-44e7-b20a-cf7844a23a7e","ios":"levelo://app?vid=fb8c9100-b8d2-44e7-b20a-cf7844a23a7e"},"vehicle_type_id":"4","last_reported":1749812953,"current_range_meters":16000,"station_id":"ce4bh412rcd13ifvqdr0","pricing_plan_id":"cebpf4jnsgd1na2vs0mg"},{"bike_id":"3b2851dc-cdc3-4c74-bb7a-6b50ea5674bc","system_id":"levelo_inurba_marseille","lat":43.30173,"lon":5.38016,"is_reserved":false,"is_disabled":false,"rental_uris":{"android":"levelo://app?vid=3b2851dc-cdc3-4c74-bb7a-6b50ea5674bc","ios":"levelo://app?vid=3b2851dc-cdc3-4c74-bb7a-6b50ea5674bc"},"vehicle_type_id":"4","last_reported":1749812953,"current_range_meters":16400,"station_id":"","pricing_plan_id":"cebpf4jnsgd1na2vs0mg"},{"bike_id":"3c75ce8a-e1bc-4bf3-9fa6-bb9da9afbf2f","system_id":"levelo_inurba_marseille","lat":43.290091,"lon":5.356142,"is_reserved":false,"is_disabled":false,"rental_uris":{"android":"levelo://app?vid=3c75ce8a-e1bc-4bf3-9fa6-bb9da9afbf2f","ios":"levelo://app?vid=3c75ce8a-e1bc-4bf3-9fa6-bb9da9afbf2f"},"vehicle_type_id":"4","last_reported":1749812953,"current_range_meters":16400,"station_id":"ce4bhb92rcd13ifvqen0","pricing_plan_id":"cebpf4jnsgd1na2vs0mg"},{"bike_id":"94502b14-ff48-4cde-b2d3-edd6d6e7a52e","system_id":"levelo_inurba_marseille","lat":43.28432,"lon":5.34996,"is_reserved":false,"is_disabled":false,"rental_uris":{"android":"levelo://app?vid=94502b14-ff48-4cde-b2d3-edd6d6e7a52e","ios":"levelo://app?vid=94502b14-ff48-4cde-b2d3-edd6d6e7a52e"},"vehicle_type_id":"4","last_reported":1749812953,"current_range_meters":16400,"station_id":"ce4bhbh2rcd13ifvqepg","pricing_plan_id":"cebpf4jnsgd1na2vs0mg"},{"bike_id":"362d8cdc-c552-4bc2-b998-4cd17758e55a","system_id":"levelo_inurba_marseille","lat":43.26959,"lon":5.38902,"is_reserved":false,"is_disabled":false,"rental_uris":{"android":"levelo://app?vid=362d8cdc-c552-4bc2-b998-4cd17758e55a","ios":"levelo://app?vid=362d8cdc-c552-4bc2-b998-4cd17758e55a"},"vehicle_type_id":"4","last_reported":1749812953,"current_range_meters":16400,"station_id":"ce4bhhh2rcd13ifvqfl0","pricing_plan_id":"cebpf4jnsgd1na2vs0mg"},{"bike_id":"f12c75b0-05fb-47e5-9e5c-536658b98633","system_id":"levelo_inurba_marseille","lat":43.27993,"lon":5.40015,"is_reserved":false,"is_disabled":false,"rental_uris":{"android":"levelo://app?vid=f12c75b0-05fb-47e5-9e5c-536658b98633","ios":"levelo://app?vid=f12c75b0-05fb-47e5-9e5c-536658b98633"},"vehicle_type_id":"4","last_reported":1749812953,"current_range_meters":16400,"station_id":"ce4bho92rcd13ifvqh4g","pricing_plan_id":"cebpf4jnsgd1na2vs0mg"},{"bike_id":"da31ade4-1784-40da-99ce-701086964a26","system_id":"levelo_inurba_marseille","lat":43.317371,"lon":5.423975,"is_reserved":false,"is_disabled":false,"rental_uris":{"android":"levelo://app?vid=da31ade4-1784-40da-99ce-701086964a26","ios":"levelo://app?vid=da31ade4-1784-40da-99ce-701086964a26"},"vehicle_type_id":"4","last_reported":1749812953,"current_range_meters":16400,"station_id":"ce4bhp92rcd13ifvqhbg","pricing_plan_id":"cebpf4jnsgd1na2vs0mg"},{"bike_id":"025ac1a6-073a-4a76-a075-cb506b4b9428","system_id":"levelo_inurba_marseille","lat":43.2997,"lon":5.3717,"is_reserved":false,"is_disabled":false,"rental_uris":{"android":"levelo://app?vid=025ac1a6-073a-4a76-a075-cb506b4b9428","ios":"levelo://app?vid=025ac1a6-073a-4a76-a075-cb506b4b9428"},"vehicle_type_id":"4","last_reported":1749812953,"current_range_meters":16800,"station_id":"ce4bgr92rcd13ifvqc7g","pricing_plan_id":"cebpf4jnsgd1na2vs0mg"},{"bike_id":"3dc9f9ea-56f5-4e6e-9de7-08f2de1976ec","system_id":"levelo_inurba_marseille","lat":43.28268,"lon":5.35063,"is_reserved":false,"is_disabled":false,"rental_uris":{"android":"levelo://app?vid=3dc9f9ea-56f5-4e6e-9de7-08f2de1976ec","ios":"levelo://app?vid=3dc9f9ea-56f5-4e6e-9de7-08f2de1976ec"},"vehicle_type_id":"4","last_reported":1749812953,"current_range_meters":16800,"station_id":"ce4bhbp2rcd13ifvqerg","pricing_plan_id":"cebpf4jnsgd1na2vs0mg"},{"bike_id":"ad556f7a-9be5-49c9-a4be-c97e2025239b","system_id":"levelo_inurba_marseille","lat":43.23961,"lon":5.36642,"is_reserved":false,"is_disabled":false,"rental_uris":{"android":"levelo://app?vid=ad556f7a-9be5-49c9-a4be-c97e2025239b","ios":"levelo://app?vid=ad556f7a-9be5-49c9-a4be-c97e2025239b"},"vehicle_type_id":"4","last_reported":1749812953,"current_range_meters":16800,"station_id":"ce4bhi12rcd13ifvqfp0","pricing_plan_id":"cebpf4jnsgd1na2vs0mg"},{"bike_id":"ba0042d0-63d3-4ad7-809b-aef890f577cf","system_id":"levelo_inurba_marseille","lat":43.2593,"lon":5.40897,"is_reserved":false,"is_disabled":false,"rental_uris":{"android":"levelo://app?vid=ba0042d0-63d3-4ad7-809b-aef890f577cf","ios":"levelo://app?vid=ba0042d0-63d3-4ad7-809b-aef890f577cf"},"vehicle_type_id":"4","last_reported":1749812953,"current_range_meters":16800,"station_id":"ce4bhm92rcd13ifvqglg","pricing_plan_id":"cebpf4jnsgd1na2vs0mg"},{"bike_id":"f3ec16b2-8afd-4ecb-8d58-15a6a90ff603","system_id":"levelo_inurba_marseille","lat":43.32332,"lon":5.36674,"is_reserved":false,"is_disabled":false,"rental_uris":{"android":"levelo://app?vid=f3ec16b2-8afd-4ecb-8d58-15a6a90ff603","ios":"levelo://app?vid=f3ec16b2-8afd-4ecb-8d58-15a6a90ff603"},"vehicle_type_id":"4","last_reported":1749812953,"current_range_meters":17200,"station_id":"","pricing_plan_id":"cebpf4jnsgd1na2vs0mg"},{"bike_id":"2ab31527-f915-4286-b3a0-0beafd2cdd50","system_id":"levelo_inurba_marseille","lat":43.29997,"lon":5.37008,"is_reserved":false,"is_disabled":false,"rental_uris":{"android":"levelo://app?vid=2ab31527-f915-4286-b3a0-0beafd2cdd50","ios":"levelo://app?vid=2ab31527-f915-4286-b3a0-0beafd2cdd50"},"vehicle_type_id":"4","last_reported":1749812953,"current_range_meters":17200,"station_id":"","pricing_plan_id":"cebpf4jnsgd1na2vs0mg"},{"bike_id":"23f45385-b4b0-4659-a25f-eab06b5cff2d","system_id":"levelo_inurba_marseille","lat":43.29848,"lon":5.36284,"is_reserved":false,"is_disabled":false,"rental_uris":{"android":"levelo://app?vid=23f45385-b4b0-4659-a25f-eab06b5cff2d","ios":"levelo://app?vid=23f45385-b4b0-4659-a25f-eab06b5cff2d"},"vehicle_type_id":"4","last_reported":1749812953,"current_range_meters":17200,"station_id":"ce4bgpp2rcd13ifvqc3g","pricing_plan_id":"cebpf4jnsgd1na2vs0mg"},{"bike_id":"6e794659-2336-461e-8344-86d2bba75cd5","system_id":"levelo_inurba_marseille","lat":43.31348,"lon":5.36746,"is_reserved":false,"is_disabled":false,"rental_uris":{"android":"levelo://app?vid=6e794659-2336-461e-8344-86d2bba75cd5","ios":"levelo://app?vid=6e794659-2336-461e-8344-86d2bba75cd5"},"vehicle_type_id":"4","last_reported":1749812953,"current_range_meters":17200,"station_id":"ce4bgr92rcd13ifvqc6g","pricing_plan_id":"cebpf4jnsgd1na2vs0mg"},{"bike_id":"67fc011e-0062-42a9-bfbf-c5f1e0515203","system_id":"levelo_inurba_marseille","lat":43.30274,"lon":5.37719,"is_reserved":false,"is_disabled":false,"rental_uris":{"android":"levelo://app?vid=67fc011e-0062-42a9-bfbf-c5f1e0515203","ios":"levelo://app?vid=67fc011e-0062-42a9-bfbf-c5f1e0515203"},"vehicle_type_id":"4","last_reported":1749812953,"current_range_meters":17200,"station_id":"ce4bguh2rcd13ifvqcj0","pricing_plan_id":"cebpf4jnsgd1na2vs0mg"},{"bike_id":"09b5fe27-b065-4885-936c-7866bde89500","system_id":"levelo_inurba_marseille","lat":43.29434,"lon":5.39754,"is_reserved":false,"is_disabled":false,"rental_uris":{"android":"levelo://app?vid=09b5fe27-b065-4885-936c-7866bde89500","ios":"levelo://app?vid=09b5fe27-b065-4885-936c-7866bde89500"},"vehicle_type_id":"4","last_reported":1749812953,"current_range_meters":17200,"station_id":"ce4bh3h2rcd13ifvqdo0","pricing_plan_id":"cebpf4jnsgd1na2vs0mg"},{"bike_id":"a3d8ed61-ad96-4794-9377-3745ebafc863","system_id":"levelo_inurba_marseille","lat":43.29108,"lon":5.38077,"is_reserved":false,"is_disabled":false,"rental_uris":{"android":"levelo://app?vid=a3d8ed61-ad96-4794-9377-3745ebafc863","ios":"levelo://app?vid=a3d8ed61-ad96-4794-9377-3745ebafc863"},"vehicle_type_id":"4","last_reported":1749812953,"current_range_meters":17200,"station_id":"ce4bh512rcd13ifvqe2g","pricing_plan_id":"cebpf4jnsgd1na2vs0mg"},{"bike_id":"749dcbfb-a1bc-46fa-8c36-f27e534af632","system_id":"levelo_inurba_marseille","lat":43.29264,"lon":5.38442,"is_reserved":false,"is_disabled":false,"rental_uris":{"android":"levelo://app?vid=749dcbfb-a1bc-46fa-8c36-f27e534af632","ios":"levelo://app?vid=749dcbfb-a1bc-46fa-8c36-f27e534af632"},"vehicle_type_id":"4","last_reported":1749812953,"current_range_meters":17200,"station_id":"ce4bh692rcd13ifvqea0","pricing_plan_id":"cebpf4jnsgd1na2vs0mg"},{"bike_id":"a025437d-d905-4581-a812-0c2f72b00469","system_id":"levelo_inurba_marseille","lat":43.32654,"lon":5.40998,"is_reserved":false,"is_disabled":false,"rental_uris":{"android":"levelo://app?vid=a025437d-d905-4581-a812-0c2f72b00469","ios":"levelo://app?vid=a025437d-d905-4581-a812-0c2f72b00469"},"vehicle_type_id":"4","last_reported":1749812953,"current_range_meters":17200,"station_id":"ce4bhpp2rcd13ifvqhgg","pricing_plan_id":"cebpf4jnsgd1na2vs0mg"},{"bike_id":"46c0ec0c-6a88-4860-a949-2155b3dcb4ac","system_id":"levelo_inurba_marseille","lat":43.32646,"lon":5.40979,"is_reserved":false,"is_disabled":false,"rental_uris":{"android":"levelo://app?vid=46c0ec0c-6a88-4860-a949-2155b3dcb4ac","ios":"levelo://app?vid=46c0ec0c-6a88-4860-a949-2155b3dcb4ac"},"vehicle_type_id":"4","last_reported":1749812953,"current_range_meters":17200,"station_id":"ce4bhpp2rcd13ifvqhgg","pricing_plan_id":"cebpf4jnsgd1na2vs0mg"},{"bike_id":"2b149e58-4e3d-4383-b721-d396d3dd21ad","system_id":"levelo_inurba_marseille","lat":43.22929,"lon":5.35372,"is_reserved":false,"is_disabled":false,"rental_uris":{"android":"levelo://app?vid=2b149e58-4e3d-4383-b721-d396d3dd21ad","ios":"levelo://app?vid=2b149e58-4e3d-4383-b721-d396d3dd21ad"},"vehicle_type_id":"4","last_reported":1749812953,"current_range_meters":17200,"station_id":"cpo3532slgdg3j2ikp40","pricing_plan_id":"cebpf4jnsgd1na2vs0mg"},{"bike_id":"38801550-04a3-4e56-b4c0-6e717f52d1a3","system_id":"levelo_inurba_marseille","lat":43.22484,"lon":5.34746,"is_reserved":false,"is_disabled":false,"rental_uris":{"android":"levelo://app?vid=38801550-04a3-4e56-b4c0-6e717f52d1a3","ios":"levelo://app?vid=38801550-04a3-4e56-b4c0-6e717f52d1a3"},"vehicle_type_id":"4","last_reported":1749812953,"current_range_meters":17200,"station_id":"st_cvj5dfep6f1abm77gieg","pricing_plan_id":"cebpf4jnsgd1na2vs0mg"},{"bike_id":"a13afaa4-f033-4bd8-a5b2-f311654a4092","system_id":"levelo_inurba_marseille","lat":43.2979,"lon":5.37104,"is_reserved":false,"is_disabled":false,"rental_uris":{"android":"levelo://app?vid=a13afaa4-f033-4bd8-a5b2-f311654a4092","ios":"levelo://app?vid=a13afaa4-f033-4bd8-a5b2-f311654a4092"},"vehicle_type_id":"4","last_reported":1749812953,"current_range_meters":17600,"station_id":"ce4bgop2rcd13ifvqc1g","pricing_plan_id":"cebpf4jnsgd1na2vs0mg"},{"bike_id":"50066f08-e3cd-4dc9-8337-960096f79cd7","system_id":"levelo_inurba_marseille","lat":43.29851,"lon":5.36283,"is_reserved":false,"is_disabled":false,"rental_uris":{"android":"levelo://app?vid=50066f08-e3cd-4dc9-8337-960096f79cd7","ios":"levelo://app?vid=50066f08-e3cd-4dc9-8337-960096f79cd7"},"vehicle_type_id":"4","last_reported":1749812953,"current_range_meters":17600,"station_id":"ce4bgpp2rcd13ifvqc3g","pricing_plan_id":"cebpf4jnsgd1na2vs0mg"},{"bike_id":"cbd8c33c-ec86-4fa0-ba0a-dafaa1d4c400","system_id":"levelo_inurba_marseille","lat":43.30731,"lon":5.42444,"is_reserved":false,"is_disabled":false,"rental_uris":{"android":"levelo://app?vid=cbd8c33c-ec86-4fa0-ba0a-dafaa1d4c400","ios":"levelo://app?vid=cbd8c33c-ec86-4fa0-ba0a-dafaa1d4c400"},"vehicle_type_id":"4","last_reported":1749812953,"current_range_meters":17600,"station_id":"st_cvj6ca6bvosntc0bfgr0","pricing_plan_id":"cebpf4jnsgd1na2vs0mg"},{"bike_id":"ca935632-0566-4633-b38c-554422961e23","system_id":"levelo_inurba_marseille","lat":43.26805,"lon":5.40239,"is_reserved":false,"is_disabled":false,"rental_uris":{"android":"levelo://app?vid=ca935632-0566-4633-b38c-554422961e23","ios":"levelo://app?vid=ca935632-0566-4633-b38c-554422961e23"},"vehicle_type_id":"4","last_reported":1749812953,"current_range_meters":18000,"station_id":"ce501612rcd8frsf0b60","pricing_plan_id":"cebpf4jnsgd1na2vs0mg"},{"bike_id":"033f15e1-5ed0-4098-a7ec-2a49aba179ae","system_id":"levelo_inurba_marseille","lat":43.28508,"lon":5.35338,"is_reserved":false,"is_disabled":false,"rental_uris":{"android":"levelo://app?vid=033f15e1-5ed0-4098-a7ec-2a49aba179ae","ios":"levelo://app?vid=033f15e1-5ed0-4098-a7ec-2a49aba179ae"},"vehicle_type_id":"4","last_reported":1749812953,"current_range_meters":18800,"station_id":"","pricing_plan_id":"cebpf4jnsgd1na2vs0mg"},{"bike_id":"33008d1f-82fc-46d7-bc22-7402cd98b5ac","system_id":"levelo_inurba_marseille","lat":43.29262,"lon":5.37609,"is_reserved":false,"is_disabled":false,"rental_uris":{"android":"levelo://app?vid=33008d1f-82fc-46d7-bc22-7402cd98b5ac","ios":"levelo://app?vid=33008d1f-82fc-46d7-bc22-7402cd98b5ac"},"vehicle_type_id":"4","last_reported":1749812953,"current_range_meters":18800,"station_id":"ce4bgi12rcd13ifvqb80","pricing_plan_id":"cebpf4jnsgd1na2vs0mg"},{"bike_id":"58b4c106-a2b6-4adb-bc08-3c2d527636c4","system_id":"levelo_inurba_marseille","lat":43.28999,"lon":5.35597,"is_reserved":false,"is_disabled":false,"rental_uris":{"android":"levelo://app?vid=58b4c106-a2b6-4adb-bc08-3c2d527636c4","ios":"levelo://app?vid=58b4c106-a2b6-4adb-bc08-3c2d527636c4"},"vehicle_type_id":"4","last_reported":1749812953,"current_range_meters":18800,"station_id":"ce4bhb92rcd13ifvqen0","pricing_plan_id":"cebpf4jnsgd1na2vs0mg"},{"bike_id":"6cca7b81-93ab-4d19-9a68-ab68ea7d4026","system_id":"levelo_inurba_marseille","lat":43.27374,"lon":5.36253,"is_reserved":false,"is_disabled":false,"rental_uris":{"android":"levelo://app?vid=6cca7b81-93ab-4d19-9a68-ab68ea7d4026","ios":"levelo://app?vid=6cca7b81-93ab-4d19-9a68-ab68ea7d4026"},"vehicle_type_id":"4","last_reported":1749812953,"current_range_meters":18800,"station_id":"ce4bhbh2rcd13ifvqeo0","pricing_plan_id":"cebpf4jnsgd1na2vs0mg"},{"bike_id":"ca6b6d4d-0bd2-4403-81de-82b2e3056a07","system_id":"levelo_inurba_marseille","lat":43.27815,"lon":5.40715,"is_reserved":false,"is_disabled":false,"rental_uris":{"android":"levelo://app?vid=ca6b6d4d-0bd2-4403-81de-82b2e3056a07","ios":"levelo://app?vid=ca6b6d4d-0bd2-4403-81de-82b2e3056a07"},"vehicle_type_id":"4","last_reported":1749812953,"current_range_meters":18800,"station_id":"ce4bhnh2rcd13ifvqgtg","pricing_plan_id":"cebpf4jnsgd1na2vs0mg"},{"bike_id":"af6eb8df-ddad-43f9-9627-5abe366850b6","system_id":"levelo_inurba_marseille","lat":43.34145,"lon":5.40904,"is_reserved":false,"is_disabled":false,"rental_uris":{"android":"levelo://app?vid=af6eb8df-ddad-43f9-9627-5abe366850b6","ios":"levelo://app?vid=af6eb8df-ddad-43f9-9627-5abe366850b6"},"vehicle_type_id":"4","last_reported":1749812953,"current_range_meters":18800,"station_id":"ce4bhqh2rcd13ifvqhlg","pricing_plan_id":"cebpf4jnsgd1na2vs0mg"},{"bike_id":"d0e0617d-5016-40ba-b4c5-1a83d3add731","system_id":"levelo_inurba_marseille","lat":43.32369,"lon":5.36755,"is_reserved":false,"is_disabled":false,"rental_uris":{"android":"levelo://app?vid=d0e0617d-5016-40ba-b4c5-1a83d3add731","ios":"levelo://app?vid=d0e0617d-5016-40ba-b4c5-1a83d3add731"},"vehicle_type_id":"4","last_reported":1749812953,"current_range_meters":18800,"station_id":"ce4bhsh2rcd13ifvqi2g","pricing_plan_id":"cebpf4jnsgd1na2vs0mg"},{"bike_id":"0cd0bb73-dfb3-462c-92e6-411acd44186d","system_id":"levelo_inurba_marseille","lat":43.28934,"lon":5.36631,"is_reserved":false,"is_disabled":false,"rental_uris":{"android":"levelo://app?vid=0cd0bb73-dfb3-462c-92e6-411acd44186d","ios":"levelo://app?vid=0cd0bb73-dfb3-462c-92e6-411acd44186d"},"vehicle_type_id":"4","last_reported":1749812953,"current_range_meters":19200,"station_id":"ce4bhap2rcd13ifvqek0","pricing_plan_id":"cebpf4jnsgd1na2vs0mg"},{"bike_id":"bb5a0fd8-3798-4ae0-a14b-8aadb4c77926","system_id":"levelo_inurba_marseille","lat":43.282638,"lon":5.350639,"is_reserved":false,"is_disabled":false,"rental_uris":{"android":"levelo://app?vid=bb5a0fd8-3798-4ae0-a14b-8aadb4c77926","ios":"levelo://app?vid=bb5a0fd8-3798-4ae0-a14b-8aadb4c77926"},"vehicle_type_id":"4","last_reported":1749812953,"current_range_meters":19200,"station_id":"ce4bhbp2rcd13ifvqerg","pricing_plan_id":"cebpf4jnsgd1na2vs0mg"},{"bike_id":"1a25c814-b7de-41b6-9650-d6f68ade8618","system_id":"levelo_inurba_marseille","lat":43.281642,"lon":5.394535,"is_reserved":false,"is_disabled":false,"rental_uris":{"android":"levelo://app?vid=1a25c814-b7de-41b6-9650-d6f68ade8618","ios":"levelo://app?vid=1a25c814-b7de-41b6-9650-d6f68ade8618"},"vehicle_type_id":"4","last_reported":1749812953,"current_range_meters":19200,"station_id":"ce4bho12rcd13ifvqh2g","pricing_plan_id":"cebpf4jnsgd1na2vs0mg"},{"bike_id":"ccb9975b-34a8-47da-b755-e17344ae18d3","system_id":"levelo_inurba_marseille","lat":43.23198,"lon":5.35576,"is_reserved":false,"is_disabled":false,"rental_uris":{"android":"levelo://app?vid=ccb9975b-34a8-47da-b755-e17344ae18d3","ios":"levelo://app?vid=ccb9975b-34a8-47da-b755-e17344ae18d3"},"vehicle_type_id":"4","last_reported":1749812953,"current_range_meters":19200,"station_id":"ce4bhu92rcd13ifvqi70","pricing_plan_id":"cebpf4jnsgd1na2vs0mg"},{"bike_id":"1c4199e0-5bcd-409e-9cf0-35284941d2c5","system_id":"levelo_inurba_marseille","lat":43.29849,"lon":5.36281,"is_reserved":false,"is_disabled":false,"rental_uris":{"android":"levelo://app?vid=1c4199e0-5bcd-409e-9cf0-35284941d2c5","ios":"levelo://app?vid=1c4199e0-5bcd-409e-9cf0-35284941d2c5"},"vehicle_type_id":"4","last_reported":1749812953,"current_range_meters":19600,"station_id":"ce4bgpp2rcd13ifvqc3g","pricing_plan_id":"cebpf4jnsgd1na2vs0mg"},{"bike_id":"65ef5e65-409f-4fc1-b0e7-4eb574fa7766","system_id":"levelo_inurba_marseille","lat":43.28855,"lon":5.35865,"is_reserved":false,"is_disabled":false,"rental_uris":{"android":"levelo://app?vid=65ef5e65-409f-4fc1-b0e7-4eb574fa7766","ios":"levelo://app?vid=65ef5e65-409f-4fc1-b0e7-4eb574fa7766"},"vehicle_type_id":"4","last_reported":1749812953,"current_range_meters":19600,"station_id":"ce4bhb12rcd13ifvqem0","pricing_plan_id":"cebpf4jnsgd1na2vs0mg"},{"bike_id":"ac661adc-e33e-4d31-9cca-c4132f59687c","system_id":"levelo_inurba_marseille","lat":43.28271,"lon":5.35061,"is_reserved":false,"is_disabled":false,"rental_uris":{"android":"levelo://app?vid=ac661adc-e33e-4d31-9cca-c4132f59687c","ios":"levelo://app?vid=ac661adc-e33e-4d31-9cca-c4132f59687c"},"vehicle_type_id":"4","last_reported":1749812953,"current_range_meters":19600,"station_id":"ce4bhbp2rcd13ifvqerg","pricing_plan_id":"cebpf4jnsgd1na2vs0mg"},{"bike_id":"af230bfa-8155-48ad-8c1a-d8830d8f3026","system_id":"levelo_inurba_marseille","lat":43.23967,"lon":5.36628,"is_reserved":false,"is_disabled":false,"rental_uris":{"android":"levelo://app?vid=af230bfa-8155-48ad-8c1a-d8830d8f3026","ios":"levelo://app?vid=af230bfa-8155-48ad-8c1a-d8830d8f3026"},"vehicle_type_id":"4","last_reported":1749812953,"current_range_meters":19600,"station_id":"ce4bhi12rcd13ifvqfp0","pricing_plan_id":"cebpf4jnsgd1na2vs0mg"},{"bike_id":"cdcc175e-15e7-4ba8-b0b5-0e8202ed4950","system_id":"levelo_inurba_marseille","lat":43.25723,"lon":5.41111,"is_reserved":false,"is_disabled":false,"rental_uris":{"android":"levelo://app?vid=cdcc175e-15e7-4ba8-b0b5-0e8202ed4950","ios":"levelo://app?vid=cdcc175e-15e7-4ba8-b0b5-0e8202ed4950"},"vehicle_type_id":"4","last_reported":1749812953,"current_range_meters":19600,"station_id":"ce4bhkp2rcd13ifvqgd0","pricing_plan_id":"cebpf4jnsgd1na2vs0mg"},{"bike_id":"dee01944-ca5e-42ef-90ff-5201b652d3d7","system_id":"levelo_inurba_marseille","lat":43.33589,"lon":5.40976,"is_reserved":false,"is_disabled":false,"rental_uris":{"android":"levelo://app?vid=dee01944-ca5e-42ef-90ff-5201b652d3d7","ios":"levelo://app?vid=dee01944-ca5e-42ef-90ff-5201b652d3d7"},"vehicle_type_id":"4","last_reported":1749812953,"current_range_meters":19600,"station_id":"ce4bhqh2rcd13ifvqhmg","pricing_plan_id":"cebpf4jnsgd1na2vs0mg"},{"bike_id":"a89cb948-989f-4863-a75b-e1ca319e412e","system_id":"levelo_inurba_marseille","lat":43.22932,"lon":5.35382,"is_reserved":false,"is_disabled":false,"rental_uris":{"android":"levelo://app?vid=a89cb948-989f-4863-a75b-e1ca319e412e","ios":"levelo://app?vid=a89cb948-989f-4863-a75b-e1ca319e412e"},"vehicle_type_id":"4","last_reported":1749812953,"current_range_meters":19600,"station_id":"cpo3532slgdg3j2ikp40","pricing_plan_id":"cebpf4jnsgd1na2vs0mg"},{"bike_id":"2e555dff-22c0-4d51-9ade-e3168fb145c7","system_id":"levelo_inurba_marseille","lat":43.24167,"lon":5.36389,"is_reserved":false,"is_disabled":false,"rental_uris":{"android":"levelo://app?vid=2e555dff-22c0-4d51-9ade-e3168fb145c7","ios":"levelo://app?vid=2e555dff-22c0-4d51-9ade-e3168fb145c7"},"vehicle_type_id":"4","last_reported":1749812953,"current_range_meters":19600,"station_id":"cpo36qri1sfpv3e86is0","pricing_plan_id":"cebpf4jnsgd1na2vs0mg"},{"bike_id":"558cd456-1017-4899-a5e0-10f264e95a8c","system_id":"levelo_inurba_marseille","lat":43.32217,"lon":5.38095,"is_reserved":false,"is_disabled":false,"rental_uris":{"android":"levelo://app?vid=558cd456-1017-4899-a5e0-10f264e95a8c","ios":"levelo://app?vid=558cd456-1017-4899-a5e0-10f264e95a8c"},"vehicle_type_id":"4","last_reported":1749812953,"current_range_meters":20000,"station_id":"","pricing_plan_id":"cebpf4jnsgd1na2vs0mg"},{"bike_id":"a419b8ff-7300-4eb4-b9e4-286faaf8c8fd","system_id":"levelo_inurba_marseille","lat":43.30529,"lon":5.36689,"is_reserved":false,"is_disabled":false,"rental_uris":{"android":"levelo://app?vid=a419b8ff-7300-4eb4-b9e4-286faaf8c8fd","ios":"levelo://app?vid=a419b8ff-7300-4eb4-b9e4-286faaf8c8fd"},"vehicle_type_id":"4","last_reported":1749812953,"current_range_meters":20000,"station_id":"ce4bgrp2rcd13ifvqc9g","pricing_plan_id":"cebpf4jnsgd1na2vs0mg"},{"bike_id":"b35d1f8f-1c2e-4129-81c1-4e7af758d967","system_id":"levelo_inurba_marseille","lat":43.241784,"lon":5.397271,"is_reserved":false,"is_disabled":false,"rental_uris":{"android":"levelo://app?vid=b35d1f8f-1c2e-4129-81c1-4e7af758d967","ios":"levelo://app?vid=b35d1f8f-1c2e-4129-81c1-4e7af758d967"},"vehicle_type_id":"4","last_reported":1749812953,"current_range_meters":20000,"station_id":"ce4bhn12rcd13ifvqgpg","pricing_plan_id":"cebpf4jnsgd1na2vs0mg"},{"bike_id":"810b6267-0dc6-4cdf-ba87-f72fc9f3bd3c","system_id":"levelo_inurba_marseille","lat":43.21748,"lon":5.34598,"is_reserved":false,"is_disabled":false,"rental_uris":{"android":"levelo://app?vid=810b6267-0dc6-4cdf-ba87-f72fc9f3bd3c","ios":"levelo://app?vid=810b6267-0dc6-4cdf-ba87-f72fc9f3bd3c"},"vehicle_type_id":"4","last_reported":1749812953,"current_range_meters":20000,"station_id":"st_cvj6r9ubvosntc0bgbag","pricing_plan_id":"cebpf4jnsgd1na2vs0mg"},{"bike_id":"c1bdbc1a-1e48-49ff-8481-01b724329269","system_id":"levelo_inurba_marseille","lat":43.30909,"lon":5.36837,"is_reserved":false,"is_disabled":false,"rental_uris":{"android":"levelo://app?vid=c1bdbc1a-1e48-49ff-8481-01b724329269","ios":"levelo://app?vid=c1bdbc1a-1e48-49ff-8481-01b724329269"},"vehicle_type_id":"4","last_reported":1749812953,"current_range_meters":20400,"station_id":"ce4bgn92rcd13ifvqbvg","pricing_plan_id":"cebpf4jnsgd1na2vs0mg"},{"bike_id":"65860b79-8f92-4e88-8933-63c923b9398b","system_id":"levelo_inurba_marseille","lat":43.29623,"lon":5.3717,"is_reserved":false,"is_disabled":false,"rental_uris":{"android":"levelo://app?vid=65860b79-8f92-4e88-8933-63c923b9398b","ios":"levelo://app?vid=65860b79-8f92-4e88-8933-63c923b9398b"},"vehicle_type_id":"4","last_reported":1749812953,"current_range_meters":20400,"station_id":"ce4bgnh2rcd13ifvqc0g","pricing_plan_id":"cebpf4jnsgd1na2vs0mg"},{"bike_id":"757b55a9-f40b-4d5b-b30a-0b52a5bc01a1","system_id":"levelo_inurba_marseille","lat":43.29006,"lon":5.35609,"is_reserved":false,"is_disabled":false,"rental_uris":{"android":"levelo://app?vid=757b55a9-f40b-4d5b-b30a-0b52a5bc01a1","ios":"levelo://app?vid=757b55a9-f40b-4d5b-b30a-0b52a5bc01a1"},"vehicle_type_id":"4","last_reported":1749812953,"current_range_meters":20400,"station_id":"ce4bhb92rcd13ifvqen0","pricing_plan_id":"cebpf4jnsgd1na2vs0mg"},{"bike_id":"425c342f-35d3-4793-8360-346dbcc36389","system_id":"levelo_inurba_marseille","lat":43.26679,"lon":5.38267,"is_reserved":false,"is_disabled":false,"rental_uris":{"android":"levelo://app?vid=425c342f-35d3-4793-8360-346dbcc36389","ios":"levelo://app?vid=425c342f-35d3-4793-8360-346dbcc36389"},"vehicle_type_id":"4","last_reported":1749812953,"current_range_meters":20400,"station_id":"ce4bhg92rcd13ifvqf90","pricing_plan_id":"cebpf4jnsgd1na2vs0mg"},{"bike_id":"96ee38b1-5fff-4b13-8e31-418272751aac","system_id":"levelo_inurba_marseille","lat":43.24389,"lon":5.3705,"is_reserved":false,"is_disabled":false,"rental_uris":{"android":"levelo://app?vid=96ee38b1-5fff-4b13-8e31-418272751aac","ios":"levelo://app?vid=96ee38b1-5fff-4b13-8e31-418272751aac"},"vehicle_type_id":"4","last_reported":1749812953,"current_range_meters":20400,"station_id":"ce4bhhh2rcd13ifvqfk0","pricing_plan_id":"cebpf4jnsgd1na2vs0mg"},{"bike_id":"302fb4ae-baa3-4d30-ac31-4bbc305ed98c","system_id":"levelo_inurba_marseille","lat":43.26499,"lon":5.39534,"is_reserved":false,"is_disabled":false,"rental_uris":{"android":"levelo://app?vid=302fb4ae-baa3-4d30-ac31-4bbc305ed98c","ios":"levelo://app?vid=302fb4ae-baa3-4d30-ac31-4bbc305ed98c"},"vehicle_type_id":"4","last_reported":1749812953,"current_range_meters":20400,"station_id":"ce4bhi12rcd13ifvqfq0","pricing_plan_id":"cebpf4jnsgd1na2vs0mg"},{"bike_id":"3d0337a3-1e7b-4ebb-b7aa-cdb38befc37d","system_id":"levelo_inurba_marseille","lat":43.27811,"lon":5.40708,"is_reserved":false,"is_disabled":false,"rental_uris":{"android":"levelo://app?vid=3d0337a3-1e7b-4ebb-b7aa-cdb38befc37d","ios":"levelo://app?vid=3d0337a3-1e7b-4ebb-b7aa-cdb38befc37d"},"vehicle_type_id":"4","last_reported":1749812953,"current_range_meters":20400,"station_id":"ce4bhnh2rcd13ifvqgtg","pricing_plan_id":"cebpf4jnsgd1na2vs0mg"},{"bike_id":"679d881d-2dfe-4ec2-babb-8b09d0832382","system_id":"levelo_inurba_marseille","lat":43.32815,"lon":5.39162,"is_reserved":false,"is_disabled":false,"rental_uris":{"android":"levelo://app?vid=679d881d-2dfe-4ec2-babb-8b09d0832382","ios":"levelo://app?vid=679d881d-2dfe-4ec2-babb-8b09d0832382"},"vehicle_type_id":"4","last_reported":1749812953,"current_range_meters":20800,"station_id":"","pricing_plan_id":"cebpf4jnsgd1na2vs0mg"},{"bike_id":"2c6a8a5b-ca22-4327-9eeb-4b2d058f6bd7","system_id":"levelo_inurba_marseille","lat":43.30139,"lon":5.37401,"is_reserved":false,"is_disabled":false,"rental_uris":{"android":"levelo://app?vid=2c6a8a5b-ca22-4327-9eeb-4b2d058f6bd7","ios":"levelo://app?vid=2c6a8a5b-ca22-4327-9eeb-4b2d058f6bd7"},"vehicle_type_id":"4","last_reported":1749812953,"current_range_meters":20800,"station_id":"ce4bgs92rcd13ifvqcc0","pricing_plan_id":"cebpf4jnsgd1na2vs0mg"},{"bike_id":"b4309da8-6803-4a6d-8f28-24ed9e7da52e","system_id":"levelo_inurba_marseille","lat":43.30102,"lon":5.39064,"is_reserved":false,"is_disabled":false,"rental_uris":{"android":"levelo://app?vid=b4309da8-6803-4a6d-8f28-24ed9e7da52e","ios":"levelo://app?vid=b4309da8-6803-4a6d-8f28-24ed9e7da52e"},"vehicle_type_id":"4","last_reported":1749812953,"current_range_meters":20800,"station_id":"ce4bh192rcd13ifvqdb0","pricing_plan_id":"cebpf4jnsgd1na2vs0mg"},{"bike_id":"939e6c12-fb13-443b-8c02-6c3318cb6c8b","system_id":"levelo_inurba_marseille","lat":43.28276,"lon":5.3507,"is_reserved":false,"is_disabled":false,"rental_uris":{"android":"levelo://app?vid=939e6c12-fb13-443b-8c02-6c3318cb6c8b","ios":"levelo://app?vid=939e6c12-fb13-443b-8c02-6c3318cb6c8b"},"vehicle_type_id":"4","last_reported":1749812953,"current_range_meters":20800,"station_id":"ce4bhbp2rcd13ifvqerg","pricing_plan_id":"cebpf4jnsgd1na2vs0mg"},{"bike_id":"7240a984-bb6d-4c3b-ab8d-aef55ac0bce8","system_id":"levelo_inurba_marseille","lat":43.21195,"lon":5.35092,"is_reserved":false,"is_disabled":false,"rental_uris":{"android":"levelo://app?vid=7240a984-bb6d-4c3b-ab8d-aef55ac0bce8","ios":"levelo://app?vid=7240a984-bb6d-4c3b-ab8d-aef55ac0bce8"},"vehicle_type_id":"4","last_reported":1749812953,"current_range_meters":20800,"station_id":"st_cvj6sg6p6f1abm77japg","pricing_plan_id":"cebpf4jnsgd1na2vs0mg"},{"bike_id":"c82f75f2-635c-40da-9f67-77d82cb74c97","system_id":"levelo_inurba_marseille","lat":43.21198,"lon":5.3506,"is_reserved":false,"is_disabled":false,"rental_uris":{"android":"levelo://app?vid=c82f75f2-635c-40da-9f67-77d82cb74c97","ios":"levelo://app?vid=c82f75f2-635c-40da-9f67-77d82cb74c97"},"vehicle_type_id":"4","last_reported":1749812953,"current_range_meters":20800,"station_id":"st_cvj6sg6p6f1abm77japg","pricing_plan_id":"cebpf4jnsgd1na2vs0mg"},{"bike_id":"8affaa11-a260-4db0-a130-318cf0b04750","system_id":"levelo_inurba_marseille","lat":43.27837,"lon":5.40716,"is_reserved":false,"is_disabled":false,"rental_uris":{"android":"levelo://app?vid=8affaa11-a260-4db0-a130-318cf0b04750","ios":"levelo://app?vid=8affaa11-a260-4db0-a130-318cf0b04750"},"vehicle_type_id":"4","last_reported":1749812953,"current_range_meters":21600,"station_id":"ce4bhnh2rcd13ifvqgtg","pricing_plan_id":"cebpf4jnsgd1na2vs0mg"},{"bike_id":"dd206fe6-0396-4cc8-8a8b-0af33b79c7d6","system_id":"levelo_inurba_marseille","lat":43.27946,"lon":5.41045,"is_reserved":false,"is_disabled":false,"rental_uris":{"android":"levelo://app?vid=dd206fe6-0396-4cc8-8a8b-0af33b79c7d6","ios":"levelo://app?vid=dd206fe6-0396-4cc8-8a8b-0af33b79c7d6"},"vehicle_type_id":"4","last_reported":1749812953,"current_range_meters":21600,"station_id":"ce4bhnp2rcd13ifvqh0g","pricing_plan_id":"cebpf4jnsgd1na2vs0mg"},{"bike_id":"02e3c5cc-f63b-4824-bea0-077f0c9c4413","system_id":"levelo_inurba_marseille","lat":43.23194,"lon":5.35547,"is_reserved":false,"is_disabled":false,"rental_uris":{"android":"levelo://app?vid=02e3c5cc-f63b-4824-bea0-077f0c9c4413","ios":"levelo://app?vid=02e3c5cc-f63b-4824-bea0-077f0c9c4413"},"vehicle_type_id":"4","last_reported":1749812953,"current_range_meters":21600,"station_id":"ce4bhu92rcd13ifvqi70","pricing_plan_id":"cebpf4jnsgd1na2vs0mg"},{"bike_id":"8cb1804d-5ec0-4c39-830c-0590b2fbc9ca","system_id":"levelo_inurba_marseille","lat":43.29636,"lon":5.3713,"is_reserved":false,"is_disabled":false,"rental_uris":{"android":"levelo://app?vid=8cb1804d-5ec0-4c39-830c-0590b2fbc9ca","ios":"levelo://app?vid=8cb1804d-5ec0-4c39-830c-0590b2fbc9ca"},"vehicle_type_id":"4","last_reported":1749812953,"current_range_meters":22000,"station_id":"ce4bgnh2rcd13ifvqc0g","pricing_plan_id":"cebpf4jnsgd1na2vs0mg"},{"bike_id":"00167165-4fc7-4470-b198-ce35681182e3","system_id":"levelo_inurba_marseille","lat":43.30564,"lon":5.36708,"is_reserved":false,"is_disabled":false,"rental_uris":{"android":"levelo://app?vid=00167165-4fc7-4470-b198-ce35681182e3","ios":"levelo://app?vid=00167165-4fc7-4470-b198-ce35681182e3"},"vehicle_type_id":"4","last_reported":1749812953,"current_range_meters":22000,"station_id":"ce4bgrp2rcd13ifvqc9g","pricing_plan_id":"cebpf4jnsgd1na2vs0mg"},{"bike_id":"d77660bb-4323-4d08-93a7-f71007d68bc9","system_id":"levelo_inurba_marseille","lat":43.28269,"lon":5.3506,"is_reserved":false,"is_disabled":false,"rental_uris":{"android":"levelo://app?vid=d77660bb-4323-4d08-93a7-f71007d68bc9","ios":"levelo://app?vid=d77660bb-4323-4d08-93a7-f71007d68bc9"},"vehicle_type_id":"4","last_reported":1749812953,"current_range_meters":22000,"station_id":"ce4bhbp2rcd13ifvqerg","pricing_plan_id":"cebpf4jnsgd1na2vs0mg"},{"bike_id":"21d9e4c8-90ac-4021-9413-56b88cc99c8a","system_id":"levelo_inurba_marseille","lat":43.29277,"lon":5.36834,"is_reserved":false,"is_disabled":false,"rental_uris":{"android":"levelo://app?vid=21d9e4c8-90ac-4021-9413-56b88cc99c8a","ios":"levelo://app?vid=21d9e4c8-90ac-4021-9413-56b88cc99c8a"},"vehicle_type_id":"4","last_reported":1749812953,"current_range_meters":22000,"station_id":"ce4bhbp2rcd13ifvqesg","pricing_plan_id":"cebpf4jnsgd1na2vs0mg"},{"bike_id":"197f888b-0edb-4571-83f1-effbea05802c","system_id":"levelo_inurba_marseille","lat":43.23157,"lon":5.4371,"is_reserved":false,"is_disabled":false,"rental_uris":{"android":"levelo://app?vid=197f888b-0edb-4571-83f1-effbea05802c","ios":"levelo://app?vid=197f888b-0edb-4571-83f1-effbea05802c"},"vehicle_type_id":"4","last_reported":1749812953,"current_range_meters":22000,"station_id":"ce4bhmp2rcd13ifvqgog","pricing_plan_id":"cebpf4jnsgd1na2vs0mg"},{"bike_id":"d61c81ac-c0b7-4400-a7e6-7bc6d098bdbe","system_id":"levelo_inurba_marseille","lat":43.27811,"lon":5.4071,"is_reserved":false,"is_disabled":false,"rental_uris":{"android":"levelo://app?vid=d61c81ac-c0b7-4400-a7e6-7bc6d098bdbe","ios":"levelo://app?vid=d61c81ac-c0b7-4400-a7e6-7bc6d098bdbe"},"vehicle_type_id":"4","last_reported":1749812953,"current_range_meters":22000,"station_id":"ce4bhnh2rcd13ifvqgtg","pricing_plan_id":"cebpf4jnsgd1na2vs0mg"},{"bike_id":"5952d3b4-6e5d-47ab-a498-75f20fb960c6","system_id":"levelo_inurba_marseille","lat":43.30374,"lon":5.42489,"is_reserved":false,"is_disabled":false,"rental_uris":{"android":"levelo://app?vid=5952d3b4-6e5d-47ab-a498-75f20fb960c6","ios":"levelo://app?vid=5952d3b4-6e5d-47ab-a498-75f20fb960c6"},"vehicle_type_id":"4","last_reported":1749812953,"current_range_meters":22000,"station_id":"ce4bhoh2rcd13ifvqh6g","pricing_plan_id":"cebpf4jnsgd1na2vs0mg"},{"bike_id":"6dffafd5-1a4c-4101-bc3f-c64cd1754739","system_id":"levelo_inurba_marseille","lat":43.29552,"lon":5.42274,"is_reserved":false,"is_disabled":false,"rental_uris":{"android":"levelo://app?vid=6dffafd5-1a4c-4101-bc3f-c64cd1754739","ios":"levelo://app?vid=6dffafd5-1a4c-4101-bc3f-c64cd1754739"},"vehicle_type_id":"4","last_reported":1749812953,"current_range_meters":22000,"station_id":"ce4bhph2rcd13ifvqhdg","pricing_plan_id":"cebpf4jnsgd1na2vs0mg"},{"bike_id":"b7de2daa-196c-4111-9244-8dff16c1dcca","system_id":"levelo_inurba_marseille","lat":43.3208,"lon":5.36825,"is_reserved":false,"is_disabled":false,"rental_uris":{"android":"levelo://app?vid=b7de2daa-196c-4111-9244-8dff16c1dcca","ios":"levelo://app?vid=b7de2daa-196c-4111-9244-8dff16c1dcca"},"vehicle_type_id":"4","last_reported":1749812953,"current_range_meters":22000,"station_id":"ce4bhrh2rcd13ifvqhug","pricing_plan_id":"cebpf4jnsgd1na2vs0mg"},{"bike_id":"f2c9af96-1c1f-4ce9-b7e8-1282fcb6fec2","system_id":"levelo_inurba_marseille","lat":43.24334,"lon":5.4114,"is_reserved":false,"is_disabled":false,"rental_uris":{"android":"levelo://app?vid=f2c9af96-1c1f-4ce9-b7e8-1282fcb6fec2","ios":"levelo://app?vid=f2c9af96-1c1f-4ce9-b7e8-1282fcb6fec2"},"vehicle_type_id":"4","last_reported":1749812953,"current_range_meters":22400,"station_id":"","pricing_plan_id":"cebpf4jnsgd1na2vs0mg"},{"bike_id":"d81ebef1-def3-4b3b-8a2c-e915262efa10","system_id":"levelo_inurba_marseille","lat":43.32903,"lon":5.39173,"is_reserved":false,"is_disabled":false,"rental_uris":{"android":"levelo://app?vid=d81ebef1-def3-4b3b-8a2c-e915262efa10","ios":"levelo://app?vid=d81ebef1-def3-4b3b-8a2c-e915262efa10"},"vehicle_type_id":"4","last_reported":1749812953,"current_range_meters":22400,"station_id":"","pricing_plan_id":"cebpf4jnsgd1na2vs0mg"},{"bike_id":"2ff606d5-b031-4779-b8c0-2cf88aafabd8","system_id":"levelo_inurba_marseille","lat":43.2962,"lon":5.3717,"is_reserved":false,"is_disabled":false,"rental_uris":{"android":"levelo://app?vid=2ff606d5-b031-4779-b8c0-2cf88aafabd8","ios":"levelo://app?vid=2ff606d5-b031-4779-b8c0-2cf88aafabd8"},"vehicle_type_id":"4","last_reported":1749812953,"current_range_meters":22400,"station_id":"ce4bgnh2rcd13ifvqc0g","pricing_plan_id":"cebpf4jnsgd1na2vs0mg"},{"bike_id":"5f31db34-2ada-4632-91ef-64bfcd8784da","system_id":"levelo_inurba_marseille","lat":43.29579,"lon":5.36733,"is_reserved":false,"is_disabled":false,"rental_uris":{"android":"levelo://app?vid=5f31db34-2ada-4632-91ef-64bfcd8784da","ios":"levelo://app?vid=5f31db34-2ada-4632-91ef-64bfcd8784da"},"vehicle_type_id":"4","last_reported":1749812953,"current_range_meters":22400,"station_id":"ce4bgph2rcd13ifvqc2g","pricing_plan_id":"cebpf4jnsgd1na2vs0mg"},{"bike_id":"c7cdfce6-debe-4bc5-80e6-afb2bb5d2eaa","system_id":"levelo_inurba_marseille","lat":43.30483,"lon":5.37904,"is_reserved":false,"is_disabled":false,"rental_uris":{"android":"levelo://app?vid=c7cdfce6-debe-4bc5-80e6-afb2bb5d2eaa","ios":"levelo://app?vid=c7cdfce6-debe-4bc5-80e6-afb2bb5d2eaa"},"vehicle_type_id":"4","last_reported":1749812953,"current_range_meters":22400,"station_id":"ce4bgup2rcd13ifvqcn0","pricing_plan_id":"cebpf4jnsgd1na2vs0mg"},{"bike_id":"22309b5a-bcdf-42ad-afe6-c9caf35f7827","system_id":"levelo_inurba_marseille","lat":43.217337,"lon":5.345983,"is_reserved":false,"is_disabled":false,"rental_uris":{"android":"levelo://app?vid=22309b5a-bcdf-42ad-afe6-c9caf35f7827","ios":"levelo://app?vid=22309b5a-bcdf-42ad-afe6-c9caf35f7827"},"vehicle_type_id":"4","last_reported":1749812953,"current_range_meters":22400,"station_id":"st_cvj6r9ubvosntc0bgbag","pricing_plan_id":"cebpf4jnsgd1na2vs0mg"},{"bike_id":"48ce34d0-cf14-4239-b33e-6f464a94e77d","system_id":"levelo_inurba_marseille","lat":43.27059,"lon":5.40261,"is_reserved":false,"is_disabled":false,"rental_uris":{"android":"levelo://app?vid=48ce34d0-cf14-4239-b33e-6f464a94e77d","ios":"levelo://app?vid=48ce34d0-cf14-4239-b33e-6f464a94e77d"},"vehicle_type_id":"4","last_reported":1749812953,"current_range_meters":22800,"station_id":"ce4bhk92rcd13ifvqgc0","pricing_plan_id":"cebpf4jnsgd1na2vs0mg"},{"bike_id":"9d6df7e9-6983-46d5-9b19-0bff453842f3","system_id":"levelo_inurba_marseille","lat":43.23167,"lon":5.43734,"is_reserved":false,"is_disabled":false,"rental_uris":{"android":"levelo://app?vid=9d6df7e9-6983-46d5-9b19-0bff453842f3","ios":"levelo://app?vid=9d6df7e9-6983-46d5-9b19-0bff453842f3"},"vehicle_type_id":"4","last_reported":1749812953,"current_range_meters":22800,"station_id":"ce4bhmp2rcd13ifvqgog","pricing_plan_id":"cebpf4jnsgd1na2vs0mg"},{"bike_id":"01da230a-3793-4a05-8f9b-c78e608bb483","system_id":"levelo_inurba_marseille","lat":43.24182,"lon":5.39716,"is_reserved":false,"is_disabled":false,"rental_uris":{"android":"levelo://app?vid=01da230a-3793-4a05-8f9b-c78e608bb483","ios":"levelo://app?vid=01da230a-3793-4a05-8f9b-c78e608bb483"},"vehicle_type_id":"4","last_reported":1749812953,"current_range_meters":22800,"station_id":"ce4bhn12rcd13ifvqgpg","pricing_plan_id":"cebpf4jnsgd1na2vs0mg"},{"bike_id":"25638e98-9a31-4b5b-91d1-35ecce5a10fd","system_id":"levelo_inurba_marseille","lat":43.24168,"lon":5.36393,"is_reserved":false,"is_disabled":false,"rental_uris":{"android":"levelo://app?vid=25638e98-9a31-4b5b-91d1-35ecce5a10fd","ios":"levelo://app?vid=25638e98-9a31-4b5b-91d1-35ecce5a10fd"},"vehicle_type_id":"4","last_reported":1749812953,"current_range_meters":22800,"station_id":"cpo36qri1sfpv3e86is0","pricing_plan_id":"cebpf4jnsgd1na2vs0mg"},{"bike_id":"c304166a-f91b-420b-a9e3-4a2ce34ba0ac","system_id":"levelo_inurba_marseille","lat":43.29573,"lon":5.37508,"is_reserved":false,"is_disabled":false,"rental_uris":{"android":"levelo://app?vid=c304166a-f91b-420b-a9e3-4a2ce34ba0ac","ios":"levelo://app?vid=c304166a-f91b-420b-a9e3-4a2ce34ba0ac"},"vehicle_type_id":"4","last_reported":1749812953,"current_range_meters":23200,"station_id":"ce4bgh92rcd13ifvqb50","pricing_plan_id":"cebpf4jnsgd1na2vs0mg"},{"bike_id":"dbac91e8-e8a6-4af0-a59d-90260e4926cc","system_id":"levelo_inurba_marseille","lat":43.30332,"lon":5.40435,"is_reserved":false,"is_disabled":false,"rental_uris":{"android":"levelo://app?vid=dbac91e8-e8a6-4af0-a59d-90260e4926cc","ios":"levelo://app?vid=dbac91e8-e8a6-4af0-a59d-90260e4926cc"},"vehicle_type_id":"4","last_reported":1749812953,"current_range_meters":23200,"station_id":"ce4bh012rcd13ifvqd10","pricing_plan_id":"cebpf4jnsgd1na2vs0mg"},{"bike_id":"6d221b32-5c6b-4ea1-a9ad-eb695bc5a5fd","system_id":"levelo_inurba_marseille","lat":43.26202,"lon":5.374373,"is_reserved":false,"is_disabled":false,"rental_uris":{"android":"levelo://app?vid=6d221b32-5c6b-4ea1-a9ad-eb695bc5a5fd","ios":"levelo://app?vid=6d221b32-5c6b-4ea1-a9ad-eb695bc5a5fd"},"vehicle_type_id":"4","last_reported":1749812953,"current_range_meters":23200,"station_id":"ce4bhgp2rcd13ifvqfc0","pricing_plan_id":"cebpf4jnsgd1na2vs0mg"},{"bike_id":"4e15ad9a-d7d2-4eb4-93b6-a05e4158eaf3","system_id":"levelo_inurba_marseille","lat":43.23965,"lon":5.36626,"is_reserved":false,"is_disabled":false,"rental_uris":{"android":"levelo://app?vid=4e15ad9a-d7d2-4eb4-93b6-a05e4158eaf3","ios":"levelo://app?vid=4e15ad9a-d7d2-4eb4-93b6-a05e4158eaf3"},"vehicle_type_id":"4","last_reported":1749812953,"current_range_meters":23200,"station_id":"ce4bhi12rcd13ifvqfp0","pricing_plan_id":"cebpf4jnsgd1na2vs0mg"},{"bike_id":"1251f8f9-bd49-48f1-8752-0df148373630","system_id":"levelo_inurba_marseille","lat":43.323637,"lon":5.367272,"is_reserved":false,"is_disabled":false,"rental_uris":{"android":"levelo://app?vid=1251f8f9-bd49-48f1-8752-0df148373630","ios":"levelo://app?vid=1251f8f9-bd49-48f1-8752-0df148373630"},"vehicle_type_id":"4","last_reported":1749812953,"current_range_meters":23200,"station_id":"ce4bhs12rcd13ifvqhvg","pricing_plan_id":"cebpf4jnsgd1na2vs0mg"},{"bike_id":"bc3fcb55-bf4c-422e-9f7c-c229756dd205","system_id":"levelo_inurba_marseille","lat":43.323494,"lon":5.367262,"is_reserved":false,"is_disabled":false,"rental_uris":{"android":"levelo://app?vid=bc3fcb55-bf4c-422e-9f7c-c229756dd205","ios":"levelo://app?vid=bc3fcb55-bf4c-422e-9f7c-c229756dd205"},"vehicle_type_id":"4","last_reported":1749812953,"current_range_meters":23200,"station_id":"ce4bhsh2rcd13ifvqi2g","pricing_plan_id":"cebpf4jnsgd1na2vs0mg"},{"bike_id":"819d1b1b-6f00-4311-b4ae-767344d57817","system_id":"levelo_inurba_marseille","lat":43.24167,"lon":5.36388,"is_reserved":false,"is_disabled":false,"rental_uris":{"android":"levelo://app?vid=819d1b1b-6f00-4311-b4ae-767344d57817","ios":"levelo://app?vid=819d1b1b-6f00-4311-b4ae-767344d57817"},"vehicle_type_id":"4","last_reported":1749812953,"current_range_meters":23200,"station_id":"cpo36qri1sfpv3e86is0","pricing_plan_id":"cebpf4jnsgd1na2vs0mg"},{"bike_id":"c849d946-cc85-46dc-a4f8-85e26c419c5a","system_id":"levelo_inurba_marseille","lat":43.29569,"lon":5.37518,"is_reserved":false,"is_disabled":false,"rental_uris":{"android":"levelo://app?vid=c849d946-cc85-46dc-a4f8-85e26c419c5a","ios":"levelo://app?vid=c849d946-cc85-46dc-a4f8-85e26c419c5a"},"vehicle_type_id":"4","last_reported":1749812953,"current_range_meters":24000,"station_id":"ce4bgh92rcd13ifvqb50","pricing_plan_id":"cebpf4jnsgd1na2vs0mg"},{"bike_id":"bd30e4b3-e107-4fe9-870a-457920367596","system_id":"levelo_inurba_marseille","lat":43.29844,"lon":5.36274,"is_reserved":false,"is_disabled":false,"rental_uris":{"android":"levelo://app?vid=bd30e4b3-e107-4fe9-870a-457920367596","ios":"levelo://app?vid=bd30e4b3-e107-4fe9-870a-457920367596"},"vehicle_type_id":"4","last_reported":1749812953,"current_range_meters":24000,"station_id":"ce4bgpp2rcd13ifvqc3g","pricing_plan_id":"cebpf4jnsgd1na2vs0mg"},{"bike_id":"56226cf9-7d90-4f55-8bd1-b144d56933ea","system_id":"levelo_inurba_marseille","lat":43.30596,"lon":5.36777,"is_reserved":false,"is_disabled":false,"rental_uris":{"android":"levelo://app?vid=56226cf9-7d90-4f55-8bd1-b144d56933ea","ios":"levelo://app?vid=56226cf9-7d90-4f55-8bd1-b144d56933ea"},"vehicle_type_id":"4","last_reported":1749812953,"current_range_meters":24000,"station_id":"ce4bgrp2rcd13ifvqc9g","pricing_plan_id":"cebpf4jnsgd1na2vs0mg"},{"bike_id":"baf7f4ab-5442-4ac2-8f7e-886cec726bef","system_id":"levelo_inurba_marseille","lat":43.305332,"lon":5.367279,"is_reserved":false,"is_disabled":false,"rental_uris":{"android":"levelo://app?vid=baf7f4ab-5442-4ac2-8f7e-886cec726bef","ios":"levelo://app?vid=baf7f4ab-5442-4ac2-8f7e-886cec726bef"},"vehicle_type_id":"4","last_reported":1749812953,"current_range_meters":24000,"station_id":"ce4bgrp2rcd13ifvqc9g","pricing_plan_id":"cebpf4jnsgd1na2vs0mg"},{"bike_id":"44166ef8-1be2-4e14-9bbd-52b189dea8ee","system_id":"levelo_inurba_marseille","lat":43.31486,"lon":5.37306,"is_reserved":false,"is_disabled":false,"rental_uris":{"android":"levelo://app?vid=44166ef8-1be2-4e14-9bbd-52b189dea8ee","ios":"levelo://app?vid=44166ef8-1be2-4e14-9bbd-52b189dea8ee"},"vehicle_type_id":"4","last_reported":1749812953,"current_range_meters":24000,"station_id":"ce4bgt12rcd13ifvqcd0","pricing_plan_id":"cebpf4jnsgd1na2vs0mg"},{"bike_id":"76fe8531-2ca4-4ac9-9658-cdf7d28cd517","system_id":"levelo_inurba_marseille","lat":43.29003,"lon":5.35603,"is_reserved":false,"is_disabled":false,"rental_uris":{"android":"levelo://app?vid=76fe8531-2ca4-4ac9-9658-cdf7d28cd517","ios":"levelo://app?vid=76fe8531-2ca4-4ac9-9658-cdf7d28cd517"},"vehicle_type_id":"4","last_reported":1749812953,"current_range_meters":24000,"station_id":"ce4bhb92rcd13ifvqen0","pricing_plan_id":"cebpf4jnsgd1na2vs0mg"},{"bike_id":"693039d3-4081-4ebc-b09e-975cf9812e56","system_id":"levelo_inurba_marseille","lat":43.273791,"lon":5.362572,"is_reserved":false,"is_disabled":false,"rental_uris":{"android":"levelo://app?vid=693039d3-4081-4ebc-b09e-975cf9812e56","ios":"levelo://app?vid=693039d3-4081-4ebc-b09e-975cf9812e56"},"vehicle_type_id":"4","last_reported":1749812953,"current_range_meters":24000,"station_id":"ce4bhbh2rcd13ifvqeo0","pricing_plan_id":"cebpf4jnsgd1na2vs0mg"},{"bike_id":"ae4a6b74-6f75-4ea4-89ab-161b49657272","system_id":"levelo_inurba_marseille","lat":43.2417,"lon":5.39727,"is_reserved":false,"is_disabled":false,"rental_uris":{"android":"levelo://app?vid=ae4a6b74-6f75-4ea4-89ab-161b49657272","ios":"levelo://app?vid=ae4a6b74-6f75-4ea4-89ab-161b49657272"},"vehicle_type_id":"4","last_reported":1749812953,"current_range_meters":24000,"station_id":"ce4bhn12rcd13ifvqgpg","pricing_plan_id":"cebpf4jnsgd1na2vs0mg"},{"bike_id":"7823edb3-6df1-4da3-8c3d-83d1bdb86b02","system_id":"levelo_inurba_marseille","lat":43.23189,"lon":5.39983,"is_reserved":false,"is_disabled":false,"rental_uris":{"android":"levelo://app?vid=7823edb3-6df1-4da3-8c3d-83d1bdb86b02","ios":"levelo://app?vid=7823edb3-6df1-4da3-8c3d-83d1bdb86b02"},"vehicle_type_id":"4","last_reported":1749812953,"current_range_meters":24000,"station_id":"ce4bhn12rcd13ifvqgqg","pricing_plan_id":"cebpf4jnsgd1na2vs0mg"},{"bike_id":"00360baf-95b0-4242-8298-33c8eca3ec27","system_id":"levelo_inurba_marseille","lat":43.2815,"lon":5.42644,"is_reserved":false,"is_disabled":false,"rental_uris":{"android":"levelo://app?vid=00360baf-95b0-4242-8298-33c8eca3ec27","ios":"levelo://app?vid=00360baf-95b0-4242-8298-33c8eca3ec27"},"vehicle_type_id":"4","last_reported":1749812953,"current_range_meters":24000,"station_id":"ce4bhnh2rcd13ifvqgug","pricing_plan_id":"cebpf4jnsgd1na2vs0mg"},{"bike_id":"4291cdbf-1e01-4d69-8a37-c1d172055ba8","system_id":"levelo_inurba_marseille","lat":43.31368,"lon":5.38493,"is_reserved":false,"is_disabled":false,"rental_uris":{"android":"levelo://app?vid=4291cdbf-1e01-4d69-8a37-c1d172055ba8","ios":"levelo://app?vid=4291cdbf-1e01-4d69-8a37-c1d172055ba8"},"vehicle_type_id":"4","last_reported":1749812953,"current_range_meters":24400,"station_id":"ce4bgt92rcd13ifvqcf0","pricing_plan_id":"cebpf4jnsgd1na2vs0mg"},{"bike_id":"3631bca1-fdba-4141-a05b-a6f7318cf31d","system_id":"levelo_inurba_marseille","lat":43.29001,"lon":5.35605,"is_reserved":false,"is_disabled":false,"rental_uris":{"android":"levelo://app?vid=3631bca1-fdba-4141-a05b-a6f7318cf31d","ios":"levelo://app?vid=3631bca1-fdba-4141-a05b-a6f7318cf31d"},"vehicle_type_id":"4","last_reported":1749812953,"current_range_meters":24400,"station_id":"ce4bhb92rcd13ifvqen0","pricing_plan_id":"cebpf4jnsgd1na2vs0mg"},{"bike_id":"2c18ba03-6cea-4d44-9f33-996125426bf8","system_id":"levelo_inurba_marseille","lat":43.270703,"lon":5.422802,"is_reserved":false,"is_disabled":false,"rental_uris":{"android":"levelo://app?vid=2c18ba03-6cea-4d44-9f33-996125426bf8","ios":"levelo://app?vid=2c18ba03-6cea-4d44-9f33-996125426bf8"},"vehicle_type_id":"4","last_reported":1749812953,"current_range_meters":24400,"station_id":"ce4bhk92rcd13ifvqgb0","pricing_plan_id":"cebpf4jnsgd1na2vs0mg"},{"bike_id":"b6218196-dd9a-4ea9-b03a-b2fce75423ec","system_id":"levelo_inurba_marseille","lat":43.23184,"lon":5.39979,"is_reserved":false,"is_disabled":false,"rental_uris":{"android":"levelo://app?vid=b6218196-dd9a-4ea9-b03a-b2fce75423ec","ios":"levelo://app?vid=b6218196-dd9a-4ea9-b03a-b2fce75423ec"},"vehicle_type_id":"4","last_reported":1749812953,"current_range_meters":24400,"station_id":"ce4bhn12rcd13ifvqgqg","pricing_plan_id":"cebpf4jnsgd1na2vs0mg"},{"bike_id":"6e77d052-55bf-4909-a6be-9c8221657c56","system_id":"levelo_inurba_marseille","lat":43.31892,"lon":5.40734,"is_reserved":false,"is_disabled":false,"rental_uris":{"android":"levelo://app?vid=6e77d052-55bf-4909-a6be-9c8221657c56","ios":"levelo://app?vid=6e77d052-55bf-4909-a6be-9c8221657c56"},"vehicle_type_id":"4","last_reported":1749812953,"current_range_meters":24400,"station_id":"ce4bhq12rcd13ifvqhig","pricing_plan_id":"cebpf4jnsgd1na2vs0mg"},{"bike_id":"67d4735d-a812-4e55-90bc-5641f4e35931","system_id":"levelo_inurba_marseille","lat":43.2119,"lon":5.35064,"is_reserved":false,"is_disabled":false,"rental_uris":{"android":"levelo://app?vid=67d4735d-a812-4e55-90bc-5641f4e35931","ios":"levelo://app?vid=67d4735d-a812-4e55-90bc-5641f4e35931"},"vehicle_type_id":"4","last_reported":1749812953,"current_range_meters":24400,"station_id":"st_cvj6sg6p6f1abm77japg","pricing_plan_id":"cebpf4jnsgd1na2vs0mg"},{"bike_id":"d605e935-d7e5-4d45-895b-f6125b6358cf","system_id":"levelo_inurba_marseille","lat":43.31389,"lon":5.36742,"is_reserved":false,"is_disabled":false,"rental_uris":{"android":"levelo://app?vid=d605e935-d7e5-4d45-895b-f6125b6358cf","ios":"levelo://app?vid=d605e935-d7e5-4d45-895b-f6125b6358cf"},"vehicle_type_id":"4","last_reported":1749812953,"current_range_meters":24800,"station_id":"","pricing_plan_id":"cebpf4jnsgd1na2vs0mg"},{"bike_id":"f29a7746-f752-482c-a5d1-5218b286d5de","system_id":"levelo_inurba_marseille","lat":43.31957,"lon":5.38735,"is_reserved":false,"is_disabled":false,"rental_uris":{"android":"levelo://app?vid=f29a7746-f752-482c-a5d1-5218b286d5de","ios":"levelo://app?vid=f29a7746-f752-482c-a5d1-5218b286d5de"},"vehicle_type_id":"4","last_reported":1749812953,"current_range_meters":24800,"station_id":"","pricing_plan_id":"cebpf4jnsgd1na2vs0mg"},{"bike_id":"fd554d8c-b3f3-40c5-95e6-376479451145","system_id":"levelo_inurba_marseille","lat":43.30456,"lon":5.36674,"is_reserved":false,"is_disabled":false,"rental_uris":{"android":"levelo://app?vid=fd554d8c-b3f3-40c5-95e6-376479451145","ios":"levelo://app?vid=fd554d8c-b3f3-40c5-95e6-376479451145"},"vehicle_type_id":"4","last_reported":1749812953,"current_range_meters":24800,"station_id":"","pricing_plan_id":"cebpf4jnsgd1na2vs0mg"},{"bike_id":"e60ef4d0-232f-4441-9d4f-db494b5704d2","system_id":"levelo_inurba_marseille","lat":43.29258,"lon":5.37617,"is_reserved":false,"is_disabled":false,"rental_uris":{"android":"levelo://app?vid=e60ef4d0-232f-4441-9d4f-db494b5704d2","ios":"levelo://app?vid=e60ef4d0-232f-4441-9d4f-db494b5704d2"},"vehicle_type_id":"4","last_reported":1749812953,"current_range_meters":24800,"station_id":"ce4bgi12rcd13ifvqb80","pricing_plan_id":"cebpf4jnsgd1na2vs0mg"},{"bike_id":"31fc641e-934c-44d0-8efe-a9c9cc2a957e","system_id":"levelo_inurba_marseille","lat":43.3014,"lon":5.38079,"is_reserved":false,"is_disabled":false,"rental_uris":{"android":"levelo://app?vid=31fc641e-934c-44d0-8efe-a9c9cc2a957e","ios":"levelo://app?vid=31fc641e-934c-44d0-8efe-a9c9cc2a957e"},"vehicle_type_id":"4","last_reported":1749812953,"current_range_meters":24800,"station_id":"ce4bgjp2rcd13ifvqbh0","pricing_plan_id":"cebpf4jnsgd1na2vs0mg"},{"bike_id":"f6633f07-5e6b-4b92-bddf-7e6222ad7021","system_id":"levelo_inurba_marseille","lat":43.3053,"lon":5.36537,"is_reserved":false,"is_disabled":false,"rental_uris":{"android":"levelo://app?vid=f6633f07-5e6b-4b92-bddf-7e6222ad7021","ios":"levelo://app?vid=f6633f07-5e6b-4b92-bddf-7e6222ad7021"},"vehicle_type_id":"4","last_reported":1749812953,"current_range_meters":24800,"station_id":"ce4bgs12rcd13ifvqcag","pricing_plan_id":"cebpf4jnsgd1na2vs0mg"},{"bike_id":"c5e64a2e-b3a0-410e-bba9-436a768fb9fa","system_id":"levelo_inurba_marseille","lat":43.23963,"lon":5.36633,"is_reserved":false,"is_disabled":false,"rental_uris":{"android":"levelo://app?vid=c5e64a2e-b3a0-410e-bba9-436a768fb9fa","ios":"levelo://app?vid=c5e64a2e-b3a0-410e-bba9-436a768fb9fa"},