{"last_updated":1730992113,"ttl":60,"version":"2.2","data":{"bikes":[{"bike_id":"e8bcca23-42a0-4423-8a65-a75ab12e9cb1","system_id":"levelo_inurba_marseille","lat":43.29589,"lon":5.3675,"is_reserved":false,"is_disabled":false,"rental_uris":{"android":"levelo://app?vid=e8bcca23-42a0-4423-8a65-a75ab12e9cb1","ios":"levelo://app?vid=e8bcca23-42a0-4423-8a65-a75ab12e9cb1"},"vehicle_type_id":"4","last_reported":1730992113,"current_range_meters":35200,"station_id":"ce4bgph2rcd13ifvqc2g","pricing_plan_id":"cebpf4jnsgd1na2vs0mg"},{"bike_id":"b8b5494f-d1ee-427b-82b0-3f22c119b890","system_id":"levelo_inurba_marseille","lat":43.32659,"lon":5.41002,"is_reserved":false,"is_disabled":false,"rental_uris":{"android":"levelo://app?vid=b8b5494f-d1ee-427b-82b0-3f22c119b890","ios":"levelo://app?vid=b8b5494f-d1ee-427b-82b0-3f22c119b890"},"vehicle_type_id":"4","last_reported":1730992113,"current_range_meters":40000,"station_id":"ce4bhpp2rcd13ifvqhgg","pricing_plan_id":"cebpf4jnsgd1na2vs0mg"},{"bike_id":"50e99082-7d21-4908-a76c-85dc17e9cce1","system_id":"levelo_inurba_marseille","lat":43.29419,"lon":5.3861,"is_reserved":false,"is_disabled":false,"rental_uris":{"android":"levelo://app?vid=50e99082-7d21-4908-a76c-85dc17e9cce1","ios":"levelo://app?vid=50e99082-7d21-4908-a76c-85dc17e9cce1"},"vehicle_type_id":"4","last_reported":1730992113,"current_range_meters":38800,"station_id":"ce4bh2h2rcd13ifvqdh0","pricing_plan_id":"cebpf4jnsgd1na2vs0mg"},{"bike_id":"0e4ef1d9-0437-4d4e-b57d-4c75c4376a05","system_id":"levelo_inurba_marseille","lat":43.33722,"lon":5.39192,"is_reserved":false,"is_disabled":false,"rental_uris":{"android":"levelo://app?vid=0e4ef1d9-0437-4d4e-b57d-4c75c4376a05","ios":"levelo://app?vid=0e4ef1d9-0437-4d4e-b57d-4c75c4376a05"},"vehicle_type_id":"4","last_reported":1730992113,"current_range_meters":38800,"station_id":"ce4bhr92rcd13ifvqhsg","pricing_plan_id":"cebpf4jnsgd1na2vs0mg"},{"bike_id":"6f0bf5aa-5594-4bf3-9ea6-93a44e4613cb","system_id":"levelo_inurba_marseille","lat":43.24806,"lon":5.37457,"is_reserved":false,"is_disabled":false,"rental_uris":{"android":"levelo://app?vid=6f0bf5aa-5594-4bf3-9ea6-93a44e4613cb","ios":"levelo://app?vid=6f0bf5aa-5594-4bf3-9ea6-93a44e4613cb"},"vehicle_type_id":"4","last_reported":1730992113,"current_range_meters":38000,"station_id":"ce4bhgh2rcd13ifvqfb0","pricing_plan_id":"cebpf4jnsgd1na2vs0mg"},{"bike_id":"3f3fddbb-dfae-45ba-947e-4ca3b8eb20e2","system_id":"levelo_inurba_marseille","lat":43.28971,"lon":5.3799,"is_reserved":false,"is_disabled":false,"rental_uris":{"android":"levelo://app?vid=3f3fddbb-dfae-45ba-947e-4ca3b8eb20e2","ios":"levelo://app?vid=3f3fddbb-dfae-45ba-947e-4ca3b8eb20e2"},"vehicle_type_id":"4","last_reported":1730992113,"current_range_meters":6000,"station_id":"ce4bgkh2rcd13ifvqbl0","pricing_plan_id":"cebpf4jnsgd1na2vs0mg"},{"bike_id":"d744d9fa-f6b8-4628-8835-9c5b2b9c348f","system_id":"levelo_inurba_marseille","lat":43.25725,"lon":5.41107,"is_reserved":false,"is_disabled":false,"rental_uris":{"android":"levelo://app?vid=d744d9fa-f6b8-4628-8835-9c5b2b9c348f","ios":"levelo://app?vid=d744d9fa-f6b8-4628-8835-9c5b2b9c348f"},"vehicle_type_id":"4","last_reported":1730992113,"current_range_meters":16800,"station_id":"ce4bhkp2rcd13ifvqgd0","pricing_plan_id":"cebpf4jnsgd1na2vs0mg"},{"bike_id":"f9bb9c79-6f73-4109-ae8c-df53e2fac037","system_id":"levelo_inurba_marseille","lat":43.30143,"lon":5.39875,"is_reserved":false,"is_disabled":false,"rental_uris":{"android":"levelo://app?vid=f9bb9c79-6f73-4109-ae8c-df53e2fac037","ios":"levelo://app?vid=f9bb9c79-6f73-4109-ae8c-df53e2fac037"},"vehicle_type_id":"4","last_reported":1730992113,"current_range_meters":22000,"station_id":"ce4bh0h2rcd13ifvqd40","pricing_plan_id":"cebpf4jnsgd1na2vs0mg"},{"bike_id":"1df4d711-4ca5-4e4f-8f9c-e7732e3d0984","system_id":"levelo_inurba_marseille","lat":43.29791,"lon":5.37112,"is_reserved":false,"is_disabled":false,"rental_uris":{"android":"levelo://app?vid=1df4d711-4ca5-4e4f-8f9c-e7732e3d0984","ios":"levelo://app?vid=1df4d711-4ca5-4e4f-8f9c-e7732e3d0984"},"vehicle_type_id":"4","last_reported":1730992113,"current_range_meters":28400,"station_id":"ce4bgop2rcd13ifvqc1g","pricing_plan_id":"cebpf4jnsgd1na2vs0mg"},{"bike_id":"b2116663-67b9-426e-a75d-ed0e97e6dcbc","system_id":"levelo_inurba_marseille","lat":43.29624,"lon":5.37175,"is_reserved":false,"is_disabled":false,"rental_uris":{"android":"levelo://app?vid=b2116663-67b9-426e-a75d-ed0e97e6dcbc","ios":"levelo://app?vid=b2116663-67b9-426e-a75d-ed0e97e6dcbc"},"vehicle_type_id":"4","last_reported":1730992113,"current_range_meters":38800,"station_id":"ce4bgnh2rcd13ifvqc0g","pricing_plan_id":"cebpf4jnsgd1na2vs0mg"},{"bike_id":"96966623-2886-43d6-a462-08fe5bc2261f","system_id":"levelo_inurba_marseille","lat":43.288788,"lon":5.36006,"is_reserved":false,"is_disabled":false,"rental_uris":{"android":"levelo://app?vid=96966623-2886-43d6-a462-08fe5bc2261f","ios":"levelo://app?vid=96966623-2886-43d6-a462-08fe5bc2261f"},"vehicle_type_id":"4","last_reported":1730992113,"current_range_meters":14400,"station_id":"ce4bhqp2rcd13ifvqhng","pricing_plan_id":"cebpf4jnsgd1na2vs0mg"},{"bike_id":"1510aaa8-e4b4-4ded-be09-698b6b03d511","system_id":"levelo_inurba_marseille","lat":43.2315,"lon":5.43714,"is_reserved":false,"is_disabled":false,"rental_uris":{"android":"levelo://app?vid=1510aaa8-e4b4-4ded-be09-698b6b03d511","ios":"levelo://app?vid=1510aaa8-e4b4-4ded-be09-698b6b03d511"},"vehicle_type_id":"4","last_reported":1730992113,"current_range_meters":8400,"station_id":"ce4bhmp2rcd13ifvqgog","pricing_plan_id":"cebpf4jnsgd1na2vs0mg"},{"bike_id":"3922d8b1-f4a7-4906-8ae4-83f3ebc03baf","system_id":"levelo_inurba_marseille","lat":43.2721,"lon":5.39181,"is_reserved":false,"is_disabled":false,"rental_uris":{"android":"levelo://app?vid=3922d8b1-f4a7-4906-8ae4-83f3ebc03baf","ios":"levelo://app?vid=3922d8b1-f4a7-4906-8ae4-83f3ebc03baf"},"vehicle_type_id":"4","last_reported":1730992113,"current_range_meters":36800,"station_id":"ce4bhhp2rcd13ifvqfm0","pricing_plan_id":"cebpf4jnsgd1na2vs0mg"},{"bike_id":"434fe81b-9da2-49ed-aaee-dc29ee107415","system_id":"levelo_inurba_marseille","lat":43.23965,"lon":5.36643,"is_reserved":false,"is_disabled":false,"rental_uris":{"android":"levelo://app?vid=434fe81b-9da2-49ed-aaee-dc29ee107415","ios":"levelo://app?vid=434fe81b-9da2-49ed-aaee-dc29ee107415"},"vehicle_type_id":"4","last_reported":1730992113,"current_range_meters":39200,"station_id":"ce4bhi12rcd13ifvqfp0","pricing_plan_id":"cebpf4jnsgd1na2vs0mg"},{"bike_id":"4e5cba89-ccc7-4160-aedd-4e543671ca20","system_id":"levelo_inurba_marseille","lat":43.23156,"lon":5.43707,"is_reserved":false,"is_disabled":false,"rental_uris":{"android":"levelo://app?vid=4e5cba89-ccc7-4160-aedd-4e543671ca20","ios":"levelo://app?vid=4e5cba89-ccc7-4160-aedd-4e543671ca20"},"vehicle_type_id":"4","last_reported":1730992113,"current_range_meters":21600,"station_id":"ce4bhmp2rcd13ifvqgog","pricing_plan_id":"cebpf4jnsgd1na2vs0mg"},{"bike_id":"0069418c-2135-4f50-a06f-a4290beb6602","system_id":"levelo_inurba_marseille","lat":43.34147,"lon":5.40902,"is_reserved":false,"is_disabled":false,"rental_uris":{"android":"levelo://app?vid=0069418c-2135-4f50-a06f-a4290beb6602","ios":"levelo://app?vid=0069418c-2135-4f50-a06f-a4290beb6602"},"vehicle_type_id":"4","last_reported":1730992113,"current_range_meters":38800,"station_id":"ce4bhqh2rcd13ifvqhlg","pricing_plan_id":"cebpf4jnsgd1na2vs0mg"},{"bike_id":"4adda0c7-417b-490d-9b7a-9a6c24a67624","system_id":"levelo_inurba_marseille","lat":43.30213,"lon":5.39475,"is_reserved":false,"is_disabled":false,"rental_uris":{"android":"levelo://app?vid=4adda0c7-417b-490d-9b7a-9a6c24a67624","ios":"levelo://app?vid=4adda0c7-417b-490d-9b7a-9a6c24a67624"},"vehicle_type_id":"4","last_reported":1730992113,"current_range_meters":5600,"station_id":"ce4bgvp2rcd13ifvqcu0","pricing_plan_id":"cebpf4jnsgd1na2vs0mg"},{"bike_id":"bcf5dad1-721a-4f4e-82b2-15a9cc44926f","system_id":"levelo_inurba_marseille","lat":43.33776,"lon":5.37438,"is_reserved":false,"is_disabled":false,"rental_uris":{"android":"levelo://app?vid=bcf5dad1-721a-4f4e-82b2-15a9cc44926f","ios":"levelo://app?vid=bcf5dad1-721a-4f4e-82b2-15a9cc44926f"},"vehicle_type_id":"4","last_reported":1730992113,"current_range_meters":35600,"station_id":"","pricing_plan_id":"cebpf4jnsgd1na2vs0mg"},{"bike_id":"c09c6390-21e4-4164-9b4f-3a9d29e9eb77","system_id":"levelo_inurba_marseille","lat":43.25084,"lon":5.39532,"is_reserved":false,"is_disabled":false,"rental_uris":{"android":"levelo://app?vid=c09c6390-21e4-4164-9b4f-3a9d29e9eb77","ios":"levelo://app?vid=c09c6390-21e4-4164-9b4f-3a9d29e9eb77"},"vehicle_type_id":"4","last_reported":1730992113,"current_range_meters":8400,"station_id":"ce4bhm12rcd13ifvqgkg","pricing_plan_id":"cebpf4jnsgd1na2vs0mg"},{"bike_id":"777c2773-3a97-4945-8534-6c7a114e6969","system_id":"levelo_inurba_marseille","lat":43.30135,"lon":5.38791,"is_reserved":false,"is_disabled":false,"rental_uris":{"android":"levelo://app?vid=777c2773-3a97-4945-8534-6c7a114e6969","ios":"levelo://app?vid=777c2773-3a97-4945-8534-6c7a114e6969"},"vehicle_type_id":"4","last_reported":1730992113,"current_range_meters":7200,"station_id":"ce4bghh2rcd13ifvqb60","pricing_plan_id":"cebpf4jnsgd1na2vs0mg"},{"bike_id":"7e873154-6478-4e1d-8e1a-3e1f1f8356cd","system_id":"levelo_inurba_marseille","lat":43.3019,"lon":5.36617,"is_reserved":false,"is_disabled":false,"rental_uris":{"android":"levelo://app?vid=7e873154-6478-4e1d-8e1a-3e1f1f8356cd","ios":"levelo://app?vid=7e873154-6478-4e1d-8e1a-3e1f1f8356cd"},"vehicle_type_id":"4","last_reported":1730992113,"current_range_meters":30800,"station_id":"ce4bgrh2rcd13ifvqc8g","pricing_plan_id":"cebpf4jnsgd1na2vs0mg"},{"bike_id":"548c1920-0cb3-48c9-ab1f-ffccd4d03a77","system_id":"levelo_inurba_marseille","lat":43.27907,"lon":5.38018,"is_reserved":false,"is_disabled":false,"rental_uris":{"android":"levelo://app?vid=548c1920-0cb3-48c9-ab1f-ffccd4d03a77","ios":"levelo://app?vid=548c1920-0cb3-48c9-ab1f-ffccd4d03a77"},"vehicle_type_id":"4","last_reported":1730992113,"current_range_meters":39200,"station_id":"ce4bhf92rcd13ifvqf50","pricing_plan_id":"cebpf4jnsgd1na2vs0mg"},{"bike_id":"ef8d86ed-f2db-4303-a906-5024e5252699","system_id":"levelo_inurba_marseille","lat":43.29848,"lon":5.36294,"is_reserved":false,"is_disabled":false,"rental_uris":{"android":"levelo://app?vid=ef8d86ed-f2db-4303-a906-5024e5252699","ios":"levelo://app?vid=ef8d86ed-f2db-4303-a906-5024e5252699"},"vehicle_type_id":"4","last_reported":1730992113,"current_range_meters":33600,"station_id":"ce4bgpp2rcd13ifvqc3g","pricing_plan_id":"cebpf4jnsgd1na2vs0mg"},{"bike_id":"dbe7fed8-8293-4341-b586-de12b655672c","system_id":"levelo_inurba_marseille","lat":43.32538,"lon":5.41439,"is_reserved":false,"is_disabled":false,"rental_uris":{"android":"levelo://app?vid=dbe7fed8-8293-4341-b586-de12b655672c","ios":"levelo://app?vid=dbe7fed8-8293-4341-b586-de12b655672c"},"vehicle_type_id":"4","last_reported":1730992113,"current_range_meters":17600,"station_id":"ce4bhq12rcd13ifvqhhg","pricing_plan_id":"cebpf4jnsgd1na2vs0mg"},{"bike_id":"1914469b-decf-4f7a-a7f6-d32fedc3de01","system_id":"levelo_inurba_marseille","lat":43.29026,"lon":5.3815,"is_reserved":false,"is_disabled":false,"rental_uris":{"android":"levelo://app?vid=1914469b-decf-4f7a-a7f6-d32fedc3de01","ios":"levelo://app?vid=1914469b-decf-4f7a-a7f6-d32fedc3de01"},"vehicle_type_id":"4","last_reported":1730992113,"current_range_meters":38000,"station_id":"ce4bh4p2rcd13ifvqe1g","pricing_plan_id":"cebpf4jnsgd1na2vs0mg"},{"bike_id":"8a401a8a-30f9-4643-ad63-74116d1b600f","system_id":"levelo_inurba_marseille","lat":43.32467,"lon":5.3659,"is_reserved":false,"is_disabled":false,"rental_uris":{"android":"levelo://app?vid=8a401a8a-30f9-4643-ad63-74116d1b600f","ios":"levelo://app?vid=8a401a8a-30f9-4643-ad63-74116d1b600f"},"vehicle_type_id":"4","last_reported":1730992113,"current_range_meters":36800,"station_id":"ce4bhs12rcd13ifvqhvg","pricing_plan_id":"cebpf4jnsgd1na2vs0mg"},{"bike_id":"4347ecbb-0af3-43f4-a1ea-2c5d02367891","system_id":"levelo_inurba_marseille","lat":43.28347,"lon":5.38117,"is_reserved":false,"is_disabled":false,"rental_uris":{"android":"levelo://app?vid=4347ecbb-0af3-43f4-a1ea-2c5d02367891","ios":"levelo://app?vid=4347ecbb-0af3-43f4-a1ea-2c5d02367891"},"vehicle_type_id":"4","last_reported":1730992113,"current_range_meters":22400,"station_id":"ce4bh412rcd13ifvqdr0","pricing_plan_id":"cebpf4jnsgd1na2vs0mg"},{"bike_id":"60bb8ba5-396a-42c6-a39d-ec6237392067","system_id":"levelo_inurba_marseille","lat":43.22928,"lon":5.35377,"is_reserved":false,"is_disabled":false,"rental_uris":{"android":"levelo://app?vid=60bb8ba5-396a-42c6-a39d-ec6237392067","ios":"levelo://app?vid=60bb8ba5-396a-42c6-a39d-ec6237392067"},"vehicle_type_id":"4","last_reported":1730992113,"current_range_meters":35600,"station_id":"cpo3532slgdg3j2ikp40","pricing_plan_id":"cebpf4jnsgd1na2vs0mg"},{"bike_id":"f5d4c6ea-877f-4565-b083-45be9ec21b21","system_id":"levelo_inurba_marseille","lat":43.32489,"lon":5.36589,"is_reserved":false,"is_disabled":false,"rental_uris":{"android":"levelo://app?vid=f5d4c6ea-877f-4565-b083-45be9ec21b21","ios":"levelo://app?vid=f5d4c6ea-877f-4565-b083-45be9ec21b21"},"vehicle_type_id":"4","last_reported":1730992113,"current_range_meters":11200,"station_id":"ce4bhs12rcd13ifvqhvg","pricing_plan_id":"cebpf4jnsgd1na2vs0mg"},{"bike_id":"794c21bb-2dc9-433c-bf5d-8d6b934201ad","system_id":"levelo_inurba_marseille","lat":43.2408,"lon":5.37754,"is_reserved":false,"is_disabled":false,"rental_uris":{"android":"levelo://app?vid=794c21bb-2dc9-433c-bf5d-8d6b934201ad","ios":"levelo://app?vid=794c21bb-2dc9-433c-bf5d-8d6b934201ad"},"vehicle_type_id":"4","last_reported":1730992113,"current_range_meters":24800,"station_id":"ce4bhnp2rcd13ifvqgvg","pricing_plan_id":"cebpf4jnsgd1na2vs0mg"},{"bike_id":"3232343b-b00a-47b1-9de8-95cc6580cbfa","system_id":"levelo_inurba_marseille","lat":43.2293,"lon":5.35376,"is_reserved":false,"is_disabled":false,"rental_uris":{"android":"levelo://app?vid=3232343b-b00a-47b1-9de8-95cc6580cbfa","ios":"levelo://app?vid=3232343b-b00a-47b1-9de8-95cc6580cbfa"},"vehicle_type_id":"4","last_reported":1730992113,"current_range_meters":30400,"station_id":"cpo3532slgdg3j2ikp40","pricing_plan_id":"cebpf4jnsgd1na2vs0mg"},{"bike_id":"adbc8c8b-9f43-4e12-8a65-7f3a249b9e70","system_id":"levelo_inurba_marseille","lat":43.251129,"lon":5.403222,"is_reserved":false,"is_disabled":false,"rental_uris":{"android":"levelo://app?vid=adbc8c8b-9f43-4e12-8a65-7f3a249b9e70","ios":"levelo://app?vid=adbc8c8b-9f43-4e12-8a65-7f3a249b9e70"},"vehicle_type_id":"4","last_reported":1730992113,"current_range_meters":24800,"station_id":"ce4bhlh2rcd13ifvqgig","pricing_plan_id":"cebpf4jnsgd1na2vs0mg"},{"bike_id":"9498e2cc-ce8b-45ee-9fab-586def0c78a3","system_id":"levelo_inurba_marseille","lat":43.29784,"lon":5.39348,"is_reserved":false,"is_disabled":false,"rental_uris":{"android":"levelo://app?vid=9498e2cc-ce8b-45ee-9fab-586def0c78a3","ios":"levelo://app?vid=9498e2cc-ce8b-45ee-9fab-586def0c78a3"},"vehicle_type_id":"4","last_reported":1730992113,"current_range_meters":8400,"station_id":"chh1huq6cuj3fo74tm60","pricing_plan_id":"cebpf4jnsgd1na2vs0mg"},{"bike_id":"44f25fbd-5119-4440-bd4c-c4253caacb2c","system_id":"levelo_inurba_marseille","lat":43.3014,"lon":5.381,"is_reserved":false,"is_disabled":false,"rental_uris":{"android":"levelo://app?vid=44f25fbd-5119-4440-bd4c-c4253caacb2c","ios":"levelo://app?vid=44f25fbd-5119-4440-bd4c-c4253caacb2c"},"vehicle_type_id":"4","last_reported":1730992113,"current_range_meters":16400,"station_id":"ce4bgjp2rcd13ifvqbh0","pricing_plan_id":"cebpf4jnsgd1na2vs0mg"},{"bike_id":"90b201dc-f5b9-4d3d-a624-d8c47fbf7abb","system_id":"levelo_inurba_marseille","lat":43.28939,"lon":5.39635,"is_reserved":false,"is_disabled":false,"rental_uris":{"android":"levelo://app?vid=90b201dc-f5b9-4d3d-a624-d8c47fbf7abb","ios":"levelo://app?vid=90b201dc-f5b9-4d3d-a624-d8c47fbf7abb"},"vehicle_type_id":"4","last_reported":1730992113,"current_range_meters":39200,"station_id":"ce4bh3h2rcd13ifvqdn0","pricing_plan_id":"cebpf4jnsgd1na2vs0mg"},{"bike_id":"94a07fe0-b14a-4434-8f2d-cf6c42444664","system_id":"levelo_inurba_marseille","lat":43.2791,"lon":5.38018,"is_reserved":false,"is_disabled":false,"rental_uris":{"android":"levelo://app?vid=94a07fe0-b14a-4434-8f2d-cf6c42444664","ios":"levelo://app?vid=94a07fe0-b14a-4434-8f2d-cf6c42444664"},"vehicle_type_id":"4","last_reported":1730992113,"current_range_meters":30400,"station_id":"ce4bhf92rcd13ifvqf50","pricing_plan_id":"cebpf4jnsgd1na2vs0mg"},{"bike_id":"7bb61d2b-5282-43a2-83b9-044d9359fb57","system_id":"levelo_inurba_marseille","lat":43.25929,"lon":5.40912,"is_reserved":false,"is_disabled":false,"rental_uris":{"android":"levelo://app?vid=7bb61d2b-5282-43a2-83b9-044d9359fb57","ios":"levelo://app?vid=7bb61d2b-5282-43a2-83b9-044d9359fb57"},"vehicle_type_id":"4","last_reported":1730992113,"current_range_meters":34000,"station_id":"ce4bhm92rcd13ifvqglg","pricing_plan_id":"cebpf4jnsgd1na2vs0mg"},{"bike_id":"d46fc949-017c-4337-a007-b5f9f19a0bfa","system_id":"levelo_inurba_marseille","lat":43.337444,"lon":5.374475,"is_reserved":false,"is_disabled":false,"rental_uris":{"android":"levelo://app?vid=d46fc949-017c-4337-a007-b5f9f19a0bfa","ios":"levelo://app?vid=d46fc949-017c-4337-a007-b5f9f19a0bfa"},"vehicle_type_id":"4","last_reported":1730992113,"current_range_meters":34000,"station_id":"","pricing_plan_id":"cebpf4jnsgd1na2vs0mg"},{"bike_id":"6ed84353-9cb2-4bda-97cb-df8837951be7","system_id":"levelo_inurba_marseille","lat":43.29846,"lon":5.36275,"is_reserved":false,"is_disabled":false,"rental_uris":{"android":"levelo://app?vid=6ed84353-9cb2-4bda-97cb-df8837951be7","ios":"levelo://app?vid=6ed84353-9cb2-4bda-97cb-df8837951be7"},"vehicle_type_id":"4","last_reported":1730992113,"current_range_meters":39200,"station_id":"ce4bgpp2rcd13ifvqc3g","pricing_plan_id":"cebpf4jnsgd1na2vs0mg"},{"bike_id":"96c28fb7-d06d-4d18-bbb6-313189f7ba7e","system_id":"levelo_inurba_marseille","lat":43.284776,"lon":5.385906,"is_reserved":false,"is_disabled":false,"rental_uris":{"android":"levelo://app?vid=96c28fb7-d06d-4d18-bbb6-313189f7ba7e","ios":"levelo://app?vid=96c28fb7-d06d-4d18-bbb6-313189f7ba7e"},"vehicle_type_id":"4","last_reported":1730992113,"current_range_meters":29600,"station_id":"ce4bh8p2rcd13ifvqeb0","pricing_plan_id":"cebpf4jnsgd1na2vs0mg"},{"bike_id":"8703f5ba-925d-47e2-b8db-dff21b44ae2e","system_id":"levelo_inurba_marseille","lat":43.24667,"lon":5.38176,"is_reserved":false,"is_disabled":false,"rental_uris":{"android":"levelo://app?vid=8703f5ba-925d-47e2-b8db-dff21b44ae2e","ios":"levelo://app?vid=8703f5ba-925d-47e2-b8db-dff21b44ae2e"},"vehicle_type_id":"4","last_reported":1730992113,"current_range_meters":17200,"station_id":"ce4bhih2rcd13ifvqfr0","pricing_plan_id":"cebpf4jnsgd1na2vs0mg"},{"bike_id":"5fa9ccce-5ebb-4227-9140-b9d346465314","system_id":"levelo_inurba_marseille","lat":43.27073,"lon":5.42285,"is_reserved":false,"is_disabled":false,"rental_uris":{"android":"levelo://app?vid=5fa9ccce-5ebb-4227-9140-b9d346465314","ios":"levelo://app?vid=5fa9ccce-5ebb-4227-9140-b9d346465314"},"vehicle_type_id":"4","last_reported":1730992113,"current_range_meters":20400,"station_id":"ce4bhk92rcd13ifvqgb0","pricing_plan_id":"cebpf4jnsgd1na2vs0mg"},{"bike_id":"11c583bf-96d3-444d-b5fa-aeb9b24c7a37","system_id":"levelo_inurba_marseille","lat":43.30416,"lon":5.39769,"is_reserved":false,"is_disabled":false,"rental_uris":{"android":"levelo://app?vid=11c583bf-96d3-444d-b5fa-aeb9b24c7a37","ios":"levelo://app?vid=11c583bf-96d3-444d-b5fa-aeb9b24c7a37"},"vehicle_type_id":"4","last_reported":1730992113,"current_range_meters":36800,"station_id":"ce4bh092rcd13ifvqd20","pricing_plan_id":"cebpf4jnsgd1na2vs0mg"},{"bike_id":"70d67e8b-cf90-41d7-a359-ddc74e8f5edf","system_id":"levelo_inurba_marseille","lat":43.25933,"lon":5.40908,"is_reserved":false,"is_disabled":false,"rental_uris":{"android":"levelo://app?vid=70d67e8b-cf90-41d7-a359-ddc74e8f5edf","ios":"levelo://app?vid=70d67e8b-cf90-41d7-a359-ddc74e8f5edf"},"vehicle_type_id":"4","last_reported":1730992113,"current_range_meters":16000,"station_id":"ce4bhm92rcd13ifvqglg","pricing_plan_id":"cebpf4jnsgd1na2vs0mg"},{"bike_id":"cc4f8e73-1fc8-486a-9d69-f37a20e066c4","system_id":"levelo_inurba_marseille","lat":43.25084,"lon":5.39526,"is_reserved":false,"is_disabled":false,"rental_uris":{"android":"levelo://app?vid=cc4f8e73-1fc8-486a-9d69-f37a20e066c4","ios":"levelo://app?vid=cc4f8e73-1fc8-486a-9d69-f37a20e066c4"},"vehicle_type_id":"4","last_reported":1730992113,"current_range_meters":22400,"station_id":"ce4bhm12rcd13ifvqgkg","pricing_plan_id":"cebpf4jnsgd1na2vs0mg"},{"bike_id":"7148e5a3-e345-4df8-9602-6c428d6f2779","system_id":"levelo_inurba_marseille","lat":43.2667,"lon":5.40289,"is_reserved":false,"is_disabled":false,"rental_uris":{"android":"levelo://app?vid=7148e5a3-e345-4df8-9602-6c428d6f2779","ios":"levelo://app?vid=7148e5a3-e345-4df8-9602-6c428d6f2779"},"vehicle_type_id":"4","last_reported":1730992113,"current_range_meters":15200,"station_id":"","pricing_plan_id":"cebpf4jnsgd1na2vs0mg"},{"bike_id":"3121c89d-99b7-4b80-9ad2-1e3727583f2f","system_id":"levelo_inurba_marseille","lat":43.25826,"lon":5.39441,"is_reserved":false,"is_disabled":false,"rental_uris":{"android":"levelo://app?vid=3121c89d-99b7-4b80-9ad2-1e3727583f2f","ios":"levelo://app?vid=3121c89d-99b7-4b80-9ad2-1e3727583f2f"},"vehicle_type_id":"4","last_reported":1730992113,"current_range_meters":27200,"station_id":"ce4bhip2rcd13ifvqft0","pricing_plan_id":"cebpf4jnsgd1na2vs0mg"},{"bike_id":"bbde159d-771c-477e-9cb9-0b5767d2e088","system_id":"levelo_inurba_marseille","lat":43.31491,"lon":5.37312,"is_reserved":false,"is_disabled":false,"rental_uris":{"android":"levelo://app?vid=bbde159d-771c-477e-9cb9-0b5767d2e088","ios":"levelo://app?vid=bbde159d-771c-477e-9cb9-0b5767d2e088"},"vehicle_type_id":"4","last_reported":1730992113,"current_range_meters":10800,"station_id":"ce4bgt12rcd13ifvqcd0","pricing_plan_id":"cebpf4jnsgd1na2vs0mg"},{"bike_id":"84e9b449-261e-40d9-b4a3-e93ed9e31828","system_id":"levelo_inurba_marseille","lat":43.25865,"lon":5.39896,"is_reserved":false,"is_disabled":false,"rental_uris":{"android":"levelo://app?vid=84e9b449-261e-40d9-b4a3-e93ed9e31828","ios":"levelo://app?vid=84e9b449-261e-40d9-b4a3-e93ed9e31828"},"vehicle_type_id":"4","last_reported":1730992113,"current_range_meters":38800,"station_id":"ce4bhl92rcd13ifvqghg","pricing_plan_id":"cebpf4jnsgd1na2vs0mg"},{"bike_id":"91357ec5-e19c-400a-bc36-9c8649363897","system_id":"levelo_inurba_marseille","lat":43.27671,"lon":5.38036,"is_reserved":false,"is_disabled":false,"rental_uris":{"android":"levelo://app?vid=91357ec5-e19c-400a-bc36-9c8649363897","ios":"levelo://app?vid=91357ec5-e19c-400a-bc36-9c8649363897"},"vehicle_type_id":"4","last_reported":1730992113,"current_range_meters":8000,"station_id":"","pricing_plan_id":"cebpf4jnsgd1na2vs0mg"},{"bike_id":"ebe24ed0-22ef-4108-8346-d144ddd06aac","system_id":"levelo_inurba_marseille","lat":43.33713,"lon":5.39197,"is_reserved":false,"is_disabled":false,"rental_uris":{"android":"levelo://app?vid=ebe24ed0-22ef-4108-8346-d144ddd06aac","ios":"levelo://app?vid=ebe24ed0-22ef-4108-8346-d144ddd06aac"},"vehicle_type_id":"4","last_reported":1730992113,"current_range_meters":38800,"station_id":"ce4bhr92rcd13ifvqhsg","pricing_plan_id":"cebpf4jnsgd1na2vs0mg"},{"bike_id":"b1f3397f-f570-4eb6-8c3d-8bdead03fdae","system_id":"levelo_inurba_marseille","lat":43.24074,"lon":5.37759,"is_reserved":false,"is_disabled":false,"rental_uris":{"android":"levelo://app?vid=b1f3397f-f570-4eb6-8c3d-8bdead03fdae","ios":"levelo://app?vid=b1f3397f-f570-4eb6-8c3d-8bdead03fdae"},"vehicle_type_id":"4","last_reported":1730992113,"current_range_meters":24000,"station_id":"ce4bhnp2rcd13ifvqgvg","pricing_plan_id":"cebpf4jnsgd1na2vs0mg"},{"bike_id":"5205fbf7-8d59-4be8-bf69-1e6422de7447","system_id":"levelo_inurba_marseille","lat":43.30908,"lon":5.36855,"is_reserved":false,"is_disabled":false,"rental_uris":{"android":"levelo://app?vid=5205fbf7-8d59-4be8-bf69-1e6422de7447","ios":"levelo://app?vid=5205fbf7-8d59-4be8-bf69-1e6422de7447"},"vehicle_type_id":"4","last_reported":1730992113,"current_range_meters":6800,"station_id":"ce4bgn92rcd13ifvqbvg","pricing_plan_id":"cebpf4jnsgd1na2vs0mg"},{"bike_id":"cb0ff2cc-ff1a-49a6-b8fb-f55be74a223d","system_id":"levelo_inurba_marseille","lat":43.30561,"lon":5.36548,"is_reserved":false,"is_disabled":false,"rental_uris":{"android":"levelo://app?vid=cb0ff2cc-ff1a-49a6-b8fb-f55be74a223d","ios":"levelo://app?vid=cb0ff2cc-ff1a-49a6-b8fb-f55be74a223d"},"vehicle_type_id":"4","last_reported":1730992113,"current_range_meters":31200,"station_id":"ce4bgs12rcd13ifvqcag","pricing_plan_id":"cebpf4jnsgd1na2vs0mg"},{"bike_id":"8346dfe6-8142-4680-bca7-99cf1792a7fb","system_id":"levelo_inurba_marseille","lat":43.24654,"lon":5.38899,"is_reserved":false,"is_disabled":false,"rental_uris":{"android":"levelo://app?vid=8346dfe6-8142-4680-bca7-99cf1792a7fb","ios":"levelo://app?vid=8346dfe6-8142-4680-bca7-99cf1792a7fb"},"vehicle_type_id":"4","last_reported":1730992113,"current_range_meters":39200,"station_id":"ce4bhg12rcd13ifvqf60","pricing_plan_id":"cebpf4jnsgd1na2vs0mg"},{"bike_id":"37eaf67f-5086-4cae-8bc7-f166793f7f59","system_id":"levelo_inurba_marseille","lat":43.31161,"lon":5.38724,"is_reserved":false,"is_disabled":false,"rental_uris":{"android":"levelo://app?vid=37eaf67f-5086-4cae-8bc7-f166793f7f59","ios":"levelo://app?vid=37eaf67f-5086-4cae-8bc7-f166793f7f59"},"vehicle_type_id":"4","last_reported":1730992113,"current_range_meters":38800,"station_id":"ce4bgv12rcd13ifvqcp0","pricing_plan_id":"cebpf4jnsgd1na2vs0mg"},{"bike_id":"b1c33bde-6b17-4bc2-a8bb-0a21f49eb9bf","system_id":"levelo_inurba_marseille","lat":43.31996,"lon":5.38184,"is_reserved":false,"is_disabled":false,"rental_uris":{"android":"levelo://app?vid=b1c33bde-6b17-4bc2-a8bb-0a21f49eb9bf","ios":"levelo://app?vid=b1c33bde-6b17-4bc2-a8bb-0a21f49eb9bf"},"vehicle_type_id":"4","last_reported":1730992113,"current_range_meters":11200,"station_id":"ce4bhr12rcd13ifvqhpg","pricing_plan_id":"cebpf4jnsgd1na2vs0mg"},{"bike_id":"73ddab19-f3bf-49d8-9a14-da51e0ed8f6c","system_id":"levelo_inurba_marseille","lat":43.23147,"lon":5.43732,"is_reserved":false,"is_disabled":false,"rental_uris":{"android":"levelo://app?vid=73ddab19-f3bf-49d8-9a14-da51e0ed8f6c","ios":"levelo://app?vid=73ddab19-f3bf-49d8-9a14-da51e0ed8f6c"},"vehicle_type_id":"4","last_reported":1730992113,"current_range_meters":38800,"station_id":"ce4bhmp2rcd13ifvqgog","pricing_plan_id":"cebpf4jnsgd1na2vs0mg"},{"bike_id":"f0d1b9ac-da98-4bd1-ad76-bc14c02e09a4","system_id":"levelo_inurba_marseille","lat":43.30349,"lon":5.4189,"is_reserved":false,"is_disabled":false,"rental_uris":{"android":"levelo://app?vid=f0d1b9ac-da98-4bd1-ad76-bc14c02e09a4","ios":"levelo://app?vid=f0d1b9ac-da98-4bd1-ad76-bc14c02e09a4"},"vehicle_type_id":"4","last_reported":1730992113,"current_range_meters":23200,"station_id":"ce4bhop2rcd13ifvqh7g","pricing_plan_id":"cebpf4jnsgd1na2vs0mg"},{"bike_id":"207ed067-29d8-4a8f-b9f3-0849ce579f81","system_id":"levelo_inurba_marseille","lat":43.33025,"lon":5.39046,"is_reserved":false,"is_disabled":false,"rental_uris":{"android":"levelo://app?vid=207ed067-29d8-4a8f-b9f3-0849ce579f81","ios":"levelo://app?vid=207ed067-29d8-4a8f-b9f3-0849ce579f81"},"vehicle_type_id":"4","last_reported":1730992113,"current_range_meters":27200,"station_id":"ce4bhr92rcd13ifvqhrg","pricing_plan_id":"cebpf4jnsgd1na2vs0mg"},{"bike_id":"91664c01-db8c-4167-9a28-397b019b0879","system_id":"levelo_inurba_marseille","lat":43.25496,"lon":5.3765,"is_reserved":false,"is_disabled":false,"rental_uris":{"android":"levelo://app?vid=91664c01-db8c-4167-9a28-397b019b0879","ios":"levelo://app?vid=91664c01-db8c-4167-9a28-397b019b0879"},"vehicle_type_id":"4","last_reported":1730992113,"current_range_meters":32000,"station_id":"ce4bhh12rcd13ifvqff0","pricing_plan_id":"cebpf4jnsgd1na2vs0mg"},{"bike_id":"c54d8938-bd66-4746-8397-6468d0e45158","system_id":"levelo_inurba_marseille","lat":43.30803,"lon":5.43525,"is_reserved":false,"is_disabled":false,"rental_uris":{"android":"levelo://app?vid=c54d8938-bd66-4746-8397-6468d0e45158","ios":"levelo://app?vid=c54d8938-bd66-4746-8397-6468d0e45158"},"vehicle_type_id":"4","last_reported":1730992113,"current_range_meters":16000,"station_id":"ce4bhph2rcd13ifvqheg","pricing_plan_id":"cebpf4jnsgd1na2vs0mg"},{"bike_id":"9d696f74-b98f-4b00-9f07-06ed4abe3915","system_id":"levelo_inurba_marseille","lat":43.24081,"lon":5.37748,"is_reserved":false,"is_disabled":false,"rental_uris":{"android":"levelo://app?vid=9d696f74-b98f-4b00-9f07-06ed4abe3915","ios":"levelo://app?vid=9d696f74-b98f-4b00-9f07-06ed4abe3915"},"vehicle_type_id":"4","last_reported":1730992113,"current_range_meters":30800,"station_id":"ce4bhnp2rcd13ifvqgvg","pricing_plan_id":"cebpf4jnsgd1na2vs0mg"},{"bike_id":"95ac8b55-d461-4c79-bf07-3deece0b5544","system_id":"levelo_inurba_marseille","lat":43.337444,"lon":5.374475,"is_reserved":false,"is_disabled":false,"rental_uris":{"android":"levelo://app?vid=95ac8b55-d461-4c79-bf07-3deece0b5544","ios":"levelo://app?vid=95ac8b55-d461-4c79-bf07-3deece0b5544"},"vehicle_type_id":"4","last_reported":1730992113,"current_range_meters":36800,"station_id":"","pricing_plan_id":"cebpf4jnsgd1na2vs0mg"},{"bike_id":"f350266a-d6ca-4400-be04-6f121a628d37","system_id":"levelo_inurba_marseille","lat":43.28855,"lon":5.39309,"is_reserved":false,"is_disabled":false,"rental_uris":{"android":"levelo://app?vid=f350266a-d6ca-4400-be04-6f121a628d37","ios":"levelo://app?vid=f350266a-d6ca-4400-be04-6f121a628d37"},"vehicle_type_id":"4","last_reported":1730992113,"current_range_meters":10000,"station_id":"ce4bh2p2rcd13ifvqdi0","pricing_plan_id":"cebpf4jnsgd1na2vs0mg"},{"bike_id":"f653ebca-ff32-4f7c-9fdc-b2ad9381391e","system_id":"levelo_inurba_marseille","lat":43.24077,"lon":5.37752,"is_reserved":false,"is_disabled":false,"rental_uris":{"android":"levelo://app?vid=f653ebca-ff32-4f7c-9fdc-b2ad9381391e","ios":"levelo://app?vid=f653ebca-ff32-4f7c-9fdc-b2ad9381391e"},"vehicle_type_id":"4","last_reported":1730992113,"current_range_meters":28400,"station_id":"ce4bhnp2rcd13ifvqgvg","pricing_plan_id":"cebpf4jnsgd1na2vs0mg"},{"bike_id":"2e20f2a1-b564-48ea-877a-8fba77b4c953","system_id":"levelo_inurba_marseille","lat":43.22926,"lon":5.35376,"is_reserved":false,"is_disabled":false,"rental_uris":{"android":"levelo://app?vid=2e20f2a1-b564-48ea-877a-8fba77b4c953","ios":"levelo://app?vid=2e20f2a1-b564-48ea-877a-8fba77b4c953"},"vehicle_type_id":"4","last_reported":1730992113,"current_range_meters":36400,"station_id":"cpo3532slgdg3j2ikp40","pricing_plan_id":"cebpf4jnsgd1na2vs0mg"},{"bike_id":"3ecf2d5a-ab5a-4a0e-8f6e-a2b49719af22","system_id":"levelo_inurba_marseille","lat":43.24177,"lon":5.39736,"is_reserved":false,"is_disabled":false,"rental_uris":{"android":"levelo://app?vid=3ecf2d5a-ab5a-4a0e-8f6e-a2b49719af22","ios":"levelo://app?vid=3ecf2d5a-ab5a-4a0e-8f6e-a2b49719af22"},"vehicle_type_id":"4","last_reported":1730992113,"current_range_meters":10800,"station_id":"ce4bhn12rcd13ifvqgpg","pricing_plan_id":"cebpf4jnsgd1na2vs0mg"},{"bike_id":"e96a0000-4c65-4389-84e3-72bb9e3f1a77","system_id":"levelo_inurba_marseille","lat":43.2418,"lon":5.39726,"is_reserved":false,"is_disabled":false,"rental_uris":{"android":"levelo://app?vid=e96a0000-4c65-4389-84e3-72bb9e3f1a77","ios":"levelo://app?vid=e96a0000-4c65-4389-84e3-72bb9e3f1a77"},"vehicle_type_id":"4","last_reported":1730992113,"current_range_meters":8400,"station_id":"ce4bhn12rcd13ifvqgpg","pricing_plan_id":"cebpf4jnsgd1na2vs0mg"},{"bike_id":"4df686f7-8cdc-4be1-bac7-404bbaea22b8","system_id":"levelo_inurba_marseille","lat":43.239612,"lon":5.366379,"is_reserved":false,"is_disabled":false,"rental_uris":{"android":"levelo://app?vid=4df686f7-8cdc-4be1-bac7-404bbaea22b8","ios":"levelo://app?vid=4df686f7-8cdc-4be1-bac7-404bbaea22b8"},"vehicle_type_id":"4","last_reported":1730992113,"current_range_meters":22000,"station_id":"ce4bhi12rcd13ifvqfp0","pricing_plan_id":"cebpf4jnsgd1na2vs0mg"},{"bike_id":"f6be9b35-e22b-47f5-afe1-1f886e398857","system_id":"levelo_inurba_marseille","lat":43.24079,"lon":5.37743,"is_reserved":false,"is_disabled":false,"rental_uris":{"android":"levelo://app?vid=f6be9b35-e22b-47f5-afe1-1f886e398857","ios":"levelo://app?vid=f6be9b35-e22b-47f5-afe1-1f886e398857"},"vehicle_type_id":"4","last_reported":1730992113,"current_range_meters":38800,"station_id":"ce4bhnp2rcd13ifvqgvg","pricing_plan_id":"cebpf4jnsgd1na2vs0mg"},{"bike_id":"4b852cdc-2f3c-4e32-8df6-f64e880d4054","system_id":"levelo_inurba_marseille","lat":43.30643,"lon":5.40103,"is_reserved":false,"is_disabled":false,"rental_uris":{"android":"levelo://app?vid=4b852cdc-2f3c-4e32-8df6-f64e880d4054","ios":"levelo://app?vid=4b852cdc-2f3c-4e32-8df6-f64e880d4054"},"vehicle_type_id":"4","last_reported":1730992113,"current_range_meters":30000,"station_id":"ce4bh112rcd13ifvqda0","pricing_plan_id":"cebpf4jnsgd1na2vs0mg"},{"bike_id":"e3ee10fb-8b83-41c1-b250-bb9136e88156","system_id":"levelo_inurba_marseille","lat":43.24096,"lon":5.37752,"is_reserved":false,"is_disabled":false,"rental_uris":{"android":"levelo://app?vid=e3ee10fb-8b83-41c1-b250-bb9136e88156","ios":"levelo://app?vid=e3ee10fb-8b83-41c1-b250-bb9136e88156"},"vehicle_type_id":"4","last_reported":1730992113,"current_range_meters":20000,"station_id":"ce4bhnp2rcd13ifvqgvg","pricing_plan_id":"cebpf4jnsgd1na2vs0mg"},{"bike_id":"7cce6816-4690-418b-99b6-346ea176f531","system_id":"levelo_inurba_marseille","lat":43.28713,"lon":5.37949,"is_reserved":false,"is_disabled":false,"rental_uris":{"android":"levelo://app?vid=7cce6816-4690-418b-99b6-346ea176f531","ios":"levelo://app?vid=7cce6816-4690-418b-99b6-346ea176f531"},"vehicle_type_id":"4","last_reported":1730992113,"current_range_meters":22800,"station_id":"ce4bh9p2rcd13ifvqec0","pricing_plan_id":"cebpf4jnsgd1na2vs0mg"},{"bike_id":"84c10ecf-fd70-42a4-91a9-a3bf7b0dfb61","system_id":"levelo_inurba_marseille","lat":43.29787,"lon":5.38131,"is_reserved":false,"is_disabled":false,"rental_uris":{"android":"levelo://app?vid=84c10ecf-fd70-42a4-91a9-a3bf7b0dfb61","ios":"levelo://app?vid=84c10ecf-fd70-42a4-91a9-a3bf7b0dfb61"},"vehicle_type_id":"4","last_reported":1730992113,"current_range_meters":12400,"station_id":"ce4bgip2rcd13ifvqbb0","pricing_plan_id":"cebpf4jnsgd1na2vs0mg"},{"bike_id":"2dc86f12-fa26-49ea-a915-83215bd8674f","system_id":"levelo_inurba_marseille","lat":43.30593,"lon":5.37225,"is_reserved":false,"is_disabled":false,"rental_uris":{"android":"levelo://app?vid=2dc86f12-fa26-49ea-a915-83215bd8674f","ios":"levelo://app?vid=2dc86f12-fa26-49ea-a915-83215bd8674f"},"vehicle_type_id":"4","last_reported":1730992113,"current_range_meters":11200,"station_id":"ce4bgqh2rcd13ifvqc4g","pricing_plan_id":"cebpf4jnsgd1na2vs0mg"},{"bike_id":"620097c6-db9b-4367-9277-9374ed11e7a1","system_id":"levelo_inurba_marseille","lat":43.3171,"lon":5.42411,"is_reserved":false,"is_disabled":false,"rental_uris":{"android":"levelo://app?vid=620097c6-db9b-4367-9277-9374ed11e7a1","ios":"levelo://app?vid=620097c6-db9b-4367-9277-9374ed11e7a1"},"vehicle_type_id":"4","last_reported":1730992113,"current_range_meters":31200,"station_id":"ce4bhp92rcd13ifvqhbg","pricing_plan_id":"cebpf4jnsgd1na2vs0mg"},{"bike_id":"48032328-874c-4774-9dfd-90bdc8cf45a5","system_id":"levelo_inurba_marseille","lat":43.297363,"lon":5.368869,"is_reserved":false,"is_disabled":false,"rental_uris":{"android":"levelo://app?vid=48032328-874c-4774-9dfd-90bdc8cf45a5","ios":"levelo://app?vid=48032328-874c-4774-9dfd-90bdc8cf45a5"},"vehicle_type_id":"4","last_reported":1730992113,"current_range_meters":9200,"station_id":"ce4bgn12rcd13ifvqbt0","pricing_plan_id":"cebpf4jnsgd1na2vs0mg"},{"bike_id":"ceaab78a-955a-4d6d-9f7b-b1d0d436744f","system_id":"levelo_inurba_marseille","lat":43.29966,"lon":5.38499,"is_reserved":false,"is_disabled":false,"rental_uris":{"android":"levelo://app?vid=ceaab78a-955a-4d6d-9f7b-b1d0d436744f","ios":"levelo://app?vid=ceaab78a-955a-4d6d-9f7b-b1d0d436744f"},"vehicle_type_id":"4","last_reported":1730992113,"current_range_meters":30800,"station_id":"ce4bgj92rcd13ifvqbd0","pricing_plan_id":"cebpf4jnsgd1na2vs0mg"},{"bike_id":"746f8df5-cd38-4c92-9c55-a49257706bc6","system_id":"levelo_inurba_marseille","lat":43.31325,"lon":5.39689,"is_reserved":false,"is_disabled":false,"rental_uris":{"android":"levelo://app?vid=746f8df5-cd38-4c92-9c55-a49257706bc6","ios":"levelo://app?vid=746f8df5-cd38-4c92-9c55-a49257706bc6"},"vehicle_type_id":"4","last_reported":1730992113,"current_range_meters":38800,"station_id":"ce4bgvp2rcd13ifvqcu0","pricing_plan_id":"cebpf4jnsgd1na2vs0mg"},{"bike_id":"4e8fcbce-f083-4199-9acc-59a900a6e69a","system_id":"levelo_inurba_marseille","lat":43.30597,"lon":5.39363,"is_reserved":false,"is_disabled":false,"rental_uris":{"android":"levelo://app?vid=4e8fcbce-f083-4199-9acc-59a900a6e69a","ios":"levelo://app?vid=4e8fcbce-f083-4199-9acc-59a900a6e69a"},"vehicle_type_id":"4","last_reported":1730992113,"current_range_meters":38800,"station_id":"ce4bh0p2rcd13ifvqd80","pricing_plan_id":"cebpf4jnsgd1na2vs0mg"},{"bike_id":"e41e5be4-c508-4d61-b847-98292c01416f","system_id":"levelo_inurba_marseille","lat":43.24093,"lon":5.37747,"is_reserved":false,"is_disabled":false,"rental_uris":{"android":"levelo://app?vid=e41e5be4-c508-4d61-b847-98292c01416f","ios":"levelo://app?vid=e41e5be4-c508-4d61-b847-98292c01416f"},"vehicle_type_id":"4","last_reported":1730992113,"current_range_meters":32800,"station_id":"ce4bhnp2rcd13ifvqgvg","pricing_plan_id":"cebpf4jnsgd1na2vs0mg"},{"bike_id":"0a57082a-8d97-4f17-adaa-aaef95718db0","system_id":"levelo_inurba_marseille","lat":43.27999,"lon":5.40028,"is_reserved":false,"is_disabled":false,"rental_uris":{"android":"levelo://app?vid=0a57082a-8d97-4f17-adaa-aaef95718db0","ios":"levelo://app?vid=0a57082a-8d97-4f17-adaa-aaef95718db0"},"vehicle_type_id":"4","last_reported":1730992113,"current_range_meters":4400,"station_id":"ce4bho92rcd13ifvqh4g","pricing_plan_id":"cebpf4jnsgd1na2vs0mg"},{"bike_id":"80d5c89e-745d-46d6-9ab9-4f5ea40b6def","system_id":"levelo_inurba_marseille","lat":43.27175,"lon":5.40993,"is_reserved":false,"is_disabled":false,"rental_uris":{"android":"levelo://app?vid=80d5c89e-745d-46d6-9ab9-4f5ea40b6def","ios":"levelo://app?vid=80d5c89e-745d-46d6-9ab9-4f5ea40b6def"},"vehicle_type_id":"4","last_reported":1730992113,"current_range_meters":16000,"station_id":"ce4bhl12rcd13ifvqgf0","pricing_plan_id":"cebpf4jnsgd1na2vs0mg"},{"bike_id":"56724e01-9843-478f-9957-90072d770c6c","system_id":"levelo_inurba_marseille","lat":43.23192,"lon":5.35559,"is_reserved":false,"is_disabled":false,"rental_uris":{"android":"levelo://app?vid=56724e01-9843-478f-9957-90072d770c6c","ios":"levelo://app?vid=56724e01-9843-478f-9957-90072d770c6c"},"vehicle_type_id":"4","last_reported":1730992113,"current_range_meters":9600,"station_id":"ce4bhu92rcd13ifvqi70","pricing_plan_id":"cebpf4jnsgd1na2vs0mg"},{"bike_id":"ba81f366-ea79-4c3c-b173-d3b6978cafbf","system_id":"levelo_inurba_marseille","lat":43.296231,"lon":5.371751,"is_reserved":false,"is_disabled":false,"rental_uris":{"android":"levelo://app?vid=ba81f366-ea79-4c3c-b173-d3b6978cafbf","ios":"levelo://app?vid=ba81f366-ea79-4c3c-b173-d3b6978cafbf"},"vehicle_type_id":"4","last_reported":1730992113,"current_range_meters":38800,"station_id":"ce4bgnh2rcd13ifvqc0g","pricing_plan_id":"cebpf4jnsgd1na2vs0mg"},{"bike_id":"9044ed43-de46-4645-b2ad-5e136647239a","system_id":"levelo_inurba_marseille","lat":43.337444,"lon":5.374475,"is_reserved":false,"is_disabled":false,"rental_uris":{"android":"levelo://app?vid=9044ed43-de46-4645-b2ad-5e136647239a","ios":"levelo://app?vid=9044ed43-de46-4645-b2ad-5e136647239a"},"vehicle_type_id":"4","last_reported":1730992113,"current_range_meters":36400,"station_id":"","pricing_plan_id":"cebpf4jnsgd1na2vs0mg"},{"bike_id":"2133dfbe-49e8-4189-a0e7-2637129ed1cc","system_id":"levelo_inurba_marseille","lat":43.30153,"lon":5.38084,"is_reserved":false,"is_disabled":false,"rental_uris":{"android":"levelo://app?vid=2133dfbe-49e8-4189-a0e7-2637129ed1cc","ios":"levelo://app?vid=2133dfbe-49e8-4189-a0e7-2637129ed1cc"},"vehicle_type_id":"4","last_reported":1730992113,"current_range_meters":12000,"station_id":"ce4bgjp2rcd13ifvqbh0","pricing_plan_id":"cebpf4jnsgd1na2vs0mg"},{"bike_id":"cde33d01-4fdf-4588-9993-50576e545d63","system_id":"levelo_inurba_marseille","lat":43.29904,"lon":5.43678,"is_reserved":false,"is_disabled":false,"rental_uris":{"android":"levelo://app?vid=cde33d01-4fdf-4588-9993-50576e545d63","ios":"levelo://app?vid=cde33d01-4fdf-4588-9993-50576e545d63"},"vehicle_type_id":"4","last_reported":1730992113,"current_range_meters":33200,"station_id":"ce4bhpp2rcd13ifvqhfg","pricing_plan_id":"cebpf4jnsgd1na2vs0mg"},{"bike_id":"aa1b17f6-92bf-40ae-9475-ae4c96498ada","system_id":"levelo_inurba_marseille","lat":43.30289,"lon":5.37704,"is_reserved":false,"is_disabled":false,"rental_uris":{"android":"levelo://app?vid=aa1b17f6-92bf-40ae-9475-ae4c96498ada","ios":"levelo://app?vid=aa1b17f6-92bf-40ae-9475-ae4c96498ada"},"vehicle_type_id":"4","last_reported":1730992113,"current_range_meters":38000,"station_id":"ce4bguh2rcd13ifvqcj0","pricing_plan_id":"cebpf4jnsgd1na2vs0mg"},{"bike_id":"84d60574-e97d-416a-bb69-40e9fb469182","system_id":"levelo_inurba_marseille","lat":43.22928,"lon":5.35377,"is_reserved":false,"is_disabled":false,"rental_uris":{"android":"levelo://app?vid=84d60574-e97d-416a-bb69-40e9fb469182","ios":"levelo://app?vid=84d60574-e97d-416a-bb69-40e9fb469182"},"vehicle_type_id":"4","last_reported":1730992113,"current_range_meters":39200,"station_id":"cpo3532slgdg3j2ikp40","pricing_plan_id":"cebpf4jnsgd1na2vs0mg"},{"bike_id":"6677c91d-3e85-4d69-93bd-16eddf6f0c93","system_id":"levelo_inurba_marseille","lat":43.25866,"lon":5.39895,"is_reserved":false,"is_disabled":false,"rental_uris":{"android":"levelo://app?vid=6677c91d-3e85-4d69-93bd-16eddf6f0c93","ios":"levelo://app?vid=6677c91d-3e85-4d69-93bd-16eddf6f0c93"},"vehicle_type_id":"4","last_reported":1730992113,"current_range_meters":38800,"station_id":"ce4bhl92rcd13ifvqghg","pricing_plan_id":"cebpf4jnsgd1na2vs0mg"},{"bike_id":"88b4e360-4efe-461e-ad9f-fca545583511","system_id":"levelo_inurba_marseille","lat":43.24077,"lon":5.37761,"is_reserved":false,"is_disabled":false,"rental_uris":{"android":"levelo://app?vid=88b4e360-4efe-461e-ad9f-fca545583511","ios":"levelo://app?vid=88b4e360-4efe-461e-ad9f-fca545583511"},"vehicle_type_id":"4","last_reported":1730992113,"current_range_meters":12800,"station_id":"ce4bhnp2rcd13ifvqgvg","pricing_plan_id":"cebpf4jnsgd1na2vs0mg"},{"bike_id":"2fb91550-a5c2-40df-bbc7-d7385a2f7bcb","system_id":"levelo_inurba_marseille","lat":43.30786,"lon":5.3765,"is_reserved":false,"is_disabled":false,"rental_uris":{"android":"levelo://app?vid=2fb91550-a5c2-40df-bbc7-d7385a2f7bcb","ios":"levelo://app?vid=2fb91550-a5c2-40df-bbc7-d7385a2f7bcb"},"vehicle_type_id":"4","last_reported":1730992113,"current_range_meters":27200,"station_id":"ce4bgv92rcd13ifvqcq0","pricing_plan_id":"cebpf4jnsgd1na2vs0mg"},{"bike_id":"7ee938f5-5cb3-43de-9fdd-d1bcc674d87e","system_id":"levelo_inurba_marseille","lat":43.26939,"lon":5.40257,"is_reserved":false,"is_disabled":false,"rental_uris":{"android":"levelo://app?vid=7ee938f5-5cb3-43de-9fdd-d1bcc674d87e","ios":"levelo://app?vid=7ee938f5-5cb3-43de-9fdd-d1bcc674d87e"},"vehicle_type_id":"4","last_reported":1730992113,"current_range_meters":9200,"station_id":"cjm6bp8fraef2m0cb0m0","pricing_plan_id":"cebpf4jnsgd1na2vs0mg"},{"bike_id":"5174ae6b-73b7-4eb9-b82e-9c61c1f78ce8","system_id":"levelo_inurba_marseille","lat":43.31228,"lon":5.40606,"is_reserved":false,"is_disabled":false,"rental_uris":{"android":"levelo://app?vid=5174ae6b-73b7-4eb9-b82e-9c61c1f78ce8","ios":"levelo://app?vid=5174ae6b-73b7-4eb9-b82e-9c61c1f78ce8"},"vehicle_type_id":"4","last_reported":1730992113,"current_range_meters":16400,"station_id":"","pricing_plan_id":"cebpf4jnsgd1na2vs0mg"},{"bike_id":"c5177674-22e7-47dd-831e-46d0a1be8def","system_id":"levelo_inurba_marseille","lat":43.29192,"lon":5.35813,"is_reserved":false,"is_disabled":false,"rental_uris":{"android":"levelo://app?vid=c5177674-22e7-47dd-831e-46d0a1be8def","ios":"levelo://app?vid=c5177674-22e7-47dd-831e-46d0a1be8def"},"vehicle_type_id":"4","last_reported":1730992113,"current_range_meters":8000,"station_id":"ce4bhb12rcd13ifvqel0","pricing_plan_id":"cebpf4jnsgd1na2vs0mg"},{"bike_id":"42876d45-ee88-4cd2-8943-0c1dba7eecf8","system_id":"levelo_inurba_marseille","lat":43.30598,"lon":5.37218,"is_reserved":false,"is_disabled":false,"rental_uris":{"android":"levelo://app?vid=42876d45-ee88-4cd2-8943-0c1dba7eecf8","ios":"levelo://app?vid=42876d45-ee88-4cd2-8943-0c1dba7eecf8"},"vehicle_type_id":"4","last_reported":1730992113,"current_range_meters":21600,"station_id":"ce4bgqh2rcd13ifvqc4g","pricing_plan_id":"cebpf4jnsgd1na2vs0mg"},{"bike_id":"c3e27800-3ee3-4406-99ec-fa9ce1dee0ca","system_id":"levelo_inurba_marseille","lat":43.3054,"lon":5.36543,"is_reserved":false,"is_disabled":false,"rental_uris":{"android":"levelo://app?vid=c3e27800-3ee3-4406-99ec-fa9ce1dee0ca","ios":"levelo://app?vid=c3e27800-3ee3-4406-99ec-fa9ce1dee0ca"},"vehicle_type_id":"4","last_reported":1730992113,"current_range_meters":39200,"station_id":"ce4bgs12rcd13ifvqcag","pricing_plan_id":"cebpf4jnsgd1na2vs0mg"},{"bike_id":"198f67f3-24a9-4d19-bed7-14145d808d1a","system_id":"levelo_inurba_marseille","lat":43.26559,"lon":5.37284,"is_reserved":false,"is_disabled":false,"rental_uris":{"android":"levelo://app?vid=198f67f3-24a9-4d19-bed7-14145d808d1a","ios":"levelo://app?vid=198f67f3-24a9-4d19-bed7-14145d808d1a"},"vehicle_type_id":"4","last_reported":1730992113,"current_range_meters":3600,"station_id":"ce4bhg12rcd13ifvqf70","pricing_plan_id":"cebpf4jnsgd1na2vs0mg"},{"bike_id":"76733292-6685-4127-a6aa-dc0a61b373d8","system_id":"levelo_inurba_marseille","lat":43.23147,"lon":5.43716,"is_reserved":false,"is_disabled":false,"rental_uris":{"android":"levelo://app?vid=76733292-6685-4127-a6aa-dc0a61b373d8","ios":"levelo://app?vid=76733292-6685-4127-a6aa-dc0a61b373d8"},"vehicle_type_id":"4","last_reported":1730992113,"current_range_meters":36400,"station_id":"ce4bhmp2rcd13ifvqgog","pricing_plan_id":"cebpf4jnsgd1na2vs0mg"},{"bike_id":"e2c783ad-487e-476c-b5b2-a2d671f755e3","system_id":"levelo_inurba_marseille","lat":43.28855,"lon":5.39321,"is_reserved":false,"is_disabled":false,"rental_uris":{"android":"levelo://app?vid=e2c783ad-487e-476c-b5b2-a2d671f755e3","ios":"levelo://app?vid=e2c783ad-487e-476c-b5b2-a2d671f755e3"},"vehicle_type_id":"4","last_reported":1730992113,"current_range_meters":28800,"station_id":"ce4bh2p2rcd13ifvqdi0","pricing_plan_id":"cebpf4jnsgd1na2vs0mg"},{"bike_id":"99d376ba-42f0-4460-8777-ccadbc47157b","system_id":"levelo_inurba_marseille","lat":43.27997,"lon":5.41666,"is_reserved":false,"is_disabled":false,"rental_uris":{"android":"levelo://app?vid=99d376ba-42f0-4460-8777-ccadbc47157b","ios":"levelo://app?vid=99d376ba-42f0-4460-8777-ccadbc47157b"},"vehicle_type_id":"4","last_reported":1730992113,"current_range_meters":36400,"station_id":"ce4bho12rcd13ifvqh1g","pricing_plan_id":"cebpf4jnsgd1na2vs0mg"},{"bike_id":"b8910d2f-c46a-4446-9729-7ccac392e868","system_id":"levelo_inurba_marseille","lat":43.31327,"lon":5.39693,"is_reserved":false,"is_disabled":false,"rental_uris":{"android":"levelo://app?vid=b8910d2f-c46a-4446-9729-7ccac392e868","ios":"levelo://app?vid=b8910d2f-c46a-4446-9729-7ccac392e868"},"vehicle_type_id":"4","last_reported":1730992113,"current_range_meters":8800,"station_id":"ce4bgvp2rcd13ifvqcu0","pricing_plan_id":"cebpf4jnsgd1na2vs0mg"},{"bike_id":"85772bef-6852-46ab-906a-e533feeada03","system_id":"levelo_inurba_marseille","lat":43.26058,"lon":5.39405,"is_reserved":false,"is_disabled":false,"rental_uris":{"android":"levelo://app?vid=85772bef-6852-46ab-906a-e533feeada03","ios":"levelo://app?vid=85772bef-6852-46ab-906a-e533feeada03"},"vehicle_type_id":"4","last_reported":1730992113,"current_range_meters":38800,"station_id":"ce4bhh92rcd13ifvqfj0","pricing_plan_id":"cebpf4jnsgd1na2vs0mg"},{"bike_id":"b238edb0-638b-4a9b-8195-e66364c182a2","system_id":"levelo_inurba_marseille","lat":43.30258,"lon":5.40084,"is_reserved":false,"is_disabled":false,"rental_uris":{"android":"levelo://app?vid=b238edb0-638b-4a9b-8195-e66364c182a2","ios":"levelo://app?vid=b238edb0-638b-4a9b-8195-e66364c182a2"},"vehicle_type_id":"4","last_reported":1730992113,"current_range_meters":34000,"station_id":"ce4bgvh2rcd13ifvqcs0","pricing_plan_id":"cebpf4jnsgd1na2vs0mg"},{"bike_id":"04ef44b8-3488-470c-924e-84eba06e0507","system_id":"levelo_inurba_marseille","lat":43.29014,"lon":5.38141,"is_reserved":false,"is_disabled":false,"rental_uris":{"android":"levelo://app?vid=04ef44b8-3488-470c-924e-84eba06e0507","ios":"levelo://app?vid=04ef44b8-3488-470c-924e-84eba06e0507"},"vehicle_type_id":"4","last_reported":1730992113,"current_range_meters":19600,"station_id":"ce4bh4p2rcd13ifvqe1g","pricing_plan_id":"cebpf4jnsgd1na2vs0mg"},{"bike_id":"d619c91b-880c-4c6b-8f5a-fdbd568603fe","system_id":"levelo_inurba_marseille","lat":43.30604,"lon":5.37236,"is_reserved":false,"is_disabled":false,"rental_uris":{"android":"levelo://app?vid=d619c91b-880c-4c6b-8f5a-fdbd568603fe","ios":"levelo://app?vid=d619c91b-880c-4c6b-8f5a-fdbd568603fe"},"vehicle_type_id":"4","last_reported":1730992113,"current_range_meters":28000,"station_id":"ce4bgqh2rcd13ifvqc4g","pricing_plan_id":"cebpf4jnsgd1na2vs0mg"},{"bike_id":"f9b51361-1f59-4e32-8790-218894731a9c","system_id":"levelo_inurba_marseille","lat":43.23957,"lon":5.36645,"is_reserved":false,"is_disabled":false,"rental_uris":{"android":"levelo://app?vid=f9b51361-1f59-4e32-8790-218894731a9c","ios":"levelo://app?vid=f9b51361-1f59-4e32-8790-218894731a9c"},"vehicle_type_id":"4","last_reported":1730992113,"current_range_meters":38800,"station_id":"ce4bhi12rcd13ifvqfp0","pricing_plan_id":"cebpf4jnsgd1na2vs0mg"},{"bike_id":"d6fdae69-642e-4d84-a8fd-edeb75ed0ef4","system_id":"levelo_inurba_marseille","lat":43.22925,"lon":5.35374,"is_reserved":false,"is_disabled":false,"rental_uris":{"android":"levelo://app?vid=d6fdae69-642e-4d84-a8fd-edeb75ed0ef4","ios":"levelo://app?vid=d6fdae69-642e-4d84-a8fd-edeb75ed0ef4"},"vehicle_type_id":"4","last_reported":1730992113,"current_range_meters":27600,"station_id":"cpo3532slgdg3j2ikp40","pricing_plan_id":"cebpf4jnsgd1na2vs0mg"},{"bike_id":"9c67dc55-56be-48c5-a437-0348a5fc65cf","system_id":"levelo_inurba_marseille","lat":43.3204,"lon":5.41523,"is_reserved":false,"is_disabled":false,"rental_uris":{"android":"levelo://app?vid=9c67dc55-56be-48c5-a437-0348a5fc65cf","ios":"levelo://app?vid=9c67dc55-56be-48c5-a437-0348a5fc65cf"},"vehicle_type_id":"4","last_reported":1730992113,"current_range_meters":9200,"station_id":"ce4bhq92rcd13ifvqhkg","pricing_plan_id":"cebpf4jnsgd1na2vs0mg"},{"bike_id":"63056fe6-7959-4080-850d-ea31e98c0641","system_id":"levelo_inurba_marseille","lat":43.30319,"lon":5.40444,"is_reserved":false,"is_disabled":false,"rental_uris":{"android":"levelo://app?vid=63056fe6-7959-4080-850d-ea31e98c0641","ios":"levelo://app?vid=63056fe6-7959-4080-850d-ea31e98c0641"},"vehicle_type_id":"4","last_reported":1730992113,"current_range_meters":2800,"station_id":"ce4bh012rcd13ifvqd10","pricing_plan_id":"cebpf4jnsgd1na2vs0mg"},{"bike_id":"28ca97b7-b90f-43b5-b18c-1a6a39a52b07","system_id":"levelo_inurba_marseille","lat":43.23966,"lon":5.36634,"is_reserved":false,"is_disabled":false,"rental_uris":{"android":"levelo://app?vid=28ca97b7-b90f-43b5-b18c-1a6a39a52b07","ios":"levelo://app?vid=28ca97b7-b90f-43b5-b18c-1a6a39a52b07"},"vehicle_type_id":"4","last_reported":1730992113,"current_range_meters":38800,"station_id":"ce4bhi12rcd13ifvqfp0","pricing_plan_id":"cebpf4jnsgd1na2vs0mg"},{"bike_id":"002d6eac-5b9f-4884-911d-d21eb3f7c152","system_id":"levelo_inurba_marseille","lat":43.305378,"lon":5.36555,"is_reserved":false,"is_disabled":false,"rental_uris":{"android":"levelo://app?vid=002d6eac-5b9f-4884-911d-d21eb3f7c152","ios":"levelo://app?vid=002d6eac-5b9f-4884-911d-d21eb3f7c152"},"vehicle_type_id":"4","last_reported":1730992113,"current_range_meters":6400,"station_id":"ce4bgs12rcd13ifvqcag","pricing_plan_id":"cebpf4jnsgd1na2vs0mg"},{"bike_id":"21b37299-84e4-4b5b-8bf6-49ee4ecf921e","system_id":"levelo_inurba_marseille","lat":43.23963,"lon":5.36652,"is_reserved":false,"is_disabled":false,"rental_uris":{"android":"levelo://app?vid=21b37299-84e4-4b5b-8bf6-49ee4ecf921e","ios":"levelo://app?vid=21b37299-84e4-4b5b-8bf6-49ee4ecf921e"},"vehicle_type_id":"4","last_reported":1730992113,"current_range_meters":39200,"station_id":"ce4bhi12rcd13ifvqfp0","pricing_plan_id":"cebpf4jnsgd1na2vs0mg"},{"bike_id":"8131323a-7e5d-475d-92ab-c6ecb882df7d","system_id":"levelo_inurba_marseille","lat":43.30186,"lon":5.36633,"is_reserved":false,"is_disabled":false,"rental_uris":{"android":"levelo://app?vid=8131323a-7e5d-475d-92ab-c6ecb882df7d","ios":"levelo://app?vid=8131323a-7e5d-475d-92ab-c6ecb882df7d"},"vehicle_type_id":"4","last_reported":1730992113,"current_range_meters":10000,"station_id":"ce4bgrh2rcd13ifvqc8g","pricing_plan_id":"cebpf4jnsgd1na2vs0mg"},{"bike_id":"001b7c42-40a7-47a9-927f-6c03197892aa","system_id":"levelo_inurba_marseille","lat":43.33716,"lon":5.39173,"is_reserved":false,"is_disabled":false,"rental_uris":{"android":"levelo://app?vid=001b7c42-40a7-47a9-927f-6c03197892aa","ios":"levelo://app?vid=001b7c42-40a7-47a9-927f-6c03197892aa"},"vehicle_type_id":"4","last_reported":1730992113,"current_range_meters":38800,"station_id":"ce4bhr92rcd13ifvqhsg","pricing_plan_id":"cebpf4jnsgd1na2vs0mg"},{"bike_id":"3db51f1f-008a-4982-b7d9-55ced53fa6de","system_id":"levelo_inurba_marseille","lat":43.24069,"lon":5.37764,"is_reserved":false,"is_disabled":false,"rental_uris":{"android":"levelo://app?vid=3db51f1f-008a-4982-b7d9-55ced53fa6de","ios":"levelo://app?vid=3db51f1f-008a-4982-b7d9-55ced53fa6de"},"vehicle_type_id":"4","last_reported":1730992113,"current_range_meters":2800,"station_id":"ce4bhnp2rcd13ifvqgvg","pricing_plan_id":"cebpf4jnsgd1na2vs0mg"},{"bike_id":"b69f6cb2-a873-4ce0-b86c-004cf0156db6","system_id":"levelo_inurba_marseille","lat":43.265724,"lon":5.390053,"is_reserved":false,"is_disabled":false,"rental_uris":{"android":"levelo://app?vid=b69f6cb2-a873-4ce0-b86c-004cf0156db6","ios":"levelo://app?vid=b69f6cb2-a873-4ce0-b86c-004cf0156db6"},"vehicle_type_id":"4","last_reported":1730992113,"current_range_meters":9200,"station_id":"ce4bhe12rcd13ifvqf30","pricing_plan_id":"cebpf4jnsgd1na2vs0mg"},{"bike_id":"9178d598-d5de-4d5c-85ae-0efa9377149a","system_id":"levelo_inurba_marseille","lat":43.23189,"lon":5.39981,"is_reserved":false,"is_disabled":false,"rental_uris":{"android":"levelo://app?vid=9178d598-d5de-4d5c-85ae-0efa9377149a","ios":"levelo://app?vid=9178d598-d5de-4d5c-85ae-0efa9377149a"},"vehicle_type_id":"4","last_reported":1730992113,"current_range_meters":20800,"station_id":"ce4bhn12rcd13ifvqgqg","pricing_plan_id":"cebpf4jnsgd1na2vs0mg"},{"bike_id":"fdf26527-6c0f-4b2a-b565-d41399ed3242","system_id":"levelo_inurba_marseille","lat":43.31538,"lon":5.38039,"is_reserved":false,"is_disabled":false,"rental_uris":{"android":"levelo://app?vid=fdf26527-6c0f-4b2a-b565-d41399ed3242","ios":"levelo://app?vid=fdf26527-6c0f-4b2a-b565-d41399ed3242"},"vehicle_type_id":"4","last_reported":1730992113,"current_range_meters":6000,"station_id":"ce4bhsp2rcd13ifvqi50","pricing_plan_id":"cebpf4jnsgd1na2vs0mg"},{"bike_id":"a5edae38-1c17-4af7-8b78-60198cabb2d2","system_id":"levelo_inurba_marseille","lat":43.30096,"lon":5.39106,"is_reserved":false,"is_disabled":false,"rental_uris":{"android":"levelo://app?vid=a5edae38-1c17-4af7-8b78-60198cabb2d2","ios":"levelo://app?vid=a5edae38-1c17-4af7-8b78-60198cabb2d2"},"vehicle_type_id":"4","last_reported":1730992113,"current_range_meters":2800,"station_id":"ce4bh192rcd13ifvqdb0","pricing_plan_id":"cebpf4jnsgd1na2vs0mg"},{"bike_id":"70ba574d-a3ef-4998-9fb3-85743e66db24","system_id":"levelo_inurba_marseille","lat":43.2781,"lon":5.40714,"is_reserved":false,"is_disabled":false,"rental_uris":{"android":"levelo://app?vid=70ba574d-a3ef-4998-9fb3-85743e66db24","ios":"levelo://app?vid=70ba574d-a3ef-4998-9fb3-85743e66db24"},"vehicle_type_id":"4","last_reported":1730992113,"current_range_meters":30400,"station_id":"ce4bhnh2rcd13ifvqgtg","pricing_plan_id":"cebpf4jnsgd1na2vs0mg"},{"bike_id":"816e8c7e-f692-4cbe-8f22-ee12d614ae56","system_id":"levelo_inurba_marseille","lat":43.30953,"lon":5.39047,"is_reserved":false,"is_disabled":false,"rental_uris":{"android":"levelo://app?vid=816e8c7e-f692-4cbe-8f22-ee12d614ae56","ios":"levelo://app?vid=816e8c7e-f692-4cbe-8f22-ee12d614ae56"},"vehicle_type_id":"4","last_reported":1730992113,"current_range_meters":6800,"station_id":"ce4bgup2rcd13ifvqco0","pricing_plan_id":"cebpf4jnsgd1na2vs0mg"},{"bike_id":"0993ae53-b33b-4ec0-8420-6942bdb9eb84","system_id":"levelo_inurba_marseille","lat":43.30799,"lon":5.43535,"is_reserved":false,"is_disabled":false,"rental_uris":{"android":"levelo://app?vid=0993ae53-b33b-4ec0-8420-6942bdb9eb84","ios":"levelo://app?vid=0993ae53-b33b-4ec0-8420-6942bdb9eb84"},"vehicle_type_id":"4","last_reported":1730992113,"current_range_meters":34000,"station_id":"ce4bhph2rcd13ifvqheg","pricing_plan_id":"cebpf4jnsgd1na2vs0mg"},{"bike_id":"dcdd6a7e-0508-411a-9fe3-437836600d8f","system_id":"levelo_inurba_marseille","lat":43.29035,"lon":5.39968,"is_reserved":false,"is_disabled":false,"rental_uris":{"android":"levelo://app?vid=dcdd6a7e-0508-411a-9fe3-437836600d8f","ios":"levelo://app?vid=dcdd6a7e-0508-411a-9fe3-437836600d8f"},"vehicle_type_id":"4","last_reported":1730992113,"current_range_meters":3200,"station_id":"ce4bh392rcd13ifvqdm0","pricing_plan_id":"cebpf4jnsgd1na2vs0mg"},{"bike_id":"1ec2f119-037b-4bbc-aa62-29bb05836e8e","system_id":"levelo_inurba_marseille","lat":43.27809,"lon":5.40725,"is_reserved":false,"is_disabled":false,"rental_uris":{"android":"levelo://app?vid=1ec2f119-037b-4bbc-aa62-29bb05836e8e","ios":"levelo://app?vid=1ec2f119-037b-4bbc-aa62-29bb05836e8e"},"vehicle_type_id":"4","last_reported":1730992113,"current_range_meters":18000,"station_id":"ce4bhnh2rcd13ifvqgtg","pricing_plan_id":"cebpf4jnsgd1na2vs0mg"},{"bike_id":"3cc5bf4c-641e-406a-bc69-bc9bbd3874a3","system_id":"levelo_inurba_marseille","lat":43.2439,"lon":5.37068,"is_reserved":false,"is_disabled":false,"rental_uris":{"android":"levelo://app?vid=3cc5bf4c-641e-406a-bc69-bc9bbd3874a3","ios":"levelo://app?vid=3cc5bf4c-641e-406a-bc69-bc9bbd3874a3"},"vehicle_type_id":"4","last_reported":1730992113,"current_range_meters":11200,"station_id":"ce4bhhh2rcd13ifvqfk0","pricing_plan_id":"cebpf4jnsgd1na2vs0mg"},{"bike_id":"8a76bcd1-0f5e-4170-8a69-1f04e611da97","system_id":"levelo_inurba_marseille","lat":43.32479,"lon":5.3658,"is_reserved":false,"is_disabled":false,"rental_uris":{"android":"levelo://app?vid=8a76bcd1-0f5e-4170-8a69-1f04e611da97","ios":"levelo://app?vid=8a76bcd1-0f5e-4170-8a69-1f04e611da97"},"vehicle_type_id":"4","last_reported":1730992113,"current_range_meters":10800,"station_id":"ce4bhs12rcd13ifvqhvg","pricing_plan_id":"cebpf4jnsgd1na2vs0mg"},{"bike_id":"117b4063-fb8e-49da-9bdf-a9ccc42a852f","system_id":"levelo_inurba_marseille","lat":43.28615,"lon":5.35108,"is_reserved":false,"is_disabled":false,"rental_uris":{"android":"levelo://app?vid=117b4063-fb8e-49da-9bdf-a9ccc42a852f","ios":"levelo://app?vid=117b4063-fb8e-49da-9bdf-a9ccc42a852f"},"vehicle_type_id":"4","last_reported":1730992113,"current_range_meters":21600,"station_id":"ce4bhch2rcd13ifvqeug","pricing_plan_id":"cebpf4jnsgd1na2vs0mg"},{"bike_id":"bcbb8b4f-0b40-4a73-ba39-d99337986b2c","system_id":"levelo_inurba_marseille","lat":43.32108,"lon":5.36786,"is_reserved":false,"is_disabled":false,"rental_uris":{"android":"levelo://app?vid=bcbb8b4f-0b40-4a73-ba39-d99337986b2c","ios":"levelo://app?vid=bcbb8b4f-0b40-4a73-ba39-d99337986b2c"},"vehicle_type_id":"4","last_reported":1730992113,"current_range_meters":36000,"station_id":"ce4bhrh2rcd13ifvqhug","pricing_plan_id":"cebpf4jnsgd1na2vs0mg"},{"bike_id":"9c423229-5978-430f-8a8a-70b226f1cbf1","system_id":"levelo_inurba_marseille","lat":43.28708,"lon":5.40001,"is_reserved":false,"is_disabled":false,"rental_uris":{"android":"levelo://app?vid=9c423229-5978-430f-8a8a-70b226f1cbf1","ios":"levelo://app?vid=9c423229-5978-430f-8a8a-70b226f1cbf1"},"vehicle_type_id":"4","last_reported":1730992113,"current_range_meters":2000,"station_id":"ce4bho92rcd13ifvqh3g","pricing_plan_id":"cebpf4jnsgd1na2vs0mg"},{"bike_id":"1f92a978-0fe1-416d-b202-7ab4f1f26041","system_id":"levelo_inurba_marseille","lat":43.25082,"lon":5.39512,"is_reserved":false,"is_disabled":false,"rental_uris":{"android":"levelo://app?vid=1f92a978-0fe1-416d-b202-7ab4f1f26041","ios":"levelo://app?vid=1f92a978-0fe1-416d-b202-7ab4f1f26041"},"vehicle_type_id":"4","last_reported":1730992113,"current_range_meters":38800,"station_id":"ce4bhm12rcd13ifvqgkg","pricing_plan_id":"cebpf4jnsgd1na2vs0mg"},{"bike_id":"92bbe5af-b5d9-48fc-afb8-3b15fc8d3190","system_id":"levelo_inurba_marseille","lat":43.31718,"lon":5.42401,"is_reserved":false,"is_disabled":false,"rental_uris":{"android":"levelo://app?vid=92bbe5af-b5d9-48fc-afb8-3b15fc8d3190","ios":"levelo://app?vid=92bbe5af-b5d9-48fc-afb8-3b15fc8d3190"},"vehicle_type_id":"4","last_reported":1730992113,"current_range_meters":33600,"station_id":"ce4bhp92rcd13ifvqhbg","pricing_plan_id":"cebpf4jnsgd1na2vs0mg"},{"bike_id":"90d42f9c-e911-425e-88d0-207105b53bfa","system_id":"levelo_inurba_marseille","lat":43.26564,"lon":5.39021,"is_reserved":false,"is_disabled":false,"rental_uris":{"android":"levelo://app?vid=90d42f9c-e911-425e-88d0-207105b53bfa","ios":"levelo://app?vid=90d42f9c-e911-425e-88d0-207105b53bfa"},"vehicle_type_id":"4","last_reported":1730992113,"current_range_meters":38800,"station_id":"ce4bhe12rcd13ifvqf30","pricing_plan_id":"cebpf4jnsgd1na2vs0mg"},{"bike_id":"2a80336a-5d27-4559-9daa-1696403544c4","system_id":"levelo_inurba_marseille","lat":43.31227,"lon":5.36866,"is_reserved":false,"is_disabled":false,"rental_uris":{"android":"levelo://app?vid=2a80336a-5d27-4559-9daa-1696403544c4","ios":"levelo://app?vid=2a80336a-5d27-4559-9daa-1696403544c4"},"vehicle_type_id":"4","last_reported":1730992113,"current_range_meters":28400,"station_id":"ce4bgl92rcd13ifvqbq0","pricing_plan_id":"cebpf4jnsgd1na2vs0mg"},{"bike_id":"0d37433a-3d5f-45c0-83a8-cf6048764f2e","system_id":"levelo_inurba_marseille","lat":43.3204,"lon":5.41563,"is_reserved":false,"is_disabled":false,"rental_uris":{"android":"levelo://app?vid=0d37433a-3d5f-45c0-83a8-cf6048764f2e","ios":"levelo://app?vid=0d37433a-3d5f-45c0-83a8-cf6048764f2e"},"vehicle_type_id":"4","last_reported":1730992113,"current_range_meters":15200,"station_id":"ce4bhq92rcd13ifvqhkg","pricing_plan_id":"cebpf4jnsgd1na2vs0mg"},{"bike_id":"bed4004a-21ef-45fd-9bd7-62af360c69bf","system_id":"levelo_inurba_marseille","lat":43.24086,"lon":5.37746,"is_reserved":false,"is_disabled":false,"rental_uris":{"android":"levelo://app?vid=bed4004a-21ef-45fd-9bd7-62af360c69bf","ios":"levelo://app?vid=bed4004a-21ef-45fd-9bd7-62af360c69bf"},"vehicle_type_id":"4","last_reported":1730992113,"current_range_meters":28400,"station_id":"ce4bhnp2rcd13ifvqgvg","pricing_plan_id":"cebpf4jnsgd1na2vs0mg"},{"bike_id":"c037a069-b356-4f51-a37f-3ef972e5c406","system_id":"levelo_inurba_marseille","lat":43.23065,"lon":5.35492,"is_reserved":false,"is_disabled":false,"rental_uris":{"android":"levelo://app?vid=c037a069-b356-4f51-a37f-3ef972e5c406","ios":"levelo://app?vid=c037a069-b356-4f51-a37f-3ef972e5c406"},"vehicle_type_id":"4","last_reported":1730992113,"current_range_meters":24800,"station_id":"cpo3342slgdg3j2ifvpg","pricing_plan_id":"cebpf4jnsgd1na2vs0mg"},{"bike_id":"cdd64da5-123d-44db-8157-5473e1626676","system_id":"levelo_inurba_marseille","lat":43.29577,"lon":5.36741,"is_reserved":false,"is_disabled":false,"rental_uris":{"android":"levelo://app?vid=cdd64da5-123d-44db-8157-5473e1626676","ios":"levelo://app?vid=cdd64da5-123d-44db-8157-5473e1626676"},"vehicle_type_id":"4","last_reported":1730992113,"current_range_meters":34800,"station_id":"ce4bgph2rcd13ifvqc2g","pricing_plan_id":"cebpf4jnsgd1na2vs0mg"},{"bike_id":"340f4f06-8f3f-434a-8c88-c76b6d7b1445","system_id":"levelo_inurba_marseille","lat":43.323095,"lon":5.406238,"is_reserved":false,"is_disabled":false,"rental_uris":{"android":"levelo://app?vid=340f4f06-8f3f-434a-8c88-c76b6d7b1445","ios":"levelo://app?vid=340f4f06-8f3f-434a-8c88-c76b6d7b1445"},"vehicle_type_id":"4","last_reported":1730992113,"current_range_meters":20000,"station_id":"ce4bhr92rcd13ifvqhsg","pricing_plan_id":"cebpf4jnsgd1na2vs0mg"},{"bike_id":"4daac99d-b339-4a98-80a5-47dc575117c6","system_id":"levelo_inurba_marseille","lat":43.30146,"lon":5.38077,"is_reserved":false,"is_disabled":false,"rental_uris":{"android":"levelo://app?vid=4daac99d-b339-4a98-80a5-47dc575117c6","ios":"levelo://app?vid=4daac99d-b339-4a98-80a5-47dc575117c6"},"vehicle_type_id":"4","last_reported":1730992113,"current_range_meters":33200,"station_id":"ce4bgjp2rcd13ifvqbh0","pricing_plan_id":"cebpf4jnsgd1na2vs0mg"},{"bike_id":"f486a348-4765-4fb4-803d-857f96d72ee3","system_id":"levelo_inurba_marseille","lat":43.31754,"lon":5.39019,"is_reserved":false,"is_disabled":false,"rental_uris":{"android":"levelo://app?vid=f486a348-4765-4fb4-803d-857f96d72ee3","ios":"levelo://app?vid=f486a348-4765-4fb4-803d-857f96d72ee3"},"vehicle_type_id":"4","last_reported":1730992113,"current_range_meters":26800,"station_id":"ce4bhqp2rcd13ifvqhng","pricing_plan_id":"cebpf4jnsgd1na2vs0mg"},{"bike_id":"f97b986b-9ea3-41d3-a083-6c0dbe788527","system_id":"levelo_inurba_marseille","lat":43.24809,"lon":5.37461,"is_reserved":false,"is_disabled":false,"rental_uris":{"android":"levelo://app?vid=f97b986b-9ea3-41d3-a083-6c0dbe788527","ios":"levelo://app?vid=f97b986b-9ea3-41d3-a083-6c0dbe788527"},"vehicle_type_id":"4","last_reported":1730992113,"current_range_meters":38400,"station_id":"ce4bhgh2rcd13ifvqfb0","pricing_plan_id":"cebpf4jnsgd1na2vs0mg"},{"bike_id":"31370be7-bd9c-4a97-a16e-8d6a5ceded68","system_id":"levelo_inurba_marseille","lat":43.3136,"lon":5.36712,"is_reserved":false,"is_disabled":false,"rental_uris":{"android":"levelo://app?vid=31370be7-bd9c-4a97-a16e-8d6a5ceded68","ios":"levelo://app?vid=31370be7-bd9c-4a97-a16e-8d6a5ceded68"},"vehicle_type_id":"4","last_reported":1730992113,"current_range_meters":30000,"station_id":"ce4bgr92rcd13ifvqc6g","pricing_plan_id":"cebpf4jnsgd1na2vs0mg"},{"bike_id":"26ee007d-c521-4271-a726-fe0c9aeca07e","system_id":"levelo_inurba_marseille","lat":43.33108,"lon":5.3822,"is_reserved":false,"is_disabled":false,"rental_uris":{"android":"levelo://app?vid=26ee007d-c521-4271-a726-fe0c9aeca07e","ios":"levelo://app?vid=26ee007d-c521-4271-a726-fe0c9aeca07e"},"vehicle_type_id":"4","last_reported":1730992113,"current_range_meters":8400,"station_id":"","pricing_plan_id":"cebpf4jnsgd1na2vs0mg"},{"bike_id":"57a8f577-0796-4b9b-a40b-643e069b336e","system_id":"levelo_inurba_marseille","lat":43.26805,"lon":5.40273,"is_reserved":false,"is_disabled":false,"rental_uris":{"android":"levelo://app?vid=57a8f577-0796-4b9b-a40b-643e069b336e","ios":"levelo://app?vid=57a8f577-0796-4b9b-a40b-643e069b336e"},"vehicle_type_id":"4","last_reported":1730992113,"current_range_meters":26800,"station_id":"ce501612rcd8frsf0b60","pricing_plan_id":"cebpf4jnsgd1na2vs0mg"},{"bike_id":"f9490853-a533-43b9-a926-76205bb75bb9","system_id":"levelo_inurba_marseille","lat":43.29872,"lon":5.39729,"is_reserved":false,"is_disabled":false,"rental_uris":{"android":"levelo://app?vid=f9490853-a533-43b9-a926-76205bb75bb9","ios":"levelo://app?vid=f9490853-a533-43b9-a926-76205bb75bb9"},"vehicle_type_id":"4","last_reported":1730992113,"current_range_meters":4800,"station_id":"ce4bh0h2rcd13ifvqd50","pricing_plan_id":"cebpf4jnsgd1na2vs0mg"},{"bike_id":"e4a3794d-ab4f-400e-af20-05cb71404865","system_id":"levelo_inurba_marseille","lat":43.30147,"lon":5.3808,"is_reserved":false,"is_disabled":false,"rental_uris":{"android":"levelo://app?vid=e4a3794d-ab4f-400e-af20-05cb71404865","ios":"levelo://app?vid=e4a3794d-ab4f-400e-af20-05cb71404865"},"vehicle_type_id":"4","last_reported":1730992113,"current_range_meters":36400,"station_id":"ce4bgjp2rcd13ifvqbh0","pricing_plan_id":"cebpf4jnsgd1na2vs0mg"},{"bike_id":"63679012-d0a0-44a9-a805-20815a46a99d","system_id":"levelo_inurba_marseille","lat":43.33769,"lon":5.37476,"is_reserved":false,"is_disabled":false,"rental_uris":{"android":"levelo://app?vid=63679012-d0a0-44a9-a805-20815a46a99d","ios":"levelo://app?vid=63679012-d0a0-44a9-a805-20815a46a99d"},"vehicle_type_id":"4","last_reported":1730992113,"current_range_meters":6800,"station_id":"","pricing_plan_id":"cebpf4jnsgd1na2vs0mg"},{"bike_id":"dfcf3015-64e1-4c73-9065-23a58d1a316f","system_id":"levelo_inurba_marseille","lat":43.337444,"lon":5.374475,"is_reserved":false,"is_disabled":false,"rental_uris":{"android":"levelo://app?vid=dfcf3015-64e1-4c73-9065-23a58d1a316f","ios":"levelo://app?vid=dfcf3015-64e1-4c73-9065-23a58d1a316f"},"vehicle_type_id":"4","last_reported":1730992113,"current_range_meters":34000,"station_id":"","pricing_plan_id":"cebpf4jnsgd1na2vs0mg"},{"bike_id":"641f2b17-95bc-47d2-9497-15037a737bd1","system_id":"levelo_inurba_marseille","lat":43.25584,"lon":5.38244,"is_reserved":false,"is_disabled":false,"rental_uris":{"android":"levelo://app?vid=641f2b17-95bc-47d2-9497-15037a737bd1","ios":"levelo://app?vid=641f2b17-95bc-47d2-9497-15037a737bd1"},"vehicle_type_id":"4","last_reported":1730992113,"current_range_meters":38800,"station_id":"ce4bhih2rcd13ifvqfs0","pricing_plan_id":"cebpf4jnsgd1na2vs0mg"},{"bike_id":"f487dfbc-73cf-4c67-9eca-1be37f6900a5","system_id":"levelo_inurba_marseille","lat":43.2511,"lon":5.40323,"is_reserved":false,"is_disabled":false,"rental_uris":{"android":"levelo://app?vid=f487dfbc-73cf-4c67-9eca-1be37f6900a5","ios":"levelo://app?vid=f487dfbc-73cf-4c67-9eca-1be37f6900a5"},"vehicle_type_id":"4","last_reported":1730992113,"current_range_meters":26000,"station_id":"ce4bhlh2rcd13ifvqgig","pricing_plan_id":"cebpf4jnsgd1na2vs0mg"},{"bike_id":"f19e21fc-3fb8-4be5-8aae-3b3f9019566c","system_id":"levelo_inurba_marseille","lat":43.3055,"lon":5.36541,"is_reserved":false,"is_disabled":false,"rental_uris":{"android":"levelo://app?vid=f19e21fc-3fb8-4be5-8aae-3b3f9019566c","ios":"levelo://app?vid=f19e21fc-3fb8-4be5-8aae-3b3f9019566c"},"vehicle_type_id":"4","last_reported":1730992113,"current_range_meters":38800,"station_id":"ce4bgs12rcd13ifvqcag","pricing_plan_id":"cebpf4jnsgd1na2vs0mg"},{"bike_id":"0562544a-b79d-473e-a168-4b06e39e4c5b","system_id":"levelo_inurba_marseille","lat":43.32483,"lon":5.36582,"is_reserved":false,"is_disabled":false,"rental_uris":{"android":"levelo://app?vid=0562544a-b79d-473e-a168-4b06e39e4c5b","ios":"levelo://app?vid=0562544a-b79d-473e-a168-4b06e39e4c5b"},"vehicle_type_id":"4","last_reported":1730992113,"current_range_meters":30800,"station_id":"ce4bhs12rcd13ifvqhvg","pricing_plan_id":"cebpf4jnsgd1na2vs0mg"},{"bike_id":"5176766f-05f0-4984-ac79-a81ebfd9f8b1","system_id":"levelo_inurba_marseille","lat":43.29617,"lon":5.37152,"is_reserved":false,"is_disabled":false,"rental_uris":{"android":"levelo://app?vid=5176766f-05f0-4984-ac79-a81ebfd9f8b1","ios":"levelo://app?vid=5176766f-05f0-4984-ac79-a81ebfd9f8b1"},"vehicle_type_id":"4","last_reported":1730992113,"current_range_meters":32800,"station_id":"ce4bgnh2rcd13ifvqc0g","pricing_plan_id":"cebpf4jnsgd1na2vs0mg"},{"bike_id":"91b0cbc7-2428-43a2-a0ac-30705cb89616","system_id":"levelo_inurba_marseille","lat":43.28734,"lon":5.36069,"is_reserved":false,"is_disabled":false,"rental_uris":{"android":"levelo://app?vid=91b0cbc7-2428-43a2-a0ac-30705cb89616","ios":"levelo://app?vid=91b0cbc7-2428-43a2-a0ac-30705cb89616"},"vehicle_type_id":"4","last_reported":1730992113,"current_range_meters":30800,"station_id":"cki0cbj6b192h4jlfktg","pricing_plan_id":"cebpf4jnsgd1na2vs0mg"},{"bike_id":"036644b3-4035-4b02-b63a-112d8ddce538","system_id":"levelo_inurba_marseille","lat":43.30284,"lon":5.37714,"is_reserved":false,"is_disabled":false,"rental_uris":{"android":"levelo://app?vid=036644b3-4035-4b02-b63a-112d8ddce538","ios":"levelo://app?vid=036644b3-4035-4b02-b63a-112d8ddce538"},"vehicle_type_id":"4","last_reported":1730992113,"current_range_meters":38800,"station_id":"ce4bguh2rcd13ifvqcj0","pricing_plan_id":"cebpf4jnsgd1na2vs0mg"},{"bike_id":"978d26de-5736-499b-9b20-742279fdde32","system_id":"levelo_inurba_marseille","lat":43.24069,"lon":5.37766,"is_reserved":false,"is_disabled":false,"rental_uris":{"android":"levelo://app?vid=978d26de-5736-499b-9b20-742279fdde32","ios":"levelo://app?vid=978d26de-5736-499b-9b20-742279fdde32"},"vehicle_type_id":"4","last_reported":1730992113,"current_range_meters":37600,"station_id":"ce4bhnp2rcd13ifvqgvg","pricing_plan_id":"cebpf4jnsgd1na2vs0mg"},{"bike_id":"bf89549c-f9ef-47d4-ac5a-c0e49c827009","system_id":"levelo_inurba_marseille","lat":43.27071,"lon":5.42282,"is_reserved":false,"is_disabled":false,"rental_uris":{"android":"levelo://app?vid=bf89549c-f9ef-47d4-ac5a-c0e49c827009","ios":"levelo://app?vid=bf89549c-f9ef-47d4-ac5a-c0e49c827009"},"vehicle_type_id":"4","last_reported":1730992113,"current_range_meters":10800,"station_id":"ce4bhk92rcd13ifvqgb0","pricing_plan_id":"cebpf4jnsgd1na2vs0mg"},{"bike_id":"684f1c84-d94a-48be-8c76-2150d9473079","system_id":"levelo_inurba_marseille","lat":43.29704,"lon":5.36618,"is_reserved":false,"is_disabled":false,"rental_uris":{"android":"levelo://app?vid=684f1c84-d94a-48be-8c76-2150d9473079","ios":"levelo://app?vid=684f1c84-d94a-48be-8c76-2150d9473079"},"vehicle_type_id":"4","last_reported":1730992113,"current_range_meters":9200,"station_id":"ce4bgn12rcd13ifvqbt0","pricing_plan_id":"cebpf4jnsgd1na2vs0mg"},{"bike_id":"c8257aae-c8c8-42ce-84a8-c479e012332f","system_id":"levelo_inurba_marseille","lat":43.29972,"lon":5.38498,"is_reserved":false,"is_disabled":false,"rental_uris":{"android":"levelo://app?vid=c8257aae-c8c8-42ce-84a8-c479e012332f","ios":"levelo://app?vid=c8257aae-c8c8-42ce-84a8-c479e012332f"},"vehicle_type_id":"4","last_reported":1730992113,"current_range_meters":28400,"station_id":"ce4bgj92rcd13ifvqbd0","pricing_plan_id":"cebpf4jnsgd1na2vs0mg"},{"bike_id":"d58f8f37-e746-47c0-a774-feb63ea601ee","system_id":"levelo_inurba_marseille","lat":43.31074,"lon":5.38357,"is_reserved":false,"is_disabled":false,"rental_uris":{"android":"levelo://app?vid=d58f8f37-e746-47c0-a774-feb63ea601ee","ios":"levelo://app?vid=d58f8f37-e746-47c0-a774-feb63ea601ee"},"vehicle_type_id":"4","last_reported":1730992113,"current_range_meters":38800,"station_id":"ce4bgv92rcd13ifvqcr0","pricing_plan_id":"cebpf4jnsgd1na2vs0mg"},{"bike_id":"97416622-a75b-4a18-9f52-ebd1e02f759e","system_id":"levelo_inurba_marseille","lat":43.30302,"lon":5.39219,"is_reserved":false,"is_disabled":false,"rental_uris":{"android":"levelo://app?vid=97416622-a75b-4a18-9f52-ebd1e02f759e","ios":"levelo://app?vid=97416622-a75b-4a18-9f52-ebd1e02f759e"},"vehicle_type_id":"4","last_reported":1730992113,"current_range_meters":26000,"station_id":"ce4bgkh2rcd13ifvqbk0","pricing_plan_id":"cebpf4jnsgd1na2vs0mg"},{"bike_id":"9af9c25b-33ad-4158-a1cc-079d3f198d97","system_id":"levelo_inurba_marseille","lat":43.27074,"lon":5.42283,"is_reserved":false,"is_disabled":false,"rental_uris":{"android":"levelo://app?vid=9af9c25b-33ad-4158-a1cc-079d3f198d97","ios":"levelo://app?vid=9af9c25b-33ad-4158-a1cc-079d3f198d97"},"vehicle_type_id":"4","last_reported":1730992113,"current_range_meters":12000,"station_id":"ce4bhk92rcd13ifvqgb0","pricing_plan_id":"cebpf4jnsgd1na2vs0mg"},{"bike_id":"f0af1873-117f-4176-988b-7bbf7d14df74","system_id":"levelo_inurba_marseille","lat":43.22928,"lon":5.35377,"is_reserved":false,"is_disabled":false,"rental_uris":{"android":"levelo://app?vid=f0af1873-117f-4176-988b-7bbf7d14df74","ios":"levelo://app?vid=f0af1873-117f-4176-988b-7bbf7d14df74"},"vehicle_type_id":"4","last_reported":1730992113,"current_range_meters":37600,"station_id":"cpo3532slgdg3j2ikp40","pricing_plan_id":"cebpf4jnsgd1na2vs0mg"},{"bike_id":"3432efb2-a10d-427c-a287-16ab67192755","system_id":"levelo_inurba_marseille","lat":43.32416,"lon":5.39331,"is_reserved":false,"is_disabled":false,"rental_uris":{"android":"levelo://app?vid=3432efb2-a10d-427c-a287-16ab67192755","ios":"levelo://app?vid=3432efb2-a10d-427c-a287-16ab67192755"},"vehicle_type_id":"4","last_reported":1730992113,"current_range_meters":18800,"station_id":"","pricing_plan_id":"cebpf4jnsgd1na2vs0mg"},{"bike_id":"faec8c28-a3b7-4e57-93e2-fa0f049d6e7b","system_id":"levelo_inurba_marseille","lat":43.26574,"lon":5.39028,"is_reserved":false,"is_disabled":false,"rental_uris":{"android":"levelo://app?vid=faec8c28-a3b7-4e57-93e2-fa0f049d6e7b","ios":"levelo://app?vid=faec8c28-a3b7-4e57-93e2-fa0f049d6e7b"},"vehicle_type_id":"4","last_reported":1730992113,"current_range_meters":7200,"station_id":"ce4bhe12rcd13ifvqf30","pricing_plan_id":"cebpf4jnsgd1na2vs0mg"},{"bike_id":"8a85ed73-0b8a-4cab-b53c-2a1110b86bc8","system_id":"levelo_inurba_marseille","lat":43.29032,"lon":5.39988,"is_reserved":false,"is_disabled":false,"rental_uris":{"android":"levelo://app?vid=8a85ed73-0b8a-4cab-b53c-2a1110b86bc8","ios":"levelo://app?vid=8a85ed73-0b8a-4cab-b53c-2a1110b86bc8"},"vehicle_type_id":"4","last_reported":1730992113,"current_range_meters":28400,"station_id":"ce4bh392rcd13ifvqdm0","pricing_plan_id":"cebpf4jnsgd1na2vs0mg"},{"bike_id":"fc13ae1c-4321-44c6-b739-390ab31b4f0e","system_id":"levelo_inurba_marseille","lat":43.32531,"lon":5.4144,"is_reserved":false,"is_disabled":false,"rental_uris":{"android":"levelo://app?vid=fc13ae1c-4321-44c6-b739-390ab31b4f0e","ios":"levelo://app?vid=fc13ae1c-4321-44c6-b739-390ab31b4f0e"},"vehicle_type_id":"4","last_reported":1730992113,"current_range_meters":38800,"station_id":"ce4bhq12rcd13ifvqhhg","pricing_plan_id":"cebpf4jnsgd1na2vs0mg"},{"bike_id":"31db28b1-fd8b-4ac2-b4e8-acdede187bef","system_id":"levelo_inurba_marseille","lat":43.323946,"lon":5.38816,"is_reserved":false,"is_disabled":false,"rental_uris":{"android":"levelo://app?vid=31db28b1-fd8b-4ac2-b4e8-acdede187bef","ios":"levelo://app?vid=31db28b1-fd8b-4ac2-b4e8-acdede187bef"},"vehicle_type_id":"4","last_reported":1730992113,"current_range_meters":38800,"station_id":"","pricing_plan_id":"cebpf4jnsgd1na2vs0mg"},{"bike_id":"cb3bbfe8-eb15-4cf2-b9b1-50cc4da0eb6a","system_id":"levelo_inurba_marseille","lat":43.26807,"lon":5.40261,"is_reserved":false,"is_disabled":false,"rental_uris":{"android":"levelo://app?vid=cb3bbfe8-eb15-4cf2-b9b1-50cc4da0eb6a","ios":"levelo://app?vid=cb3bbfe8-eb15-4cf2-b9b1-50cc4da0eb6a"},"vehicle_type_id":"4","last_reported":1730992113,"current_range_meters":9600,"station_id":"ce501612rcd8frsf0b60","pricing_plan_id":"cebpf4jnsgd1na2vs0mg"},{"bike_id":"9e82c9ae-2fdb-48c3-bf62-cb70caeccff2","system_id":"levelo_inurba_marseille","lat":43.31329,"lon":5.39695,"is_reserved":false,"is_disabled":false,"rental_uris":{"android":"levelo://app?vid=9e82c9ae-2fdb-48c3-bf62-cb70caeccff2","ios":"levelo://app?vid=9e82c9ae-2fdb-48c3-bf62-cb70caeccff2"},"vehicle_type_id":"4","last_reported":1730992113,"current_range_meters":8000,"station_id":"ce4bgvp2rcd13ifvqcu0","pricing_plan_id":"cebpf4jnsgd1na2vs0mg"},{"bike_id":"1a048762-4e60-40dd-ab6f-14975e9b44d5","system_id":"levelo_inurba_marseille","lat":43.31218,"lon":5.36866,"is_reserved":false,"is_disabled":false,"rental_uris":{"android":"levelo://app?vid=1a048762-4e60-40dd-ab6f-14975e9b44d5","ios":"levelo://app?vid=1a048762-4e60-40dd-ab6f-14975e9b44d5"},"vehicle_type_id":"4","last_reported":1730992113,"current_range_meters":25600,"station_id":"ce4bgl92rcd13ifvqbq0","pricing_plan_id":"cebpf4jnsgd1na2vs0mg"},{"bike_id":"8c06cfaa-e9a0-48c9-b648-c64d505a4d35","system_id":"levelo_inurba_marseille","lat":43.29257,"lon":5.40901,"is_reserved":false,"is_disabled":false,"rental_uris":{"android":"levelo://app?vid=8c06cfaa-e9a0-48c9-b648-c64d505a4d35","ios":"levelo://app?vid=8c06cfaa-e9a0-48c9-b648-c64d505a4d35"},"vehicle_type_id":"4","last_reported":1730992113,"current_range_meters":9600,"station_id":"ce4bh192rcd13ifvqdc0","pricing_plan_id":"cebpf4jnsgd1na2vs0mg"},{"bike_id":"67f92433-d2f6-469d-a48b-526f6d342a9e","system_id":"levelo_inurba_marseille","lat":43.28414,"lon":5.34984,"is_reserved":false,"is_disabled":false,"rental_uris":{"android":"levelo://app?vid=67f92433-d2f6-469d-a48b-526f6d342a9e","ios":"levelo://app?vid=67f92433-d2f6-469d-a48b-526f6d342a9e"},"vehicle_type_id":"4","last_reported":1730992113,"current_range_meters":25600,"station_id":"ce4bhbh2rcd13ifvqepg","pricing_plan_id":"cebpf4jnsgd1na2vs0mg"},{"bike_id":"c0cd4c56-8008-47bf-9ddc-fc31b7c69a28","system_id":"levelo_inurba_marseille","lat":43.28848,"lon":5.39324,"is_reserved":false,"is_disabled":false,"rental_uris":{"android":"levelo://app?vid=c0cd4c56-8008-47bf-9ddc-fc31b7c69a28","ios":"levelo://app?vid=c0cd4c56-8008-47bf-9ddc-fc31b7c69a28"},"vehicle_type_id":"4","last_reported":1730992113,"current_range_meters":25600,"station_id":"ce4bh2p2rcd13ifvqdi0","pricing_plan_id":"cebpf4jnsgd1na2vs0mg"},{"bike_id":"05148cac-7f0f-43a7-bd6f-6a902fb52788","system_id":"levelo_inurba_marseille","lat":43.31072,"lon":5.38352,"is_reserved":false,"is_disabled":false,"rental_uris":{"android":"levelo://app?vid=05148cac-7f0f-43a7-bd6f-6a902fb52788","ios":"levelo://app?vid=05148cac-7f0f-43a7-bd6f-6a902fb52788"},"vehicle_type_id":"4","last_reported":1730992113,"current_range_meters":30000,"station_id":"ce4bgv92rcd13ifvqcr0","pricing_plan_id":"cebpf4jnsgd1na2vs0mg"},{"bike_id":"bb50c124-9f8a-47fa-8f9c-c38d2cbef405","system_id":"levelo_inurba_marseille","lat":43.29533,"lon":5.38544,"is_reserved":false,"is_disabled":false,"rental_uris":{"android":"levelo://app?vid=bb50c124-9f8a-47fa-8f9c-c38d2cbef405","ios":"levelo://app?vid=bb50c124-9f8a-47fa-8f9c-c38d2cbef405"},"vehicle_type_id":"4","last_reported":1730992113,"current_range_meters":37600,"station_id":"ce4bgih2rcd13ifvqba0","pricing_plan_id":"cebpf4jnsgd1na2vs0mg"},{"bike_id":"d3e54780-ddfb-432e-bfd3-55d19e8c43c8","system_id":"levelo_inurba_marseille","lat":43.31757,"lon":5.39031,"is_reserved":false,"is_disabled":false,"rental_uris":{"android":"levelo://app?vid=d3e54780-ddfb-432e-bfd3-55d19e8c43c8","ios":"levelo://app?vid=d3e54780-ddfb-432e-bfd3-55d19e8c43c8"},"vehicle_type_id":"4","last_reported":1730992113,"current_range_meters":30800,"station_id":"ce4bhqp2rcd13ifvqhng","pricing_plan_id":"cebpf4jnsgd1na2vs0mg"},{"bike_id":"f48ced8d-222f-42c7-a912-0f18b0eecc42","system_id":"levelo_inurba_marseille","lat":43.32112,"lon":5.3677,"is_reserved":false,"is_disabled":false,"rental_uris":{"android":"levelo://app?vid=f48ced8d-222f-42c7-a912-0f18b0eecc42","ios":"levelo://app?vid=f48ced8d-222f-42c7-a912-0f18b0eecc42"},"vehicle_type_id":"4","last_reported":1730992113,"current_range_meters":22000,"station_id":"ce4bhrh2rcd13ifvqhug","pricing_plan_id":"cebpf4jnsgd1na2vs0mg"},{"bike_id":"82b97aae-830e-4430-ae99-7cef8ad2c993","system_id":"levelo_inurba_marseille","lat":43.337444,"lon":5.374475,"is_reserved":false,"is_disabled":false,"rental_uris":{"android":"levelo://app?vid=82b97aae-830e-4430-ae99-7cef8ad2c993","ios":"levelo://app?vid=82b97aae-830e-4430-ae99-7cef8ad2c993"},"vehicle_type_id":"4","last_reported":1730992113,"current_range_meters":36000,"station_id":"","pricing_plan_id":"cebpf4jnsgd1na2vs0mg"},{"bike_id":"ad30a104-ba1e-46d9-8895-2e7b87b23214","system_id":"levelo_inurba_marseille","lat":43.31229,"lon":5.36861,"is_reserved":false,"is_disabled":false,"rental_uris":{"android":"levelo://app?vid=ad30a104-ba1e-46d9-8895-2e7b87b23214","ios":"levelo://app?vid=ad30a104-ba1e-46d9-8895-2e7b87b23214"},"vehicle_type_id":"4","last_reported":1730992113,"current_range_meters":38800,"station_id":"ce4bgl92rcd13ifvqbq0","pricing_plan_id":"cebpf4jnsgd1na2vs0mg"},{"bike_id":"d16e9ecd-bd68-4f7c-83a4-3a884d4134e7","system_id":"levelo_inurba_marseille","lat":43.2511,"lon":5.40325,"is_reserved":false,"is_disabled":false,"rental_uris":{"android":"levelo://app?vid=d16e9ecd-bd68-4f7c-83a4-3a884d4134e7","ios":"levelo://app?vid=d16e9ecd-bd68-4f7c-83a4-3a884d4134e7"},"vehicle_type_id":"4","last_reported":1730992113,"current_range_meters":16800,"station_id":"ce4bhlh2rcd13ifvqgig","pricing_plan_id":"cebpf4jnsgd1na2vs0mg"},{"bike_id":"e11f2957-c866-431f-b50b-d0178644b09f","system_id":"levelo_inurba_marseille","lat":43.23182,"lon":5.39994,"is_reserved":false,"is_disabled":false,"rental_uris":{"android":"levelo://app?vid=e11f2957-c866-431f-b50b-d0178644b09f","ios":"levelo://app?vid=e11f2957-c866-431f-b50b-d0178644b09f"},"vehicle_type_id":"4","last_reported":1730992113,"current_range_meters":36800,"station_id":"ce4bhn12rcd13ifvqgqg","pricing_plan_id":"cebpf4jnsgd1na2vs0mg"},{"bike_id":"92bfdb81-1ac2-4e23-9e47-9d5b1f837dde","system_id":"levelo_inurba_marseille","lat":43.30527,"lon":5.36536,"is_reserved":false,"is_disabled":false,"rental_uris":{"android":"levelo://app?vid=92bfdb81-1ac2-4e23-9e47-9d5b1f837dde","ios":"levelo://app?vid=92bfdb81-1ac2-4e23-9e47-9d5b1f837dde"},"vehicle_type_id":"4","last_reported":1730992113,"current_range_meters":16800,"station_id":"ce4bgs12rcd13ifvqcag","pricing_plan_id":"cebpf4jnsgd1na2vs0mg"},{"bike_id":"8befa393-3872-493a-9a5d-6005d6827670","system_id":"levelo_inurba_marseille","lat":43.33722,"lon":5.39188,"is_reserved":false,"is_disabled":false,"rental_uris":{"android":"levelo://app?vid=8befa393-3872-493a-9a5d-6005d6827670","ios":"levelo://app?vid=8befa393-3872-493a-9a5d-6005d6827670"},"vehicle_type_id":"4","last_reported":1730992113,"current_range_meters":38000,"station_id":"ce4bhr92rcd13ifvqhsg","pricing_plan_id":"cebpf4jnsgd1na2vs0mg"},{"bike_id":"9fc49755-493e-4943-ba82-79480e8185c0","system_id":"levelo_inurba_marseille","lat":43.25498,"lon":5.37652,"is_reserved":false,"is_disabled":false,"rental_uris":{"android":"levelo://app?vid=9fc49755-493e-4943-ba82-79480e8185c0","ios":"levelo://app?vid=9fc49755-493e-4943-ba82-79480e8185c0"},"vehicle_type_id":"4","last_reported":1730992113,"current_range_meters":36800,"station_id":"ce4bhh12rcd13ifvqff0","pricing_plan_id":"cebpf4jnsgd1na2vs0mg"},{"bike_id":"b40ad22e-7483-4a42-8d3a-c4ecdde89329","system_id":"levelo_inurba_marseille","lat":43.29685,"lon":5.373,"is_reserved":false,"is_disabled":false,"rental_uris":{"android":"levelo://app?vid=b40ad22e-7483-4a42-8d3a-c4ecdde89329","ios":"levelo://app?vid=b40ad22e-7483-4a42-8d3a-c4ecdde89329"},"vehicle_type_id":"4","last_reported":1730992113,"current_range_meters":28400,"station_id":"ce4bgk12rcd13ifvqbj0","pricing_plan_id":"cebpf4jnsgd1na2vs0mg"},{"bike_id":"99473ff7-126e-4897-b0d9-7b95d36da95e","system_id":"levelo_inurba_marseille","lat":43.34091,"lon":5.40959,"is_reserved":false,"is_disabled":false,"rental_uris":{"android":"levelo://app?vid=99473ff7-126e-4897-b0d9-7b95d36da95e","ios":"levelo://app?vid=99473ff7-126e-4897-b0d9-7b95d36da95e"},"vehicle_type_id":"4","last_reported":1730992113,"current_range_meters":29600,"station_id":"ce4bhq92rcd13ifvqhkg","pricing_plan_id":"cebpf4jnsgd1na2vs0mg"},{"bike_id":"8275bbc5-cf35-405a-965c-9ba13eb76b4d","system_id":"levelo_inurba_marseille","lat":43.28842,"lon":5.39329,"is_reserved":false,"is_disabled":false,"rental_uris":{"android":"levelo://app?vid=8275bbc5-cf35-405a-965c-9ba13eb76b4d","ios":"levelo://app?vid=8275bbc5-cf35-405a-965c-9ba13eb76b4d"},"vehicle_type_id":"4","last_reported":1730992113,"current_range_meters":36800,"station_id":"ce4bh2p2rcd13ifvqdi0","pricing_plan_id":"cebpf4jnsgd1na2vs0mg"},{"bike_id":"e822e0c9-24dc-4dc5-b15d-8ba138d409d7","system_id":"levelo_inurba_marseille","lat":43.29913,"lon":5.37476,"is_reserved":false,"is_disabled":false,"rental_uris":{"android":"levelo://app?vid=e822e0c9-24dc-4dc5-b15d-8ba138d409d7","ios":"levelo://app?vid=e822e0c9-24dc-4dc5-b15d-8ba138d409d7"},"vehicle_type_id":"4","last_reported":1730992113,"current_range_meters":38800,"station_id":"ce4bgjh2rcd13ifvqbg0","pricing_plan_id":"cebpf4jnsgd1na2vs0mg"},{"bike_id":"0e0aa953-ce04-478d-bf26-e5f223f30f5e","system_id":"levelo_inurba_marseille","lat":43.305366,"lon":5.365273,"is_reserved":false,"is_disabled":false,"rental_uris":{"android":"levelo://app?vid=0e0aa953-ce04-478d-bf26-e5f223f30f5e","ios":"levelo://app?vid=0e0aa953-ce04-478d-bf26-e5f223f30f5e"},"vehicle_type_id":"4","last_reported":1730992113,"current_range_meters":38800,"station_id":"ce4bgs12rcd13ifvqcag","pricing_plan_id":"cebpf4jnsgd1na2vs0mg"},{"bike_id":"4dbb3dfd-e103-4637-8128-7085e5557e9b","system_id":"levelo_inurba_marseille","lat":43.292236,"lon":5.392351,"is_reserved":false,"is_disabled":false,"rental_uris":{"android":"levelo://app?vid=4dbb3dfd-e103-4637-8128-7085e5557e9b","ios":"levelo://app?vid=4dbb3dfd-e103-4637-8128-7085e5557e9b"},"vehicle_type_id":"4","last_reported":1730992113,"current_range_meters":36000,"station_id":"ce4bh192rcd13ifvqdd0","pricing_plan_id":"cebpf4jnsgd1na2vs0mg"},{"bike_id":"e42dd4c8-e95b-41bb-85eb-5f35636fee1e","system_id":"levelo_inurba_marseille","lat":43.2987,"lon":5.39734,"is_reserved":false,"is_disabled":false,"rental_uris":{"android":"levelo://app?vid=e42dd4c8-e95b-41bb-85eb-5f35636fee1e","ios":"levelo://app?vid=e42dd4c8-e95b-41bb-85eb-5f35636fee1e"},"vehicle_type_id":"4","last_reported":1730992113,"current_range_meters":39200,"station_id":"ce4bh0h2rcd13ifvqd50","pricing_plan_id":"cebpf4jnsgd1na2vs0mg"},{"bike_id":"af972262-c850-46a9-8d43-fc943639335e","system_id":"levelo_inurba_marseille","lat":43.31226,"lon":5.36851,"is_reserved":false,"is_disabled":false,"rental_uris":{"android":"levelo://app?vid=af972262-c850-46a9-8d43-fc943639335e","ios":"levelo://app?vid=af972262-c850-46a9-8d43-fc943639335e"},"vehicle_type_id":"4","last_reported":1730992113,"current_range_meters":37600,"station_id":"ce4bgl92rcd13ifvqbq0","pricing_plan_id":"cebpf4jnsgd1na2vs0mg"},{"bike_id":"47d87906-0104-468c-9948-8aa5347f8109","system_id":"levelo_inurba_marseille","lat":43.30141,"lon":5.37426,"is_reserved":false,"is_disabled":false,"rental_uris":{"android":"levelo://app?vid=47d87906-0104-468c-9948-8aa5347f8109","ios":"levelo://app?vid=47d87906-0104-468c-9948-8aa5347f8109"},"vehicle_type_id":"4","last_reported":1730992113,"current_range_meters":10800,"station_id":"ce4bgs92rcd13ifvqcc0","pricing_plan_id":"cebpf4jnsgd1na2vs0mg"},{"bike_id":"dffec2a8-c439-421a-b78b-4882a98cf51d","system_id":"levelo_inurba_marseille","lat":43.2586,"lon":5.39901,"is_reserved":false,"is_disabled":false,"rental_uris":{"android":"levelo://app?vid=dffec2a8-c439-421a-b78b-4882a98cf51d","ios":"levelo://app?vid=dffec2a8-c439-421a-b78b-4882a98cf51d"},"vehicle_type_id":"4","last_reported":1730992113,"current_range_meters":26000,"station_id":"ce4bhl92rcd13ifvqghg","pricing_plan_id":"cebpf4jnsgd1na2vs0mg"},{"bike_id":"382c9c8a-caac-4063-ad4a-885c3ae70579","system_id":"levelo_inurba_marseille","lat":43.32657,"lon":5.40997,"is_reserved":false,"is_disabled":false,"rental_uris":{"android":"levelo://app?vid=382c9c8a-caac-4063-ad4a-885c3ae70579","ios":"levelo://app?vid=382c9c8a-caac-4063-ad4a-885c3ae70579"},"vehicle_type_id":"4","last_reported":1730992113,"current_range_meters":22000,"station_id":"ce4bhpp2rcd13ifvqhgg","pricing_plan_id":"cebpf4jnsgd1na2vs0mg"},{"bike_id":"ed12a0d6-398e-4782-964e-9408d369a3bc","system_id":"levelo_inurba_marseille","lat":43.30303,"lon":5.39227,"is_reserved":false,"is_disabled":false,"rental_uris":{"android":"levelo://app?vid=ed12a0d6-398e-4782-964e-9408d369a3bc","ios":"levelo://app?vid=ed12a0d6-398e-4782-964e-9408d369a3bc"},"vehicle_type_id":"4","last_reported":1730992113,"current_range_meters":3600,"station_id":"ce4bgkh2rcd13ifvqbk0","pricing_plan_id":"cebpf4jnsgd1na2vs0mg"},{"bike_id":"ff90f044-b67a-4b64-a278-2703b27d5b23","system_id":"levelo_inurba_marseille","lat":43.28542,"lon":5.37795,"is_reserved":false,"is_disabled":false,"rental_uris":{"android":"levelo://app?vid=ff90f044-b67a-4b64-a278-2703b27d5b23","ios":"levelo://app?vid=ff90f044-b67a-4b64-a278-2703b27d5b23"},"vehicle_type_id":"4","last_reported":1730992113,"current_range_meters":25600,"station_id":"","pricing_plan_id":"cebpf4jnsgd1na2vs0mg"},{"bike_id":"44a84325-69e0-4e54-a681-d11b48c8bd8b","system_id":"levelo_inurba_marseille","lat":43.30135,"lon":5.38783,"is_reserved":false,"is_disabled":false,"rental_uris":{"android":"levelo://app?vid=44a84325-69e0-4e54-a681-d11b48c8bd8b","ios":"levelo://app?vid=44a84325-69e0-4e54-a681-d11b48c8bd8b"},"vehicle_type_id":"4","last_reported":1730992113,"current_range_meters":28400,"station_id":"ce4bghh2rcd13ifvqb60","pricing_plan_id":"cebpf4jnsgd1na2vs0mg"},{"bike_id":"8705ba07-e777-4218-98ee-22336d890310","system_id":"levelo_inurba_marseille","lat":43.29194,"lon":5.39323,"is_reserved":false,"is_disabled":false,"rental_uris":{"android":"levelo://app?vid=8705ba07-e777-4218-98ee-22336d890310","ios":"levelo://app?vid=8705ba07-e777-4218-98ee-22336d890310"},"vehicle_type_id":"4","last_reported":1730992113,"current_range_meters":22400,"station_id":"ce4bh192rcd13ifvqdd0","pricing_plan_id":"cebpf4jnsgd1na2vs0mg"},{"bike_id":"010a22c3-bec0-43ba-a27f-0cc781120c52","system_id":"levelo_inurba_marseille","lat":43.29921,"lon":5.37479,"is_reserved":false,"is_disabled":false,"rental_uris":{"android":"levelo://app?vid=010a22c3-bec0-43ba-a27f-0cc781120c52","ios":"levelo://app?vid=010a22c3-bec0-43ba-a27f-0cc781120c52"},"vehicle_type_id":"4","last_reported":1730992113,"current_range_meters":38800,"station_id":"ce4bgjh2rcd13ifvqbg0","pricing_plan_id":"cebpf4jnsgd1na2vs0mg"},{"bike_id":"5781a8a0-9309-4d44-bd8b-8068aee8be31","system_id":"levelo_inurba_marseille","lat":43.23152,"lon":5.43722,"is_reserved":false,"is_disabled":false,"rental_uris":{"android":"levelo://app?vid=5781a8a0-9309-4d44-bd8b-8068aee8be31","ios":"levelo://app?vid=5781a8a0-9309-4d44-bd8b-8068aee8be31"},"vehicle_type_id":"4","last_reported":1730992113,"current_range_meters":38800,"station_id":"ce4bhmp2rcd13ifvqgog","pricing_plan_id":"cebpf4jnsgd1na2vs0mg"},{"bike_id":"7f85c770-9a0e-4cad-81c2-9eedb58e3073","system_id":"levelo_inurba_marseille","lat":43.26571,"lon":5.39012,"is_reserved":false,"is_disabled":false,"rental_uris":{"android":"levelo://app?vid=7f85c770-9a0e-4cad-81c2-9eedb58e3073","ios":"levelo://app?vid=7f85c770-9a0e-4cad-81c2-9eedb58e3073"},"vehicle_type_id":"4","last_reported":1730992113,"current_range_meters":28800,"station_id":"ce4bhe12rcd13ifvqf30","pricing_plan_id":"cebpf4jnsgd1na2vs0mg"},{"bike_id":"f0934534-e3ce-4ff5-9dd7-d45fdc67e9f7","system_id":"levelo_inurba_marseille","lat":43.2872,"lon":5.37954,"is_reserved":false,"is_disabled":false,"rental_uris":{"android":"levelo://app?vid=f0934534-e3ce-4ff5-9dd7-d45fdc67e9f7","ios":"levelo://app?vid=f0934534-e3ce-4ff5-9dd7-d45fdc67e9f7"},"vehicle_type_id":"4","last_reported":1730992113,"current_range_meters":8800,"station_id":"ce4bh9p2rcd13ifvqec0","pricing_plan_id":"cebpf4jnsgd1na2vs0mg"},{"bike_id":"fc143a24-c01f-458a-9b1a-d708ef52826f","system_id":"levelo_inurba_marseille","lat":43.29792,"lon":5.38084,"is_reserved":false,"is_disabled":false,"rental_uris":{"android":"levelo://app?vid=fc143a24-c01f-458a-9b1a-d708ef52826f","ios":"levelo://app?vid=fc143a24-c01f-458a-9b1a-d708ef52826f"},"vehicle_type_id":"4","last_reported":1730992113,"current_range_meters":38800,"station_id":"ce4bgip2rcd13ifvqbb0","pricing_plan_id":"cebpf4jnsgd1na2vs0mg"},{"bike_id":"49d0decf-5e79-4eb1-ad73-99e1893d19d0","system_id":"levelo_inurba_marseille","lat":43.26197,"lon":5.37933,"is_reserved":false,"is_disabled":false,"rental_uris":{"android":"levelo://app?vid=49d0decf-5e79-4eb1-ad73-99e1893d19d0","ios":"levelo://app?vid=49d0decf-5e79-4eb1-ad73-99e1893d19d0"},"vehicle_type_id":"4","last_reported":1730992113,"current_range_meters":29600,"station_id":"ce4bhjp2rcd13ifvqg90","pricing_plan_id":"cebpf4jnsgd1na2vs0mg"},{"bike_id":"152cb6ee-d066-4d7d-a8c2-c1411169a537","system_id":"levelo_inurba_marseille","lat":43.292,"lon":5.39328,"is_reserved":false,"is_disabled":false,"rental_uris":{"android":"levelo://app?vid=152cb6ee-d066-4d7d-a8c2-c1411169a537","ios":"levelo://app?vid=152cb6ee-d066-4d7d-a8c2-c1411169a537"},"vehicle_type_id":"4","last_reported":1730992113,"current_range_meters":8400,"station_id":"ce4bh192rcd13ifvqdd0","pricing_plan_id":"cebpf4jnsgd1na2vs0mg"},{"bike_id":"49c082e2-06a1-4eeb-abfc-6f31a33886eb","system_id":"levelo_inurba_marseille","lat":43.313507,"lon":5.366864,"is_reserved":false,"is_disabled":false,"rental_uris":{"android":"levelo://app?vid=49c082e2-06a1-4eeb-abfc-6f31a33886eb","ios":"levelo://app?vid=49c082e2-06a1-4eeb-abfc-6f31a33886eb"},"vehicle_type_id":"4","last_reported":1730992113,"current_range_meters":29600,"station_id":"ce4bgr92rcd13ifvqc6g","pricing_plan_id":"cebpf4jnsgd1na2vs0mg"},{"bike_id":"2a4d0609-a1a5-4b44-973b-ae2c45b175ad","system_id":"levelo_inurba_marseille","lat":43.29201,"lon":5.39313,"is_reserved":false,"is_disabled":false,"rental_uris":{"android":"levelo://app?vid=2a4d0609-a1a5-4b44-973b-ae2c45b175ad","ios":"levelo://app?vid=2a4d0609-a1a5-4b44-973b-ae2c45b175ad"},"vehicle_type_id":"4","last_reported":1730992113,"current_range_meters":5600,"station_id":"ce4bh192rcd13ifvqdd0","pricing_plan_id":"cebpf4jnsgd1na2vs0mg"},{"bike_id":"ea3e6923-cc09-4d8a-a5d9-22f92961e699","system_id":"levelo_inurba_marseille","lat":43.30129,"lon":5.39848,"is_reserved":false,"is_disabled":false,"rental_uris":{"android":"levelo://app?vid=ea3e6923-cc09-4d8a-a5d9-22f92961e699","ios":"levelo://app?vid=ea3e6923-cc09-4d8a-a5d9-22f92961e699"},"vehicle_type_id":"4","last_reported":1730992113,"current_range_meters":2800,"station_id":"ce4bh0h2rcd13ifvqd40","pricing_plan_id":"cebpf4jnsgd1na2vs0mg"},{"bike_id":"ed324e6c-bc79-401d-9fc4-d74a7bf45166","system_id":"levelo_inurba_marseille","lat":43.30142,"lon":5.38068,"is_reserved":false,"is_disabled":false,"rental_uris":{"android":"levelo://app?vid=ed324e6c-bc79-401d-9fc4-d74a7bf45166","ios":"levelo://app?vid=ed324e6c-bc79-401d-9fc4-d74a7bf45166"},"vehicle_type_id":"4","last_reported":1730992113,"current_range_meters":38800,"station_id":"ce4bgjp2rcd13ifvqbh0","pricing_plan_id":"cebpf4jnsgd1na2vs0mg"},{"bike_id":"d7835d14-e268-4a12-bf7a-563020261f6c","system_id":"levelo_inurba_marseille","lat":43.28708,"lon":5.37938,"is_reserved":false,"is_disabled":false,"rental_uris":{"android":"levelo://app?vid=d7835d14-e268-4a12-bf7a-563020261f6c","ios":"levelo://app?vid=d7835d14-e268-4a12-bf7a-563020261f6c"},"vehicle_type_id":"4","last_reported":1730992113,"current_range_meters":24800,"station_id":"ce4bh9p2rcd13ifvqec0","pricing_plan_id":"cebpf4jnsgd1na2vs0mg"},{"bike_id":"5b3b4202-5abc-4b67-9cd0-f08d9124df40","system_id":"levelo_inurba_marseille","lat":43.337444,"lon":5.374475,"is_reserved":false,"is_disabled":false,"rental_uris":{"android":"levelo://app?vid=5b3b4202-5abc-4b67-9cd0-f08d9124df40","ios":"levelo://app?vid=5b3b4202-5abc-4b67-9cd0-f08d9124df40"},"vehicle_type_id":"4","last_reported":1730992113,"current_range_meters":38400,"station_id":"","pricing_plan_id":"cebpf4jnsgd1na2vs0mg"},{"bike_id":"54b7f1f6-7341-4bb2-bbd6-8766f023bcaf","system_id":"levelo_inurba_marseille","lat":43.30324,"lon":5.40436,"is_reserved":false,"is_disabled":false,"rental_uris":{"android":"levelo://app?vid=54b7f1f6-7341-4bb2-bbd6-8766f023bcaf","ios":"levelo://app?vid=54b7f1f6-7341-4bb2-bbd6-8766f023bcaf"},"vehicle_type_id":"4","last_reported":1730992113,"current_range_meters":20800,"station_id":"ce4bh012rcd13ifvqd10","pricing_plan_id":"cebpf4jnsgd1na2vs0mg"},{"bike_id":"6efd2ad1-a7bd-4678-ac21-798141d9ac9e","system_id":"levelo_inurba_marseille","lat":43.29873,"lon":5.39731,"is_reserved":false,"is_disabled":false,"rental_uris":{"android":"levelo://app?vid=6efd2ad1-a7bd-4678-ac21-798141d9ac9e","ios":"levelo://app?vid=6efd2ad1-a7bd-4678-ac21-798141d9ac9e"},"vehicle_type_id":"4","last_reported":1730992113,"current_range_meters":39200,"station_id":"ce4bh0h2rcd13ifvqd50","pricing_plan_id":"cebpf4jnsgd1na2vs0mg"},{"bike_id":"8b3bfdfd-0c1d-4424-8d53-d1abee591b85","system_id":"levelo_inurba_marseille","lat":43.32483,"lon":5.36573,"is_reserved":false,"is_disabled":false,"rental_uris":{"android":"levelo://app?vid=8b3bfdfd-0c1d-4424-8d53-d1abee591b85","ios":"levelo://app?vid=8b3bfdfd-0c1d-4424-8d53-d1abee591b85"},"vehicle_type_id":"4","last_reported":1730992113,"current_range_meters":16400,"station_id":"ce4bhs12rcd13ifvqhvg","pricing_plan_id":"cebpf4jnsgd1na2vs0mg"},