{"last_updated":1726996117,"ttl":30,"version":"2.2","data":{"bikes":[{"bike_id":"fd84f170-c075-4570-a556-c5e617e29406","system_id":"levelo_inurba_marseille","lat":43.28272,"lon":5.40908,"is_reserved":false,"is_disabled":false,"rental_uris":{"android":"levelo://app?vid=fd84f170-c075-4570-a556-c5e617e29406","ios":"levelo://app?vid=fd84f170-c075-4570-a556-c5e617e29406"},"vehicle_type_id":"4","last_reported":1726996117,"current_range_meters":19200,"station_id":"","pricing_plan_id":"cebpf4jnsgd1na2vs0mg"},{"bike_id":"7322c998-cc22-4396-aef7-57822e9e1df6","system_id":"levelo_inurba_marseille","lat":43.27901,"lon":5.39599,"is_reserved":false,"is_disabled":false,"rental_uris":{"android":"levelo://app?vid=7322c998-cc22-4396-aef7-57822e9e1df6","ios":"levelo://app?vid=7322c998-cc22-4396-aef7-57822e9e1df6"},"vehicle_type_id":"4","last_reported":1726996117,"current_range_meters":38000,"station_id":"ce4bhf92rcd13ifvqf40","pricing_plan_id":"cebpf4jnsgd1na2vs0mg"},{"bike_id":"09ef34b6-482f-4988-9331-10658115e1c1","system_id":"levelo_inurba_marseille","lat":43.31522,"lon":5.38041,"is_reserved":false,"is_disabled":false,"rental_uris":{"android":"levelo://app?vid=09ef34b6-482f-4988-9331-10658115e1c1","ios":"levelo://app?vid=09ef34b6-482f-4988-9331-10658115e1c1"},"vehicle_type_id":"4","last_reported":1726996117,"current_range_meters":19200,"station_id":"ce4bhsp2rcd13ifvqi50","pricing_plan_id":"cebpf4jnsgd1na2vs0mg"},{"bike_id":"d45ef937-26e3-447f-9e6b-46a661cd51b1","system_id":"levelo_inurba_marseille","lat":43.30791,"lon":5.38168,"is_reserved":false,"is_disabled":false,"rental_uris":{"android":"levelo://app?vid=d45ef937-26e3-447f-9e6b-46a661cd51b1","ios":"levelo://app?vid=d45ef937-26e3-447f-9e6b-46a661cd51b1"},"vehicle_type_id":"4","last_reported":1726996117,"current_range_meters":30400,"station_id":"ce4bgt12rcd13ifvqce0","pricing_plan_id":"cebpf4jnsgd1na2vs0mg"},{"bike_id":"fa40c179-cc76-4642-bd2c-df0bf2c367b9","system_id":"levelo_inurba_marseille","lat":43.30314,"lon":5.40447,"is_reserved":false,"is_disabled":false,"rental_uris":{"android":"levelo://app?vid=fa40c179-cc76-4642-bd2c-df0bf2c367b9","ios":"levelo://app?vid=fa40c179-cc76-4642-bd2c-df0bf2c367b9"},"vehicle_type_id":"4","last_reported":1726996117,"current_range_meters":20000,"station_id":"ce4bh012rcd13ifvqd10","pricing_plan_id":"cebpf4jnsgd1na2vs0mg"},{"bike_id":"c4008c44-23d0-4592-b667-e21fc5691ab3","system_id":"levelo_inurba_marseille","lat":43.25577,"lon":5.38237,"is_reserved":false,"is_disabled":false,"rental_uris":{"android":"levelo://app?vid=c4008c44-23d0-4592-b667-e21fc5691ab3","ios":"levelo://app?vid=c4008c44-23d0-4592-b667-e21fc5691ab3"},"vehicle_type_id":"4","last_reported":1726996117,"current_range_meters":6800,"station_id":"ce4bhih2rcd13ifvqfs0","pricing_plan_id":"cebpf4jnsgd1na2vs0mg"},{"bike_id":"0f4bd5ad-8a1a-4214-94a9-f7a00a32a067","system_id":"levelo_inurba_marseille","lat":43.32065,"lon":5.41545,"is_reserved":false,"is_disabled":false,"rental_uris":{"android":"levelo://app?vid=0f4bd5ad-8a1a-4214-94a9-f7a00a32a067","ios":"levelo://app?vid=0f4bd5ad-8a1a-4214-94a9-f7a00a32a067"},"vehicle_type_id":"4","last_reported":1726996117,"current_range_meters":28000,"station_id":"ce4bhq92rcd13ifvqhkg","pricing_plan_id":"cebpf4jnsgd1na2vs0mg"},{"bike_id":"a51e77dd-e92f-4e96-a998-002ed08501fb","system_id":"levelo_inurba_marseille","lat":43.29004,"lon":5.35614,"is_reserved":false,"is_disabled":false,"rental_uris":{"android":"levelo://app?vid=a51e77dd-e92f-4e96-a998-002ed08501fb","ios":"levelo://app?vid=a51e77dd-e92f-4e96-a998-002ed08501fb"},"vehicle_type_id":"4","last_reported":1726996117,"current_range_meters":39200,"station_id":"ce4bhb92rcd13ifvqen0","pricing_plan_id":"cebpf4jnsgd1na2vs0mg"},{"bike_id":"add3a9bb-89c0-4474-99ed-e918f5013f73","system_id":"levelo_inurba_marseille","lat":43.2396,"lon":5.36642,"is_reserved":false,"is_disabled":false,"rental_uris":{"android":"levelo://app?vid=add3a9bb-89c0-4474-99ed-e918f5013f73","ios":"levelo://app?vid=add3a9bb-89c0-4474-99ed-e918f5013f73"},"vehicle_type_id":"4","last_reported":1726996117,"current_range_meters":39200,"station_id":"ce4bhi12rcd13ifvqfp0","pricing_plan_id":"cebpf4jnsgd1na2vs0mg"},{"bike_id":"a6a6652f-b457-4224-9981-c73f90bbf173","system_id":"levelo_inurba_marseille","lat":43.25104,"lon":5.40323,"is_reserved":false,"is_disabled":false,"rental_uris":{"android":"levelo://app?vid=a6a6652f-b457-4224-9981-c73f90bbf173","ios":"levelo://app?vid=a6a6652f-b457-4224-9981-c73f90bbf173"},"vehicle_type_id":"4","last_reported":1726996117,"current_range_meters":11200,"station_id":"ce4bhlh2rcd13ifvqgig","pricing_plan_id":"cebpf4jnsgd1na2vs0mg"},{"bike_id":"89cdcc83-7aab-4c78-8e76-aa0ccb30eb08","system_id":"levelo_inurba_marseille","lat":43.31711,"lon":5.43705,"is_reserved":false,"is_disabled":false,"rental_uris":{"android":"levelo://app?vid=89cdcc83-7aab-4c78-8e76-aa0ccb30eb08","ios":"levelo://app?vid=89cdcc83-7aab-4c78-8e76-aa0ccb30eb08"},"vehicle_type_id":"4","last_reported":1726996117,"current_range_meters":21600,"station_id":"ce4bhp92rcd13ifvqhcg","pricing_plan_id":"cebpf4jnsgd1na2vs0mg"},{"bike_id":"bb4df0e9-f359-4527-a8fe-02e757ca5ac9","system_id":"levelo_inurba_marseille","lat":43.295776,"lon":5.367552,"is_reserved":false,"is_disabled":false,"rental_uris":{"android":"levelo://app?vid=bb4df0e9-f359-4527-a8fe-02e757ca5ac9","ios":"levelo://app?vid=bb4df0e9-f359-4527-a8fe-02e757ca5ac9"},"vehicle_type_id":"4","last_reported":1726996117,"current_range_meters":28800,"station_id":"ce4bgph2rcd13ifvqc2g","pricing_plan_id":"cebpf4jnsgd1na2vs0mg"},{"bike_id":"bedab225-f351-4171-a869-119b3a01c5f3","system_id":"levelo_inurba_marseille","lat":43.28442,"lon":5.3918,"is_reserved":false,"is_disabled":false,"rental_uris":{"android":"levelo://app?vid=bedab225-f351-4171-a869-119b3a01c5f3","ios":"levelo://app?vid=bedab225-f351-4171-a869-119b3a01c5f3"},"vehicle_type_id":"4","last_reported":1726996117,"current_range_meters":38400,"station_id":"ce4bhoh2rcd13ifvqh5g","pricing_plan_id":"cebpf4jnsgd1na2vs0mg"},{"bike_id":"b3997646-ed78-4067-a83e-a6e2a01d0529","system_id":"levelo_inurba_marseille","lat":43.28429,"lon":5.39191,"is_reserved":false,"is_disabled":false,"rental_uris":{"android":"levelo://app?vid=b3997646-ed78-4067-a83e-a6e2a01d0529","ios":"levelo://app?vid=b3997646-ed78-4067-a83e-a6e2a01d0529"},"vehicle_type_id":"4","last_reported":1726996117,"current_range_meters":21600,"station_id":"ce4bhoh2rcd13ifvqh5g","pricing_plan_id":"cebpf4jnsgd1na2vs0mg"},{"bike_id":"112cdf4e-2861-48b3-9b4b-5d33e9e81e84","system_id":"levelo_inurba_marseille","lat":43.284897,"lon":5.384085,"is_reserved":false,"is_disabled":false,"rental_uris":{"android":"levelo://app?vid=112cdf4e-2861-48b3-9b4b-5d33e9e81e84","ios":"levelo://app?vid=112cdf4e-2861-48b3-9b4b-5d33e9e81e84"},"vehicle_type_id":"4","last_reported":1726996117,"current_range_meters":32000,"station_id":"ce4bh512rcd13ifvqe3g","pricing_plan_id":"cebpf4jnsgd1na2vs0mg"},{"bike_id":"49d33d0e-03c8-450d-a6df-1ee512019240","system_id":"levelo_inurba_marseille","lat":43.28797,"lon":5.35264,"is_reserved":false,"is_disabled":false,"rental_uris":{"android":"levelo://app?vid=49d33d0e-03c8-450d-a6df-1ee512019240","ios":"levelo://app?vid=49d33d0e-03c8-450d-a6df-1ee512019240"},"vehicle_type_id":"4","last_reported":1726996117,"current_range_meters":20800,"station_id":"ce4bhb92rcd13ifvqen0","pricing_plan_id":"cebpf4jnsgd1na2vs0mg"},{"bike_id":"9fad6916-fb07-4adf-8dcf-0df96c90bf20","system_id":"levelo_inurba_marseille","lat":43.29186,"lon":5.35797,"is_reserved":false,"is_disabled":false,"rental_uris":{"android":"levelo://app?vid=9fad6916-fb07-4adf-8dcf-0df96c90bf20","ios":"levelo://app?vid=9fad6916-fb07-4adf-8dcf-0df96c90bf20"},"vehicle_type_id":"4","last_reported":1726996117,"current_range_meters":38800,"station_id":"ce4bhb12rcd13ifvqel0","pricing_plan_id":"cebpf4jnsgd1na2vs0mg"},{"bike_id":"29c3801a-7b4c-47aa-a6ad-d81b447de9a5","system_id":"levelo_inurba_marseille","lat":43.30416,"lon":5.41287,"is_reserved":false,"is_disabled":false,"rental_uris":{"android":"levelo://app?vid=29c3801a-7b4c-47aa-a6ad-d81b447de9a5","ios":"levelo://app?vid=29c3801a-7b4c-47aa-a6ad-d81b447de9a5"},"vehicle_type_id":"4","last_reported":1726996117,"current_range_meters":26000,"station_id":"ce4bhop2rcd13ifvqh8g","pricing_plan_id":"cebpf4jnsgd1na2vs0mg"},{"bike_id":"b963fc06-dc99-46cc-83a8-fb2ac74d5739","system_id":"levelo_inurba_marseille","lat":43.231716,"lon":5.399838,"is_reserved":false,"is_disabled":false,"rental_uris":{"android":"levelo://app?vid=b963fc06-dc99-46cc-83a8-fb2ac74d5739","ios":"levelo://app?vid=b963fc06-dc99-46cc-83a8-fb2ac74d5739"},"vehicle_type_id":"4","last_reported":1726996117,"current_range_meters":20800,"station_id":"ce4bhn12rcd13ifvqgqg","pricing_plan_id":"cebpf4jnsgd1na2vs0mg"},{"bike_id":"b9043ee7-1b51-4205-a7f8-061a93eb7c50","system_id":"levelo_inurba_marseille","lat":43.31889,"lon":5.40736,"is_reserved":false,"is_disabled":false,"rental_uris":{"android":"levelo://app?vid=b9043ee7-1b51-4205-a7f8-061a93eb7c50","ios":"levelo://app?vid=b9043ee7-1b51-4205-a7f8-061a93eb7c50"},"vehicle_type_id":"4","last_reported":1726996117,"current_range_meters":40000,"station_id":"ce4bhq12rcd13ifvqhig","pricing_plan_id":"cebpf4jnsgd1na2vs0mg"},{"bike_id":"3c168981-3815-461f-893b-90b4ce403053","system_id":"levelo_inurba_marseille","lat":43.25864,"lon":5.39898,"is_reserved":false,"is_disabled":false,"rental_uris":{"android":"levelo://app?vid=3c168981-3815-461f-893b-90b4ce403053","ios":"levelo://app?vid=3c168981-3815-461f-893b-90b4ce403053"},"vehicle_type_id":"4","last_reported":1726996117,"current_range_meters":24800,"station_id":"ce4bhl92rcd13ifvqghg","pricing_plan_id":"cebpf4jnsgd1na2vs0mg"},{"bike_id":"20a042f1-81aa-4cde-8548-4f002e395336","system_id":"levelo_inurba_marseille","lat":43.3018,"lon":5.39841,"is_reserved":false,"is_disabled":false,"rental_uris":{"android":"levelo://app?vid=20a042f1-81aa-4cde-8548-4f002e395336","ios":"levelo://app?vid=20a042f1-81aa-4cde-8548-4f002e395336"},"vehicle_type_id":"4","last_reported":1726996117,"current_range_meters":37600,"station_id":"ce4bgvp2rcd13ifvqct0","pricing_plan_id":"cebpf4jnsgd1na2vs0mg"},{"bike_id":"3f3a1968-161c-4281-9dac-b1f6f3f79cd0","system_id":"levelo_inurba_marseille","lat":43.27492,"lon":5.42456,"is_reserved":false,"is_disabled":false,"rental_uris":{"android":"levelo://app?vid=3f3a1968-161c-4281-9dac-b1f6f3f79cd0","ios":"levelo://app?vid=3f3a1968-161c-4281-9dac-b1f6f3f79cd0"},"vehicle_type_id":"4","last_reported":1726996117,"current_range_meters":17200,"station_id":"ce4bhn92rcd13ifvqgrg","pricing_plan_id":"cebpf4jnsgd1na2vs0mg"},{"bike_id":"ea76e2d8-2a52-4e93-b8ee-165e894e3fd3","system_id":"levelo_inurba_marseille","lat":43.29218,"lon":5.36075,"is_reserved":false,"is_disabled":false,"rental_uris":{"android":"levelo://app?vid=ea76e2d8-2a52-4e93-b8ee-165e894e3fd3","ios":"levelo://app?vid=ea76e2d8-2a52-4e93-b8ee-165e894e3fd3"},"vehicle_type_id":"4","last_reported":1726996117,"current_range_meters":22800,"station_id":"ce4bhbh2rcd13ifvqeqg","pricing_plan_id":"cebpf4jnsgd1na2vs0mg"},{"bike_id":"a4ae4f79-4648-4b4c-bac6-c78ecf3d57bc","system_id":"levelo_inurba_marseille","lat":43.31083,"lon":5.42429,"is_reserved":false,"is_disabled":false,"rental_uris":{"android":"levelo://app?vid=a4ae4f79-4648-4b4c-bac6-c78ecf3d57bc","ios":"levelo://app?vid=a4ae4f79-4648-4b4c-bac6-c78ecf3d57bc"},"vehicle_type_id":"4","last_reported":1726996117,"current_range_meters":10000,"station_id":"ce4bhp92rcd13ifvqhag","pricing_plan_id":"cebpf4jnsgd1na2vs0mg"},{"bike_id":"c75fe3d3-e6c8-4a25-95e1-f837f95917ff","system_id":"levelo_inurba_marseille","lat":43.26029,"lon":5.39403,"is_reserved":false,"is_disabled":false,"rental_uris":{"android":"levelo://app?vid=c75fe3d3-e6c8-4a25-95e1-f837f95917ff","ios":"levelo://app?vid=c75fe3d3-e6c8-4a25-95e1-f837f95917ff"},"vehicle_type_id":"4","last_reported":1726996117,"current_range_meters":36000,"station_id":"ce4bhip2rcd13ifvqft0","pricing_plan_id":"cebpf4jnsgd1na2vs0mg"},{"bike_id":"d4c3c260-b3a8-4fe5-aec9-07f42c5f5835","system_id":"levelo_inurba_marseille","lat":43.29042,"lon":5.35929,"is_reserved":false,"is_disabled":false,"rental_uris":{"android":"levelo://app?vid=d4c3c260-b3a8-4fe5-aec9-07f42c5f5835","ios":"levelo://app?vid=d4c3c260-b3a8-4fe5-aec9-07f42c5f5835"},"vehicle_type_id":"4","last_reported":1726996117,"current_range_meters":38400,"station_id":"ce4bha92rcd13ifvqeg0","pricing_plan_id":"cebpf4jnsgd1na2vs0mg"},{"bike_id":"1ee41df2-3cf2-4f6b-8009-61bf353657af","system_id":"levelo_inurba_marseille","lat":43.32333,"lon":5.40617,"is_reserved":false,"is_disabled":false,"rental_uris":{"android":"levelo://app?vid=1ee41df2-3cf2-4f6b-8009-61bf353657af","ios":"levelo://app?vid=1ee41df2-3cf2-4f6b-8009-61bf353657af"},"vehicle_type_id":"4","last_reported":1726996117,"current_range_meters":10800,"station_id":"ce4bhq92rcd13ifvqhjg","pricing_plan_id":"cebpf4jnsgd1na2vs0mg"},{"bike_id":"6eb7f0eb-b1d6-49fe-bba6-beac0362eedd","system_id":"levelo_inurba_marseille","lat":43.27173,"lon":5.40991,"is_reserved":false,"is_disabled":false,"rental_uris":{"android":"levelo://app?vid=6eb7f0eb-b1d6-49fe-bba6-beac0362eedd","ios":"levelo://app?vid=6eb7f0eb-b1d6-49fe-bba6-beac0362eedd"},"vehicle_type_id":"4","last_reported":1726996117,"current_range_meters":39200,"station_id":"ce4bhl12rcd13ifvqgf0","pricing_plan_id":"cebpf4jnsgd1na2vs0mg"},{"bike_id":"e1181a64-e0c5-44b6-a184-90a821734232","system_id":"levelo_inurba_marseille","lat":43.26498,"lon":5.39546,"is_reserved":false,"is_disabled":false,"rental_uris":{"android":"levelo://app?vid=e1181a64-e0c5-44b6-a184-90a821734232","ios":"levelo://app?vid=e1181a64-e0c5-44b6-a184-90a821734232"},"vehicle_type_id":"4","last_reported":1726996117,"current_range_meters":29600,"station_id":"ce4bhi12rcd13ifvqfq0","pricing_plan_id":"cebpf4jnsgd1na2vs0mg"},{"bike_id":"96247566-d518-4409-a232-ee6adf73b250","system_id":"levelo_inurba_marseille","lat":43.2861,"lon":5.35097,"is_reserved":false,"is_disabled":false,"rental_uris":{"android":"levelo://app?vid=96247566-d518-4409-a232-ee6adf73b250","ios":"levelo://app?vid=96247566-d518-4409-a232-ee6adf73b250"},"vehicle_type_id":"4","last_reported":1726996117,"current_range_meters":38800,"station_id":"ce4bhch2rcd13ifvqeug","pricing_plan_id":"cebpf4jnsgd1na2vs0mg"},{"bike_id":"ddef2735-203a-4460-8fe2-32d0d088e5d5","system_id":"levelo_inurba_marseille","lat":43.31236,"lon":5.37984,"is_reserved":false,"is_disabled":false,"rental_uris":{"android":"levelo://app?vid=ddef2735-203a-4460-8fe2-32d0d088e5d5","ios":"levelo://app?vid=ddef2735-203a-4460-8fe2-32d0d088e5d5"},"vehicle_type_id":"4","last_reported":1726996117,"current_range_meters":6800,"station_id":"","pricing_plan_id":"cebpf4jnsgd1na2vs0mg"},{"bike_id":"e14a0c81-d4c9-4d83-bc2a-9d3b4e35e836","system_id":"levelo_inurba_marseille","lat":43.29963,"lon":5.38492,"is_reserved":false,"is_disabled":false,"rental_uris":{"android":"levelo://app?vid=e14a0c81-d4c9-4d83-bc2a-9d3b4e35e836","ios":"levelo://app?vid=e14a0c81-d4c9-4d83-bc2a-9d3b4e35e836"},"vehicle_type_id":"4","last_reported":1726996117,"current_range_meters":26000,"station_id":"ce4bgj92rcd13ifvqbd0","pricing_plan_id":"cebpf4jnsgd1na2vs0mg"},{"bike_id":"6827b231-1d6c-4880-9e24-d675a65cf584","system_id":"levelo_inurba_marseille","lat":43.32343,"lon":5.40614,"is_reserved":false,"is_disabled":false,"rental_uris":{"android":"levelo://app?vid=6827b231-1d6c-4880-9e24-d675a65cf584","ios":"levelo://app?vid=6827b231-1d6c-4880-9e24-d675a65cf584"},"vehicle_type_id":"4","last_reported":1726996117,"current_range_meters":8400,"station_id":"ce4bhq92rcd13ifvqhjg","pricing_plan_id":"cebpf4jnsgd1na2vs0mg"},{"bike_id":"0306de8e-8a38-4268-bad8-568b2c2495b5","system_id":"levelo_inurba_marseille","lat":43.26786,"lon":5.39416,"is_reserved":false,"is_disabled":false,"rental_uris":{"android":"levelo://app?vid=0306de8e-8a38-4268-bad8-568b2c2495b5","ios":"levelo://app?vid=0306de8e-8a38-4268-bad8-568b2c2495b5"},"vehicle_type_id":"4","last_reported":1726996117,"current_range_meters":39200,"station_id":"ce4bhh12rcd13ifvqfg0","pricing_plan_id":"cebpf4jnsgd1na2vs0mg"},{"bike_id":"80ef0bbe-2694-4d57-aa26-0ee82b5cdca4","system_id":"levelo_inurba_marseille","lat":43.32657,"lon":5.40992,"is_reserved":false,"is_disabled":false,"rental_uris":{"android":"levelo://app?vid=80ef0bbe-2694-4d57-aa26-0ee82b5cdca4","ios":"levelo://app?vid=80ef0bbe-2694-4d57-aa26-0ee82b5cdca4"},"vehicle_type_id":"4","last_reported":1726996117,"current_range_meters":39200,"station_id":"ce4bhpp2rcd13ifvqhgg","pricing_plan_id":"cebpf4jnsgd1na2vs0mg"},{"bike_id":"6ba0aa1b-36a5-490c-88aa-bba855ea6544","system_id":"levelo_inurba_marseille","lat":43.30142,"lon":5.37418,"is_reserved":false,"is_disabled":false,"rental_uris":{"android":"levelo://app?vid=6ba0aa1b-36a5-490c-88aa-bba855ea6544","ios":"levelo://app?vid=6ba0aa1b-36a5-490c-88aa-bba855ea6544"},"vehicle_type_id":"4","last_reported":1726996117,"current_range_meters":8000,"station_id":"ce4bgs92rcd13ifvqcc0","pricing_plan_id":"cebpf4jnsgd1na2vs0mg"},{"bike_id":"723f33ba-ee51-48ff-85ce-ad3e3fd37e58","system_id":"levelo_inurba_marseille","lat":43.30801,"lon":5.38154,"is_reserved":false,"is_disabled":false,"rental_uris":{"android":"levelo://app?vid=723f33ba-ee51-48ff-85ce-ad3e3fd37e58","ios":"levelo://app?vid=723f33ba-ee51-48ff-85ce-ad3e3fd37e58"},"vehicle_type_id":"4","last_reported":1726996117,"current_range_meters":16000,"station_id":"ce4bgt12rcd13ifvqce0","pricing_plan_id":"cebpf4jnsgd1na2vs0mg"},{"bike_id":"98516d21-8729-4cbd-8b6a-08d38f3bb916","system_id":"levelo_inurba_marseille","lat":43.28396,"lon":5.37517,"is_reserved":false,"is_disabled":false,"rental_uris":{"android":"levelo://app?vid=98516d21-8729-4cbd-8b6a-08d38f3bb916","ios":"levelo://app?vid=98516d21-8729-4cbd-8b6a-08d38f3bb916"},"vehicle_type_id":"4","last_reported":1726996117,"current_range_meters":38800,"station_id":"ce4bh412rcd13ifvqds0","pricing_plan_id":"cebpf4jnsgd1na2vs0mg"},{"bike_id":"6419325f-76c1-4392-9dbc-8446db0b27c5","system_id":"levelo_inurba_marseille","lat":43.30264,"lon":5.38381,"is_reserved":false,"is_disabled":false,"rental_uris":{"android":"levelo://app?vid=6419325f-76c1-4392-9dbc-8446db0b27c5","ios":"levelo://app?vid=6419325f-76c1-4392-9dbc-8446db0b27c5"},"vehicle_type_id":"4","last_reported":1726996117,"current_range_meters":16400,"station_id":"","pricing_plan_id":"cebpf4jnsgd1na2vs0mg"},{"bike_id":"ebb40a11-6589-43d4-8f53-49300efef4ee","system_id":"levelo_inurba_marseille","lat":43.29577,"lon":5.3674,"is_reserved":false,"is_disabled":false,"rental_uris":{"android":"levelo://app?vid=ebb40a11-6589-43d4-8f53-49300efef4ee","ios":"levelo://app?vid=ebb40a11-6589-43d4-8f53-49300efef4ee"},"vehicle_type_id":"4","last_reported":1726996117,"current_range_meters":40000,"station_id":"ce4bgph2rcd13ifvqc2g","pricing_plan_id":"cebpf4jnsgd1na2vs0mg"},{"bike_id":"d8c66e04-50bc-49b9-baa1-b4fcdbe19eeb","system_id":"levelo_inurba_marseille","lat":43.27769,"lon":5.3554,"is_reserved":false,"is_disabled":false,"rental_uris":{"android":"levelo://app?vid=d8c66e04-50bc-49b9-baa1-b4fcdbe19eeb","ios":"levelo://app?vid=d8c66e04-50bc-49b9-baa1-b4fcdbe19eeb"},"vehicle_type_id":"4","last_reported":1726996117,"current_range_meters":29600,"station_id":"","pricing_plan_id":"cebpf4jnsgd1na2vs0mg"},{"bike_id":"bda83ca7-9798-4a91-9454-79010960b865","system_id":"levelo_inurba_marseille","lat":43.25711,"lon":5.41124,"is_reserved":false,"is_disabled":false,"rental_uris":{"android":"levelo://app?vid=bda83ca7-9798-4a91-9454-79010960b865","ios":"levelo://app?vid=bda83ca7-9798-4a91-9454-79010960b865"},"vehicle_type_id":"4","last_reported":1726996117,"current_range_meters":31200,"station_id":"ce4bhkp2rcd13ifvqgd0","pricing_plan_id":"cebpf4jnsgd1na2vs0mg"},{"bike_id":"2abfd0da-52ff-49fd-a5cb-a8f4dd818089","system_id":"levelo_inurba_marseille","lat":43.28151,"lon":5.42641,"is_reserved":false,"is_disabled":false,"rental_uris":{"android":"levelo://app?vid=2abfd0da-52ff-49fd-a5cb-a8f4dd818089","ios":"levelo://app?vid=2abfd0da-52ff-49fd-a5cb-a8f4dd818089"},"vehicle_type_id":"4","last_reported":1726996117,"current_range_meters":37600,"station_id":"ce4bhnh2rcd13ifvqgug","pricing_plan_id":"cebpf4jnsgd1na2vs0mg"},{"bike_id":"edfb1ff5-b81b-4225-8da9-100a9115b1e3","system_id":"levelo_inurba_marseille","lat":43.29735,"lon":5.36561,"is_reserved":false,"is_disabled":false,"rental_uris":{"android":"levelo://app?vid=edfb1ff5-b81b-4225-8da9-100a9115b1e3","ios":"levelo://app?vid=edfb1ff5-b81b-4225-8da9-100a9115b1e3"},"vehicle_type_id":"4","last_reported":1726996117,"current_range_meters":4400,"station_id":"","pricing_plan_id":"cebpf4jnsgd1na2vs0mg"},{"bike_id":"d42bf138-10ef-4c6f-8871-9ec57414c024","system_id":"levelo_inurba_marseille","lat":43.29033,"lon":5.39972,"is_reserved":false,"is_disabled":false,"rental_uris":{"android":"levelo://app?vid=d42bf138-10ef-4c6f-8871-9ec57414c024","ios":"levelo://app?vid=d42bf138-10ef-4c6f-8871-9ec57414c024"},"vehicle_type_id":"4","last_reported":1726996117,"current_range_meters":24400,"station_id":"ce4bgj92rcd13ifvqbd0","pricing_plan_id":"cebpf4jnsgd1na2vs0mg"},{"bike_id":"c2e928f4-9ada-4df1-9917-41f2f7b16be7","system_id":"levelo_inurba_marseille","lat":43.284149,"lon":5.349893,"is_reserved":false,"is_disabled":false,"rental_uris":{"android":"levelo://app?vid=c2e928f4-9ada-4df1-9917-41f2f7b16be7","ios":"levelo://app?vid=c2e928f4-9ada-4df1-9917-41f2f7b16be7"},"vehicle_type_id":"4","last_reported":1726996117,"current_range_meters":36800,"station_id":"ce4bhbh2rcd13ifvqepg","pricing_plan_id":"cebpf4jnsgd1na2vs0mg"},{"bike_id":"c914526b-bc34-4a4c-8d27-ef89019aa801","system_id":"levelo_inurba_marseille","lat":43.29558,"lon":5.42291,"is_reserved":false,"is_disabled":false,"rental_uris":{"android":"levelo://app?vid=c914526b-bc34-4a4c-8d27-ef89019aa801","ios":"levelo://app?vid=c914526b-bc34-4a4c-8d27-ef89019aa801"},"vehicle_type_id":"4","last_reported":1726996117,"current_range_meters":16000,"station_id":"ce4bhph2rcd13ifvqhdg","pricing_plan_id":"cebpf4jnsgd1na2vs0mg"},{"bike_id":"d7ff4982-bcb9-497f-bf41-9aa5a95f60e7","system_id":"levelo_inurba_marseille","lat":43.30466,"lon":5.37918,"is_reserved":false,"is_disabled":false,"rental_uris":{"android":"levelo://app?vid=d7ff4982-bcb9-497f-bf41-9aa5a95f60e7","ios":"levelo://app?vid=d7ff4982-bcb9-497f-bf41-9aa5a95f60e7"},"vehicle_type_id":"4","last_reported":1726996117,"current_range_meters":28000,"station_id":"ce4bgup2rcd13ifvqcn0","pricing_plan_id":"cebpf4jnsgd1na2vs0mg"},{"bike_id":"659a1cf3-94fe-4b3a-b8ae-406f3f0446d9","system_id":"levelo_inurba_marseille","lat":43.2318,"lon":5.39982,"is_reserved":false,"is_disabled":false,"rental_uris":{"android":"levelo://app?vid=659a1cf3-94fe-4b3a-b8ae-406f3f0446d9","ios":"levelo://app?vid=659a1cf3-94fe-4b3a-b8ae-406f3f0446d9"},"vehicle_type_id":"4","last_reported":1726996117,"current_range_meters":9600,"station_id":"ce4bhn12rcd13ifvqgqg","pricing_plan_id":"cebpf4jnsgd1na2vs0mg"},{"bike_id":"26bddfec-0748-47a2-9395-97b7afaf6400","system_id":"levelo_inurba_marseille","lat":43.25861,"lon":5.39901,"is_reserved":false,"is_disabled":false,"rental_uris":{"android":"levelo://app?vid=26bddfec-0748-47a2-9395-97b7afaf6400","ios":"levelo://app?vid=26bddfec-0748-47a2-9395-97b7afaf6400"},"vehicle_type_id":"4","last_reported":1726996117,"current_range_meters":8400,"station_id":"ce4bhl92rcd13ifvqghg","pricing_plan_id":"cebpf4jnsgd1na2vs0mg"},{"bike_id":"3ab91b7c-c147-41e4-bbfa-5091b026f024","system_id":"levelo_inurba_marseille","lat":43.28278,"lon":5.35093,"is_reserved":false,"is_disabled":false,"rental_uris":{"android":"levelo://app?vid=3ab91b7c-c147-41e4-bbfa-5091b026f024","ios":"levelo://app?vid=3ab91b7c-c147-41e4-bbfa-5091b026f024"},"vehicle_type_id":"4","last_reported":1726996117,"current_range_meters":38400,"station_id":"ce4bhbp2rcd13ifvqerg","pricing_plan_id":"cebpf4jnsgd1na2vs0mg"},{"bike_id":"9b270c0b-276d-47a0-b1ea-db76f7a1e4e2","system_id":"levelo_inurba_marseille","lat":43.27381,"lon":5.36262,"is_reserved":false,"is_disabled":false,"rental_uris":{"android":"levelo://app?vid=9b270c0b-276d-47a0-b1ea-db76f7a1e4e2","ios":"levelo://app?vid=9b270c0b-276d-47a0-b1ea-db76f7a1e4e2"},"vehicle_type_id":"4","last_reported":1726996117,"current_range_meters":38800,"station_id":"ce4bhbh2rcd13ifvqeo0","pricing_plan_id":"cebpf4jnsgd1na2vs0mg"},{"bike_id":"03bad859-4358-4bb4-9b18-007f8463f1b5","system_id":"levelo_inurba_marseille","lat":43.23187,"lon":5.39986,"is_reserved":false,"is_disabled":false,"rental_uris":{"android":"levelo://app?vid=03bad859-4358-4bb4-9b18-007f8463f1b5","ios":"levelo://app?vid=03bad859-4358-4bb4-9b18-007f8463f1b5"},"vehicle_type_id":"4","last_reported":1726996117,"current_range_meters":38800,"station_id":"ce4bhn12rcd13ifvqgqg","pricing_plan_id":"cebpf4jnsgd1na2vs0mg"},{"bike_id":"e2166492-0b18-4cc4-b9f1-dda0ab550b0a","system_id":"levelo_inurba_marseille","lat":43.30251,"lon":5.4007,"is_reserved":false,"is_disabled":false,"rental_uris":{"android":"levelo://app?vid=e2166492-0b18-4cc4-b9f1-dda0ab550b0a","ios":"levelo://app?vid=e2166492-0b18-4cc4-b9f1-dda0ab550b0a"},"vehicle_type_id":"4","last_reported":1726996117,"current_range_meters":24000,"station_id":"ce4bgvh2rcd13ifvqcs0","pricing_plan_id":"cebpf4jnsgd1na2vs0mg"},{"bike_id":"ea219450-0551-484e-bdfc-3c198bec9523","system_id":"levelo_inurba_marseille","lat":43.25866,"lon":5.39901,"is_reserved":false,"is_disabled":false,"rental_uris":{"android":"levelo://app?vid=ea219450-0551-484e-bdfc-3c198bec9523","ios":"levelo://app?vid=ea219450-0551-484e-bdfc-3c198bec9523"},"vehicle_type_id":"4","last_reported":1726996117,"current_range_meters":22000,"station_id":"ce4bhl92rcd13ifvqghg","pricing_plan_id":"cebpf4jnsgd1na2vs0mg"},{"bike_id":"be4e3a6b-ebd3-49c9-9eb8-d3f1c777207e","system_id":"levelo_inurba_marseille","lat":43.25115,"lon":5.40317,"is_reserved":false,"is_disabled":false,"rental_uris":{"android":"levelo://app?vid=be4e3a6b-ebd3-49c9-9eb8-d3f1c777207e","ios":"levelo://app?vid=be4e3a6b-ebd3-49c9-9eb8-d3f1c777207e"},"vehicle_type_id":"4","last_reported":1726996117,"current_range_meters":8400,"station_id":"ce4bhlh2rcd13ifvqgig","pricing_plan_id":"cebpf4jnsgd1na2vs0mg"},{"bike_id":"850b08d8-ed42-4ad0-b0d6-020b1b8ae309","system_id":"levelo_inurba_marseille","lat":43.29556,"lon":5.42271,"is_reserved":false,"is_disabled":false,"rental_uris":{"android":"levelo://app?vid=850b08d8-ed42-4ad0-b0d6-020b1b8ae309","ios":"levelo://app?vid=850b08d8-ed42-4ad0-b0d6-020b1b8ae309"},"vehicle_type_id":"4","last_reported":1726996117,"current_range_meters":12800,"station_id":"ce4bhph2rcd13ifvqhdg","pricing_plan_id":"cebpf4jnsgd1na2vs0mg"},{"bike_id":"40ae445b-e58e-4007-b412-a2f3e15ca14a","system_id":"levelo_inurba_marseille","lat":43.27201,"lon":5.39176,"is_reserved":false,"is_disabled":false,"rental_uris":{"android":"levelo://app?vid=40ae445b-e58e-4007-b412-a2f3e15ca14a","ios":"levelo://app?vid=40ae445b-e58e-4007-b412-a2f3e15ca14a"},"vehicle_type_id":"4","last_reported":1726996117,"current_range_meters":8400,"station_id":"ce4bhhp2rcd13ifvqfm0","pricing_plan_id":"cebpf4jnsgd1na2vs0mg"},{"bike_id":"0e80655c-5b3d-43d7-a3a0-9c317c246d02","system_id":"levelo_inurba_marseille","lat":43.25111,"lon":5.40324,"is_reserved":false,"is_disabled":false,"rental_uris":{"android":"levelo://app?vid=0e80655c-5b3d-43d7-a3a0-9c317c246d02","ios":"levelo://app?vid=0e80655c-5b3d-43d7-a3a0-9c317c246d02"},"vehicle_type_id":"4","last_reported":1726996117,"current_range_meters":40000,"station_id":"ce4bhlh2rcd13ifvqgig","pricing_plan_id":"cebpf4jnsgd1na2vs0mg"},{"bike_id":"8f408032-11a4-469b-9d62-a84bf4a47ce0","system_id":"levelo_inurba_marseille","lat":43.30889,"lon":5.37206,"is_reserved":false,"is_disabled":false,"rental_uris":{"android":"levelo://app?vid=8f408032-11a4-469b-9d62-a84bf4a47ce0","ios":"levelo://app?vid=8f408032-11a4-469b-9d62-a84bf4a47ce0"},"vehicle_type_id":"4","last_reported":1726996117,"current_range_meters":11600,"station_id":"ce4bguh2rcd13ifvqckg","pricing_plan_id":"cebpf4jnsgd1na2vs0mg"},{"bike_id":"fb25666f-2bbf-42f8-b3f8-cac4e93f6f06","system_id":"levelo_inurba_marseille","lat":43.30259,"lon":5.40066,"is_reserved":false,"is_disabled":false,"rental_uris":{"android":"levelo://app?vid=fb25666f-2bbf-42f8-b3f8-cac4e93f6f06","ios":"levelo://app?vid=fb25666f-2bbf-42f8-b3f8-cac4e93f6f06"},"vehicle_type_id":"4","last_reported":1726996117,"current_range_meters":24000,"station_id":"ce4bgvh2rcd13ifvqcs0","pricing_plan_id":"cebpf4jnsgd1na2vs0mg"},{"bike_id":"54b7f973-33ed-4b77-bfc3-7847058bc7a6","system_id":"levelo_inurba_marseille","lat":43.31725,"lon":5.42406,"is_reserved":false,"is_disabled":false,"rental_uris":{"android":"levelo://app?vid=54b7f973-33ed-4b77-bfc3-7847058bc7a6","ios":"levelo://app?vid=54b7f973-33ed-4b77-bfc3-7847058bc7a6"},"vehicle_type_id":"4","last_reported":1726996117,"current_range_meters":39200,"station_id":"ce4bhp92rcd13ifvqhbg","pricing_plan_id":"cebpf4jnsgd1na2vs0mg"},{"bike_id":"443f06a2-50b5-4a82-ae56-7f11fc6983b5","system_id":"levelo_inurba_marseille","lat":43.24653,"lon":5.38895,"is_reserved":false,"is_disabled":false,"rental_uris":{"android":"levelo://app?vid=443f06a2-50b5-4a82-ae56-7f11fc6983b5","ios":"levelo://app?vid=443f06a2-50b5-4a82-ae56-7f11fc6983b5"},"vehicle_type_id":"4","last_reported":1726996117,"current_range_meters":6400,"station_id":"ce4bhg12rcd13ifvqf60","pricing_plan_id":"cebpf4jnsgd1na2vs0mg"},{"bike_id":"00a48abd-c67a-46a2-92f9-9f546b943996","system_id":"levelo_inurba_marseille","lat":43.229248,"lon":5.353726,"is_reserved":false,"is_disabled":false,"rental_uris":{"android":"levelo://app?vid=00a48abd-c67a-46a2-92f9-9f546b943996","ios":"levelo://app?vid=00a48abd-c67a-46a2-92f9-9f546b943996"},"vehicle_type_id":"4","last_reported":1726996117,"current_range_meters":13600,"station_id":"cpo3532slgdg3j2ikp40","pricing_plan_id":"cebpf4jnsgd1na2vs0mg"},{"bike_id":"e3148f64-045e-4cdc-af9d-640637308d67","system_id":"levelo_inurba_marseille","lat":43.2781,"lon":5.40709,"is_reserved":false,"is_disabled":false,"rental_uris":{"android":"levelo://app?vid=e3148f64-045e-4cdc-af9d-640637308d67","ios":"levelo://app?vid=e3148f64-045e-4cdc-af9d-640637308d67"},"vehicle_type_id":"4","last_reported":1726996117,"current_range_meters":38000,"station_id":"ce4bhnh2rcd13ifvqgtg","pricing_plan_id":"cebpf4jnsgd1na2vs0mg"},{"bike_id":"eeee92bd-6394-4d04-8487-072f4cc3e948","system_id":"levelo_inurba_marseille","lat":43.23961,"lon":5.36634,"is_reserved":false,"is_disabled":false,"rental_uris":{"android":"levelo://app?vid=eeee92bd-6394-4d04-8487-072f4cc3e948","ios":"levelo://app?vid=eeee92bd-6394-4d04-8487-072f4cc3e948"},"vehicle_type_id":"4","last_reported":1726996117,"current_range_meters":36800,"station_id":"ce4bhi12rcd13ifvqfp0","pricing_plan_id":"cebpf4jnsgd1na2vs0mg"},{"bike_id":"5419b1bf-d37c-4076-a34c-52ede101758e","system_id":"levelo_inurba_marseille","lat":43.337444,"lon":5.374475,"is_reserved":false,"is_disabled":false,"rental_uris":{"android":"levelo://app?vid=5419b1bf-d37c-4076-a34c-52ede101758e","ios":"levelo://app?vid=5419b1bf-d37c-4076-a34c-52ede101758e"},"vehicle_type_id":"4","last_reported":1726996117,"current_range_meters":28800,"station_id":"","pricing_plan_id":"cebpf4jnsgd1na2vs0mg"},{"bike_id":"013a1a54-8c71-4d7d-ad66-178705a1f09a","system_id":"levelo_inurba_marseille","lat":43.25865,"lon":5.39896,"is_reserved":false,"is_disabled":false,"rental_uris":{"android":"levelo://app?vid=013a1a54-8c71-4d7d-ad66-178705a1f09a","ios":"levelo://app?vid=013a1a54-8c71-4d7d-ad66-178705a1f09a"},"vehicle_type_id":"4","last_reported":1726996117,"current_range_meters":40000,"station_id":"ce4bhl92rcd13ifvqghg","pricing_plan_id":"cebpf4jnsgd1na2vs0mg"},{"bike_id":"3d11801b-4666-46ed-99aa-aabfb05b911e","system_id":"levelo_inurba_marseille","lat":43.31997,"lon":5.38146,"is_reserved":false,"is_disabled":false,"rental_uris":{"android":"levelo://app?vid=3d11801b-4666-46ed-99aa-aabfb05b911e","ios":"levelo://app?vid=3d11801b-4666-46ed-99aa-aabfb05b911e"},"vehicle_type_id":"4","last_reported":1726996117,"current_range_meters":40000,"station_id":"ce4bhr12rcd13ifvqhpg","pricing_plan_id":"cebpf4jnsgd1na2vs0mg"},{"bike_id":"f049c725-c9e4-4901-aea7-d0bc97f4a3f1","system_id":"levelo_inurba_marseille","lat":43.30297,"lon":5.39221,"is_reserved":false,"is_disabled":false,"rental_uris":{"android":"levelo://app?vid=f049c725-c9e4-4901-aea7-d0bc97f4a3f1","ios":"levelo://app?vid=f049c725-c9e4-4901-aea7-d0bc97f4a3f1"},"vehicle_type_id":"4","last_reported":1726996117,"current_range_meters":38000,"station_id":"ce4bgkh2rcd13ifvqbk0","pricing_plan_id":"cebpf4jnsgd1na2vs0mg"},{"bike_id":"1b037c9a-bb02-41f7-81f7-2761fe7dd92b","system_id":"levelo_inurba_marseille","lat":43.26212,"lon":5.37439,"is_reserved":false,"is_disabled":false,"rental_uris":{"android":"levelo://app?vid=1b037c9a-bb02-41f7-81f7-2761fe7dd92b","ios":"levelo://app?vid=1b037c9a-bb02-41f7-81f7-2761fe7dd92b"},"vehicle_type_id":"4","last_reported":1726996117,"current_range_meters":35600,"station_id":"ce4bhgp2rcd13ifvqfc0","pricing_plan_id":"cebpf4jnsgd1na2vs0mg"},{"bike_id":"870a1f8b-9acd-4417-ad40-456726425e82","system_id":"levelo_inurba_marseille","lat":43.28148,"lon":5.42644,"is_reserved":false,"is_disabled":false,"rental_uris":{"android":"levelo://app?vid=870a1f8b-9acd-4417-ad40-456726425e82","ios":"levelo://app?vid=870a1f8b-9acd-4417-ad40-456726425e82"},"vehicle_type_id":"4","last_reported":1726996117,"current_range_meters":14800,"station_id":"ce4bhnh2rcd13ifvqgug","pricing_plan_id":"cebpf4jnsgd1na2vs0mg"},{"bike_id":"408b3d46-3a11-4b51-be77-1e7d8127455b","system_id":"levelo_inurba_marseille","lat":43.28562,"lon":5.39499,"is_reserved":false,"is_disabled":false,"rental_uris":{"android":"levelo://app?vid=408b3d46-3a11-4b51-be77-1e7d8127455b","ios":"levelo://app?vid=408b3d46-3a11-4b51-be77-1e7d8127455b"},"vehicle_type_id":"4","last_reported":1726996117,"current_range_meters":30000,"station_id":"ce4bh292rcd13ifvqdg0","pricing_plan_id":"cebpf4jnsgd1na2vs0mg"},{"bike_id":"bcd3ab51-d6d8-435c-aa1d-3c6de884a6fa","system_id":"levelo_inurba_marseille","lat":43.25716,"lon":5.41113,"is_reserved":false,"is_disabled":false,"rental_uris":{"android":"levelo://app?vid=bcd3ab51-d6d8-435c-aa1d-3c6de884a6fa","ios":"levelo://app?vid=bcd3ab51-d6d8-435c-aa1d-3c6de884a6fa"},"vehicle_type_id":"4","last_reported":1726996117,"current_range_meters":27200,"station_id":"ce4bhkp2rcd13ifvqgd0","pricing_plan_id":"cebpf4jnsgd1na2vs0mg"},{"bike_id":"5f970973-f4f4-4937-9fbe-7af0359838f0","system_id":"levelo_inurba_marseille","lat":43.32342,"lon":5.40617,"is_reserved":false,"is_disabled":false,"rental_uris":{"android":"levelo://app?vid=5f970973-f4f4-4937-9fbe-7af0359838f0","ios":"levelo://app?vid=5f970973-f4f4-4937-9fbe-7af0359838f0"},"vehicle_type_id":"4","last_reported":1726996117,"current_range_meters":27200,"station_id":"ce4bhq92rcd13ifvqhjg","pricing_plan_id":"cebpf4jnsgd1na2vs0mg"},{"bike_id":"f59f9f07-2020-454d-8f62-ca65292624a4","system_id":"levelo_inurba_marseille","lat":43.31329,"lon":5.39694,"is_reserved":false,"is_disabled":false,"rental_uris":{"android":"levelo://app?vid=f59f9f07-2020-454d-8f62-ca65292624a4","ios":"levelo://app?vid=f59f9f07-2020-454d-8f62-ca65292624a4"},"vehicle_type_id":"4","last_reported":1726996117,"current_range_meters":36800,"station_id":"ce4bgvp2rcd13ifvqcu0","pricing_plan_id":"cebpf4jnsgd1na2vs0mg"},{"bike_id":"4d6f1b65-a95d-4510-bfbf-2bbf8ac25c86","system_id":"levelo_inurba_marseille","lat":43.31523,"lon":5.38039,"is_reserved":false,"is_disabled":false,"rental_uris":{"android":"levelo://app?vid=4d6f1b65-a95d-4510-bfbf-2bbf8ac25c86","ios":"levelo://app?vid=4d6f1b65-a95d-4510-bfbf-2bbf8ac25c86"},"vehicle_type_id":"4","last_reported":1726996117,"current_range_meters":30400,"station_id":"ce4bhsp2rcd13ifvqi50","pricing_plan_id":"cebpf4jnsgd1na2vs0mg"},{"bike_id":"a5f652fd-0580-4c08-9b4b-b97b537c5ed9","system_id":"levelo_inurba_marseille","lat":43.30928,"lon":5.40151,"is_reserved":false,"is_disabled":false,"rental_uris":{"android":"levelo://app?vid=a5f652fd-0580-4c08-9b4b-b97b537c5ed9","ios":"levelo://app?vid=a5f652fd-0580-4c08-9b4b-b97b537c5ed9"},"vehicle_type_id":"4","last_reported":1726996117,"current_range_meters":38000,"station_id":"ce4bgvp2rcd13ifvqct0","pricing_plan_id":"cebpf4jnsgd1na2vs0mg"},{"bike_id":"e9519760-4bc9-4ccc-8913-faa65ced2e8f","system_id":"levelo_inurba_marseille","lat":43.2869,"lon":5.39978,"is_reserved":false,"is_disabled":false,"rental_uris":{"android":"levelo://app?vid=e9519760-4bc9-4ccc-8913-faa65ced2e8f","ios":"levelo://app?vid=e9519760-4bc9-4ccc-8913-faa65ced2e8f"},"vehicle_type_id":"4","last_reported":1726996117,"current_range_meters":38000,"station_id":"ce4bho92rcd13ifvqh3g","pricing_plan_id":"cebpf4jnsgd1na2vs0mg"},{"bike_id":"915340f7-a17f-44b0-ba7c-21f3b9d727ea","system_id":"levelo_inurba_marseille","lat":43.29556,"lon":5.42285,"is_reserved":false,"is_disabled":false,"rental_uris":{"android":"levelo://app?vid=915340f7-a17f-44b0-ba7c-21f3b9d727ea","ios":"levelo://app?vid=915340f7-a17f-44b0-ba7c-21f3b9d727ea"},"vehicle_type_id":"4","last_reported":1726996117,"current_range_meters":34000,"station_id":"ce4bhph2rcd13ifvqhdg","pricing_plan_id":"cebpf4jnsgd1na2vs0mg"},{"bike_id":"149779fc-bc45-458a-857f-33707eedaf6a","system_id":"levelo_inurba_marseille","lat":43.23189,"lon":5.35557,"is_reserved":false,"is_disabled":false,"rental_uris":{"android":"levelo://app?vid=149779fc-bc45-458a-857f-33707eedaf6a","ios":"levelo://app?vid=149779fc-bc45-458a-857f-33707eedaf6a"},"vehicle_type_id":"4","last_reported":1726996117,"current_range_meters":16400,"station_id":"ce4bhu92rcd13ifvqi70","pricing_plan_id":"cebpf4jnsgd1na2vs0mg"},{"bike_id":"7ebdf22d-9890-4383-a4c5-ab9ae4d83666","system_id":"levelo_inurba_marseille","lat":43.29523,"lon":5.38545,"is_reserved":false,"is_disabled":false,"rental_uris":{"android":"levelo://app?vid=7ebdf22d-9890-4383-a4c5-ab9ae4d83666","ios":"levelo://app?vid=7ebdf22d-9890-4383-a4c5-ab9ae4d83666"},"vehicle_type_id":"4","last_reported":1726996117,"current_range_meters":35600,"station_id":"ce4bgih2rcd13ifvqba0","pricing_plan_id":"cebpf4jnsgd1na2vs0mg"},{"bike_id":"bbcee43f-f0a6-4322-a0cd-d934913cb299","system_id":"levelo_inurba_marseille","lat":43.26199,"lon":5.37927,"is_reserved":false,"is_disabled":false,"rental_uris":{"android":"levelo://app?vid=bbcee43f-f0a6-4322-a0cd-d934913cb299","ios":"levelo://app?vid=bbcee43f-f0a6-4322-a0cd-d934913cb299"},"vehicle_type_id":"4","last_reported":1726996117,"current_range_meters":37600,"station_id":"ce4bhjp2rcd13ifvqg90","pricing_plan_id":"cebpf4jnsgd1na2vs0mg"},{"bike_id":"9c953aea-1601-4259-a38b-3d5e06643e05","system_id":"levelo_inurba_marseille","lat":43.27623,"lon":5.36113,"is_reserved":false,"is_disabled":false,"rental_uris":{"android":"levelo://app?vid=9c953aea-1601-4259-a38b-3d5e06643e05","ios":"levelo://app?vid=9c953aea-1601-4259-a38b-3d5e06643e05"},"vehicle_type_id":"4","last_reported":1726996117,"current_range_meters":38800,"station_id":"ce4bgj92rcd13ifvqbe0","pricing_plan_id":"cebpf4jnsgd1na2vs0mg"},{"bike_id":"bbb13e8a-5e7e-44c9-afc9-214f1554592c","system_id":"levelo_inurba_marseille","lat":43.25107,"lon":5.40323,"is_reserved":false,"is_disabled":false,"rental_uris":{"android":"levelo://app?vid=bbb13e8a-5e7e-44c9-afc9-214f1554592c","ios":"levelo://app?vid=bbb13e8a-5e7e-44c9-afc9-214f1554592c"},"vehicle_type_id":"4","last_reported":1726996117,"current_range_meters":38400,"station_id":"ce4bhlh2rcd13ifvqgig","pricing_plan_id":"cebpf4jnsgd1na2vs0mg"},{"bike_id":"7d903340-b844-4bfb-bb1e-f140d594d2c5","system_id":"levelo_inurba_marseille","lat":43.30352,"lon":5.41874,"is_reserved":false,"is_disabled":false,"rental_uris":{"android":"levelo://app?vid=7d903340-b844-4bfb-bb1e-f140d594d2c5","ios":"levelo://app?vid=7d903340-b844-4bfb-bb1e-f140d594d2c5"},"vehicle_type_id":"4","last_reported":1726996117,"current_range_meters":35600,"station_id":"ce4bhop2rcd13ifvqh7g","pricing_plan_id":"cebpf4jnsgd1na2vs0mg"},{"bike_id":"3029a821-4f09-426b-9136-c97c9c0dcd3a","system_id":"levelo_inurba_marseille","lat":43.26485,"lon":5.3954,"is_reserved":false,"is_disabled":false,"rental_uris":{"android":"levelo://app?vid=3029a821-4f09-426b-9136-c97c9c0dcd3a","ios":"levelo://app?vid=3029a821-4f09-426b-9136-c97c9c0dcd3a"},"vehicle_type_id":"4","last_reported":1726996117,"current_range_meters":38000,"station_id":"ce4bhi12rcd13ifvqfq0","pricing_plan_id":"cebpf4jnsgd1na2vs0mg"},{"bike_id":"61437227-be5e-4999-bb29-38fdb6c6fcc9","system_id":"levelo_inurba_marseille","lat":43.30464,"lon":5.37899,"is_reserved":false,"is_disabled":false,"rental_uris":{"android":"levelo://app?vid=61437227-be5e-4999-bb29-38fdb6c6fcc9","ios":"levelo://app?vid=61437227-be5e-4999-bb29-38fdb6c6fcc9"},"vehicle_type_id":"4","last_reported":1726996117,"current_range_meters":40000,"station_id":"ce4bgup2rcd13ifvqcn0","pricing_plan_id":"cebpf4jnsgd1na2vs0mg"},{"bike_id":"604c9531-be4f-4974-bfe2-bd7828d7386f","system_id":"levelo_inurba_marseille","lat":43.29899,"lon":5.43667,"is_reserved":false,"is_disabled":false,"rental_uris":{"android":"levelo://app?vid=604c9531-be4f-4974-bfe2-bd7828d7386f","ios":"levelo://app?vid=604c9531-be4f-4974-bfe2-bd7828d7386f"},"vehicle_type_id":"4","last_reported":1726996117,"current_range_meters":18000,"station_id":"ce4bhpp2rcd13ifvqhfg","pricing_plan_id":"cebpf4jnsgd1na2vs0mg"},{"bike_id":"8aa9229f-7f52-4bd0-9408-b9dcc7a5187a","system_id":"levelo_inurba_marseille","lat":43.27069,"lon":5.42281,"is_reserved":false,"is_disabled":false,"rental_uris":{"android":"levelo://app?vid=8aa9229f-7f52-4bd0-9408-b9dcc7a5187a","ios":"levelo://app?vid=8aa9229f-7f52-4bd0-9408-b9dcc7a5187a"},"vehicle_type_id":"4","last_reported":1726996117,"current_range_meters":10800,"station_id":"ce4bhk92rcd13ifvqgb0","pricing_plan_id":"cebpf4jnsgd1na2vs0mg"},{"bike_id":"dffd4f54-b346-4788-86ea-8f518e84719a","system_id":"levelo_inurba_marseille","lat":43.31886,"lon":5.4074,"is_reserved":false,"is_disabled":false,"rental_uris":{"android":"levelo://app?vid=dffd4f54-b346-4788-86ea-8f518e84719a","ios":"levelo://app?vid=dffd4f54-b346-4788-86ea-8f518e84719a"},"vehicle_type_id":"4","last_reported":1726996117,"current_range_meters":20400,"station_id":"ce4bhq12rcd13ifvqhig","pricing_plan_id":"cebpf4jnsgd1na2vs0mg"},{"bike_id":"46121cc0-436d-4cf1-9853-45960b7d4d1b","system_id":"levelo_inurba_marseille","lat":43.23959,"lon":5.36637,"is_reserved":false,"is_disabled":false,"rental_uris":{"android":"levelo://app?vid=46121cc0-436d-4cf1-9853-45960b7d4d1b","ios":"levelo://app?vid=46121cc0-436d-4cf1-9853-45960b7d4d1b"},"vehicle_type_id":"4","last_reported":1726996117,"current_range_meters":36800,"station_id":"ce4bhi12rcd13ifvqfp0","pricing_plan_id":"cebpf4jnsgd1na2vs0mg"},{"bike_id":"90d8a09e-2181-4187-81ec-24698bc4e496","system_id":"levelo_inurba_marseille","lat":43.28705,"lon":5.3998,"is_reserved":false,"is_disabled":false,"rental_uris":{"android":"levelo://app?vid=90d8a09e-2181-4187-81ec-24698bc4e496","ios":"levelo://app?vid=90d8a09e-2181-4187-81ec-24698bc4e496"},"vehicle_type_id":"4","last_reported":1726996117,"current_range_meters":40000,"station_id":"ce4bho92rcd13ifvqh3g","pricing_plan_id":"cebpf4jnsgd1na2vs0mg"},{"bike_id":"226a0941-0c72-4b00-be32-622ea037304a","system_id":"levelo_inurba_marseille","lat":43.28614,"lon":5.351,"is_reserved":false,"is_disabled":false,"rental_uris":{"android":"levelo://app?vid=226a0941-0c72-4b00-be32-622ea037304a","ios":"levelo://app?vid=226a0941-0c72-4b00-be32-622ea037304a"},"vehicle_type_id":"4","last_reported":1726996117,"current_range_meters":38800,"station_id":"ce4bhch2rcd13ifvqeug","pricing_plan_id":"cebpf4jnsgd1na2vs0mg"},{"bike_id":"97f3b290-84c6-4932-8cf2-83c9b90d4817","system_id":"levelo_inurba_marseille","lat":43.24999,"lon":5.38928,"is_reserved":false,"is_disabled":false,"rental_uris":{"android":"levelo://app?vid=97f3b290-84c6-4932-8cf2-83c9b90d4817","ios":"levelo://app?vid=97f3b290-84c6-4932-8cf2-83c9b90d4817"},"vehicle_type_id":"4","last_reported":1726996117,"current_range_meters":2800,"station_id":"ce4bhgp2rcd13ifvqfd0","pricing_plan_id":"cebpf4jnsgd1na2vs0mg"},{"bike_id":"977ad24c-2005-446b-b21e-2e9257aa7686","system_id":"levelo_inurba_marseille","lat":43.29843,"lon":5.36277,"is_reserved":false,"is_disabled":false,"rental_uris":{"android":"levelo://app?vid=977ad24c-2005-446b-b21e-2e9257aa7686","ios":"levelo://app?vid=977ad24c-2005-446b-b21e-2e9257aa7686"},"vehicle_type_id":"4","last_reported":1726996117,"current_range_meters":35600,"station_id":"ce4bgpp2rcd13ifvqc3g","pricing_plan_id":"cebpf4jnsgd1na2vs0mg"},{"bike_id":"c750c22f-57e5-44e7-ab11-ab84ef9a0b5e","system_id":"levelo_inurba_marseille","lat":43.23187,"lon":5.4,"is_reserved":false,"is_disabled":false,"rental_uris":{"android":"levelo://app?vid=c750c22f-57e5-44e7-ab11-ab84ef9a0b5e","ios":"levelo://app?vid=c750c22f-57e5-44e7-ab11-ab84ef9a0b5e"},"vehicle_type_id":"4","last_reported":1726996117,"current_range_meters":14000,"station_id":"ce4bhn12rcd13ifvqgqg","pricing_plan_id":"cebpf4jnsgd1na2vs0mg"},{"bike_id":"d4cd02a2-8196-45a0-ade7-083f2b1cddee","system_id":"levelo_inurba_marseille","lat":43.24183,"lon":5.39719,"is_reserved":false,"is_disabled":false,"rental_uris":{"android":"levelo://app?vid=d4cd02a2-8196-45a0-ade7-083f2b1cddee","ios":"levelo://app?vid=d4cd02a2-8196-45a0-ade7-083f2b1cddee"},"vehicle_type_id":"4","last_reported":1726996117,"current_range_meters":38800,"station_id":"ce4bhn12rcd13ifvqgpg","pricing_plan_id":"cebpf4jnsgd1na2vs0mg"},{"bike_id":"a8d42cf3-65fd-4e73-93d7-47142c435399","system_id":"levelo_inurba_marseille","lat":43.3439,"lon":5.40852,"is_reserved":false,"is_disabled":false,"rental_uris":{"android":"levelo://app?vid=a8d42cf3-65fd-4e73-93d7-47142c435399","ios":"levelo://app?vid=a8d42cf3-65fd-4e73-93d7-47142c435399"},"vehicle_type_id":"4","last_reported":1726996117,"current_range_meters":22800,"station_id":"","pricing_plan_id":"cebpf4jnsgd1na2vs0mg"},{"bike_id":"affeab95-004c-4559-a39d-9d9c7e294ed6","system_id":"levelo_inurba_marseille","lat":43.24179,"lon":5.39735,"is_reserved":false,"is_disabled":false,"rental_uris":{"android":"levelo://app?vid=affeab95-004c-4559-a39d-9d9c7e294ed6","ios":"levelo://app?vid=affeab95-004c-4559-a39d-9d9c7e294ed6"},"vehicle_type_id":"4","last_reported":1726996117,"current_range_meters":31200,"station_id":"ce4bhn12rcd13ifvqgpg","pricing_plan_id":"cebpf4jnsgd1na2vs0mg"},{"bike_id":"a4d43bb5-199e-4365-aa18-44dcac5c9979","system_id":"levelo_inurba_marseille","lat":43.27986,"lon":5.40014,"is_reserved":false,"is_disabled":false,"rental_uris":{"android":"levelo://app?vid=a4d43bb5-199e-4365-aa18-44dcac5c9979","ios":"levelo://app?vid=a4d43bb5-199e-4365-aa18-44dcac5c9979"},"vehicle_type_id":"4","last_reported":1726996117,"current_range_meters":39200,"station_id":"ce4bho92rcd13ifvqh4g","pricing_plan_id":"cebpf4jnsgd1na2vs0mg"},{"bike_id":"dfc4e556-538a-4de0-a03f-931e5eddb4c9","system_id":"levelo_inurba_marseille","lat":43.2721,"lon":5.39179,"is_reserved":false,"is_disabled":false,"rental_uris":{"android":"levelo://app?vid=dfc4e556-538a-4de0-a03f-931e5eddb4c9","ios":"levelo://app?vid=dfc4e556-538a-4de0-a03f-931e5eddb4c9"},"vehicle_type_id":"4","last_reported":1726996117,"current_range_meters":27200,"station_id":"ce4bhhp2rcd13ifvqfm0","pricing_plan_id":"cebpf4jnsgd1na2vs0mg"},{"bike_id":"488eab58-702a-49ef-b05e-83a9813536ca","system_id":"levelo_inurba_marseille","lat":43.28149,"lon":5.4264,"is_reserved":false,"is_disabled":false,"rental_uris":{"android":"levelo://app?vid=488eab58-702a-49ef-b05e-83a9813536ca","ios":"levelo://app?vid=488eab58-702a-49ef-b05e-83a9813536ca"},"vehicle_type_id":"4","last_reported":1726996117,"current_range_meters":36400,"station_id":"ce4bhnh2rcd13ifvqgug","pricing_plan_id":"cebpf4jnsgd1na2vs0mg"},{"bike_id":"eb0e566e-7d71-4cc0-bc76-de33a9fd73a8","system_id":"levelo_inurba_marseille","lat":43.2319,"lon":5.35543,"is_reserved":false,"is_disabled":false,"rental_uris":{"android":"levelo://app?vid=eb0e566e-7d71-4cc0-bc76-de33a9fd73a8","ios":"levelo://app?vid=eb0e566e-7d71-4cc0-bc76-de33a9fd73a8"},"vehicle_type_id":"4","last_reported":1726996117,"current_range_meters":38000,"station_id":"ce4bhu92rcd13ifvqi70","pricing_plan_id":"cebpf4jnsgd1na2vs0mg"},{"bike_id":"7f1d4caf-fa09-496f-9db6-140aee4b481e","system_id":"levelo_inurba_marseille","lat":43.28612,"lon":5.35101,"is_reserved":false,"is_disabled":false,"rental_uris":{"android":"levelo://app?vid=7f1d4caf-fa09-496f-9db6-140aee4b481e","ios":"levelo://app?vid=7f1d4caf-fa09-496f-9db6-140aee4b481e"},"vehicle_type_id":"4","last_reported":1726996117,"current_range_meters":25600,"station_id":"ce4bhch2rcd13ifvqeug","pricing_plan_id":"cebpf4jnsgd1na2vs0mg"},{"bike_id":"5f4a8312-beb8-4980-9a45-de6c7e54a14f","system_id":"levelo_inurba_marseille","lat":43.289203,"lon":5.383895,"is_reserved":false,"is_disabled":false,"rental_uris":{"android":"levelo://app?vid=5f4a8312-beb8-4980-9a45-de6c7e54a14f","ios":"levelo://app?vid=5f4a8312-beb8-4980-9a45-de6c7e54a14f"},"vehicle_type_id":"4","last_reported":1726996117,"current_range_meters":36000,"station_id":"ce4bh612rcd13ifvqe6g","pricing_plan_id":"cebpf4jnsgd1na2vs0mg"},{"bike_id":"04999a37-2436-4404-8c16-cd85cf9b7a10","system_id":"levelo_inurba_marseille","lat":43.33021,"lon":5.39043,"is_reserved":false,"is_disabled":false,"rental_uris":{"android":"levelo://app?vid=04999a37-2436-4404-8c16-cd85cf9b7a10","ios":"levelo://app?vid=04999a37-2436-4404-8c16-cd85cf9b7a10"},"vehicle_type_id":"4","last_reported":1726996117,"current_range_meters":38000,"station_id":"ce4bhr92rcd13ifvqhrg","pricing_plan_id":"cebpf4jnsgd1na2vs0mg"},{"bike_id":"20251f6b-0bd3-4766-88fa-bbe13abfed1f","system_id":"levelo_inurba_marseille","lat":43.26942,"lon":5.38627,"is_reserved":false,"is_disabled":false,"rental_uris":{"android":"levelo://app?vid=20251f6b-0bd3-4766-88fa-bbe13abfed1f","ios":"levelo://app?vid=20251f6b-0bd3-4766-88fa-bbe13abfed1f"},"vehicle_type_id":"4","last_reported":1726996117,"current_range_meters":14400,"station_id":"ce4bhh92rcd13ifvqfh0","pricing_plan_id":"cebpf4jnsgd1na2vs0mg"},{"bike_id":"6030b138-4d5e-4345-aedc-73924c99e1f7","system_id":"levelo_inurba_marseille","lat":43.26217,"lon":5.37448,"is_reserved":false,"is_disabled":false,"rental_uris":{"android":"levelo://app?vid=6030b138-4d5e-4345-aedc-73924c99e1f7","ios":"levelo://app?vid=6030b138-4d5e-4345-aedc-73924c99e1f7"},"vehicle_type_id":"4","last_reported":1726996117,"current_range_meters":28400,"station_id":"","pricing_plan_id":"cebpf4jnsgd1na2vs0mg"},{"bike_id":"eedc2e1a-93f9-40b5-bcb6-9453018a0bcf","system_id":"levelo_inurba_marseille","lat":43.2922,"lon":5.36063,"is_reserved":false,"is_disabled":false,"rental_uris":{"android":"levelo://app?vid=eedc2e1a-93f9-40b5-bcb6-9453018a0bcf","ios":"levelo://app?vid=eedc2e1a-93f9-40b5-bcb6-9453018a0bcf"},"vehicle_type_id":"4","last_reported":1726996117,"current_range_meters":18000,"station_id":"ce4bhbh2rcd13ifvqeqg","pricing_plan_id":"cebpf4jnsgd1na2vs0mg"},{"bike_id":"2be09133-fc65-44c7-aabc-efba9af3feca","system_id":"levelo_inurba_marseille","lat":43.29219,"lon":5.36063,"is_reserved":false,"is_disabled":false,"rental_uris":{"android":"levelo://app?vid=2be09133-fc65-44c7-aabc-efba9af3feca","ios":"levelo://app?vid=2be09133-fc65-44c7-aabc-efba9af3feca"},"vehicle_type_id":"4","last_reported":1726996117,"current_range_meters":35600,"station_id":"ce4bhbh2rcd13ifvqeqg","pricing_plan_id":"cebpf4jnsgd1na2vs0mg"},{"bike_id":"a7a2630d-54d4-495a-8506-d0472b9b9a1a","system_id":"levelo_inurba_marseille","lat":43.29548,"lon":5.42288,"is_reserved":false,"is_disabled":false,"rental_uris":{"android":"levelo://app?vid=a7a2630d-54d4-495a-8506-d0472b9b9a1a","ios":"levelo://app?vid=a7a2630d-54d4-495a-8506-d0472b9b9a1a"},"vehicle_type_id":"4","last_reported":1726996117,"current_range_meters":39200,"station_id":"ce4bhph2rcd13ifvqhdg","pricing_plan_id":"cebpf4jnsgd1na2vs0mg"},{"bike_id":"4a5d4b5f-6fe4-42ac-9dd7-42834e938f8e","system_id":"levelo_inurba_marseille","lat":43.29417,"lon":5.38627,"is_reserved":false,"is_disabled":false,"rental_uris":{"android":"levelo://app?vid=4a5d4b5f-6fe4-42ac-9dd7-42834e938f8e","ios":"levelo://app?vid=4a5d4b5f-6fe4-42ac-9dd7-42834e938f8e"},"vehicle_type_id":"4","last_reported":1726996117,"current_range_meters":36400,"station_id":"ce4bh2h2rcd13ifvqdh0","pricing_plan_id":"cebpf4jnsgd1na2vs0mg"},{"bike_id":"e6e807d2-7cc5-4766-ac1a-6145be8c1fdf","system_id":"levelo_inurba_marseille","lat":43.298248,"lon":5.383223,"is_reserved":false,"is_disabled":false,"rental_uris":{"android":"levelo://app?vid=e6e807d2-7cc5-4766-ac1a-6145be8c1fdf","ios":"levelo://app?vid=e6e807d2-7cc5-4766-ac1a-6145be8c1fdf"},"vehicle_type_id":"4","last_reported":1726996117,"current_range_meters":33200,"station_id":"ce4bgj92rcd13ifvqbd0","pricing_plan_id":"cebpf4jnsgd1na2vs0mg"},{"bike_id":"dd71e085-a216-4659-88f3-f2355ab603d6","system_id":"levelo_inurba_marseille","lat":43.2927,"lon":5.36831,"is_reserved":false,"is_disabled":false,"rental_uris":{"android":"levelo://app?vid=dd71e085-a216-4659-88f3-f2355ab603d6","ios":"levelo://app?vid=dd71e085-a216-4659-88f3-f2355ab603d6"},"vehicle_type_id":"4","last_reported":1726996117,"current_range_meters":22800,"station_id":"ce4bhbp2rcd13ifvqesg","pricing_plan_id":"cebpf4jnsgd1na2vs0mg"},{"bike_id":"e5a1c0e7-6dbe-4fc0-91d4-a39431861126","system_id":"levelo_inurba_marseille","lat":43.2694,"lon":5.40258,"is_reserved":false,"is_disabled":false,"rental_uris":{"android":"levelo://app?vid=e5a1c0e7-6dbe-4fc0-91d4-a39431861126","ios":"levelo://app?vid=e5a1c0e7-6dbe-4fc0-91d4-a39431861126"},"vehicle_type_id":"4","last_reported":1726996117,"current_range_meters":38800,"station_id":"cjm6bp8fraef2m0cb0m0","pricing_plan_id":"cebpf4jnsgd1na2vs0mg"},{"bike_id":"7b9dd459-340b-4978-bfb0-6c163a5263e8","system_id":"levelo_inurba_marseille","lat":43.23195,"lon":5.3554,"is_reserved":false,"is_disabled":false,"rental_uris":{"android":"levelo://app?vid=7b9dd459-340b-4978-bfb0-6c163a5263e8","ios":"levelo://app?vid=7b9dd459-340b-4978-bfb0-6c163a5263e8"},"vehicle_type_id":"4","last_reported":1726996117,"current_range_meters":40000,"station_id":"ce4bhu92rcd13ifvqi70","pricing_plan_id":"cebpf4jnsgd1na2vs0mg"},{"bike_id":"9eb342ac-6683-4b0e-9068-9b33551dfa85","system_id":"levelo_inurba_marseille","lat":43.27376,"lon":5.36251,"is_reserved":false,"is_disabled":false,"rental_uris":{"android":"levelo://app?vid=9eb342ac-6683-4b0e-9068-9b33551dfa85","ios":"levelo://app?vid=9eb342ac-6683-4b0e-9068-9b33551dfa85"},"vehicle_type_id":"4","last_reported":1726996117,"current_range_meters":38400,"station_id":"ce4bhbh2rcd13ifvqeo0","pricing_plan_id":"cebpf4jnsgd1na2vs0mg"},{"bike_id":"0b47ab1b-4b26-4da4-8066-ca0061887cbd","system_id":"levelo_inurba_marseille","lat":43.3078,"lon":5.37647,"is_reserved":false,"is_disabled":false,"rental_uris":{"android":"levelo://app?vid=0b47ab1b-4b26-4da4-8066-ca0061887cbd","ios":"levelo://app?vid=0b47ab1b-4b26-4da4-8066-ca0061887cbd"},"vehicle_type_id":"4","last_reported":1726996117,"current_range_meters":18000,"station_id":"ce4bgv92rcd13ifvqcq0","pricing_plan_id":"cebpf4jnsgd1na2vs0mg"},{"bike_id":"2778ea69-960f-41ca-be31-aa4fab5ec72d","system_id":"levelo_inurba_marseille","lat":43.279968,"lon":5.416635,"is_reserved":false,"is_disabled":false,"rental_uris":{"android":"levelo://app?vid=2778ea69-960f-41ca-be31-aa4fab5ec72d","ios":"levelo://app?vid=2778ea69-960f-41ca-be31-aa4fab5ec72d"},"vehicle_type_id":"4","last_reported":1726996117,"current_range_meters":8000,"station_id":"ce4bho12rcd13ifvqh1g","pricing_plan_id":"cebpf4jnsgd1na2vs0mg"},{"bike_id":"7ffa01ee-72a1-450c-98d3-fcf2ffbb0000","system_id":"levelo_inurba_marseille","lat":43.238741,"lon":5.408285,"is_reserved":false,"is_disabled":false,"rental_uris":{"android":"levelo://app?vid=7ffa01ee-72a1-450c-98d3-fcf2ffbb0000","ios":"levelo://app?vid=7ffa01ee-72a1-450c-98d3-fcf2ffbb0000"},"vehicle_type_id":"4","last_reported":1726996117,"current_range_meters":26800,"station_id":"ce4bhn12rcd13ifvqgqg","pricing_plan_id":"cebpf4jnsgd1na2vs0mg"},{"bike_id":"663b9263-abe3-4dcd-9ca8-aa3f9bbcc5fd","system_id":"levelo_inurba_marseille","lat":43.243835,"lon":5.370544,"is_reserved":false,"is_disabled":false,"rental_uris":{"android":"levelo://app?vid=663b9263-abe3-4dcd-9ca8-aa3f9bbcc5fd","ios":"levelo://app?vid=663b9263-abe3-4dcd-9ca8-aa3f9bbcc5fd"},"vehicle_type_id":"4","last_reported":1726996117,"current_range_meters":29600,"station_id":"ce4bho12rcd13ifvqh2g","pricing_plan_id":"cebpf4jnsgd1na2vs0mg"},{"bike_id":"2c03d00f-e5fa-4d36-8684-f34c7e970cdf","system_id":"levelo_inurba_marseille","lat":43.28709,"lon":5.39986,"is_reserved":false,"is_disabled":false,"rental_uris":{"android":"levelo://app?vid=2c03d00f-e5fa-4d36-8684-f34c7e970cdf","ios":"levelo://app?vid=2c03d00f-e5fa-4d36-8684-f34c7e970cdf"},"vehicle_type_id":"4","last_reported":1726996117,"current_range_meters":32800,"station_id":"ce4bho92rcd13ifvqh3g","pricing_plan_id":"cebpf4jnsgd1na2vs0mg"},{"bike_id":"4563b2a0-335e-44e4-8ce2-2f06597fb827","system_id":"levelo_inurba_marseille","lat":43.255005,"lon":5.376455,"is_reserved":false,"is_disabled":false,"rental_uris":{"android":"levelo://app?vid=4563b2a0-335e-44e4-8ce2-2f06597fb827","ios":"levelo://app?vid=4563b2a0-335e-44e4-8ce2-2f06597fb827"},"vehicle_type_id":"4","last_reported":1726996117,"current_range_meters":9600,"station_id":"ce4bhh12rcd13ifvqff0","pricing_plan_id":"cebpf4jnsgd1na2vs0mg"},{"bike_id":"71aa8592-ddf7-4343-aed4-c00d3433340f","system_id":"levelo_inurba_marseille","lat":43.337444,"lon":5.374475,"is_reserved":false,"is_disabled":false,"rental_uris":{"android":"levelo://app?vid=71aa8592-ddf7-4343-aed4-c00d3433340f","ios":"levelo://app?vid=71aa8592-ddf7-4343-aed4-c00d3433340f"},"vehicle_type_id":"4","last_reported":1726996117,"current_range_meters":32400,"station_id":"","pricing_plan_id":"cebpf4jnsgd1na2vs0mg"},{"bike_id":"3740c6df-06cd-419b-9ae6-b8d9e5eff548","system_id":"levelo_inurba_marseille","lat":43.2753,"lon":5.40935,"is_reserved":false,"is_disabled":false,"rental_uris":{"android":"levelo://app?vid=3740c6df-06cd-419b-9ae6-b8d9e5eff548","ios":"levelo://app?vid=3740c6df-06cd-419b-9ae6-b8d9e5eff548"},"vehicle_type_id":"4","last_reported":1726996117,"current_range_meters":14000,"station_id":"","pricing_plan_id":"cebpf4jnsgd1na2vs0mg"},{"bike_id":"8e56c686-c49a-4a98-a921-18b1bba0c58c","system_id":"levelo_inurba_marseille","lat":43.30904,"lon":5.36852,"is_reserved":false,"is_disabled":false,"rental_uris":{"android":"levelo://app?vid=8e56c686-c49a-4a98-a921-18b1bba0c58c","ios":"levelo://app?vid=8e56c686-c49a-4a98-a921-18b1bba0c58c"},"vehicle_type_id":"4","last_reported":1726996117,"current_range_meters":16000,"station_id":"ce4bgn92rcd13ifvqbvg","pricing_plan_id":"cebpf4jnsgd1na2vs0mg"},{"bike_id":"63cb3e8e-e6da-4a66-83e4-12a4ec922468","system_id":"levelo_inurba_marseille","lat":43.262,"lon":5.37933,"is_reserved":false,"is_disabled":false,"rental_uris":{"android":"levelo://app?vid=63cb3e8e-e6da-4a66-83e4-12a4ec922468","ios":"levelo://app?vid=63cb3e8e-e6da-4a66-83e4-12a4ec922468"},"vehicle_type_id":"4","last_reported":1726996117,"current_range_meters":22400,"station_id":"ce4bhjp2rcd13ifvqg90","pricing_plan_id":"cebpf4jnsgd1na2vs0mg"},{"bike_id":"33ef26f8-933d-4a23-a2fb-f3a05d501574","system_id":"levelo_inurba_marseille","lat":43.25082,"lon":5.39514,"is_reserved":false,"is_disabled":false,"rental_uris":{"android":"levelo://app?vid=33ef26f8-933d-4a23-a2fb-f3a05d501574","ios":"levelo://app?vid=33ef26f8-933d-4a23-a2fb-f3a05d501574"},"vehicle_type_id":"4","last_reported":1726996117,"current_range_meters":40000,"station_id":"ce4bhm12rcd13ifvqgkg","pricing_plan_id":"cebpf4jnsgd1na2vs0mg"},{"bike_id":"28899bbf-43c6-44fe-bc87-11c1926b2ab8","system_id":"levelo_inurba_marseille","lat":43.26207,"lon":5.37924,"is_reserved":false,"is_disabled":false,"rental_uris":{"android":"levelo://app?vid=28899bbf-43c6-44fe-bc87-11c1926b2ab8","ios":"levelo://app?vid=28899bbf-43c6-44fe-bc87-11c1926b2ab8"},"vehicle_type_id":"4","last_reported":1726996117,"current_range_meters":38400,"station_id":"ce4bhjp2rcd13ifvqg90","pricing_plan_id":"cebpf4jnsgd1na2vs0mg"},{"bike_id":"90404548-0e6b-478d-bac7-b119dc9952ec","system_id":"levelo_inurba_marseille","lat":43.27199,"lon":5.39192,"is_reserved":false,"is_disabled":false,"rental_uris":{"android":"levelo://app?vid=90404548-0e6b-478d-bac7-b119dc9952ec","ios":"levelo://app?vid=90404548-0e6b-478d-bac7-b119dc9952ec"},"vehicle_type_id":"4","last_reported":1726996117,"current_range_meters":8400,"station_id":"ce4bhhp2rcd13ifvqfm0","pricing_plan_id":"cebpf4jnsgd1na2vs0mg"},{"bike_id":"64bc12f2-8f20-456e-8546-ca41659978f6","system_id":"levelo_inurba_marseille","lat":43.28419,"lon":5.34977,"is_reserved":false,"is_disabled":false,"rental_uris":{"android":"levelo://app?vid=64bc12f2-8f20-456e-8546-ca41659978f6","ios":"levelo://app?vid=64bc12f2-8f20-456e-8546-ca41659978f6"},"vehicle_type_id":"4","last_reported":1726996117,"current_range_meters":37600,"station_id":"ce4bhbh2rcd13ifvqepg","pricing_plan_id":"cebpf4jnsgd1na2vs0mg"},{"bike_id":"48cc16ec-4cea-4a8c-b13e-3ac95a0df700","system_id":"levelo_inurba_marseille","lat":43.30469,"lon":5.37899,"is_reserved":false,"is_disabled":false,"rental_uris":{"android":"levelo://app?vid=48cc16ec-4cea-4a8c-b13e-3ac95a0df700","ios":"levelo://app?vid=48cc16ec-4cea-4a8c-b13e-3ac95a0df700"},"vehicle_type_id":"4","last_reported":1726996117,"current_range_meters":7200,"station_id":"ce4bgup2rcd13ifvqcn0","pricing_plan_id":"cebpf4jnsgd1na2vs0mg"},{"bike_id":"d29e25a2-3aa1-4c1d-bd1f-dbff7dbc0ad2","system_id":"levelo_inurba_marseille","lat":43.3236,"lon":5.38894,"is_reserved":false,"is_disabled":false,"rental_uris":{"android":"levelo://app?vid=d29e25a2-3aa1-4c1d-bd1f-dbff7dbc0ad2","ios":"levelo://app?vid=d29e25a2-3aa1-4c1d-bd1f-dbff7dbc0ad2"},"vehicle_type_id":"4","last_reported":1726996117,"current_range_meters":35200,"station_id":"ce4bhqp2rcd13ifvqhog","pricing_plan_id":"cebpf4jnsgd1na2vs0mg"},{"bike_id":"587b7091-1fcd-4c6f-a820-801ebabc18cc","system_id":"levelo_inurba_marseille","lat":43.29843,"lon":5.36273,"is_reserved":false,"is_disabled":false,"rental_uris":{"android":"levelo://app?vid=587b7091-1fcd-4c6f-a820-801ebabc18cc","ios":"levelo://app?vid=587b7091-1fcd-4c6f-a820-801ebabc18cc"},"vehicle_type_id":"4","last_reported":1726996117,"current_range_meters":32000,"station_id":"ce4bgpp2rcd13ifvqc3g","pricing_plan_id":"cebpf4jnsgd1na2vs0mg"},{"bike_id":"c6ece7c7-4ec5-4120-b681-3c568db59171","system_id":"levelo_inurba_marseille","lat":43.30611,"lon":5.37214,"is_reserved":false,"is_disabled":false,"rental_uris":{"android":"levelo://app?vid=c6ece7c7-4ec5-4120-b681-3c568db59171","ios":"levelo://app?vid=c6ece7c7-4ec5-4120-b681-3c568db59171"},"vehicle_type_id":"4","last_reported":1726996117,"current_range_meters":38000,"station_id":"ce4bgqh2rcd13ifvqc4g","pricing_plan_id":"cebpf4jnsgd1na2vs0mg"},{"bike_id":"ee7edc31-d30f-4ab3-877f-f78ccc96c444","system_id":"levelo_inurba_marseille","lat":43.273132,"lon":5.39075,"is_reserved":false,"is_disabled":false,"rental_uris":{"android":"levelo://app?vid=ee7edc31-d30f-4ab3-877f-f78ccc96c444","ios":"levelo://app?vid=ee7edc31-d30f-4ab3-877f-f78ccc96c444"},"vehicle_type_id":"4","last_reported":1726996117,"current_range_meters":7200,"station_id":"ce4bhgp2rcd13ifvqfe0","pricing_plan_id":"cebpf4jnsgd1na2vs0mg"},{"bike_id":"02415616-385e-4f14-93d0-2ad915d17a0f","system_id":"levelo_inurba_marseille","lat":43.31324,"lon":5.39687,"is_reserved":false,"is_disabled":false,"rental_uris":{"android":"levelo://app?vid=02415616-385e-4f14-93d0-2ad915d17a0f","ios":"levelo://app?vid=02415616-385e-4f14-93d0-2ad915d17a0f"},"vehicle_type_id":"4","last_reported":1726996117,"current_range_meters":37600,"station_id":"ce4bgvp2rcd13ifvqcu0","pricing_plan_id":"cebpf4jnsgd1na2vs0mg"},{"bike_id":"40f76e9d-c4d4-4e89-b102-5cd9a5126209","system_id":"levelo_inurba_marseille","lat":43.31273,"lon":5.40165,"is_reserved":false,"is_disabled":false,"rental_uris":{"android":"levelo://app?vid=40f76e9d-c4d4-4e89-b102-5cd9a5126209","ios":"levelo://app?vid=40f76e9d-c4d4-4e89-b102-5cd9a5126209"},"vehicle_type_id":"4","last_reported":1726996117,"current_range_meters":39200,"station_id":"ce4bh092rcd13ifvqd30","pricing_plan_id":"cebpf4jnsgd1na2vs0mg"},{"bike_id":"78c715ea-5b88-474f-ba55-1ab217d44d12","system_id":"levelo_inurba_marseille","lat":43.29009,"lon":5.35613,"is_reserved":false,"is_disabled":false,"rental_uris":{"android":"levelo://app?vid=78c715ea-5b88-474f-ba55-1ab217d44d12","ios":"levelo://app?vid=78c715ea-5b88-474f-ba55-1ab217d44d12"},"vehicle_type_id":"4","last_reported":1726996117,"current_range_meters":39200,"station_id":"ce4bhb92rcd13ifvqen0","pricing_plan_id":"cebpf4jnsgd1na2vs0mg"},{"bike_id":"c2a23c04-e4cb-496b-a6e8-fbbf90c6064f","system_id":"levelo_inurba_marseille","lat":43.24542,"lon":5.39519,"is_reserved":false,"is_disabled":false,"rental_uris":{"android":"levelo://app?vid=c2a23c04-e4cb-496b-a6e8-fbbf90c6064f","ios":"levelo://app?vid=c2a23c04-e4cb-496b-a6e8-fbbf90c6064f"},"vehicle_type_id":"4","last_reported":1726996117,"current_range_meters":38800,"station_id":"ce4bhlp2rcd13ifvqgjg","pricing_plan_id":"cebpf4jnsgd1na2vs0mg"},{"bike_id":"d76cbb43-a41c-4eb4-a896-5242672c52fa","system_id":"levelo_inurba_marseille","lat":43.28618,"lon":5.35098,"is_reserved":false,"is_disabled":false,"rental_uris":{"android":"levelo://app?vid=d76cbb43-a41c-4eb4-a896-5242672c52fa","ios":"levelo://app?vid=d76cbb43-a41c-4eb4-a896-5242672c52fa"},"vehicle_type_id":"4","last_reported":1726996117,"current_range_meters":19200,"station_id":"ce4bhch2rcd13ifvqeug","pricing_plan_id":"cebpf4jnsgd1na2vs0mg"},{"bike_id":"9196dbc7-b746-4bab-8242-ddaff7392a9a","system_id":"levelo_inurba_marseille","lat":43.29838,"lon":5.36267,"is_reserved":false,"is_disabled":false,"rental_uris":{"android":"levelo://app?vid=9196dbc7-b746-4bab-8242-ddaff7392a9a","ios":"levelo://app?vid=9196dbc7-b746-4bab-8242-ddaff7392a9a"},"vehicle_type_id":"4","last_reported":1726996117,"current_range_meters":37600,"station_id":"ce4bgpp2rcd13ifvqc3g","pricing_plan_id":"cebpf4jnsgd1na2vs0mg"},{"bike_id":"bca0aa49-c7d2-4c11-88f5-f1e59b0dafbc","system_id":"levelo_inurba_marseille","lat":43.27609,"lon":5.36105,"is_reserved":false,"is_disabled":false,"rental_uris":{"android":"levelo://app?vid=bca0aa49-c7d2-4c11-88f5-f1e59b0dafbc","ios":"levelo://app?vid=bca0aa49-c7d2-4c11-88f5-f1e59b0dafbc"},"vehicle_type_id":"4","last_reported":1726996117,"current_range_meters":18000,"station_id":"ce4bgj92rcd13ifvqbe0","pricing_plan_id":"cebpf4jnsgd1na2vs0mg"},{"bike_id":"1575e777-51f8-479e-bd95-714cef91a125","system_id":"levelo_inurba_marseille","lat":43.24181,"lon":5.39719,"is_reserved":false,"is_disabled":false,"rental_uris":{"android":"levelo://app?vid=1575e777-51f8-479e-bd95-714cef91a125","ios":"levelo://app?vid=1575e777-51f8-479e-bd95-714cef91a125"},"vehicle_type_id":"4","last_reported":1726996117,"current_range_meters":27600,"station_id":"ce4bhn12rcd13ifvqgpg","pricing_plan_id":"cebpf4jnsgd1na2vs0mg"},{"bike_id":"e9e6d9e2-3e2d-4420-a12d-dab77cbc6502","system_id":"levelo_inurba_marseille","lat":43.27611,"lon":5.3611,"is_reserved":false,"is_disabled":false,"rental_uris":{"android":"levelo://app?vid=e9e6d9e2-3e2d-4420-a12d-dab77cbc6502","ios":"levelo://app?vid=e9e6d9e2-3e2d-4420-a12d-dab77cbc6502"},"vehicle_type_id":"4","last_reported":1726996117,"current_range_meters":12400,"station_id":"ce4bgj92rcd13ifvqbe0","pricing_plan_id":"cebpf4jnsgd1na2vs0mg"},{"bike_id":"bd9f34a0-dc08-4657-9b7c-5589754bd8db","system_id":"levelo_inurba_marseille","lat":43.25,"lon":5.3892,"is_reserved":false,"is_disabled":false,"rental_uris":{"android":"levelo://app?vid=bd9f34a0-dc08-4657-9b7c-5589754bd8db","ios":"levelo://app?vid=bd9f34a0-dc08-4657-9b7c-5589754bd8db"},"vehicle_type_id":"4","last_reported":1726996117,"current_range_meters":38400,"station_id":"ce4bhgp2rcd13ifvqfd0","pricing_plan_id":"cebpf4jnsgd1na2vs0mg"},{"bike_id":"4f6cd953-65f5-4d4f-a052-70118d864e1d","system_id":"levelo_inurba_marseille","lat":43.29896,"lon":5.43657,"is_reserved":false,"is_disabled":false,"rental_uris":{"android":"levelo://app?vid=4f6cd953-65f5-4d4f-a052-70118d864e1d","ios":"levelo://app?vid=4f6cd953-65f5-4d4f-a052-70118d864e1d"},"vehicle_type_id":"4","last_reported":1726996117,"current_range_meters":3600,"station_id":"ce4bhpp2rcd13ifvqhfg","pricing_plan_id":"cebpf4jnsgd1na2vs0mg"},{"bike_id":"ab03fbd4-771e-4097-be15-28a0898ddabb","system_id":"levelo_inurba_marseille","lat":43.31888,"lon":5.40737,"is_reserved":false,"is_disabled":false,"rental_uris":{"android":"levelo://app?vid=ab03fbd4-771e-4097-be15-28a0898ddabb","ios":"levelo://app?vid=ab03fbd4-771e-4097-be15-28a0898ddabb"},"vehicle_type_id":"4","last_reported":1726996117,"current_range_meters":34800,"station_id":"ce4bhq12rcd13ifvqhig","pricing_plan_id":"cebpf4jnsgd1na2vs0mg"},{"bike_id":"8c980e46-7a71-43b5-8eb5-1fc923601a11","system_id":"levelo_inurba_marseille","lat":43.230956,"lon":5.354727,"is_reserved":false,"is_disabled":false,"rental_uris":{"android":"levelo://app?vid=8c980e46-7a71-43b5-8eb5-1fc923601a11","ios":"levelo://app?vid=8c980e46-7a71-43b5-8eb5-1fc923601a11"},"vehicle_type_id":"4","last_reported":1726996117,"current_range_meters":27200,"station_id":"cpo3342slgdg3j2ifvpg","pricing_plan_id":"cebpf4jnsgd1na2vs0mg"},{"bike_id":"d9e213ca-e541-459d-93e9-f901cb508c67","system_id":"levelo_inurba_marseille","lat":43.31703,"lon":5.37754,"is_reserved":false,"is_disabled":false,"rental_uris":{"android":"levelo://app?vid=d9e213ca-e541-459d-93e9-f901cb508c67","ios":"levelo://app?vid=d9e213ca-e541-459d-93e9-f901cb508c67"},"vehicle_type_id":"4","last_reported":1726996117,"current_range_meters":39200,"station_id":"ce4bgth2rcd13ifvqch0","pricing_plan_id":"cebpf4jnsgd1na2vs0mg"},{"bike_id":"742fe014-1f5e-499c-bbc5-66a0cbb87904","system_id":"levelo_inurba_marseille","lat":43.2319,"lon":5.35556,"is_reserved":false,"is_disabled":false,"rental_uris":{"android":"levelo://app?vid=742fe014-1f5e-499c-bbc5-66a0cbb87904","ios":"levelo://app?vid=742fe014-1f5e-499c-bbc5-66a0cbb87904"},"vehicle_type_id":"4","last_reported":1726996117,"current_range_meters":34800,"station_id":"ce4bhu92rcd13ifvqi70","pricing_plan_id":"cebpf4jnsgd1na2vs0mg"},{"bike_id":"eaba8a86-b9c2-4d10-801f-fe492232c8c7","system_id":"levelo_inurba_marseille","lat":43.33018,"lon":5.39044,"is_reserved":false,"is_disabled":false,"rental_uris":{"android":"levelo://app?vid=eaba8a86-b9c2-4d10-801f-fe492232c8c7","ios":"levelo://app?vid=eaba8a86-b9c2-4d10-801f-fe492232c8c7"},"vehicle_type_id":"4","last_reported":1726996117,"current_range_meters":30000,"station_id":"ce4bhr92rcd13ifvqhrg","pricing_plan_id":"cebpf4jnsgd1na2vs0mg"},{"bike_id":"885eb9fd-e64e-4dcf-b796-e74b9bc20997","system_id":"levelo_inurba_marseille","lat":43.27915,"lon":5.39575,"is_reserved":false,"is_disabled":false,"rental_uris":{"android":"levelo://app?vid=885eb9fd-e64e-4dcf-b796-e74b9bc20997","ios":"levelo://app?vid=885eb9fd-e64e-4dcf-b796-e74b9bc20997"},"vehicle_type_id":"4","last_reported":1726996117,"current_range_meters":38000,"station_id":"ce4bhf92rcd13ifvqf40","pricing_plan_id":"cebpf4jnsgd1na2vs0mg"},{"bike_id":"bd8e09e3-dd04-4889-8cf6-90b26ccee3bc","system_id":"levelo_inurba_marseille","lat":43.304457,"lon":5.378932,"is_reserved":false,"is_disabled":false,"rental_uris":{"android":"levelo://app?vid=bd8e09e3-dd04-4889-8cf6-90b26ccee3bc","ios":"levelo://app?vid=bd8e09e3-dd04-4889-8cf6-90b26ccee3bc"},"vehicle_type_id":"4","last_reported":1726996117,"current_range_meters":30800,"station_id":"ce4bgup2rcd13ifvqcn0","pricing_plan_id":"cebpf4jnsgd1na2vs0mg"},{"bike_id":"57b70569-08d4-443d-ad31-15f996d3c1ba","system_id":"levelo_inurba_marseille","lat":43.3053,"lon":5.36552,"is_reserved":false,"is_disabled":false,"rental_uris":{"android":"levelo://app?vid=57b70569-08d4-443d-ad31-15f996d3c1ba","ios":"levelo://app?vid=57b70569-08d4-443d-ad31-15f996d3c1ba"},"vehicle_type_id":"4","last_reported":1726996117,"current_range_meters":28800,"station_id":"ce4bgs12rcd13ifvqcag","pricing_plan_id":"cebpf4jnsgd1na2vs0mg"},{"bike_id":"1e2ca816-8239-439a-b5a0-54711f007809","system_id":"levelo_inurba_marseille","lat":43.23151,"lon":5.43716,"is_reserved":false,"is_disabled":false,"rental_uris":{"android":"levelo://app?vid=1e2ca816-8239-439a-b5a0-54711f007809","ios":"levelo://app?vid=1e2ca816-8239-439a-b5a0-54711f007809"},"vehicle_type_id":"4","last_reported":1726996117,"current_range_meters":5600,"station_id":"ce4bhmp2rcd13ifvqgog","pricing_plan_id":"cebpf4jnsgd1na2vs0mg"},{"bike_id":"a0c34b71-a8bd-46b9-a946-0013faa3c7ca","system_id":"levelo_inurba_marseille","lat":43.30146,"lon":5.38092,"is_reserved":false,"is_disabled":false,"rental_uris":{"android":"levelo://app?vid=a0c34b71-a8bd-46b9-a946-0013faa3c7ca","ios":"levelo://app?vid=a0c34b71-a8bd-46b9-a946-0013faa3c7ca"},"vehicle_type_id":"4","last_reported":1726996117,"current_range_meters":27200,"station_id":"ce4bgjp2rcd13ifvqbh0","pricing_plan_id":"cebpf4jnsgd1na2vs0mg"},{"bike_id":"0fea90f9-a569-4ca7-baf2-dc35ee080aca","system_id":"levelo_inurba_marseille","lat":43.31755,"lon":5.39017,"is_reserved":false,"is_disabled":false,"rental_uris":{"android":"levelo://app?vid=0fea90f9-a569-4ca7-baf2-dc35ee080aca","ios":"levelo://app?vid=0fea90f9-a569-4ca7-baf2-dc35ee080aca"},"vehicle_type_id":"4","last_reported":1726996117,"current_range_meters":27200,"station_id":"ce4bhqp2rcd13ifvqhng","pricing_plan_id":"cebpf4jnsgd1na2vs0mg"},{"bike_id":"feb42740-c719-4916-9efa-d99f861e0e6d","system_id":"levelo_inurba_marseille","lat":43.32478,"lon":5.3658,"is_reserved":false,"is_disabled":false,"rental_uris":{"android":"levelo://app?vid=feb42740-c719-4916-9efa-d99f861e0e6d","ios":"levelo://app?vid=feb42740-c719-4916-9efa-d99f861e0e6d"},"vehicle_type_id":"4","last_reported":1726996117,"current_range_meters":36400,"station_id":"ce4bhs12rcd13ifvqhvg","pricing_plan_id":"cebpf4jnsgd1na2vs0mg"},{"bike_id":"beb3335f-a034-46b7-9457-3756cdde1123","system_id":"levelo_inurba_marseille","lat":43.30461,"lon":5.37893,"is_reserved":false,"is_disabled":false,"rental_uris":{"android":"levelo://app?vid=beb3335f-a034-46b7-9457-3756cdde1123","ios":"levelo://app?vid=beb3335f-a034-46b7-9457-3756cdde1123"},"vehicle_type_id":"4","last_reported":1726996117,"current_range_meters":37600,"station_id":"ce4bgup2rcd13ifvqcn0","pricing_plan_id":"cebpf4jnsgd1na2vs0mg"},{"bike_id":"5a1a9230-f43f-4f4a-b20b-6785ba953c06","system_id":"levelo_inurba_marseille","lat":43.24074,"lon":5.37747,"is_reserved":false,"is_disabled":false,"rental_uris":{"android":"levelo://app?vid=5a1a9230-f43f-4f4a-b20b-6785ba953c06","ios":"levelo://app?vid=5a1a9230-f43f-4f4a-b20b-6785ba953c06"},"vehicle_type_id":"4","last_reported":1726996117,"current_range_meters":30400,"station_id":"ce4bhnp2rcd13ifvqgvg","pricing_plan_id":"cebpf4jnsgd1na2vs0mg"},{"bike_id":"f33483c1-3b2c-4303-843b-6554d88a9a5f","system_id":"levelo_inurba_marseille","lat":43.24076,"lon":5.3776,"is_reserved":false,"is_disabled":false,"rental_uris":{"android":"levelo://app?vid=f33483c1-3b2c-4303-843b-6554d88a9a5f","ios":"levelo://app?vid=f33483c1-3b2c-4303-843b-6554d88a9a5f"},"vehicle_type_id":"4","last_reported":1726996117,"current_range_meters":38400,"station_id":"ce4bhnp2rcd13ifvqgvg","pricing_plan_id":"cebpf4jnsgd1na2vs0mg"},{"bike_id":"5ce6ca70-38c1-446a-8e79-d58050d35527","system_id":"levelo_inurba_marseille","lat":43.26564,"lon":5.3902,"is_reserved":false,"is_disabled":false,"rental_uris":{"android":"levelo://app?vid=5ce6ca70-38c1-446a-8e79-d58050d35527","ios":"levelo://app?vid=5ce6ca70-38c1-446a-8e79-d58050d35527"},"vehicle_type_id":"4","last_reported":1726996117,"current_range_meters":26000,"station_id":"ce4bhe12rcd13ifvqf30","pricing_plan_id":"cebpf4jnsgd1na2vs0mg"},{"bike_id":"f823d7b8-f9dd-42f2-be9f-028dea601fa7","system_id":"levelo_inurba_marseille","lat":43.26023,"lon":5.37547,"is_reserved":false,"is_disabled":false,"rental_uris":{"android":"levelo://app?vid=f823d7b8-f9dd-42f2-be9f-028dea601fa7","ios":"levelo://app?vid=f823d7b8-f9dd-42f2-be9f-028dea601fa7"},"vehicle_type_id":"4","last_reported":1726996117,"current_range_meters":14800,"station_id":"ce4bhgh2rcd13ifvqfa0","pricing_plan_id":"cebpf4jnsgd1na2vs0mg"},{"bike_id":"117fe5ff-5e2a-4c79-920f-6cfcc9cd9029","system_id":"levelo_inurba_marseille","lat":43.27202,"lon":5.39186,"is_reserved":false,"is_disabled":false,"rental_uris":{"android":"levelo://app?vid=117fe5ff-5e2a-4c79-920f-6cfcc9cd9029","ios":"levelo://app?vid=117fe5ff-5e2a-4c79-920f-6cfcc9cd9029"},"vehicle_type_id":"4","last_reported":1726996117,"current_range_meters":38800,"station_id":"ce4bhhp2rcd13ifvqfm0","pricing_plan_id":"cebpf4jnsgd1na2vs0mg"},{"bike_id":"fce734b4-6c36-4cb6-983c-c95238702258","system_id":"levelo_inurba_marseille","lat":43.31065,"lon":5.3811,"is_reserved":false,"is_disabled":false,"rental_uris":{"android":"levelo://app?vid=fce734b4-6c36-4cb6-983c-c95238702258","ios":"levelo://app?vid=fce734b4-6c36-4cb6-983c-c95238702258"},"vehicle_type_id":"4","last_reported":1726996117,"current_range_meters":13600,"station_id":"","pricing_plan_id":"cebpf4jnsgd1na2vs0mg"},{"bike_id":"ab164393-cd31-4221-b165-f26296d40d00","system_id":"levelo_inurba_marseille","lat":43.31081,"lon":5.42427,"is_reserved":false,"is_disabled":false,"rental_uris":{"android":"levelo://app?vid=ab164393-cd31-4221-b165-f26296d40d00","ios":"levelo://app?vid=ab164393-cd31-4221-b165-f26296d40d00"},"vehicle_type_id":"4","last_reported":1726996117,"current_range_meters":10800,"station_id":"ce4bhp92rcd13ifvqhag","pricing_plan_id":"cebpf4jnsgd1na2vs0mg"},{"bike_id":"cf96c4a6-21ac-49c8-a898-842a1e567586","system_id":"levelo_inurba_marseille","lat":43.28429,"lon":5.39191,"is_reserved":false,"is_disabled":false,"rental_uris":{"android":"levelo://app?vid=cf96c4a6-21ac-49c8-a898-842a1e567586","ios":"levelo://app?vid=cf96c4a6-21ac-49c8-a898-842a1e567586"},"vehicle_type_id":"4","last_reported":1726996117,"current_range_meters":38800,"station_id":"ce4bhoh2rcd13ifvqh5g","pricing_plan_id":"cebpf4jnsgd1na2vs0mg"},{"bike_id":"5e591d38-ebd9-48a3-9153-769346c83b74","system_id":"levelo_inurba_marseille","lat":43.28614,"lon":5.35103,"is_reserved":false,"is_disabled":false,"rental_uris":{"android":"levelo://app?vid=5e591d38-ebd9-48a3-9153-769346c83b74","ios":"levelo://app?vid=5e591d38-ebd9-48a3-9153-769346c83b74"},"vehicle_type_id":"4","last_reported":1726996117,"current_range_meters":31200,"station_id":"ce4bhch2rcd13ifvqeug","pricing_plan_id":"cebpf4jnsgd1na2vs0mg"},{"bike_id":"a27dbfcf-fdb2-45f8-985f-42b146435a71","system_id":"levelo_inurba_marseille","lat":43.32338,"lon":5.40624,"is_reserved":false,"is_disabled":false,"rental_uris":{"android":"levelo://app?vid=a27dbfcf-fdb2-45f8-985f-42b146435a71","ios":"levelo://app?vid=a27dbfcf-fdb2-45f8-985f-42b146435a71"},"vehicle_type_id":"4","last_reported":1726996117,"current_range_meters":38000,"station_id":"ce4bhq92rcd13ifvqhjg","pricing_plan_id":"cebpf4jnsgd1na2vs0mg"},{"bike_id":"f74941be-f473-4ce7-9230-0799526567ae","system_id":"levelo_inurba_marseille","lat":43.23196,"lon":5.35542,"is_reserved":false,"is_disabled":false,"rental_uris":{"android":"levelo://app?vid=f74941be-f473-4ce7-9230-0799526567ae","ios":"levelo://app?vid=f74941be-f473-4ce7-9230-0799526567ae"},"vehicle_type_id":"4","last_reported":1726996117,"current_range_meters":38800,"station_id":"ce4bhu92rcd13ifvqi70","pricing_plan_id":"cebpf4jnsgd1na2vs0mg"},{"bike_id":"89b43d7b-3ae1-483c-b3a3-a1270ea3b6e4","system_id":"levelo_inurba_marseille","lat":43.29935,"lon":5.36535,"is_reserved":false,"is_disabled":false,"rental_uris":{"android":"levelo://app?vid=89b43d7b-3ae1-483c-b3a3-a1270ea3b6e4","ios":"levelo://app?vid=89b43d7b-3ae1-483c-b3a3-a1270ea3b6e4"},"vehicle_type_id":"4","last_reported":1726996117,"current_range_meters":32400,"station_id":"ce4bgm92rcd13ifvqbr0","pricing_plan_id":"cebpf4jnsgd1na2vs0mg"},{"bike_id":"58750505-60de-495c-9e45-4a947f1a1440","system_id":"levelo_inurba_marseille","lat":43.306,"lon":5.37213,"is_reserved":false,"is_disabled":false,"rental_uris":{"android":"levelo://app?vid=58750505-60de-495c-9e45-4a947f1a1440","ios":"levelo://app?vid=58750505-60de-495c-9e45-4a947f1a1440"},"vehicle_type_id":"4","last_reported":1726996117,"current_range_meters":26800,"station_id":"ce4bgqh2rcd13ifvqc4g","pricing_plan_id":"cebpf4jnsgd1na2vs0mg"},{"bike_id":"1d843a13-7297-42bd-88e3-7bc313e4a30a","system_id":"levelo_inurba_marseille","lat":43.30922,"lon":5.40145,"is_reserved":false,"is_disabled":false,"rental_uris":{"android":"levelo://app?vid=1d843a13-7297-42bd-88e3-7bc313e4a30a","ios":"levelo://app?vid=1d843a13-7297-42bd-88e3-7bc313e4a30a"},"vehicle_type_id":"4","last_reported":1726996117,"current_range_meters":11200,"station_id":"ce4bgvp2rcd13ifvqct0","pricing_plan_id":"cebpf4jnsgd1na2vs0mg"},{"bike_id":"b9503bfd-a2c9-491b-b8be-4c7c0bcc5cfa","system_id":"levelo_inurba_marseille","lat":43.27317,"lon":5.39092,"is_reserved":false,"is_disabled":false,"rental_uris":{"android":"levelo://app?vid=b9503bfd-a2c9-491b-b8be-4c7c0bcc5cfa","ios":"levelo://app?vid=b9503bfd-a2c9-491b-b8be-4c7c0bcc5cfa"},"vehicle_type_id":"4","last_reported":1726996117,"current_range_meters":40000,"station_id":"ce4bhgp2rcd13ifvqfe0","pricing_plan_id":"cebpf4jnsgd1na2vs0mg"},{"bike_id":"b652c763-09e2-4f37-a6de-277df3aeac28","system_id":"levelo_inurba_marseille","lat":43.30535,"lon":5.3654,"is_reserved":false,"is_disabled":false,"rental_uris":{"android":"levelo://app?vid=b652c763-09e2-4f37-a6de-277df3aeac28","ios":"levelo://app?vid=b652c763-09e2-4f37-a6de-277df3aeac28"},"vehicle_type_id":"4","last_reported":1726996117,"current_range_meters":39200,"station_id":"ce4bgs12rcd13ifvqcag","pricing_plan_id":"cebpf4jnsgd1na2vs0mg"},{"bike_id":"bc2224ad-a18e-479e-9927-fa7d79220cd4","system_id":"levelo_inurba_marseille","lat":43.32339,"lon":5.40625,"is_reserved":false,"is_disabled":false,"rental_uris":{"android":"levelo://app?vid=bc2224ad-a18e-479e-9927-fa7d79220cd4","ios":"levelo://app?vid=bc2224ad-a18e-479e-9927-fa7d79220cd4"},"vehicle_type_id":"4","last_reported":1726996117,"current_range_meters":38000,"station_id":"ce4bhq92rcd13ifvqhjg","pricing_plan_id":"cebpf4jnsgd1na2vs0mg"},{"bike_id":"a910cfe6-5988-4081-87cf-da794a5766f5","system_id":"levelo_inurba_marseille","lat":43.29575,"lon":5.36743,"is_reserved":false,"is_disabled":false,"rental_uris":{"android":"levelo://app?vid=a910cfe6-5988-4081-87cf-da794a5766f5","ios":"levelo://app?vid=a910cfe6-5988-4081-87cf-da794a5766f5"},"vehicle_type_id":"4","last_reported":1726996117,"current_range_meters":38400,"station_id":"ce4bgph2rcd13ifvqc2g","pricing_plan_id":"cebpf4jnsgd1na2vs0mg"},{"bike_id":"f41e7a46-2a37-4941-a16b-c25de8543cc8","system_id":"levelo_inurba_marseille","lat":43.29003,"lon":5.35611,"is_reserved":false,"is_disabled":false,"rental_uris":{"android":"levelo://app?vid=f41e7a46-2a37-4941-a16b-c25de8543cc8","ios":"levelo://app?vid=f41e7a46-2a37-4941-a16b-c25de8543cc8"},"vehicle_type_id":"4","last_reported":1726996117,"current_range_meters":31200,"station_id":"ce4bhb92rcd13ifvqen0","pricing_plan_id":"cebpf4jnsgd1na2vs0mg"},{"bike_id":"6a27e725-2d8c-4144-8185-44daee5ca0de","system_id":"levelo_inurba_marseille","lat":43.31749,"lon":5.39015,"is_reserved":false,"is_disabled":false,"rental_uris":{"android":"levelo://app?vid=6a27e725-2d8c-4144-8185-44daee5ca0de","ios":"levelo://app?vid=6a27e725-2d8c-4144-8185-44daee5ca0de"},"vehicle_type_id":"4","last_reported":1726996117,"current_range_meters":22400,"station_id":"ce4bhqp2rcd13ifvqhng","pricing_plan_id":"cebpf4jnsgd1na2vs0mg"},{"bike_id":"c77bd584-3434-457f-b254-1295375722de","system_id":"levelo_inurba_marseille","lat":43.312108,"lon":5.36898,"is_reserved":false,"is_disabled":false,"rental_uris":{"android":"levelo://app?vid=c77bd584-3434-457f-b254-1295375722de","ios":"levelo://app?vid=c77bd584-3434-457f-b254-1295375722de"},"vehicle_type_id":"4","last_reported":1726996117,"current_range_meters":37600,"station_id":"ce4bgl92rcd13ifvqbq0","pricing_plan_id":"cebpf4jnsgd1na2vs0mg"},{"bike_id":"78bed039-a4ce-4a9d-ac7e-553f2d0b10b7","system_id":"levelo_inurba_marseille","lat":43.29029,"lon":5.38655,"is_reserved":false,"is_disabled":false,"rental_uris":{"android":"levelo://app?vid=78bed039-a4ce-4a9d-ac7e-553f2d0b10b7","ios":"levelo://app?vid=78bed039-a4ce-4a9d-ac7e-553f2d0b10b7"},"vehicle_type_id":"4","last_reported":1726996117,"current_range_meters":26800,"station_id":"ce4bh4p2rcd13ifvqe0g","pricing_plan_id":"cebpf4jnsgd1na2vs0mg"},{"bike_id":"27be6f2f-1bc2-4192-a569-44eba2fb71ae","system_id":"levelo_inurba_marseille","lat":43.25942,"lon":5.409,"is_reserved":false,"is_disabled":false,"rental_uris":{"android":"levelo://app?vid=27be6f2f-1bc2-4192-a569-44eba2fb71ae","ios":"levelo://app?vid=27be6f2f-1bc2-4192-a569-44eba2fb71ae"},"vehicle_type_id":"4","last_reported":1726996117,"current_range_meters":13600,"station_id":"ce4bhm92rcd13ifvqglg","pricing_plan_id":"cebpf4jnsgd1na2vs0mg"},{"bike_id":"165b741a-2404-4624-b268-999183c6a48e","system_id":"levelo_inurba_marseille","lat":43.27492,"lon":5.42455,"is_reserved":false,"is_disabled":false,"rental_uris":{"android":"levelo://app?vid=165b741a-2404-4624-b268-999183c6a48e","ios":"levelo://app?vid=165b741a-2404-4624-b268-999183c6a48e"},"vehicle_type_id":"4","last_reported":1726996117,"current_range_meters":37600,"station_id":"ce4bhn92rcd13ifvqgrg","pricing_plan_id":"cebpf4jnsgd1na2vs0mg"},{"bike_id":"b16c67eb-2500-4e31-b82c-08096e6d16bc","system_id":"levelo_inurba_marseille","lat":43.29591,"lon":5.37725,"is_reserved":false,"is_disabled":false,"rental_uris":{"android":"levelo://app?vid=b16c67eb-2500-4e31-b82c-08096e6d16bc","ios":"levelo://app?vid=b16c67eb-2500-4e31-b82c-08096e6d16bc"},"vehicle_type_id":"4","last_reported":1726996117,"current_range_meters":16800,"station_id":"ce4bgi92rcd13ifvqb90","pricing_plan_id":"cebpf4jnsgd1na2vs0mg"},{"bike_id":"523dbe2c-4770-45c9-bbf3-0c8e932b3386","system_id":"levelo_inurba_marseille","lat":43.26488,"lon":5.39549,"is_reserved":false,"is_disabled":false,"rental_uris":{"android":"levelo://app?vid=523dbe2c-4770-45c9-bbf3-0c8e932b3386","ios":"levelo://app?vid=523dbe2c-4770-45c9-bbf3-0c8e932b3386"},"vehicle_type_id":"4","last_reported":1726996117,"current_range_meters":8800,"station_id":"ce4bhi12rcd13ifvqfq0","pricing_plan_id":"cebpf4jnsgd1na2vs0mg"},{"bike_id":"fb2b63d9-4a26-4602-9a57-d2caab531ee7","system_id":"levelo_inurba_marseille","lat":43.33715,"lon":5.39177,"is_reserved":false,"is_disabled":false,"rental_uris":{"android":"levelo://app?vid=fb2b63d9-4a26-4602-9a57-d2caab531ee7","ios":"levelo://app?vid=fb2b63d9-4a26-4602-9a57-d2caab531ee7"},"vehicle_type_id":"4","last_reported":1726996117,"current_range_meters":38000,"station_id":"ce4bhr92rcd13ifvqhsg","pricing_plan_id":"cebpf4jnsgd1na2vs0mg"},{"bike_id":"82e6fd96-a62a-435f-a86e-ecb925dd224a","system_id":"levelo_inurba_marseille","lat":43.28607,"lon":5.37069,"is_reserved":false,"is_disabled":false,"rental_uris":{"android":"levelo://app?vid=82e6fd96-a62a-435f-a86e-ecb925dd224a","ios":"levelo://app?vid=82e6fd96-a62a-435f-a86e-ecb925dd224a"},"vehicle_type_id":"4","last_reported":1726996117,"current_range_meters":38800,"station_id":"ce4bht12rcd13ifvqi60","pricing_plan_id":"cebpf4jnsgd1na2vs0mg"},{"bike_id":"73eed61d-33cb-4233-a74d-3b9427271030","system_id":"levelo_inurba_marseille","lat":43.25873,"lon":5.39909,"is_reserved":false,"is_disabled":false,"rental_uris":{"android":"levelo://app?vid=73eed61d-33cb-4233-a74d-3b9427271030","ios":"levelo://app?vid=73eed61d-33cb-4233-a74d-3b9427271030"},"vehicle_type_id":"4","last_reported":1726996117,"current_range_meters":8400,"station_id":"ce4bhl92rcd13ifvqghg","pricing_plan_id":"cebpf4jnsgd1na2vs0mg"},{"bike_id":"e8d9fcc7-4a1f-4d96-8ebf-5d7fd0b8bb85","system_id":"levelo_inurba_marseille","lat":43.23185,"lon":5.39981,"is_reserved":false,"is_disabled":false,"rental_uris":{"android":"levelo://app?vid=e8d9fcc7-4a1f-4d96-8ebf-5d7fd0b8bb85","ios":"levelo://app?vid=e8d9fcc7-4a1f-4d96-8ebf-5d7fd0b8bb85"},"vehicle_type_id":"4","last_reported":1726996117,"current_range_meters":24000,"station_id":"ce4bhn12rcd13ifvqgqg","pricing_plan_id":"cebpf4jnsgd1na2vs0mg"},{"bike_id":"ef8c4665-5ed2-4c55-a204-5049067fb8cf","system_id":"levelo_inurba_marseille","lat":43.31327,"lon":5.3969,"is_reserved":false,"is_disabled":false,"rental_uris":{"android":"levelo://app?vid=ef8c4665-5ed2-4c55-a204-5049067fb8cf","ios":"levelo://app?vid=ef8c4665-5ed2-4c55-a204-5049067fb8cf"},"vehicle_type_id":"4","last_reported":1726996117,"current_range_meters":39200,"station_id":"ce4bgvp2rcd13ifvqcu0","pricing_plan_id":"cebpf4jnsgd1na2vs0mg"},{"bike_id":"a9f970fa-8fa9-4f75-a9c9-ba0a24a4c539","system_id":"levelo_inurba_marseille","lat":43.28418,"lon":5.349768,"is_reserved":false,"is_disabled":false,"rental_uris":{"android":"levelo://app?vid=a9f970fa-8fa9-4f75-a9c9-ba0a24a4c539","ios":"levelo://app?vid=a9f970fa-8fa9-4f75-a9c9-ba0a24a4c539"},"vehicle_type_id":"4","last_reported":1726996117,"current_range_meters":36400,"station_id":"ce4bhbh2rcd13ifvqepg","pricing_plan_id":"cebpf4jnsgd1na2vs0mg"},{"bike_id":"e37fc6a0-b97e-4c99-beea-c977011ccf27","system_id":"levelo_inurba_marseille","lat":43.31492,"lon":5.37307,"is_reserved":false,"is_disabled":false,"rental_uris":{"android":"levelo://app?vid=e37fc6a0-b97e-4c99-beea-c977011ccf27","ios":"levelo://app?vid=e37fc6a0-b97e-4c99-beea-c977011ccf27"},"vehicle_type_id":"4","last_reported":1726996117,"current_range_meters":30000,"station_id":"ce4bgt12rcd13ifvqcd0","pricing_plan_id":"cebpf4jnsgd1na2vs0mg"},{"bike_id":"a888bd25-0e5e-4023-9004-02c112c20002","system_id":"levelo_inurba_marseille","lat":43.289389,"lon":5.396251,"is_reserved":false,"is_disabled":false,"rental_uris":{"android":"levelo://app?vid=a888bd25-0e5e-4023-9004-02c112c20002","ios":"levelo://app?vid=a888bd25-0e5e-4023-9004-02c112c20002"},"vehicle_type_id":"4","last_reported":1726996117,"current_range_meters":36000,"station_id":"ce4bh3h2rcd13ifvqdn0","pricing_plan_id":"cebpf4jnsgd1na2vs0mg"},{"bike_id":"9db086ca-e7d0-4cbd-a8a0-00e1ea9007af","system_id":"levelo_inurba_marseille","lat":43.26204,"lon":5.37926,"is_reserved":false,"is_disabled":false,"rental_uris":{"android":"levelo://app?vid=9db086ca-e7d0-4cbd-a8a0-00e1ea9007af","ios":"levelo://app?vid=9db086ca-e7d0-4cbd-a8a0-00e1ea9007af"},"vehicle_type_id":"4","last_reported":1726996117,"current_range_meters":6800,"station_id":"ce4bhjp2rcd13ifvqg90","pricing_plan_id":"cebpf4jnsgd1na2vs0mg"},{"bike_id":"5bc86c95-5c95-42e1-a3d1-d7e3f67a8246","system_id":"levelo_inurba_marseille","lat":43.30544,"lon":5.36555,"is_reserved":false,"is_disabled":false,"rental_uris":{"android":"levelo://app?vid=5bc86c95-5c95-42e1-a3d1-d7e3f67a8246","ios":"levelo://app?vid=5bc86c95-5c95-42e1-a3d1-d7e3f67a8246"},"vehicle_type_id":"4","last_reported":1726996117,"current_range_meters":21600,"station_id":"ce4bgs12rcd13ifvqcag","pricing_plan_id":"cebpf4jnsgd1na2vs0mg"},{"bike_id":"fa690805-233a-4a70-a9f3-33f1b67cdb1f","system_id":"levelo_inurba_marseille","lat":43.32287,"lon":5.38266,"is_reserved":false,"is_disabled":false,"rental_uris":{"android":"levelo://app?vid=fa690805-233a-4a70-a9f3-33f1b67cdb1f","ios":"levelo://app?vid=fa690805-233a-4a70-a9f3-33f1b67cdb1f"},"vehicle_type_id":"4","last_reported":1726996117,"current_range_meters":8400,"station_id":"ce4bhr12rcd13ifvqhqg","pricing_plan_id":"cebpf4jnsgd1na2vs0mg"},{"bike_id":"80f4f899-f702-483a-9759-d18d5e010f01","system_id":"levelo_inurba_marseille","lat":43.28613,"lon":5.35101,"is_reserved":false,"is_disabled":false,"rental_uris":{"android":"levelo://app?vid=80f4f899-f702-483a-9759-d18d5e010f01","ios":"levelo://app?vid=80f4f899-f702-483a-9759-d18d5e010f01"},"vehicle_type_id":"4","last_reported":1726996117,"current_range_meters":36400,"station_id":"ce4bhch2rcd13ifvqeug","pricing_plan_id":"cebpf4jnsgd1na2vs0mg"},{"bike_id":"b2339897-361c-4413-9ea5-c8dd0f80badb","system_id":"levelo_inurba_marseille","lat":43.27211,"lon":5.391798,"is_reserved":false,"is_disabled":false,"rental_uris":{"android":"levelo://app?vid=b2339897-361c-4413-9ea5-c8dd0f80badb","ios":"levelo://app?vid=b2339897-361c-4413-9ea5-c8dd0f80badb"},"vehicle_type_id":"4","last_reported":1726996117,"current_range_meters":19200,"station_id":"ce4bhhp2rcd13ifvqfm0","pricing_plan_id":"cebpf4jnsgd1na2vs0mg"},{"bike_id":"80e63dfc-a645-4d2f-a0b5-3f87a2df0aaa","system_id":"levelo_inurba_marseille","lat":43.24661,"lon":5.38158,"is_reserved":false,"is_disabled":false,"rental_uris":{"android":"levelo://app?vid=80e63dfc-a645-4d2f-a0b5-3f87a2df0aaa","ios":"levelo://app?vid=80e63dfc-a645-4d2f-a0b5-3f87a2df0aaa"},"vehicle_type_id":"4","last_reported":1726996117,"current_range_meters":28000,"station_id":"ce4bhih2rcd13ifvqfr0","pricing_plan_id":"cebpf4jnsgd1na2vs0mg"},{"bike_id":"e2f5d3ae-2c18-47db-abdc-e8d192550418","system_id":"levelo_inurba_marseille","lat":43.28608,"lon":5.35102,"is_reserved":false,"is_disabled":false,"rental_uris":{"android":"levelo://app?vid=e2f5d3ae-2c18-47db-abdc-e8d192550418","ios":"levelo://app?vid=e2f5d3ae-2c18-47db-abdc-e8d192550418"},"vehicle_type_id":"4","last_reported":1726996117,"current_range_meters":35600,"station_id":"ce4bhch2rcd13ifvqeug","pricing_plan_id":"cebpf4jnsgd1na2vs0mg"},{"bike_id":"fecfa792-a07c-4ec0-81d5-2fe7a6beed2d","system_id":"levelo_inurba_marseille","lat":43.27069,"lon":5.42277,"is_reserved":false,"is_disabled":false,"rental_uris":{"android":"levelo://app?vid=fecfa792-a07c-4ec0-81d5-2fe7a6beed2d","ios":"levelo://app?vid=fecfa792-a07c-4ec0-81d5-2fe7a6beed2d"},"vehicle_type_id":"4","last_reported":1726996117,"current_range_meters":40000,"station_id":"ce4bhk92rcd13ifvqgb0","pricing_plan_id":"cebpf4jnsgd1na2vs0mg"},{"bike_id":"b2763354-ec6c-4733-8de6-6c4493759ae9","system_id":"levelo_inurba_marseille","lat":43.29037,"lon":5.40139,"is_reserved":false,"is_disabled":false,"rental_uris":{"android":"levelo://app?vid=b2763354-ec6c-4733-8de6-6c4493759ae9","ios":"levelo://app?vid=b2763354-ec6c-4733-8de6-6c4493759ae9"},"vehicle_type_id":"4","last_reported":1726996117,"current_range_meters":9200,"station_id":"","pricing_plan_id":"cebpf4jnsgd1na2vs0mg"},{"bike_id":"2a02db94-e9e5-4250-bb8b-fd12e5afc898","system_id":"levelo_inurba_marseille","lat":43.26563,"lon":5.39011,"is_reserved":false,"is_disabled":false,"rental_uris":{"android":"levelo://app?vid=2a02db94-e9e5-4250-bb8b-fd12e5afc898","ios":"levelo://app?vid=2a02db94-e9e5-4250-bb8b-fd12e5afc898"},"vehicle_type_id":"4","last_reported":1726996117,"current_range_meters":22000,"station_id":"ce4bhe12rcd13ifvqf30","pricing_plan_id":"cebpf4jnsgd1na2vs0mg"},{"bike_id":"367424b8-5def-4ef4-b57a-5a4e7275573c","system_id":"levelo_inurba_marseille","lat":43.29525,"lon":5.37508,"is_reserved":false,"is_disabled":false,"rental_uris":{"android":"levelo://app?vid=367424b8-5def-4ef4-b57a-5a4e7275573c","ios":"levelo://app?vid=367424b8-5def-4ef4-b57a-5a4e7275573c"},"vehicle_type_id":"4","last_reported":1726996117,"current_range_meters":36400,"station_id":"ce4bgkp2rcd13ifvqbmg","pricing_plan_id":"cebpf4jnsgd1na2vs0mg"},{"bike_id":"dad7cbfb-c131-4505-8ca6-522e0464f841","system_id":"levelo_inurba_marseille","lat":43.292999,"lon":5.371649,"is_reserved":false,"is_disabled":false,"rental_uris":{"android":"levelo://app?vid=dad7cbfb-c131-4505-8ca6-522e0464f841","ios":"levelo://app?vid=dad7cbfb-c131-4505-8ca6-522e0464f841"},"vehicle_type_id":"4","last_reported":1726996117,"current_range_meters":10000,"station_id":"ce4bhjp2rcd13ifvqg90","pricing_plan_id":"cebpf4jnsgd1na2vs0mg"},{"bike_id":"70ca700e-4c35-4c7d-85a4-2cc17571cb4f","system_id":"levelo_inurba_marseille","lat":43.25107,"lon":5.40327,"is_reserved":false,"is_disabled":false,"rental_uris":{"android":"levelo://app?vid=70ca700e-4c35-4c7d-85a4-2cc17571cb4f","ios":"levelo://app?vid=70ca700e-4c35-4c7d-85a4-2cc17571cb4f"},"vehicle_type_id":"4","last_reported":1726996117,"current_range_meters":39200,"station_id":"ce4bhlh2rcd13ifvqgig","pricing_plan_id":"cebpf4jnsgd1na2vs0mg"},{"bike_id":"b5312d09-7495-4a11-9270-8b8509805415","system_id":"levelo_inurba_marseille","lat":43.26543,"lon":5.37281,"is_reserved":false,"is_disabled":false,"rental_uris":{"android":"levelo://app?vid=b5312d09-7495-4a11-9270-8b8509805415","ios":"levelo://app?vid=b5312d09-7495-4a11-9270-8b8509805415"},"vehicle_type_id":"4","last_reported":1726996117,"current_range_meters":38000,"station_id":"ce4bhg12rcd13ifvqf70","pricing_plan_id":"cebpf4jnsgd1na2vs0mg"},{"bike_id":"46fbb630-09e8-4170-9be5-4fdb9fc3d75f","system_id":"levelo_inurba_marseille","lat":43.32483,"lon":5.36557,"is_reserved":false,"is_disabled":false,"rental_uris":{"android":"levelo://app?vid=46fbb630-09e8-4170-9be5-4fdb9fc3d75f","ios":"levelo://app?vid=46fbb630-09e8-4170-9be5-4fdb9fc3d75f"},"vehicle_type_id":"4","last_reported":1726996117,"current_range_meters":37600,"station_id":"ce4bhs12rcd13ifvqhvg","pricing_plan_id":"cebpf4jnsgd1na2vs0mg"},{"bike_id":"6e866676-6958-47a0-bba1-aad239c4e52e","system_id":"levelo_inurba_marseille","lat":43.30358,"lon":5.41888,"is_reserved":false,"is_disabled":false,"rental_uris":{"android":"levelo://app?vid=6e866676-6958-47a0-bba1-aad239c4e52e","ios":"levelo://app?vid=6e866676-6958-47a0-bba1-aad239c4e52e"},"vehicle_type_id":"4","last_reported":1726996117,"current_range_meters":22400,"station_id":"ce4bhop2rcd13ifvqh7g","pricing_plan_id":"cebpf4jnsgd1na2vs0mg"},{"bike_id":"d28ffa41-9d7e-41f1-8b70-1aa04f034503","system_id":"levelo_inurba_marseille","lat":43.29553,"lon":5.42283,"is_reserved":false,"is_disabled":false,"rental_uris":{"android":"levelo://app?vid=d28ffa41-9d7e-41f1-8b70-1aa04f034503","ios":"levelo://app?vid=d28ffa41-9d7e-41f1-8b70-1aa04f034503"},"vehicle_type_id":"4","last_reported":1726996117,"current_range_meters":5600,"station_id":"ce4bhph2rcd13ifvqhdg","pricing_plan_id":"cebpf4jnsgd1na2vs0mg"},{"bike_id":"397349b3-2c2d-44e5-a149-6f78c0100682","system_id":"levelo_inurba_marseille","lat":43.23192,"lon":5.35552,"is_reserved":false,"is_disabled":false,"rental_uris":{"android":"levelo://app?vid=397349b3-2c2d-44e5-a149-6f78c0100682","ios":"levelo://app?vid=397349b3-2c2d-44e5-a149-6f78c0100682"},"vehicle_type_id":"4","last_reported":1726996117,"current_range_meters":16400,"station_id":"ce4bhu92rcd13ifvqi70","pricing_plan_id":"cebpf4jnsgd1na2vs0mg"},{"bike_id":"f1c65647-c1b0-4c23-bf04-752b6fa29535","system_id":"levelo_inurba_marseille","lat":43.31703,"lon":5.3775,"is_reserved":false,"is_disabled":false,"rental_uris":{"android":"levelo://app?vid=f1c65647-c1b0-4c23-bf04-752b6fa29535","ios":"levelo://app?vid=f1c65647-c1b0-4c23-bf04-752b6fa29535"},"vehicle_type_id":"4","last_reported":1726996117,"current_range_meters":39200,"station_id":"ce4bgth2rcd13ifvqch0","pricing_plan_id":"cebpf4jnsgd1na2vs0mg"},{"bike_id":"36cfbc47-4893-4a6e-a6b4-4738f7bde651","system_id":"levelo_inurba_marseille","lat":43.3136,"lon":5.36696,"is_reserved":false,"is_disabled":false,"rental_uris":{"android":"levelo://app?vid=36cfbc47-4893-4a6e-a6b4-4738f7bde651","ios":"levelo://app?vid=36cfbc47-4893-4a6e-a6b4-4738f7bde651"},"vehicle_type_id":"4","last_reported":1726996117,"current_range_meters":38400,"station_id":"ce4bgr92rcd13ifvqc6g","pricing_plan_id":"cebpf4jnsgd1na2vs0mg"},{"bike_id":"b5a02421-481c-4ac4-9dcb-8f5316226da4","system_id":"levelo_inurba_marseille","lat":43.28611,"lon":5.35104,"is_reserved":false,"is_disabled":false,"rental_uris":{"android":"levelo://app?vid=b5a02421-481c-4ac4-9dcb-8f5316226da4","ios":"levelo://app?vid=b5a02421-481c-4ac4-9dcb-8f5316226da4"},"vehicle_type_id":"4","last_reported":1726996117,"current_range_meters":17200,"station_id":"ce4bhch2rcd13ifvqeug","pricing_plan_id":"cebpf4jnsgd1na2vs0mg"},{"bike_id":"9f125b04-9b15-4419-bd68-031fb7013f27","system_id":"levelo_inurba_marseille","lat":43.32369,"lon":5.38884,"is_reserved":false,"is_disabled":false,"rental_uris":{"android":"levelo://app?vid=9f125b04-9b15-4419-bd68-031fb7013f27","ios":"levelo://app?vid=9f125b04-9b15-4419-bd68-031fb7013f27"},"vehicle_type_id":"4","last_reported":1726996117,"current_range_meters":18800,"station_id":"ce4bhqp2rcd13ifvqhog","pricing_plan_id":"cebpf4jnsgd1na2vs0mg"},{"bike_id":"00d1edf3-c271-4814-a166-7347f8336173","system_id":"levelo_inurba_marseille","lat":43.27208,"lon":5.39176,"is_reserved":false,"is_disabled":false,"rental_uris":{"android":"levelo://app?vid=00d1edf3-c271-4814-a166-7347f8336173","ios":"levelo://app?vid=00d1edf3-c271-4814-a166-7347f8336173"},"vehicle_type_id":"4","last_reported":1726996117,"current_range_meters":39200,"station_id":"ce4bhhp2rcd13ifvqfm0","pricing_plan_id":"cebpf4jnsgd1na2vs0mg"},