{"last_updated":1724439982,"ttl":30,"version":"2.2","data":{"bikes":[{"bike_id":"92a68e69-a8b8-4f23-8b2b-9abd769311ba","system_id":"levelo_inurba_marseille","lat":43.31216,"lon":5.36853,"is_reserved":false,"is_disabled":false,"rental_uris":{"android":"levelo://app?vid=92a68e69-a8b8-4f23-8b2b-9abd769311ba","ios":"levelo://app?vid=92a68e69-a8b8-4f23-8b2b-9abd769311ba"},"vehicle_type_id":"4","last_reported":1724439983,"current_range_meters":4400,"station_id":"ce4bgl92rcd13ifvqbq0","pricing_plan_id":"cebpf4jnsgd1na2vs0mg"},{"bike_id":"14124352-4c6b-499d-af00-82585129fca4","system_id":"levelo_inurba_marseille","lat":43.312239,"lon":5.368562,"is_reserved":false,"is_disabled":false,"rental_uris":{"android":"levelo://app?vid=14124352-4c6b-499d-af00-82585129fca4","ios":"levelo://app?vid=14124352-4c6b-499d-af00-82585129fca4"},"vehicle_type_id":"4","last_reported":1724439983,"current_range_meters":6400,"station_id":"ce4bgl92rcd13ifvqbq0","pricing_plan_id":"cebpf4jnsgd1na2vs0mg"},{"bike_id":"3818618b-d297-49f1-bd52-afee350e6f53","system_id":"levelo_inurba_marseille","lat":43.311931,"lon":5.368837,"is_reserved":false,"is_disabled":false,"rental_uris":{"android":"levelo://app?vid=3818618b-d297-49f1-bd52-afee350e6f53","ios":"levelo://app?vid=3818618b-d297-49f1-bd52-afee350e6f53"},"vehicle_type_id":"4","last_reported":1724439983,"current_range_meters":25600,"station_id":"ce4bgl92rcd13ifvqbq0","pricing_plan_id":"cebpf4jnsgd1na2vs0mg"},{"bike_id":"deb8318d-5a23-48d1-853d-8485e8c8e19e","system_id":"levelo_inurba_marseille","lat":43.309076,"lon":5.368465,"is_reserved":false,"is_disabled":false,"rental_uris":{"android":"levelo://app?vid=deb8318d-5a23-48d1-853d-8485e8c8e19e","ios":"levelo://app?vid=deb8318d-5a23-48d1-853d-8485e8c8e19e"},"vehicle_type_id":"4","last_reported":1724439983,"current_range_meters":4800,"station_id":"ce4bgn92rcd13ifvqbvg","pricing_plan_id":"cebpf4jnsgd1na2vs0mg"},{"bike_id":"8943d24e-99cf-4b1f-acde-6fa9c475b923","system_id":"levelo_inurba_marseille","lat":43.309076,"lon":5.368465,"is_reserved":false,"is_disabled":false,"rental_uris":{"android":"levelo://app?vid=8943d24e-99cf-4b1f-acde-6fa9c475b923","ios":"levelo://app?vid=8943d24e-99cf-4b1f-acde-6fa9c475b923"},"vehicle_type_id":"4","last_reported":1724439983,"current_range_meters":6000,"station_id":"ce4bgn92rcd13ifvqbvg","pricing_plan_id":"cebpf4jnsgd1na2vs0mg"},{"bike_id":"bb66170f-1b69-4d11-9612-e08d26e9cddf","system_id":"levelo_inurba_marseille","lat":43.309076,"lon":5.368465,"is_reserved":false,"is_disabled":false,"rental_uris":{"android":"levelo://app?vid=bb66170f-1b69-4d11-9612-e08d26e9cddf","ios":"levelo://app?vid=bb66170f-1b69-4d11-9612-e08d26e9cddf"},"vehicle_type_id":"4","last_reported":1724439983,"current_range_meters":9200,"station_id":"ce4bgn92rcd13ifvqbvg","pricing_plan_id":"cebpf4jnsgd1na2vs0mg"},{"bike_id":"d9a9e9a2-9729-4ea6-a1fa-20f0fb637be5","system_id":"levelo_inurba_marseille","lat":43.314811,"lon":5.373103,"is_reserved":false,"is_disabled":false,"rental_uris":{"android":"levelo://app?vid=d9a9e9a2-9729-4ea6-a1fa-20f0fb637be5","ios":"levelo://app?vid=d9a9e9a2-9729-4ea6-a1fa-20f0fb637be5"},"vehicle_type_id":"4","last_reported":1724439983,"current_range_meters":6000,"station_id":"ce4bgt12rcd13ifvqcd0","pricing_plan_id":"cebpf4jnsgd1na2vs0mg"},{"bike_id":"8d6055b1-8991-4241-b3e2-93e1b0434306","system_id":"levelo_inurba_marseille","lat":43.309039,"lon":5.371797,"is_reserved":false,"is_disabled":false,"rental_uris":{"android":"levelo://app?vid=8d6055b1-8991-4241-b3e2-93e1b0434306","ios":"levelo://app?vid=8d6055b1-8991-4241-b3e2-93e1b0434306"},"vehicle_type_id":"4","last_reported":1724439983,"current_range_meters":13200,"station_id":"ce4bguh2rcd13ifvqckg","pricing_plan_id":"cebpf4jnsgd1na2vs0mg"},{"bike_id":"776932d5-6a98-4e90-b7fc-4a849eda29a8","system_id":"levelo_inurba_marseille","lat":43.309034,"lon":5.371783,"is_reserved":false,"is_disabled":false,"rental_uris":{"android":"levelo://app?vid=776932d5-6a98-4e90-b7fc-4a849eda29a8","ios":"levelo://app?vid=776932d5-6a98-4e90-b7fc-4a849eda29a8"},"vehicle_type_id":"4","last_reported":1724439983,"current_range_meters":0,"station_id":"ce4bguh2rcd13ifvqckg","pricing_plan_id":"cebpf4jnsgd1na2vs0mg"},{"bike_id":"fd5ba63a-3b24-4aa3-adf8-7662c8939710","system_id":"levelo_inurba_marseille","lat":43.305368,"lon":5.367343,"is_reserved":false,"is_disabled":false,"rental_uris":{"android":"levelo://app?vid=fd5ba63a-3b24-4aa3-adf8-7662c8939710","ios":"levelo://app?vid=fd5ba63a-3b24-4aa3-adf8-7662c8939710"},"vehicle_type_id":"4","last_reported":1724439983,"current_range_meters":12000,"station_id":"ce4bgrp2rcd13ifvqc9g","pricing_plan_id":"cebpf4jnsgd1na2vs0mg"},{"bike_id":"a50e4c21-da2a-4b80-9615-ea69cc29d800","system_id":"levelo_inurba_marseille","lat":43.305368,"lon":5.367343,"is_reserved":false,"is_disabled":false,"rental_uris":{"android":"levelo://app?vid=a50e4c21-da2a-4b80-9615-ea69cc29d800","ios":"levelo://app?vid=a50e4c21-da2a-4b80-9615-ea69cc29d800"},"vehicle_type_id":"4","last_reported":1724439983,"current_range_meters":4000,"station_id":"ce4bgrp2rcd13ifvqc9g","pricing_plan_id":"cebpf4jnsgd1na2vs0mg"},{"bike_id":"a19fa80e-54b3-4f9f-abf8-a1c86b06a877","system_id":"levelo_inurba_marseille","lat":43.305706,"lon":5.365654,"is_reserved":false,"is_disabled":false,"rental_uris":{"android":"levelo://app?vid=a19fa80e-54b3-4f9f-abf8-a1c86b06a877","ios":"levelo://app?vid=a19fa80e-54b3-4f9f-abf8-a1c86b06a877"},"vehicle_type_id":"4","last_reported":1724439983,"current_range_meters":1200,"station_id":"ce4bgs12rcd13ifvqcag","pricing_plan_id":"cebpf4jnsgd1na2vs0mg"},{"bike_id":"6f4e2251-0c54-4128-9597-d5b0bc1cce57","system_id":"levelo_inurba_marseille","lat":43.305989,"lon":5.37225,"is_reserved":false,"is_disabled":false,"rental_uris":{"android":"levelo://app?vid=6f4e2251-0c54-4128-9597-d5b0bc1cce57","ios":"levelo://app?vid=6f4e2251-0c54-4128-9597-d5b0bc1cce57"},"vehicle_type_id":"4","last_reported":1724439983,"current_range_meters":30800,"station_id":"ce4bgqh2rcd13ifvqc4g","pricing_plan_id":"cebpf4jnsgd1na2vs0mg"},{"bike_id":"f9b4d95b-74fe-42af-a349-e39c07ae4baf","system_id":"levelo_inurba_marseille","lat":43.305706,"lon":5.365654,"is_reserved":false,"is_disabled":false,"rental_uris":{"android":"levelo://app?vid=f9b4d95b-74fe-42af-a349-e39c07ae4baf","ios":"levelo://app?vid=f9b4d95b-74fe-42af-a349-e39c07ae4baf"},"vehicle_type_id":"4","last_reported":1724439983,"current_range_meters":800,"station_id":"ce4bgs12rcd13ifvqcag","pricing_plan_id":"cebpf4jnsgd1na2vs0mg"},{"bike_id":"779f16f3-6000-42ee-b9c4-c1f61d88bd0a","system_id":"levelo_inurba_marseille","lat":43.305989,"lon":5.37225,"is_reserved":false,"is_disabled":false,"rental_uris":{"android":"levelo://app?vid=779f16f3-6000-42ee-b9c4-c1f61d88bd0a","ios":"levelo://app?vid=779f16f3-6000-42ee-b9c4-c1f61d88bd0a"},"vehicle_type_id":"4","last_reported":1724439983,"current_range_meters":29600,"station_id":"ce4bgqh2rcd13ifvqc4g","pricing_plan_id":"cebpf4jnsgd1na2vs0mg"},{"bike_id":"38a520ce-4dbe-4301-ae88-b6b76ce73196","system_id":"levelo_inurba_marseille","lat":43.305989,"lon":5.37225,"is_reserved":false,"is_disabled":false,"rental_uris":{"android":"levelo://app?vid=38a520ce-4dbe-4301-ae88-b6b76ce73196","ios":"levelo://app?vid=38a520ce-4dbe-4301-ae88-b6b76ce73196"},"vehicle_type_id":"4","last_reported":1724439983,"current_range_meters":28400,"station_id":"ce4bgqh2rcd13ifvqc4g","pricing_plan_id":"cebpf4jnsgd1na2vs0mg"},{"bike_id":"274a511d-260a-4b9f-84b4-ef558487c709","system_id":"levelo_inurba_marseille","lat":43.305989,"lon":5.37225,"is_reserved":false,"is_disabled":false,"rental_uris":{"android":"levelo://app?vid=274a511d-260a-4b9f-84b4-ef558487c709","ios":"levelo://app?vid=274a511d-260a-4b9f-84b4-ef558487c709"},"vehicle_type_id":"4","last_reported":1724439983,"current_range_meters":28400,"station_id":"ce4bgqh2rcd13ifvqc4g","pricing_plan_id":"cebpf4jnsgd1na2vs0mg"},{"bike_id":"cba81788-42ff-4d80-9212-45ce981abdac","system_id":"levelo_inurba_marseille","lat":43.305989,"lon":5.37225,"is_reserved":false,"is_disabled":false,"rental_uris":{"android":"levelo://app?vid=cba81788-42ff-4d80-9212-45ce981abdac","ios":"levelo://app?vid=cba81788-42ff-4d80-9212-45ce981abdac"},"vehicle_type_id":"4","last_reported":1724439983,"current_range_meters":30400,"station_id":"ce4bgqh2rcd13ifvqc4g","pricing_plan_id":"cebpf4jnsgd1na2vs0mg"},{"bike_id":"101bf959-f435-4856-b279-74cd6eec0fca","system_id":"levelo_inurba_marseille","lat":43.305989,"lon":5.37225,"is_reserved":false,"is_disabled":false,"rental_uris":{"android":"levelo://app?vid=101bf959-f435-4856-b279-74cd6eec0fca","ios":"levelo://app?vid=101bf959-f435-4856-b279-74cd6eec0fca"},"vehicle_type_id":"4","last_reported":1724439983,"current_range_meters":27600,"station_id":"ce4bgqh2rcd13ifvqc4g","pricing_plan_id":"cebpf4jnsgd1na2vs0mg"},{"bike_id":"16c4fef6-9245-47b4-bdb3-6c2eb809ab42","system_id":"levelo_inurba_marseille","lat":43.31117,"lon":5.37766,"is_reserved":false,"is_disabled":false,"rental_uris":{"android":"levelo://app?vid=16c4fef6-9245-47b4-bdb3-6c2eb809ab42","ios":"levelo://app?vid=16c4fef6-9245-47b4-bdb3-6c2eb809ab42"},"vehicle_type_id":"4","last_reported":1724439983,"current_range_meters":31200,"station_id":"ce4bgt92rcd13ifvqcg0","pricing_plan_id":"cebpf4jnsgd1na2vs0mg"},{"bike_id":"b637677e-6ca4-4436-bb0c-014a5e7e7dfa","system_id":"levelo_inurba_marseille","lat":43.311125,"lon":5.377624,"is_reserved":false,"is_disabled":false,"rental_uris":{"android":"levelo://app?vid=b637677e-6ca4-4436-bb0c-014a5e7e7dfa","ios":"levelo://app?vid=b637677e-6ca4-4436-bb0c-014a5e7e7dfa"},"vehicle_type_id":"4","last_reported":1724439983,"current_range_meters":21600,"station_id":"ce4bgt92rcd13ifvqcg0","pricing_plan_id":"cebpf4jnsgd1na2vs0mg"},{"bike_id":"896a908e-1c7a-4f9b-988d-870030d2413b","system_id":"levelo_inurba_marseille","lat":43.31119,"lon":5.37769,"is_reserved":false,"is_disabled":false,"rental_uris":{"android":"levelo://app?vid=896a908e-1c7a-4f9b-988d-870030d2413b","ios":"levelo://app?vid=896a908e-1c7a-4f9b-988d-870030d2413b"},"vehicle_type_id":"4","last_reported":1724439983,"current_range_meters":10000,"station_id":"ce4bgt92rcd13ifvqcg0","pricing_plan_id":"cebpf4jnsgd1na2vs0mg"},{"bike_id":"f780840f-9914-4a83-b852-ee38eb027113","system_id":"levelo_inurba_marseille","lat":43.31115,"lon":5.3777,"is_reserved":false,"is_disabled":false,"rental_uris":{"android":"levelo://app?vid=f780840f-9914-4a83-b852-ee38eb027113","ios":"levelo://app?vid=f780840f-9914-4a83-b852-ee38eb027113"},"vehicle_type_id":"4","last_reported":1724439983,"current_range_meters":7200,"station_id":"ce4bgt92rcd13ifvqcg0","pricing_plan_id":"cebpf4jnsgd1na2vs0mg"},{"bike_id":"9442db05-be15-4c46-8d17-9eca484f8f07","system_id":"levelo_inurba_marseille","lat":43.31115,"lon":5.37777,"is_reserved":false,"is_disabled":false,"rental_uris":{"android":"levelo://app?vid=9442db05-be15-4c46-8d17-9eca484f8f07","ios":"levelo://app?vid=9442db05-be15-4c46-8d17-9eca484f8f07"},"vehicle_type_id":"4","last_reported":1724439983,"current_range_meters":2400,"station_id":"ce4bgt92rcd13ifvqcg0","pricing_plan_id":"cebpf4jnsgd1na2vs0mg"},{"bike_id":"f0bb1876-c24d-4645-adfc-c21c951381c4","system_id":"levelo_inurba_marseille","lat":43.307945,"lon":5.376487,"is_reserved":false,"is_disabled":false,"rental_uris":{"android":"levelo://app?vid=f0bb1876-c24d-4645-adfc-c21c951381c4","ios":"levelo://app?vid=f0bb1876-c24d-4645-adfc-c21c951381c4"},"vehicle_type_id":"4","last_reported":1724439983,"current_range_meters":23200,"station_id":"ce4bgv92rcd13ifvqcq0","pricing_plan_id":"cebpf4jnsgd1na2vs0mg"},{"bike_id":"3222328f-7806-4607-83cf-88f4d1b5c77b","system_id":"levelo_inurba_marseille","lat":43.307945,"lon":5.376487,"is_reserved":false,"is_disabled":false,"rental_uris":{"android":"levelo://app?vid=3222328f-7806-4607-83cf-88f4d1b5c77b","ios":"levelo://app?vid=3222328f-7806-4607-83cf-88f4d1b5c77b"},"vehicle_type_id":"4","last_reported":1724439983,"current_range_meters":6800,"station_id":"ce4bgv92rcd13ifvqcq0","pricing_plan_id":"cebpf4jnsgd1na2vs0mg"},{"bike_id":"44128f3c-6a1b-42f6-979d-f97f407f6553","system_id":"levelo_inurba_marseille","lat":43.307945,"lon":5.376487,"is_reserved":false,"is_disabled":false,"rental_uris":{"android":"levelo://app?vid=44128f3c-6a1b-42f6-979d-f97f407f6553","ios":"levelo://app?vid=44128f3c-6a1b-42f6-979d-f97f407f6553"},"vehicle_type_id":"4","last_reported":1724439983,"current_range_meters":27200,"station_id":"ce4bgv92rcd13ifvqcq0","pricing_plan_id":"cebpf4jnsgd1na2vs0mg"},{"bike_id":"f6ed83bd-81b1-4ed5-9b2e-985eace47a0d","system_id":"levelo_inurba_marseille","lat":43.30787,"lon":5.37658,"is_reserved":false,"is_disabled":false,"rental_uris":{"android":"levelo://app?vid=f6ed83bd-81b1-4ed5-9b2e-985eace47a0d","ios":"levelo://app?vid=f6ed83bd-81b1-4ed5-9b2e-985eace47a0d"},"vehicle_type_id":"4","last_reported":1724439983,"current_range_meters":0,"station_id":"ce4bgv92rcd13ifvqcq0","pricing_plan_id":"cebpf4jnsgd1na2vs0mg"},{"bike_id":"91535e66-5de8-464d-bf74-ec55e8328082","system_id":"levelo_inurba_marseille","lat":43.307945,"lon":5.376487,"is_reserved":false,"is_disabled":false,"rental_uris":{"android":"levelo://app?vid=91535e66-5de8-464d-bf74-ec55e8328082","ios":"levelo://app?vid=91535e66-5de8-464d-bf74-ec55e8328082"},"vehicle_type_id":"4","last_reported":1724439983,"current_range_meters":0,"station_id":"ce4bgv92rcd13ifvqcq0","pricing_plan_id":"cebpf4jnsgd1na2vs0mg"},{"bike_id":"28665aed-67b4-4b42-bde7-ee60c0881ad8","system_id":"levelo_inurba_marseille","lat":43.307945,"lon":5.376487,"is_reserved":false,"is_disabled":false,"rental_uris":{"android":"levelo://app?vid=28665aed-67b4-4b42-bde7-ee60c0881ad8","ios":"levelo://app?vid=28665aed-67b4-4b42-bde7-ee60c0881ad8"},"vehicle_type_id":"4","last_reported":1724439983,"current_range_meters":3600,"station_id":"ce4bgv92rcd13ifvqcq0","pricing_plan_id":"cebpf4jnsgd1na2vs0mg"},{"bike_id":"7ade75f8-e980-4567-91f9-161bcfaeb970","system_id":"levelo_inurba_marseille","lat":43.317075,"lon":5.377367,"is_reserved":false,"is_disabled":false,"rental_uris":{"android":"levelo://app?vid=7ade75f8-e980-4567-91f9-161bcfaeb970","ios":"levelo://app?vid=7ade75f8-e980-4567-91f9-161bcfaeb970"},"vehicle_type_id":"4","last_reported":1724439983,"current_range_meters":1200,"station_id":"ce4bgth2rcd13ifvqch0","pricing_plan_id":"cebpf4jnsgd1na2vs0mg"},{"bike_id":"41a33ef0-acae-44d2-8f9b-d9bd3eef89a4","system_id":"levelo_inurba_marseille","lat":43.317075,"lon":5.377367,"is_reserved":false,"is_disabled":false,"rental_uris":{"android":"levelo://app?vid=41a33ef0-acae-44d2-8f9b-d9bd3eef89a4","ios":"levelo://app?vid=41a33ef0-acae-44d2-8f9b-d9bd3eef89a4"},"vehicle_type_id":"4","last_reported":1724439983,"current_range_meters":23200,"station_id":"ce4bgth2rcd13ifvqch0","pricing_plan_id":"cebpf4jnsgd1na2vs0mg"},{"bike_id":"1279d627-fb07-4b5c-b6e2-1e1d529635d4","system_id":"levelo_inurba_marseille","lat":43.31147,"lon":5.37998,"is_reserved":false,"is_disabled":false,"rental_uris":{"android":"levelo://app?vid=1279d627-fb07-4b5c-b6e2-1e1d529635d4","ios":"levelo://app?vid=1279d627-fb07-4b5c-b6e2-1e1d529635d4"},"vehicle_type_id":"4","last_reported":1724439983,"current_range_meters":23600,"station_id":"","pricing_plan_id":"cebpf4jnsgd1na2vs0mg"},{"bike_id":"e1b3a746-c45d-4346-accb-889598c9fbae","system_id":"levelo_inurba_marseille","lat":43.31246,"lon":5.38045,"is_reserved":false,"is_disabled":false,"rental_uris":{"android":"levelo://app?vid=e1b3a746-c45d-4346-accb-889598c9fbae","ios":"levelo://app?vid=e1b3a746-c45d-4346-accb-889598c9fbae"},"vehicle_type_id":"4","last_reported":1724439983,"current_range_meters":31200,"station_id":"","pricing_plan_id":"cebpf4jnsgd1na2vs0mg"},{"bike_id":"9d9e6305-68a7-4e51-b125-597288649693","system_id":"levelo_inurba_marseille","lat":43.315293,"lon":5.380349,"is_reserved":false,"is_disabled":false,"rental_uris":{"android":"levelo://app?vid=9d9e6305-68a7-4e51-b125-597288649693","ios":"levelo://app?vid=9d9e6305-68a7-4e51-b125-597288649693"},"vehicle_type_id":"4","last_reported":1724439983,"current_range_meters":3600,"station_id":"ce4bhsp2rcd13ifvqi50","pricing_plan_id":"cebpf4jnsgd1na2vs0mg"},{"bike_id":"13df90d9-4cc2-4745-ba84-bc28991a5676","system_id":"levelo_inurba_marseille","lat":43.307993,"lon":5.38156,"is_reserved":false,"is_disabled":false,"rental_uris":{"android":"levelo://app?vid=13df90d9-4cc2-4745-ba84-bc28991a5676","ios":"levelo://app?vid=13df90d9-4cc2-4745-ba84-bc28991a5676"},"vehicle_type_id":"4","last_reported":1724439983,"current_range_meters":0,"station_id":"ce4bgt12rcd13ifvqce0","pricing_plan_id":"cebpf4jnsgd1na2vs0mg"},{"bike_id":"47b1e190-d6f4-4248-aa89-e274344f85f6","system_id":"levelo_inurba_marseille","lat":43.312867,"lon":5.38304,"is_reserved":false,"is_disabled":false,"rental_uris":{"android":"levelo://app?vid=47b1e190-d6f4-4248-aa89-e274344f85f6","ios":"levelo://app?vid=47b1e190-d6f4-4248-aa89-e274344f85f6"},"vehicle_type_id":"4","last_reported":1724439983,"current_range_meters":31200,"station_id":"","pricing_plan_id":"cebpf4jnsgd1na2vs0mg"},{"bike_id":"fcd01b57-022a-4018-82ec-3f0162542782","system_id":"levelo_inurba_marseille","lat":43.324771,"lon":5.36557,"is_reserved":false,"is_disabled":false,"rental_uris":{"android":"levelo://app?vid=fcd01b57-022a-4018-82ec-3f0162542782","ios":"levelo://app?vid=fcd01b57-022a-4018-82ec-3f0162542782"},"vehicle_type_id":"4","last_reported":1724439983,"current_range_meters":20800,"station_id":"ce4bhs12rcd13ifvqhvg","pricing_plan_id":"cebpf4jnsgd1na2vs0mg"},{"bike_id":"dcfe42d0-c721-43b8-ae79-c82b337e38ab","system_id":"levelo_inurba_marseille","lat":43.324771,"lon":5.36557,"is_reserved":false,"is_disabled":false,"rental_uris":{"android":"levelo://app?vid=dcfe42d0-c721-43b8-ae79-c82b337e38ab","ios":"levelo://app?vid=dcfe42d0-c721-43b8-ae79-c82b337e38ab"},"vehicle_type_id":"4","last_reported":1724439983,"current_range_meters":14800,"station_id":"ce4bhs12rcd13ifvqhvg","pricing_plan_id":"cebpf4jnsgd1na2vs0mg"},{"bike_id":"15d85554-a5ee-402f-8caa-1d22ace27eda","system_id":"levelo_inurba_marseille","lat":43.324771,"lon":5.36557,"is_reserved":false,"is_disabled":false,"rental_uris":{"android":"levelo://app?vid=15d85554-a5ee-402f-8caa-1d22ace27eda","ios":"levelo://app?vid=15d85554-a5ee-402f-8caa-1d22ace27eda"},"vehicle_type_id":"4","last_reported":1724439983,"current_range_meters":10400,"station_id":"ce4bhs12rcd13ifvqhvg","pricing_plan_id":"cebpf4jnsgd1na2vs0mg"},{"bike_id":"1324a6e5-ac3e-4494-b969-e878d4ed2fcc","system_id":"levelo_inurba_marseille","lat":43.324771,"lon":5.36557,"is_reserved":false,"is_disabled":false,"rental_uris":{"android":"levelo://app?vid=1324a6e5-ac3e-4494-b969-e878d4ed2fcc","ios":"levelo://app?vid=1324a6e5-ac3e-4494-b969-e878d4ed2fcc"},"vehicle_type_id":"4","last_reported":1724439983,"current_range_meters":31600,"station_id":"ce4bhs12rcd13ifvqhvg","pricing_plan_id":"cebpf4jnsgd1na2vs0mg"},{"bike_id":"54793732-265c-422c-9ba9-5a0875457503","system_id":"levelo_inurba_marseille","lat":43.324771,"lon":5.36557,"is_reserved":false,"is_disabled":false,"rental_uris":{"android":"levelo://app?vid=54793732-265c-422c-9ba9-5a0875457503","ios":"levelo://app?vid=54793732-265c-422c-9ba9-5a0875457503"},"vehicle_type_id":"4","last_reported":1724439983,"current_range_meters":29200,"station_id":"ce4bhs12rcd13ifvqhvg","pricing_plan_id":"cebpf4jnsgd1na2vs0mg"},{"bike_id":"7fcd07c3-b936-4ec9-9ed3-f193fcad5baf","system_id":"levelo_inurba_marseille","lat":43.324771,"lon":5.36557,"is_reserved":false,"is_disabled":false,"rental_uris":{"android":"levelo://app?vid=7fcd07c3-b936-4ec9-9ed3-f193fcad5baf","ios":"levelo://app?vid=7fcd07c3-b936-4ec9-9ed3-f193fcad5baf"},"vehicle_type_id":"4","last_reported":1724439983,"current_range_meters":18400,"station_id":"ce4bhs12rcd13ifvqhvg","pricing_plan_id":"cebpf4jnsgd1na2vs0mg"},{"bike_id":"b01e26a1-e63e-4e3e-827f-826343dd352b","system_id":"levelo_inurba_marseille","lat":43.324771,"lon":5.36557,"is_reserved":false,"is_disabled":false,"rental_uris":{"android":"levelo://app?vid=b01e26a1-e63e-4e3e-827f-826343dd352b","ios":"levelo://app?vid=b01e26a1-e63e-4e3e-827f-826343dd352b"},"vehicle_type_id":"4","last_reported":1724439983,"current_range_meters":10800,"station_id":"ce4bhs12rcd13ifvqhvg","pricing_plan_id":"cebpf4jnsgd1na2vs0mg"},{"bike_id":"a1ac0451-3398-4947-9ccd-6a7080d125c4","system_id":"levelo_inurba_marseille","lat":43.324771,"lon":5.36557,"is_reserved":false,"is_disabled":false,"rental_uris":{"android":"levelo://app?vid=a1ac0451-3398-4947-9ccd-6a7080d125c4","ios":"levelo://app?vid=a1ac0451-3398-4947-9ccd-6a7080d125c4"},"vehicle_type_id":"4","last_reported":1724439983,"current_range_meters":20800,"station_id":"ce4bhs12rcd13ifvqhvg","pricing_plan_id":"cebpf4jnsgd1na2vs0mg"},{"bike_id":"248604cf-f7b1-4135-b528-764a31d63a5e","system_id":"levelo_inurba_marseille","lat":43.32484,"lon":5.3656,"is_reserved":false,"is_disabled":false,"rental_uris":{"android":"levelo://app?vid=248604cf-f7b1-4135-b528-764a31d63a5e","ios":"levelo://app?vid=248604cf-f7b1-4135-b528-764a31d63a5e"},"vehicle_type_id":"4","last_reported":1724439983,"current_range_meters":0,"station_id":"ce4bhs12rcd13ifvqhvg","pricing_plan_id":"cebpf4jnsgd1na2vs0mg"},{"bike_id":"fa4728c9-467b-4bdc-88d2-f56075148a06","system_id":"levelo_inurba_marseille","lat":43.324771,"lon":5.36557,"is_reserved":false,"is_disabled":false,"rental_uris":{"android":"levelo://app?vid=fa4728c9-467b-4bdc-88d2-f56075148a06","ios":"levelo://app?vid=fa4728c9-467b-4bdc-88d2-f56075148a06"},"vehicle_type_id":"4","last_reported":1724439983,"current_range_meters":16800,"station_id":"ce4bhs12rcd13ifvqhvg","pricing_plan_id":"cebpf4jnsgd1na2vs0mg"},{"bike_id":"4b068ad2-1221-4476-9487-2b7eb5619d8a","system_id":"levelo_inurba_marseille","lat":43.31366,"lon":5.38364,"is_reserved":false,"is_disabled":false,"rental_uris":{"android":"levelo://app?vid=4b068ad2-1221-4476-9487-2b7eb5619d8a","ios":"levelo://app?vid=4b068ad2-1221-4476-9487-2b7eb5619d8a"},"vehicle_type_id":"4","last_reported":1724439983,"current_range_meters":8800,"station_id":"","pricing_plan_id":"cebpf4jnsgd1na2vs0mg"},{"bike_id":"6dddb37f-6093-44e5-b7da-da4ddbc9b4c7","system_id":"levelo_inurba_marseille","lat":43.310689,"lon":5.383487,"is_reserved":false,"is_disabled":false,"rental_uris":{"android":"levelo://app?vid=6dddb37f-6093-44e5-b7da-da4ddbc9b4c7","ios":"levelo://app?vid=6dddb37f-6093-44e5-b7da-da4ddbc9b4c7"},"vehicle_type_id":"4","last_reported":1724439983,"current_range_meters":30000,"station_id":"ce4bgv92rcd13ifvqcr0","pricing_plan_id":"cebpf4jnsgd1na2vs0mg"},{"bike_id":"c4063e9a-d6ca-45fa-aad3-528eef5da065","system_id":"levelo_inurba_marseille","lat":43.31067,"lon":5.38352,"is_reserved":false,"is_disabled":false,"rental_uris":{"android":"levelo://app?vid=c4063e9a-d6ca-45fa-aad3-528eef5da065","ios":"levelo://app?vid=c4063e9a-d6ca-45fa-aad3-528eef5da065"},"vehicle_type_id":"4","last_reported":1724439983,"current_range_meters":13600,"station_id":"ce4bgv92rcd13ifvqcr0","pricing_plan_id":"cebpf4jnsgd1na2vs0mg"},{"bike_id":"293391d7-7b3e-4483-b2d8-8447de35c359","system_id":"levelo_inurba_marseille","lat":43.310804,"lon":5.38359,"is_reserved":false,"is_disabled":false,"rental_uris":{"android":"levelo://app?vid=293391d7-7b3e-4483-b2d8-8447de35c359","ios":"levelo://app?vid=293391d7-7b3e-4483-b2d8-8447de35c359"},"vehicle_type_id":"4","last_reported":1724439983,"current_range_meters":31200,"station_id":"ce4bgv92rcd13ifvqcr0","pricing_plan_id":"cebpf4jnsgd1na2vs0mg"},{"bike_id":"852dfc35-7bf5-48e3-8836-024e3c28fe08","system_id":"levelo_inurba_marseille","lat":43.31072,"lon":5.38361,"is_reserved":false,"is_disabled":false,"rental_uris":{"android":"levelo://app?vid=852dfc35-7bf5-48e3-8836-024e3c28fe08","ios":"levelo://app?vid=852dfc35-7bf5-48e3-8836-024e3c28fe08"},"vehicle_type_id":"4","last_reported":1724439983,"current_range_meters":0,"station_id":"ce4bgv92rcd13ifvqcr0","pricing_plan_id":"cebpf4jnsgd1na2vs0mg"},{"bike_id":"8e029cd4-5524-414b-9ff6-76bcb6c55d4f","system_id":"levelo_inurba_marseille","lat":43.3107,"lon":5.38361,"is_reserved":false,"is_disabled":false,"rental_uris":{"android":"levelo://app?vid=8e029cd4-5524-414b-9ff6-76bcb6c55d4f","ios":"levelo://app?vid=8e029cd4-5524-414b-9ff6-76bcb6c55d4f"},"vehicle_type_id":"4","last_reported":1724439983,"current_range_meters":0,"station_id":"ce4bgv92rcd13ifvqcr0","pricing_plan_id":"cebpf4jnsgd1na2vs0mg"},{"bike_id":"4049bb8a-7309-4d28-a3ab-40820e979717","system_id":"levelo_inurba_marseille","lat":43.302784,"lon":5.377158,"is_reserved":false,"is_disabled":false,"rental_uris":{"android":"levelo://app?vid=4049bb8a-7309-4d28-a3ab-40820e979717","ios":"levelo://app?vid=4049bb8a-7309-4d28-a3ab-40820e979717"},"vehicle_type_id":"4","last_reported":1724439983,"current_range_meters":0,"station_id":"ce4bguh2rcd13ifvqcj0","pricing_plan_id":"cebpf4jnsgd1na2vs0mg"},{"bike_id":"6a2a4e96-3f29-400b-aa30-2fddec9891b3","system_id":"levelo_inurba_marseille","lat":43.30143,"lon":5.37413,"is_reserved":false,"is_disabled":false,"rental_uris":{"android":"levelo://app?vid=6a2a4e96-3f29-400b-aa30-2fddec9891b3","ios":"levelo://app?vid=6a2a4e96-3f29-400b-aa30-2fddec9891b3"},"vehicle_type_id":"4","last_reported":1724439983,"current_range_meters":24400,"station_id":"ce4bgs92rcd13ifvqcc0","pricing_plan_id":"cebpf4jnsgd1na2vs0mg"},{"bike_id":"0158f74a-e2c5-4fcc-bc55-cb1fffa33530","system_id":"levelo_inurba_marseille","lat":43.319935,"lon":5.381699,"is_reserved":false,"is_disabled":false,"rental_uris":{"android":"levelo://app?vid=0158f74a-e2c5-4fcc-bc55-cb1fffa33530","ios":"levelo://app?vid=0158f74a-e2c5-4fcc-bc55-cb1fffa33530"},"vehicle_type_id":"4","last_reported":1724439983,"current_range_meters":0,"station_id":"ce4bhr12rcd13ifvqhpg","pricing_plan_id":"cebpf4jnsgd1na2vs0mg"},{"bike_id":"2d472cc6-1696-4a97-926d-37a1efad8267","system_id":"levelo_inurba_marseille","lat":43.319935,"lon":5.381699,"is_reserved":false,"is_disabled":false,"rental_uris":{"android":"levelo://app?vid=2d472cc6-1696-4a97-926d-37a1efad8267","ios":"levelo://app?vid=2d472cc6-1696-4a97-926d-37a1efad8267"},"vehicle_type_id":"4","last_reported":1724439983,"current_range_meters":31200,"station_id":"ce4bhr12rcd13ifvqhpg","pricing_plan_id":"cebpf4jnsgd1na2vs0mg"},{"bike_id":"4ccd5556-02ce-47bb-b762-c0a39c0347f1","system_id":"levelo_inurba_marseille","lat":43.319935,"lon":5.381699,"is_reserved":false,"is_disabled":false,"rental_uris":{"android":"levelo://app?vid=4ccd5556-02ce-47bb-b762-c0a39c0347f1","ios":"levelo://app?vid=4ccd5556-02ce-47bb-b762-c0a39c0347f1"},"vehicle_type_id":"4","last_reported":1724439983,"current_range_meters":13600,"station_id":"ce4bhr12rcd13ifvqhpg","pricing_plan_id":"cebpf4jnsgd1na2vs0mg"},{"bike_id":"18dc2d6a-07d6-412d-b925-700aa472c317","system_id":"levelo_inurba_marseille","lat":43.32006,"lon":5.38155,"is_reserved":false,"is_disabled":false,"rental_uris":{"android":"levelo://app?vid=18dc2d6a-07d6-412d-b925-700aa472c317","ios":"levelo://app?vid=18dc2d6a-07d6-412d-b925-700aa472c317"},"vehicle_type_id":"4","last_reported":1724439983,"current_range_meters":0,"station_id":"ce4bhr12rcd13ifvqhpg","pricing_plan_id":"cebpf4jnsgd1na2vs0mg"},{"bike_id":"1d9c6c21-b6fe-46da-8dcd-648966904bc1","system_id":"levelo_inurba_marseille","lat":43.31361,"lon":5.384848,"is_reserved":false,"is_disabled":false,"rental_uris":{"android":"levelo://app?vid=1d9c6c21-b6fe-46da-8dcd-648966904bc1","ios":"levelo://app?vid=1d9c6c21-b6fe-46da-8dcd-648966904bc1"},"vehicle_type_id":"4","last_reported":1724439983,"current_range_meters":31200,"station_id":"","pricing_plan_id":"cebpf4jnsgd1na2vs0mg"},{"bike_id":"f59b48c0-8687-4444-8966-badc1551adef","system_id":"levelo_inurba_marseille","lat":43.313571,"lon":5.384829,"is_reserved":false,"is_disabled":false,"rental_uris":{"android":"levelo://app?vid=f59b48c0-8687-4444-8966-badc1551adef","ios":"levelo://app?vid=f59b48c0-8687-4444-8966-badc1551adef"},"vehicle_type_id":"4","last_reported":1724439983,"current_range_meters":20400,"station_id":"ce4bgt92rcd13ifvqcf0","pricing_plan_id":"cebpf4jnsgd1na2vs0mg"},{"bike_id":"977518c1-25f2-4d30-9160-4803e8ca0d84","system_id":"levelo_inurba_marseille","lat":43.313571,"lon":5.384829,"is_reserved":false,"is_disabled":false,"rental_uris":{"android":"levelo://app?vid=977518c1-25f2-4d30-9160-4803e8ca0d84","ios":"levelo://app?vid=977518c1-25f2-4d30-9160-4803e8ca0d84"},"vehicle_type_id":"4","last_reported":1724439983,"current_range_meters":3200,"station_id":"ce4bgt92rcd13ifvqcf0","pricing_plan_id":"cebpf4jnsgd1na2vs0mg"},{"bike_id":"ab484965-c252-4a4c-a124-3c7b6d4c41a7","system_id":"levelo_inurba_marseille","lat":43.313571,"lon":5.384829,"is_reserved":false,"is_disabled":false,"rental_uris":{"android":"levelo://app?vid=ab484965-c252-4a4c-a124-3c7b6d4c41a7","ios":"levelo://app?vid=ab484965-c252-4a4c-a124-3c7b6d4c41a7"},"vehicle_type_id":"4","last_reported":1724439983,"current_range_meters":6400,"station_id":"ce4bgt92rcd13ifvqcf0","pricing_plan_id":"cebpf4jnsgd1na2vs0mg"},{"bike_id":"d8ffb925-3b1e-4d3f-87c3-2a23cfc509c5","system_id":"levelo_inurba_marseille","lat":43.313571,"lon":5.384829,"is_reserved":false,"is_disabled":false,"rental_uris":{"android":"levelo://app?vid=d8ffb925-3b1e-4d3f-87c3-2a23cfc509c5","ios":"levelo://app?vid=d8ffb925-3b1e-4d3f-87c3-2a23cfc509c5"},"vehicle_type_id":"4","last_reported":1724439983,"current_range_meters":3200,"station_id":"ce4bgt92rcd13ifvqcf0","pricing_plan_id":"cebpf4jnsgd1na2vs0mg"},{"bike_id":"16cb840c-73c1-4368-8447-e9aeee70b7ec","system_id":"levelo_inurba_marseille","lat":43.313571,"lon":5.384829,"is_reserved":false,"is_disabled":false,"rental_uris":{"android":"levelo://app?vid=16cb840c-73c1-4368-8447-e9aeee70b7ec","ios":"levelo://app?vid=16cb840c-73c1-4368-8447-e9aeee70b7ec"},"vehicle_type_id":"4","last_reported":1724439983,"current_range_meters":10000,"station_id":"ce4bgt92rcd13ifvqcf0","pricing_plan_id":"cebpf4jnsgd1na2vs0mg"},{"bike_id":"35f09dd3-333e-4101-87f5-44098578bf83","system_id":"levelo_inurba_marseille","lat":43.313571,"lon":5.384829,"is_reserved":false,"is_disabled":false,"rental_uris":{"android":"levelo://app?vid=35f09dd3-333e-4101-87f5-44098578bf83","ios":"levelo://app?vid=35f09dd3-333e-4101-87f5-44098578bf83"},"vehicle_type_id":"4","last_reported":1724439983,"current_range_meters":12400,"station_id":"ce4bgt92rcd13ifvqcf0","pricing_plan_id":"cebpf4jnsgd1na2vs0mg"},{"bike_id":"b5cd0746-20f2-43b9-a657-ecba1bfb3647","system_id":"levelo_inurba_marseille","lat":43.313571,"lon":5.384829,"is_reserved":false,"is_disabled":false,"rental_uris":{"android":"levelo://app?vid=b5cd0746-20f2-43b9-a657-ecba1bfb3647","ios":"levelo://app?vid=b5cd0746-20f2-43b9-a657-ecba1bfb3647"},"vehicle_type_id":"4","last_reported":1724439983,"current_range_meters":400,"station_id":"ce4bgt92rcd13ifvqcf0","pricing_plan_id":"cebpf4jnsgd1na2vs0mg"},{"bike_id":"a14ec9d8-9287-4f55-a0f4-55720ff1e6e5","system_id":"levelo_inurba_marseille","lat":43.313571,"lon":5.384829,"is_reserved":false,"is_disabled":false,"rental_uris":{"android":"levelo://app?vid=a14ec9d8-9287-4f55-a0f4-55720ff1e6e5","ios":"levelo://app?vid=a14ec9d8-9287-4f55-a0f4-55720ff1e6e5"},"vehicle_type_id":"4","last_reported":1724439983,"current_range_meters":6400,"station_id":"ce4bgt92rcd13ifvqcf0","pricing_plan_id":"cebpf4jnsgd1na2vs0mg"},{"bike_id":"40f2d8e3-edeb-45f9-af39-10fa4e97c42f","system_id":"levelo_inurba_marseille","lat":43.31358,"lon":5.38502,"is_reserved":false,"is_disabled":false,"rental_uris":{"android":"levelo://app?vid=40f2d8e3-edeb-45f9-af39-10fa4e97c42f","ios":"levelo://app?vid=40f2d8e3-edeb-45f9-af39-10fa4e97c42f"},"vehicle_type_id":"4","last_reported":1724439983,"current_range_meters":18800,"station_id":"ce4bgt92rcd13ifvqcf0","pricing_plan_id":"cebpf4jnsgd1na2vs0mg"},{"bike_id":"b97d5c48-7bef-48fc-8674-dba5f7730579","system_id":"levelo_inurba_marseille","lat":43.299222,"lon":5.365554,"is_reserved":false,"is_disabled":false,"rental_uris":{"android":"levelo://app?vid=b97d5c48-7bef-48fc-8674-dba5f7730579","ios":"levelo://app?vid=b97d5c48-7bef-48fc-8674-dba5f7730579"},"vehicle_type_id":"4","last_reported":1724439983,"current_range_meters":4800,"station_id":"ce4bgm92rcd13ifvqbr0","pricing_plan_id":"cebpf4jnsgd1na2vs0mg"},{"bike_id":"bcaf6aff-9867-454e-85b3-0898dafbb3fb","system_id":"levelo_inurba_marseille","lat":43.299724,"lon":5.371829,"is_reserved":false,"is_disabled":false,"rental_uris":{"android":"levelo://app?vid=bcaf6aff-9867-454e-85b3-0898dafbb3fb","ios":"levelo://app?vid=bcaf6aff-9867-454e-85b3-0898dafbb3fb"},"vehicle_type_id":"4","last_reported":1724439983,"current_range_meters":0,"station_id":"ce4bgr92rcd13ifvqc7g","pricing_plan_id":"cebpf4jnsgd1na2vs0mg"},{"bike_id":"c3e395f7-3b3a-49e5-8c52-4e1ce1f49148","system_id":"levelo_inurba_marseille","lat":43.313571,"lon":5.384829,"is_reserved":false,"is_disabled":false,"rental_uris":{"android":"levelo://app?vid=c3e395f7-3b3a-49e5-8c52-4e1ce1f49148","ios":"levelo://app?vid=c3e395f7-3b3a-49e5-8c52-4e1ce1f49148"},"vehicle_type_id":"4","last_reported":1724439983,"current_range_meters":20000,"station_id":"ce4bgt92rcd13ifvqcf0","pricing_plan_id":"cebpf4jnsgd1na2vs0mg"},{"bike_id":"260f5da8-9d21-48db-b694-ae96943ce60d","system_id":"levelo_inurba_marseille","lat":43.30614,"lon":5.38459,"is_reserved":false,"is_disabled":false,"rental_uris":{"android":"levelo://app?vid=260f5da8-9d21-48db-b694-ae96943ce60d","ios":"levelo://app?vid=260f5da8-9d21-48db-b694-ae96943ce60d"},"vehicle_type_id":"4","last_reported":1724439983,"current_range_meters":17600,"station_id":"ce4bgup2rcd13ifvqco0","pricing_plan_id":"cebpf4jnsgd1na2vs0mg"},{"bike_id":"7a6f99a5-1bb0-4845-87c2-b48607d2402a","system_id":"levelo_inurba_marseille","lat":43.311722,"lon":5.387247,"is_reserved":false,"is_disabled":false,"rental_uris":{"android":"levelo://app?vid=7a6f99a5-1bb0-4845-87c2-b48607d2402a","ios":"levelo://app?vid=7a6f99a5-1bb0-4845-87c2-b48607d2402a"},"vehicle_type_id":"4","last_reported":1724439983,"current_range_meters":31200,"station_id":"ce4bgv12rcd13ifvqcp0","pricing_plan_id":"cebpf4jnsgd1na2vs0mg"},{"bike_id":"c5640314-ebb9-47c0-bee5-d6ebe973ade6","system_id":"levelo_inurba_marseille","lat":43.311722,"lon":5.387247,"is_reserved":false,"is_disabled":false,"rental_uris":{"android":"levelo://app?vid=c5640314-ebb9-47c0-bee5-d6ebe973ade6","ios":"levelo://app?vid=c5640314-ebb9-47c0-bee5-d6ebe973ade6"},"vehicle_type_id":"4","last_reported":1724439983,"current_range_meters":31200,"station_id":"ce4bgv12rcd13ifvqcp0","pricing_plan_id":"cebpf4jnsgd1na2vs0mg"},{"bike_id":"ff0cf9a7-ba79-436b-9b37-cc6e2a6fd794","system_id":"levelo_inurba_marseille","lat":43.311722,"lon":5.387247,"is_reserved":false,"is_disabled":false,"rental_uris":{"android":"levelo://app?vid=ff0cf9a7-ba79-436b-9b37-cc6e2a6fd794","ios":"levelo://app?vid=ff0cf9a7-ba79-436b-9b37-cc6e2a6fd794"},"vehicle_type_id":"4","last_reported":1724439983,"current_range_meters":25600,"station_id":"ce4bgv12rcd13ifvqcp0","pricing_plan_id":"cebpf4jnsgd1na2vs0mg"},{"bike_id":"b3cf25e2-20e8-4245-ac6f-6c15ad309d3f","system_id":"levelo_inurba_marseille","lat":43.29911,"lon":5.37464,"is_reserved":false,"is_disabled":false,"rental_uris":{"android":"levelo://app?vid=b3cf25e2-20e8-4245-ac6f-6c15ad309d3f","ios":"levelo://app?vid=b3cf25e2-20e8-4245-ac6f-6c15ad309d3f"},"vehicle_type_id":"4","last_reported":1724439983,"current_range_meters":28000,"station_id":"ce4bgjh2rcd13ifvqbg0","pricing_plan_id":"cebpf4jnsgd1na2vs0mg"},{"bike_id":"682921a9-b9fd-41ea-90c3-a56e713e8902","system_id":"levelo_inurba_marseille","lat":43.311722,"lon":5.387247,"is_reserved":false,"is_disabled":false,"rental_uris":{"android":"levelo://app?vid=682921a9-b9fd-41ea-90c3-a56e713e8902","ios":"levelo://app?vid=682921a9-b9fd-41ea-90c3-a56e713e8902"},"vehicle_type_id":"4","last_reported":1724439983,"current_range_meters":10000,"station_id":"ce4bgv12rcd13ifvqcp0","pricing_plan_id":"cebpf4jnsgd1na2vs0mg"},{"bike_id":"dcf9328d-1b3e-44bf-8d75-3bf9658efacb","system_id":"levelo_inurba_marseille","lat":43.311722,"lon":5.387247,"is_reserved":false,"is_disabled":false,"rental_uris":{"android":"levelo://app?vid=dcf9328d-1b3e-44bf-8d75-3bf9658efacb","ios":"levelo://app?vid=dcf9328d-1b3e-44bf-8d75-3bf9658efacb"},"vehicle_type_id":"4","last_reported":1724439983,"current_range_meters":31200,"station_id":"ce4bgv12rcd13ifvqcp0","pricing_plan_id":"cebpf4jnsgd1na2vs0mg"},{"bike_id":"654aedab-436d-415c-b459-128aa5d8d09f","system_id":"levelo_inurba_marseille","lat":43.31172,"lon":5.38716,"is_reserved":false,"is_disabled":false,"rental_uris":{"android":"levelo://app?vid=654aedab-436d-415c-b459-128aa5d8d09f","ios":"levelo://app?vid=654aedab-436d-415c-b459-128aa5d8d09f"},"vehicle_type_id":"4","last_reported":1724439983,"current_range_meters":24800,"station_id":"ce4bgv12rcd13ifvqcp0","pricing_plan_id":"cebpf4jnsgd1na2vs0mg"},{"bike_id":"94b391fb-0edf-4196-9a98-121423ec0f37","system_id":"levelo_inurba_marseille","lat":43.311722,"lon":5.387247,"is_reserved":false,"is_disabled":false,"rental_uris":{"android":"levelo://app?vid=94b391fb-0edf-4196-9a98-121423ec0f37","ios":"levelo://app?vid=94b391fb-0edf-4196-9a98-121423ec0f37"},"vehicle_type_id":"4","last_reported":1724439983,"current_range_meters":21600,"station_id":"ce4bgv12rcd13ifvqcp0","pricing_plan_id":"cebpf4jnsgd1na2vs0mg"},{"bike_id":"a586045c-2257-454a-83f3-f7394f3283a9","system_id":"levelo_inurba_marseille","lat":43.311722,"lon":5.387247,"is_reserved":false,"is_disabled":false,"rental_uris":{"android":"levelo://app?vid=a586045c-2257-454a-83f3-f7394f3283a9","ios":"levelo://app?vid=a586045c-2257-454a-83f3-f7394f3283a9"},"vehicle_type_id":"4","last_reported":1724439983,"current_range_meters":1600,"station_id":"ce4bgv12rcd13ifvqcp0","pricing_plan_id":"cebpf4jnsgd1na2vs0mg"},{"bike_id":"99356069-6e63-46d8-8d29-9cdc883aefeb","system_id":"levelo_inurba_marseille","lat":43.311722,"lon":5.387247,"is_reserved":false,"is_disabled":false,"rental_uris":{"android":"levelo://app?vid=99356069-6e63-46d8-8d29-9cdc883aefeb","ios":"levelo://app?vid=99356069-6e63-46d8-8d29-9cdc883aefeb"},"vehicle_type_id":"4","last_reported":1724439983,"current_range_meters":8800,"station_id":"ce4bgv12rcd13ifvqcp0","pricing_plan_id":"cebpf4jnsgd1na2vs0mg"},{"bike_id":"fbf2b8ce-52dc-4a73-9b5f-1da6842240ff","system_id":"levelo_inurba_marseille","lat":43.311722,"lon":5.387247,"is_reserved":false,"is_disabled":false,"rental_uris":{"android":"levelo://app?vid=fbf2b8ce-52dc-4a73-9b5f-1da6842240ff","ios":"levelo://app?vid=fbf2b8ce-52dc-4a73-9b5f-1da6842240ff"},"vehicle_type_id":"4","last_reported":1724439983,"current_range_meters":11600,"station_id":"ce4bgv12rcd13ifvqcp0","pricing_plan_id":"cebpf4jnsgd1na2vs0mg"},{"bike_id":"07a6ca0e-de29-4121-acf7-930d41655bf0","system_id":"levelo_inurba_marseille","lat":43.311722,"lon":5.387247,"is_reserved":false,"is_disabled":false,"rental_uris":{"android":"levelo://app?vid=07a6ca0e-de29-4121-acf7-930d41655bf0","ios":"levelo://app?vid=07a6ca0e-de29-4121-acf7-930d41655bf0"},"vehicle_type_id":"4","last_reported":1724439983,"current_range_meters":22800,"station_id":"ce4bgv12rcd13ifvqcp0","pricing_plan_id":"cebpf4jnsgd1na2vs0mg"},{"bike_id":"adc1b0ed-0371-4df8-a881-ba63db09f5fc","system_id":"levelo_inurba_marseille","lat":43.311722,"lon":5.387247,"is_reserved":false,"is_disabled":false,"rental_uris":{"android":"levelo://app?vid=adc1b0ed-0371-4df8-a881-ba63db09f5fc","ios":"levelo://app?vid=adc1b0ed-0371-4df8-a881-ba63db09f5fc"},"vehicle_type_id":"4","last_reported":1724439983,"current_range_meters":30400,"station_id":"ce4bgv12rcd13ifvqcp0","pricing_plan_id":"cebpf4jnsgd1na2vs0mg"},{"bike_id":"92cd3333-28c0-4311-a478-8cea50a5969a","system_id":"levelo_inurba_marseille","lat":43.311722,"lon":5.387247,"is_reserved":false,"is_disabled":false,"rental_uris":{"android":"levelo://app?vid=92cd3333-28c0-4311-a478-8cea50a5969a","ios":"levelo://app?vid=92cd3333-28c0-4311-a478-8cea50a5969a"},"vehicle_type_id":"4","last_reported":1724439983,"current_range_meters":31600,"station_id":"ce4bgv12rcd13ifvqcp0","pricing_plan_id":"cebpf4jnsgd1na2vs0mg"},{"bike_id":"072b0fa1-16d6-4629-8c49-bad705e4f5ce","system_id":"levelo_inurba_marseille","lat":43.311722,"lon":5.387247,"is_reserved":false,"is_disabled":false,"rental_uris":{"android":"levelo://app?vid=072b0fa1-16d6-4629-8c49-bad705e4f5ce","ios":"levelo://app?vid=072b0fa1-16d6-4629-8c49-bad705e4f5ce"},"vehicle_type_id":"4","last_reported":1724439983,"current_range_meters":13600,"station_id":"ce4bgv12rcd13ifvqcp0","pricing_plan_id":"cebpf4jnsgd1na2vs0mg"},{"bike_id":"22f31f1f-9524-41d7-9626-8fd8106236de","system_id":"levelo_inurba_marseille","lat":43.311722,"lon":5.387247,"is_reserved":false,"is_disabled":false,"rental_uris":{"android":"levelo://app?vid=22f31f1f-9524-41d7-9626-8fd8106236de","ios":"levelo://app?vid=22f31f1f-9524-41d7-9626-8fd8106236de"},"vehicle_type_id":"4","last_reported":1724439983,"current_range_meters":3600,"station_id":"ce4bgv12rcd13ifvqcp0","pricing_plan_id":"cebpf4jnsgd1na2vs0mg"},{"bike_id":"9f3e5476-1de7-4dcd-94c9-fa8980868cc0","system_id":"levelo_inurba_marseille","lat":43.311722,"lon":5.387247,"is_reserved":false,"is_disabled":false,"rental_uris":{"android":"levelo://app?vid=9f3e5476-1de7-4dcd-94c9-fa8980868cc0","ios":"levelo://app?vid=9f3e5476-1de7-4dcd-94c9-fa8980868cc0"},"vehicle_type_id":"4","last_reported":1724439983,"current_range_meters":3600,"station_id":"ce4bgv12rcd13ifvqcp0","pricing_plan_id":"cebpf4jnsgd1na2vs0mg"},{"bike_id":"6437ae77-9eb0-489d-ad20-28b135ac44fa","system_id":"levelo_inurba_marseille","lat":43.311722,"lon":5.387247,"is_reserved":false,"is_disabled":false,"rental_uris":{"android":"levelo://app?vid=6437ae77-9eb0-489d-ad20-28b135ac44fa","ios":"levelo://app?vid=6437ae77-9eb0-489d-ad20-28b135ac44fa"},"vehicle_type_id":"4","last_reported":1724439983,"current_range_meters":8000,"station_id":"ce4bgv12rcd13ifvqcp0","pricing_plan_id":"cebpf4jnsgd1na2vs0mg"},{"bike_id":"56859c3e-58ba-4feb-860b-0c13a2d0e56d","system_id":"levelo_inurba_marseille","lat":43.311722,"lon":5.387247,"is_reserved":false,"is_disabled":false,"rental_uris":{"android":"levelo://app?vid=56859c3e-58ba-4feb-860b-0c13a2d0e56d","ios":"levelo://app?vid=56859c3e-58ba-4feb-860b-0c13a2d0e56d"},"vehicle_type_id":"4","last_reported":1724439983,"current_range_meters":4000,"station_id":"ce4bgv12rcd13ifvqcp0","pricing_plan_id":"cebpf4jnsgd1na2vs0mg"},{"bike_id":"3929df0e-d608-4a62-998d-7fbc32f7fd6b","system_id":"levelo_inurba_marseille","lat":43.311722,"lon":5.387247,"is_reserved":false,"is_disabled":false,"rental_uris":{"android":"levelo://app?vid=3929df0e-d608-4a62-998d-7fbc32f7fd6b","ios":"levelo://app?vid=3929df0e-d608-4a62-998d-7fbc32f7fd6b"},"vehicle_type_id":"4","last_reported":1724439983,"current_range_meters":31200,"station_id":"ce4bgv12rcd13ifvqcp0","pricing_plan_id":"cebpf4jnsgd1na2vs0mg"},{"bike_id":"e3c45ed2-eaf6-47ea-a5d9-eafa236d52bd","system_id":"levelo_inurba_marseille","lat":43.311722,"lon":5.387247,"is_reserved":false,"is_disabled":false,"rental_uris":{"android":"levelo://app?vid=e3c45ed2-eaf6-47ea-a5d9-eafa236d52bd","ios":"levelo://app?vid=e3c45ed2-eaf6-47ea-a5d9-eafa236d52bd"},"vehicle_type_id":"4","last_reported":1724439983,"current_range_meters":20800,"station_id":"ce4bgv12rcd13ifvqcp0","pricing_plan_id":"cebpf4jnsgd1na2vs0mg"},{"bike_id":"2f70ea2f-47e5-4a36-ab6b-201a9904ee94","system_id":"levelo_inurba_marseille","lat":43.311722,"lon":5.387247,"is_reserved":false,"is_disabled":false,"rental_uris":{"android":"levelo://app?vid=2f70ea2f-47e5-4a36-ab6b-201a9904ee94","ios":"levelo://app?vid=2f70ea2f-47e5-4a36-ab6b-201a9904ee94"},"vehicle_type_id":"4","last_reported":1724439983,"current_range_meters":10800,"station_id":"ce4bgv12rcd13ifvqcp0","pricing_plan_id":"cebpf4jnsgd1na2vs0mg"},{"bike_id":"3039b58e-9eb9-46eb-b600-d9d28141d53b","system_id":"levelo_inurba_marseille","lat":43.311722,"lon":5.387247,"is_reserved":false,"is_disabled":false,"rental_uris":{"android":"levelo://app?vid=3039b58e-9eb9-46eb-b600-d9d28141d53b","ios":"levelo://app?vid=3039b58e-9eb9-46eb-b600-d9d28141d53b"},"vehicle_type_id":"4","last_reported":1724439983,"current_range_meters":23600,"station_id":"ce4bgv12rcd13ifvqcp0","pricing_plan_id":"cebpf4jnsgd1na2vs0mg"},{"bike_id":"dfa00a75-a418-4a32-94bc-6325d110adc0","system_id":"levelo_inurba_marseille","lat":43.311722,"lon":5.387247,"is_reserved":false,"is_disabled":false,"rental_uris":{"android":"levelo://app?vid=dfa00a75-a418-4a32-94bc-6325d110adc0","ios":"levelo://app?vid=dfa00a75-a418-4a32-94bc-6325d110adc0"},"vehicle_type_id":"4","last_reported":1724439983,"current_range_meters":18800,"station_id":"ce4bgv12rcd13ifvqcp0","pricing_plan_id":"cebpf4jnsgd1na2vs0mg"},{"bike_id":"b0338234-59ba-417a-aeb8-2f1ab2507ce5","system_id":"levelo_inurba_marseille","lat":43.311722,"lon":5.387247,"is_reserved":false,"is_disabled":false,"rental_uris":{"android":"levelo://app?vid=b0338234-59ba-417a-aeb8-2f1ab2507ce5","ios":"levelo://app?vid=b0338234-59ba-417a-aeb8-2f1ab2507ce5"},"vehicle_type_id":"4","last_reported":1724439983,"current_range_meters":4400,"station_id":"ce4bgv12rcd13ifvqcp0","pricing_plan_id":"cebpf4jnsgd1na2vs0mg"},{"bike_id":"fbfdb28d-d248-4ff7-811c-54ba60708f60","system_id":"levelo_inurba_marseille","lat":43.297774,"lon":5.370875,"is_reserved":false,"is_disabled":false,"rental_uris":{"android":"levelo://app?vid=fbfdb28d-d248-4ff7-811c-54ba60708f60","ios":"levelo://app?vid=fbfdb28d-d248-4ff7-811c-54ba60708f60"},"vehicle_type_id":"4","last_reported":1724439983,"current_range_meters":31200,"station_id":"ce4bgop2rcd13ifvqc1g","pricing_plan_id":"cebpf4jnsgd1na2vs0mg"},{"bike_id":"19fa88a7-0105-417e-99b1-2b95d62efefa","system_id":"levelo_inurba_marseille","lat":43.32297,"lon":5.38264,"is_reserved":false,"is_disabled":false,"rental_uris":{"android":"levelo://app?vid=19fa88a7-0105-417e-99b1-2b95d62efefa","ios":"levelo://app?vid=19fa88a7-0105-417e-99b1-2b95d62efefa"},"vehicle_type_id":"4","last_reported":1724439983,"current_range_meters":26000,"station_id":"ce4bhr12rcd13ifvqhqg","pricing_plan_id":"cebpf4jnsgd1na2vs0mg"},{"bike_id":"442efaeb-27e7-4e99-a6aa-1ad0f788a118","system_id":"levelo_inurba_marseille","lat":43.322872,"lon":5.382756,"is_reserved":false,"is_disabled":false,"rental_uris":{"android":"levelo://app?vid=442efaeb-27e7-4e99-a6aa-1ad0f788a118","ios":"levelo://app?vid=442efaeb-27e7-4e99-a6aa-1ad0f788a118"},"vehicle_type_id":"4","last_reported":1724439983,"current_range_meters":14400,"station_id":"ce4bhr12rcd13ifvqhqg","pricing_plan_id":"cebpf4jnsgd1na2vs0mg"},{"bike_id":"e2918ee5-c806-4cbe-b3d9-afc3f334fdb5","system_id":"levelo_inurba_marseille","lat":43.322872,"lon":5.382756,"is_reserved":false,"is_disabled":false,"rental_uris":{"android":"levelo://app?vid=e2918ee5-c806-4cbe-b3d9-afc3f334fdb5","ios":"levelo://app?vid=e2918ee5-c806-4cbe-b3d9-afc3f334fdb5"},"vehicle_type_id":"4","last_reported":1724439983,"current_range_meters":7200,"station_id":"ce4bhr12rcd13ifvqhqg","pricing_plan_id":"cebpf4jnsgd1na2vs0mg"},{"bike_id":"fac86d23-9cc3-40e9-b053-780d7ea1fd9f","system_id":"levelo_inurba_marseille","lat":43.297774,"lon":5.370875,"is_reserved":false,"is_disabled":false,"rental_uris":{"android":"levelo://app?vid=fac86d23-9cc3-40e9-b053-780d7ea1fd9f","ios":"levelo://app?vid=fac86d23-9cc3-40e9-b053-780d7ea1fd9f"},"vehicle_type_id":"4","last_reported":1724439983,"current_range_meters":20000,"station_id":"ce4bgop2rcd13ifvqc1g","pricing_plan_id":"cebpf4jnsgd1na2vs0mg"},{"bike_id":"9397977c-fd95-4319-910a-b1c9792e624f","system_id":"levelo_inurba_marseille","lat":43.313571,"lon":5.384829,"is_reserved":false,"is_disabled":false,"rental_uris":{"android":"levelo://app?vid=9397977c-fd95-4319-910a-b1c9792e624f","ios":"levelo://app?vid=9397977c-fd95-4319-910a-b1c9792e624f"},"vehicle_type_id":"4","last_reported":1724439983,"current_range_meters":8800,"station_id":"ce4bgt92rcd13ifvqcf0","pricing_plan_id":"cebpf4jnsgd1na2vs0mg"},{"bike_id":"4de03174-7634-41ed-a563-1d25b054e326","system_id":"levelo_inurba_marseille","lat":43.297163,"lon":5.365866,"is_reserved":false,"is_disabled":false,"rental_uris":{"android":"levelo://app?vid=4de03174-7634-41ed-a563-1d25b054e326","ios":"levelo://app?vid=4de03174-7634-41ed-a563-1d25b054e326"},"vehicle_type_id":"4","last_reported":1724439983,"current_range_meters":26000,"station_id":"ce4bgn12rcd13ifvqbt0","pricing_plan_id":"cebpf4jnsgd1na2vs0mg"},{"bike_id":"b4eab63f-5bf1-4402-861a-d5c8c423f4c7","system_id":"levelo_inurba_marseille","lat":43.297163,"lon":5.365866,"is_reserved":false,"is_disabled":false,"rental_uris":{"android":"levelo://app?vid=b4eab63f-5bf1-4402-861a-d5c8c423f4c7","ios":"levelo://app?vid=b4eab63f-5bf1-4402-861a-d5c8c423f4c7"},"vehicle_type_id":"4","last_reported":1724439983,"current_range_meters":10400,"station_id":"ce4bgn12rcd13ifvqbt0","pricing_plan_id":"cebpf4jnsgd1na2vs0mg"},{"bike_id":"c92cc799-93e6-4861-8663-f17f991dadec","system_id":"levelo_inurba_marseille","lat":43.29705,"lon":5.36628,"is_reserved":false,"is_disabled":false,"rental_uris":{"android":"levelo://app?vid=c92cc799-93e6-4861-8663-f17f991dadec","ios":"levelo://app?vid=c92cc799-93e6-4861-8663-f17f991dadec"},"vehicle_type_id":"4","last_reported":1724439983,"current_range_meters":29200,"station_id":"","pricing_plan_id":"cebpf4jnsgd1na2vs0mg"},{"bike_id":"3f8d30ec-a8eb-4602-83f4-d4d6435e4279","system_id":"levelo_inurba_marseille","lat":43.297163,"lon":5.365866,"is_reserved":false,"is_disabled":false,"rental_uris":{"android":"levelo://app?vid=3f8d30ec-a8eb-4602-83f4-d4d6435e4279","ios":"levelo://app?vid=3f8d30ec-a8eb-4602-83f4-d4d6435e4279"},"vehicle_type_id":"4","last_reported":1724439983,"current_range_meters":20800,"station_id":"ce4bgn12rcd13ifvqbt0","pricing_plan_id":"cebpf4jnsgd1na2vs0mg"},{"bike_id":"520955de-1261-4fd3-98a3-f5656d3446ed","system_id":"levelo_inurba_marseille","lat":43.297163,"lon":5.365866,"is_reserved":false,"is_disabled":false,"rental_uris":{"android":"levelo://app?vid=520955de-1261-4fd3-98a3-f5656d3446ed","ios":"levelo://app?vid=520955de-1261-4fd3-98a3-f5656d3446ed"},"vehicle_type_id":"4","last_reported":1724439983,"current_range_meters":26400,"station_id":"ce4bgn12rcd13ifvqbt0","pricing_plan_id":"cebpf4jnsgd1na2vs0mg"},{"bike_id":"7b6d035d-e699-4c06-a82c-81db9bd1cb90","system_id":"levelo_inurba_marseille","lat":43.297163,"lon":5.365866,"is_reserved":false,"is_disabled":false,"rental_uris":{"android":"levelo://app?vid=7b6d035d-e699-4c06-a82c-81db9bd1cb90","ios":"levelo://app?vid=7b6d035d-e699-4c06-a82c-81db9bd1cb90"},"vehicle_type_id":"4","last_reported":1724439983,"current_range_meters":27600,"station_id":"ce4bgn12rcd13ifvqbt0","pricing_plan_id":"cebpf4jnsgd1na2vs0mg"},{"bike_id":"f67f238a-1583-4284-97cb-1fcf19c561cf","system_id":"levelo_inurba_marseille","lat":43.297163,"lon":5.365866,"is_reserved":false,"is_disabled":false,"rental_uris":{"android":"levelo://app?vid=f67f238a-1583-4284-97cb-1fcf19c561cf","ios":"levelo://app?vid=f67f238a-1583-4284-97cb-1fcf19c561cf"},"vehicle_type_id":"4","last_reported":1724439983,"current_range_meters":30000,"station_id":"ce4bgn12rcd13ifvqbt0","pricing_plan_id":"cebpf4jnsgd1na2vs0mg"},{"bike_id":"ea6c180c-a90f-4977-8a6d-497494e15c26","system_id":"levelo_inurba_marseille","lat":43.297163,"lon":5.365866,"is_reserved":false,"is_disabled":false,"rental_uris":{"android":"levelo://app?vid=ea6c180c-a90f-4977-8a6d-497494e15c26","ios":"levelo://app?vid=ea6c180c-a90f-4977-8a6d-497494e15c26"},"vehicle_type_id":"4","last_reported":1724439983,"current_range_meters":19200,"station_id":"ce4bgn12rcd13ifvqbt0","pricing_plan_id":"cebpf4jnsgd1na2vs0mg"},{"bike_id":"28b8cd8e-dd94-446b-be65-c8f7b3b9a218","system_id":"levelo_inurba_marseille","lat":43.2968,"lon":5.37291,"is_reserved":false,"is_disabled":false,"rental_uris":{"android":"levelo://app?vid=28b8cd8e-dd94-446b-be65-c8f7b3b9a218","ios":"levelo://app?vid=28b8cd8e-dd94-446b-be65-c8f7b3b9a218"},"vehicle_type_id":"4","last_reported":1724439983,"current_range_meters":7200,"station_id":"ce4bgk12rcd13ifvqbj0","pricing_plan_id":"cebpf4jnsgd1na2vs0mg"},{"bike_id":"2be4893d-9b9d-4c09-abce-72e03ec2acd1","system_id":"levelo_inurba_marseille","lat":43.296131,"lon":5.370791,"is_reserved":false,"is_disabled":false,"rental_uris":{"android":"levelo://app?vid=2be4893d-9b9d-4c09-abce-72e03ec2acd1","ios":"levelo://app?vid=2be4893d-9b9d-4c09-abce-72e03ec2acd1"},"vehicle_type_id":"4","last_reported":1724439983,"current_range_meters":0,"station_id":"ce4bgnh2rcd13ifvqc0g","pricing_plan_id":"cebpf4jnsgd1na2vs0mg"},{"bike_id":"6d06975a-b236-4f9f-ba2c-505a51c1fd93","system_id":"levelo_inurba_marseille","lat":43.296935,"lon":5.376544,"is_reserved":false,"is_disabled":false,"rental_uris":{"android":"levelo://app?vid=6d06975a-b236-4f9f-ba2c-505a51c1fd93","ios":"levelo://app?vid=6d06975a-b236-4f9f-ba2c-505a51c1fd93"},"vehicle_type_id":"4","last_reported":1724439983,"current_range_meters":20000,"station_id":"ce4bgkh2rcd13ifvqbl0","pricing_plan_id":"cebpf4jnsgd1na2vs0mg"},{"bike_id":"ea17cdff-4b14-4371-b786-702f4d5989a0","system_id":"levelo_inurba_marseille","lat":43.29915,"lon":5.38139,"is_reserved":false,"is_disabled":false,"rental_uris":{"android":"levelo://app?vid=ea17cdff-4b14-4371-b786-702f4d5989a0","ios":"levelo://app?vid=ea17cdff-4b14-4371-b786-702f4d5989a0"},"vehicle_type_id":"4","last_reported":1724439983,"current_range_meters":400,"station_id":"ce4bgj12rcd13ifvqbc0","pricing_plan_id":"cebpf4jnsgd1na2vs0mg"},{"bike_id":"e6007a92-359c-4e33-8429-2915800cad26","system_id":"levelo_inurba_marseille","lat":43.30948,"lon":5.39013,"is_reserved":false,"is_disabled":false,"rental_uris":{"android":"levelo://app?vid=e6007a92-359c-4e33-8429-2915800cad26","ios":"levelo://app?vid=e6007a92-359c-4e33-8429-2915800cad26"},"vehicle_type_id":"4","last_reported":1724439983,"current_range_meters":1200,"station_id":"ce4bgup2rcd13ifvqco0","pricing_plan_id":"cebpf4jnsgd1na2vs0mg"},{"bike_id":"94d9d714-54e3-4c2e-abaa-70b253ae090a","system_id":"levelo_inurba_marseille","lat":43.309525,"lon":5.39015,"is_reserved":false,"is_disabled":false,"rental_uris":{"android":"levelo://app?vid=94d9d714-54e3-4c2e-abaa-70b253ae090a","ios":"levelo://app?vid=94d9d714-54e3-4c2e-abaa-70b253ae090a"},"vehicle_type_id":"4","last_reported":1724439983,"current_range_meters":6000,"station_id":"ce4bh012rcd13ifvqcv0","pricing_plan_id":"cebpf4jnsgd1na2vs0mg"},{"bike_id":"f70708cb-e363-4fe9-9946-8985f8bb91d8","system_id":"levelo_inurba_marseille","lat":43.30949,"lon":5.39016,"is_reserved":false,"is_disabled":false,"rental_uris":{"android":"levelo://app?vid=f70708cb-e363-4fe9-9946-8985f8bb91d8","ios":"levelo://app?vid=f70708cb-e363-4fe9-9946-8985f8bb91d8"},"vehicle_type_id":"4","last_reported":1724439983,"current_range_meters":22800,"station_id":"ce4bgup2rcd13ifvqco0","pricing_plan_id":"cebpf4jnsgd1na2vs0mg"},{"bike_id":"2fcc8e04-bf69-49ef-9076-fcf835f8556f","system_id":"levelo_inurba_marseille","lat":43.30945,"lon":5.39016,"is_reserved":false,"is_disabled":false,"rental_uris":{"android":"levelo://app?vid=2fcc8e04-bf69-49ef-9076-fcf835f8556f","ios":"levelo://app?vid=2fcc8e04-bf69-49ef-9076-fcf835f8556f"},"vehicle_type_id":"4","last_reported":1724439983,"current_range_meters":800,"station_id":"ce4bgup2rcd13ifvqco0","pricing_plan_id":"cebpf4jnsgd1na2vs0mg"},{"bike_id":"5e16da49-b42b-4119-bf95-45ee7973f9b3","system_id":"levelo_inurba_marseille","lat":43.309589,"lon":5.390258,"is_reserved":false,"is_disabled":false,"rental_uris":{"android":"levelo://app?vid=5e16da49-b42b-4119-bf95-45ee7973f9b3","ios":"levelo://app?vid=5e16da49-b42b-4119-bf95-45ee7973f9b3"},"vehicle_type_id":"4","last_reported":1724439983,"current_range_meters":8800,"station_id":"ce4bgup2rcd13ifvqco0","pricing_plan_id":"cebpf4jnsgd1na2vs0mg"},{"bike_id":"2f692d02-89a0-4bd0-8302-dc6500f9790d","system_id":"levelo_inurba_marseille","lat":43.309589,"lon":5.390258,"is_reserved":false,"is_disabled":false,"rental_uris":{"android":"levelo://app?vid=2f692d02-89a0-4bd0-8302-dc6500f9790d","ios":"levelo://app?vid=2f692d02-89a0-4bd0-8302-dc6500f9790d"},"vehicle_type_id":"4","last_reported":1724439983,"current_range_meters":5600,"station_id":"ce4bgup2rcd13ifvqco0","pricing_plan_id":"cebpf4jnsgd1na2vs0mg"},{"bike_id":"0319d85a-d69b-4f9e-8917-2da9c87e90b9","system_id":"levelo_inurba_marseille","lat":43.30956,"lon":5.39026,"is_reserved":false,"is_disabled":false,"rental_uris":{"android":"levelo://app?vid=0319d85a-d69b-4f9e-8917-2da9c87e90b9","ios":"levelo://app?vid=0319d85a-d69b-4f9e-8917-2da9c87e90b9"},"vehicle_type_id":"4","last_reported":1724439983,"current_range_meters":4400,"station_id":"ce4bgup2rcd13ifvqco0","pricing_plan_id":"cebpf4jnsgd1na2vs0mg"},{"bike_id":"c4114b55-5068-4100-981d-2be79a374632","system_id":"levelo_inurba_marseille","lat":43.309589,"lon":5.390258,"is_reserved":false,"is_disabled":false,"rental_uris":{"android":"levelo://app?vid=c4114b55-5068-4100-981d-2be79a374632","ios":"levelo://app?vid=c4114b55-5068-4100-981d-2be79a374632"},"vehicle_type_id":"4","last_reported":1724439983,"current_range_meters":19600,"station_id":"ce4bgup2rcd13ifvqco0","pricing_plan_id":"cebpf4jnsgd1na2vs0mg"},{"bike_id":"4b105e75-f7e2-40e3-9943-1d599d585b6d","system_id":"levelo_inurba_marseille","lat":43.30955,"lon":5.39026,"is_reserved":false,"is_disabled":false,"rental_uris":{"android":"levelo://app?vid=4b105e75-f7e2-40e3-9943-1d599d585b6d","ios":"levelo://app?vid=4b105e75-f7e2-40e3-9943-1d599d585b6d"},"vehicle_type_id":"4","last_reported":1724439983,"current_range_meters":28800,"station_id":"ce4bgup2rcd13ifvqco0","pricing_plan_id":"cebpf4jnsgd1na2vs0mg"},{"bike_id":"0414e546-6ab2-48e6-b0ac-9d1f575a1f5c","system_id":"levelo_inurba_marseille","lat":43.3095,"lon":5.39025,"is_reserved":false,"is_disabled":false,"rental_uris":{"android":"levelo://app?vid=0414e546-6ab2-48e6-b0ac-9d1f575a1f5c","ios":"levelo://app?vid=0414e546-6ab2-48e6-b0ac-9d1f575a1f5c"},"vehicle_type_id":"4","last_reported":1724439983,"current_range_meters":5200,"station_id":"ce4bgup2rcd13ifvqco0","pricing_plan_id":"cebpf4jnsgd1na2vs0mg"},{"bike_id":"fbec5fa8-2b19-4919-922e-87d65bfa5fd3","system_id":"levelo_inurba_marseille","lat":43.30956,"lon":5.39027,"is_reserved":false,"is_disabled":false,"rental_uris":{"android":"levelo://app?vid=fbec5fa8-2b19-4919-922e-87d65bfa5fd3","ios":"levelo://app?vid=fbec5fa8-2b19-4919-922e-87d65bfa5fd3"},"vehicle_type_id":"4","last_reported":1724439983,"current_range_meters":19600,"station_id":"ce4bgup2rcd13ifvqco0","pricing_plan_id":"cebpf4jnsgd1na2vs0mg"},{"bike_id":"a233bbe3-603c-4560-9b4f-0fdad02cf9b4","system_id":"levelo_inurba_marseille","lat":43.30952,"lon":5.39027,"is_reserved":false,"is_disabled":false,"rental_uris":{"android":"levelo://app?vid=a233bbe3-603c-4560-9b4f-0fdad02cf9b4","ios":"levelo://app?vid=a233bbe3-603c-4560-9b4f-0fdad02cf9b4"},"vehicle_type_id":"4","last_reported":1724439983,"current_range_meters":14000,"station_id":"ce4bgup2rcd13ifvqco0","pricing_plan_id":"cebpf4jnsgd1na2vs0mg"},{"bike_id":"866907bb-c8ba-46a6-b55e-a0cf38dfc0bc","system_id":"levelo_inurba_marseille","lat":43.30957,"lon":5.39029,"is_reserved":false,"is_disabled":false,"rental_uris":{"android":"levelo://app?vid=866907bb-c8ba-46a6-b55e-a0cf38dfc0bc","ios":"levelo://app?vid=866907bb-c8ba-46a6-b55e-a0cf38dfc0bc"},"vehicle_type_id":"4","last_reported":1724439983,"current_range_meters":29600,"station_id":"ce4bgup2rcd13ifvqco0","pricing_plan_id":"cebpf4jnsgd1na2vs0mg"},{"bike_id":"f5406c7c-a391-4530-9eed-83468e7213f8","system_id":"levelo_inurba_marseille","lat":43.30953,"lon":5.39028,"is_reserved":false,"is_disabled":false,"rental_uris":{"android":"levelo://app?vid=f5406c7c-a391-4530-9eed-83468e7213f8","ios":"levelo://app?vid=f5406c7c-a391-4530-9eed-83468e7213f8"},"vehicle_type_id":"4","last_reported":1724439983,"current_range_meters":30000,"station_id":"ce4bgup2rcd13ifvqco0","pricing_plan_id":"cebpf4jnsgd1na2vs0mg"},{"bike_id":"3f7b8010-2692-4a03-8f75-d8cef33b7d02","system_id":"levelo_inurba_marseille","lat":43.30958,"lon":5.3903,"is_reserved":false,"is_disabled":false,"rental_uris":{"android":"levelo://app?vid=3f7b8010-2692-4a03-8f75-d8cef33b7d02","ios":"levelo://app?vid=3f7b8010-2692-4a03-8f75-d8cef33b7d02"},"vehicle_type_id":"4","last_reported":1724439983,"current_range_meters":8400,"station_id":"ce4bgup2rcd13ifvqco0","pricing_plan_id":"cebpf4jnsgd1na2vs0mg"},{"bike_id":"e91ce0a2-6693-44f1-944e-e136bf10c595","system_id":"levelo_inurba_marseille","lat":43.30953,"lon":5.39029,"is_reserved":false,"is_disabled":false,"rental_uris":{"android":"levelo://app?vid=e91ce0a2-6693-44f1-944e-e136bf10c595","ios":"levelo://app?vid=e91ce0a2-6693-44f1-944e-e136bf10c595"},"vehicle_type_id":"4","last_reported":1724439983,"current_range_meters":8400,"station_id":"ce4bgup2rcd13ifvqco0","pricing_plan_id":"cebpf4jnsgd1na2vs0mg"},{"bike_id":"84253b30-ad8b-4e73-bade-859dc6db521a","system_id":"levelo_inurba_marseille","lat":43.309535,"lon":5.390297,"is_reserved":false,"is_disabled":false,"rental_uris":{"android":"levelo://app?vid=84253b30-ad8b-4e73-bade-859dc6db521a","ios":"levelo://app?vid=84253b30-ad8b-4e73-bade-859dc6db521a"},"vehicle_type_id":"4","last_reported":1724439983,"current_range_meters":24000,"station_id":"ce4bgup2rcd13ifvqco0","pricing_plan_id":"cebpf4jnsgd1na2vs0mg"},{"bike_id":"6df8e13f-1860-46cd-ba1d-c10fcda7929e","system_id":"levelo_inurba_marseille","lat":43.30957,"lon":5.39031,"is_reserved":false,"is_disabled":false,"rental_uris":{"android":"levelo://app?vid=6df8e13f-1860-46cd-ba1d-c10fcda7929e","ios":"levelo://app?vid=6df8e13f-1860-46cd-ba1d-c10fcda7929e"},"vehicle_type_id":"4","last_reported":1724439983,"current_range_meters":8400,"station_id":"ce4bgup2rcd13ifvqco0","pricing_plan_id":"cebpf4jnsgd1na2vs0mg"},{"bike_id":"cda0307c-ab08-4351-8060-e8a22facf687","system_id":"levelo_inurba_marseille","lat":43.30954,"lon":5.39031,"is_reserved":false,"is_disabled":false,"rental_uris":{"android":"levelo://app?vid=cda0307c-ab08-4351-8060-e8a22facf687","ios":"levelo://app?vid=cda0307c-ab08-4351-8060-e8a22facf687"},"vehicle_type_id":"4","last_reported":1724439983,"current_range_meters":9200,"station_id":"ce4bgup2rcd13ifvqco0","pricing_plan_id":"cebpf4jnsgd1na2vs0mg"},{"bike_id":"27ad9b66-e037-414a-9a23-b785c45c6d07","system_id":"levelo_inurba_marseille","lat":43.309589,"lon":5.390258,"is_reserved":false,"is_disabled":false,"rental_uris":{"android":"levelo://app?vid=27ad9b66-e037-414a-9a23-b785c45c6d07","ios":"levelo://app?vid=27ad9b66-e037-414a-9a23-b785c45c6d07"},"vehicle_type_id":"4","last_reported":1724439983,"current_range_meters":31200,"station_id":"ce4bgup2rcd13ifvqco0","pricing_plan_id":"cebpf4jnsgd1na2vs0mg"},{"bike_id":"93d69537-edb0-46c9-90a3-be50a6e7d583","system_id":"levelo_inurba_marseille","lat":43.309589,"lon":5.390258,"is_reserved":false,"is_disabled":false,"rental_uris":{"android":"levelo://app?vid=93d69537-edb0-46c9-90a3-be50a6e7d583","ios":"levelo://app?vid=93d69537-edb0-46c9-90a3-be50a6e7d583"},"vehicle_type_id":"4","last_reported":1724439983,"current_range_meters":4800,"station_id":"ce4bgup2rcd13ifvqco0","pricing_plan_id":"cebpf4jnsgd1na2vs0mg"},{"bike_id":"e6bae6d8-1bdf-42cf-94ad-58338becf440","system_id":"levelo_inurba_marseille","lat":43.309589,"lon":5.390258,"is_reserved":false,"is_disabled":false,"rental_uris":{"android":"levelo://app?vid=e6bae6d8-1bdf-42cf-94ad-58338becf440","ios":"levelo://app?vid=e6bae6d8-1bdf-42cf-94ad-58338becf440"},"vehicle_type_id":"4","last_reported":1724439983,"current_range_meters":3600,"station_id":"ce4bgup2rcd13ifvqco0","pricing_plan_id":"cebpf4jnsgd1na2vs0mg"},{"bike_id":"05e21782-91dc-4a28-8a11-01fd0fb1515c","system_id":"levelo_inurba_marseille","lat":43.309589,"lon":5.390258,"is_reserved":false,"is_disabled":false,"rental_uris":{"android":"levelo://app?vid=05e21782-91dc-4a28-8a11-01fd0fb1515c","ios":"levelo://app?vid=05e21782-91dc-4a28-8a11-01fd0fb1515c"},"vehicle_type_id":"4","last_reported":1724439983,"current_range_meters":24000,"station_id":"ce4bgup2rcd13ifvqco0","pricing_plan_id":"cebpf4jnsgd1na2vs0mg"},{"bike_id":"e41cab10-bcc0-443d-8fb6-b2c034fc6187","system_id":"levelo_inurba_marseille","lat":43.30956,"lon":5.39033,"is_reserved":false,"is_disabled":false,"rental_uris":{"android":"levelo://app?vid=e41cab10-bcc0-443d-8fb6-b2c034fc6187","ios":"levelo://app?vid=e41cab10-bcc0-443d-8fb6-b2c034fc6187"},"vehicle_type_id":"4","last_reported":1724439983,"current_range_meters":12000,"station_id":"ce4bgup2rcd13ifvqco0","pricing_plan_id":"cebpf4jnsgd1na2vs0mg"},{"bike_id":"1d8a3223-7de6-4126-8b51-b317de62d7cb","system_id":"levelo_inurba_marseille","lat":43.30948,"lon":5.39031,"is_reserved":false,"is_disabled":false,"rental_uris":{"android":"levelo://app?vid=1d8a3223-7de6-4126-8b51-b317de62d7cb","ios":"levelo://app?vid=1d8a3223-7de6-4126-8b51-b317de62d7cb"},"vehicle_type_id":"4","last_reported":1724439983,"current_range_meters":23200,"station_id":"ce4bgup2rcd13ifvqco0","pricing_plan_id":"cebpf4jnsgd1na2vs0mg"},{"bike_id":"02c68555-4fa0-4cee-b1b3-4cde03b687e3","system_id":"levelo_inurba_marseille","lat":43.309589,"lon":5.390258,"is_reserved":false,"is_disabled":false,"rental_uris":{"android":"levelo://app?vid=02c68555-4fa0-4cee-b1b3-4cde03b687e3","ios":"levelo://app?vid=02c68555-4fa0-4cee-b1b3-4cde03b687e3"},"vehicle_type_id":"4","last_reported":1724439983,"current_range_meters":10800,"station_id":"ce4bgup2rcd13ifvqco0","pricing_plan_id":"cebpf4jnsgd1na2vs0mg"},{"bike_id":"3b20bb3d-81f1-40c0-8b50-ffc6d5d4cb22","system_id":"levelo_inurba_marseille","lat":43.30953,"lon":5.39033,"is_reserved":false,"is_disabled":false,"rental_uris":{"android":"levelo://app?vid=3b20bb3d-81f1-40c0-8b50-ffc6d5d4cb22","ios":"levelo://app?vid=3b20bb3d-81f1-40c0-8b50-ffc6d5d4cb22"},"vehicle_type_id":"4","last_reported":1724439983,"current_range_meters":25600,"station_id":"ce4bgup2rcd13ifvqco0","pricing_plan_id":"cebpf4jnsgd1na2vs0mg"},{"bike_id":"3f545dad-0d86-4776-bda6-d615bb2dbcfa","system_id":"levelo_inurba_marseille","lat":43.30956,"lon":5.39034,"is_reserved":false,"is_disabled":false,"rental_uris":{"android":"levelo://app?vid=3f545dad-0d86-4776-bda6-d615bb2dbcfa","ios":"levelo://app?vid=3f545dad-0d86-4776-bda6-d615bb2dbcfa"},"vehicle_type_id":"4","last_reported":1724439983,"current_range_meters":24400,"station_id":"ce4bgup2rcd13ifvqco0","pricing_plan_id":"cebpf4jnsgd1na2vs0mg"},{"bike_id":"df7da0d7-9c46-4487-b0b1-5f05fe4dcd18","system_id":"levelo_inurba_marseille","lat":43.30951,"lon":5.39033,"is_reserved":false,"is_disabled":false,"rental_uris":{"android":"levelo://app?vid=df7da0d7-9c46-4487-b0b1-5f05fe4dcd18","ios":"levelo://app?vid=df7da0d7-9c46-4487-b0b1-5f05fe4dcd18"},"vehicle_type_id":"4","last_reported":1724439983,"current_range_meters":13200,"station_id":"ce4bgup2rcd13ifvqco0","pricing_plan_id":"cebpf4jnsgd1na2vs0mg"},{"bike_id":"730228a1-7cff-4dbe-82d5-fb20de1256ce","system_id":"levelo_inurba_marseille","lat":43.309589,"lon":5.390258,"is_reserved":false,"is_disabled":false,"rental_uris":{"android":"levelo://app?vid=730228a1-7cff-4dbe-82d5-fb20de1256ce","ios":"levelo://app?vid=730228a1-7cff-4dbe-82d5-fb20de1256ce"},"vehicle_type_id":"4","last_reported":1724439983,"current_range_meters":11200,"station_id":"ce4bgup2rcd13ifvqco0","pricing_plan_id":"cebpf4jnsgd1na2vs0mg"},{"bike_id":"7998fd82-90e2-4cdf-bfa1-30696d6ed374","system_id":"levelo_inurba_marseille","lat":43.309589,"lon":5.390258,"is_reserved":false,"is_disabled":false,"rental_uris":{"android":"levelo://app?vid=7998fd82-90e2-4cdf-bfa1-30696d6ed374","ios":"levelo://app?vid=7998fd82-90e2-4cdf-bfa1-30696d6ed374"},"vehicle_type_id":"4","last_reported":1724439983,"current_range_meters":20800,"station_id":"ce4bgup2rcd13ifvqco0","pricing_plan_id":"cebpf4jnsgd1na2vs0mg"},{"bike_id":"c7a9f593-c7b8-4799-9c17-fc1a69821dff","system_id":"levelo_inurba_marseille","lat":43.30951,"lon":5.39034,"is_reserved":false,"is_disabled":false,"rental_uris":{"android":"levelo://app?vid=c7a9f593-c7b8-4799-9c17-fc1a69821dff","ios":"levelo://app?vid=c7a9f593-c7b8-4799-9c17-fc1a69821dff"},"vehicle_type_id":"4","last_reported":1724439983,"current_range_meters":6000,"station_id":"ce4bgup2rcd13ifvqco0","pricing_plan_id":"cebpf4jnsgd1na2vs0mg"},{"bike_id":"60a19ad1-3e1e-41e4-b0d2-64821f418292","system_id":"levelo_inurba_marseille","lat":43.309589,"lon":5.390258,"is_reserved":false,"is_disabled":false,"rental_uris":{"android":"levelo://app?vid=60a19ad1-3e1e-41e4-b0d2-64821f418292","ios":"levelo://app?vid=60a19ad1-3e1e-41e4-b0d2-64821f418292"},"vehicle_type_id":"4","last_reported":1724439983,"current_range_meters":31200,"station_id":"ce4bgup2rcd13ifvqco0","pricing_plan_id":"cebpf4jnsgd1na2vs0mg"},{"bike_id":"0e48566e-d653-496c-be82-d6a16bdb279d","system_id":"levelo_inurba_marseille","lat":43.3095,"lon":5.39035,"is_reserved":false,"is_disabled":false,"rental_uris":{"android":"levelo://app?vid=0e48566e-d653-496c-be82-d6a16bdb279d","ios":"levelo://app?vid=0e48566e-d653-496c-be82-d6a16bdb279d"},"vehicle_type_id":"4","last_reported":1724439983,"current_range_meters":15200,"station_id":"ce4bgup2rcd13ifvqco0","pricing_plan_id":"cebpf4jnsgd1na2vs0mg"},{"bike_id":"7f0d61d2-a9cd-49dc-ae89-2dda020345cc","system_id":"levelo_inurba_marseille","lat":43.309428,"lon":5.39034,"is_reserved":false,"is_disabled":false,"rental_uris":{"android":"levelo://app?vid=7f0d61d2-a9cd-49dc-ae89-2dda020345cc","ios":"levelo://app?vid=7f0d61d2-a9cd-49dc-ae89-2dda020345cc"},"vehicle_type_id":"4","last_reported":1724439983,"current_range_meters":0,"station_id":"ce4bgup2rcd13ifvqco0","pricing_plan_id":"cebpf4jnsgd1na2vs0mg"},{"bike_id":"cb1ade17-1368-4166-83e1-9054e895f0c9","system_id":"levelo_inurba_marseille","lat":43.309589,"lon":5.390258,"is_reserved":false,"is_disabled":false,"rental_uris":{"android":"levelo://app?vid=cb1ade17-1368-4166-83e1-9054e895f0c9","ios":"levelo://app?vid=cb1ade17-1368-4166-83e1-9054e895f0c9"},"vehicle_type_id":"4","last_reported":1724439983,"current_range_meters":16000,"station_id":"ce4bgup2rcd13ifvqco0","pricing_plan_id":"cebpf4jnsgd1na2vs0mg"},{"bike_id":"0bec0af6-c069-4fef-8b5f-96ef86a1578c","system_id":"levelo_inurba_marseille","lat":43.309589,"lon":5.390258,"is_reserved":false,"is_disabled":false,"rental_uris":{"android":"levelo://app?vid=0bec0af6-c069-4fef-8b5f-96ef86a1578c","ios":"levelo://app?vid=0bec0af6-c069-4fef-8b5f-96ef86a1578c"},"vehicle_type_id":"4","last_reported":1724439983,"current_range_meters":31200,"station_id":"ce4bgup2rcd13ifvqco0","pricing_plan_id":"cebpf4jnsgd1na2vs0mg"},{"bike_id":"4c7e706e-353d-4349-9cd6-805a398d2890","system_id":"levelo_inurba_marseille","lat":43.30937,"lon":5.39033,"is_reserved":false,"is_disabled":false,"rental_uris":{"android":"levelo://app?vid=4c7e706e-353d-4349-9cd6-805a398d2890","ios":"levelo://app?vid=4c7e706e-353d-4349-9cd6-805a398d2890"},"vehicle_type_id":"4","last_reported":1724439983,"current_range_meters":19200,"station_id":"ce4bgup2rcd13ifvqco0","pricing_plan_id":"cebpf4jnsgd1na2vs0mg"},{"bike_id":"98972b3f-8e60-41ff-8f0e-1e623080f453","system_id":"levelo_inurba_marseille","lat":43.30948,"lon":5.39036,"is_reserved":false,"is_disabled":false,"rental_uris":{"android":"levelo://app?vid=98972b3f-8e60-41ff-8f0e-1e623080f453","ios":"levelo://app?vid=98972b3f-8e60-41ff-8f0e-1e623080f453"},"vehicle_type_id":"4","last_reported":1724439983,"current_range_meters":8800,"station_id":"ce4bgup2rcd13ifvqco0","pricing_plan_id":"cebpf4jnsgd1na2vs0mg"},{"bike_id":"9ff19bb9-0c3a-423b-8a74-7cbf1758f5d3","system_id":"levelo_inurba_marseille","lat":43.309589,"lon":5.390258,"is_reserved":false,"is_disabled":false,"rental_uris":{"android":"levelo://app?vid=9ff19bb9-0c3a-423b-8a74-7cbf1758f5d3","ios":"levelo://app?vid=9ff19bb9-0c3a-423b-8a74-7cbf1758f5d3"},"vehicle_type_id":"4","last_reported":1724439983,"current_range_meters":6400,"station_id":"ce4bgup2rcd13ifvqco0","pricing_plan_id":"cebpf4jnsgd1na2vs0mg"},{"bike_id":"bbb696cb-c2d9-47f7-951a-6cb0f0c529b5","system_id":"levelo_inurba_marseille","lat":43.30951,"lon":5.39038,"is_reserved":false,"is_disabled":false,"rental_uris":{"android":"levelo://app?vid=bbb696cb-c2d9-47f7-951a-6cb0f0c529b5","ios":"levelo://app?vid=bbb696cb-c2d9-47f7-951a-6cb0f0c529b5"},"vehicle_type_id":"4","last_reported":1724439983,"current_range_meters":14800,"station_id":"ce4bgup2rcd13ifvqco0","pricing_plan_id":"cebpf4jnsgd1na2vs0mg"},{"bike_id":"59caac34-ca55-460a-8017-e292bdbc7263","system_id":"levelo_inurba_marseille","lat":43.30952,"lon":5.39039,"is_reserved":false,"is_disabled":false,"rental_uris":{"android":"levelo://app?vid=59caac34-ca55-460a-8017-e292bdbc7263","ios":"levelo://app?vid=59caac34-ca55-460a-8017-e292bdbc7263"},"vehicle_type_id":"4","last_reported":1724439983,"current_range_meters":7200,"station_id":"ce4bgup2rcd13ifvqco0","pricing_plan_id":"cebpf4jnsgd1na2vs0mg"},{"bike_id":"d5da870a-370f-4501-8862-6182f388133a","system_id":"levelo_inurba_marseille","lat":43.30948,"lon":5.39038,"is_reserved":false,"is_disabled":false,"rental_uris":{"android":"levelo://app?vid=d5da870a-370f-4501-8862-6182f388133a","ios":"levelo://app?vid=d5da870a-370f-4501-8862-6182f388133a"},"vehicle_type_id":"4","last_reported":1724439983,"current_range_meters":3200,"station_id":"ce4bgup2rcd13ifvqco0","pricing_plan_id":"cebpf4jnsgd1na2vs0mg"},{"bike_id":"cdd85348-6892-4fef-857f-6f1d09a023aa","system_id":"levelo_inurba_marseille","lat":43.309463,"lon":5.390377,"is_reserved":false,"is_disabled":false,"rental_uris":{"android":"levelo://app?vid=cdd85348-6892-4fef-857f-6f1d09a023aa","ios":"levelo://app?vid=cdd85348-6892-4fef-857f-6f1d09a023aa"},"vehicle_type_id":"4","last_reported":1724439983,"current_range_meters":23200,"station_id":"ce4bgup2rcd13ifvqco0","pricing_plan_id":"cebpf4jnsgd1na2vs0mg"},{"bike_id":"273bc003-e017-4bdc-9953-99632dc56b2e","system_id":"levelo_inurba_marseille","lat":43.30943,"lon":5.39037,"is_reserved":false,"is_disabled":false,"rental_uris":{"android":"levelo://app?vid=273bc003-e017-4bdc-9953-99632dc56b2e","ios":"levelo://app?vid=273bc003-e017-4bdc-9953-99632dc56b2e"},"vehicle_type_id":"4","last_reported":1724439983,"current_range_meters":0,"station_id":"ce4bgup2rcd13ifvqco0","pricing_plan_id":"cebpf4jnsgd1na2vs0mg"},{"bike_id":"5f5b9b3c-de4c-4891-a98c-16b14bd756c8","system_id":"levelo_inurba_marseille","lat":43.30953,"lon":5.3904,"is_reserved":false,"is_disabled":false,"rental_uris":{"android":"levelo://app?vid=5f5b9b3c-de4c-4891-a98c-16b14bd756c8","ios":"levelo://app?vid=5f5b9b3c-de4c-4891-a98c-16b14bd756c8"},"vehicle_type_id":"4","last_reported":1724439983,"current_range_meters":22800,"station_id":"ce4bgup2rcd13ifvqco0","pricing_plan_id":"cebpf4jnsgd1na2vs0mg"},{"bike_id":"5fdf09cf-ab3a-4c73-b398-55beb499702d","system_id":"levelo_inurba_marseille","lat":43.30945,"lon":5.39038,"is_reserved":false,"is_disabled":false,"rental_uris":{"android":"levelo://app?vid=5fdf09cf-ab3a-4c73-b398-55beb499702d","ios":"levelo://app?vid=5fdf09cf-ab3a-4c73-b398-55beb499702d"},"vehicle_type_id":"4","last_reported":1724439983,"current_range_meters":22000,"station_id":"ce4bgup2rcd13ifvqco0","pricing_plan_id":"cebpf4jnsgd1na2vs0mg"},{"bike_id":"e3040317-7434-4b46-b8c8-3e6c02f650d3","system_id":"levelo_inurba_marseille","lat":43.309589,"lon":5.390258,"is_reserved":false,"is_disabled":false,"rental_uris":{"android":"levelo://app?vid=e3040317-7434-4b46-b8c8-3e6c02f650d3","ios":"levelo://app?vid=e3040317-7434-4b46-b8c8-3e6c02f650d3"},"vehicle_type_id":"4","last_reported":1724439983,"current_range_meters":8000,"station_id":"ce4bgup2rcd13ifvqco0","pricing_plan_id":"cebpf4jnsgd1na2vs0mg"},{"bike_id":"0a93403c-990c-400c-963b-b9b1a9bb7533","system_id":"levelo_inurba_marseille","lat":43.30947,"lon":5.39039,"is_reserved":false,"is_disabled":false,"rental_uris":{"android":"levelo://app?vid=0a93403c-990c-400c-963b-b9b1a9bb7533","ios":"levelo://app?vid=0a93403c-990c-400c-963b-b9b1a9bb7533"},"vehicle_type_id":"4","last_reported":1724439983,"current_range_meters":2000,"station_id":"ce4bgup2rcd13ifvqco0","pricing_plan_id":"cebpf4jnsgd1na2vs0mg"},{"bike_id":"82bf6de8-60d9-443a-a50d-ce430644e7d5","system_id":"levelo_inurba_marseille","lat":43.309589,"lon":5.390258,"is_reserved":false,"is_disabled":false,"rental_uris":{"android":"levelo://app?vid=82bf6de8-60d9-443a-a50d-ce430644e7d5","ios":"levelo://app?vid=82bf6de8-60d9-443a-a50d-ce430644e7d5"},"vehicle_type_id":"4","last_reported":1724439983,"current_range_meters":4400,"station_id":"ce4bgup2rcd13ifvqco0","pricing_plan_id":"cebpf4jnsgd1na2vs0mg"},{"bike_id":"ed6d0639-9fef-4462-93de-6c64aa469507","system_id":"levelo_inurba_marseille","lat":43.309477,"lon":5.390397,"is_reserved":false,"is_disabled":false,"rental_uris":{"android":"levelo://app?vid=ed6d0639-9fef-4462-93de-6c64aa469507","ios":"levelo://app?vid=ed6d0639-9fef-4462-93de-6c64aa469507"},"vehicle_type_id":"4","last_reported":1724439983,"current_range_meters":30400,"station_id":"ce4bgup2rcd13ifvqco0","pricing_plan_id":"cebpf4jnsgd1na2vs0mg"},{"bike_id":"8b4ae516-34b3-46ce-8a83-674ce4f42495","system_id":"levelo_inurba_marseille","lat":43.3094,"lon":5.39038,"is_reserved":false,"is_disabled":false,"rental_uris":{"android":"levelo://app?vid=8b4ae516-34b3-46ce-8a83-674ce4f42495","ios":"levelo://app?vid=8b4ae516-34b3-46ce-8a83-674ce4f42495"},"vehicle_type_id":"4","last_reported":1724439983,"current_range_meters":1200,"station_id":"ce4bgup2rcd13ifvqco0","pricing_plan_id":"cebpf4jnsgd1na2vs0mg"},{"bike_id":"533206fa-9d83-474f-8192-826094f374d5","system_id":"levelo_inurba_marseille","lat":43.309518,"lon":5.390415,"is_reserved":false,"is_disabled":false,"rental_uris":{"android":"levelo://app?vid=533206fa-9d83-474f-8192-826094f374d5","ios":"levelo://app?vid=533206fa-9d83-474f-8192-826094f374d5"},"vehicle_type_id":"4","last_reported":1724439983,"current_range_meters":5600,"station_id":"ce4bgup2rcd13ifvqco0","pricing_plan_id":"cebpf4jnsgd1na2vs0mg"},{"bike_id":"fdc65334-36b7-43de-9e8f-2b2691664765","system_id":"levelo_inurba_marseille","lat":43.30956,"lon":5.39043,"is_reserved":false,"is_disabled":false,"rental_uris":{"android":"levelo://app?vid=fdc65334-36b7-43de-9e8f-2b2691664765","ios":"levelo://app?vid=fdc65334-36b7-43de-9e8f-2b2691664765"},"vehicle_type_id":"4","last_reported":1724439983,"current_range_meters":24000,"station_id":"ce4bgup2rcd13ifvqco0","pricing_plan_id":"cebpf4jnsgd1na2vs0mg"},{"bike_id":"e5cd7026-5c29-410e-b4e0-06e7d5e019a2","system_id":"levelo_inurba_marseille","lat":43.30948,"lon":5.39041,"is_reserved":false,"is_disabled":false,"rental_uris":{"android":"levelo://app?vid=e5cd7026-5c29-410e-b4e0-06e7d5e019a2","ios":"levelo://app?vid=e5cd7026-5c29-410e-b4e0-06e7d5e019a2"},"vehicle_type_id":"4","last_reported":1724439983,"current_range_meters":30800,"station_id":"ce4bgup2rcd13ifvqco0","pricing_plan_id":"cebpf4jnsgd1na2vs0mg"},{"bike_id":"21fd0378-c07d-4d2a-a5d7-d736f4c24f09","system_id":"levelo_inurba_marseille","lat":43.30946,"lon":5.39041,"is_reserved":false,"is_disabled":false,"rental_uris":{"android":"levelo://app?vid=21fd0378-c07d-4d2a-a5d7-d736f4c24f09","ios":"levelo://app?vid=21fd0378-c07d-4d2a-a5d7-d736f4c24f09"},"vehicle_type_id":"4","last_reported":1724439983,"current_range_meters":18400,"station_id":"ce4bgup2rcd13ifvqco0","pricing_plan_id":"cebpf4jnsgd1na2vs0mg"},{"bike_id":"5b3c0dee-671f-4cf9-9f53-b72422a692b5","system_id":"levelo_inurba_marseille","lat":43.309589,"lon":5.390258,"is_reserved":false,"is_disabled":false,"rental_uris":{"android":"levelo://app?vid=5b3c0dee-671f-4cf9-9f53-b72422a692b5","ios":"levelo://app?vid=5b3c0dee-671f-4cf9-9f53-b72422a692b5"},"vehicle_type_id":"4","last_reported":1724439983,"current_range_meters":20400,"station_id":"ce4bgup2rcd13ifvqco0","pricing_plan_id":"cebpf4jnsgd1na2vs0mg"},{"bike_id":"f2078324-4d24-4e1a-a2cc-9947b19975c8","system_id":"levelo_inurba_marseille","lat":43.309589,"lon":5.390258,"is_reserved":false,"is_disabled":false,"rental_uris":{"android":"levelo://app?vid=f2078324-4d24-4e1a-a2cc-9947b19975c8","ios":"levelo://app?vid=f2078324-4d24-4e1a-a2cc-9947b19975c8"},"vehicle_type_id":"4","last_reported":1724439983,"current_range_meters":31200,"station_id":"ce4bgup2rcd13ifvqco0","pricing_plan_id":"cebpf4jnsgd1na2vs0mg"},{"bike_id":"a772aab7-1706-459b-bd04-4ca36c8dcfc3","system_id":"levelo_inurba_marseille","lat":43.309332,"lon":5.390382,"is_reserved":false,"is_disabled":false,"rental_uris":{"android":"levelo://app?vid=a772aab7-1706-459b-bd04-4ca36c8dcfc3","ios":"levelo://app?vid=a772aab7-1706-459b-bd04-4ca36c8dcfc3"},"vehicle_type_id":"4","last_reported":1724439983,"current_range_meters":23600,"station_id":"ce4bgup2rcd13ifvqco0","pricing_plan_id":"cebpf4jnsgd1na2vs0mg"},{"bike_id":"7496de56-3447-4859-a949-9a681e080960","system_id":"levelo_inurba_marseille","lat":43.30947,"lon":5.39042,"is_reserved":false,"is_disabled":false,"rental_uris":{"android":"levelo://app?vid=7496de56-3447-4859-a949-9a681e080960","ios":"levelo://app?vid=7496de56-3447-4859-a949-9a681e080960"},"vehicle_type_id":"4","last_reported":1724439983,"current_range_meters":0,"station_id":"ce4bgup2rcd13ifvqco0","pricing_plan_id":"cebpf4jnsgd1na2vs0mg"},{"bike_id":"ffe37b28-fff3-48d7-9bdd-add73c03d590","system_id":"levelo_inurba_marseille","lat":43.3095,"lon":5.39043,"is_reserved":false,"is_disabled":false,"rental_uris":{"android":"levelo://app?vid=ffe37b28-fff3-48d7-9bdd-add73c03d590","ios":"levelo://app?vid=ffe37b28-fff3-48d7-9bdd-add73c03d590"},"vehicle_type_id":"4","last_reported":1724439983,"current_range_meters":4800,"station_id":"ce4bgup2rcd13ifvqco0","pricing_plan_id":"cebpf4jnsgd1na2vs0mg"},{"bike_id":"76953f4a-a6ad-438d-96d0-a1f1c59b33de","system_id":"levelo_inurba_marseille","lat":43.30946,"lon":5.39042,"is_reserved":false,"is_disabled":false,"rental_uris":{"android":"levelo://app?vid=76953f4a-a6ad-438d-96d0-a1f1c59b33de","ios":"levelo://app?vid=76953f4a-a6ad-438d-96d0-a1f1c59b33de"},"vehicle_type_id":"4","last_reported":1724439983,"current_range_meters":19200,"station_id":"ce4bgup2rcd13ifvqco0","pricing_plan_id":"cebpf4jnsgd1na2vs0mg"},{"bike_id":"a57b3b63-b530-4bae-b28b-caae8311f2fb","system_id":"levelo_inurba_marseille","lat":43.30949,"lon":5.39043,"is_reserved":false,"is_disabled":false,"rental_uris":{"android":"levelo://app?vid=a57b3b63-b530-4bae-b28b-caae8311f2fb","ios":"levelo://app?vid=a57b3b63-b530-4bae-b28b-caae8311f2fb"},"vehicle_type_id":"4","last_reported":1724439983,"current_range_meters":28000,"station_id":"ce4bgup2rcd13ifvqco0","pricing_plan_id":"cebpf4jnsgd1na2vs0mg"},{"bike_id":"d3185cb0-5c87-4b19-9fd4-de93f616c0d5","system_id":"levelo_inurba_marseille","lat":43.30945,"lon":5.39042,"is_reserved":false,"is_disabled":false,"rental_uris":{"android":"levelo://app?vid=d3185cb0-5c87-4b19-9fd4-de93f616c0d5","ios":"levelo://app?vid=d3185cb0-5c87-4b19-9fd4-de93f616c0d5"},"vehicle_type_id":"4","last_reported":1724439983,"current_range_meters":22000,"station_id":"ce4bgup2rcd13ifvqco0","pricing_plan_id":"cebpf4jnsgd1na2vs0mg"},{"bike_id":"cbdd2401-6499-4ca9-8022-267c546b290c","system_id":"levelo_inurba_marseille","lat":43.30947,"lon":5.39043,"is_reserved":false,"is_disabled":false,"rental_uris":{"android":"levelo://app?vid=cbdd2401-6499-4ca9-8022-267c546b290c","ios":"levelo://app?vid=cbdd2401-6499-4ca9-8022-267c546b290c"},"vehicle_type_id":"4","last_reported":1724439983,"current_range_meters":6000,"station_id":"ce4bgup2rcd13ifvqco0","pricing_plan_id":"cebpf4jnsgd1na2vs0mg"},{"bike_id":"7244854b-bda0-46b2-85ac-c566b72d0cf1","system_id":"levelo_inurba_marseille","lat":43.30943,"lon":5.390443,"is_reserved":false,"is_disabled":false,"rental_uris":{"android":"levelo://app?vid=7244854b-bda0-46b2-85ac-c566b72d0cf1","ios":"levelo://app?vid=7244854b-bda0-46b2-85ac-c566b72d0cf1"},"vehicle_type_id":"4","last_reported":1724439983,"current_range_meters":8400,"station_id":"ce4bgup2rcd13ifvqco0","pricing_plan_id":"cebpf4jnsgd1na2vs0mg"},{"bike_id":"89a98d18-0591-4341-b3d6-c984283e4ad8","system_id":"levelo_inurba_marseille","lat":43.30954,"lon":5.39049,"is_reserved":false,"is_disabled":false,"rental_uris":{"android":"levelo://app?vid=89a98d18-0591-4341-b3d6-c984283e4ad8","ios":"levelo://app?vid=89a98d18-0591-4341-b3d6-c984283e4ad8"},"vehicle_type_id":"4","last_reported":1724439983,"current_range_meters":4800,"station_id":"ce4bgup2rcd13ifvqco0","pricing_plan_id":"cebpf4jnsgd1na2vs0mg"},{"bike_id":"7491fe9b-e7bb-4fb2-90e8-d1dc6dbdd607","system_id":"levelo_inurba_marseille","lat":43.309589,"lon":5.390258,"is_reserved":false,"is_disabled":false,"rental_uris":{"android":"levelo://app?vid=7491fe9b-e7bb-4fb2-90e8-d1dc6dbdd607","ios":"levelo://app?vid=7491fe9b-e7bb-4fb2-90e8-d1dc6dbdd607"},"vehicle_type_id":"4","last_reported":1724439983,"current_range_meters":31200,"station_id":"ce4bgup2rcd13ifvqco0","pricing_plan_id":"cebpf4jnsgd1na2vs0mg"},{"bike_id":"6bd0aabf-c8f9-45e5-ad36-d9d0ab0bc2d6","system_id":"levelo_inurba_marseille","lat":43.30931,"lon":5.39044,"is_reserved":false,"is_disabled":false,"rental_uris":{"android":"levelo://app?vid=6bd0aabf-c8f9-45e5-ad36-d9d0ab0bc2d6","ios":"levelo://app?vid=6bd0aabf-c8f9-45e5-ad36-d9d0ab0bc2d6"},"vehicle_type_id":"4","last_reported":1724439983,"current_range_meters":4800,"station_id":"ce4bgup2rcd13ifvqco0","pricing_plan_id":"cebpf4jnsgd1na2vs0mg"},{"bike_id":"50eb6a75-84d0-4cc2-b909-fd2732f6573c","system_id":"levelo_inurba_marseille","lat":43.30947,"lon":5.39049,"is_reserved":false,"is_disabled":false,"rental_uris":{"android":"levelo://app?vid=50eb6a75-84d0-4cc2-b909-fd2732f6573c","ios":"levelo://app?vid=50eb6a75-84d0-4cc2-b909-fd2732f6573c"},"vehicle_type_id":"4","last_reported":1724439983,"current_range_meters":6000,"station_id":"ce4bgup2rcd13ifvqco0","pricing_plan_id":"cebpf4jnsgd1na2vs0mg"},{"bike_id":"5103b20b-4e4e-4ed9-a372-885cb1520799","system_id":"levelo_inurba_marseille","lat":43.30938,"lon":5.39049,"is_reserved":false,"is_disabled":false,"rental_uris":{"android":"levelo://app?vid=5103b20b-4e4e-4ed9-a372-885cb1520799","ios":"levelo://app?vid=5103b20b-4e4e-4ed9-a372-885cb1520799"},"vehicle_type_id":"4","last_reported":1724439983,"current_range_meters":11600,"station_id":"ce4bgup2rcd13ifvqco0","pricing_plan_id":"cebpf4jnsgd1na2vs0mg"},{"bike_id":"fba7c451-abe2-4700-a71c-f91f3083ca83","system_id":"levelo_inurba_marseille","lat":43.30946,"lon":5.39052,"is_reserved":false,"is_disabled":false,"rental_uris":{"android":"levelo://app?vid=fba7c451-abe2-4700-a71c-f91f3083ca83","ios":"levelo://app?vid=fba7c451-abe2-4700-a71c-f91f3083ca83"},"vehicle_type_id":"4","last_reported":1724439983,"current_range_meters":31200,"station_id":"ce4bgup2rcd13ifvqco0","pricing_plan_id":"cebpf4jnsgd1na2vs0mg"},{"bike_id":"9142938f-fb12-452f-b209-f5341a61bc7d","system_id":"levelo_inurba_marseille","lat":43.299028,"lon":5.381509,"is_reserved":false,"is_disabled":false,"rental_uris":{"android":"levelo://app?vid=9142938f-fb12-452f-b209-f5341a61bc7d","ios":"levelo://app?vid=9142938f-fb12-452f-b209-f5341a61bc7d"},"vehicle_type_id":"4","last_reported":1724439983,"current_range_meters":19600,"station_id":"ce4bgj12rcd13ifvqbc0","pricing_plan_id":"cebpf4jnsgd1na2vs0mg"},{"bike_id":"935d18fe-0752-4f26-8aa6-59b484f31da3","system_id":"levelo_inurba_marseille","lat":43.317557,"lon":5.390173,"is_reserved":false,"is_disabled":false,"rental_uris":{"android":"levelo://app?vid=935d18fe-0752-4f26-8aa6-59b484f31da3","ios":"levelo://app?vid=935d18fe-0752-4f26-8aa6-59b484f31da3"},"vehicle_type_id":"4","last_reported":1724439983,"current_range_meters":25200,"station_id":"ce4bhqp2rcd13ifvqhng","pricing_plan_id":"cebpf4jnsgd1na2vs0mg"},{"bike_id":"4d2559e5-23cc-4721-8704-7c7283fda1b6","system_id":"levelo_inurba_marseille","lat":43.297993,"lon":5.380893,"is_reserved":false,"is_disabled":false,"rental_uris":{"android":"levelo://app?vid=4d2559e5-23cc-4721-8704-7c7283fda1b6","ios":"levelo://app?vid=4d2559e5-23cc-4721-8704-7c7283fda1b6"},"vehicle_type_id":"4","last_reported":1724439983,"current_range_meters":0,"station_id":"ce4bgip2rcd13ifvqbb0","pricing_plan_id":"cebpf4jnsgd1na2vs0mg"},{"bike_id":"50f15ded-1b4d-441e-a443-f2304b547aea","system_id":"levelo_inurba_marseille","lat":43.295808,"lon":5.375211,"is_reserved":false,"is_disabled":false,"rental_uris":{"android":"levelo://app?vid=50f15ded-1b4d-441e-a443-f2304b547aea","ios":"levelo://app?vid=50f15ded-1b4d-441e-a443-f2304b547aea"},"vehicle_type_id":"4","last_reported":1724439983,"current_range_meters":24400,"station_id":"ce4bgh92rcd13ifvqb50","pricing_plan_id":"cebpf4jnsgd1na2vs0mg"},{"bike_id":"016e9de6-2cf7-4a8d-a748-6964bc6b4465","system_id":"levelo_inurba_marseille","lat":43.298037,"lon":5.381066,"is_reserved":false,"is_disabled":false,"rental_uris":{"android":"levelo://app?vid=016e9de6-2cf7-4a8d-a748-6964bc6b4465","ios":"levelo://app?vid=016e9de6-2cf7-4a8d-a748-6964bc6b4465"},"vehicle_type_id":"4","last_reported":1724439983,"current_range_meters":21600,"station_id":"ce4bgip2rcd13ifvqbb0","pricing_plan_id":"cebpf4jnsgd1na2vs0mg"},{"bike_id":"890f765d-673f-4bd3-ac08-2e098b3b199d","system_id":"levelo_inurba_marseille","lat":43.298037,"lon":5.381066,"is_reserved":false,"is_disabled":false,"rental_uris":{"android":"levelo://app?vid=890f765d-673f-4bd3-ac08-2e098b3b199d","ios":"levelo://app?vid=890f765d-673f-4bd3-ac08-2e098b3b199d"},"vehicle_type_id":"4","last_reported":1724439983,"current_range_meters":19200,"station_id":"ce4bgip2rcd13ifvqbb0","pricing_plan_id":"cebpf4jnsgd1na2vs0mg"},{"bike_id":"6949b701-27c2-4642-b5df-dbed94b5b2b5","system_id":"levelo_inurba_marseille","lat":43.296263,"lon":5.377094,"is_reserved":false,"is_disabled":false,"rental_uris":{"android":"levelo://app?vid=6949b701-27c2-4642-b5df-dbed94b5b2b5","ios":"levelo://app?vid=6949b701-27c2-4642-b5df-dbed94b5b2b5"},"vehicle_type_id":"4","last_reported":1724439983,"current_range_meters":20000,"station_id":"ce4bgi92rcd13ifvqb90","pricing_plan_id":"cebpf4jnsgd1na2vs0mg"},{"bike_id":"679f5ad9-e7d8-434b-bdd3-4f5e4bbc5829","system_id":"levelo_inurba_marseille","lat":43.296263,"lon":5.377094,"is_reserved":false,"is_disabled":false,"rental_uris":{"android":"levelo://app?vid=679f5ad9-e7d8-434b-bdd3-4f5e4bbc5829","ios":"levelo://app?vid=679f5ad9-e7d8-434b-bdd3-4f5e4bbc5829"},"vehicle_type_id":"4","last_reported":1724439983,"current_range_meters":5600,"station_id":"ce4bgi92rcd13ifvqb90","pricing_plan_id":"cebpf4jnsgd1na2vs0mg"},{"bike_id":"cf8dd0c7-bf33-48ee-8eb3-64197e543bf0","system_id":"levelo_inurba_marseille","lat":43.299707,"lon":5.384859,"is_reserved":false,"is_disabled":false,"rental_uris":{"android":"levelo://app?vid=cf8dd0c7-bf33-48ee-8eb3-64197e543bf0","ios":"levelo://app?vid=cf8dd0c7-bf33-48ee-8eb3-64197e543bf0"},"vehicle_type_id":"4","last_reported":1724439983,"current_range_meters":0,"station_id":"ce4bgj92rcd13ifvqbd0","pricing_plan_id":"cebpf4jnsgd1na2vs0mg"},{"bike_id":"9599ad5e-08ce-42f6-a358-58e69e6310e5","system_id":"levelo_inurba_marseille","lat":43.295279,"lon":5.375048,"is_reserved":false,"is_disabled":false,"rental_uris":{"android":"levelo://app?vid=9599ad5e-08ce-42f6-a358-58e69e6310e5","ios":"levelo://app?vid=9599ad5e-08ce-42f6-a358-58e69e6310e5"},"vehicle_type_id":"4","last_reported":1724439983,"current_range_meters":0,"station_id":"ce4bgkp2rcd13ifvqbmg","pricing_plan_id":"cebpf4jnsgd1na2vs0mg"},{"bike_id":"58ea7492-1593-4188-b8cc-61c813c37d0c","system_id":"levelo_inurba_marseille","lat":43.295279,"lon":5.375048,"is_reserved":false,"is_disabled":false,"rental_uris":{"android":"levelo://app?vid=58ea7492-1593-4188-b8cc-61c813c37d0c","ios":"levelo://app?vid=58ea7492-1593-4188-b8cc-61c813c37d0c"},"vehicle_type_id":"4","last_reported":1724439983,"current_range_meters":15200,"station_id":"ce4bgkp2rcd13ifvqbmg","pricing_plan_id":"cebpf4jnsgd1na2vs0mg"},{"bike_id":"7dd66f1b-cae9-4b61-ace3-e92f79390d29","system_id":"levelo_inurba_marseille","lat":43.295279,"lon":5.375048,"is_reserved":false,"is_disabled":false,"rental_uris":{"android":"levelo://app?vid=7dd66f1b-cae9-4b61-ace3-e92f79390d29","ios":"levelo://app?vid=7dd66f1b-cae9-4b61-ace3-e92f79390d29"},"vehicle_type_id":"4","last_reported":1724439983,"current_range_meters":18400,"station_id":"ce4bgkp2rcd13ifvqbmg","pricing_plan_id":"cebpf4jnsgd1na2vs0mg"},{"bike_id":"023a4712-38fa-4428-bff0-12722a26170f","system_id":"levelo_inurba_marseille","lat":43.295279,"lon":5.375048,"is_reserved":false,"is_disabled":false,"rental_uris":{"android":"levelo://app?vid=023a4712-38fa-4428-bff0-12722a26170f","ios":"levelo://app?vid=023a4712-38fa-4428-bff0-12722a26170f"},"vehicle_type_id":"4","last_reported":1724439983,"current_range_meters":19600,"station_id":"ce4bgkp2rcd13ifvqbmg","pricing_plan_id":"cebpf4jnsgd1na2vs0mg"},{"bike_id":"0f5d8844-5df8-42cf-b66a-53049d89f87e","system_id":"levelo_inurba_marseille","lat":43.304646,"lon":5.390024,"is_reserved":false,"is_disabled":false,"rental_uris":{"android":"levelo://app?vid=0f5d8844-5df8-42cf-b66a-53049d89f87e","ios":"levelo://app?vid=0f5d8844-5df8-42cf-b66a-53049d89f87e"},"vehicle_type_id":"4","last_reported":1724439983,"current_range_meters":2400,"station_id":"","pricing_plan_id":"cebpf4jnsgd1na2vs0mg"},{"bike_id":"71d4df72-61de-4e3f-afbe-c7b299076a49","system_id":"levelo_inurba_marseille","lat":43.301396,"lon":5.387812,"is_reserved":false,"is_disabled":false,"rental_uris":{"android":"levelo://app?vid=71d4df72-61de-4e3f-afbe-c7b299076a49","ios":"levelo://app?vid=71d4df72-61de-4e3f-afbe-c7b299076a49"},"vehicle_type_id":"4","last_reported":1724439983,"current_range_meters":12800,"station_id":"ce4bghh2rcd13ifvqb60","pricing_plan_id":"cebpf4jnsgd1na2vs0mg"},{"bike_id":"ae458732-52e0-445c-8240-7e6a3d319012","system_id":"levelo_inurba_marseille","lat":43.32367,"lon":5.388836,"is_reserved":false,"is_disabled":false,"rental_uris":{"android":"levelo://app?vid=ae458732-52e0-445c-8240-7e6a3d319012","ios":"levelo://app?vid=ae458732-52e0-445c-8240-7e6a3d319012"},"vehicle_type_id":"4","last_reported":1724439983,"current_range_meters":17600,"station_id":"ce4bhqp2rcd13ifvqhog","pricing_plan_id":"cebpf4jnsgd1na2vs0mg"},{"bike_id":"bb84110a-bd44-4742-9fc9-f09360a6f6c4","system_id":"levelo_inurba_marseille","lat":43.32364,"lon":5.38889,"is_reserved":false,"is_disabled":false,"rental_uris":{"android":"levelo://app?vid=bb84110a-bd44-4742-9fc9-f09360a6f6c4","ios":"levelo://app?vid=bb84110a-bd44-4742-9fc9-f09360a6f6c4"},"vehicle_type_id":"4","last_reported":1724439983,"current_range_meters":27200,"station_id":"ce4bhqp2rcd13ifvqhog","pricing_plan_id":"cebpf4jnsgd1na2vs0mg"},{"bike_id":"0e659613-b077-4914-8c40-8d0e5df01f64","system_id":"levelo_inurba_marseille","lat":43.29594,"lon":5.38103,"is_reserved":false,"is_disabled":false,"rental_uris":{"android":"levelo://app?vid=0e659613-b077-4914-8c40-8d0e5df01f64","ios":"levelo://app?vid=0e659613-b077-4914-8c40-8d0e5df01f64"},"vehicle_type_id":"4","last_reported":1724439983,"current_range_meters":0,"station_id":"ce4bgl12rcd13ifvqbo0","pricing_plan_id":"cebpf4jnsgd1na2vs0mg"},{"bike_id":"8e5b121b-9367-4379-9ef9-0532fd46119d","system_id":"levelo_inurba_marseille","lat":43.292749,"lon":5.368402,"is_reserved":false,"is_disabled":false,"rental_uris":{"android":"levelo://app?vid=8e5b121b-9367-4379-9ef9-0532fd46119d","ios":"levelo://app?vid=8e5b121b-9367-4379-9ef9-0532fd46119d"},"vehicle_type_id":"4","last_reported":1724439983,"current_range_meters":24800,"station_id":"ce4bhbp2rcd13ifvqesg","pricing_plan_id":"cebpf4jnsgd1na2vs0mg"},{"bike_id":"55d3d115-7dad-4622-9250-8288f924460b","system_id":"levelo_inurba_marseille","lat":43.293249,"lon":5.371578,"is_reserved":false,"is_disabled":false,"rental_uris":{"android":"levelo://app?vid=55d3d115-7dad-4622-9250-8288f924460b","ios":"levelo://app?vid=55d3d115-7dad-4622-9250-8288f924460b"},"vehicle_type_id":"4","last_reported":1724439983,"current_range_meters":24400,"station_id":"ce4bgh92rcd13ifvqb40","pricing_plan_id":"cebpf4jnsgd1na2vs0mg"},{"bike_id":"b11ed647-85c6-40af-a5d5-c282888c9c68","system_id":"levelo_inurba_marseille","lat":43.293259,"lon":5.371586,"is_reserved":false,"is_disabled":false,"rental_uris":{"android":"levelo://app?vid=b11ed647-85c6-40af-a5d5-c282888c9c68","ios":"levelo://app?vid=b11ed647-85c6-40af-a5d5-c282888c9c68"},"vehicle_type_id":"4","last_reported":1724439983,"current_range_meters":25200,"station_id":"ce4bgh92rcd13ifvqb40","pricing_plan_id":"cebpf4jnsgd1na2vs0mg"},{"bike_id":"0d563289-5602-4c85-9f2e-b3976e70a150","system_id":"levelo_inurba_marseille","lat":43.29278,"lon":5.36853,"is_reserved":false,"is_disabled":false,"rental_uris":{"android":"levelo://app?vid=0d563289-5602-4c85-9f2e-b3976e70a150","ios":"levelo://app?vid=0d563289-5602-4c85-9f2e-b3976e70a150"},"vehicle_type_id":"4","last_reported":1724439983,"current_range_meters":3600,"station_id":"ce4bhbp2rcd13ifvqesg","pricing_plan_id":"cebpf4jnsgd1na2vs0mg"},{"bike_id":"250127e2-8ca0-466a-bb8e-aef6d94bc1a2","system_id":"levelo_inurba_marseille","lat":43.292749,"lon":5.368402,"is_reserved":false,"is_disabled":false,"rental_uris":{"android":"levelo://app?vid=250127e2-8ca0-466a-bb8e-aef6d94bc1a2","ios":"levelo://app?vid=250127e2-8ca0-466a-bb8e-aef6d94bc1a2"},"vehicle_type_id":"4","last_reported":1724439983,"current_range_meters":20400,"station_id":"ce4bhbp2rcd13ifvqesg","pricing_plan_id":"cebpf4jnsgd1na2vs0mg"},{"bike_id":"124c5302-6975-449b-aa5a-cd7aa68b0a19","system_id":"levelo_inurba_marseille","lat":43.29304,"lon":5.37183,"is_reserved":false,"is_disabled":false,"rental_uris":{"android":"levelo://app?vid=124c5302-6975-449b-aa5a-cd7aa68b0a19","ios":"levelo://app?vid=124c5302-6975-449b-aa5a-cd7aa68b0a19"},"vehicle_type_id":"4","last_reported":1724439983,"current_range_meters":0,"station_id":"ce4bgh92rcd13ifvqb40","pricing_plan_id":"cebpf4jnsgd1na2vs0mg"},{"bike_id":"b3d9060c-a191-4df0-a5d3-d1beaacc36bd","system_id":"levelo_inurba_marseille","lat":43.29275,"lon":5.36845,"is_reserved":false,"is_disabled":false,"rental_uris":{"android":"levelo://app?vid=b3d9060c-a191-4df0-a5d3-d1beaacc36bd","ios":"levelo://app?vid=b3d9060c-a191-4df0-a5d3-d1beaacc36bd"},"vehicle_type_id":"4","last_reported":1724439983,"current_range_meters":6000,"station_id":"ce4bhbp2rcd13ifvqesg","pricing_plan_id":"cebpf4jnsgd1na2vs0mg"},{"bike_id":"0c10ffdc-f26d-4068-a4fe-76bb186ad1c4","system_id":"levelo_inurba_marseille","lat":43.29274,"lon":5.36854,"is_reserved":false,"is_disabled":false,"rental_uris":{"android":"levelo://app?vid=0c10ffdc-f26d-4068-a4fe-76bb186ad1c4","ios":"levelo://app?vid=0c10ffdc-f26d-4068-a4fe-76bb186ad1c4"},"vehicle_type_id":"4","last_reported":1724439983,"current_range_meters":30800,"station_id":"ce4bhbp2rcd13ifvqesg","pricing_plan_id":"cebpf4jnsgd1na2vs0mg"},{"bike_id":"fc21f6a6-b6ba-4901-a10a-5675891625a6","system_id":"levelo_inurba_marseille","lat":43.292749,"lon":5.368398,"is_reserved":false,"is_disabled":false,"rental_uris":{"android":"levelo://app?vid=fc21f6a6-b6ba-4901-a10a-5675891625a6","ios":"levelo://app?vid=fc21f6a6-b6ba-4901-a10a-5675891625a6"},"vehicle_type_id":"4","last_reported":1724439983,"current_range_meters":0,"station_id":"ce4bhbp2rcd13ifvqesg","pricing_plan_id":"cebpf4jnsgd1na2vs0mg"},{"bike_id":"5ee1db96-7794-443e-8307-c71badd89607","system_id":"levelo_inurba_marseille","lat":43.293009,"lon":5.374584,"is_reserved":false,"is_disabled":false,"rental_uris":{"android":"levelo://app?vid=5ee1db96-7794-443e-8307-c71badd89607","ios":"levelo://app?vid=5ee1db96-7794-443e-8307-c71badd89607"},"vehicle_type_id":"4","last_reported":1724439983,"current_range_meters":14800,"station_id":"ce4bgi12rcd13ifvqb70","pricing_plan_id":"cebpf4jnsgd1na2vs0mg"},{"bike_id":"377aeef8-f552-4837-b3d5-e99c3a140f5f","system_id":"levelo_inurba_marseille","lat":43.292947,"lon":5.374547,"is_reserved":false,"is_disabled":false,"rental_uris":{"android":"levelo://app?vid=377aeef8-f552-4837-b3d5-e99c3a140f5f","ios":"levelo://app?vid=377aeef8-f552-4837-b3d5-e99c3a140f5f"},"vehicle_type_id":"4","last_reported":1724439983,"current_range_meters":400,"station_id":"","pricing_plan_id":"cebpf4jnsgd1na2vs0mg"},{"bike_id":"f7e005b2-9884-455b-a9d2-0933ed0e77cc","system_id":"levelo_inurba_marseille","lat":43.29295,"lon":5.37462,"is_reserved":false,"is_disabled":false,"rental_uris":{"android":"levelo://app?vid=f7e005b2-9884-455b-a9d2-0933ed0e77cc","ios":"levelo://app?vid=f7e005b2-9884-455b-a9d2-0933ed0e77cc"},"vehicle_type_id":"4","last_reported":1724439983,"current_range_meters":14800,"station_id":"ce4bgi12rcd13ifvqb70","pricing_plan_id":"cebpf4jnsgd1na2vs0mg"},{"bike_id":"1fa4784f-78ba-4b12-83a7-ff1242351669","system_id":"levelo_inurba_marseille","lat":43.292915,"lon":5.37454,"is_reserved":false,"is_disabled":false,"rental_uris":{"android":"levelo://app?vid=1fa4784f-78ba-4b12-83a7-ff1242351669","ios":"levelo://app?vid=1fa4784f-78ba-4b12-83a7-ff1242351669"},