{"last_updated":1698354364,"ttl":30,"version":"2.2","data":{"bikes":[{"bike_id":"bad6fb66-4d2a-4206-8f07-1d73ae8b6c1a","system_id":"levelo_inurba_marseille","lat":43.31341,"lon":5.367098,"is_reserved":false,"is_disabled":false,"rental_uris":{"android":"levelo://app?vid=bad6fb66-4d2a-4206-8f07-1d73ae8b6c1a","ios":"levelo://app?vid=bad6fb66-4d2a-4206-8f07-1d73ae8b6c1a"},"vehicle_type_id":"4","last_reported":1698354364,"current_range_meters":0,"station_id":"ce4bgr92rcd13ifvqc6g","pricing_plan_id":"free"},{"bike_id":"0789f6f9-bfbb-4935-9e93-af945abfa499","system_id":"levelo_inurba_marseille","lat":43.312239,"lon":5.368562,"is_reserved":false,"is_disabled":false,"rental_uris":{"android":"levelo://app?vid=0789f6f9-bfbb-4935-9e93-af945abfa499","ios":"levelo://app?vid=0789f6f9-bfbb-4935-9e93-af945abfa499"},"vehicle_type_id":"4","last_reported":1698354364,"current_range_meters":26400,"station_id":"ce4bgl92rcd13ifvqbq0","pricing_plan_id":"free"},{"bike_id":"f5c58904-aeb7-4548-b4b5-9f5e83f269ce","system_id":"levelo_inurba_marseille","lat":43.309797,"lon":5.368093,"is_reserved":false,"is_disabled":false,"rental_uris":{"android":"levelo://app?vid=f5c58904-aeb7-4548-b4b5-9f5e83f269ce","ios":"levelo://app?vid=f5c58904-aeb7-4548-b4b5-9f5e83f269ce"},"vehicle_type_id":"4","last_reported":1698354364,"current_range_meters":0,"station_id":"ce4bgn92rcd13ifvqbvg","pricing_plan_id":"free"},{"bike_id":"dbbdea51-7e3d-4271-bd96-c3aabecbd7e2","system_id":"levelo_inurba_marseille","lat":43.315783,"lon":5.372523,"is_reserved":false,"is_disabled":false,"rental_uris":{"android":"levelo://app?vid=dbbdea51-7e3d-4271-bd96-c3aabecbd7e2","ios":"levelo://app?vid=dbbdea51-7e3d-4271-bd96-c3aabecbd7e2"},"vehicle_type_id":"4","last_reported":1698354364,"current_range_meters":14400,"station_id":"","pricing_plan_id":"free"},{"bike_id":"cf04d626-4cf4-4f35-a4f3-10bebc31c564","system_id":"levelo_inurba_marseille","lat":43.317849,"lon":5.373246,"is_reserved":false,"is_disabled":false,"rental_uris":{"android":"levelo://app?vid=cf04d626-4cf4-4f35-a4f3-10bebc31c564","ios":"levelo://app?vid=cf04d626-4cf4-4f35-a4f3-10bebc31c564"},"vehicle_type_id":"4","last_reported":1698354364,"current_range_meters":3600,"station_id":"","pricing_plan_id":"free"},{"bike_id":"98a1d69b-daee-4a82-a3f9-b5bcdf418a7e","system_id":"levelo_inurba_marseille","lat":43.305444,"lon":5.367054,"is_reserved":false,"is_disabled":false,"rental_uris":{"android":"levelo://app?vid=98a1d69b-daee-4a82-a3f9-b5bcdf418a7e","ios":"levelo://app?vid=98a1d69b-daee-4a82-a3f9-b5bcdf418a7e"},"vehicle_type_id":"4","last_reported":1698354364,"current_range_meters":0,"station_id":"","pricing_plan_id":"free"},{"bike_id":"f252b071-dddd-4e5f-ad07-506846af6d1a","system_id":"levelo_inurba_marseille","lat":43.30543,"lon":5.36527,"is_reserved":false,"is_disabled":false,"rental_uris":{"android":"levelo://app?vid=f252b071-dddd-4e5f-ad07-506846af6d1a","ios":"levelo://app?vid=f252b071-dddd-4e5f-ad07-506846af6d1a"},"vehicle_type_id":"4","last_reported":1698354364,"current_range_meters":27600,"station_id":"ce4bgs12rcd13ifvqcag","pricing_plan_id":"free"},{"bike_id":"1ba929ec-897a-4dd0-96e7-29cd455717f0","system_id":"levelo_inurba_marseille","lat":43.305989,"lon":5.37225,"is_reserved":false,"is_disabled":false,"rental_uris":{"android":"levelo://app?vid=1ba929ec-897a-4dd0-96e7-29cd455717f0","ios":"levelo://app?vid=1ba929ec-897a-4dd0-96e7-29cd455717f0"},"vehicle_type_id":"4","last_reported":1698354364,"current_range_meters":1600,"station_id":"ce4bgqh2rcd13ifvqc4g","pricing_plan_id":"free"},{"bike_id":"e9d8a6b7-0962-46a5-be34-414413df4a43","system_id":"levelo_inurba_marseille","lat":43.305989,"lon":5.37225,"is_reserved":false,"is_disabled":false,"rental_uris":{"android":"levelo://app?vid=e9d8a6b7-0962-46a5-be34-414413df4a43","ios":"levelo://app?vid=e9d8a6b7-0962-46a5-be34-414413df4a43"},"vehicle_type_id":"4","last_reported":1698354364,"current_range_meters":20400,"station_id":"ce4bgqh2rcd13ifvqc4g","pricing_plan_id":"free"},{"bike_id":"2fe6addf-3f28-4e18-9be7-8e324eee151f","system_id":"levelo_inurba_marseille","lat":43.30501,"lon":5.37088,"is_reserved":false,"is_disabled":false,"rental_uris":{"android":"levelo://app?vid=2fe6addf-3f28-4e18-9be7-8e324eee151f","ios":"levelo://app?vid=2fe6addf-3f28-4e18-9be7-8e324eee151f"},"vehicle_type_id":"4","last_reported":1698354364,"current_range_meters":9200,"station_id":"","pricing_plan_id":"free"},{"bike_id":"ad2622fc-6a31-47ff-a6b0-012b621e4519","system_id":"levelo_inurba_marseille","lat":43.317075,"lon":5.377367,"is_reserved":false,"is_disabled":false,"rental_uris":{"android":"levelo://app?vid=ad2622fc-6a31-47ff-a6b0-012b621e4519","ios":"levelo://app?vid=ad2622fc-6a31-47ff-a6b0-012b621e4519"},"vehicle_type_id":"4","last_reported":1698354364,"current_range_meters":19200,"station_id":"ce4bgth2rcd13ifvqch0","pricing_plan_id":"free"},{"bike_id":"5157c626-93b9-48ce-ab32-14a2dfa229fa","system_id":"levelo_inurba_marseille","lat":43.317075,"lon":5.377367,"is_reserved":false,"is_disabled":false,"rental_uris":{"android":"levelo://app?vid=5157c626-93b9-48ce-ab32-14a2dfa229fa","ios":"levelo://app?vid=5157c626-93b9-48ce-ab32-14a2dfa229fa"},"vehicle_type_id":"4","last_reported":1698354364,"current_range_meters":28000,"station_id":"ce4bgth2rcd13ifvqch0","pricing_plan_id":"free"},{"bike_id":"18309fb9-89f5-48c6-b61f-3e076a6cdbfa","system_id":"levelo_inurba_marseille","lat":43.303046,"lon":5.368981,"is_reserved":false,"is_disabled":false,"rental_uris":{"android":"levelo://app?vid=18309fb9-89f5-48c6-b61f-3e076a6cdbfa","ios":"levelo://app?vid=18309fb9-89f5-48c6-b61f-3e076a6cdbfa"},"vehicle_type_id":"4","last_reported":1698354364,"current_range_meters":6400,"station_id":"ce4bgqh2rcd13ifvqc5g","pricing_plan_id":"free"},{"bike_id":"81d103f0-ddc2-4377-821a-48cd8e3cfde2","system_id":"levelo_inurba_marseille","lat":43.303046,"lon":5.368981,"is_reserved":false,"is_disabled":false,"rental_uris":{"android":"levelo://app?vid=81d103f0-ddc2-4377-821a-48cd8e3cfde2","ios":"levelo://app?vid=81d103f0-ddc2-4377-821a-48cd8e3cfde2"},"vehicle_type_id":"4","last_reported":1698354364,"current_range_meters":6400,"station_id":"ce4bgqh2rcd13ifvqc5g","pricing_plan_id":"free"},{"bike_id":"49be05fc-d426-4bcc-9c7a-9d6bfc674fdf","system_id":"levelo_inurba_marseille","lat":43.315293,"lon":5.380349,"is_reserved":false,"is_disabled":false,"rental_uris":{"android":"levelo://app?vid=49be05fc-d426-4bcc-9c7a-9d6bfc674fdf","ios":"levelo://app?vid=49be05fc-d426-4bcc-9c7a-9d6bfc674fdf"},"vehicle_type_id":"4","last_reported":1698354364,"current_range_meters":12800,"station_id":"ce4bhsp2rcd13ifvqi50","pricing_plan_id":"free"},{"bike_id":"c886c8f2-d669-441a-b08a-070060e871d5","system_id":"levelo_inurba_marseille","lat":43.30191,"lon":5.36613,"is_reserved":false,"is_disabled":false,"rental_uris":{"android":"levelo://app?vid=c886c8f2-d669-441a-b08a-070060e871d5","ios":"levelo://app?vid=c886c8f2-d669-441a-b08a-070060e871d5"},"vehicle_type_id":"4","last_reported":1698354364,"current_range_meters":24000,"station_id":"ce4bgrh2rcd13ifvqc8g","pricing_plan_id":"free"},{"bike_id":"c01bf00f-3948-4fb3-a501-7fd45f1e8a71","system_id":"levelo_inurba_marseille","lat":43.308012,"lon":5.381511,"is_reserved":false,"is_disabled":false,"rental_uris":{"android":"levelo://app?vid=c01bf00f-3948-4fb3-a501-7fd45f1e8a71","ios":"levelo://app?vid=c01bf00f-3948-4fb3-a501-7fd45f1e8a71"},"vehicle_type_id":"4","last_reported":1698354364,"current_range_meters":8400,"station_id":"ce4bgt12rcd13ifvqce0","pricing_plan_id":"free"},{"bike_id":"610b04a5-8488-4bcf-ab17-a731755583aa","system_id":"levelo_inurba_marseille","lat":43.304606,"lon":5.379026,"is_reserved":false,"is_disabled":false,"rental_uris":{"android":"levelo://app?vid=610b04a5-8488-4bcf-ab17-a731755583aa","ios":"levelo://app?vid=610b04a5-8488-4bcf-ab17-a731755583aa"},"vehicle_type_id":"4","last_reported":1698354364,"current_range_meters":16400,"station_id":"ce4bgup2rcd13ifvqcn0","pricing_plan_id":"free"},{"bike_id":"1047bcc5-10ff-460b-bd6f-eac1d4a67db4","system_id":"levelo_inurba_marseille","lat":43.31745,"lon":5.382537,"is_reserved":false,"is_disabled":false,"rental_uris":{"android":"levelo://app?vid=1047bcc5-10ff-460b-bd6f-eac1d4a67db4","ios":"levelo://app?vid=1047bcc5-10ff-460b-bd6f-eac1d4a67db4"},"vehicle_type_id":"4","last_reported":1698354364,"current_range_meters":0,"station_id":"","pricing_plan_id":"free"},{"bike_id":"fe2a6d7e-7136-46b0-aa8f-ac3115627a6b","system_id":"levelo_inurba_marseille","lat":43.302784,"lon":5.377158,"is_reserved":false,"is_disabled":false,"rental_uris":{"android":"levelo://app?vid=fe2a6d7e-7136-46b0-aa8f-ac3115627a6b","ios":"levelo://app?vid=fe2a6d7e-7136-46b0-aa8f-ac3115627a6b"},"vehicle_type_id":"4","last_reported":1698354364,"current_range_meters":28800,"station_id":"ce4bguh2rcd13ifvqcj0","pricing_plan_id":"free"},{"bike_id":"230fc298-c5f9-4ac7-8f07-3ba2437473b0","system_id":"levelo_inurba_marseille","lat":43.302784,"lon":5.377158,"is_reserved":false,"is_disabled":false,"rental_uris":{"android":"levelo://app?vid=230fc298-c5f9-4ac7-8f07-3ba2437473b0","ios":"levelo://app?vid=230fc298-c5f9-4ac7-8f07-3ba2437473b0"},"vehicle_type_id":"4","last_reported":1698354364,"current_range_meters":28800,"station_id":"ce4bguh2rcd13ifvqcj0","pricing_plan_id":"free"},{"bike_id":"9f550596-ae09-4b18-b82b-967124a6986f","system_id":"levelo_inurba_marseille","lat":43.301429,"lon":5.37413,"is_reserved":false,"is_disabled":false,"rental_uris":{"android":"levelo://app?vid=9f550596-ae09-4b18-b82b-967124a6986f","ios":"levelo://app?vid=9f550596-ae09-4b18-b82b-967124a6986f"},"vehicle_type_id":"4","last_reported":1698354364,"current_range_meters":16000,"station_id":"ce4bgs92rcd13ifvqcc0","pricing_plan_id":"free"},{"bike_id":"46e59620-997e-486c-a36f-24a6f0541ad5","system_id":"levelo_inurba_marseille","lat":43.319937,"lon":5.381563,"is_reserved":false,"is_disabled":false,"rental_uris":{"android":"levelo://app?vid=46e59620-997e-486c-a36f-24a6f0541ad5","ios":"levelo://app?vid=46e59620-997e-486c-a36f-24a6f0541ad5"},"vehicle_type_id":"4","last_reported":1698354364,"current_range_meters":9200,"station_id":"","pricing_plan_id":"free"},{"bike_id":"bbf9c5d5-2a6f-41ab-85bc-29b392e1e988","system_id":"levelo_inurba_marseille","lat":43.313571,"lon":5.384829,"is_reserved":false,"is_disabled":false,"rental_uris":{"android":"levelo://app?vid=bbf9c5d5-2a6f-41ab-85bc-29b392e1e988","ios":"levelo://app?vid=bbf9c5d5-2a6f-41ab-85bc-29b392e1e988"},"vehicle_type_id":"4","last_reported":1698354364,"current_range_meters":20000,"station_id":"ce4bgt92rcd13ifvqcf0","pricing_plan_id":"free"},{"bike_id":"5e2358d1-432f-475d-a2d4-b492f5d14ba1","system_id":"levelo_inurba_marseille","lat":43.313571,"lon":5.384829,"is_reserved":false,"is_disabled":false,"rental_uris":{"android":"levelo://app?vid=5e2358d1-432f-475d-a2d4-b492f5d14ba1","ios":"levelo://app?vid=5e2358d1-432f-475d-a2d4-b492f5d14ba1"},"vehicle_type_id":"4","last_reported":1698354364,"current_range_meters":14800,"station_id":"ce4bgt92rcd13ifvqcf0","pricing_plan_id":"free"},{"bike_id":"58760f64-c88d-41e8-b0e5-a4aae3fdb6af","system_id":"levelo_inurba_marseille","lat":43.313571,"lon":5.384829,"is_reserved":false,"is_disabled":false,"rental_uris":{"android":"levelo://app?vid=58760f64-c88d-41e8-b0e5-a4aae3fdb6af","ios":"levelo://app?vid=58760f64-c88d-41e8-b0e5-a4aae3fdb6af"},"vehicle_type_id":"4","last_reported":1698354364,"current_range_meters":12400,"station_id":"ce4bgt92rcd13ifvqcf0","pricing_plan_id":"free"},{"bike_id":"e34e6484-87ec-4c57-9515-8cc0eab937e3","system_id":"levelo_inurba_marseille","lat":43.313571,"lon":5.384829,"is_reserved":false,"is_disabled":false,"rental_uris":{"android":"levelo://app?vid=e34e6484-87ec-4c57-9515-8cc0eab937e3","ios":"levelo://app?vid=e34e6484-87ec-4c57-9515-8cc0eab937e3"},"vehicle_type_id":"4","last_reported":1698354364,"current_range_meters":4800,"station_id":"ce4bgt92rcd13ifvqcf0","pricing_plan_id":"free"},{"bike_id":"076a8105-8b31-430d-be4f-88c380827463","system_id":"levelo_inurba_marseille","lat":43.299724,"lon":5.371829,"is_reserved":false,"is_disabled":false,"rental_uris":{"android":"levelo://app?vid=076a8105-8b31-430d-be4f-88c380827463","ios":"levelo://app?vid=076a8105-8b31-430d-be4f-88c380827463"},"vehicle_type_id":"4","last_reported":1698354364,"current_range_meters":1600,"station_id":"ce4bgr92rcd13ifvqc7g","pricing_plan_id":"free"},{"bike_id":"0929cb81-d6d9-49aa-9382-26ceaaacfd93","system_id":"levelo_inurba_marseille","lat":43.29936,"lon":5.36549,"is_reserved":false,"is_disabled":false,"rental_uris":{"android":"levelo://app?vid=0929cb81-d6d9-49aa-9382-26ceaaacfd93","ios":"levelo://app?vid=0929cb81-d6d9-49aa-9382-26ceaaacfd93"},"vehicle_type_id":"4","last_reported":1698354364,"current_range_meters":5200,"station_id":"ce4bgm92rcd13ifvqbr0","pricing_plan_id":"free"},{"bike_id":"52ac6953-0ce2-4cb6-bb20-67a1eb434155","system_id":"levelo_inurba_marseille","lat":43.299724,"lon":5.371829,"is_reserved":false,"is_disabled":false,"rental_uris":{"android":"levelo://app?vid=52ac6953-0ce2-4cb6-bb20-67a1eb434155","ios":"levelo://app?vid=52ac6953-0ce2-4cb6-bb20-67a1eb434155"},"vehicle_type_id":"4","last_reported":1698354364,"current_range_meters":20800,"station_id":"ce4bgr92rcd13ifvqc7g","pricing_plan_id":"free"},{"bike_id":"81eed579-a107-4a6b-893c-e1267319e8ee","system_id":"levelo_inurba_marseille","lat":43.299724,"lon":5.371829,"is_reserved":false,"is_disabled":false,"rental_uris":{"android":"levelo://app?vid=81eed579-a107-4a6b-893c-e1267319e8ee","ios":"levelo://app?vid=81eed579-a107-4a6b-893c-e1267319e8ee"},"vehicle_type_id":"4","last_reported":1698354364,"current_range_meters":12400,"station_id":"ce4bgr92rcd13ifvqc7g","pricing_plan_id":"free"},{"bike_id":"97997ef7-b347-4148-ba57-9a15ecc4912d","system_id":"levelo_inurba_marseille","lat":43.320945,"lon":5.38306,"is_reserved":false,"is_disabled":false,"rental_uris":{"android":"levelo://app?vid=97997ef7-b347-4148-ba57-9a15ecc4912d","ios":"levelo://app?vid=97997ef7-b347-4148-ba57-9a15ecc4912d"},"vehicle_type_id":"4","last_reported":1698354364,"current_range_meters":0,"station_id":"","pricing_plan_id":"free"},{"bike_id":"ba6673ec-4dbb-4e96-9892-74bdd617c201","system_id":"levelo_inurba_marseille","lat":43.305364,"lon":5.384119,"is_reserved":false,"is_disabled":false,"rental_uris":{"android":"levelo://app?vid=ba6673ec-4dbb-4e96-9892-74bdd617c201","ios":"levelo://app?vid=ba6673ec-4dbb-4e96-9892-74bdd617c201"},"vehicle_type_id":"4","last_reported":1698354364,"current_range_meters":10800,"station_id":"ce4bgg92rcd13ifvqb30","pricing_plan_id":"free"},{"bike_id":"833a0712-69e0-45b5-8917-189d768118d7","system_id":"levelo_inurba_marseille","lat":43.298433,"lon":5.362774,"is_reserved":false,"is_disabled":false,"rental_uris":{"android":"levelo://app?vid=833a0712-69e0-45b5-8917-189d768118d7","ios":"levelo://app?vid=833a0712-69e0-45b5-8917-189d768118d7"},"vehicle_type_id":"4","last_reported":1698354364,"current_range_meters":19200,"station_id":"ce4bgpp2rcd13ifvqc3g","pricing_plan_id":"free"},{"bike_id":"0fc5e744-393c-43f8-95a4-a3ce3fe41602","system_id":"levelo_inurba_marseille","lat":43.311722,"lon":5.387247,"is_reserved":false,"is_disabled":false,"rental_uris":{"android":"levelo://app?vid=0fc5e744-393c-43f8-95a4-a3ce3fe41602","ios":"levelo://app?vid=0fc5e744-393c-43f8-95a4-a3ce3fe41602"},"vehicle_type_id":"4","last_reported":1698354364,"current_range_meters":22000,"station_id":"ce4bgv12rcd13ifvqcp0","pricing_plan_id":"free"},{"bike_id":"0b5c4a93-a829-4bbb-a50f-b8327cba654f","system_id":"levelo_inurba_marseille","lat":43.311722,"lon":5.387247,"is_reserved":false,"is_disabled":false,"rental_uris":{"android":"levelo://app?vid=0b5c4a93-a829-4bbb-a50f-b8327cba654f","ios":"levelo://app?vid=0b5c4a93-a829-4bbb-a50f-b8327cba654f"},"vehicle_type_id":"4","last_reported":1698354364,"current_range_meters":25200,"station_id":"ce4bgv12rcd13ifvqcp0","pricing_plan_id":"free"},{"bike_id":"32eebd9a-d1a5-4472-93e6-397797da6433","system_id":"levelo_inurba_marseille","lat":43.311722,"lon":5.387247,"is_reserved":false,"is_disabled":false,"rental_uris":{"android":"levelo://app?vid=32eebd9a-d1a5-4472-93e6-397797da6433","ios":"levelo://app?vid=32eebd9a-d1a5-4472-93e6-397797da6433"},"vehicle_type_id":"4","last_reported":1698354364,"current_range_meters":3600,"station_id":"ce4bgv12rcd13ifvqcp0","pricing_plan_id":"free"},{"bike_id":"7c5b20d2-f439-4147-8381-823021bb16e8","system_id":"levelo_inurba_marseille","lat":43.328371,"lon":5.366909,"is_reserved":false,"is_disabled":false,"rental_uris":{"android":"levelo://app?vid=7c5b20d2-f439-4147-8381-823021bb16e8","ios":"levelo://app?vid=7c5b20d2-f439-4147-8381-823021bb16e8"},"vehicle_type_id":"4","last_reported":1698354364,"current_range_meters":800,"station_id":"ce4bhs92rcd13ifvqi0g","pricing_plan_id":"free"},{"bike_id":"7b472b9e-8cdd-4b79-85e8-9ead6358fbda","system_id":"levelo_inurba_marseille","lat":43.3283,"lon":5.36688,"is_reserved":false,"is_disabled":false,"rental_uris":{"android":"levelo://app?vid=7b472b9e-8cdd-4b79-85e8-9ead6358fbda","ios":"levelo://app?vid=7b472b9e-8cdd-4b79-85e8-9ead6358fbda"},"vehicle_type_id":"4","last_reported":1698354364,"current_range_meters":11600,"station_id":"ce4bhs92rcd13ifvqi0g","pricing_plan_id":"free"},{"bike_id":"2bf09692-7151-4aba-9fa7-8ce1d6106004","system_id":"levelo_inurba_marseille","lat":43.328303,"lon":5.366873,"is_reserved":false,"is_disabled":false,"rental_uris":{"android":"levelo://app?vid=2bf09692-7151-4aba-9fa7-8ce1d6106004","ios":"levelo://app?vid=2bf09692-7151-4aba-9fa7-8ce1d6106004"},"vehicle_type_id":"4","last_reported":1698354364,"current_range_meters":19600,"station_id":"","pricing_plan_id":"free"},{"bike_id":"b3e63496-ef57-4fe7-9649-3ee98b2a4e91","system_id":"levelo_inurba_marseille","lat":43.32831,"lon":5.36697,"is_reserved":false,"is_disabled":false,"rental_uris":{"android":"levelo://app?vid=b3e63496-ef57-4fe7-9649-3ee98b2a4e91","ios":"levelo://app?vid=b3e63496-ef57-4fe7-9649-3ee98b2a4e91"},"vehicle_type_id":"4","last_reported":1698354364,"current_range_meters":16000,"station_id":"ce4bhs92rcd13ifvqi0g","pricing_plan_id":"free"},{"bike_id":"a7f1da11-477d-46e1-91f2-018a257733ac","system_id":"levelo_inurba_marseille","lat":43.328371,"lon":5.366909,"is_reserved":false,"is_disabled":false,"rental_uris":{"android":"levelo://app?vid=a7f1da11-477d-46e1-91f2-018a257733ac","ios":"levelo://app?vid=a7f1da11-477d-46e1-91f2-018a257733ac"},"vehicle_type_id":"4","last_reported":1698354364,"current_range_meters":6800,"station_id":"ce4bhs92rcd13ifvqi0g","pricing_plan_id":"free"},{"bike_id":"206036aa-9aed-4ad9-bc0d-7158e2f594ae","system_id":"levelo_inurba_marseille","lat":43.296131,"lon":5.370773,"is_reserved":false,"is_disabled":false,"rental_uris":{"android":"levelo://app?vid=206036aa-9aed-4ad9-bc0d-7158e2f594ae","ios":"levelo://app?vid=206036aa-9aed-4ad9-bc0d-7158e2f594ae"},"vehicle_type_id":"4","last_reported":1698354364,"current_range_meters":29200,"station_id":"ce4bgnh2rcd13ifvqc0g","pricing_plan_id":"free"},{"bike_id":"a010b51f-ca47-4ebb-a8dc-7a15327f30a2","system_id":"levelo_inurba_marseille","lat":43.296129,"lon":5.370777,"is_reserved":false,"is_disabled":false,"rental_uris":{"android":"levelo://app?vid=a010b51f-ca47-4ebb-a8dc-7a15327f30a2","ios":"levelo://app?vid=a010b51f-ca47-4ebb-a8dc-7a15327f30a2"},"vehicle_type_id":"4","last_reported":1698354364,"current_range_meters":17200,"station_id":"ce4bgnh2rcd13ifvqc0g","pricing_plan_id":"free"},{"bike_id":"a025a6eb-b53d-4b49-8edb-7e6b84409f97","system_id":"levelo_inurba_marseille","lat":43.296129,"lon":5.370777,"is_reserved":false,"is_disabled":false,"rental_uris":{"android":"levelo://app?vid=a025a6eb-b53d-4b49-8edb-7e6b84409f97","ios":"levelo://app?vid=a025a6eb-b53d-4b49-8edb-7e6b84409f97"},"vehicle_type_id":"4","last_reported":1698354364,"current_range_meters":24800,"station_id":"ce4bgnh2rcd13ifvqc0g","pricing_plan_id":"free"},{"bike_id":"3b6ef4c3-1e13-46f4-9ca3-630644cc0f0a","system_id":"levelo_inurba_marseille","lat":43.29573,"lon":5.367355,"is_reserved":false,"is_disabled":false,"rental_uris":{"android":"levelo://app?vid=3b6ef4c3-1e13-46f4-9ca3-630644cc0f0a","ios":"levelo://app?vid=3b6ef4c3-1e13-46f4-9ca3-630644cc0f0a"},"vehicle_type_id":"4","last_reported":1698354364,"current_range_meters":30000,"station_id":"ce4bgph2rcd13ifvqc2g","pricing_plan_id":"free"},{"bike_id":"f3d0381f-7a2d-409e-a12f-bd3d9095653d","system_id":"levelo_inurba_marseille","lat":43.329673,"lon":5.365468,"is_reserved":false,"is_disabled":false,"rental_uris":{"android":"levelo://app?vid=f3d0381f-7a2d-409e-a12f-bd3d9095653d","ios":"levelo://app?vid=f3d0381f-7a2d-409e-a12f-bd3d9095653d"},"vehicle_type_id":"4","last_reported":1698354364,"current_range_meters":11600,"station_id":"","pricing_plan_id":"free"},{"bike_id":"cfc661ad-803f-419e-aa2a-4277625e43d4","system_id":"levelo_inurba_marseille","lat":43.309589,"lon":5.390258,"is_reserved":false,"is_disabled":false,"rental_uris":{"android":"levelo://app?vid=cfc661ad-803f-419e-aa2a-4277625e43d4","ios":"levelo://app?vid=cfc661ad-803f-419e-aa2a-4277625e43d4"},"vehicle_type_id":"4","last_reported":1698354364,"current_range_meters":26000,"station_id":"ce4bgup2rcd13ifvqco0","pricing_plan_id":"free"},{"bike_id":"f481484c-75dc-4bca-98a3-109bbb22363c","system_id":"levelo_inurba_marseille","lat":43.317478,"lon":5.390115,"is_reserved":false,"is_disabled":false,"rental_uris":{"android":"levelo://app?vid=f481484c-75dc-4bca-98a3-109bbb22363c","ios":"levelo://app?vid=f481484c-75dc-4bca-98a3-109bbb22363c"},"vehicle_type_id":"4","last_reported":1698354364,"current_range_meters":11200,"station_id":"","pricing_plan_id":"free"},{"bike_id":"ece252df-cfe1-49e8-b035-e624626557a9","system_id":"levelo_inurba_marseille","lat":43.317557,"lon":5.390173,"is_reserved":false,"is_disabled":false,"rental_uris":{"android":"levelo://app?vid=ece252df-cfe1-49e8-b035-e624626557a9","ios":"levelo://app?vid=ece252df-cfe1-49e8-b035-e624626557a9"},"vehicle_type_id":"4","last_reported":1698354364,"current_range_meters":4000,"station_id":"ce4bhqp2rcd13ifvqhng","pricing_plan_id":"free"},{"bike_id":"25e41252-343c-421c-8172-66ac68dce585","system_id":"levelo_inurba_marseille","lat":43.317557,"lon":5.390173,"is_reserved":false,"is_disabled":false,"rental_uris":{"android":"levelo://app?vid=25e41252-343c-421c-8172-66ac68dce585","ios":"levelo://app?vid=25e41252-343c-421c-8172-66ac68dce585"},"vehicle_type_id":"4","last_reported":1698354364,"current_range_meters":12000,"station_id":"ce4bhqp2rcd13ifvqhng","pricing_plan_id":"free"},{"bike_id":"69f3504c-ebb2-4e3f-a796-498866eec9d7","system_id":"levelo_inurba_marseille","lat":43.304274,"lon":5.388873,"is_reserved":false,"is_disabled":false,"rental_uris":{"android":"levelo://app?vid=69f3504c-ebb2-4e3f-a796-498866eec9d7","ios":"levelo://app?vid=69f3504c-ebb2-4e3f-a796-498866eec9d7"},"vehicle_type_id":"4","last_reported":1698354364,"current_range_meters":28800,"station_id":"ce4bgk12rcd13ifvqbi0","pricing_plan_id":"free"},{"bike_id":"490d717c-3c72-4ba4-97ea-0ebfb88b270e","system_id":"levelo_inurba_marseille","lat":43.296281,"lon":5.377037,"is_reserved":false,"is_disabled":false,"rental_uris":{"android":"levelo://app?vid=490d717c-3c72-4ba4-97ea-0ebfb88b270e","ios":"levelo://app?vid=490d717c-3c72-4ba4-97ea-0ebfb88b270e"},"vehicle_type_id":"4","last_reported":1698354364,"current_range_meters":16400,"station_id":"ce4bgi92rcd13ifvqb90","pricing_plan_id":"free"},{"bike_id":"75c92065-e2a6-4df3-84ce-51f59b90bd44","system_id":"levelo_inurba_marseille","lat":43.304274,"lon":5.388873,"is_reserved":false,"is_disabled":false,"rental_uris":{"android":"levelo://app?vid=75c92065-e2a6-4df3-84ce-51f59b90bd44","ios":"levelo://app?vid=75c92065-e2a6-4df3-84ce-51f59b90bd44"},"vehicle_type_id":"4","last_reported":1698354364,"current_range_meters":4800,"station_id":"ce4bgk12rcd13ifvqbi0","pricing_plan_id":"free"},{"bike_id":"c3825730-1d30-4f3c-bf86-f05c5c56974b","system_id":"levelo_inurba_marseille","lat":43.295748,"lon":5.37522,"is_reserved":false,"is_disabled":false,"rental_uris":{"android":"levelo://app?vid=c3825730-1d30-4f3c-bf86-f05c5c56974b","ios":"levelo://app?vid=c3825730-1d30-4f3c-bf86-f05c5c56974b"},"vehicle_type_id":"4","last_reported":1698354364,"current_range_meters":800,"station_id":"ce4bgh92rcd13ifvqb50","pricing_plan_id":"free"},{"bike_id":"85f5407e-d0a4-4f2c-9324-4236adc698b5","system_id":"levelo_inurba_marseille","lat":43.29987,"lon":5.3849,"is_reserved":false,"is_disabled":false,"rental_uris":{"android":"levelo://app?vid=85f5407e-d0a4-4f2c-9324-4236adc698b5","ios":"levelo://app?vid=85f5407e-d0a4-4f2c-9324-4236adc698b5"},"vehicle_type_id":"4","last_reported":1698354364,"current_range_meters":0,"station_id":"ce4bgj92rcd13ifvqbd0","pricing_plan_id":"free"},{"bike_id":"87bab7b1-0068-413a-8a76-e2431c85fac8","system_id":"levelo_inurba_marseille","lat":43.299717,"lon":5.384845,"is_reserved":false,"is_disabled":false,"rental_uris":{"android":"levelo://app?vid=87bab7b1-0068-413a-8a76-e2431c85fac8","ios":"levelo://app?vid=87bab7b1-0068-413a-8a76-e2431c85fac8"},"vehicle_type_id":"4","last_reported":1698354364,"current_range_meters":25200,"station_id":"ce4bgj92rcd13ifvqbd0","pricing_plan_id":"free"},{"bike_id":"50ba0a4e-dc52-4b36-bbea-ef74378b458b","system_id":"levelo_inurba_marseille","lat":43.29698,"lon":5.3812,"is_reserved":false,"is_disabled":false,"rental_uris":{"android":"levelo://app?vid=50ba0a4e-dc52-4b36-bbea-ef74378b458b","ios":"levelo://app?vid=50ba0a4e-dc52-4b36-bbea-ef74378b458b"},"vehicle_type_id":"4","last_reported":1698354364,"current_range_meters":800,"station_id":"","pricing_plan_id":"free"},{"bike_id":"5e7629c7-7626-4cc0-9939-2688e2172afc","system_id":"levelo_inurba_marseille","lat":43.32367,"lon":5.388836,"is_reserved":false,"is_disabled":false,"rental_uris":{"android":"levelo://app?vid=5e7629c7-7626-4cc0-9939-2688e2172afc","ios":"levelo://app?vid=5e7629c7-7626-4cc0-9939-2688e2172afc"},"vehicle_type_id":"4","last_reported":1698354364,"current_range_meters":5200,"station_id":"ce4bhqp2rcd13ifvqhog","pricing_plan_id":"free"},{"bike_id":"09fa9d39-a5fc-45e0-8d77-a617872af8db","system_id":"levelo_inurba_marseille","lat":43.32367,"lon":5.388836,"is_reserved":false,"is_disabled":false,"rental_uris":{"android":"levelo://app?vid=09fa9d39-a5fc-45e0-8d77-a617872af8db","ios":"levelo://app?vid=09fa9d39-a5fc-45e0-8d77-a617872af8db"},"vehicle_type_id":"4","last_reported":1698354364,"current_range_meters":17200,"station_id":"ce4bhqp2rcd13ifvqhog","pricing_plan_id":"free"},{"bike_id":"cef65dd8-e2a9-4bc6-9bda-0dd66b80ef3f","system_id":"levelo_inurba_marseille","lat":43.323667,"lon":5.388837,"is_reserved":false,"is_disabled":false,"rental_uris":{"android":"levelo://app?vid=cef65dd8-e2a9-4bc6-9bda-0dd66b80ef3f","ios":"levelo://app?vid=cef65dd8-e2a9-4bc6-9bda-0dd66b80ef3f"},"vehicle_type_id":"4","last_reported":1698354364,"current_range_meters":20400,"station_id":"","pricing_plan_id":"free"},{"bike_id":"eb5bc363-d62b-4f46-aa7f-e66fa55022c2","system_id":"levelo_inurba_marseille","lat":43.32411,"lon":5.38893,"is_reserved":false,"is_disabled":false,"rental_uris":{"android":"levelo://app?vid=eb5bc363-d62b-4f46-aa7f-e66fa55022c2","ios":"levelo://app?vid=eb5bc363-d62b-4f46-aa7f-e66fa55022c2"},"vehicle_type_id":"4","last_reported":1698354364,"current_range_meters":21600,"station_id":"ce4bhqp2rcd13ifvqhog","pricing_plan_id":"free"},{"bike_id":"bbab7e28-ee01-4080-b12e-dd8baccd43d0","system_id":"levelo_inurba_marseille","lat":43.32394,"lon":5.389747,"is_reserved":false,"is_disabled":false,"rental_uris":{"android":"levelo://app?vid=bbab7e28-ee01-4080-b12e-dd8baccd43d0","ios":"levelo://app?vid=bbab7e28-ee01-4080-b12e-dd8baccd43d0"},"vehicle_type_id":"4","last_reported":1698354364,"current_range_meters":15600,"station_id":"","pricing_plan_id":"free"},{"bike_id":"26052c3b-a77a-4753-9ed9-bf18485de411","system_id":"levelo_inurba_marseille","lat":43.305994,"lon":5.393687,"is_reserved":false,"is_disabled":false,"rental_uris":{"android":"levelo://app?vid=26052c3b-a77a-4753-9ed9-bf18485de411","ios":"levelo://app?vid=26052c3b-a77a-4753-9ed9-bf18485de411"},"vehicle_type_id":"4","last_reported":1698354364,"current_range_meters":28800,"station_id":"ce4bh0p2rcd13ifvqd80","pricing_plan_id":"free"},{"bike_id":"34dc3cc0-1c2a-4eb8-8738-5f5e6e66fc26","system_id":"levelo_inurba_marseille","lat":43.305994,"lon":5.393687,"is_reserved":false,"is_disabled":false,"rental_uris":{"android":"levelo://app?vid=34dc3cc0-1c2a-4eb8-8738-5f5e6e66fc26","ios":"levelo://app?vid=34dc3cc0-1c2a-4eb8-8738-5f5e6e66fc26"},"vehicle_type_id":"4","last_reported":1698354364,"current_range_meters":20400,"station_id":"ce4bh0p2rcd13ifvqd80","pricing_plan_id":"free"},{"bike_id":"ac239413-8e1a-4d32-9058-a3faef26aed5","system_id":"levelo_inurba_marseille","lat":43.305994,"lon":5.393687,"is_reserved":false,"is_disabled":false,"rental_uris":{"android":"levelo://app?vid=ac239413-8e1a-4d32-9058-a3faef26aed5","ios":"levelo://app?vid=ac239413-8e1a-4d32-9058-a3faef26aed5"},"vehicle_type_id":"4","last_reported":1698354364,"current_range_meters":1600,"station_id":"ce4bh0p2rcd13ifvqd80","pricing_plan_id":"free"},{"bike_id":"7fd600de-5bce-4474-aeac-d6bc5cf29db7","system_id":"levelo_inurba_marseille","lat":43.305994,"lon":5.393687,"is_reserved":false,"is_disabled":false,"rental_uris":{"android":"levelo://app?vid=7fd600de-5bce-4474-aeac-d6bc5cf29db7","ios":"levelo://app?vid=7fd600de-5bce-4474-aeac-d6bc5cf29db7"},"vehicle_type_id":"4","last_reported":1698354364,"current_range_meters":5200,"station_id":"ce4bh0p2rcd13ifvqd80","pricing_plan_id":"free"},{"bike_id":"afe2f863-e7c4-44f9-bd88-e1b637b30103","system_id":"levelo_inurba_marseille","lat":43.305994,"lon":5.393687,"is_reserved":false,"is_disabled":false,"rental_uris":{"android":"levelo://app?vid=afe2f863-e7c4-44f9-bd88-e1b637b30103","ios":"levelo://app?vid=afe2f863-e7c4-44f9-bd88-e1b637b30103"},"vehicle_type_id":"4","last_reported":1698354364,"current_range_meters":10800,"station_id":"ce4bh0p2rcd13ifvqd80","pricing_plan_id":"free"},{"bike_id":"4dcdae9f-5473-40d5-ab38-d4210fe7d778","system_id":"levelo_inurba_marseille","lat":43.305994,"lon":5.393687,"is_reserved":false,"is_disabled":false,"rental_uris":{"android":"levelo://app?vid=4dcdae9f-5473-40d5-ab38-d4210fe7d778","ios":"levelo://app?vid=4dcdae9f-5473-40d5-ab38-d4210fe7d778"},"vehicle_type_id":"4","last_reported":1698354364,"current_range_meters":16800,"station_id":"ce4bh0p2rcd13ifvqd80","pricing_plan_id":"free"},{"bike_id":"ecd7bd0b-ee2d-4762-adc5-7a3021f6a7d2","system_id":"levelo_inurba_marseille","lat":43.292926,"lon":5.374601,"is_reserved":false,"is_disabled":false,"rental_uris":{"android":"levelo://app?vid=ecd7bd0b-ee2d-4762-adc5-7a3021f6a7d2","ios":"levelo://app?vid=ecd7bd0b-ee2d-4762-adc5-7a3021f6a7d2"},"vehicle_type_id":"4","last_reported":1698354364,"current_range_meters":0,"station_id":"ce4bgi12rcd13ifvqb70","pricing_plan_id":"free"},{"bike_id":"a51fbfbe-18d4-49b2-8aa7-193aa36c4444","system_id":"levelo_inurba_marseille","lat":43.292916,"lon":5.37458,"is_reserved":false,"is_disabled":false,"rental_uris":{"android":"levelo://app?vid=a51fbfbe-18d4-49b2-8aa7-193aa36c4444","ios":"levelo://app?vid=a51fbfbe-18d4-49b2-8aa7-193aa36c4444"},"vehicle_type_id":"4","last_reported":1698354364,"current_range_meters":3200,"station_id":"","pricing_plan_id":"free"},{"bike_id":"13286ecf-744e-4f61-8404-252a9710a3f1","system_id":"levelo_inurba_marseille","lat":43.292921,"lon":5.374608,"is_reserved":false,"is_disabled":false,"rental_uris":{"android":"levelo://app?vid=13286ecf-744e-4f61-8404-252a9710a3f1","ios":"levelo://app?vid=13286ecf-744e-4f61-8404-252a9710a3f1"},"vehicle_type_id":"4","last_reported":1698354364,"current_range_meters":0,"station_id":"ce4bgi12rcd13ifvqb70","pricing_plan_id":"free"},{"bike_id":"165d2e80-0d6b-4ce5-a585-849ea20a5d24","system_id":"levelo_inurba_marseille","lat":43.30299,"lon":5.39192,"is_reserved":false,"is_disabled":false,"rental_uris":{"android":"levelo://app?vid=165d2e80-0d6b-4ce5-a585-849ea20a5d24","ios":"levelo://app?vid=165d2e80-0d6b-4ce5-a585-849ea20a5d24"},"vehicle_type_id":"4","last_reported":1698354364,"current_range_meters":0,"station_id":"ce4bgkh2rcd13ifvqbk0","pricing_plan_id":"free"},{"bike_id":"eb36023b-e960-436d-8502-f308ce0f7251","system_id":"levelo_inurba_marseille","lat":43.29224,"lon":5.36059,"is_reserved":false,"is_disabled":false,"rental_uris":{"android":"levelo://app?vid=eb36023b-e960-436d-8502-f308ce0f7251","ios":"levelo://app?vid=eb36023b-e960-436d-8502-f308ce0f7251"},"vehicle_type_id":"4","last_reported":1698354364,"current_range_meters":26400,"station_id":"ce4bhbh2rcd13ifvqeqg","pricing_plan_id":"free"},{"bike_id":"8878545f-669a-437f-b7e3-ce3a51fd2241","system_id":"levelo_inurba_marseille","lat":43.30085,"lon":5.390856,"is_reserved":false,"is_disabled":false,"rental_uris":{"android":"levelo://app?vid=8878545f-669a-437f-b7e3-ce3a51fd2241","ios":"levelo://app?vid=8878545f-669a-437f-b7e3-ce3a51fd2241"},"vehicle_type_id":"4","last_reported":1698354364,"current_range_meters":27200,"station_id":"ce4bh192rcd13ifvqdb0","pricing_plan_id":"free"},{"bike_id":"4165edd2-1d03-49d0-a07c-59cdffa4d1c0","system_id":"levelo_inurba_marseille","lat":43.300852,"lon":5.390859,"is_reserved":false,"is_disabled":false,"rental_uris":{"android":"levelo://app?vid=4165edd2-1d03-49d0-a07c-59cdffa4d1c0","ios":"levelo://app?vid=4165edd2-1d03-49d0-a07c-59cdffa4d1c0"},"vehicle_type_id":"4","last_reported":1698354364,"current_range_meters":14800,"station_id":"ce4bh192rcd13ifvqdb0","pricing_plan_id":"free"},{"bike_id":"de65501c-2ba6-42a8-bdb2-99a84f898df6","system_id":"levelo_inurba_marseille","lat":43.291675,"lon":5.371583,"is_reserved":false,"is_disabled":false,"rental_uris":{"android":"levelo://app?vid=de65501c-2ba6-42a8-bdb2-99a84f898df6","ios":"levelo://app?vid=de65501c-2ba6-42a8-bdb2-99a84f898df6"},"vehicle_type_id":"4","last_reported":1698354364,"current_range_meters":26000,"station_id":"ce4bha92rcd13ifvqeh0","pricing_plan_id":"free"},{"bike_id":"b8f18aa8-95c2-4471-8dad-78992437f2eb","system_id":"levelo_inurba_marseille","lat":43.291675,"lon":5.371583,"is_reserved":false,"is_disabled":false,"rental_uris":{"android":"levelo://app?vid=b8f18aa8-95c2-4471-8dad-78992437f2eb","ios":"levelo://app?vid=b8f18aa8-95c2-4471-8dad-78992437f2eb"},"vehicle_type_id":"4","last_reported":1698354364,"current_range_meters":28400,"station_id":"ce4bha92rcd13ifvqeh0","pricing_plan_id":"free"},{"bike_id":"583849a5-0d41-4204-bd52-8d99b01ddea9","system_id":"levelo_inurba_marseille","lat":43.291675,"lon":5.371583,"is_reserved":false,"is_disabled":false,"rental_uris":{"android":"levelo://app?vid=583849a5-0d41-4204-bd52-8d99b01ddea9","ios":"levelo://app?vid=583849a5-0d41-4204-bd52-8d99b01ddea9"},"vehicle_type_id":"4","last_reported":1698354364,"current_range_meters":22800,"station_id":"ce4bha92rcd13ifvqeh0","pricing_plan_id":"free"},{"bike_id":"575c352c-a0ec-42f6-a755-4cc71f1b37cb","system_id":"levelo_inurba_marseille","lat":43.291671,"lon":5.371575,"is_reserved":false,"is_disabled":false,"rental_uris":{"android":"levelo://app?vid=575c352c-a0ec-42f6-a755-4cc71f1b37cb","ios":"levelo://app?vid=575c352c-a0ec-42f6-a755-4cc71f1b37cb"},"vehicle_type_id":"4","last_reported":1698354364,"current_range_meters":13200,"station_id":"ce4bha92rcd13ifvqeh0","pricing_plan_id":"free"},{"bike_id":"b11a2e6f-fd0a-4d15-9bb6-ea9d35d4b32f","system_id":"levelo_inurba_marseille","lat":43.326632,"lon":5.389508,"is_reserved":false,"is_disabled":false,"rental_uris":{"android":"levelo://app?vid=b11a2e6f-fd0a-4d15-9bb6-ea9d35d4b32f","ios":"levelo://app?vid=b11a2e6f-fd0a-4d15-9bb6-ea9d35d4b32f"},"vehicle_type_id":"4","last_reported":1698354364,"current_range_meters":26800,"station_id":"","pricing_plan_id":"free"},{"bike_id":"09d4e7e4-5801-4d63-8060-7a9d51ca010b","system_id":"levelo_inurba_marseille","lat":43.309038,"lon":5.396546,"is_reserved":false,"is_disabled":false,"rental_uris":{"android":"levelo://app?vid=09d4e7e4-5801-4d63-8060-7a9d51ca010b","ios":"levelo://app?vid=09d4e7e4-5801-4d63-8060-7a9d51ca010b"},"vehicle_type_id":"4","last_reported":1698354364,"current_range_meters":5600,"station_id":"ce4bh012rcd13ifvqcv0","pricing_plan_id":"free"},{"bike_id":"43e199cd-c9eb-42ca-9904-2da5421aad97","system_id":"levelo_inurba_marseille","lat":43.309047,"lon":5.396551,"is_reserved":false,"is_disabled":false,"rental_uris":{"android":"levelo://app?vid=43e199cd-c9eb-42ca-9904-2da5421aad97","ios":"levelo://app?vid=43e199cd-c9eb-42ca-9904-2da5421aad97"},"vehicle_type_id":"4","last_reported":1698354364,"current_range_meters":31200,"station_id":"ce4bh012rcd13ifvqcv0","pricing_plan_id":"free"},{"bike_id":"0838bcbf-6eee-4f49-b9b2-d220f9970dce","system_id":"levelo_inurba_marseille","lat":43.309038,"lon":5.396546,"is_reserved":false,"is_disabled":false,"rental_uris":{"android":"levelo://app?vid=0838bcbf-6eee-4f49-b9b2-d220f9970dce","ios":"levelo://app?vid=0838bcbf-6eee-4f49-b9b2-d220f9970dce"},"vehicle_type_id":"4","last_reported":1698354364,"current_range_meters":30000,"station_id":"ce4bh012rcd13ifvqcv0","pricing_plan_id":"free"},{"bike_id":"e95f2fbb-6e6a-4d8b-84a7-7e85837354f6","system_id":"levelo_inurba_marseille","lat":43.309038,"lon":5.396546,"is_reserved":false,"is_disabled":false,"rental_uris":{"android":"levelo://app?vid=e95f2fbb-6e6a-4d8b-84a7-7e85837354f6","ios":"levelo://app?vid=e95f2fbb-6e6a-4d8b-84a7-7e85837354f6"},"vehicle_type_id":"4","last_reported":1698354364,"current_range_meters":31200,"station_id":"ce4bh012rcd13ifvqcv0","pricing_plan_id":"free"},{"bike_id":"1ea9ae23-769e-457f-9bf1-b109fdeb39f9","system_id":"levelo_inurba_marseille","lat":43.291979,"lon":5.357978,"is_reserved":false,"is_disabled":false,"rental_uris":{"android":"levelo://app?vid=1ea9ae23-769e-457f-9bf1-b109fdeb39f9","ios":"levelo://app?vid=1ea9ae23-769e-457f-9bf1-b109fdeb39f9"},"vehicle_type_id":"4","last_reported":1698354364,"current_range_meters":0,"station_id":"ce4bhb12rcd13ifvqel0","pricing_plan_id":"free"},{"bike_id":"2ce86162-9c3b-4bb6-b3ce-ca57c7b9ee8c","system_id":"levelo_inurba_marseille","lat":43.309038,"lon":5.396546,"is_reserved":false,"is_disabled":false,"rental_uris":{"android":"levelo://app?vid=2ce86162-9c3b-4bb6-b3ce-ca57c7b9ee8c","ios":"levelo://app?vid=2ce86162-9c3b-4bb6-b3ce-ca57c7b9ee8c"},"vehicle_type_id":"4","last_reported":1698354364,"current_range_meters":31200,"station_id":"ce4bh012rcd13ifvqcv0","pricing_plan_id":"free"},{"bike_id":"c865379a-68f7-4118-9ac2-66ef0f42ba73","system_id":"levelo_inurba_marseille","lat":43.309038,"lon":5.396546,"is_reserved":false,"is_disabled":false,"rental_uris":{"android":"levelo://app?vid=c865379a-68f7-4118-9ac2-66ef0f42ba73","ios":"levelo://app?vid=c865379a-68f7-4118-9ac2-66ef0f42ba73"},"vehicle_type_id":"4","last_reported":1698354364,"current_range_meters":31200,"station_id":"ce4bh012rcd13ifvqcv0","pricing_plan_id":"free"},{"bike_id":"37ed3f83-8a0e-4d8e-b253-a46c36f3eee8","system_id":"levelo_inurba_marseille","lat":43.308862,"lon":5.396378,"is_reserved":false,"is_disabled":false,"rental_uris":{"android":"levelo://app?vid=37ed3f83-8a0e-4d8e-b253-a46c36f3eee8","ios":"levelo://app?vid=37ed3f83-8a0e-4d8e-b253-a46c36f3eee8"},"vehicle_type_id":"4","last_reported":1698354364,"current_range_meters":21200,"station_id":"ce4bh012rcd13ifvqcv0","pricing_plan_id":"free"},{"bike_id":"dfacef70-8b7b-4446-92a4-92241579bc69","system_id":"levelo_inurba_marseille","lat":43.313297,"lon":5.396883,"is_reserved":false,"is_disabled":false,"rental_uris":{"android":"levelo://app?vid=dfacef70-8b7b-4446-92a4-92241579bc69","ios":"levelo://app?vid=dfacef70-8b7b-4446-92a4-92241579bc69"},"vehicle_type_id":"4","last_reported":1698354364,"current_range_meters":4000,"station_id":"ce4bgvp2rcd13ifvqcu0","pricing_plan_id":"free"},{"bike_id":"3b771744-6c0f-438a-a147-43e6e8aaff54","system_id":"levelo_inurba_marseille","lat":43.29191,"lon":5.35804,"is_reserved":false,"is_disabled":false,"rental_uris":{"android":"levelo://app?vid=3b771744-6c0f-438a-a147-43e6e8aaff54","ios":"levelo://app?vid=3b771744-6c0f-438a-a147-43e6e8aaff54"},"vehicle_type_id":"4","last_reported":1698354364,"current_range_meters":23200,"station_id":"ce4bhb12rcd13ifvqel0","pricing_plan_id":"free"},{"bike_id":"bced65d4-f95d-4ca7-9ce5-6ae38d7ac6da","system_id":"levelo_inurba_marseille","lat":43.2919,"lon":5.35807,"is_reserved":false,"is_disabled":false,"rental_uris":{"android":"levelo://app?vid=bced65d4-f95d-4ca7-9ce5-6ae38d7ac6da","ios":"levelo://app?vid=bced65d4-f95d-4ca7-9ce5-6ae38d7ac6da"},"vehicle_type_id":"4","last_reported":1698354364,"current_range_meters":14000,"station_id":"ce4bhb12rcd13ifvqel0","pricing_plan_id":"free"},{"bike_id":"74a08fec-8d04-4099-9cdb-6a88bc8733e4","system_id":"levelo_inurba_marseille","lat":43.29191,"lon":5.35801,"is_reserved":false,"is_disabled":false,"rental_uris":{"android":"levelo://app?vid=74a08fec-8d04-4099-9cdb-6a88bc8733e4","ios":"levelo://app?vid=74a08fec-8d04-4099-9cdb-6a88bc8733e4"},"vehicle_type_id":"4","last_reported":1698354364,"current_range_meters":16800,"station_id":"ce4bhb12rcd13ifvqel0","pricing_plan_id":"free"},{"bike_id":"9311829a-230d-4ec8-aca9-741dd60effb4","system_id":"levelo_inurba_marseille","lat":43.309038,"lon":5.396546,"is_reserved":false,"is_disabled":false,"rental_uris":{"android":"levelo://app?vid=9311829a-230d-4ec8-aca9-741dd60effb4","ios":"levelo://app?vid=9311829a-230d-4ec8-aca9-741dd60effb4"},"vehicle_type_id":"4","last_reported":1698354364,"current_range_meters":26000,"station_id":"ce4bh012rcd13ifvqcv0","pricing_plan_id":"free"},{"bike_id":"1da6cc5b-ee3e-414c-9c36-4ed4f030edcf","system_id":"levelo_inurba_marseille","lat":43.31327,"lon":5.39694,"is_reserved":false,"is_disabled":false,"rental_uris":{"android":"levelo://app?vid=1da6cc5b-ee3e-414c-9c36-4ed4f030edcf","ios":"levelo://app?vid=1da6cc5b-ee3e-414c-9c36-4ed4f030edcf"},"vehicle_type_id":"4","last_reported":1698354364,"current_range_meters":0,"station_id":"ce4bgvp2rcd13ifvqcu0","pricing_plan_id":"free"},{"bike_id":"06b83785-26d6-46d8-b1df-e0e63f3ece80","system_id":"levelo_inurba_marseille","lat":43.309038,"lon":5.396546,"is_reserved":false,"is_disabled":false,"rental_uris":{"android":"levelo://app?vid=06b83785-26d6-46d8-b1df-e0e63f3ece80","ios":"levelo://app?vid=06b83785-26d6-46d8-b1df-e0e63f3ece80"},"vehicle_type_id":"4","last_reported":1698354364,"current_range_meters":28800,"station_id":"ce4bh012rcd13ifvqcv0","pricing_plan_id":"free"},{"bike_id":"6f4b0669-2504-4721-a7c7-298db0c5b367","system_id":"levelo_inurba_marseille","lat":43.309038,"lon":5.396546,"is_reserved":false,"is_disabled":false,"rental_uris":{"android":"levelo://app?vid=6f4b0669-2504-4721-a7c7-298db0c5b367","ios":"levelo://app?vid=6f4b0669-2504-4721-a7c7-298db0c5b367"},"vehicle_type_id":"4","last_reported":1698354364,"current_range_meters":5200,"station_id":"ce4bh012rcd13ifvqcv0","pricing_plan_id":"free"},{"bike_id":"bba39dd5-a81e-465a-84d3-5f42f65119db","system_id":"levelo_inurba_marseille","lat":43.309047,"lon":5.396551,"is_reserved":false,"is_disabled":false,"rental_uris":{"android":"levelo://app?vid=bba39dd5-a81e-465a-84d3-5f42f65119db","ios":"levelo://app?vid=bba39dd5-a81e-465a-84d3-5f42f65119db"},"vehicle_type_id":"4","last_reported":1698354364,"current_range_meters":28800,"station_id":"ce4bh012rcd13ifvqcv0","pricing_plan_id":"free"},{"bike_id":"ed97be2c-881f-440a-91fb-e326fd53f316","system_id":"levelo_inurba_marseille","lat":43.309038,"lon":5.396546,"is_reserved":false,"is_disabled":false,"rental_uris":{"android":"levelo://app?vid=ed97be2c-881f-440a-91fb-e326fd53f316","ios":"levelo://app?vid=ed97be2c-881f-440a-91fb-e326fd53f316"},"vehicle_type_id":"4","last_reported":1698354364,"current_range_meters":22800,"station_id":"ce4bh012rcd13ifvqcv0","pricing_plan_id":"free"},{"bike_id":"126d4670-e812-40c6-9f2a-535ee2ec9a6b","system_id":"levelo_inurba_marseille","lat":43.33219,"lon":5.38149,"is_reserved":false,"is_disabled":false,"rental_uris":{"android":"levelo://app?vid=126d4670-e812-40c6-9f2a-535ee2ec9a6b","ios":"levelo://app?vid=126d4670-e812-40c6-9f2a-535ee2ec9a6b"},"vehicle_type_id":"4","last_reported":1698354364,"current_range_meters":2000,"station_id":"","pricing_plan_id":"free"},{"bike_id":"a7f17507-076c-41e0-9e76-fecbcf8fefb3","system_id":"levelo_inurba_marseille","lat":43.308371,"lon":5.39708,"is_reserved":false,"is_disabled":false,"rental_uris":{"android":"levelo://app?vid=a7f17507-076c-41e0-9e76-fecbcf8fefb3","ios":"levelo://app?vid=a7f17507-076c-41e0-9e76-fecbcf8fefb3"},"vehicle_type_id":"4","last_reported":1698354364,"current_range_meters":29200,"station_id":"ce4bh0p2rcd13ifvqd70","pricing_plan_id":"free"},{"bike_id":"6a3ae142-0a9b-4b4b-8276-8ec5a63cf98f","system_id":"levelo_inurba_marseille","lat":43.29907,"lon":5.39165,"is_reserved":false,"is_disabled":false,"rental_uris":{"android":"levelo://app?vid=6a3ae142-0a9b-4b4b-8276-8ec5a63cf98f","ios":"levelo://app?vid=6a3ae142-0a9b-4b4b-8276-8ec5a63cf98f"},"vehicle_type_id":"4","last_reported":1698354364,"current_range_meters":0,"station_id":"","pricing_plan_id":"free"},{"bike_id":"6f0cd629-8a47-4738-a2af-522c0600372e","system_id":"levelo_inurba_marseille","lat":43.30216,"lon":5.3947,"is_reserved":false,"is_disabled":false,"rental_uris":{"android":"levelo://app?vid=6f0cd629-8a47-4738-a2af-522c0600372e","ios":"levelo://app?vid=6f0cd629-8a47-4738-a2af-522c0600372e"},"vehicle_type_id":"4","last_reported":1698354364,"current_range_meters":0,"station_id":"ce4bh0p2rcd13ifvqd70","pricing_plan_id":"free"},{"bike_id":"d445e7dc-8f39-4198-8d15-1838ad42556e","system_id":"levelo_inurba_marseille","lat":43.302156,"lon":5.394707,"is_reserved":false,"is_disabled":false,"rental_uris":{"android":"levelo://app?vid=d445e7dc-8f39-4198-8d15-1838ad42556e","ios":"levelo://app?vid=d445e7dc-8f39-4198-8d15-1838ad42556e"},"vehicle_type_id":"4","last_reported":1698354364,"current_range_meters":11200,"station_id":"ce4bh0p2rcd13ifvqd70","pricing_plan_id":"free"},{"bike_id":"3ba9337c-3a4c-4b79-bb22-9c08f678ee27","system_id":"levelo_inurba_marseille","lat":43.3339,"lon":5.37907,"is_reserved":false,"is_disabled":false,"rental_uris":{"android":"levelo://app?vid=3ba9337c-3a4c-4b79-bb22-9c08f678ee27","ios":"levelo://app?vid=3ba9337c-3a4c-4b79-bb22-9c08f678ee27"},"vehicle_type_id":"4","last_reported":1698354364,"current_range_meters":21200,"station_id":"","pricing_plan_id":"free"},{"bike_id":"d17ad875-3cb6-412e-ace1-8930afe48429","system_id":"levelo_inurba_marseille","lat":43.290624,"lon":5.359245,"is_reserved":false,"is_disabled":false,"rental_uris":{"android":"levelo://app?vid=d17ad875-3cb6-412e-ace1-8930afe48429","ios":"levelo://app?vid=d17ad875-3cb6-412e-ace1-8930afe48429"},"vehicle_type_id":"4","last_reported":1698354364,"current_range_meters":28800,"station_id":"ce4bha92rcd13ifvqeg0","pricing_plan_id":"free"},{"bike_id":"b173834c-2f71-4581-a41f-4c4e3b0f87c8","system_id":"levelo_inurba_marseille","lat":43.290624,"lon":5.359245,"is_reserved":false,"is_disabled":false,"rental_uris":{"android":"levelo://app?vid=b173834c-2f71-4581-a41f-4c4e3b0f87c8","ios":"levelo://app?vid=b173834c-2f71-4581-a41f-4c4e3b0f87c8"},"vehicle_type_id":"4","last_reported":1698354364,"current_range_meters":29200,"station_id":"ce4bha92rcd13ifvqeg0","pricing_plan_id":"free"},{"bike_id":"227c379a-a8dc-420b-9ded-872249a25542","system_id":"levelo_inurba_marseille","lat":43.294162,"lon":5.386292,"is_reserved":false,"is_disabled":false,"rental_uris":{"android":"levelo://app?vid=227c379a-a8dc-420b-9ded-872249a25542","ios":"levelo://app?vid=227c379a-a8dc-420b-9ded-872249a25542"},"vehicle_type_id":"4","last_reported":1698354364,"current_range_meters":15200,"station_id":"ce4bh2h2rcd13ifvqdh0","pricing_plan_id":"free"},{"bike_id":"732c6e7b-b591-422e-9a4b-786075df6f16","system_id":"levelo_inurba_marseille","lat":43.28953,"lon":5.36399,"is_reserved":false,"is_disabled":false,"rental_uris":{"android":"levelo://app?vid=732c6e7b-b591-422e-9a4b-786075df6f16","ios":"levelo://app?vid=732c6e7b-b591-422e-9a4b-786075df6f16"},"vehicle_type_id":"4","last_reported":1698354364,"current_range_meters":9200,"station_id":"ce4bhc92rcd13ifvqetg","pricing_plan_id":"free"},{"bike_id":"6ccc7c11-f6e7-474d-86ca-af6709a8a212","system_id":"levelo_inurba_marseille","lat":43.289468,"lon":5.363719,"is_reserved":false,"is_disabled":false,"rental_uris":{"android":"levelo://app?vid=6ccc7c11-f6e7-474d-86ca-af6709a8a212","ios":"levelo://app?vid=6ccc7c11-f6e7-474d-86ca-af6709a8a212"},"vehicle_type_id":"4","last_reported":1698354364,"current_range_meters":8400,"station_id":"ce4bhc92rcd13ifvqetg","pricing_plan_id":"free"},{"bike_id":"2746a332-fa5a-4902-9915-242e301bdc08","system_id":"levelo_inurba_marseille","lat":43.304296,"lon":5.397513,"is_reserved":false,"is_disabled":false,"rental_uris":{"android":"levelo://app?vid=2746a332-fa5a-4902-9915-242e301bdc08","ios":"levelo://app?vid=2746a332-fa5a-4902-9915-242e301bdc08"},"vehicle_type_id":"4","last_reported":1698354364,"current_range_meters":12800,"station_id":"ce4bh092rcd13ifvqd20","pricing_plan_id":"free"},{"bike_id":"0e37b913-a332-48e2-8480-1a4369889e69","system_id":"levelo_inurba_marseille","lat":43.290995,"lon":5.381361,"is_reserved":false,"is_disabled":false,"rental_uris":{"android":"levelo://app?vid=0e37b913-a332-48e2-8480-1a4369889e69","ios":"levelo://app?vid=0e37b913-a332-48e2-8480-1a4369889e69"},"vehicle_type_id":"4","last_reported":1698354364,"current_range_meters":20400,"station_id":"ce4bh512rcd13ifvqe2g","pricing_plan_id":"free"},{"bike_id":"9c45652b-c754-4cac-b6fa-1e9263298357","system_id":"levelo_inurba_marseille","lat":43.29782,"lon":5.393367,"is_reserved":false,"is_disabled":false,"rental_uris":{"android":"levelo://app?vid=9c45652b-c754-4cac-b6fa-1e9263298357","ios":"levelo://app?vid=9c45652b-c754-4cac-b6fa-1e9263298357"},"vehicle_type_id":"4","last_reported":1698354364,"current_range_meters":11200,"station_id":"chh1huq6cuj3fo74tm60","pricing_plan_id":"free"},{"bike_id":"d41c0e83-fad1-4e2a-bb3a-243e5645f4ed","system_id":"levelo_inurba_marseille","lat":43.29786,"lon":5.39343,"is_reserved":false,"is_disabled":false,"rental_uris":{"android":"levelo://app?vid=d41c0e83-fad1-4e2a-bb3a-243e5645f4ed","ios":"levelo://app?vid=d41c0e83-fad1-4e2a-bb3a-243e5645f4ed"},"vehicle_type_id":"4","last_reported":1698354364,"current_range_meters":19600,"station_id":"chh1huq6cuj3fo74tm60","pricing_plan_id":"free"},{"bike_id":"b38bb324-05e3-4a59-865f-ec471fe0c080","system_id":"levelo_inurba_marseille","lat":43.295169,"lon":5.390426,"is_reserved":false,"is_disabled":false,"rental_uris":{"android":"levelo://app?vid=b38bb324-05e3-4a59-865f-ec471fe0c080","ios":"levelo://app?vid=b38bb324-05e3-4a59-865f-ec471fe0c080"},"vehicle_type_id":"4","last_reported":1698354364,"current_range_meters":16400,"station_id":"ce4bh3p2rcd13ifvqdp0","pricing_plan_id":"free"},{"bike_id":"08a3730f-d77d-4018-a3e7-d551056f77e5","system_id":"levelo_inurba_marseille","lat":43.295169,"lon":5.390426,"is_reserved":false,"is_disabled":false,"rental_uris":{"android":"levelo://app?vid=08a3730f-d77d-4018-a3e7-d551056f77e5","ios":"levelo://app?vid=08a3730f-d77d-4018-a3e7-d551056f77e5"},"vehicle_type_id":"4","last_reported":1698354364,"current_range_meters":31200,"station_id":"ce4bh3p2rcd13ifvqdp0","pricing_plan_id":"free"},{"bike_id":"ae9fe179-7300-4b2a-829a-45acdd82b830","system_id":"levelo_inurba_marseille","lat":43.297815,"lon":5.393548,"is_reserved":false,"is_disabled":false,"rental_uris":{"android":"levelo://app?vid=ae9fe179-7300-4b2a-829a-45acdd82b830","ios":"levelo://app?vid=ae9fe179-7300-4b2a-829a-45acdd82b830"},"vehicle_type_id":"4","last_reported":1698354364,"current_range_meters":29600,"station_id":"chh1huq6cuj3fo74tm60","pricing_plan_id":"free"},{"bike_id":"fd449f75-42fe-4af8-a623-627460ef1162","system_id":"levelo_inurba_marseille","lat":43.297883,"lon":5.393579,"is_reserved":false,"is_disabled":false,"rental_uris":{"android":"levelo://app?vid=fd449f75-42fe-4af8-a623-627460ef1162","ios":"levelo://app?vid=fd449f75-42fe-4af8-a623-627460ef1162"},"vehicle_type_id":"4","last_reported":1698354364,"current_range_meters":0,"station_id":"chh1huq6cuj3fo74tm60","pricing_plan_id":"free"},{"bike_id":"97272e57-b42d-4f6a-ba04-5cdc26df220d","system_id":"levelo_inurba_marseille","lat":43.29525,"lon":5.39037,"is_reserved":false,"is_disabled":false,"rental_uris":{"android":"levelo://app?vid=97272e57-b42d-4f6a-ba04-5cdc26df220d","ios":"levelo://app?vid=97272e57-b42d-4f6a-ba04-5cdc26df220d"},"vehicle_type_id":"4","last_reported":1698354364,"current_range_meters":0,"station_id":"ce4bh3p2rcd13ifvqdp0","pricing_plan_id":"free"},{"bike_id":"8f25f490-dda2-4df9-abce-2436a1996109","system_id":"levelo_inurba_marseille","lat":43.297783,"lon":5.393475,"is_reserved":false,"is_disabled":false,"rental_uris":{"android":"levelo://app?vid=8f25f490-dda2-4df9-abce-2436a1996109","ios":"levelo://app?vid=8f25f490-dda2-4df9-abce-2436a1996109"},"vehicle_type_id":"4","last_reported":1698354364,"current_range_meters":2800,"station_id":"chh1huq6cuj3fo74tm60","pricing_plan_id":"free"},{"bike_id":"2806d0cc-4af1-448a-85c6-87e62fc29e3f","system_id":"levelo_inurba_marseille","lat":43.29786,"lon":5.393559,"is_reserved":false,"is_disabled":false,"rental_uris":{"android":"levelo://app?vid=2806d0cc-4af1-448a-85c6-87e62fc29e3f","ios":"levelo://app?vid=2806d0cc-4af1-448a-85c6-87e62fc29e3f"},"vehicle_type_id":"4","last_reported":1698354364,"current_range_meters":27200,"station_id":"chh1huq6cuj3fo74tm60","pricing_plan_id":"free"},{"bike_id":"67de2047-76bc-4d6d-8966-60e7b4e6ba88","system_id":"levelo_inurba_marseille","lat":43.297768,"lon":5.393462,"is_reserved":false,"is_disabled":false,"rental_uris":{"android":"levelo://app?vid=67de2047-76bc-4d6d-8966-60e7b4e6ba88","ios":"levelo://app?vid=67de2047-76bc-4d6d-8966-60e7b4e6ba88"},"vehicle_type_id":"4","last_reported":1698354364,"current_range_meters":9600,"station_id":"chh1huq6cuj3fo74tm60","pricing_plan_id":"free"},{"bike_id":"2632b656-9bc8-44e3-b9bb-62262cd038d6","system_id":"levelo_inurba_marseille","lat":43.297849,"lon":5.393551,"is_reserved":false,"is_disabled":false,"rental_uris":{"android":"levelo://app?vid=2632b656-9bc8-44e3-b9bb-62262cd038d6","ios":"levelo://app?vid=2632b656-9bc8-44e3-b9bb-62262cd038d6"},"vehicle_type_id":"4","last_reported":1698354364,"current_range_meters":30800,"station_id":"chh1huq6cuj3fo74tm60","pricing_plan_id":"free"},{"bike_id":"9466c333-fdc0-41d0-816e-e467d1ddc525","system_id":"levelo_inurba_marseille","lat":43.29528,"lon":5.39044,"is_reserved":false,"is_disabled":false,"rental_uris":{"android":"levelo://app?vid=9466c333-fdc0-41d0-816e-e467d1ddc525","ios":"levelo://app?vid=9466c333-fdc0-41d0-816e-e467d1ddc525"},"vehicle_type_id":"4","last_reported":1698354364,"current_range_meters":7200,"station_id":"ce4bh3p2rcd13ifvqdp0","pricing_plan_id":"free"},{"bike_id":"bfdee478-73c2-45e2-89b0-c168fd5023c7","system_id":"levelo_inurba_marseille","lat":43.297845,"lon":5.393602,"is_reserved":false,"is_disabled":false,"rental_uris":{"android":"levelo://app?vid=bfdee478-73c2-45e2-89b0-c168fd5023c7","ios":"levelo://app?vid=bfdee478-73c2-45e2-89b0-c168fd5023c7"},"vehicle_type_id":"4","last_reported":1698354364,"current_range_meters":30800,"station_id":"chh1huq6cuj3fo74tm60","pricing_plan_id":"free"},{"bike_id":"b3a3dcef-2001-4e9d-a9c8-834a86fdd243","system_id":"levelo_inurba_marseille","lat":43.29782,"lon":5.39361,"is_reserved":false,"is_disabled":false,"rental_uris":{"android":"levelo://app?vid=b3a3dcef-2001-4e9d-a9c8-834a86fdd243","ios":"levelo://app?vid=b3a3dcef-2001-4e9d-a9c8-834a86fdd243"},"vehicle_type_id":"4","last_reported":1698354364,"current_range_meters":26800,"station_id":"chh1huq6cuj3fo74tm60","pricing_plan_id":"free"},{"bike_id":"f36946ca-813c-43b1-9541-0741a4a70cbe","system_id":"levelo_inurba_marseille","lat":43.3117,"lon":5.4011,"is_reserved":false,"is_disabled":false,"rental_uris":{"android":"levelo://app?vid=f36946ca-813c-43b1-9541-0741a4a70cbe","ios":"levelo://app?vid=f36946ca-813c-43b1-9541-0741a4a70cbe"},"vehicle_type_id":"4","last_reported":1698354364,"current_range_meters":20000,"station_id":"","pricing_plan_id":"free"},{"bike_id":"74ffec3a-5c98-4b44-8d85-a8629470f767","system_id":"levelo_inurba_marseille","lat":43.28856,"lon":5.358371,"is_reserved":false,"is_disabled":false,"rental_uris":{"android":"levelo://app?vid=74ffec3a-5c98-4b44-8d85-a8629470f767","ios":"levelo://app?vid=74ffec3a-5c98-4b44-8d85-a8629470f767"},"vehicle_type_id":"4","last_reported":1698354364,"current_range_meters":31200,"station_id":"ce4bhb12rcd13ifvqem0","pricing_plan_id":"free"},{"bike_id":"36a07af5-a1f0-4bf5-959c-9778bc5f00d3","system_id":"levelo_inurba_marseille","lat":43.28856,"lon":5.358371,"is_reserved":false,"is_disabled":false,"rental_uris":{"android":"levelo://app?vid=36a07af5-a1f0-4bf5-959c-9778bc5f00d3","ios":"levelo://app?vid=36a07af5-a1f0-4bf5-959c-9778bc5f00d3"},"vehicle_type_id":"4","last_reported":1698354364,"current_range_meters":20400,"station_id":"ce4bhb12rcd13ifvqem0","pricing_plan_id":"free"},{"bike_id":"273b4e50-354d-4fc5-bbb3-b6b9fa59133e","system_id":"levelo_inurba_marseille","lat":43.28856,"lon":5.358371,"is_reserved":false,"is_disabled":false,"rental_uris":{"android":"levelo://app?vid=273b4e50-354d-4fc5-bbb3-b6b9fa59133e","ios":"levelo://app?vid=273b4e50-354d-4fc5-bbb3-b6b9fa59133e"},"vehicle_type_id":"4","last_reported":1698354364,"current_range_meters":31200,"station_id":"ce4bhb12rcd13ifvqem0","pricing_plan_id":"free"},{"bike_id":"e7470121-448a-4e11-8c0a-0655a5b430ec","system_id":"levelo_inurba_marseille","lat":43.28856,"lon":5.358371,"is_reserved":false,"is_disabled":false,"rental_uris":{"android":"levelo://app?vid=e7470121-448a-4e11-8c0a-0655a5b430ec","ios":"levelo://app?vid=e7470121-448a-4e11-8c0a-0655a5b430ec"},"vehicle_type_id":"4","last_reported":1698354364,"current_range_meters":0,"station_id":"ce4bhb12rcd13ifvqem0","pricing_plan_id":"free"},{"bike_id":"15c7d270-bd77-44b9-8b27-17a88b785ab8","system_id":"levelo_inurba_marseille","lat":43.28856,"lon":5.358371,"is_reserved":false,"is_disabled":false,"rental_uris":{"android":"levelo://app?vid=15c7d270-bd77-44b9-8b27-17a88b785ab8","ios":"levelo://app?vid=15c7d270-bd77-44b9-8b27-17a88b785ab8"},"vehicle_type_id":"4","last_reported":1698354364,"current_range_meters":17200,"station_id":"ce4bhb12rcd13ifvqem0","pricing_plan_id":"free"},{"bike_id":"471ec662-c9d3-4e43-878b-e25d3af38073","system_id":"levelo_inurba_marseille","lat":43.306412,"lon":5.401035,"is_reserved":false,"is_disabled":false,"rental_uris":{"android":"levelo://app?vid=471ec662-c9d3-4e43-878b-e25d3af38073","ios":"levelo://app?vid=471ec662-c9d3-4e43-878b-e25d3af38073"},"vehicle_type_id":"4","last_reported":1698354364,"current_range_meters":25200,"station_id":"ce4bh112rcd13ifvqda0","pricing_plan_id":"free"},{"bike_id":"68886f0b-e03c-45c7-aac2-9de6faae0ed8","system_id":"levelo_inurba_marseille","lat":43.30642,"lon":5.401031,"is_reserved":false,"is_disabled":false,"rental_uris":{"android":"levelo://app?vid=68886f0b-e03c-45c7-aac2-9de6faae0ed8","ios":"levelo://app?vid=68886f0b-e03c-45c7-aac2-9de6faae0ed8"},"vehicle_type_id":"4","last_reported":1698354364,"current_range_meters":11200,"station_id":"ce4bh112rcd13ifvqda0","pricing_plan_id":"free"},{"bike_id":"94f2ff02-f361-41f3-9ffb-dcef1dd6a897","system_id":"levelo_inurba_marseille","lat":43.306412,"lon":5.401035,"is_reserved":false,"is_disabled":false,"rental_uris":{"android":"levelo://app?vid=94f2ff02-f361-41f3-9ffb-dcef1dd6a897","ios":"levelo://app?vid=94f2ff02-f361-41f3-9ffb-dcef1dd6a897"},"vehicle_type_id":"4","last_reported":1698354364,"current_range_meters":10000,"station_id":"ce4bh112rcd13ifvqda0","pricing_plan_id":"free"},{"bike_id":"db7736dc-a780-4cd0-a5c8-97a369b46640","system_id":"levelo_inurba_marseille","lat":43.301117,"lon":5.398795,"is_reserved":false,"is_disabled":false,"rental_uris":{"android":"levelo://app?vid=db7736dc-a780-4cd0-a5c8-97a369b46640","ios":"levelo://app?vid=db7736dc-a780-4cd0-a5c8-97a369b46640"},"vehicle_type_id":"4","last_reported":1698354364,"current_range_meters":31200,"station_id":"ce4bh0h2rcd13ifvqd40","pricing_plan_id":"free"},{"bike_id":"67669660-6cbe-4d81-9e42-8ae27d1c7720","system_id":"levelo_inurba_marseille","lat":43.30642,"lon":5.401031,"is_reserved":false,"is_disabled":false,"rental_uris":{"android":"levelo://app?vid=67669660-6cbe-4d81-9e42-8ae27d1c7720","ios":"levelo://app?vid=67669660-6cbe-4d81-9e42-8ae27d1c7720"},"vehicle_type_id":"4","last_reported":1698354364,"current_range_meters":0,"station_id":"ce4bh112rcd13ifvqda0","pricing_plan_id":"free"},{"bike_id":"4adb3097-54f3-4ae0-9c4c-79211240a69a","system_id":"levelo_inurba_marseille","lat":43.301117,"lon":5.398795,"is_reserved":false,"is_disabled":false,"rental_uris":{"android":"levelo://app?vid=4adb3097-54f3-4ae0-9c4c-79211240a69a","ios":"levelo://app?vid=4adb3097-54f3-4ae0-9c4c-79211240a69a"},"vehicle_type_id":"4","last_reported":1698354364,"current_range_meters":12400,"station_id":"ce4bh0h2rcd13ifvqd40","pricing_plan_id":"free"},{"bike_id":"c91b4a7c-4760-4f43-9758-c12e67840d18","system_id":"levelo_inurba_marseille","lat":43.301117,"lon":5.398795,"is_reserved":false,"is_disabled":false,"rental_uris":{"android":"levelo://app?vid=c91b4a7c-4760-4f43-9758-c12e67840d18","ios":"levelo://app?vid=c91b4a7c-4760-4f43-9758-c12e67840d18"},"vehicle_type_id":"4","last_reported":1698354364,"current_range_meters":31200,"station_id":"ce4bh0h2rcd13ifvqd40","pricing_plan_id":"free"},{"bike_id":"2f78e389-f055-4cd6-a1d2-2cba5ca08b85","system_id":"levelo_inurba_marseille","lat":43.301117,"lon":5.398795,"is_reserved":false,"is_disabled":false,"rental_uris":{"android":"levelo://app?vid=2f78e389-f055-4cd6-a1d2-2cba5ca08b85","ios":"levelo://app?vid=2f78e389-f055-4cd6-a1d2-2cba5ca08b85"},"vehicle_type_id":"4","last_reported":1698354364,"current_range_meters":31200,"station_id":"ce4bh0h2rcd13ifvqd40","pricing_plan_id":"free"},{"bike_id":"b034f4eb-c4a5-42ca-9b3b-7983cb9ca9ff","system_id":"levelo_inurba_marseille","lat":43.301117,"lon":5.398795,"is_reserved":false,"is_disabled":false,"rental_uris":{"android":"levelo://app?vid=b034f4eb-c4a5-42ca-9b3b-7983cb9ca9ff","ios":"levelo://app?vid=b034f4eb-c4a5-42ca-9b3b-7983cb9ca9ff"},"vehicle_type_id":"4","last_reported":1698354364,"current_range_meters":31200,"station_id":"ce4bh0h2rcd13ifvqd40","pricing_plan_id":"free"},{"bike_id":"44a0281b-a5ac-4403-9dfe-7edbc356f81b","system_id":"levelo_inurba_marseille","lat":43.301117,"lon":5.398795,"is_reserved":false,"is_disabled":false,"rental_uris":{"android":"levelo://app?vid=44a0281b-a5ac-4403-9dfe-7edbc356f81b","ios":"levelo://app?vid=44a0281b-a5ac-4403-9dfe-7edbc356f81b"},"vehicle_type_id":"4","last_reported":1698354364,"current_range_meters":31200,"station_id":"ce4bh0h2rcd13ifvqd40","pricing_plan_id":"free"},{"bike_id":"c86e6af5-a7e5-418d-9393-27d8a437ee64","system_id":"levelo_inurba_marseille","lat":43.28727,"lon":5.36078,"is_reserved":false,"is_disabled":false,"rental_uris":{"android":"levelo://app?vid=c86e6af5-a7e5-418d-9393-27d8a437ee64","ios":"levelo://app?vid=c86e6af5-a7e5-418d-9393-27d8a437ee64"},"vehicle_type_id":"4","last_reported":1698354364,"current_range_meters":6800,"station_id":"cki0cbj6b192h4jlfktg","pricing_plan_id":"free"},{"bike_id":"6525955a-30af-4ec2-ab96-435237b14afa","system_id":"levelo_inurba_marseille","lat":43.30127,"lon":5.39862,"is_reserved":false,"is_disabled":false,"rental_uris":{"android":"levelo://app?vid=6525955a-30af-4ec2-ab96-435237b14afa","ios":"levelo://app?vid=6525955a-30af-4ec2-ab96-435237b14afa"},"vehicle_type_id":"4","last_reported":1698354364,"current_range_meters":31600,"station_id":"ce4bh0h2rcd13ifvqd40","pricing_plan_id":"free"},{"bike_id":"7e369211-6b49-47c8-80bc-dd9f9a4be61c","system_id":"levelo_inurba_marseille","lat":43.301117,"lon":5.398795,"is_reserved":false,"is_disabled":false,"rental_uris":{"android":"levelo://app?vid=7e369211-6b49-47c8-80bc-dd9f9a4be61c","ios":"levelo://app?vid=7e369211-6b49-47c8-80bc-dd9f9a4be61c"},"vehicle_type_id":"4","last_reported":1698354364,"current_range_meters":17200,"station_id":"ce4bh0h2rcd13ifvqd40","pricing_plan_id":"free"},{"bike_id":"660d6ed7-22a0-42ef-b25e-5d46b2b3481e","system_id":"levelo_inurba_marseille","lat":43.289184,"lon":5.366408,"is_reserved":false,"is_disabled":false,"rental_uris":{"android":"levelo://app?vid=660d6ed7-22a0-42ef-b25e-5d46b2b3481e","ios":"levelo://app?vid=660d6ed7-22a0-42ef-b25e-5d46b2b3481e"},"vehicle_type_id":"4","last_reported":1698354364,"current_range_meters":6000,"station_id":"ce4bhap2rcd13ifvqek0","pricing_plan_id":"free"},{"bike_id":"f5184829-d73f-4187-ad9f-c1a574747752","system_id":"levelo_inurba_marseille","lat":43.28727,"lon":5.36078,"is_reserved":false,"is_disabled":false,"rental_uris":{"android":"levelo://app?vid=f5184829-d73f-4187-ad9f-c1a574747752","ios":"levelo://app?vid=f5184829-d73f-4187-ad9f-c1a574747752"},"vehicle_type_id":"4","last_reported":1698354364,"current_range_meters":10800,"station_id":"cki0cbj6b192h4jlfktg","pricing_plan_id":"free"},{"bike_id":"c7db2c9d-b0b6-4e65-889e-67383628e35b","system_id":"levelo_inurba_marseille","lat":43.28727,"lon":5.36078,"is_reserved":false,"is_disabled":false,"rental_uris":{"android":"levelo://app?vid=c7db2c9d-b0b6-4e65-889e-67383628e35b","ios":"levelo://app?vid=c7db2c9d-b0b6-4e65-889e-67383628e35b"},"vehicle_type_id":"4","last_reported":1698354364,"current_range_meters":26800,"station_id":"cki0cbj6b192h4jlfktg","pricing_plan_id":"free"},{"bike_id":"8004fa7d-15b0-4c96-9fb4-54b81159d581","system_id":"levelo_inurba_marseille","lat":43.286961,"lon":5.373785,"is_reserved":false,"is_disabled":false,"rental_uris":{"android":"levelo://app?vid=8004fa7d-15b0-4c96-9fb4-54b81159d581","ios":"levelo://app?vid=8004fa7d-15b0-4c96-9fb4-54b81159d581"},"vehicle_type_id":"4","last_reported":1698354364,"current_range_meters":27600,"station_id":"ce4bh3p2rcd13ifvqdq0","pricing_plan_id":"free"},{"bike_id":"bd43e9df-fea5-49b7-8211-033d7a9662cc","system_id":"levelo_inurba_marseille","lat":43.286591,"lon":5.363346,"is_reserved":false,"is_disabled":false,"rental_uris":{"android":"levelo://app?vid=bd43e9df-fea5-49b7-8211-033d7a9662cc","ios":"levelo://app?vid=bd43e9df-fea5-49b7-8211-033d7a9662cc"},"vehicle_type_id":"4","last_reported":1698354364,"current_range_meters":30000,"station_id":"ce4bhah2rcd13ifvqej0","pricing_plan_id":"free"},{"bike_id":"8f40a77a-ccd1-4434-90fa-3dc169c2d9a1","system_id":"levelo_inurba_marseille","lat":43.286591,"lon":5.363346,"is_reserved":false,"is_disabled":false,"rental_uris":{"android":"levelo://app?vid=8f40a77a-ccd1-4434-90fa-3dc169c2d9a1","ios":"levelo://app?vid=8f40a77a-ccd1-4434-90fa-3dc169c2d9a1"},"vehicle_type_id":"4","last_reported":1698354364,"current_range_meters":30800,"station_id":"ce4bhah2rcd13ifvqej0","pricing_plan_id":"free"},{"bike_id":"7d4d1d8f-112e-441e-a309-71f225179ff4","system_id":"levelo_inurba_marseille","lat":43.286961,"lon":5.373785,"is_reserved":false,"is_disabled":false,"rental_uris":{"android":"levelo://app?vid=7d4d1d8f-112e-441e-a309-71f225179ff4","ios":"levelo://app?vid=7d4d1d8f-112e-441e-a309-71f225179ff4"},"vehicle_type_id":"4","last_reported":1698354364,"current_range_meters":0,"station_id":"ce4bh3p2rcd13ifvqdq0","pricing_plan_id":"free"},{"bike_id":"74effae8-f8ea-4422-9069-984f62c31d3d","system_id":"levelo_inurba_marseille","lat":43.286591,"lon":5.363346,"is_reserved":false,"is_disabled":false,"rental_uris":{"android":"levelo://app?vid=74effae8-f8ea-4422-9069-984f62c31d3d","ios":"levelo://app?vid=74effae8-f8ea-4422-9069-984f62c31d3d"},"vehicle_type_id":"4","last_reported":1698354364,"current_range_meters":20800,"station_id":"ce4bhah2rcd13ifvqej0","pricing_plan_id":"free"},{"bike_id":"55fdb233-c799-4146-8772-0e3b7e53a32c","system_id":"levelo_inurba_marseille","lat":43.286961,"lon":5.373785,"is_reserved":false,"is_disabled":false,"rental_uris":{"android":"levelo://app?vid=55fdb233-c799-4146-8772-0e3b7e53a32c","ios":"levelo://app?vid=55fdb233-c799-4146-8772-0e3b7e53a32c"},"vehicle_type_id":"4","last_reported":1698354364,"current_range_meters":2400,"station_id":"ce4bh3p2rcd13ifvqdq0","pricing_plan_id":"free"},{"bike_id":"e83c9d5a-a844-4ac7-bb93-f5e0df980361","system_id":"levelo_inurba_marseille","lat":43.286593,"lon":5.363346,"is_reserved":false,"is_disabled":false,"rental_uris":{"android":"levelo://app?vid=e83c9d5a-a844-4ac7-bb93-f5e0df980361","ios":"levelo://app?vid=e83c9d5a-a844-4ac7-bb93-f5e0df980361"},"vehicle_type_id":"4","last_reported":1698354364,"current_range_meters":14800,"station_id":"ce4bhah2rcd13ifvqej0","pricing_plan_id":"free"},{"bike_id":"c4a20e0a-1468-4e2f-8395-4470683632e5","system_id":"levelo_inurba_marseille","lat":43.295196,"lon":5.39397,"is_reserved":false,"is_disabled":false,"rental_uris":{"android":"levelo://app?vid=c4a20e0a-1468-4e2f-8395-4470683632e5","ios":"levelo://app?vid=c4a20e0a-1468-4e2f-8395-4470683632e5"},"vehicle_type_id":"4","last_reported":1698354364,"current_range_meters":26000,"station_id":"ce4bh292rcd13ifvqdf0","pricing_plan_id":"free"},{"bike_id":"30926d66-e3cc-4432-a2bd-0fdd6fb014df","system_id":"levelo_inurba_marseille","lat":43.295196,"lon":5.39397,"is_reserved":false,"is_disabled":false,"rental_uris":{"android":"levelo://app?vid=30926d66-e3cc-4432-a2bd-0fdd6fb014df","ios":"levelo://app?vid=30926d66-e3cc-4432-a2bd-0fdd6fb014df"},"vehicle_type_id":"4","last_reported":1698354364,"current_range_meters":31200,"station_id":"ce4bh292rcd13ifvqdf0","pricing_plan_id":"free"},{"bike_id":"b7dde502-8673-4775-a736-315878642c80","system_id":"levelo_inurba_marseille","lat":43.28918,"lon":5.38376,"is_reserved":false,"is_disabled":false,"rental_uris":{"android":"levelo://app?vid=b7dde502-8673-4775-a736-315878642c80","ios":"levelo://app?vid=b7dde502-8673-4775-a736-315878642c80"},"vehicle_type_id":"4","last_reported":1698354364,"current_range_meters":6000,"station_id":"ce4bh612rcd13ifvqe6g","pricing_plan_id":"free"},{"bike_id":"babbbc45-4324-4e22-8cdb-ccf1461f9230","system_id":"levelo_inurba_marseille","lat":43.302759,"lon":5.400793,"is_reserved":false,"is_disabled":false,"rental_uris":{"android":"levelo://app?vid=babbbc45-4324-4e22-8cdb-ccf1461f9230","ios":"levelo://app?vid=babbbc45-4324-4e22-8cdb-ccf1461f9230"},"vehicle_type_id":"4","last_reported":1698354364,"current_range_meters":400,"station_id":"ce4bgvh2rcd13ifvqcs0","pricing_plan_id":"free"},{"bike_id":"10159cbd-12ed-4023-b9bd-28dd4d5f12bf","system_id":"levelo_inurba_marseille","lat":43.302573,"lon":5.400719,"is_reserved":false,"is_disabled":false,"rental_uris":{"android":"levelo://app?vid=10159cbd-12ed-4023-b9bd-28dd4d5f12bf","ios":"levelo://app?vid=10159cbd-12ed-4023-b9bd-28dd4d5f12bf"},"vehicle_type_id":"4","last_reported":1698354364,"current_range_meters":28800,"station_id":"ce4bgvh2rcd13ifvqcs0","pricing_plan_id":"free"},{"bike_id":"1aabc4fe-2701-4ae1-818f-f758b347c3a2","system_id":"levelo_inurba_marseille","lat":43.302385,"lon":5.40064,"is_reserved":false,"is_disabled":false,"rental_uris":{"android":"levelo://app?vid=1aabc4fe-2701-4ae1-818f-f758b347c3a2","ios":"levelo://app?vid=1aabc4fe-2701-4ae1-818f-f758b347c3a2"},"vehicle_type_id":"4","last_reported":1698354364,"current_range_meters":23200,"station_id":"ce4bgvh2rcd13ifvqcs0","pricing_plan_id":"free"},{"bike_id":"bdce0675-e717-4008-8181-e772de5716a4","system_id":"levelo_inurba_marseille","lat":43.30255,"lon":5.40085,"is_reserved":false,"is_disabled":false,"rental_uris":{"android":"levelo://app?vid=bdce0675-e717-4008-8181-e772de5716a4","ios":"levelo://app?vid=bdce0675-e717-4008-8181-e772de5716a4"},"vehicle_type_id":"4","last_reported":1698354364,"current_range_meters":5600,"station_id":"ce4bgvh2rcd13ifvqcs0","pricing_plan_id":"free"},{"bike_id":"237c2e2c-6cb2-4fb4-8f9a-8967233c2b49","system_id":"levelo_inurba_marseille","lat":43.286039,"lon":5.370681,"is_reserved":false,"is_disabled":false,"rental_uris":{"android":"levelo://app?vid=237c2e2c-6cb2-4fb4-8f9a-8967233c2b49","ios":"levelo://app?vid=237c2e2c-6cb2-4fb4-8f9a-8967233c2b49"},"vehicle_type_id":"4","last_reported":1698354364,"current_range_meters":14400,"station_id":"ce4bht12rcd13ifvqi60","pricing_plan_id":"free"},{"bike_id":"2b4f86e8-dd43-408d-b031-dad80b8d6651","system_id":"levelo_inurba_marseille","lat":43.286039,"lon":5.370681,"is_reserved":false,"is_disabled":false,"rental_uris":{"android":"levelo://app?vid=2b4f86e8-dd43-408d-b031-dad80b8d6651","ios":"levelo://app?vid=2b4f86e8-dd43-408d-b031-dad80b8d6651"},"vehicle_type_id":"4","last_reported":1698354364,"current_range_meters":13600,"station_id":"ce4bht12rcd13ifvqi60","pricing_plan_id":"free"},{"bike_id":"b67c8415-34dd-49a3-b780-5af1d00f39a3","system_id":"levelo_inurba_marseille","lat":43.287185,"lon":5.379373,"is_reserved":false,"is_disabled":false,"rental_uris":{"android":"levelo://app?vid=b67c8415-34dd-49a3-b780-5af1d00f39a3","ios":"levelo://app?vid=b67c8415-34dd-49a3-b780-5af1d00f39a3"},"vehicle_type_id":"4","last_reported":1698354364,"current_range_meters":0,"station_id":"ce4bh9p2rcd13ifvqec0","pricing_plan_id":"free"},{"bike_id":"bc368e20-93c0-495a-bb4f-cd8ed7ee7f0d","system_id":"levelo_inurba_marseille","lat":43.335307,"lon":5.388143,"is_reserved":false,"is_disabled":false,"rental_uris":{"android":"levelo://app?vid=bc368e20-93c0-495a-bb4f-cd8ed7ee7f0d","ios":"levelo://app?vid=bc368e20-93c0-495a-bb4f-cd8ed7ee7f0d"},"vehicle_type_id":"4","last_reported":1698354364,"current_range_meters":0,"station_id":"","pricing_plan_id":"free"},{"bike_id":"6f492d1d-508b-4e2b-825a-d3fc62bbbad4","system_id":"levelo_inurba_marseille","lat":43.295638,"lon":5.397504,"is_reserved":false,"is_disabled":false,"rental_uris":{"android":"levelo://app?vid=6f492d1d-508b-4e2b-825a-d3fc62bbbad4","ios":"levelo://app?vid=6f492d1d-508b-4e2b-825a-d3fc62bbbad4"},"vehicle_type_id":"4","last_reported":1698354364,"current_range_meters":6400,"station_id":"","pricing_plan_id":"free"},{"bike_id":"088e7924-456e-4889-bce4-d0cfa9171d85","system_id":"levelo_inurba_marseille","lat":43.291994,"lon":5.392907,"is_reserved":false,"is_disabled":false,"rental_uris":{"android":"levelo://app?vid=088e7924-456e-4889-bce4-d0cfa9171d85","ios":"levelo://app?vid=088e7924-456e-4889-bce4-d0cfa9171d85"},"vehicle_type_id":"4","last_reported":1698354364,"current_range_meters":22400,"station_id":"ce4bh192rcd13ifvqdd0","pricing_plan_id":"free"},{"bike_id":"096f6aff-f6ee-470b-aafb-fd74b614d561","system_id":"levelo_inurba_marseille","lat":43.291994,"lon":5.392907,"is_reserved":false,"is_disabled":false,"rental_uris":{"android":"levelo://app?vid=096f6aff-f6ee-470b-aafb-fd74b614d561","ios":"levelo://app?vid=096f6aff-f6ee-470b-aafb-fd74b614d561"},"vehicle_type_id":"4","last_reported":1698354364,"current_range_meters":24000,"station_id":"ce4bh192rcd13ifvqdd0","pricing_plan_id":"free"},{"bike_id":"ce74f6da-7658-469d-b558-5b38769082cb","system_id":"levelo_inurba_marseille","lat":43.291994,"lon":5.392907,"is_reserved":false,"is_disabled":false,"rental_uris":{"android":"levelo://app?vid=ce74f6da-7658-469d-b558-5b38769082cb","ios":"levelo://app?vid=ce74f6da-7658-469d-b558-5b38769082cb"},"vehicle_type_id":"4","last_reported":1698354364,"current_range_meters":0,"station_id":"ce4bh192rcd13ifvqdd0","pricing_plan_id":"free"},{"bike_id":"d5c723da-2e09-4c65-aa8a-412b48c6f934","system_id":"levelo_inurba_marseille","lat":43.28462,"lon":5.358826,"is_reserved":false,"is_disabled":false,"rental_uris":{"android":"levelo://app?vid=d5c723da-2e09-4c65-aa8a-412b48c6f934","ios":"levelo://app?vid=d5c723da-2e09-4c65-aa8a-412b48c6f934"},"vehicle_type_id":"4","last_reported":1698354364,"current_range_meters":6800,"station_id":"ce4bhah2rcd13ifvqei0","pricing_plan_id":"free"},{"bike_id":"87aee81f-4200-4d81-afb3-90e8eec619bf","system_id":"levelo_inurba_marseille","lat":43.28461,"lon":5.35887,"is_reserved":false,"is_disabled":false,"rental_uris":{"android":"levelo://app?vid=87aee81f-4200-4d81-afb3-90e8eec619bf","ios":"levelo://app?vid=87aee81f-4200-4d81-afb3-90e8eec619bf"},"vehicle_type_id":"4","last_reported":1698354364,"current_range_meters":13600,"station_id":"ce4bhah2rcd13ifvqei0","pricing_plan_id":"free"},{"bike_id":"f7a9341e-504a-4e88-b392-3acefeeb140e","system_id":"levelo_inurba_marseille","lat":43.28459,"lon":5.3589,"is_reserved":false,"is_disabled":false,"rental_uris":{"android":"levelo://app?vid=f7a9341e-504a-4e88-b392-3acefeeb140e","ios":"levelo://app?vid=f7a9341e-504a-4e88-b392-3acefeeb140e"},"vehicle_type_id":"4","last_reported":1698354364,"current_range_meters":12000,"station_id":"ce4bhah2rcd13ifvqei0","pricing_plan_id":"free"},{"bike_id":"d6d0a06b-1905-4286-9edc-cc53c82d5c93","system_id":"levelo_inurba_marseille","lat":43.28458,"lon":5.35891,"is_reserved":false,"is_disabled":false,"rental_uris":{"android":"levelo://app?vid=d6d0a06b-1905-4286-9edc-cc53c82d5c93","ios":"levelo://app?vid=d6d0a06b-1905-4286-9edc-cc53c82d5c93"},"vehicle_type_id":"4","last_reported":1698354364,"current_range_meters":27600,"station_id":"ce4bhah2rcd13ifvqei0","pricing_plan_id":"free"},{"bike_id":"4571873c-38e6-4f84-80cd-4a298d3161fe","system_id":"levelo_inurba_marseille","lat":43.28458,"lon":5.35884,"is_reserved":false,"is_disabled":false,"rental_uris":{"android":"levelo://app?vid=4571873c-38e6-4f84-80cd-4a298d3161fe","ios":"levelo://app?vid=4571873c-38e6-4f84-80cd-4a298d3161fe"},"vehicle_type_id":"4","last_reported":1698354364,"current_range_meters":15600,"station_id":"ce4bhah2rcd13ifvqei0","pricing_plan_id":"free"},{"bike_id":"78853a7f-7e18-47c2-9cbb-f32f48e15430","system_id":"levelo_inurba_marseille","lat":43.28458,"lon":5.35883,"is_reserved":false,"is_disabled":false,"rental_uris":{"android":"levelo://app?vid=78853a7f-7e18-47c2-9cbb-f32f48e15430","ios":"levelo://app?vid=78853a7f-7e18-47c2-9cbb-f32f48e15430"},"vehicle_type_id":"4","last_reported":1698354364,"current_range_meters":1200,"station_id":"ce4bhah2rcd13ifvqei0","pricing_plan_id":"free"},{"bike_id":"54ff11a2-e3d1-454e-ac9f-5b8dfc24c27d","system_id":"levelo_inurba_marseille","lat":43.28454,"lon":5.35882,"is_reserved":false,"is_disabled":false,"rental_uris":{"android":"levelo://app?vid=54ff11a2-e3d1-454e-ac9f-5b8dfc24c27d","ios":"levelo://app?vid=54ff11a2-e3d1-454e-ac9f-5b8dfc24c27d"},"vehicle_type_id":"4","last_reported":1698354364,"current_range_meters":2800,"station_id":"ce4bhah2rcd13ifvqei0","pricing_plan_id":"free"},{"bike_id":"ccbcd672-1503-46cb-871f-6be9ef4245b1","system_id":"levelo_inurba_marseille","lat":43.284161,"lon":5.375122,"is_reserved":false,"is_disabled":false,"rental_uris":{"android":"levelo://app?vid=ccbcd672-1503-46cb-871f-6be9ef4245b1","ios":"levelo://app?vid=ccbcd672-1503-46cb-871f-6be9ef4245b1"},"vehicle_type_id":"4","last_reported":1698354364,"current_range_meters":800,"station_id":"ce4bh412rcd13ifvqds0","pricing_plan_id":"free"},{"bike_id":"9487b707-9832-42e4-a771-ac3dce2690d3","system_id":"levelo_inurba_marseille","lat":43.283998,"lon":5.375062,"is_reserved":false,"is_disabled":false,"rental_uris":{"android":"levelo://app?vid=9487b707-9832-42e4-a771-ac3dce2690d3","ios":"levelo://app?vid=9487b707-9832-42e4-a771-ac3dce2690d3"},"vehicle_type_id":"4","last_reported":1698354364,"current_range_meters":6400,"station_id":"ce4bh412rcd13ifvqds0","pricing_plan_id":"free"},{"bike_id":"6b573773-679f-4810-8b41-d3bbe22cd3ae","system_id":"levelo_inurba_marseille","lat":43.284119,"lon":5.375215,"is_reserved":false,"is_disabled":false,"rental_uris":{"android":"levelo://app?vid=6b573773-679f-4810-8b41-d3bbe22cd3ae","ios":"levelo://app?vid=6b573773-679f-4810-8b41-d3bbe22cd3ae"},"vehicle_type_id":"4","last_reported":1698354364,"current_range_meters":0,"station_id":"ce4bh412rcd13ifvqds0","pricing_plan_id":"free"},{"bike_id":"6511391f-fc85-4000-9c24-cdef70c17465","system_id":"levelo_inurba_marseille","lat":43.291675,"lon":5.371583,"is_reserved":false,"is_disabled":false,"rental_uris":{"android":"levelo://app?vid=6511391f-fc85-4000-9c24-cdef70c17465","ios":"levelo://app?vid=6511391f-fc85-4000-9c24-cdef70c17465"},"vehicle_type_id":"4","last_reported":1698354364,"current_range_meters":18800,"station_id":"ce4bha92rcd13ifvqeh0","pricing_plan_id":"free"},{"bike_id":"5024e3d3-b547-4edb-b65c-1a0b473752ee","system_id":"levelo_inurba_marseille","lat":43.283998,"lon":5.375062,"is_reserved":false,"is_disabled":false,"rental_uris":{"android":"levelo://app?vid=5024e3d3-b547-4edb-b65c-1a0b473752ee","ios":"levelo://app?vid=5024e3d3-b547-4edb-b65c-1a0b473752ee"},"vehicle_type_id":"4","last_reported":1698354364,"current_range_meters":800,"station_id":"ce4bh412rcd13ifvqds0","pricing_plan_id":"free"},{"bike_id":"18ff1f34-2c4b-4968-a376-37ec91878cbc","system_id":"levelo_inurba_marseille","lat":43.319179,"lon":5.407725,"is_reserved":false,"is_disabled":false,"rental_uris":{"android":"levelo://app?vid=18ff1f34-2c4b-4968-a376-37ec91878cbc","ios":"levelo://app?vid=18ff1f34-2c4b-4968-a376-37ec91878cbc"},"vehicle_type_id":"4","last_reported":1698354364,"current_range_meters":6800,"station_id":"ce4bhq12rcd13ifvqhig","pricing_plan_id":"free"},{"bike_id":"d3748560-398b-493e-b915-e5a728c45d13","system_id":"levelo_inurba_marseille","lat":43.319179,"lon":5.407725,"is_reserved":false,"is_disabled":false,"rental_uris":{"android":"levelo://app?vid=d3748560-398b-493e-b915-e5a728c45d13","ios":"levelo://app?vid=d3748560-398b-493e-b915-e5a728c45d13"},"vehicle_type_id":"4","last_reported":1698354364,"current_range_meters":8000,"station_id":"ce4bhq12rcd13ifvqhig","pricing_plan_id":"free"},{"bike_id":"6acdc919-2762-4b6f-8d0b-bb3f10d0ab1e","system_id":"levelo_inurba_marseille","lat":43.319179,"lon":5.407725,"is_reserved":false,"is_disabled":false,"rental_uris":{"android":"levelo://app?vid=6acdc919-2762-4b6f-8d0b-bb3f10d0ab1e","ios":"levelo://app?vid=6acdc919-2762-4b6f-8d0b-bb3f10d0ab1e"},"vehicle_type_id":"4","last_reported":1698354364,"current_range_meters":13200,"station_id":"ce4bhq12rcd13ifvqhig","pricing_plan_id":"free"},{"bike_id":"a04dca67-8317-445e-90d6-5788929468fd","system_id":"levelo_inurba_marseille","lat":43.33674,"lon":5.39198,"is_reserved":false,"is_disabled":false,"rental_uris":{"android":"levelo://app?vid=a04dca67-8317-445e-90d6-5788929468fd","ios":"levelo://app?vid=a04dca67-8317-445e-90d6-5788929468fd"},"vehicle_type_id":"4","last_reported":1698354364,"current_range_meters":12400,"station_id":"","pricing_plan_id":"free"},{"bike_id":"58151d52-000e-4f58-9173-3c2ae081e146","system_id":"levelo_inurba_marseille","lat":43.337168,"lon":5.391825,"is_reserved":false,"is_disabled":false,"rental_uris":{"android":"levelo://app?vid=58151d52-000e-4f58-9173-3c2ae081e146","ios":"levelo://app?vid=58151d52-000e-4f58-9173-3c2ae081e146"},"vehicle_type_id":"4","last_reported":1698354364,"current_range_meters":20400,"station_id":"ce4bhr92rcd13ifvqhsg","pricing_plan_id":"free"},{"bike_id":"023aab67-f221-4b0c-a2f9-b9c8c5a8d582","system_id":"levelo_inurba_marseille","lat":43.33717,"lon":5.391857,"is_reserved":false,"is_disabled":false,"rental_uris":{"android":"levelo://app?vid=023aab67-f221-4b0c-a2f9-b9c8c5a8d582","ios":"levelo://app?vid=023aab67-f221-4b0c-a2f9-b9c8c5a8d582"},"vehicle_type_id":"4","last_reported":1698354364,"current_range_meters":2000,"station_id":"ce4bhr92rcd13ifvqhsg","pricing_plan_id":"free"},{"bike_id":"bd3ad878-c73a-4e25-b4a1-20ae7cef7d6a","system_id":"levelo_inurba_marseille","lat":43.323464,"lon":5.406297,"is_reserved":false,"is_disabled":false,"rental_uris":{"android":"levelo://app?vid=bd3ad878-c73a-4e25-b4a1-20ae7cef7d6a","ios":"levelo://app?vid=bd3ad878-c73a-4e25-b4a1-20ae7cef7d6a"},"vehicle_type_id":"4","last_reported":1698354364,"current_range_meters":10400,"station_id":"ce4bhq92rcd13ifvqhjg","pricing_plan_id":"free"},{"bike_id":"92d2c023-f2f7-47a9-8c97-21204ec15aa2","system_id":"levelo_inurba_marseille","lat":43.284793,"lon":5.384119,"is_reserved":false,"is_disabled":false,"rental_uris":{"android":"levelo://app?vid=92d2c023-f2f7-47a9-8c97-21204ec15aa2","ios":"levelo://app?vid=92d2c023-f2f7-47a9-8c97-21204ec15aa2"},"vehicle_type_id":"4","last_reported":1698354364,"current_range_meters":0,"station_id":"ce4bh512rcd13ifvqe3g","pricing_plan_id":"free"},{"bike_id":"d6e0f25c-aaad-4436-9a20-7d785d7e759e","system_id":"levelo_inurba_marseille","lat":43.32521,"lon":5.40572,"is_reserved":false,"is_disabled":false,"rental_uris":{"android":"levelo://app?vid=d6e0f25c-aaad-4436-9a20-7d785d7e759e","ios":"levelo://app?vid=d6e0f25c-aaad-4436-9a20-7d785d7e759e"},"vehicle_type_id":"4","last_reported":1698354364,"current_range_meters":0,"station_id":"","pricing_plan_id":"free"},{"bike_id":"2f666bbb-190f-4291-ade2-95e2c0cfd815","system_id":"levelo_inurba_marseille","lat":43.325281,"lon":5.405683,"is_reserved":false,"is_disabled":false,"rental_uris":{"android":"levelo://app?vid=2f666bbb-190f-4291-ade2-95e2c0cfd815","ios":"levelo://app?vid=2f666bbb-190f-4291-ade2-95e2c0cfd815"},"vehicle_type_id":"4","last_reported":1698354364,"current_range_meters":24400,"station_id":"","pricing_plan_id":"free"},{"bike_id":"ce595084-37e5-4225-8687-c8215cd7322e","system_id":"levelo_inurba_marseille","lat":43.288497,"lon":5.393089,"is_reserved":false,"is_disabled":false,"rental_uris":{"android":"levelo://app?vid=ce595084-37e5-4225-8687-c8215cd7322e","ios":"levelo://app?vid=ce595084-37e5-4225-8687-c8215cd7322e"},"vehicle_type_id":"4","last_reported":1698354364,"current_range_meters":3200,"station_id":"ce4bh2p2rcd13ifvqdi0","pricing_plan_id":"free"},{"bike_id":"3e3ceea7-865a-41f8-a9d7-8a451cc82334","system_id":"levelo_inurba_marseille","lat":43.288497,"lon":5.393089,"is_reserved":false,"is_disabled":false,"rental_uris":{"android":"levelo://app?vid=3e3ceea7-865a-41f8-a9d7-8a451cc82334","ios":"levelo://app?vid=3e3ceea7-865a-41f8-a9d7-8a451cc82334"},"vehicle_type_id":"4","last_reported":1698354364,"current_range_meters":15200,"station_id":"ce4bh2p2rcd13ifvqdi0","pricing_plan_id":"free"},{"bike_id":"091b7b50-a0d5-4f0c-9439-5ce4435b9c81","system_id":"levelo_inurba_marseille","lat":43.289363,"lon":5.396322,"is_reserved":false,"is_disabled":false,"rental_uris":{"android":"levelo://app?vid=091b7b50-a0d5-4f0c-9439-5ce4435b9c81","ios":"levelo://app?vid=091b7b50-a0d5-4f0c-9439-5ce4435b9c81"},"vehicle_type_id":"4","last_reported":1698354364,"current_range_meters":4400,"station_id":"ce4bh3h2rcd13ifvqdn0","pricing_plan_id":"free"},{"bike_id":"2a174eeb-d10e-49b0-bcf1-f23ea9cb7f65","system_id":"levelo_inurba_marseille","lat":43.289363,"lon":5.396322,"is_reserved":false,"is_disabled":false,"rental_uris":{"android":"levelo://app?vid=2a174eeb-d10e-49b0-bcf1-f23ea9cb7f65","ios":"levelo://app?vid=2a174eeb-d10e-49b0-bcf1-f23ea9cb7f65"},"vehicle_type_id":"4","last_reported":1698354364,"current_range_meters":0,"station_id":"ce4bh3h2rcd13ifvqdn0","pricing_plan_id":"free"},{"bike_id":"1764b7ac-4f7a-4dbe-a4a9-62a19971ba14","system_id":"levelo_inurba_marseille","lat":43.292724,"lon":5.401131,"is_reserved":false,"is_disabled":false,"rental_uris":{"android":"levelo://app?vid=1764b7ac-4f7a-4dbe-a4a9-62a19971ba14","ios":"levelo://app?vid=1764b7ac-4f7a-4dbe-a4a9-62a19971ba14"},"vehicle_type_id":"4","last_reported":1698354364,"current_range_meters":19600,"station_id":"ce4bh312rcd13ifvqdk0","pricing_plan_id":"free"},{"bike_id":"dcfb5843-a39f-4337-b007-dfaad7797955","system_id":"levelo_inurba_marseille","lat":43.292724,"lon":5.401131,"is_reserved":false,"is_disabled":false,"rental_uris":{"android":"levelo://app?vid=dcfb5843-a39f-4337-b007-dfaad7797955","ios":"levelo://app?vid=dcfb5843-a39f-4337-b007-dfaad7797955"},"vehicle_type_id":"4","last_reported":1698354364,"current_range_meters":400,"station_id":"ce4bh312rcd13ifvqdk0","pricing_plan_id":"free"},{"bike_id":"49a6032d-7994-4ca0-bfb6-6724ffd67292","system_id":"levelo_inurba_marseille","lat":43.282744,"lon":5.350533,"is_reserved":false,"is_disabled":false,"rental_uris":{"android":"levelo://app?vid=49a6032d-7994-4ca0-bfb6-6724ffd67292","ios":"levelo://app?vid=49a6032d-7994-4ca0-bfb6-6724ffd67292"},"vehicle_type_id":"4","last_reported":1698354364,"current_range_meters":22800,"station_id":"ce4bhbp2rcd13ifvqerg","pricing_plan_id":"free"},{"bike_id":"a6e42c8d-a639-40f8-ac84-93d84edf8a47","system_id":"levelo_inurba_marseille","lat":43.282754,"lon":5.350519,"is_reserved":false,"is_disabled":false,"rental_uris":{"android":"levelo://app?vid=a6e42c8d-a639-40f8-ac84-93d84edf8a47","ios":"levelo://app?vid=a6e42c8d-a639-40f8-ac84-93d84edf8a47"},"vehicle_type_id":"4","last_reported":1698354364,"current_range_meters":3600,"station_id":"ce4bhbp2rcd13ifvqerg","pricing_plan_id":"free"},{"bike_id":"562609d1-2dff-43e8-b400-81901effd45e","system_id":"levelo_inurba_marseille","lat":43.28367,"lon":5.3864,"is_reserved":false,"is_disabled":false,"rental_uris":{"android":"levelo://app?vid=562609d1-2dff-43e8-b400-81901effd45e","ios":"levelo://app?vid=562609d1-2dff-43e8-b400-81901effd45e"},"vehicle_type_id":"4","last_reported":1698354364,"current_range_meters":0,"station_id":"ce4bh492rcd13ifvqdvg","pricing_plan_id":"free"},{"bike_id":"7f717374-de65-458a-8eb8-0339129a9acc","system_id":"levelo_inurba_marseille","lat":43.282754,"lon":5.350519,"is_reserved":false,"is_disabled":false,"rental_uris":{"android":"levelo://app?vid=7f717374-de65-458a-8eb8-0339129a9acc","ios":"levelo://app?vid=7f717374-de65-458a-8eb8-0339129a9acc"},"vehicle_type_id":"4","last_reported":1698354364,"current_range_meters":10000,"station_id":"ce4bhbp2rcd13ifvqerg","pricing_plan_id":"free"},{"bike_id":"9af9f13c-d2e7-437d-8f11-52d9d3e27b36","system_id":"levelo_inurba_marseille","lat":43.283502,"lon":5.386471,"is_reserved":false,"is_disabled":false,"rental_uris":{"android":"levelo://app?vid=9af9f13c-d2e7-437d-8f11-52d9d3e27b36","ios":"levelo://app?vid=9af9f13c-d2e7-437d-8f11-52d9d3e27b36"},"vehicle_type_id":"4","last_reported":1698354364,"current_range_meters":8800,"station_id":"ce4bh492rcd13ifvqdvg","pricing_plan_id":"free"},{"bike_id":"c0449154-414a-4a97-8c66-4ecd834e8e24","system_id":"levelo_inurba_marseille","lat":43.280382,"lon":5.369291,"is_reserved":false,"is_disabled":false,"rental_uris":{"android":"levelo://app?vid=c0449154-414a-4a97-8c66-4ecd834e8e24","ios":"levelo://app?vid=c0449154-414a-4a97-8c66-4ecd834e8e24"},"vehicle_type_id":"4","last_reported":1698354364,"current_range_meters":31600,"station_id":"ce4bha12rcd13ifvqef0","pricing_plan_id":"free"},{"bike_id":"eae608c4-d84e-4731-b7f0-fdf7ef265fdf","system_id":"levelo_inurba_marseille","lat":43.28039,"lon":5.369297,"is_reserved":false,"is_disabled":false,"rental_uris":{"android":"levelo://app?vid=eae608c4-d84e-4731-b7f0-fdf7ef265fdf","ios":"levelo://app?vid=eae608c4-d84e-4731-b7f0-fdf7ef265fdf"},"vehicle_type_id":"4","last_reported":1698354364,"current_range_meters":28000,"station_id":"ce4bha12rcd13ifvqef0","pricing_plan_id":"free"},{"bike_id":"77a36b93-e47c-4023-9d12-bb4f9db102c7","system_id":"levelo_inurba_marseille","lat":43.280382,"lon":5.369291,"is_reserved":false,"is_disabled":false,"rental_uris":{"android":"levelo://app?vid=77a36b93-e47c-4023-9d12-bb4f9db102c7","ios":"levelo://app?vid=77a36b93-e47c-4023-9d12-bb4f9db102c7"},"vehicle_type_id":"4","last_reported":1698354364,"current_range_meters":7600,"station_id":"ce4bha12rcd13ifvqef0","pricing_plan_id":"free"},{"bike_id":"6c1c4097-3332-4538-b0b3-9530094b4adb","system_id":"levelo_inurba_marseille","lat":43.29038,"lon":5.39975,"is_reserved":false,"is_disabled":false,"rental_uris":{"android":"levelo://app?vid=6c1c4097-3332-4538-b0b3-9530094b4adb","ios":"levelo://app?vid=6c1c4097-3332-4538-b0b3-9530094b4adb"},"vehicle_type_id":"4","last_reported":1698354364,"current_range_meters":0,"station_id":"ce4bh392rcd13ifvqdm0","pricing_plan_id":"free"},{"bike_id":"1ca242fe-6084-4f9b-8b54-35d465872844","system_id":"levelo_inurba_marseille","lat":43.29041,"lon":5.399634,"is_reserved":false,"is_disabled":false,"rental_uris":{"android":"levelo://app?vid=1ca242fe-6084-4f9b-8b54-35d465872844","ios":"levelo://app?vid=1ca242fe-6084-4f9b-8b54-35d465872844"},"vehicle_type_id":"4","last_reported":1698354364,"current_range_meters":22800,"station_id":"ce4bh392rcd13ifvqdm0","pricing_plan_id":"free"},{"bike_id":"a57d0fdb-b213-4e44-87aa-9e931832f41a","system_id":"levelo_inurba_marseille","lat":43.336569,"lon":5.398701,"is_reserved":false,"is_disabled":false,"rental_uris":{"android":"levelo://app?vid=a57d0fdb-b213-4e44-87aa-9e931832f41a","ios":"levelo://app?vid=a57d0fdb-b213-4e44-87aa-9e931832f41a"},"vehicle_type_id":"4","last_reported":1698354364,"current_range_meters":0,"station_id":"","pricing_plan_id":"free"},{"bike_id":"2e54ac32-6169-46aa-ac37-1215d17d9720","system_id":"levelo_inurba_marseille","lat":43.284462,"lon":5.392121,"is_reserved":false,"is_disabled":false,"rental_uris":{"android":"levelo://app?vid=2e54ac32-6169-46aa-ac37-1215d17d9720","ios":"levelo://app?vid=2e54ac32-6169-46aa-ac37-1215d17d9720"},"vehicle_type_id":"4","last_reported":1698354364,"current_range_meters":0,"station_id":"ce4bhoh2rcd13ifvqh5g","pricing_plan_id":"free"},{"bike_id":"aabdb0cb-060e-4f31-bd0c-bec645c99911","system_id":"levelo_inurba_marseille","lat":43.288481,"lon":5.400094,"is_reserved":false,"is_disabled":false,"rental_uris":{"android":"levelo://app?vid=aabdb0cb-060e-4f31-bd0c-bec645c99911","ios":"levelo://app?vid=aabdb0cb-060e-4f31-bd0c-bec645c99911"},"vehicle_type_id":"4","last_reported":1698354364,"current_range_meters":0,"station_id":"","pricing_plan_id":"free"},{"bike_id":"68c670b7-276d-4248-b337-92f03fdd6198","system_id":"levelo_inurba_marseille","lat":43.326605,"lon":5.409903,"is_reserved":false,"is_disabled":false,"rental_uris":{"android":"levelo://app?vid=68c670b7-276d-4248-b337-92f03fdd6198","ios":"levelo://app?vid=68c670b7-276d-4248-b337-92f03fdd6198"},"vehicle_type_id":"4","last_reported":1698354364,"current_range_meters":1600,"station_id":"ce4bhpp2rcd13ifvqhgg","pricing_plan_id":"free"},{"bike_id":"b87a1950-dbf5-43b6-9c40-ece60fb5a23a","system_id":"levelo_inurba_marseille","lat":43.279113,"lon":5.380053,"is_reserved":false,"is_disabled":false,"rental_uris":{"android":"levelo://app?vid=b87a1950-dbf5-43b6-9c40-ece60fb5a23a","ios":"levelo://app?vid=b87a1950-dbf5-43b6-9c40-ece60fb5a23a"},"vehicle_type_id":"4","last_reported":1698354364,"current_range_meters":0,"station_id":"ce4bhf92rcd13ifvqf50","pricing_plan_id":"free"},{"bike_id":"3884b27a-fe0d-46bf-9fb5-153530ea2b1d","system_id":"levelo_inurba_marseille","lat":43.279087,"lon":5.380114,"is_reserved":false,"is_disabled":false,"rental_uris":{"android":"levelo://app?vid=3884b27a-fe0d-46bf-9fb5-153530ea2b1d","ios":"levelo://app?vid=3884b27a-fe0d-46bf-9fb5-153530ea2b1d"},"vehicle_type_id":"4","last_reported":1698354364,"current_range_meters":19200,"station_id":"ce4bhf92rcd13ifvqf50","pricing_plan_id":"free"},{"bike_id":"613db93b-0aa8-40dd-8fcc-563a8cc9b8ee","system_id":"levelo_inurba_marseille","lat":43.279087,"lon":5.380114,"is_reserved":false,"is_disabled":false,"rental_uris":{"android":"levelo://app?vid=613db93b-0aa8-40dd-8fcc-563a8cc9b8ee","ios":"levelo://app?vid=613db93b-0aa8-40dd-8fcc-563a8cc9b8ee"},"vehicle_type_id":"4","last_reported":1698354364,"current_range_meters":4000,"station_id":"ce4bhf92rcd13ifvqf50","pricing_plan_id":"free"},{"bike_id":"0c851c97-01fc-4aea-9a8d-7c624077ed53","system_id":"levelo_inurba_marseille","lat":43.279087,"lon":5.380114,"is_reserved":false,"is_disabled":false,"rental_uris":{"android":"levelo://app?vid=0c851c97-01fc-4aea-9a8d-7c624077ed53","ios":"levelo://app?vid=0c851c97-01fc-4aea-9a8d-7c624077ed53"},"vehicle_type_id":"4","last_reported":1698354364,"current_range_meters":30000,"station_id":"ce4bhf92rcd13ifvqf50","pricing_plan_id":"free"},{"bike_id":"1880e3e0-2360-49fa-9c30-0816cf06974d","system_id":"levelo_inurba_marseille","lat":43.287154,"lon":5.399979,"is_reserved":false,"is_disabled":false,"rental_uris":{"android":"levelo://app?vid=1880e3e0-2360-49fa-9c30-0816cf06974d","ios":"levelo://app?vid=1880e3e0-2360-49fa-9c30-0816cf06974d"},"vehicle_type_id":"4","last_reported":1698354364,"current_range_meters":10400,"station_id":"ce4bho92rcd13ifvqh3g","pricing_plan_id":"free"},{"bike_id":"6554c938-19d0-4a02-9e6a-42ddccde7d12","system_id":"levelo_inurba_marseille","lat":43.28707,"lon":5.399891,"is_reserved":false,"is_disabled":false,"rental_uris":{"android":"levelo://app?vid=6554c938-19d0-4a02-9e6a-42ddccde7d12","ios":"levelo://app?vid=6554c938-19d0-4a02-9e6a-42ddccde7d12"},"vehicle_type_id":"4","last_reported":1698354364,"current_range_meters":0,"station_id":"ce4bho92rcd13ifvqh3g","pricing_plan_id":"free"},{"bike_id":"adb46371-256b-4c34-a6a2-32431822eaeb","system_id":"levelo_inurba_marseille","lat":43.287154,"lon":5.399979,"is_reserved":false,"is_disabled":false,"rental_uris":{"android":"levelo://app?vid=adb46371-256b-4c34-a6a2-32431822eaeb","ios":"levelo://app?vid=adb46371-256b-4c34-a6a2-32431822eaeb"},"vehicle_type_id":"4","last_reported":1698354364,"current_range_meters":9200,"station_id":"ce4bho92rcd13ifvqh3g","pricing_plan_id":"free"},{"bike_id":"8c011f82-326c-4b7e-8067-eb2ff3d8bab3","system_id":"levelo_inurba_marseille","lat":43.27735,"lon":5.36922,"is_reserved":false,"is_disabled":false,"rental_uris":{"android":"levelo://app?vid=8c011f82-326c-4b7e-8067-eb2ff3d8bab3","ios":"levelo://app?vid=8c011f82-326c-4b7e-8067-eb2ff3d8bab3"},"vehicle_type_id":"4","last_reported":1698354364,"current_range_meters":2400,"station_id":"","pricing_plan_id":"free"},{"bike_id":"2ef9bfc2-eb03-470b-bc02-c0e052d2ae6d","system_id":"levelo_inurba_marseille","lat":43.27694,"lon":5.37303,"is_reserved":false,"is_disabled":false,"rental_uris":{"android":"levelo://app?vid=2ef9bfc2-eb03-470b-bc02-c0e052d2ae6d","ios":"levelo://app?vid=2ef9bfc2-eb03-470b-bc02-c0e052d2ae6d"},"vehicle_type_id":"4","last_reported":1698354364,"current_range_meters":17200,"station_id":"","pricing_plan_id":"free"},{"bike_id":"74e1bda0-e643-423e-97af-5e9115922988","system_id":"levelo_inurba_marseille","lat":43.292571,"lon":5.409107,"is_reserved":false,"is_disabled":false,"rental_uris":{"android":"levelo://app?vid=74e1bda0-e643-423e-97af-5e9115922988","ios":"levelo://app?vid=74e1bda0-e643-423e-97af-5e9115922988"},"vehicle_type_id":"4","last_reported":1698354364,"current_range_meters":12000,"station_id":"ce4bh192rcd13ifvqdc0","pricing_plan_id":"free"},{"bike_id":"5a5a58c5-7ea3-4ce2-9d60-03149020d74e","system_id":"levelo_inurba_marseille","lat":43.292569,"lon":5.409107,"is_reserved":false,"is_disabled":false,"rental_uris":{"android":"levelo://app?vid=5a5a58c5-7ea3-4ce2-9d60-03149020d74e","ios":"levelo://app?vid=5a5a58c5-7ea3-4ce2-9d60-03149020d74e"},"vehicle_type_id":"4","last_reported":1698354364,"current_range_meters":3200,"station_id":"ce4bh192rcd13ifvqdc0","pricing_plan_id":"free"},{"bike_id":"00970441-8ba5-4d4e-84fc-c0a9b8f1e483","system_id":"levelo_inurba_marseille","lat":43.29259,"lon":5.40915,"is_reserved":false,"is_disabled":false,"rental_uris":{"android":"levelo://app?vid=00970441-8ba5-4d4e-84fc-c0a9b8f1e483","ios":"levelo://app?vid=00970441-8ba5-4d4e-84fc-c0a9b8f1e483"},"vehicle_type_id":"4","last_reported":1698354364,"current_range_meters":23600,"station_id":"ce4bh192rcd13ifvqdc0","pricing_plan_id":"free"},{"bike_id":"71232912-1e69-49cd-b187-87023b17d3bd","system_id":"levelo_inurba_marseille","lat":43.27969,"lon":5.39042,"is_reserved":false,"is_disabled":false,"rental_uris":{"android":"levelo://app?vid=71232912-1e69-49cd-b187-87023b17d3bd","ios":"levelo://app?vid=71232912-1e69-49cd-b187-87023b17d3bd"},"vehicle_type_id":"4","last_reported":1698354364,"current_range_meters":400,"station_id":"","pricing_plan_id":"free"},{"bike_id":"231135d6-e981-45da-9c47-02afc511eaa4","system_id":"levelo_inurba_marseille","lat":43.280784,"lon":5.396622,"is_reserved":false,"is_disabled":false,"rental_uris":{"android":"levelo://app?vid=231135d6-e981-45da-9c47-02afc511eaa4","ios":"levelo://app?vid=231135d6-e981-45da-9c47-02afc511eaa4"},"vehicle_type_id":"4","last_reported":1698354364,"current_range_meters":6800,"station_id":"ce4bho12rcd13ifvqh2g","pricing_plan_id":"free"},{"bike_id":"73716c06-d3dc-4fdd-a54d-ec536aa49cf8","system_id":"levelo_inurba_marseille","lat":43.280784,"lon":5.396622,"is_reserved":false,"is_disabled":false,"rental_uris":{"android":"levelo://app?vid=73716c06-d3dc-4fdd-a54d-ec536aa49cf8","ios":"levelo://app?vid=73716c06-d3dc-4fdd-a54d-ec536aa49cf8"},"vehicle_type_id":"4","last_reported":1698354364,"current_range_meters":25600,"station_id":"ce4bho12rcd13ifvqh2g","pricing_plan_id":"free"},