{"last_updated":1701111946,"ttl":30,"version":"2.2","data":{"bikes":[{"bike_id":"f79e56b7-07fc-4cbb-8c5f-1219abdbaaa0","system_id":"levelo_inurba_marseille","lat":43.31341,"lon":5.367098,"is_reserved":false,"is_disabled":false,"rental_uris":{"android":"levelo://app?vid=f79e56b7-07fc-4cbb-8c5f-1219abdbaaa0","ios":"levelo://app?vid=f79e56b7-07fc-4cbb-8c5f-1219abdbaaa0"},"vehicle_type_id":"4","last_reported":1701111947,"current_range_meters":28400,"station_id":"ce4bgr92rcd13ifvqc6g","pricing_plan_id":"free"},{"bike_id":"f51fe9fd-4279-44cb-8049-f49fa432c2b0","system_id":"levelo_inurba_marseille","lat":43.31225,"lon":5.36852,"is_reserved":false,"is_disabled":false,"rental_uris":{"android":"levelo://app?vid=f51fe9fd-4279-44cb-8049-f49fa432c2b0","ios":"levelo://app?vid=f51fe9fd-4279-44cb-8049-f49fa432c2b0"},"vehicle_type_id":"4","last_reported":1701111947,"current_range_meters":31600,"station_id":"ce4bgl92rcd13ifvqbq0","pricing_plan_id":"free"},{"bike_id":"5126b0aa-d865-4589-8d50-8d8600ba8782","system_id":"levelo_inurba_marseille","lat":43.308501,"lon":5.368743,"is_reserved":false,"is_disabled":false,"rental_uris":{"android":"levelo://app?vid=5126b0aa-d865-4589-8d50-8d8600ba8782","ios":"levelo://app?vid=5126b0aa-d865-4589-8d50-8d8600ba8782"},"vehicle_type_id":"4","last_reported":1701111947,"current_range_meters":25600,"station_id":"","pricing_plan_id":"free"},{"bike_id":"4c3aff8e-69af-496f-b676-c009479e1889","system_id":"levelo_inurba_marseille","lat":43.314811,"lon":5.373103,"is_reserved":false,"is_disabled":false,"rental_uris":{"android":"levelo://app?vid=4c3aff8e-69af-496f-b676-c009479e1889","ios":"levelo://app?vid=4c3aff8e-69af-496f-b676-c009479e1889"},"vehicle_type_id":"4","last_reported":1701111947,"current_range_meters":30400,"station_id":"ce4bgt12rcd13ifvqcd0","pricing_plan_id":"free"},{"bike_id":"d54d3717-c271-46a6-b30d-d8c911a4d48b","system_id":"levelo_inurba_marseille","lat":43.314811,"lon":5.373104,"is_reserved":false,"is_disabled":false,"rental_uris":{"android":"levelo://app?vid=d54d3717-c271-46a6-b30d-d8c911a4d48b","ios":"levelo://app?vid=d54d3717-c271-46a6-b30d-d8c911a4d48b"},"vehicle_type_id":"4","last_reported":1701111947,"current_range_meters":25200,"station_id":"ce4bgt12rcd13ifvqcd0","pricing_plan_id":"free"},{"bike_id":"6fb76ca3-fafc-42d9-b691-f8ab39db6c20","system_id":"levelo_inurba_marseille","lat":43.309039,"lon":5.371797,"is_reserved":false,"is_disabled":false,"rental_uris":{"android":"levelo://app?vid=6fb76ca3-fafc-42d9-b691-f8ab39db6c20","ios":"levelo://app?vid=6fb76ca3-fafc-42d9-b691-f8ab39db6c20"},"vehicle_type_id":"4","last_reported":1701111947,"current_range_meters":30000,"station_id":"ce4bguh2rcd13ifvqckg","pricing_plan_id":"free"},{"bike_id":"fa4c08a8-f79b-4419-8791-02374ece74c7","system_id":"levelo_inurba_marseille","lat":43.316889,"lon":5.372801,"is_reserved":false,"is_disabled":false,"rental_uris":{"android":"levelo://app?vid=fa4c08a8-f79b-4419-8791-02374ece74c7","ios":"levelo://app?vid=fa4c08a8-f79b-4419-8791-02374ece74c7"},"vehicle_type_id":"4","last_reported":1701111947,"current_range_meters":4800,"station_id":"","pricing_plan_id":"free"},{"bike_id":"226310b2-638c-444c-a15f-247c16471cee","system_id":"levelo_inurba_marseille","lat":43.319295,"lon":5.368009,"is_reserved":false,"is_disabled":false,"rental_uris":{"android":"levelo://app?vid=226310b2-638c-444c-a15f-247c16471cee","ios":"levelo://app?vid=226310b2-638c-444c-a15f-247c16471cee"},"vehicle_type_id":"4","last_reported":1701111947,"current_range_meters":14400,"station_id":"","pricing_plan_id":"free"},{"bike_id":"58fa7a2c-3aca-437c-bc95-2a2d30e62ebf","system_id":"levelo_inurba_marseille","lat":43.305944,"lon":5.365643,"is_reserved":false,"is_disabled":false,"rental_uris":{"android":"levelo://app?vid=58fa7a2c-3aca-437c-bc95-2a2d30e62ebf","ios":"levelo://app?vid=58fa7a2c-3aca-437c-bc95-2a2d30e62ebf"},"vehicle_type_id":"4","last_reported":1701111947,"current_range_meters":0,"station_id":"ce4bgs12rcd13ifvqcag","pricing_plan_id":"free"},{"bike_id":"0525c228-cd5d-40c2-ac67-edd6915961b7","system_id":"levelo_inurba_marseille","lat":43.308185,"lon":5.376543,"is_reserved":false,"is_disabled":false,"rental_uris":{"android":"levelo://app?vid=0525c228-cd5d-40c2-ac67-edd6915961b7","ios":"levelo://app?vid=0525c228-cd5d-40c2-ac67-edd6915961b7"},"vehicle_type_id":"4","last_reported":1701111947,"current_range_meters":5200,"station_id":"ce4bgv92rcd13ifvqcq0","pricing_plan_id":"free"},{"bike_id":"fc415d5e-6575-4d37-9a53-1372d544d6af","system_id":"levelo_inurba_marseille","lat":43.30817,"lon":5.37656,"is_reserved":false,"is_disabled":false,"rental_uris":{"android":"levelo://app?vid=fc415d5e-6575-4d37-9a53-1372d544d6af","ios":"levelo://app?vid=fc415d5e-6575-4d37-9a53-1372d544d6af"},"vehicle_type_id":"4","last_reported":1701111947,"current_range_meters":24400,"station_id":"ce4bgv92rcd13ifvqcq0","pricing_plan_id":"free"},{"bike_id":"f427a2c3-6e4a-446b-ae2f-9be8aa7f4122","system_id":"levelo_inurba_marseille","lat":43.31719,"lon":5.376813,"is_reserved":false,"is_disabled":false,"rental_uris":{"android":"levelo://app?vid=f427a2c3-6e4a-446b-ae2f-9be8aa7f4122","ios":"levelo://app?vid=f427a2c3-6e4a-446b-ae2f-9be8aa7f4122"},"vehicle_type_id":"4","last_reported":1701111947,"current_range_meters":16400,"station_id":"ce4bgth2rcd13ifvqch0","pricing_plan_id":"free"},{"bike_id":"e913f328-1e31-4c22-bd87-f809ea246de4","system_id":"levelo_inurba_marseille","lat":43.317168,"lon":5.376883,"is_reserved":false,"is_disabled":false,"rental_uris":{"android":"levelo://app?vid=e913f328-1e31-4c22-bd87-f809ea246de4","ios":"levelo://app?vid=e913f328-1e31-4c22-bd87-f809ea246de4"},"vehicle_type_id":"4","last_reported":1701111947,"current_range_meters":18400,"station_id":"ce4bgth2rcd13ifvqch0","pricing_plan_id":"free"},{"bike_id":"800a6e4d-467f-4b78-b14d-ff35b8fdde3c","system_id":"levelo_inurba_marseille","lat":43.317075,"lon":5.377367,"is_reserved":false,"is_disabled":false,"rental_uris":{"android":"levelo://app?vid=800a6e4d-467f-4b78-b14d-ff35b8fdde3c","ios":"levelo://app?vid=800a6e4d-467f-4b78-b14d-ff35b8fdde3c"},"vehicle_type_id":"4","last_reported":1701111947,"current_range_meters":26800,"station_id":"ce4bgth2rcd13ifvqch0","pricing_plan_id":"free"},{"bike_id":"24a65149-d791-4078-993b-7e132ba452b5","system_id":"levelo_inurba_marseille","lat":43.317075,"lon":5.377367,"is_reserved":false,"is_disabled":false,"rental_uris":{"android":"levelo://app?vid=24a65149-d791-4078-993b-7e132ba452b5","ios":"levelo://app?vid=24a65149-d791-4078-993b-7e132ba452b5"},"vehicle_type_id":"4","last_reported":1701111947,"current_range_meters":22400,"station_id":"ce4bgth2rcd13ifvqch0","pricing_plan_id":"free"},{"bike_id":"d0aeb06d-4cab-437f-acc6-b30730ffe861","system_id":"levelo_inurba_marseille","lat":43.305956,"lon":5.374949,"is_reserved":false,"is_disabled":false,"rental_uris":{"android":"levelo://app?vid=d0aeb06d-4cab-437f-acc6-b30730ffe861","ios":"levelo://app?vid=d0aeb06d-4cab-437f-acc6-b30730ffe861"},"vehicle_type_id":"4","last_reported":1701111947,"current_range_meters":14800,"station_id":"","pricing_plan_id":"free"},{"bike_id":"c43dfa65-6ea9-44b4-bfbd-29a4ee9da93f","system_id":"levelo_inurba_marseille","lat":43.31538,"lon":5.38033,"is_reserved":false,"is_disabled":false,"rental_uris":{"android":"levelo://app?vid=c43dfa65-6ea9-44b4-bfbd-29a4ee9da93f","ios":"levelo://app?vid=c43dfa65-6ea9-44b4-bfbd-29a4ee9da93f"},"vehicle_type_id":"4","last_reported":1701111947,"current_range_meters":16000,"station_id":"ce4bhsp2rcd13ifvqi50","pricing_plan_id":"free"},{"bike_id":"890101ba-5717-4567-8078-1fd5f58ac813","system_id":"levelo_inurba_marseille","lat":43.301836,"lon":5.366041,"is_reserved":false,"is_disabled":false,"rental_uris":{"android":"levelo://app?vid=890101ba-5717-4567-8078-1fd5f58ac813","ios":"levelo://app?vid=890101ba-5717-4567-8078-1fd5f58ac813"},"vehicle_type_id":"4","last_reported":1701111947,"current_range_meters":31600,"station_id":"ce4bgrh2rcd13ifvqc8g","pricing_plan_id":"free"},{"bike_id":"7fcdacd0-b608-4301-ad7d-f2b3dd9cb659","system_id":"levelo_inurba_marseille","lat":43.30799,"lon":5.3815,"is_reserved":false,"is_disabled":false,"rental_uris":{"android":"levelo://app?vid=7fcdacd0-b608-4301-ad7d-f2b3dd9cb659","ios":"levelo://app?vid=7fcdacd0-b608-4301-ad7d-f2b3dd9cb659"},"vehicle_type_id":"4","last_reported":1701111947,"current_range_meters":0,"station_id":"ce4bgt12rcd13ifvqce0","pricing_plan_id":"free"},{"bike_id":"169e7a8c-ab15-4728-a7cf-9ac0ac0b95d6","system_id":"levelo_inurba_marseille","lat":43.308012,"lon":5.381511,"is_reserved":false,"is_disabled":false,"rental_uris":{"android":"levelo://app?vid=169e7a8c-ab15-4728-a7cf-9ac0ac0b95d6","ios":"levelo://app?vid=169e7a8c-ab15-4728-a7cf-9ac0ac0b95d6"},"vehicle_type_id":"4","last_reported":1701111947,"current_range_meters":14000,"station_id":"ce4bgt12rcd13ifvqce0","pricing_plan_id":"free"},{"bike_id":"74c61186-5a22-47b0-9c3e-c78231c21522","system_id":"levelo_inurba_marseille","lat":43.304667,"lon":5.378963,"is_reserved":false,"is_disabled":false,"rental_uris":{"android":"levelo://app?vid=74c61186-5a22-47b0-9c3e-c78231c21522","ios":"levelo://app?vid=74c61186-5a22-47b0-9c3e-c78231c21522"},"vehicle_type_id":"4","last_reported":1701111947,"current_range_meters":18400,"station_id":"","pricing_plan_id":"free"},{"bike_id":"38a0cb83-86d3-4ff4-b0c4-b811600aa0c9","system_id":"levelo_inurba_marseille","lat":43.30143,"lon":5.37413,"is_reserved":false,"is_disabled":false,"rental_uris":{"android":"levelo://app?vid=38a0cb83-86d3-4ff4-b0c4-b811600aa0c9","ios":"levelo://app?vid=38a0cb83-86d3-4ff4-b0c4-b811600aa0c9"},"vehicle_type_id":"4","last_reported":1701111947,"current_range_meters":20000,"station_id":"ce4bgs92rcd13ifvqcc0","pricing_plan_id":"free"},{"bike_id":"4ad8db87-2e2d-4900-a804-a1bb931ba164","system_id":"levelo_inurba_marseille","lat":43.319935,"lon":5.381699,"is_reserved":false,"is_disabled":false,"rental_uris":{"android":"levelo://app?vid=4ad8db87-2e2d-4900-a804-a1bb931ba164","ios":"levelo://app?vid=4ad8db87-2e2d-4900-a804-a1bb931ba164"},"vehicle_type_id":"4","last_reported":1701111947,"current_range_meters":400,"station_id":"ce4bhr12rcd13ifvqhpg","pricing_plan_id":"free"},{"bike_id":"e17a7de5-ebd4-42fc-8860-6e511f77b829","system_id":"levelo_inurba_marseille","lat":43.325144,"lon":5.361742,"is_reserved":false,"is_disabled":false,"rental_uris":{"android":"levelo://app?vid=e17a7de5-ebd4-42fc-8860-6e511f77b829","ios":"levelo://app?vid=e17a7de5-ebd4-42fc-8860-6e511f77b829"},"vehicle_type_id":"4","last_reported":1701111947,"current_range_meters":27200,"station_id":"","pricing_plan_id":"free"},{"bike_id":"92930f2b-69bb-4538-986b-2be382e882c0","system_id":"levelo_inurba_marseille","lat":43.299724,"lon":5.371829,"is_reserved":false,"is_disabled":false,"rental_uris":{"android":"levelo://app?vid=92930f2b-69bb-4538-986b-2be382e882c0","ios":"levelo://app?vid=92930f2b-69bb-4538-986b-2be382e882c0"},"vehicle_type_id":"4","last_reported":1701111947,"current_range_meters":30400,"station_id":"ce4bgr92rcd13ifvqc7g","pricing_plan_id":"free"},{"bike_id":"8c029cae-57fa-481b-9679-2aa288e46727","system_id":"levelo_inurba_marseille","lat":43.30209,"lon":5.37969,"is_reserved":false,"is_disabled":false,"rental_uris":{"android":"levelo://app?vid=8c029cae-57fa-481b-9679-2aa288e46727","ios":"levelo://app?vid=8c029cae-57fa-481b-9679-2aa288e46727"},"vehicle_type_id":"4","last_reported":1701111947,"current_range_meters":1200,"station_id":"","pricing_plan_id":"free"},{"bike_id":"960ddd66-3484-4b68-94cb-4eda287503cc","system_id":"levelo_inurba_marseille","lat":43.299243,"lon":5.37481,"is_reserved":false,"is_disabled":false,"rental_uris":{"android":"levelo://app?vid=960ddd66-3484-4b68-94cb-4eda287503cc","ios":"levelo://app?vid=960ddd66-3484-4b68-94cb-4eda287503cc"},"vehicle_type_id":"4","last_reported":1701111947,"current_range_meters":25200,"station_id":"ce4bgjh2rcd13ifvqbg0","pricing_plan_id":"free"},{"bike_id":"1000a605-b623-4a9a-af4f-16cadc09c3af","system_id":"levelo_inurba_marseille","lat":43.31172,"lon":5.38714,"is_reserved":false,"is_disabled":false,"rental_uris":{"android":"levelo://app?vid=1000a605-b623-4a9a-af4f-16cadc09c3af","ios":"levelo://app?vid=1000a605-b623-4a9a-af4f-16cadc09c3af"},"vehicle_type_id":"4","last_reported":1701111947,"current_range_meters":14000,"station_id":"ce4bgv12rcd13ifvqcp0","pricing_plan_id":"free"},{"bike_id":"da8867e4-3aea-4116-9ff2-4162b438ba99","system_id":"levelo_inurba_marseille","lat":43.311722,"lon":5.387247,"is_reserved":false,"is_disabled":false,"rental_uris":{"android":"levelo://app?vid=da8867e4-3aea-4116-9ff2-4162b438ba99","ios":"levelo://app?vid=da8867e4-3aea-4116-9ff2-4162b438ba99"},"vehicle_type_id":"4","last_reported":1701111947,"current_range_meters":21600,"station_id":"ce4bgv12rcd13ifvqcp0","pricing_plan_id":"free"},{"bike_id":"c9642f5c-7f0b-424a-ab35-d8bcc813e4ea","system_id":"levelo_inurba_marseille","lat":43.299243,"lon":5.37481,"is_reserved":false,"is_disabled":false,"rental_uris":{"android":"levelo://app?vid=c9642f5c-7f0b-424a-ab35-d8bcc813e4ea","ios":"levelo://app?vid=c9642f5c-7f0b-424a-ab35-d8bcc813e4ea"},"vehicle_type_id":"4","last_reported":1701111947,"current_range_meters":7600,"station_id":"ce4bgjh2rcd13ifvqbg0","pricing_plan_id":"free"},{"bike_id":"72fbfa94-77d9-4912-95b8-60583037e6ba","system_id":"levelo_inurba_marseille","lat":43.311722,"lon":5.387247,"is_reserved":false,"is_disabled":false,"rental_uris":{"android":"levelo://app?vid=72fbfa94-77d9-4912-95b8-60583037e6ba","ios":"levelo://app?vid=72fbfa94-77d9-4912-95b8-60583037e6ba"},"vehicle_type_id":"4","last_reported":1701111947,"current_range_meters":6800,"station_id":"ce4bgv12rcd13ifvqcp0","pricing_plan_id":"free"},{"bike_id":"ea81c7a7-10cd-4f6b-b0a5-a3d91306bc0f","system_id":"levelo_inurba_marseille","lat":43.322872,"lon":5.382756,"is_reserved":false,"is_disabled":false,"rental_uris":{"android":"levelo://app?vid=ea81c7a7-10cd-4f6b-b0a5-a3d91306bc0f","ios":"levelo://app?vid=ea81c7a7-10cd-4f6b-b0a5-a3d91306bc0f"},"vehicle_type_id":"4","last_reported":1701111947,"current_range_meters":30000,"station_id":"ce4bhr12rcd13ifvqhqg","pricing_plan_id":"free"},{"bike_id":"35d17bd9-a3c4-47ea-96a3-a9a37b243ab9","system_id":"levelo_inurba_marseille","lat":43.328338,"lon":5.36673,"is_reserved":false,"is_disabled":false,"rental_uris":{"android":"levelo://app?vid=35d17bd9-a3c4-47ea-96a3-a9a37b243ab9","ios":"levelo://app?vid=35d17bd9-a3c4-47ea-96a3-a9a37b243ab9"},"vehicle_type_id":"4","last_reported":1701111947,"current_range_meters":21600,"station_id":"ce4bhs92rcd13ifvqi0g","pricing_plan_id":"free"},{"bike_id":"f7f59c23-bc6f-479d-8752-b4ab95b41a11","system_id":"levelo_inurba_marseille","lat":43.297163,"lon":5.365866,"is_reserved":false,"is_disabled":false,"rental_uris":{"android":"levelo://app?vid=f7f59c23-bc6f-479d-8752-b4ab95b41a11","ios":"levelo://app?vid=f7f59c23-bc6f-479d-8752-b4ab95b41a11"},"vehicle_type_id":"4","last_reported":1701111947,"current_range_meters":25600,"station_id":"ce4bgn12rcd13ifvqbt0","pricing_plan_id":"free"},{"bike_id":"69526fd8-bd61-4c81-acee-5dc202c982ba","system_id":"levelo_inurba_marseille","lat":43.2968,"lon":5.37291,"is_reserved":false,"is_disabled":false,"rental_uris":{"android":"levelo://app?vid=69526fd8-bd61-4c81-acee-5dc202c982ba","ios":"levelo://app?vid=69526fd8-bd61-4c81-acee-5dc202c982ba"},"vehicle_type_id":"4","last_reported":1701111947,"current_range_meters":4800,"station_id":"ce4bgk12rcd13ifvqbj0","pricing_plan_id":"free"},{"bike_id":"4c95beac-a5ce-4bfa-b22f-3c47a7c86e4e","system_id":"levelo_inurba_marseille","lat":43.295901,"lon":5.367986,"is_reserved":false,"is_disabled":false,"rental_uris":{"android":"levelo://app?vid=4c95beac-a5ce-4bfa-b22f-3c47a7c86e4e","ios":"levelo://app?vid=4c95beac-a5ce-4bfa-b22f-3c47a7c86e4e"},"vehicle_type_id":"4","last_reported":1701111947,"current_range_meters":22800,"station_id":"","pricing_plan_id":"free"},{"bike_id":"c933b50d-a7cb-4535-8942-e3ca4fedb32a","system_id":"levelo_inurba_marseille","lat":43.296129,"lon":5.370777,"is_reserved":false,"is_disabled":false,"rental_uris":{"android":"levelo://app?vid=c933b50d-a7cb-4535-8942-e3ca4fedb32a","ios":"levelo://app?vid=c933b50d-a7cb-4535-8942-e3ca4fedb32a"},"vehicle_type_id":"4","last_reported":1701111947,"current_range_meters":18800,"station_id":"ce4bgnh2rcd13ifvqc0g","pricing_plan_id":"free"},{"bike_id":"c3b896de-a20e-4d27-809d-dc4c37680959","system_id":"levelo_inurba_marseille","lat":43.29573,"lon":5.367355,"is_reserved":false,"is_disabled":false,"rental_uris":{"android":"levelo://app?vid=c3b896de-a20e-4d27-809d-dc4c37680959","ios":"levelo://app?vid=c3b896de-a20e-4d27-809d-dc4c37680959"},"vehicle_type_id":"4","last_reported":1701111947,"current_range_meters":0,"station_id":"ce4bgph2rcd13ifvqc2g","pricing_plan_id":"free"},{"bike_id":"822f537c-d44a-438d-a78c-74cb3f439fa7","system_id":"levelo_inurba_marseille","lat":43.317557,"lon":5.390173,"is_reserved":false,"is_disabled":false,"rental_uris":{"android":"levelo://app?vid=822f537c-d44a-438d-a78c-74cb3f439fa7","ios":"levelo://app?vid=822f537c-d44a-438d-a78c-74cb3f439fa7"},"vehicle_type_id":"4","last_reported":1701111947,"current_range_meters":28000,"station_id":"ce4bhqp2rcd13ifvqhng","pricing_plan_id":"free"},{"bike_id":"f7d594ed-0691-410a-8d26-fc338c22b62d","system_id":"levelo_inurba_marseille","lat":43.29579,"lon":5.37503,"is_reserved":false,"is_disabled":false,"rental_uris":{"android":"levelo://app?vid=f7d594ed-0691-410a-8d26-fc338c22b62d","ios":"levelo://app?vid=f7d594ed-0691-410a-8d26-fc338c22b62d"},"vehicle_type_id":"4","last_reported":1701111947,"current_range_meters":23200,"station_id":"ce4bgh92rcd13ifvqb50","pricing_plan_id":"free"},{"bike_id":"4a990a4a-4abb-478c-af13-e7cd89b4b263","system_id":"levelo_inurba_marseille","lat":43.304274,"lon":5.388873,"is_reserved":false,"is_disabled":false,"rental_uris":{"android":"levelo://app?vid=4a990a4a-4abb-478c-af13-e7cd89b4b263","ios":"levelo://app?vid=4a990a4a-4abb-478c-af13-e7cd89b4b263"},"vehicle_type_id":"4","last_reported":1701111947,"current_range_meters":25600,"station_id":"ce4bgk12rcd13ifvqbi0","pricing_plan_id":"free"},{"bike_id":"6220feb7-bb70-44b0-983a-c8bb1b300333","system_id":"levelo_inurba_marseille","lat":43.298037,"lon":5.381066,"is_reserved":false,"is_disabled":false,"rental_uris":{"android":"levelo://app?vid=6220feb7-bb70-44b0-983a-c8bb1b300333","ios":"levelo://app?vid=6220feb7-bb70-44b0-983a-c8bb1b300333"},"vehicle_type_id":"4","last_reported":1701111947,"current_range_meters":23600,"station_id":"ce4bgip2rcd13ifvqbb0","pricing_plan_id":"free"},{"bike_id":"780f9145-2062-4ab8-857e-5aeadfbac862","system_id":"levelo_inurba_marseille","lat":43.304278,"lon":5.388868,"is_reserved":false,"is_disabled":false,"rental_uris":{"android":"levelo://app?vid=780f9145-2062-4ab8-857e-5aeadfbac862","ios":"levelo://app?vid=780f9145-2062-4ab8-857e-5aeadfbac862"},"vehicle_type_id":"4","last_reported":1701111947,"current_range_meters":6800,"station_id":"ce4bgk12rcd13ifvqbi0","pricing_plan_id":"free"},{"bike_id":"80bc3533-f338-4da9-81a6-a686c518efa0","system_id":"levelo_inurba_marseille","lat":43.296263,"lon":5.377094,"is_reserved":false,"is_disabled":false,"rental_uris":{"android":"levelo://app?vid=80bc3533-f338-4da9-81a6-a686c518efa0","ios":"levelo://app?vid=80bc3533-f338-4da9-81a6-a686c518efa0"},"vehicle_type_id":"4","last_reported":1701111947,"current_range_meters":18400,"station_id":"ce4bgi92rcd13ifvqb90","pricing_plan_id":"free"},{"bike_id":"38e24d66-a365-4f9d-97a6-f9da2f6eb831","system_id":"levelo_inurba_marseille","lat":43.295279,"lon":5.375048,"is_reserved":false,"is_disabled":false,"rental_uris":{"android":"levelo://app?vid=38e24d66-a365-4f9d-97a6-f9da2f6eb831","ios":"levelo://app?vid=38e24d66-a365-4f9d-97a6-f9da2f6eb831"},"vehicle_type_id":"4","last_reported":1701111947,"current_range_meters":19600,"station_id":"ce4bgkp2rcd13ifvqbmg","pricing_plan_id":"free"},{"bike_id":"9a18a13e-cd42-46a9-ba33-c4220b958ccf","system_id":"levelo_inurba_marseille","lat":43.299707,"lon":5.384859,"is_reserved":false,"is_disabled":false,"rental_uris":{"android":"levelo://app?vid=9a18a13e-cd42-46a9-ba33-c4220b958ccf","ios":"levelo://app?vid=9a18a13e-cd42-46a9-ba33-c4220b958ccf"},"vehicle_type_id":"4","last_reported":1701111947,"current_range_meters":24800,"station_id":"ce4bgj92rcd13ifvqbd0","pricing_plan_id":"free"},{"bike_id":"9d2fe8e8-d094-4fa4-b05d-28f8c75fad63","system_id":"levelo_inurba_marseille","lat":43.299707,"lon":5.384859,"is_reserved":false,"is_disabled":false,"rental_uris":{"android":"levelo://app?vid=9d2fe8e8-d094-4fa4-b05d-28f8c75fad63","ios":"levelo://app?vid=9d2fe8e8-d094-4fa4-b05d-28f8c75fad63"},"vehicle_type_id":"4","last_reported":1701111947,"current_range_meters":8000,"station_id":"ce4bgj92rcd13ifvqbd0","pricing_plan_id":"free"},{"bike_id":"6ab5d1e1-8136-4b00-9804-81be7de1b3c5","system_id":"levelo_inurba_marseille","lat":43.299717,"lon":5.384845,"is_reserved":false,"is_disabled":false,"rental_uris":{"android":"levelo://app?vid=6ab5d1e1-8136-4b00-9804-81be7de1b3c5","ios":"levelo://app?vid=6ab5d1e1-8136-4b00-9804-81be7de1b3c5"},"vehicle_type_id":"4","last_reported":1701111947,"current_range_meters":16800,"station_id":"ce4bgj92rcd13ifvqbd0","pricing_plan_id":"free"},{"bike_id":"707013bc-b378-4364-bebc-7afc219dabba","system_id":"levelo_inurba_marseille","lat":43.29601,"lon":5.381084,"is_reserved":false,"is_disabled":false,"rental_uris":{"android":"levelo://app?vid=707013bc-b378-4364-bebc-7afc219dabba","ios":"levelo://app?vid=707013bc-b378-4364-bebc-7afc219dabba"},"vehicle_type_id":"4","last_reported":1701111947,"current_range_meters":9600,"station_id":"ce4bgl12rcd13ifvqbo0","pricing_plan_id":"free"},{"bike_id":"23ed4671-0bc8-428f-96ab-d536297c9e00","system_id":"levelo_inurba_marseille","lat":43.293259,"lon":5.371586,"is_reserved":false,"is_disabled":false,"rental_uris":{"android":"levelo://app?vid=23ed4671-0bc8-428f-96ab-d536297c9e00","ios":"levelo://app?vid=23ed4671-0bc8-428f-96ab-d536297c9e00"},"vehicle_type_id":"4","last_reported":1701111947,"current_range_meters":2800,"station_id":"ce4bgh92rcd13ifvqb40","pricing_plan_id":"free"},{"bike_id":"2f1e1989-0da0-4247-b69d-4f3339b2ad4f","system_id":"levelo_inurba_marseille","lat":43.292813,"lon":5.368436,"is_reserved":false,"is_disabled":false,"rental_uris":{"android":"levelo://app?vid=2f1e1989-0da0-4247-b69d-4f3339b2ad4f","ios":"levelo://app?vid=2f1e1989-0da0-4247-b69d-4f3339b2ad4f"},"vehicle_type_id":"4","last_reported":1701111947,"current_range_meters":30000,"station_id":"ce4bhbp2rcd13ifvqesg","pricing_plan_id":"free"},{"bike_id":"f749613b-da0f-4ab3-a901-34985f60dfdf","system_id":"levelo_inurba_marseille","lat":43.293259,"lon":5.371586,"is_reserved":false,"is_disabled":false,"rental_uris":{"android":"levelo://app?vid=f749613b-da0f-4ab3-a901-34985f60dfdf","ios":"levelo://app?vid=f749613b-da0f-4ab3-a901-34985f60dfdf"},"vehicle_type_id":"4","last_reported":1701111947,"current_range_meters":21600,"station_id":"ce4bgh92rcd13ifvqb40","pricing_plan_id":"free"},{"bike_id":"9083123d-c980-4ad5-9897-eed38ecd66ba","system_id":"levelo_inurba_marseille","lat":43.305994,"lon":5.393687,"is_reserved":false,"is_disabled":false,"rental_uris":{"android":"levelo://app?vid=9083123d-c980-4ad5-9897-eed38ecd66ba","ios":"levelo://app?vid=9083123d-c980-4ad5-9897-eed38ecd66ba"},"vehicle_type_id":"4","last_reported":1701111947,"current_range_meters":20400,"station_id":"ce4bh0p2rcd13ifvqd80","pricing_plan_id":"free"},{"bike_id":"560ffa87-286e-4454-bf3c-81de0327863b","system_id":"levelo_inurba_marseille","lat":43.2936,"lon":5.37835,"is_reserved":false,"is_disabled":false,"rental_uris":{"android":"levelo://app?vid=560ffa87-286e-4454-bf3c-81de0327863b","ios":"levelo://app?vid=560ffa87-286e-4454-bf3c-81de0327863b"},"vehicle_type_id":"4","last_reported":1701111947,"current_range_meters":18800,"station_id":"ce4bgjh2rcd13ifvqbf0","pricing_plan_id":"free"},{"bike_id":"b69451bb-0f34-4a12-bb1f-0c7b7daebaa3","system_id":"levelo_inurba_marseille","lat":43.30085,"lon":5.390856,"is_reserved":false,"is_disabled":false,"rental_uris":{"android":"levelo://app?vid=b69451bb-0f34-4a12-bb1f-0c7b7daebaa3","ios":"levelo://app?vid=b69451bb-0f34-4a12-bb1f-0c7b7daebaa3"},"vehicle_type_id":"4","last_reported":1701111947,"current_range_meters":12400,"station_id":"ce4bh192rcd13ifvqdb0","pricing_plan_id":"free"},{"bike_id":"77ab737f-65f6-4d9a-abf3-ecbbf83bddc7","system_id":"levelo_inurba_marseille","lat":43.30085,"lon":5.390856,"is_reserved":false,"is_disabled":false,"rental_uris":{"android":"levelo://app?vid=77ab737f-65f6-4d9a-abf3-ecbbf83bddc7","ios":"levelo://app?vid=77ab737f-65f6-4d9a-abf3-ecbbf83bddc7"},"vehicle_type_id":"4","last_reported":1701111947,"current_range_meters":18000,"station_id":"ce4bh192rcd13ifvqdb0","pricing_plan_id":"free"},{"bike_id":"429ac9d4-3016-4a22-81c3-c9c49695c92a","system_id":"levelo_inurba_marseille","lat":43.292311,"lon":5.360731,"is_reserved":false,"is_disabled":false,"rental_uris":{"android":"levelo://app?vid=429ac9d4-3016-4a22-81c3-c9c49695c92a","ios":"levelo://app?vid=429ac9d4-3016-4a22-81c3-c9c49695c92a"},"vehicle_type_id":"4","last_reported":1701111947,"current_range_meters":24800,"station_id":"ce4bhbh2rcd13ifvqeqg","pricing_plan_id":"free"},{"bike_id":"39a11d33-db16-4355-be00-075316ae41c9","system_id":"levelo_inurba_marseille","lat":43.29888,"lon":5.389,"is_reserved":false,"is_disabled":false,"rental_uris":{"android":"levelo://app?vid=39a11d33-db16-4355-be00-075316ae41c9","ios":"levelo://app?vid=39a11d33-db16-4355-be00-075316ae41c9"},"vehicle_type_id":"4","last_reported":1701111947,"current_range_meters":5200,"station_id":"ce4bh392rcd13ifvqdl0","pricing_plan_id":"free"},{"bike_id":"c75c1b3c-c90f-4a2e-9058-5af1a488093f","system_id":"levelo_inurba_marseille","lat":43.29888,"lon":5.38908,"is_reserved":false,"is_disabled":false,"rental_uris":{"android":"levelo://app?vid=c75c1b3c-c90f-4a2e-9058-5af1a488093f","ios":"levelo://app?vid=c75c1b3c-c90f-4a2e-9058-5af1a488093f"},"vehicle_type_id":"4","last_reported":1701111947,"current_range_meters":18400,"station_id":"ce4bh392rcd13ifvqdl0","pricing_plan_id":"free"},{"bike_id":"923100cc-607d-447b-bf3b-17960e6836e9","system_id":"levelo_inurba_marseille","lat":43.298764,"lon":5.388973,"is_reserved":false,"is_disabled":false,"rental_uris":{"android":"levelo://app?vid=923100cc-607d-447b-bf3b-17960e6836e9","ios":"levelo://app?vid=923100cc-607d-447b-bf3b-17960e6836e9"},"vehicle_type_id":"4","last_reported":1701111947,"current_range_meters":23600,"station_id":"ce4bh392rcd13ifvqdl0","pricing_plan_id":"free"},{"bike_id":"d40013d1-59d2-41a1-a7cd-198c6aed02f2","system_id":"levelo_inurba_marseille","lat":43.29867,"lon":5.38898,"is_reserved":false,"is_disabled":false,"rental_uris":{"android":"levelo://app?vid=d40013d1-59d2-41a1-a7cd-198c6aed02f2","ios":"levelo://app?vid=d40013d1-59d2-41a1-a7cd-198c6aed02f2"},"vehicle_type_id":"4","last_reported":1701111947,"current_range_meters":3600,"station_id":"ce4bh392rcd13ifvqdl0","pricing_plan_id":"free"},{"bike_id":"f2e7533f-807d-4008-803e-979b23a6f127","system_id":"levelo_inurba_marseille","lat":43.298665,"lon":5.389075,"is_reserved":false,"is_disabled":false,"rental_uris":{"android":"levelo://app?vid=f2e7533f-807d-4008-803e-979b23a6f127","ios":"levelo://app?vid=f2e7533f-807d-4008-803e-979b23a6f127"},"vehicle_type_id":"4","last_reported":1701111947,"current_range_meters":31200,"station_id":"ce4bh392rcd13ifvqdl0","pricing_plan_id":"free"},{"bike_id":"9dfc1be4-40e0-479e-8a23-39504815e756","system_id":"levelo_inurba_marseille","lat":43.332225,"lon":5.379661,"is_reserved":false,"is_disabled":false,"rental_uris":{"android":"levelo://app?vid=9dfc1be4-40e0-479e-8a23-39504815e756","ios":"levelo://app?vid=9dfc1be4-40e0-479e-8a23-39504815e756"},"vehicle_type_id":"4","last_reported":1701111947,"current_range_meters":30800,"station_id":"","pricing_plan_id":"free"},{"bike_id":"ffd2f3d5-48d1-44e1-8a70-b3ec6e07e524","system_id":"levelo_inurba_marseille","lat":43.313291,"lon":5.396838,"is_reserved":false,"is_disabled":false,"rental_uris":{"android":"levelo://app?vid=ffd2f3d5-48d1-44e1-8a70-b3ec6e07e524","ios":"levelo://app?vid=ffd2f3d5-48d1-44e1-8a70-b3ec6e07e524"},"vehicle_type_id":"4","last_reported":1701111947,"current_range_meters":20800,"station_id":"ce4bgvp2rcd13ifvqcu0","pricing_plan_id":"free"},{"bike_id":"20004e16-1ca4-432a-a09f-ad1c3246a7b7","system_id":"levelo_inurba_marseille","lat":43.31327,"lon":5.396965,"is_reserved":false,"is_disabled":false,"rental_uris":{"android":"levelo://app?vid=20004e16-1ca4-432a-a09f-ad1c3246a7b7","ios":"levelo://app?vid=20004e16-1ca4-432a-a09f-ad1c3246a7b7"},"vehicle_type_id":"4","last_reported":1701111947,"current_range_meters":16400,"station_id":"ce4bgvp2rcd13ifvqcu0","pricing_plan_id":"free"},{"bike_id":"426f9d18-32b2-44eb-a83a-9735cdad1d51","system_id":"levelo_inurba_marseille","lat":43.309038,"lon":5.396546,"is_reserved":false,"is_disabled":false,"rental_uris":{"android":"levelo://app?vid=426f9d18-32b2-44eb-a83a-9735cdad1d51","ios":"levelo://app?vid=426f9d18-32b2-44eb-a83a-9735cdad1d51"},"vehicle_type_id":"4","last_reported":1701111947,"current_range_meters":14000,"station_id":"ce4bh012rcd13ifvqcv0","pricing_plan_id":"free"},{"bike_id":"f598fe59-5578-41ed-9e91-7aff8a96a8f3","system_id":"levelo_inurba_marseille","lat":43.309047,"lon":5.396551,"is_reserved":false,"is_disabled":false,"rental_uris":{"android":"levelo://app?vid=f598fe59-5578-41ed-9e91-7aff8a96a8f3","ios":"levelo://app?vid=f598fe59-5578-41ed-9e91-7aff8a96a8f3"},"vehicle_type_id":"4","last_reported":1701111947,"current_range_meters":15200,"station_id":"ce4bh012rcd13ifvqcv0","pricing_plan_id":"free"},{"bike_id":"5b97784f-584b-450a-ac31-68dd1e667244","system_id":"levelo_inurba_marseille","lat":43.30214,"lon":5.39467,"is_reserved":false,"is_disabled":false,"rental_uris":{"android":"levelo://app?vid=5b97784f-584b-450a-ac31-68dd1e667244","ios":"levelo://app?vid=5b97784f-584b-450a-ac31-68dd1e667244"},"vehicle_type_id":"4","last_reported":1701111947,"current_range_meters":25200,"station_id":"ce4bh0p2rcd13ifvqd70","pricing_plan_id":"free"},{"bike_id":"985b7c02-afd7-4b7b-8d03-eb2c8b458f07","system_id":"levelo_inurba_marseille","lat":43.29414,"lon":5.38626,"is_reserved":false,"is_disabled":false,"rental_uris":{"android":"levelo://app?vid=985b7c02-afd7-4b7b-8d03-eb2c8b458f07","ios":"levelo://app?vid=985b7c02-afd7-4b7b-8d03-eb2c8b458f07"},"vehicle_type_id":"4","last_reported":1701111947,"current_range_meters":0,"station_id":"ce4bh2h2rcd13ifvqdh0","pricing_plan_id":"free"},{"bike_id":"65537db9-1ff1-4cdd-828f-28f36d467f8d","system_id":"levelo_inurba_marseille","lat":43.2894,"lon":5.364035,"is_reserved":false,"is_disabled":false,"rental_uris":{"android":"levelo://app?vid=65537db9-1ff1-4cdd-828f-28f36d467f8d","ios":"levelo://app?vid=65537db9-1ff1-4cdd-828f-28f36d467f8d"},"vehicle_type_id":"4","last_reported":1701111947,"current_range_meters":0,"station_id":"ce4bhc92rcd13ifvqetg","pricing_plan_id":"free"},{"bike_id":"54014d91-8d14-4a72-b476-641e5deac1be","system_id":"levelo_inurba_marseille","lat":43.292644,"lon":5.384257,"is_reserved":false,"is_disabled":false,"rental_uris":{"android":"levelo://app?vid=54014d91-8d14-4a72-b476-641e5deac1be","ios":"levelo://app?vid=54014d91-8d14-4a72-b476-641e5deac1be"},"vehicle_type_id":"4","last_reported":1701111947,"current_range_meters":17600,"station_id":"ce4bh692rcd13ifvqea0","pricing_plan_id":"free"},{"bike_id":"a351cab0-10a9-4df4-953c-4fd50466a12b","system_id":"levelo_inurba_marseille","lat":43.330365,"lon":5.389153,"is_reserved":false,"is_disabled":false,"rental_uris":{"android":"levelo://app?vid=a351cab0-10a9-4df4-953c-4fd50466a12b","ios":"levelo://app?vid=a351cab0-10a9-4df4-953c-4fd50466a12b"},"vehicle_type_id":"4","last_reported":1701111947,"current_range_meters":5600,"station_id":"ce4bhr92rcd13ifvqhrg","pricing_plan_id":"free"},{"bike_id":"0e8b74c5-db88-4ede-90fd-1c86c15e2e8f","system_id":"levelo_inurba_marseille","lat":43.330442,"lon":5.389148,"is_reserved":false,"is_disabled":false,"rental_uris":{"android":"levelo://app?vid=0e8b74c5-db88-4ede-90fd-1c86c15e2e8f","ios":"levelo://app?vid=0e8b74c5-db88-4ede-90fd-1c86c15e2e8f"},"vehicle_type_id":"4","last_reported":1701111947,"current_range_meters":14000,"station_id":"ce4bhr92rcd13ifvqhrg","pricing_plan_id":"free"},{"bike_id":"733df573-ef55-4625-82f6-5556c4c6510e","system_id":"levelo_inurba_marseille","lat":43.330442,"lon":5.389148,"is_reserved":false,"is_disabled":false,"rental_uris":{"android":"levelo://app?vid=733df573-ef55-4625-82f6-5556c4c6510e","ios":"levelo://app?vid=733df573-ef55-4625-82f6-5556c4c6510e"},"vehicle_type_id":"4","last_reported":1701111947,"current_range_meters":18400,"station_id":"ce4bhr92rcd13ifvqhrg","pricing_plan_id":"free"},{"bike_id":"9cb2e143-991f-4b64-9aeb-5b2b87f3e627","system_id":"levelo_inurba_marseille","lat":43.295169,"lon":5.390426,"is_reserved":false,"is_disabled":false,"rental_uris":{"android":"levelo://app?vid=9cb2e143-991f-4b64-9aeb-5b2b87f3e627","ios":"levelo://app?vid=9cb2e143-991f-4b64-9aeb-5b2b87f3e627"},"vehicle_type_id":"4","last_reported":1701111947,"current_range_meters":24800,"station_id":"ce4bh3p2rcd13ifvqdp0","pricing_plan_id":"free"},{"bike_id":"d9b955d1-954f-42c5-99a9-57c968f2c76e","system_id":"levelo_inurba_marseille","lat":43.295169,"lon":5.390426,"is_reserved":false,"is_disabled":false,"rental_uris":{"android":"levelo://app?vid=d9b955d1-954f-42c5-99a9-57c968f2c76e","ios":"levelo://app?vid=d9b955d1-954f-42c5-99a9-57c968f2c76e"},"vehicle_type_id":"4","last_reported":1701111947,"current_range_meters":28400,"station_id":"ce4bh3p2rcd13ifvqdp0","pricing_plan_id":"free"},{"bike_id":"c903c1d2-9a0e-41ce-bb03-5686834c5b1f","system_id":"levelo_inurba_marseille","lat":43.295169,"lon":5.390426,"is_reserved":false,"is_disabled":false,"rental_uris":{"android":"levelo://app?vid=c903c1d2-9a0e-41ce-bb03-5686834c5b1f","ios":"levelo://app?vid=c903c1d2-9a0e-41ce-bb03-5686834c5b1f"},"vehicle_type_id":"4","last_reported":1701111947,"current_range_meters":22800,"station_id":"ce4bh3p2rcd13ifvqdp0","pricing_plan_id":"free"},{"bike_id":"ac7422dd-0446-4f47-9dd4-184763ecc50c","system_id":"levelo_inurba_marseille","lat":43.295169,"lon":5.390426,"is_reserved":false,"is_disabled":false,"rental_uris":{"android":"levelo://app?vid=ac7422dd-0446-4f47-9dd4-184763ecc50c","ios":"levelo://app?vid=ac7422dd-0446-4f47-9dd4-184763ecc50c"},"vehicle_type_id":"4","last_reported":1701111947,"current_range_meters":31600,"station_id":"ce4bh3p2rcd13ifvqdp0","pricing_plan_id":"free"},{"bike_id":"addb3e50-3a2c-4803-9317-cff8a3badf2d","system_id":"levelo_inurba_marseille","lat":43.29529,"lon":5.39047,"is_reserved":false,"is_disabled":false,"rental_uris":{"android":"levelo://app?vid=addb3e50-3a2c-4803-9317-cff8a3badf2d","ios":"levelo://app?vid=addb3e50-3a2c-4803-9317-cff8a3badf2d"},"vehicle_type_id":"4","last_reported":1701111947,"current_range_meters":27200,"station_id":"ce4bh3p2rcd13ifvqdp0","pricing_plan_id":"free"},{"bike_id":"09ff7de5-bc47-4d10-a20b-d1141c9b869e","system_id":"levelo_inurba_marseille","lat":43.295276,"lon":5.390488,"is_reserved":false,"is_disabled":false,"rental_uris":{"android":"levelo://app?vid=09ff7de5-bc47-4d10-a20b-d1141c9b869e","ios":"levelo://app?vid=09ff7de5-bc47-4d10-a20b-d1141c9b869e"},"vehicle_type_id":"4","last_reported":1701111947,"current_range_meters":28800,"station_id":"ce4bh3p2rcd13ifvqdp0","pricing_plan_id":"free"},{"bike_id":"aa0be479-c859-474b-80b9-29d1b0ab0b98","system_id":"levelo_inurba_marseille","lat":43.295169,"lon":5.390426,"is_reserved":false,"is_disabled":false,"rental_uris":{"android":"levelo://app?vid=aa0be479-c859-474b-80b9-29d1b0ab0b98","ios":"levelo://app?vid=aa0be479-c859-474b-80b9-29d1b0ab0b98"},"vehicle_type_id":"4","last_reported":1701111947,"current_range_meters":3600,"station_id":"ce4bh3p2rcd13ifvqdp0","pricing_plan_id":"free"},{"bike_id":"3a3408ac-69fc-4167-a93b-8d8e5c16890a","system_id":"levelo_inurba_marseille","lat":43.2952,"lon":5.39049,"is_reserved":false,"is_disabled":false,"rental_uris":{"android":"levelo://app?vid=3a3408ac-69fc-4167-a93b-8d8e5c16890a","ios":"levelo://app?vid=3a3408ac-69fc-4167-a93b-8d8e5c16890a"},"vehicle_type_id":"4","last_reported":1701111947,"current_range_meters":12400,"station_id":"ce4bh3p2rcd13ifvqdp0","pricing_plan_id":"free"},{"bike_id":"5420457c-df53-4dfa-99d3-c9cfe53e81ab","system_id":"levelo_inurba_marseille","lat":43.295169,"lon":5.390426,"is_reserved":false,"is_disabled":false,"rental_uris":{"android":"levelo://app?vid=5420457c-df53-4dfa-99d3-c9cfe53e81ab","ios":"levelo://app?vid=5420457c-df53-4dfa-99d3-c9cfe53e81ab"},"vehicle_type_id":"4","last_reported":1701111947,"current_range_meters":20400,"station_id":"ce4bh3p2rcd13ifvqdp0","pricing_plan_id":"free"},{"bike_id":"a87dd6eb-6785-4e4e-a749-2efe2e4773b6","system_id":"levelo_inurba_marseille","lat":43.28856,"lon":5.358371,"is_reserved":false,"is_disabled":false,"rental_uris":{"android":"levelo://app?vid=a87dd6eb-6785-4e4e-a749-2efe2e4773b6","ios":"levelo://app?vid=a87dd6eb-6785-4e4e-a749-2efe2e4773b6"},"vehicle_type_id":"4","last_reported":1701111947,"current_range_meters":5600,"station_id":"ce4bhb12rcd13ifvqem0","pricing_plan_id":"free"},{"bike_id":"f3ee3b5f-d9bd-46c4-af6e-8604c5cb2a3e","system_id":"levelo_inurba_marseille","lat":43.28854,"lon":5.35863,"is_reserved":false,"is_disabled":false,"rental_uris":{"android":"levelo://app?vid=f3ee3b5f-d9bd-46c4-af6e-8604c5cb2a3e","ios":"levelo://app?vid=f3ee3b5f-d9bd-46c4-af6e-8604c5cb2a3e"},"vehicle_type_id":"4","last_reported":1701111947,"current_range_meters":23600,"station_id":"ce4bhb12rcd13ifvqem0","pricing_plan_id":"free"},{"bike_id":"3189f36d-eef8-493a-9360-ba220aab2c25","system_id":"levelo_inurba_marseille","lat":43.312609,"lon":5.401662,"is_reserved":false,"is_disabled":false,"rental_uris":{"android":"levelo://app?vid=3189f36d-eef8-493a-9360-ba220aab2c25","ios":"levelo://app?vid=3189f36d-eef8-493a-9360-ba220aab2c25"},"vehicle_type_id":"4","last_reported":1701111947,"current_range_meters":23600,"station_id":"ce4bh092rcd13ifvqd30","pricing_plan_id":"free"},{"bike_id":"1affd046-af12-41fb-ade5-939f7e0100fb","system_id":"levelo_inurba_marseille","lat":43.312609,"lon":5.401662,"is_reserved":false,"is_disabled":false,"rental_uris":{"android":"levelo://app?vid=1affd046-af12-41fb-ade5-939f7e0100fb","ios":"levelo://app?vid=1affd046-af12-41fb-ade5-939f7e0100fb"},"vehicle_type_id":"4","last_reported":1701111947,"current_range_meters":7600,"station_id":"ce4bh092rcd13ifvqd30","pricing_plan_id":"free"},{"bike_id":"220b3a8c-38ff-4bb4-8d96-839c47342284","system_id":"levelo_inurba_marseille","lat":43.30928,"lon":5.40143,"is_reserved":false,"is_disabled":false,"rental_uris":{"android":"levelo://app?vid=220b3a8c-38ff-4bb4-8d96-839c47342284","ios":"levelo://app?vid=220b3a8c-38ff-4bb4-8d96-839c47342284"},"vehicle_type_id":"4","last_reported":1701111947,"current_range_meters":16800,"station_id":"ce4bgvp2rcd13ifvqct0","pricing_plan_id":"free"},{"bike_id":"4082c4ab-3467-4f15-9a8e-e63a4dcdfbc2","system_id":"levelo_inurba_marseille","lat":43.30642,"lon":5.401031,"is_reserved":false,"is_disabled":false,"rental_uris":{"android":"levelo://app?vid=4082c4ab-3467-4f15-9a8e-e63a4dcdfbc2","ios":"levelo://app?vid=4082c4ab-3467-4f15-9a8e-e63a4dcdfbc2"},"vehicle_type_id":"4","last_reported":1701111947,"current_range_meters":23600,"station_id":"ce4bh112rcd13ifvqda0","pricing_plan_id":"free"},{"bike_id":"9b486256-89e9-4880-93d5-58b2a2344e55","system_id":"levelo_inurba_marseille","lat":43.306412,"lon":5.401035,"is_reserved":false,"is_disabled":false,"rental_uris":{"android":"levelo://app?vid=9b486256-89e9-4880-93d5-58b2a2344e55","ios":"levelo://app?vid=9b486256-89e9-4880-93d5-58b2a2344e55"},"vehicle_type_id":"4","last_reported":1701111947,"current_range_meters":7200,"station_id":"ce4bh112rcd13ifvqda0","pricing_plan_id":"free"},{"bike_id":"a306b5f8-d346-457a-b48a-7a7bb8bb2e0a","system_id":"levelo_inurba_marseille","lat":43.30642,"lon":5.401031,"is_reserved":false,"is_disabled":false,"rental_uris":{"android":"levelo://app?vid=a306b5f8-d346-457a-b48a-7a7bb8bb2e0a","ios":"levelo://app?vid=a306b5f8-d346-457a-b48a-7a7bb8bb2e0a"},"vehicle_type_id":"4","last_reported":1701111947,"current_range_meters":20400,"station_id":"ce4bh112rcd13ifvqda0","pricing_plan_id":"free"},{"bike_id":"41c1d74a-3295-4843-9009-7741350478f7","system_id":"levelo_inurba_marseille","lat":43.301117,"lon":5.398795,"is_reserved":false,"is_disabled":false,"rental_uris":{"android":"levelo://app?vid=41c1d74a-3295-4843-9009-7741350478f7","ios":"levelo://app?vid=41c1d74a-3295-4843-9009-7741350478f7"},"vehicle_type_id":"4","last_reported":1701111947,"current_range_meters":28000,"station_id":"ce4bh0h2rcd13ifvqd40","pricing_plan_id":"free"},{"bike_id":"83de8d44-4d6a-4f71-bbda-a882203c1369","system_id":"levelo_inurba_marseille","lat":43.28727,"lon":5.36078,"is_reserved":false,"is_disabled":false,"rental_uris":{"android":"levelo://app?vid=83de8d44-4d6a-4f71-bbda-a882203c1369","ios":"levelo://app?vid=83de8d44-4d6a-4f71-bbda-a882203c1369"},"vehicle_type_id":"4","last_reported":1701111947,"current_range_meters":16400,"station_id":"cki0cbj6b192h4jlfktg","pricing_plan_id":"free"},{"bike_id":"cf3b36af-2c00-4833-a3dd-afc17ed25d2f","system_id":"levelo_inurba_marseille","lat":43.30626,"lon":5.40172,"is_reserved":false,"is_disabled":false,"rental_uris":{"android":"levelo://app?vid=cf3b36af-2c00-4833-a3dd-afc17ed25d2f","ios":"levelo://app?vid=cf3b36af-2c00-4833-a3dd-afc17ed25d2f"},"vehicle_type_id":"4","last_reported":1701111947,"current_range_meters":25200,"station_id":"","pricing_plan_id":"free"},{"bike_id":"dfdb4def-0ea4-461a-b881-3b965bb6e762","system_id":"levelo_inurba_marseille","lat":43.286663,"lon":5.36349,"is_reserved":false,"is_disabled":false,"rental_uris":{"android":"levelo://app?vid=dfdb4def-0ea4-461a-b881-3b965bb6e762","ios":"levelo://app?vid=dfdb4def-0ea4-461a-b881-3b965bb6e762"},"vehicle_type_id":"4","last_reported":1701111947,"current_range_meters":28400,"station_id":"ce4bhah2rcd13ifvqej0","pricing_plan_id":"free"},{"bike_id":"09ffa2f6-fcec-47c3-8367-28c3660a197c","system_id":"levelo_inurba_marseille","lat":43.286593,"lon":5.363346,"is_reserved":false,"is_disabled":false,"rental_uris":{"android":"levelo://app?vid=09ffa2f6-fcec-47c3-8367-28c3660a197c","ios":"levelo://app?vid=09ffa2f6-fcec-47c3-8367-28c3660a197c"},"vehicle_type_id":"4","last_reported":1701111947,"current_range_meters":24800,"station_id":"ce4bhah2rcd13ifvqej0","pricing_plan_id":"free"},{"bike_id":"770c1fc3-349a-41c5-adac-bfcc3c76f4e6","system_id":"levelo_inurba_marseille","lat":43.298681,"lon":5.397225,"is_reserved":false,"is_disabled":false,"rental_uris":{"android":"levelo://app?vid=770c1fc3-349a-41c5-adac-bfcc3c76f4e6","ios":"levelo://app?vid=770c1fc3-349a-41c5-adac-bfcc3c76f4e6"},"vehicle_type_id":"4","last_reported":1701111947,"current_range_meters":29200,"station_id":"ce4bh0h2rcd13ifvqd50","pricing_plan_id":"free"},{"bike_id":"2a27f955-612d-4a87-8913-c0b4960386d0","system_id":"levelo_inurba_marseille","lat":43.286593,"lon":5.363346,"is_reserved":false,"is_disabled":false,"rental_uris":{"android":"levelo://app?vid=2a27f955-612d-4a87-8913-c0b4960386d0","ios":"levelo://app?vid=2a27f955-612d-4a87-8913-c0b4960386d0"},"vehicle_type_id":"4","last_reported":1701111947,"current_range_meters":7600,"station_id":"ce4bhah2rcd13ifvqej0","pricing_plan_id":"free"},{"bike_id":"b86167c9-7a0c-443f-8b9c-0b048ed5ec36","system_id":"levelo_inurba_marseille","lat":43.286593,"lon":5.363346,"is_reserved":false,"is_disabled":false,"rental_uris":{"android":"levelo://app?vid=b86167c9-7a0c-443f-8b9c-0b048ed5ec36","ios":"levelo://app?vid=b86167c9-7a0c-443f-8b9c-0b048ed5ec36"},"vehicle_type_id":"4","last_reported":1701111947,"current_range_meters":22400,"station_id":"ce4bhah2rcd13ifvqej0","pricing_plan_id":"free"},{"bike_id":"7ce9b15f-6c16-45dc-aa95-26ea1be6a293","system_id":"levelo_inurba_marseille","lat":43.286586,"lon":5.363563,"is_reserved":false,"is_disabled":false,"rental_uris":{"android":"levelo://app?vid=7ce9b15f-6c16-45dc-aa95-26ea1be6a293","ios":"levelo://app?vid=7ce9b15f-6c16-45dc-aa95-26ea1be6a293"},"vehicle_type_id":"4","last_reported":1701111947,"current_range_meters":22400,"station_id":"ce4bhah2rcd13ifvqej0","pricing_plan_id":"free"},{"bike_id":"27b6fd51-3987-4957-b9a0-b555baf5bddb","system_id":"levelo_inurba_marseille","lat":43.302759,"lon":5.400793,"is_reserved":false,"is_disabled":false,"rental_uris":{"android":"levelo://app?vid=27b6fd51-3987-4957-b9a0-b555baf5bddb","ios":"levelo://app?vid=27b6fd51-3987-4957-b9a0-b555baf5bddb"},"vehicle_type_id":"4","last_reported":1701111947,"current_range_meters":8000,"station_id":"ce4bgvh2rcd13ifvqcs0","pricing_plan_id":"free"},{"bike_id":"4d058f73-9b9c-4190-b2f9-f042d44bed83","system_id":"levelo_inurba_marseille","lat":43.298681,"lon":5.397225,"is_reserved":false,"is_disabled":false,"rental_uris":{"android":"levelo://app?vid=4d058f73-9b9c-4190-b2f9-f042d44bed83","ios":"levelo://app?vid=4d058f73-9b9c-4190-b2f9-f042d44bed83"},"vehicle_type_id":"4","last_reported":1701111947,"current_range_meters":26800,"station_id":"ce4bh0h2rcd13ifvqd50","pricing_plan_id":"free"},{"bike_id":"083f19ad-2e4d-4bb5-9ce5-507a6851a7fe","system_id":"levelo_inurba_marseille","lat":43.295196,"lon":5.39397,"is_reserved":false,"is_disabled":false,"rental_uris":{"android":"levelo://app?vid=083f19ad-2e4d-4bb5-9ce5-507a6851a7fe","ios":"levelo://app?vid=083f19ad-2e4d-4bb5-9ce5-507a6851a7fe"},"vehicle_type_id":"4","last_reported":1701111947,"current_range_meters":14000,"station_id":"ce4bh292rcd13ifvqdf0","pricing_plan_id":"free"},{"bike_id":"1c26fc50-dd1f-418c-8ce3-326ebb971a48","system_id":"levelo_inurba_marseille","lat":43.295194,"lon":5.39397,"is_reserved":false,"is_disabled":false,"rental_uris":{"android":"levelo://app?vid=1c26fc50-dd1f-418c-8ce3-326ebb971a48","ios":"levelo://app?vid=1c26fc50-dd1f-418c-8ce3-326ebb971a48"},"vehicle_type_id":"4","last_reported":1701111947,"current_range_meters":5600,"station_id":"ce4bh292rcd13ifvqdf0","pricing_plan_id":"free"},{"bike_id":"c5723763-f60e-4416-8557-1cae0195adfc","system_id":"levelo_inurba_marseille","lat":43.30243,"lon":5.40054,"is_reserved":false,"is_disabled":false,"rental_uris":{"android":"levelo://app?vid=c5723763-f60e-4416-8557-1cae0195adfc","ios":"levelo://app?vid=c5723763-f60e-4416-8557-1cae0195adfc"},"vehicle_type_id":"4","last_reported":1701111947,"current_range_meters":2000,"station_id":"ce4bgvh2rcd13ifvqcs0","pricing_plan_id":"free"},{"bike_id":"ecd91e79-28a6-47f4-86b4-1c36f19e5bf8","system_id":"levelo_inurba_marseille","lat":43.302759,"lon":5.400793,"is_reserved":false,"is_disabled":false,"rental_uris":{"android":"levelo://app?vid=ecd91e79-28a6-47f4-86b4-1c36f19e5bf8","ios":"levelo://app?vid=ecd91e79-28a6-47f4-86b4-1c36f19e5bf8"},"vehicle_type_id":"4","last_reported":1701111947,"current_range_meters":22800,"station_id":"ce4bgvh2rcd13ifvqcs0","pricing_plan_id":"free"},{"bike_id":"6444429d-0e7c-4850-ad0c-b99582c33e6e","system_id":"levelo_inurba_marseille","lat":43.302759,"lon":5.400793,"is_reserved":false,"is_disabled":false,"rental_uris":{"android":"levelo://app?vid=6444429d-0e7c-4850-ad0c-b99582c33e6e","ios":"levelo://app?vid=6444429d-0e7c-4850-ad0c-b99582c33e6e"},"vehicle_type_id":"4","last_reported":1701111947,"current_range_meters":2800,"station_id":"ce4bgvh2rcd13ifvqcs0","pricing_plan_id":"free"},{"bike_id":"1f3aa395-3a60-4d58-8f22-b070fc013951","system_id":"levelo_inurba_marseille","lat":43.289307,"lon":5.38406,"is_reserved":false,"is_disabled":false,"rental_uris":{"android":"levelo://app?vid=1f3aa395-3a60-4d58-8f22-b070fc013951","ios":"levelo://app?vid=1f3aa395-3a60-4d58-8f22-b070fc013951"},"vehicle_type_id":"4","last_reported":1701111947,"current_range_meters":8000,"station_id":"ce4bh612rcd13ifvqe6g","pricing_plan_id":"free"},{"bike_id":"4ad918e0-075d-4d0a-b450-3edfbc1fabb6","system_id":"levelo_inurba_marseille","lat":43.302759,"lon":5.400793,"is_reserved":false,"is_disabled":false,"rental_uris":{"android":"levelo://app?vid=4ad918e0-075d-4d0a-b450-3edfbc1fabb6","ios":"levelo://app?vid=4ad918e0-075d-4d0a-b450-3edfbc1fabb6"},"vehicle_type_id":"4","last_reported":1701111947,"current_range_meters":4000,"station_id":"ce4bgvh2rcd13ifvqcs0","pricing_plan_id":"free"},{"bike_id":"e8606005-c2ce-42e5-91dd-9083cf0c7991","system_id":"levelo_inurba_marseille","lat":43.302759,"lon":5.400793,"is_reserved":false,"is_disabled":false,"rental_uris":{"android":"levelo://app?vid=e8606005-c2ce-42e5-91dd-9083cf0c7991","ios":"levelo://app?vid=e8606005-c2ce-42e5-91dd-9083cf0c7991"},"vehicle_type_id":"4","last_reported":1701111947,"current_range_meters":20800,"station_id":"ce4bgvh2rcd13ifvqcs0","pricing_plan_id":"free"},{"bike_id":"7cee0d30-f467-469b-ac47-852c86dc7094","system_id":"levelo_inurba_marseille","lat":43.302759,"lon":5.400793,"is_reserved":false,"is_disabled":false,"rental_uris":{"android":"levelo://app?vid=7cee0d30-f467-469b-ac47-852c86dc7094","ios":"levelo://app?vid=7cee0d30-f467-469b-ac47-852c86dc7094"},"vehicle_type_id":"4","last_reported":1701111947,"current_range_meters":12800,"station_id":"ce4bgvh2rcd13ifvqcs0","pricing_plan_id":"free"},{"bike_id":"067774af-342d-41cc-9f0a-04fcb2628adb","system_id":"levelo_inurba_marseille","lat":43.302759,"lon":5.400793,"is_reserved":false,"is_disabled":false,"rental_uris":{"android":"levelo://app?vid=067774af-342d-41cc-9f0a-04fcb2628adb","ios":"levelo://app?vid=067774af-342d-41cc-9f0a-04fcb2628adb"},"vehicle_type_id":"4","last_reported":1701111947,"current_range_meters":3200,"station_id":"ce4bgvh2rcd13ifvqcs0","pricing_plan_id":"free"},{"bike_id":"b46b4321-1fcd-4641-a828-17efca05e650","system_id":"levelo_inurba_marseille","lat":43.306412,"lon":5.401035,"is_reserved":false,"is_disabled":false,"rental_uris":{"android":"levelo://app?vid=b46b4321-1fcd-4641-a828-17efca05e650","ios":"levelo://app?vid=b46b4321-1fcd-4641-a828-17efca05e650"},"vehicle_type_id":"4","last_reported":1701111947,"current_range_meters":14000,"station_id":"ce4bh112rcd13ifvqda0","pricing_plan_id":"free"},{"bike_id":"15e6465f-0b6e-4233-aa8b-e230108a9a5e","system_id":"levelo_inurba_marseille","lat":43.30248,"lon":5.4008,"is_reserved":false,"is_disabled":false,"rental_uris":{"android":"levelo://app?vid=15e6465f-0b6e-4233-aa8b-e230108a9a5e","ios":"levelo://app?vid=15e6465f-0b6e-4233-aa8b-e230108a9a5e"},"vehicle_type_id":"4","last_reported":1701111947,"current_range_meters":24400,"station_id":"ce4bgvh2rcd13ifvqcs0","pricing_plan_id":"free"},{"bike_id":"b6c59d11-bad8-48a4-90d1-2f84e842f376","system_id":"levelo_inurba_marseille","lat":43.287185,"lon":5.379373,"is_reserved":false,"is_disabled":false,"rental_uris":{"android":"levelo://app?vid=b6c59d11-bad8-48a4-90d1-2f84e842f376","ios":"levelo://app?vid=b6c59d11-bad8-48a4-90d1-2f84e842f376"},"vehicle_type_id":"4","last_reported":1701111947,"current_range_meters":19200,"station_id":"ce4bh9p2rcd13ifvqec0","pricing_plan_id":"free"},{"bike_id":"c975c58e-5a26-499c-8e1c-dc6d538d56fa","system_id":"levelo_inurba_marseille","lat":43.287185,"lon":5.379373,"is_reserved":false,"is_disabled":false,"rental_uris":{"android":"levelo://app?vid=c975c58e-5a26-499c-8e1c-dc6d538d56fa","ios":"levelo://app?vid=c975c58e-5a26-499c-8e1c-dc6d538d56fa"},"vehicle_type_id":"4","last_reported":1701111947,"current_range_meters":5600,"station_id":"ce4bh9p2rcd13ifvqec0","pricing_plan_id":"free"},{"bike_id":"3f156731-807f-4602-a191-96af0df8802e","system_id":"levelo_inurba_marseille","lat":43.287185,"lon":5.379373,"is_reserved":false,"is_disabled":false,"rental_uris":{"android":"levelo://app?vid=3f156731-807f-4602-a191-96af0df8802e","ios":"levelo://app?vid=3f156731-807f-4602-a191-96af0df8802e"},"vehicle_type_id":"4","last_reported":1701111947,"current_range_meters":17600,"station_id":"ce4bh9p2rcd13ifvqec0","pricing_plan_id":"free"},{"bike_id":"e9a2ae38-b440-4f73-b018-6b2042388f60","system_id":"levelo_inurba_marseille","lat":43.287185,"lon":5.379373,"is_reserved":false,"is_disabled":false,"rental_uris":{"android":"levelo://app?vid=e9a2ae38-b440-4f73-b018-6b2042388f60","ios":"levelo://app?vid=e9a2ae38-b440-4f73-b018-6b2042388f60"},"vehicle_type_id":"4","last_reported":1701111947,"current_range_meters":28000,"station_id":"ce4bh9p2rcd13ifvqec0","pricing_plan_id":"free"},{"bike_id":"9573efcb-778d-4c65-b2e4-bca22cf66c35","system_id":"levelo_inurba_marseille","lat":43.287185,"lon":5.379373,"is_reserved":false,"is_disabled":false,"rental_uris":{"android":"levelo://app?vid=9573efcb-778d-4c65-b2e4-bca22cf66c35","ios":"levelo://app?vid=9573efcb-778d-4c65-b2e4-bca22cf66c35"},"vehicle_type_id":"4","last_reported":1701111947,"current_range_meters":20000,"station_id":"ce4bh9p2rcd13ifvqec0","pricing_plan_id":"free"},{"bike_id":"705253a5-7691-4cdb-867b-1d001d8eb530","system_id":"levelo_inurba_marseille","lat":43.291994,"lon":5.392907,"is_reserved":false,"is_disabled":false,"rental_uris":{"android":"levelo://app?vid=705253a5-7691-4cdb-867b-1d001d8eb530","ios":"levelo://app?vid=705253a5-7691-4cdb-867b-1d001d8eb530"},"vehicle_type_id":"4","last_reported":1701111947,"current_range_meters":26800,"station_id":"ce4bh192rcd13ifvqdd0","pricing_plan_id":"free"},{"bike_id":"10889358-5e19-486c-b30c-593c612bde27","system_id":"levelo_inurba_marseille","lat":43.29189,"lon":5.39317,"is_reserved":false,"is_disabled":false,"rental_uris":{"android":"levelo://app?vid=10889358-5e19-486c-b30c-593c612bde27","ios":"levelo://app?vid=10889358-5e19-486c-b30c-593c612bde27"},"vehicle_type_id":"4","last_reported":1701111947,"current_range_meters":31200,"station_id":"ce4bh192rcd13ifvqdd0","pricing_plan_id":"free"},{"bike_id":"133469e0-6899-4538-83db-9fc816004c1a","system_id":"levelo_inurba_marseille","lat":43.31604,"lon":5.40585,"is_reserved":false,"is_disabled":false,"rental_uris":{"android":"levelo://app?vid=133469e0-6899-4538-83db-9fc816004c1a","ios":"levelo://app?vid=133469e0-6899-4538-83db-9fc816004c1a"},"vehicle_type_id":"4","last_reported":1701111947,"current_range_meters":20800,"station_id":"","pricing_plan_id":"free"},{"bike_id":"fdfc44ee-48d9-4c8c-99e0-fa5e6a889c82","system_id":"levelo_inurba_marseille","lat":43.284613,"lon":5.358887,"is_reserved":false,"is_disabled":false,"rental_uris":{"android":"levelo://app?vid=fdfc44ee-48d9-4c8c-99e0-fa5e6a889c82","ios":"levelo://app?vid=fdfc44ee-48d9-4c8c-99e0-fa5e6a889c82"},"vehicle_type_id":"4","last_reported":1701111947,"current_range_meters":27200,"station_id":"ce4bhah2rcd13ifvqei0","pricing_plan_id":"free"},{"bike_id":"b24e4fcc-b02a-4c1f-b7f9-7210a389fca7","system_id":"levelo_inurba_marseille","lat":43.28451,"lon":5.35884,"is_reserved":false,"is_disabled":false,"rental_uris":{"android":"levelo://app?vid=b24e4fcc-b02a-4c1f-b7f9-7210a389fca7","ios":"levelo://app?vid=b24e4fcc-b02a-4c1f-b7f9-7210a389fca7"},"vehicle_type_id":"4","last_reported":1701111947,"current_range_meters":20400,"station_id":"ce4bhah2rcd13ifvqei0","pricing_plan_id":"free"},{"bike_id":"9d0bb117-a268-4548-a1b0-306a1665aeb0","system_id":"levelo_inurba_marseille","lat":43.285848,"lon":5.350787,"is_reserved":false,"is_disabled":false,"rental_uris":{"android":"levelo://app?vid=9d0bb117-a268-4548-a1b0-306a1665aeb0","ios":"levelo://app?vid=9d0bb117-a268-4548-a1b0-306a1665aeb0"},"vehicle_type_id":"4","last_reported":1701111947,"current_range_meters":14000,"station_id":"ce4bhch2rcd13ifvqeug","pricing_plan_id":"free"},{"bike_id":"c2b59919-4a58-4ef8-9c49-1240b5fdbcf3","system_id":"levelo_inurba_marseille","lat":43.283998,"lon":5.375062,"is_reserved":false,"is_disabled":false,"rental_uris":{"android":"levelo://app?vid=c2b59919-4a58-4ef8-9c49-1240b5fdbcf3","ios":"levelo://app?vid=c2b59919-4a58-4ef8-9c49-1240b5fdbcf3"},"vehicle_type_id":"4","last_reported":1701111947,"current_range_meters":0,"station_id":"ce4bh412rcd13ifvqds0","pricing_plan_id":"free"},{"bike_id":"2ef6a675-4e3f-4bc8-b5af-6dd2de7be8d7","system_id":"levelo_inurba_marseille","lat":43.284113,"lon":5.375303,"is_reserved":false,"is_disabled":false,"rental_uris":{"android":"levelo://app?vid=2ef6a675-4e3f-4bc8-b5af-6dd2de7be8d7","ios":"levelo://app?vid=2ef6a675-4e3f-4bc8-b5af-6dd2de7be8d7"},"vehicle_type_id":"4","last_reported":1701111947,"current_range_meters":0,"station_id":"ce4bh412rcd13ifvqds0","pricing_plan_id":"free"},{"bike_id":"7de85e16-34cb-4cb4-bb56-92021fb0c12d","system_id":"levelo_inurba_marseille","lat":43.283998,"lon":5.375062,"is_reserved":false,"is_disabled":false,"rental_uris":{"android":"levelo://app?vid=7de85e16-34cb-4cb4-bb56-92021fb0c12d","ios":"levelo://app?vid=7de85e16-34cb-4cb4-bb56-92021fb0c12d"},"vehicle_type_id":"4","last_reported":1701111947,"current_range_meters":26000,"station_id":"ce4bh412rcd13ifvqds0","pricing_plan_id":"free"},{"bike_id":"916d0f2e-f9b0-46f4-8264-b0ae4cfa06f6","system_id":"levelo_inurba_marseille","lat":43.295713,"lon":5.399639,"is_reserved":false,"is_disabled":false,"rental_uris":{"android":"levelo://app?vid=916d0f2e-f9b0-46f4-8264-b0ae4cfa06f6","ios":"levelo://app?vid=916d0f2e-f9b0-46f4-8264-b0ae4cfa06f6"},"vehicle_type_id":"4","last_reported":1701111947,"current_range_meters":26400,"station_id":"ce4bh312rcd13ifvqdj0","pricing_plan_id":"free"},{"bike_id":"a6941947-37b1-42e9-8e03-0364e5d01717","system_id":"levelo_inurba_marseille","lat":43.283998,"lon":5.375062,"is_reserved":false,"is_disabled":false,"rental_uris":{"android":"levelo://app?vid=a6941947-37b1-42e9-8e03-0364e5d01717","ios":"levelo://app?vid=a6941947-37b1-42e9-8e03-0364e5d01717"},"vehicle_type_id":"4","last_reported":1701111947,"current_range_meters":0,"station_id":"ce4bh412rcd13ifvqds0","pricing_plan_id":"free"},{"bike_id":"28cb9466-e46d-4208-9e53-cb1860c57d7b","system_id":"levelo_inurba_marseille","lat":43.295713,"lon":5.399639,"is_reserved":false,"is_disabled":false,"rental_uris":{"android":"levelo://app?vid=28cb9466-e46d-4208-9e53-cb1860c57d7b","ios":"levelo://app?vid=28cb9466-e46d-4208-9e53-cb1860c57d7b"},"vehicle_type_id":"4","last_reported":1701111947,"current_range_meters":17200,"station_id":"ce4bh312rcd13ifvqdj0","pricing_plan_id":"free"},{"bike_id":"775ab042-b15c-492f-a566-979b8a723bec","system_id":"levelo_inurba_marseille","lat":43.283998,"lon":5.375062,"is_reserved":false,"is_disabled":false,"rental_uris":{"android":"levelo://app?vid=775ab042-b15c-492f-a566-979b8a723bec","ios":"levelo://app?vid=775ab042-b15c-492f-a566-979b8a723bec"},"vehicle_type_id":"4","last_reported":1701111947,"current_range_meters":2800,"station_id":"ce4bh412rcd13ifvqds0","pricing_plan_id":"free"},{"bike_id":"548ba8ad-49ca-4ef6-864a-d49ba46587bf","system_id":"levelo_inurba_marseille","lat":43.28674,"lon":5.38663,"is_reserved":false,"is_disabled":false,"rental_uris":{"android":"levelo://app?vid=548ba8ad-49ca-4ef6-864a-d49ba46587bf","ios":"levelo://app?vid=548ba8ad-49ca-4ef6-864a-d49ba46587bf"},"vehicle_type_id":"4","last_reported":1701111947,"current_range_meters":20000,"station_id":"ce4bh492rcd13ifvqdug","pricing_plan_id":"free"},{"bike_id":"965b3f97-e4da-4bb5-86d1-d2eea6340b3f","system_id":"levelo_inurba_marseille","lat":43.286595,"lon":5.386795,"is_reserved":false,"is_disabled":false,"rental_uris":{"android":"levelo://app?vid=965b3f97-e4da-4bb5-86d1-d2eea6340b3f","ios":"levelo://app?vid=965b3f97-e4da-4bb5-86d1-d2eea6340b3f"},"vehicle_type_id":"4","last_reported":1701111947,"current_range_meters":8400,"station_id":"ce4bh492rcd13ifvqdug","pricing_plan_id":"free"},{"bike_id":"8fa51fbe-d3ae-468c-918d-b5d900ca27bf","system_id":"levelo_inurba_marseille","lat":43.323464,"lon":5.406297,"is_reserved":false,"is_disabled":false,"rental_uris":{"android":"levelo://app?vid=8fa51fbe-d3ae-468c-918d-b5d900ca27bf","ios":"levelo://app?vid=8fa51fbe-d3ae-468c-918d-b5d900ca27bf"},"vehicle_type_id":"4","last_reported":1701111947,"current_range_meters":0,"station_id":"ce4bhq92rcd13ifvqhjg","pricing_plan_id":"free"},{"bike_id":"2ec5961f-1b4b-4587-a7b0-f9177d2b9fbd","system_id":"levelo_inurba_marseille","lat":43.323464,"lon":5.406297,"is_reserved":false,"is_disabled":false,"rental_uris":{"android":"levelo://app?vid=2ec5961f-1b4b-4587-a7b0-f9177d2b9fbd","ios":"levelo://app?vid=2ec5961f-1b4b-4587-a7b0-f9177d2b9fbd"},"vehicle_type_id":"4","last_reported":1701111947,"current_range_meters":27600,"station_id":"ce4bhq92rcd13ifvqhjg","pricing_plan_id":"free"},{"bike_id":"6e5fc2ab-e680-4453-a607-400458212688","system_id":"levelo_inurba_marseille","lat":43.323464,"lon":5.406297,"is_reserved":false,"is_disabled":false,"rental_uris":{"android":"levelo://app?vid=6e5fc2ab-e680-4453-a607-400458212688","ios":"levelo://app?vid=6e5fc2ab-e680-4453-a607-400458212688"},"vehicle_type_id":"4","last_reported":1701111947,"current_range_meters":26000,"station_id":"ce4bhq92rcd13ifvqhjg","pricing_plan_id":"free"},{"bike_id":"6306827e-e481-4a20-8b0e-ea40b4fa2675","system_id":"levelo_inurba_marseille","lat":43.297946,"lon":5.404063,"is_reserved":false,"is_disabled":false,"rental_uris":{"android":"levelo://app?vid=6306827e-e481-4a20-8b0e-ea40b4fa2675","ios":"levelo://app?vid=6306827e-e481-4a20-8b0e-ea40b4fa2675"},"vehicle_type_id":"4","last_reported":1701111947,"current_range_meters":25200,"station_id":"ce4bh112rcd13ifvqd90","pricing_plan_id":"free"},{"bike_id":"7635af8f-2101-4856-842d-969da8eada51","system_id":"levelo_inurba_marseille","lat":43.288569,"lon":5.393174,"is_reserved":false,"is_disabled":false,"rental_uris":{"android":"levelo://app?vid=7635af8f-2101-4856-842d-969da8eada51","ios":"levelo://app?vid=7635af8f-2101-4856-842d-969da8eada51"},"vehicle_type_id":"4","last_reported":1701111947,"current_range_meters":20800,"station_id":"ce4bh2p2rcd13ifvqdi0","pricing_plan_id":"free"},{"bike_id":"555eea31-d2ce-4f08-8a25-0a2b22718a1a","system_id":"levelo_inurba_marseille","lat":43.283494,"lon":5.380945,"is_reserved":false,"is_disabled":false,"rental_uris":{"android":"levelo://app?vid=555eea31-d2ce-4f08-8a25-0a2b22718a1a","ios":"levelo://app?vid=555eea31-d2ce-4f08-8a25-0a2b22718a1a"},"vehicle_type_id":"4","last_reported":1701111947,"current_range_meters":1200,"station_id":"ce4bh412rcd13ifvqdr0","pricing_plan_id":"free"},{"bike_id":"fbd7a3f2-3396-4d54-a303-db3095906b01","system_id":"levelo_inurba_marseille","lat":43.283498,"lon":5.380948,"is_reserved":false,"is_disabled":false,"rental_uris":{"android":"levelo://app?vid=fbd7a3f2-3396-4d54-a303-db3095906b01","ios":"levelo://app?vid=fbd7a3f2-3396-4d54-a303-db3095906b01"},"vehicle_type_id":"4","last_reported":1701111947,"current_range_meters":27600,"station_id":"ce4bh412rcd13ifvqdr0","pricing_plan_id":"free"},{"bike_id":"e2284003-4e46-4e0a-93e7-73d05c3666d9","system_id":"levelo_inurba_marseille","lat":43.33508,"lon":5.397755,"is_reserved":false,"is_disabled":false,"rental_uris":{"android":"levelo://app?vid=e2284003-4e46-4e0a-93e7-73d05c3666d9","ios":"levelo://app?vid=e2284003-4e46-4e0a-93e7-73d05c3666d9"},"vehicle_type_id":"4","last_reported":1701111947,"current_range_meters":14000,"station_id":"","pricing_plan_id":"free"},{"bike_id":"5db1d8e2-4372-4622-813a-9229011e936b","system_id":"levelo_inurba_marseille","lat":43.282754,"lon":5.350519,"is_reserved":false,"is_disabled":false,"rental_uris":{"android":"levelo://app?vid=5db1d8e2-4372-4622-813a-9229011e936b","ios":"levelo://app?vid=5db1d8e2-4372-4622-813a-9229011e936b"},"vehicle_type_id":"4","last_reported":1701111947,"current_range_meters":11600,"station_id":"ce4bhbp2rcd13ifvqerg","pricing_plan_id":"free"},{"bike_id":"db6e04db-4936-4a1e-8849-2d6792e5797e","system_id":"levelo_inurba_marseille","lat":43.282754,"lon":5.350519,"is_reserved":false,"is_disabled":false,"rental_uris":{"android":"levelo://app?vid=db6e04db-4936-4a1e-8849-2d6792e5797e","ios":"levelo://app?vid=db6e04db-4936-4a1e-8849-2d6792e5797e"},"vehicle_type_id":"4","last_reported":1701111947,"current_range_meters":9200,"station_id":"ce4bhbp2rcd13ifvqerg","pricing_plan_id":"free"},{"bike_id":"c36c81c4-803a-4d80-ab3a-843a22a70b74","system_id":"levelo_inurba_marseille","lat":43.280382,"lon":5.369291,"is_reserved":false,"is_disabled":false,"rental_uris":{"android":"levelo://app?vid=c36c81c4-803a-4d80-ab3a-843a22a70b74","ios":"levelo://app?vid=c36c81c4-803a-4d80-ab3a-843a22a70b74"},"vehicle_type_id":"4","last_reported":1701111947,"current_range_meters":24000,"station_id":"ce4bha12rcd13ifvqef0","pricing_plan_id":"free"},{"bike_id":"2d884891-2722-4f44-8072-8fada83a090e","system_id":"levelo_inurba_marseille","lat":43.28039,"lon":5.369297,"is_reserved":false,"is_disabled":false,"rental_uris":{"android":"levelo://app?vid=2d884891-2722-4f44-8072-8fada83a090e","ios":"levelo://app?vid=2d884891-2722-4f44-8072-8fada83a090e"},"vehicle_type_id":"4","last_reported":1701111947,"current_range_meters":28400,"station_id":"ce4bha12rcd13ifvqef0","pricing_plan_id":"free"},{"bike_id":"b018c6f1-e1b2-45dc-915d-09140eefc2a3","system_id":"levelo_inurba_marseille","lat":43.28039,"lon":5.369297,"is_reserved":false,"is_disabled":false,"rental_uris":{"android":"levelo://app?vid=b018c6f1-e1b2-45dc-915d-09140eefc2a3","ios":"levelo://app?vid=b018c6f1-e1b2-45dc-915d-09140eefc2a3"},"vehicle_type_id":"4","last_reported":1701111947,"current_range_meters":12000,"station_id":"ce4bha12rcd13ifvqef0","pricing_plan_id":"free"},{"bike_id":"f6b36f6f-71c2-48b7-928a-28ddaa19d0e5","system_id":"levelo_inurba_marseille","lat":43.28039,"lon":5.369297,"is_reserved":false,"is_disabled":false,"rental_uris":{"android":"levelo://app?vid=f6b36f6f-71c2-48b7-928a-28ddaa19d0e5","ios":"levelo://app?vid=f6b36f6f-71c2-48b7-928a-28ddaa19d0e5"},"vehicle_type_id":"4","last_reported":1701111947,"current_range_meters":26400,"station_id":"ce4bha12rcd13ifvqef0","pricing_plan_id":"free"},{"bike_id":"190df295-f81a-4b41-9349-5a5c25e04f62","system_id":"levelo_inurba_marseille","lat":43.28031,"lon":5.36936,"is_reserved":false,"is_disabled":false,"rental_uris":{"android":"levelo://app?vid=190df295-f81a-4b41-9349-5a5c25e04f62","ios":"levelo://app?vid=190df295-f81a-4b41-9349-5a5c25e04f62"},"vehicle_type_id":"4","last_reported":1701111947,"current_range_meters":5200,"station_id":"ce4bha12rcd13ifvqef0","pricing_plan_id":"free"},{"bike_id":"baffbed4-3b5e-4b12-aaf4-ef6213e24270","system_id":"levelo_inurba_marseille","lat":43.296263,"lon":5.40601,"is_reserved":false,"is_disabled":false,"rental_uris":{"android":"levelo://app?vid=baffbed4-3b5e-4b12-aaf4-ef6213e24270","ios":"levelo://app?vid=baffbed4-3b5e-4b12-aaf4-ef6213e24270"},"vehicle_type_id":"4","last_reported":1701111947,"current_range_meters":6400,"station_id":"ce4bh0h2rcd13ifvqd60","pricing_plan_id":"free"},{"bike_id":"223cb07c-0d59-4e66-9f4e-cc84b20e739d","system_id":"levelo_inurba_marseille","lat":43.284462,"lon":5.392121,"is_reserved":false,"is_disabled":false,"rental_uris":{"android":"levelo://app?vid=223cb07c-0d59-4e66-9f4e-cc84b20e739d","ios":"levelo://app?vid=223cb07c-0d59-4e66-9f4e-cc84b20e739d"},"vehicle_type_id":"4","last_reported":1701111947,"current_range_meters":14000,"station_id":"ce4bhoh2rcd13ifvqh5g","pricing_plan_id":"free"},{"bike_id":"6eff11b8-c344-4717-b9a9-80ee74928243","system_id":"levelo_inurba_marseille","lat":43.284462,"lon":5.392121,"is_reserved":false,"is_disabled":false,"rental_uris":{"android":"levelo://app?vid=6eff11b8-c344-4717-b9a9-80ee74928243","ios":"levelo://app?vid=6eff11b8-c344-4717-b9a9-80ee74928243"},"vehicle_type_id":"4","last_reported":1701111947,"current_range_meters":17200,"station_id":"ce4bhoh2rcd13ifvqh5g","pricing_plan_id":"free"},{"bike_id":"02a89952-eb3e-4865-ac69-0f1946fc35fd","system_id":"levelo_inurba_marseille","lat":43.285742,"lon":5.395004,"is_reserved":false,"is_disabled":false,"rental_uris":{"android":"levelo://app?vid=02a89952-eb3e-4865-ac69-0f1946fc35fd","ios":"levelo://app?vid=02a89952-eb3e-4865-ac69-0f1946fc35fd"},"vehicle_type_id":"4","last_reported":1701111947,"current_range_meters":19200,"station_id":"ce4bh292rcd13ifvqdg0","pricing_plan_id":"free"},{"bike_id":"87a01e5e-5356-45ef-869a-3afb3fdb415e","system_id":"levelo_inurba_marseille","lat":43.285742,"lon":5.395004,"is_reserved":false,"is_disabled":false,"rental_uris":{"android":"levelo://app?vid=87a01e5e-5356-45ef-869a-3afb3fdb415e","ios":"levelo://app?vid=87a01e5e-5356-45ef-869a-3afb3fdb415e"},"vehicle_type_id":"4","last_reported":1701111947,"current_range_meters":7200,"station_id":"ce4bh292rcd13ifvqdg0","pricing_plan_id":"free"},{"bike_id":"8dfa577f-3576-4c7f-b041-5979b90e1dfe","system_id":"levelo_inurba_marseille","lat":43.28573,"lon":5.394992,"is_reserved":false,"is_disabled":false,"rental_uris":{"android":"levelo://app?vid=8dfa577f-3576-4c7f-b041-5979b90e1dfe","ios":"levelo://app?vid=8dfa577f-3576-4c7f-b041-5979b90e1dfe"},"vehicle_type_id":"4","last_reported":1701111947,"current_range_meters":10400,"station_id":"ce4bh292rcd13ifvqdg0","pricing_plan_id":"free"},{"bike_id":"6526cad1-2f4b-4db1-8d6b-ce04bc407b31","system_id":"levelo_inurba_marseille","lat":43.346897,"lon":5.37683,"is_reserved":false,"is_disabled":false,"rental_uris":{"android":"levelo://app?vid=6526cad1-2f4b-4db1-8d6b-ce04bc407b31","ios":"levelo://app?vid=6526cad1-2f4b-4db1-8d6b-ce04bc407b31"},"vehicle_type_id":"4","last_reported":1701111947,"current_range_meters":0,"station_id":"","pricing_plan_id":"free"},{"bike_id":"6e7ce759-3da4-4848-9c2a-7546af64658d","system_id":"levelo_inurba_marseille","lat":43.287154,"lon":5.399979,"is_reserved":false,"is_disabled":false,"rental_uris":{"android":"levelo://app?vid=6e7ce759-3da4-4848-9c2a-7546af64658d","ios":"levelo://app?vid=6e7ce759-3da4-4848-9c2a-7546af64658d"},"vehicle_type_id":"4","last_reported":1701111947,"current_range_meters":19600,"station_id":"ce4bho92rcd13ifvqh3g","pricing_plan_id":"free"},{"bike_id":"aa18d61e-9101-4378-bf51-e64cb8159de3","system_id":"levelo_inurba_marseille","lat":43.279742,"lon":5.38744,"is_reserved":false,"is_disabled":false,"rental_uris":{"android":"levelo://app?vid=aa18d61e-9101-4378-bf51-e64cb8159de3","ios":"levelo://app?vid=aa18d61e-9101-4378-bf51-e64cb8159de3"},"vehicle_type_id":"4","last_reported":1701111947,"current_range_meters":12800,"station_id":"ce4bhg12rcd13ifvqf80","pricing_plan_id":"free"},{"bike_id":"ea00ceb8-103b-437d-aa05-ae11b48a3156","system_id":"levelo_inurba_marseille","lat":43.292571,"lon":5.409107,"is_reserved":false,"is_disabled":false,"rental_uris":{"android":"levelo://app?vid=ea00ceb8-103b-437d-aa05-ae11b48a3156","ios":"levelo://app?vid=ea00ceb8-103b-437d-aa05-ae11b48a3156"},"vehicle_type_id":"4","last_reported":1701111947,"current_range_meters":14800,"station_id":"ce4bh192rcd13ifvqdc0","pricing_plan_id":"free"},{"bike_id":"5c9cc44d-5101-485d-b981-1ad13a603c33","system_id":"levelo_inurba_marseille","lat":43.292571,"lon":5.409107,"is_reserved":false,"is_disabled":false,"rental_uris":{"android":"levelo://app?vid=5c9cc44d-5101-485d-b981-1ad13a603c33","ios":"levelo://app?vid=5c9cc44d-5101-485d-b981-1ad13a603c33"},"vehicle_type_id":"4","last_reported":1701111947,"current_range_meters":1200,"station_id":"ce4bh192rcd13ifvqdc0","pricing_plan_id":"free"},{"bike_id":"521e0e2e-a8d2-4d18-8079-009c449dd225","system_id":"levelo_inurba_marseille","lat":43.29283,"lon":5.40994,"is_reserved":false,"is_disabled":false,"rental_uris":{"android":"levelo://app?vid=521e0e2e-a8d2-4d18-8079-009c449dd225","ios":"levelo://app?vid=521e0e2e-a8d2-4d18-8079-009c449dd225"},"vehicle_type_id":"4","last_reported":1701111947,"current_range_meters":4000,"station_id":"","pricing_plan_id":"free"},{"bike_id":"ec92845f-ab02-4bca-a27f-27b194c0a533","system_id":"levelo_inurba_marseille","lat":43.293687,"lon":5.412587,"is_reserved":false,"is_disabled":false,"rental_uris":{"android":"levelo://app?vid=ec92845f-ab02-4bca-a27f-27b194c0a533","ios":"levelo://app?vid=ec92845f-ab02-4bca-a27f-27b194c0a533"},"vehicle_type_id":"4","last_reported":1701111947,"current_range_meters":16000,"station_id":"","pricing_plan_id":"free"},{"bike_id":"be9690c5-c7a1-4c76-a31f-e0ecc29f7955","system_id":"levelo_inurba_marseille","lat":43.28082,"lon":5.39662,"is_reserved":false,"is_disabled":false,"rental_uris":{"android":"levelo://app?vid=be9690c5-c7a1-4c76-a31f-e0ecc29f7955","ios":"levelo://app?vid=be9690c5-c7a1-4c76-a31f-e0ecc29f7955"},"vehicle_type_id":"4","last_reported":1701111947,"current_range_meters":12800,"station_id":"ce4bho12rcd13ifvqh2g","pricing_plan_id":"free"},{"bike_id":"44087013-9d8f-488c-9025-5d33d053b6d3","system_id":"levelo_inurba_marseille","lat":43.280784,"lon":5.396622,"is_reserved":false,"is_disabled":false,"rental_uris":{"android":"levelo://app?vid=44087013-9d8f-488c-9025-5d33d053b6d3","ios":"levelo://app?vid=44087013-9d8f-488c-9025-5d33d053b6d3"},"vehicle_type_id":"4","last_reported":1701111947,"current_range_meters":23600,"station_id":"ce4bho12rcd13ifvqh2g","pricing_plan_id":"free"},{"bike_id":"070b1126-afdc-42aa-936a-4d5a38a69d2b","system_id":"levelo_inurba_marseille","lat":43.280784,"lon":5.396622,"is_reserved":false,"is_disabled":false,"rental_uris":{"android":"levelo://app?vid=070b1126-afdc-42aa-936a-4d5a38a69d2b","ios":"levelo://app?vid=070b1126-afdc-42aa-936a-4d5a38a69d2b"},"vehicle_type_id":"4","last_reported":1701111947,"current_range_meters":2800,"station_id":"ce4bho12rcd13ifvqh2g","pricing_plan_id":"free"},{"bike_id":"a6f9448e-832d-44a3-9936-c32e6436e76b","system_id":"levelo_inurba_marseille","lat":43.278399,"lon":5.392139,"is_reserved":false,"is_disabled":false,"rental_uris":{"android":"levelo://app?vid=a6f9448e-832d-44a3-9936-c32e6436e76b","ios":"levelo://app?vid=a6f9448e-832d-44a3-9936-c32e6436e76b"},"vehicle_type_id":"4","last_reported":1701111947,"current_range_meters":18400,"station_id":"ce4bhjp2rcd13ifvqga0","pricing_plan_id":"free"},{"bike_id":"65a6bc97-46ab-4be9-93d6-3f5986a84f2d","system_id":"levelo_inurba_marseille","lat":43.278399,"lon":5.392139,"is_reserved":false,"is_disabled":false,"rental_uris":{"android":"levelo://app?vid=65a6bc97-46ab-4be9-93d6-3f5986a84f2d","ios":"levelo://app?vid=65a6bc97-46ab-4be9-93d6-3f5986a84f2d"},"vehicle_type_id":"4","last_reported":1701111947,"current_range_meters":25600,"station_id":"ce4bhjp2rcd13ifvqga0","pricing_plan_id":"free"},{"bike_id":"6f4937b4-7edf-4eb1-b78a-3a8ee6d53240","system_id":"levelo_inurba_marseille","lat":43.278401,"lon":5.392152,"is_reserved":false,"is_disabled":false,"rental_uris":{"android":"levelo://app?vid=6f4937b4-7edf-4eb1-b78a-3a8ee6d53240","ios":"levelo://app?vid=6f4937b4-7edf-4eb1-b78a-3a8ee6d53240"},"vehicle_type_id":"4","last_reported":1701111947,"current_range_meters":4800,"station_id":"ce4bhjp2rcd13ifvqga0","pricing_plan_id":"free"},{"bike_id":"a48c1e10-0245-47bc-a953-a428bba4beb2","system_id":"levelo_inurba_marseille","lat":43.278399,"lon":5.392139,"is_reserved":false,"is_disabled":false,"rental_uris":{"android":"levelo://app?vid=a48c1e10-0245-47bc-a953-a428bba4beb2","ios":"levelo://app?vid=a48c1e10-0245-47bc-a953-a428bba4beb2"},"vehicle_type_id":"4","last_reported":1701111947,"current_range_meters":26000,"station_id":"ce4bhjp2rcd13ifvqga0","pricing_plan_id":"free"},{"bike_id":"1c65a731-f44d-4095-8f56-ade1cfe17088","system_id":"levelo_inurba_marseille","lat":43.275625,"lon":5.384392,"is_reserved":false,"is_disabled":false,"rental_uris":{"android":"levelo://app?vid=1c65a731-f44d-4095-8f56-ade1cfe17088","ios":"levelo://app?vid=1c65a731-f44d-4095-8f56-ade1cfe17088"},"vehicle_type_id":"4","last_reported":1701111947,"current_range_meters":23200,"station_id":"ce4bhh92rcd13ifvqfi0","pricing_plan_id":"free"},{"bike_id":"40f6d377-528e-4074-806e-ae08fe5a0e27","system_id":"levelo_inurba_marseille","lat":43.273613,"lon":5.362705,"is_reserved":false,"is_disabled":false,"rental_uris":{"android":"levelo://app?vid=40f6d377-528e-4074-806e-ae08fe5a0e27","ios":"levelo://app?vid=40f6d377-528e-4074-806e-ae08fe5a0e27"},"vehicle_type_id":"4","last_reported":1701111947,"current_range_meters":14400,"station_id":"ce4bhbh2rcd13ifvqeo0","pricing_plan_id":"free"},{"bike_id":"43a0b753-fb47-4881-91d9-d29a0815f06e","system_id":"levelo_inurba_marseille","lat":43.273609,"lon":5.362708,"is_reserved":false,"is_disabled":false,"rental_uris":{"android":"levelo://app?vid=43a0b753-fb47-4881-91d9-d29a0815f06e","ios":"levelo://app?vid=43a0b753-fb47-4881-91d9-d29a0815f06e"},"vehicle_type_id":"4","last_reported":1701111947,"current_range_meters":30000,"station_id":"ce4bhbh2rcd13ifvqeo0","pricing_plan_id":"free"},{"bike_id":"3d955af7-b7d1-4f39-8a2f-4096fce89c61","system_id":"levelo_inurba_marseille","lat":43.273609,"lon":5.362708,"is_reserved":false,"is_disabled":false,"rental_uris":{"android":"levelo://app?vid=3d955af7-b7d1-4f39-8a2f-4096fce89c61","ios":"levelo://app?vid=3d955af7-b7d1-4f39-8a2f-4096fce89c61"},"vehicle_type_id":"4","last_reported":1701111947,"current_range_meters":25600,"station_id":"ce4bhbh2rcd13ifvqeo0","pricing_plan_id":"free"},{"bike_id":"e1d2ed29-a089-4932-9140-401ac686cbbf","system_id":"levelo_inurba_marseille","lat":43.276771,"lon":5.388799,"is_reserved":false,"is_disabled":false,"rental_uris":{"android":"levelo://app?vid=e1d2ed29-a089-4932-9140-401ac686cbbf","ios":"levelo://app?vid=e1d2ed29-a089-4932-9140-401ac686cbbf"},"vehicle_type_id":"4","last_reported":1701111947,"current_range_meters":27600,"station_id":"ce4bhi12rcd13ifvqfo0","pricing_plan_id":"free"},{"bike_id":"93d2e195-48fb-4653-8a69-e206dff22f91","system_id":"levelo_inurba_marseille","lat":43.279952,"lon":5.400085,"is_reserved":false,"is_disabled":false,"rental_uris":{"android":"levelo://app?vid=93d2e195-48fb-4653-8a69-e206dff22f91","ios":"levelo://app?vid=93d2e195-48fb-4653-8a69-e206dff22f91"},"vehicle_type_id":"4","last_reported":1701111947,"current_range_meters":20000,"station_id":"ce4bho92rcd13ifvqh4g","pricing_plan_id":"free"},{"bike_id":"382c1fe5-7b5a-4eed-b40d-e2096003697f","system_id":"levelo_inurba_marseille","lat":43.279952,"lon":5.400085,"is_reserved":false,"is_disabled":false,"rental_uris":{"android":"levelo://app?vid=382c1fe5-7b5a-4eed-b40d-e2096003697f","ios":"levelo://app?vid=382c1fe5-7b5a-4eed-b40d-e2096003697f"},"vehicle_type_id":"4","last_reported":1701111947,"current_range_meters":21200,"station_id":"ce4bho92rcd13ifvqh4g","pricing_plan_id":"free"},{"bike_id":"c31df56f-605c-4142-95b4-92ca47b7dfb8","system_id":"levelo_inurba_marseille","lat":43.279917,"lon":5.400113,"is_reserved":false,"is_disabled":false,"rental_uris":{"android":"levelo://app?vid=c31df56f-605c-4142-95b4-92ca47b7dfb8","ios":"levelo://app?vid=c31df56f-605c-4142-95b4-92ca47b7dfb8"},"vehicle_type_id":"4","last_reported":1701111947,"current_range_meters":25600,"station_id":"ce4bho92rcd13ifvqh4g","pricing_plan_id":"free"},{"bike_id":"89b9a57b-3c62-4bcd-a510-245ba6546272","system_id":"levelo_inurba_marseille","lat":43.317121,"lon":5.423936,"is_reserved":false,"is_disabled":false,"rental_uris":{"android":"levelo://app?vid=89b9a57b-3c62-4bcd-a510-245ba6546272","ios":"levelo://app?vid=89b9a57b-3c62-4bcd-a510-245ba6546272"},"vehicle_type_id":"4","last_reported":1701111947,"current_range_meters":0,"station_id":"ce4bhp92rcd13ifvqhbg","pricing_plan_id":"free"},{"bike_id":"460d5063-5d7a-4405-ba58-f7ba9110acb2","system_id":"levelo_inurba_marseille","lat":43.31718,"lon":5.42403,"is_reserved":false,"is_disabled":false,"rental_uris":{"android":"levelo://app?vid=460d5063-5d7a-4405-ba58-f7ba9110acb2","ios":"levelo://app?vid=460d5063-5d7a-4405-ba58-f7ba9110acb2"},"vehicle_type_id":"4","last_reported":1701111947,"current_range_meters":7200,"station_id":"ce4bhp92rcd13ifvqhbg","pricing_plan_id":"free"},{"bike_id":"177119fa-77bc-4b45-9076-05ca3e223bc7","system_id":"levelo_inurba_marseille","lat":43.340804,"lon":5.410219,"is_reserved":false,"is_disabled":false,"rental_uris":{"android":"levelo://app?vid=177119fa-77bc-4b45-9076-05ca3e223bc7","ios":"levelo://app?vid=177119fa-77bc-4b45-9076-05ca3e223bc7"},"vehicle_type_id":"4","last_reported":1701111947,"current_range_meters":31200,"station_id":"ce4bhqh2rcd13ifvqhlg","pricing_plan_id":"free"},{"bike_id":"e4fb5413-8619-4cd0-a748-7b5c939758cf","system_id":"levelo_inurba_marseille","lat":43.274103,"lon":5.394016,"is_reserved":false,"is_disabled":false,"rental_uris":{"android":"levelo://app?vid=e4fb5413-8619-4cd0-a748-7b5c939758cf","ios":"levelo://app?vid=e4fb5413-8619-4cd0-a748-7b5c939758cf"},"vehicle_type_id":"4","last_reported":1701111947,"current_range_meters":22000,"station_id":"ce4bhdp2rcd13ifvqf20","pricing_plan_id":"free"},{"bike_id":"3be36413-8dd6-43cf-b50c-dcca9cdf7f57","system_id":"levelo_inurba_marseille","lat":43.274103,"lon":5.394016,"is_reserved":false,"is_disabled":false,"rental_uris":{"android":"levelo://app?vid=3be36413-8dd6-43cf-b50c-dcca9cdf7f57","ios":"levelo://app?vid=3be36413-8dd6-43cf-b50c-dcca9cdf7f57"},"vehicle_type_id":"4","last_reported":1701111947,"current_range_meters":17600,"station_id":"ce4bhdp2rcd13ifvqf20","pricing_plan_id":"free"},{"bike_id":"73eeb136-9ad5-41a6-a459-fb0ef87f8779","system_id":"levelo_inurba_marseille","lat":43.295523,"lon":5.422926,"is_reserved":false,"is_disabled":false,"rental_uris":{"android":"levelo://app?vid=73eeb136-9ad5-41a6-a459-fb0ef87f8779","ios":"levelo://app?vid=73eeb136-9ad5-41a6-a459-fb0ef87f8779"},"vehicle_type_id":"4","last_reported":1701111947,"current_range_meters":4000,"station_id":"ce4bhph2rcd13ifvqhdg","pricing_plan_id":"free"},{"bike_id":"fccf1799-4473-414c-9389-9b30b0508c40","system_id":"levelo_inurba_marseille","lat":43.295523,"lon":5.422926,"is_reserved":false,"is_disabled":false,"rental_uris":{"android":"levelo://app?vid=fccf1799-4473-414c-9389-9b30b0508c40","ios":"levelo://app?vid=fccf1799-4473-414c-9389-9b30b0508c40"},"vehicle_type_id":"4","last_reported":1701111947,"current_range_meters":20000,"station_id":"ce4bhph2rcd13ifvqhdg","pricing_plan_id":"free"},{"bike_id":"08fe44e4-201e-4497-b2af-1597ca570ac3","system_id":"levelo_inurba_marseille","lat":43.295511,"lon":5.422926,"is_reserved":false,"is_disabled":false,"rental_uris":{"android":"levelo://app?vid=08fe44e4-201e-4497-b2af-1597ca570ac3","ios":"levelo://app?vid=08fe44e4-201e-4497-b2af-1597ca570ac3"},"vehicle_type_id":"4","last_reported":1701111947,"current_range_meters":22800,"station_id":"ce4bhph2rcd13ifvqhdg","pricing_plan_id":"free"},{"bike_id":"76c54cc3-5f25-4fd7-a417-9afa50fb9df9","system_id":"levelo_inurba_marseille","lat":43.295523,"lon":5.422926,"is_reserved":false,"is_disabled":false,"rental_uris":{"android":"levelo://app?vid=76c54cc3-5f25-4fd7-a417-9afa50fb9df9","ios":"levelo://app?vid=76c54cc3-5f25-4fd7-a417-9afa50fb9df9"},"vehicle_type_id":"4","last_reported":1701111947,"current_range_meters":15200,"station_id":"ce4bhph2rcd13ifvqhdg","pricing_plan_id":"free"},{"bike_id":"b5345938-438d-49b4-a969-d1562d2f1280","system_id":"levelo_inurba_marseille","lat":43.295523,"lon":5.422926,"is_reserved":false,"is_disabled":false,"rental_uris":{"android":"levelo://app?vid=b5345938-438d-49b4-a969-d1562d2f1280","ios":"levelo://app?vid=b5345938-438d-49b4-a969-d1562d2f1280"},"vehicle_type_id":"4","last_reported":1701111947,"current_range_meters":28400,"station_id":"ce4bhph2rcd13ifvqhdg","pricing_plan_id":"free"},{"bike_id":"6b00c00a-acab-4a0b-825e-4b6c2ea383bc","system_id":"levelo_inurba_marseille","lat":43.295523,"lon":5.422926,"is_reserved":false,"is_disabled":false,"rental_uris":{"android":"levelo://app?vid=6b00c00a-acab-4a0b-825e-4b6c2ea383bc","ios":"levelo://app?vid=6b00c00a-acab-4a0b-825e-4b6c2ea383bc"},"vehicle_type_id":"4","last_reported":1701111947,"current_range_meters":28800,"station_id":"ce4bhph2rcd13ifvqhdg","pricing_plan_id":"free"},{"bike_id":"487e8935-2222-4e65-8507-6d483307a42a","system_id":"levelo_inurba_marseille","lat":43.295511,"lon":5.422926,"is_reserved":false,"is_disabled":false,"rental_uris":{"android":"levelo://app?vid=487e8935-2222-4e65-8507-6d483307a42a","ios":"levelo://app?vid=487e8935-2222-4e65-8507-6d483307a42a"},"vehicle_type_id":"4","last_reported":1701111947,"current_range_meters":31600,"station_id":"ce4bhph2rcd13ifvqhdg","pricing_plan_id":"free"},{"bike_id":"96661c5e-90e7-498e-8229-323d527ddcf5","system_id":"levelo_inurba_marseille","lat":43.295523,"lon":5.422926,"is_reserved":false,"is_disabled":false,"rental_uris":{"android":"levelo://app?vid=96661c5e-90e7-498e-8229-323d527ddcf5","ios":"levelo://app?vid=96661c5e-90e7-498e-8229-323d527ddcf5"},"vehicle_type_id":"4","last_reported":1701111947,"current_range_meters":21200,"station_id":"ce4bhph2rcd13ifvqhdg","pricing_plan_id":"free"},{"bike_id":"60d68696-e37a-4397-b24a-012f516bc63c","system_id":"levelo_inurba_marseille","lat":43.295523,"lon":5.422926,"is_reserved":false,"is_disabled":false,"rental_uris":{"android":"levelo://app?vid=60d68696-e37a-4397-b24a-012f516bc63c","ios":"levelo://app?vid=60d68696-e37a-4397-b24a-012f516bc63c"},"vehicle_type_id":"4","last_reported":1701111947,"current_range_meters":17600,"station_id":"ce4bhph2rcd13ifvqhdg","pricing_plan_id":"free"},{"bike_id":"fe1a0da7-ac78-4623-9b9d-9ec231e567e0","system_id":"levelo_inurba_marseille","lat":43.29549,"lon":5.42289,"is_reserved":false,"is_disabled":false,"rental_uris":{"android":"levelo://app?vid=fe1a0da7-ac78-4623-9b9d-9ec231e567e0","ios":"levelo://app?vid=fe1a0da7-ac78-4623-9b9d-9ec231e567e0"},"vehicle_type_id":"4","last_reported":1701111947,"current_range_meters":24400,"station_id":"ce4bhph2rcd13ifvqhdg","pricing_plan_id":"free"},{"bike_id":"4c605ca3-481c-41f4-97f4-419aa29ab2ca","system_id":"levelo_inurba_marseille","lat":43.295523,"lon":5.422926,"is_reserved":false,"is_disabled":false,"rental_uris":{"android":"levelo://app?vid=4c605ca3-481c-41f4-97f4-419aa29ab2ca","ios":"levelo://app?vid=4c605ca3-481c-41f4-97f4-419aa29ab2ca"},"vehicle_type_id":"4","last_reported":1701111947,"current_range_meters":2400,"station_id":"ce4bhph2rcd13ifvqhdg","pricing_plan_id":"free"},{"bike_id":"62cfa572-51d4-4a04-9e45-ea785883caeb","system_id":"levelo_inurba_marseille","lat":43.27207,"lon":5.39264,"is_reserved":false,"is_disabled":false,"rental_uris":{"android":"levelo://app?vid=62cfa572-51d4-4a04-9e45-ea785883caeb","ios":"levelo://app?vid=62cfa572-51d4-4a04-9e45-ea785883caeb"},"vehicle_type_id":"4","last_reported":1701111947,"current_range_meters":14400,"station_id":"","pricing_plan_id":"free"},{"bike_id":"27a9352f-d5db-4486-b9b9-85b4251d0b33","system_id":"levelo_inurba_marseille","lat":43.278128,"lon":5.407195,"is_reserved":false,"is_disabled":false,"rental_uris":{"android":"levelo://app?vid=27a9352f-d5db-4486-b9b9-85b4251d0b33","ios":"levelo://app?vid=27a9352f-d5db-4486-b9b9-85b4251d0b33"},"vehicle_type_id":"4","last_reported":1701111947,"current_range_meters":1200,"station_id":"ce4bhnh2rcd13ifvqgtg","pricing_plan_id":"free"},{"bike_id":"188c32b2-1d8f-475d-b7f4-8c6771ba8f12","system_id":"levelo_inurba_marseille","lat":43.278128,"lon":5.407195,"is_reserved":false,"is_disabled":false,"rental_uris":{"android":"levelo://app?vid=188c32b2-1d8f-475d-b7f4-8c6771ba8f12","ios":"levelo://app?vid=188c32b2-1d8f-475d-b7f4-8c6771ba8f12"},"vehicle_type_id":"4","last_reported":1701111947,"current_range_meters":0,"station_id":"ce4bhnh2rcd13ifvqgtg","pricing_plan_id":"free"},{"bike_id":"a406769d-10f5-467c-8ed6-5951f6adcf7e","system_id":"levelo_inurba_marseille","lat":43.278128,"lon":5.407195,"is_reserved":false,"is_disabled":false,"rental_uris":{"android":"levelo://app?vid=a406769d-10f5-467c-8ed6-5951f6adcf7e","ios":"levelo://app?vid=a406769d-10f5-467c-8ed6-5951f6adcf7e"},"vehicle_type_id":"4","last_reported":1701111947,"current_range_meters":26800,"station_id":"ce4bhnh2rcd13ifvqgtg","pricing_plan_id":"free"},{"bike_id":"9efe761d-4b17-4e3f-a49f-4e76c8ea96ba","system_id":"levelo_inurba_marseille","lat":43.26912,"lon":5.38632,"is_reserved":false,"is_disabled":false,"rental_uris":{"android":"levelo://app?vid=9efe761d-4b17-4e3f-a49f-4e76c8ea96ba","ios":"levelo://app?vid=9efe761d-4b17-4e3f-a49f-4e76c8ea96ba"},"vehicle_type_id":"4","last_reported":1701111947,"current_range_meters":20800,"station_id":"ce4bhh92rcd13ifvqfh0","pricing_plan_id":"free"},{"bike_id":"c8268e82-32de-476d-b43b-a0fe479b442d","system_id":"levelo_inurba_marseille","lat":43.27912,"lon":5.41222,"is_reserved":false,"is_disabled":false,"rental_uris":{"android":"levelo://app?vid=c8268e82-32de-476d-b43b-a0fe479b442d","ios":"levelo://app?vid=c8268e82-32de-476d-b43b-a0fe479b442d"},"vehicle_type_id":"4","last_reported":1701111947,"current_range_meters":11600,"station_id":"","pricing_plan_id":"free"},{"bike_id":"f23d8119-b478-4639-98c5-6883279f9f84","system_id":"levelo_inurba_marseille","lat":43.32592,"lon":5.43067,"is_reserved":false,"is_disabled":false,"rental_uris":{"android":"levelo://app?vid=f23d8119-b478-4639-98c5-6883279f9f84","ios":"levelo://app?vid=f23d8119-b478-4639-98c5-6883279f9f84"},"vehicle_type_id":"4","last_reported":1701111947,"current_range_meters":18000,"station_id":"","pricing_plan_id":"free"},{"bike_id":"ed30d6a1-b23a-49e5-9c83-5546be72a734","system_id":"levelo_inurba_marseille","lat":43.3259,"lon":5.43075,"is_reserved":false,"is_disabled":false,"rental_uris":{"android":"levelo://app?vid=ed30d6a1-b23a-49e5-9c83-5546be72a734","ios":"levelo://app?vid=ed30d6a1-b23a-49e5-9c83-5546be72a734"},"vehicle_type_id":"4","last_reported":1701111947,"current_range_meters":12800,"station_id":"","pricing_plan_id":"free"},{"bike_id":"d67469ee-5362-4610-a163-fe05ae3cf4f7","system_id":"levelo_inurba_marseille","lat":43.32604,"lon":5.430817,"is_reserved":false,"is_disabled":false,"rental_uris":{"android":"levelo://app?vid=d67469ee-5362-4610-a163-fe05ae3cf4f7","ios":"levelo://app?vid=d67469ee-5362-4610-a163-fe05ae3cf4f7"},"vehicle_type_id":"4","last_reported":1701111947,"current_range_meters":1200,"station_id":"","pricing_plan_id":"free"},{"bike_id":"5986dab0-7b77-4674-8135-17288066df9b","system_id":"levelo_inurba_marseille","lat":43.275408,"lon":5.409504,"is_reserved":false,"is_disabled":false,"rental_uris":{"android":"levelo://app?vid=5986dab0-7b77-4674-8135-17288066df9b","ios":"levelo://app?vid=5986dab0-7b77-4674-8135-17288066df9b"},"vehicle_type_id":"4","last_reported":1701111947,"current_range_meters":16800,"station_id":"","pricing_plan_id":"free"},{"bike_id":"90cbab28-a875-4d11-98d3-9d382568c5c8","system_id":"levelo_inurba_marseille","lat":43.27996,"lon":5.416624,"is_reserved":false,"is_disabled":false,"rental_uris":{"android":"levelo://app?vid=90cbab28-a875-4d11-98d3-9d382568c5c8","ios":"levelo://app?vid=90cbab28-a875-4d11-98d3-9d382568c5c8"},"vehicle_type_id":"4","last_reported":1701111947,"current_range_meters":30000,"station_id":"ce4bho12rcd13ifvqh1g","pricing_plan_id":"free"},{"bike_id":"dc9fbdde-209d-4988-b4be-9e12ebeed7ca","system_id":"levelo_inurba_marseille","lat":43.27996,"lon":5.416624,"is_reserved":false,"is_disabled":false,"rental_uris":{"android":"levelo://app?vid=dc9fbdde-209d-4988-b4be-9e12ebeed7ca","ios":"levelo://app?vid=dc9fbdde-209d-4988-b4be-9e12ebeed7ca"},"vehicle_type_id":"4","last_reported":1701111947,"current_range_meters":29200,"station_id":"ce4bho12rcd13ifvqh1g","pricing_plan_id":"free"},{"bike_id":"8b74d3bd-d40e-4453-992f-9b4deed5beb4","system_id":"levelo_inurba_marseille","lat":43.308051,"lon":5.43527,"is_reserved":false,"is_disabled":false,"rental_uris":{"android":"levelo://app?vid=8b74d3bd-d40e-4453-992f-9b4deed5beb4","ios":"levelo://app?vid=8b74d3bd-d40e-4453-992f-9b4deed5beb4"},"vehicle_type_id":"4","last_reported":1701111947,"current_range_meters":30400,"station_id":"ce4bhph2rcd13ifvqheg","pricing_plan_id":"free"},{"bike_id":"a613d361-3b3e-4fc7-b4a4-6f40d77a5ed4","system_id":"levelo_inurba_marseille","lat":43.26567,"lon":5.38999,"is_reserved":false,"is_disabled":false,"rental_uris":{"android":"levelo://app?vid=a613d361-3b3e-4fc7-b4a4-6f40d77a5ed4","ios":"levelo://app?vid=a613d361-3b3e-4fc7-b4a4-6f40d77a5ed4"},"vehicle_type_id":"4","last_reported":1701111947,"current_range_meters":10400,"station_id":"ce4bhe12rcd13ifvqf30","pricing_plan_id":"free"},{"bike_id":"0c634550-a0c2-4947-bb03-24e1a4104207","system_id":"levelo_inurba_marseille","lat":43.275028,"lon":5.424534,"is_reserved":false,"is_disabled":false,"rental_uris":{"android":"levelo://app?vid=0c634550-a0c2-4947-bb03-24e1a4104207","ios":"levelo://app?vid=0c634550-a0c2-4947-bb03-24e1a4104207"},"vehicle_type_id":"4","last_reported":1701111947,"current_range_meters":24000,"station_id":"ce4bhn92rcd13ifvqgrg","pricing_plan_id":"free"},{"bike_id":"85c6e9a7-ab6f-4be9-adbc-94f5a0a272b5","system_id":"levelo_inurba_marseille","lat":43.317104,"lon":5.436818,"is_reserved":false,"is_disabled":false,"rental_uris":{"android":"levelo://app?vid=85c6e9a7-ab6f-4be9-adbc-94f5a0a272b5","ios":"levelo://app?vid=85c6e9a7-ab6f-4be9-adbc-94f5a0a272b5"},"vehicle_type_id":"4","last_reported":1701111947,"current_range_meters":19200,"station_id":"ce4bhp92rcd13ifvqhcg","pricing_plan_id":"free"},{"bike_id":"03be4a00-88ad-45dd-94d8-6af5f1788695","system_id":"levelo_inurba_marseille","lat":43.271368,"lon":5.40928,"is_reserved":false,"is_disabled":false,"rental_uris":{"android":"levelo://app?vid=03be4a00-88ad-45dd-94d8-6af5f1788695","ios":"levelo://app?vid=03be4a00-88ad-45dd-94d8-6af5f1788695"},"vehicle_type_id":"4","last_reported":1701111947,"current_range_meters":20000,"station_id":"ce4bhl12rcd13ifvqgf0","pricing_plan_id":"free"},{"bike_id":"d2e989fa-38dc-43b1-ba08-12ab74122c34","system_id":"levelo_inurba_marseille","lat":43.271767,"lon":5.409993,"is_reserved":false,"is_disabled":false,"rental_uris":{"android":"levelo://app?vid=d2e989fa-38dc-43b1-ba08-12ab74122c34","ios":"levelo://app?vid=d2e989fa-38dc-43b1-ba08-12ab74122c34"},"vehicle_type_id":"4","last_reported":1701111947,"current_range_meters":11600,"station_id":"ce4bhl12rcd13ifvqgf0","pricing_plan_id":"free"},{"bike_id":"3865e87c-590e-474f-b570-8a1ace950d6b","system_id":"levelo_inurba_marseille","lat":43.298768,"lon":5.43643,"is_reserved":false,"is_disabled":false,"rental_uris":{"android":"levelo://app?vid=3865e87c-590e-474f-b570-8a1ace950d6b","ios":"levelo://app?vid=3865e87c-590e-474f-b570-8a1ace950d6b"},"vehicle_type_id":"4","last_reported":1701111947,"current_range_meters":30400,"station_id":"ce4bhpp2rcd13ifvqhfg","pricing_plan_id":"free"},{"bike_id":"9713bde9-c9a7-4d76-bb95-dac32047e32a","system_id":"levelo_inurba_marseille","lat":43.298768,"lon":5.43643,"is_reserved":false,"is_disabled":false,"rental_uris":{"android":"levelo://app?vid=9713bde9-c9a7-4d76-bb95-dac32047e32a","ios":"levelo://app?vid=9713bde9-c9a7-4d76-bb95-dac32047e32a"},"vehicle_type_id":"4","last_reported":1701111947,"current_range_meters":30800,"station_id":"ce4bhpp2rcd13ifvqhfg","pricing_plan_id":"free"},{"bike_id":"3e469c88-1717-4aca-bd5e-1ec315470d14","system_id":"levelo_inurba_marseille","lat":43.298768,"lon":5.43643,"is_reserved":false,"is_disabled":false,"rental_uris":{"android":"levelo://app?vid=3e469c88-1717-4aca-bd5e-1ec315470d14","ios":"levelo://app?vid=3e469c88-1717-4aca-bd5e-1ec315470d14"},"vehicle_type_id":"4","last_reported":1701111947,"current_range_meters":20400,"station_id":"ce4bhpp2rcd13ifvqhfg","pricing_plan_id":"free"},{"bike_id":"7c5a83ac-336c-4b91-a5ea-82b3c6d6127d","system_id":"levelo_inurba_marseille","lat":43.298768,"lon":5.43643,"is_reserved":false,"is_disabled":false,"rental_uris":{"android":"levelo://app?vid=7c5a83ac-336c-4b91-a5ea-82b3c6d6127d","ios":"levelo://app?vid=7c5a83ac-336c-4b91-a5ea-82b3c6d6127d"},"vehicle_type_id":"4","last_reported":1701111947,"current_range_meters":31600,"station_id":"ce4bhpp2rcd13ifvqhfg","pricing_plan_id":"free"},{"bike_id":"f4f2e1d5-dafa-412d-9b3a-3611814786ce","system_id":"levelo_inurba_marseille","lat":43.298768,"lon":5.43643,"is_reserved":false,"is_disabled":false,"rental_uris":{"android":"levelo://app?vid=f4f2e1d5-dafa-412d-9b3a-3611814786ce","ios":"levelo://app?vid=f4f2e1d5-dafa-412d-9b3a-3611814786ce"},"vehicle_type_id":"4","last_reported":1701111947,"current_range_meters":31600,"station_id":"ce4bhpp2rcd13ifvqhfg","pricing_plan_id":"free"},{"bike_id":"df86183c-2087-436f-9bdd-29ed82a32076","system_id":"levelo_inurba_marseille","lat":43.298768,"lon":5.43643,"is_reserved":false,"is_disabled":false,"rental_uris":{"android":"levelo://app?vid=df86183c-2087-436f-9bdd-29ed82a32076","ios":"levelo://app?vid=df86183c-2087-436f-9bdd-29ed82a32076"},"vehicle_type_id":"4","last_reported":1701111947,"current_range_meters":30400,"station_id":"ce4bhpp2rcd13ifvqhfg","pricing_plan_id":"free"},{"bike_id":"66c5017d-9747-4fe3-95ee-d539317d6c18","system_id":"levelo_inurba_marseille","lat":43.26028,"lon":5.37556,"is_reserved":false,"is_disabled":false,"rental_uris":{"android":"levelo://app?vid=66c5017d-9747-4fe3-95ee-d539317d6c18","ios":"levelo://app?vid=66c5017d-9747-4fe3-95ee-d539317d6c18"},"vehicle_type_id":"4","last_reported":1701111947,"current_range_meters":25200,"station_id":"ce4bhgh2rcd13ifvqfa0","pricing_plan_id":"free"},{"bike_id":"d6f86b88-0510-4a60-8ac9-e51cc1b74259","system_id":"levelo_inurba_marseille","lat":43.2607,"lon":5.393983,"is_reserved":false,"is_disabled":false,"rental_uris":{"android":"levelo://app?vid=d6f86b88-0510-4a60-8ac9-e51cc1b74259","ios":"levelo://app?vid=d6f86b88-0510-4a60-8ac9-e51cc1b74259"},"vehicle_type_id":"4","last_reported":1701111947,"current_range_meters":22800,"station_id":"ce4bhh92rcd13ifvqfj0","pricing_plan_id":"free"},{"bike_id":"48283dd2-952b-4090-897a-15decc5c7140","system_id":"levelo_inurba_marseille","lat":43.2607,"lon":5.393983,"is_reserved":false,"is_disabled":false,"rental_uris":{"android":"levelo://app?vid=48283dd2-952b-4090-897a-15decc5c7140","ios":"levelo://app?vid=48283dd2-952b-4090-897a-15decc5c7140"},"vehicle_type_id":"4","last_reported":1701111947,"current_range_meters":6400,"station_id":"ce4bhh92rcd13ifvqfj0","pricing_plan_id":"free"},{"bike_id":"f5cf73f7-3b8b-4948-987e-1d130326b136","system_id":"levelo_inurba_marseille","lat":43.2607,"lon":5.393983,"is_reserved":false,"is_disabled":false,"rental_uris":{"android":"levelo://app?vid=f5cf73f7-3b8b-4948-987e-1d130326b136","ios":"levelo://app?vid=f5cf73f7-3b8b-4948-987e-1d130326b136"},"vehicle_type_id":"4","last_reported":1701111947,"current_range_meters":22000,"station_id":"ce4bhh92rcd13ifvqfj0","pricing_plan_id":"free"},{"bike_id":"9eb63731-2097-497b-b414-1467fc544240","system_id":"levelo_inurba_marseille","lat":43.26086,"lon":5.39758,"is_reserved":false,"is_disabled":false,"rental_uris":{"android":"levelo://app?vid=9eb63731-2097-497b-b414-1467fc544240","ios":"levelo://app?vid=9eb63731-2097-497b-b414-1467fc544240"},"vehicle_type_id":"4","last_reported":1701111947,"current_range_meters":800,"station_id":"ce4bhi12rcd13ifvqfq0","pricing_plan_id":"free"},{"bike_id":"bd92cc5c-6126-4310-8081-c4396553c92c","system_id":"levelo_inurba_marseille","lat":43.260909,"lon":5.397591,"is_reserved":false,"is_disabled":false,"rental_uris":{"android":"levelo://app?vid=bd92cc5c-6126-4310-8081-c4396553c92c","ios":"levelo://app?vid=bd92cc5c-6126-4310-8081-c4396553c92c"},"vehicle_type_id":"4","last_reported":1701111947,"current_range_meters":12000,"station_id":"ce4bhi12rcd13ifvqfq0","pricing_plan_id":"free"},{"bike_id":"c85f7616-3a9e-47a4-ae16-28a03e51ab4f","system_id":"levelo_inurba_marseille","lat":43.28929,"lon":5.438754,"is_reserved":false,"is_disabled":false,"rental_uris":{"android":"levelo://app?vid=c85f7616-3a9e-47a4-ae16-28a03e51ab4f","ios":"levelo://app?vid=c85f7616-3a9e-47a4-ae16-28a03e51ab4f"},"vehicle_type_id":"4","last_reported":1701111947,"current_range_meters":6400,"station_id":"","pricing_plan_id":"free"},{"bike_id":"f2258489-4689-48e8-8691-86831a761064","system_id":"levelo_inurba_marseille","lat":43.255756,"lon":5.382303,"is_reserved":false,"is_disabled":false,"rental_uris":{"android":"levelo://app?vid=f2258489-4689-48e8-8691-86831a761064","ios":"levelo://app?vid=f2258489-4689-48e8-8691-86831a761064"},"vehicle_type_id":"4","last_reported":1701111947,"current_range_meters":14800,"station_id":"ce4bhih2rcd13ifvqfs0","pricing_plan_id":"free"},{"bike_id":"688681b5-8ff9-40fc-9c7c-d63348c0853c","system_id":"levelo_inurba_marseille","lat":43.255756,"lon":5.382303,"is_reserved":false,"is_disabled":false,"rental_uris":{"android":"levelo://app?vid=688681b5-8ff9-40fc-9c7c-d63348c0853c","ios":"levelo://app?vid=688681b5-8ff9-40fc-9c7c-d63348c0853c"},"vehicle_type_id":"4","last_reported":1701111947,"current_range_meters":10000,"station_id":"ce4bhih2rcd13ifvqfs0","pricing_plan_id":"free"},{"bike_id":"a200de64-5a83-4c5c-9a4a-37358ef876c4","system_id":"levelo_inurba_marseille","lat":43.25823,"lon":5.39434,"is_reserved":false,"is_disabled":false,"rental_uris":{"android":"levelo://app?vid=a200de64-5a83-4c5c-9a4a-37358ef876c4","ios":"levelo://app?vid=a200de64-5a83-4c5c-9a4a-37358ef876c4"},"vehicle_type_id":"4","last_reported":1701111947,"current_range_meters":3200,"station_id":"ce4bhip2rcd13ifvqft0","pricing_plan_id":"free"},