{"last_updated":1732774478,"ttl":60,"version":"2.2","data":{"bikes":[{"bike_id":"e75a9082-7454-4d85-a7d1-e0c885f7f25c","system_id":"levelo_inurba_marseille","lat":43.287003,"lon":5.37384,"is_reserved":false,"is_disabled":false,"rental_uris":{"android":"levelo://app?vid=e75a9082-7454-4d85-a7d1-e0c885f7f25c","ios":"levelo://app?vid=e75a9082-7454-4d85-a7d1-e0c885f7f25c"},"vehicle_type_id":"4","last_reported":1732774478,"current_range_meters":26800,"station_id":"ce4bh3p2rcd13ifvqdq0","pricing_plan_id":"cebpf4jnsgd1na2vs0mg"},{"bike_id":"927924fc-8a74-47c2-8b69-b7e14b1090b9","system_id":"levelo_inurba_marseille","lat":43.278136,"lon":5.407185,"is_reserved":false,"is_disabled":true,"rental_uris":{"android":"levelo://app?vid=927924fc-8a74-47c2-8b69-b7e14b1090b9","ios":"levelo://app?vid=927924fc-8a74-47c2-8b69-b7e14b1090b9"},"vehicle_type_id":"4","last_reported":1732774478,"current_range_meters":11200,"station_id":"ce4bhnh2rcd13ifvqgtg","pricing_plan_id":"cebpf4jnsgd1na2vs0mg"},{"bike_id":"b856c8b4-412d-4c25-bdd4-e6b29aed04cb","system_id":"levelo_inurba_marseille","lat":43.22932,"lon":5.35379,"is_reserved":false,"is_disabled":false,"rental_uris":{"android":"levelo://app?vid=b856c8b4-412d-4c25-bdd4-e6b29aed04cb","ios":"levelo://app?vid=b856c8b4-412d-4c25-bdd4-e6b29aed04cb"},"vehicle_type_id":"4","last_reported":1732774478,"current_range_meters":38800,"station_id":"cpo3532slgdg3j2ikp40","pricing_plan_id":"cebpf4jnsgd1na2vs0mg"},{"bike_id":"863c9696-d78b-4e98-be5f-966913ade150","system_id":"levelo_inurba_marseille","lat":43.26916,"lon":5.38929,"is_reserved":false,"is_disabled":true,"rental_uris":{"android":"levelo://app?vid=863c9696-d78b-4e98-be5f-966913ade150","ios":"levelo://app?vid=863c9696-d78b-4e98-be5f-966913ade150"},"vehicle_type_id":"4","last_reported":1732774478,"current_range_meters":30400,"station_id":"ce4bhhh2rcd13ifvqfl0","pricing_plan_id":"cebpf4jnsgd1na2vs0mg"},{"bike_id":"dea3a423-b5cd-4518-8c14-557dd912bebc","system_id":"levelo_inurba_marseille","lat":43.3175,"lon":5.3903,"is_reserved":false,"is_disabled":false,"rental_uris":{"android":"levelo://app?vid=dea3a423-b5cd-4518-8c14-557dd912bebc","ios":"levelo://app?vid=dea3a423-b5cd-4518-8c14-557dd912bebc"},"vehicle_type_id":"4","last_reported":1732774478,"current_range_meters":38400,"station_id":"ce4bhqp2rcd13ifvqhng","pricing_plan_id":"cebpf4jnsgd1na2vs0mg"},{"bike_id":"476918a2-f002-4da3-873c-93d452a6dbff","system_id":"levelo_inurba_marseille","lat":43.239661,"lon":5.366361,"is_reserved":false,"is_disabled":false,"rental_uris":{"android":"levelo://app?vid=476918a2-f002-4da3-873c-93d452a6dbff","ios":"levelo://app?vid=476918a2-f002-4da3-873c-93d452a6dbff"},"vehicle_type_id":"4","last_reported":1732774478,"current_range_meters":38800,"station_id":"ce4bhi12rcd13ifvqfp0","pricing_plan_id":"cebpf4jnsgd1na2vs0mg"},{"bike_id":"02c2fc50-47b9-4858-b775-a93c1f335a69","system_id":"levelo_inurba_marseille","lat":43.28346,"lon":5.38103,"is_reserved":false,"is_disabled":false,"rental_uris":{"android":"levelo://app?vid=02c2fc50-47b9-4858-b775-a93c1f335a69","ios":"levelo://app?vid=02c2fc50-47b9-4858-b775-a93c1f335a69"},"vehicle_type_id":"4","last_reported":1732774478,"current_range_meters":39200,"station_id":"ce4bh412rcd13ifvqdr0","pricing_plan_id":"cebpf4jnsgd1na2vs0mg"},{"bike_id":"d15faee4-61f5-4b8f-b74b-4dbf5a31a4d1","system_id":"levelo_inurba_marseille","lat":43.27982,"lon":5.41655,"is_reserved":false,"is_disabled":false,"rental_uris":{"android":"levelo://app?vid=d15faee4-61f5-4b8f-b74b-4dbf5a31a4d1","ios":"levelo://app?vid=d15faee4-61f5-4b8f-b74b-4dbf5a31a4d1"},"vehicle_type_id":"4","last_reported":1732774478,"current_range_meters":30400,"station_id":"ce4bho12rcd13ifvqh1g","pricing_plan_id":"cebpf4jnsgd1na2vs0mg"},{"bike_id":"fd333872-64e8-431b-b477-7ce63a3c1f71","system_id":"levelo_inurba_marseille","lat":43.28686,"lon":5.37385,"is_reserved":false,"is_disabled":true,"rental_uris":{"android":"levelo://app?vid=fd333872-64e8-431b-b477-7ce63a3c1f71","ios":"levelo://app?vid=fd333872-64e8-431b-b477-7ce63a3c1f71"},"vehicle_type_id":"4","last_reported":1732774478,"current_range_meters":1200,"station_id":"ce4bh3p2rcd13ifvqdq0","pricing_plan_id":"cebpf4jnsgd1na2vs0mg"},{"bike_id":"4fa11f6f-9e8e-4abb-ae14-4b41ecbf550b","system_id":"levelo_inurba_marseille","lat":43.307912,"lon":5.376551,"is_reserved":false,"is_disabled":false,"rental_uris":{"android":"levelo://app?vid=4fa11f6f-9e8e-4abb-ae14-4b41ecbf550b","ios":"levelo://app?vid=4fa11f6f-9e8e-4abb-ae14-4b41ecbf550b"},"vehicle_type_id":"4","last_reported":1732774478,"current_range_meters":38800,"station_id":"ce4bgv92rcd13ifvqcq0","pricing_plan_id":"cebpf4jnsgd1na2vs0mg"},{"bike_id":"41e53bad-9423-47c3-8583-825ffc9e72cd","system_id":"levelo_inurba_marseille","lat":43.27955,"lon":5.38686,"is_reserved":false,"is_disabled":true,"rental_uris":{"android":"levelo://app?vid=41e53bad-9423-47c3-8583-825ffc9e72cd","ios":"levelo://app?vid=41e53bad-9423-47c3-8583-825ffc9e72cd"},"vehicle_type_id":"4","last_reported":1732774478,"current_range_meters":35200,"station_id":"","pricing_plan_id":"cebpf4jnsgd1na2vs0mg"},{"bike_id":"ebd78dc6-b684-4675-a9e0-14f894136eb5","system_id":"levelo_inurba_marseille","lat":43.25726,"lon":5.41109,"is_reserved":false,"is_disabled":false,"rental_uris":{"android":"levelo://app?vid=ebd78dc6-b684-4675-a9e0-14f894136eb5","ios":"levelo://app?vid=ebd78dc6-b684-4675-a9e0-14f894136eb5"},"vehicle_type_id":"4","last_reported":1732774478,"current_range_meters":16400,"station_id":"ce4bhkp2rcd13ifvqgd0","pricing_plan_id":"cebpf4jnsgd1na2vs0mg"},{"bike_id":"e2fcd88a-5b50-4059-b110-891c7847ea5f","system_id":"levelo_inurba_marseille","lat":43.30664,"lon":5.36863,"is_reserved":false,"is_disabled":true,"rental_uris":{"android":"levelo://app?vid=e2fcd88a-5b50-4059-b110-891c7847ea5f","ios":"levelo://app?vid=e2fcd88a-5b50-4059-b110-891c7847ea5f"},"vehicle_type_id":"4","last_reported":1732774478,"current_range_meters":0,"station_id":"","pricing_plan_id":"cebpf4jnsgd1na2vs0mg"},{"bike_id":"c133deff-fddd-4a89-97a2-c2177babbaa7","system_id":"levelo_inurba_marseille","lat":43.2872,"lon":5.36083,"is_reserved":false,"is_disabled":false,"rental_uris":{"android":"levelo://app?vid=c133deff-fddd-4a89-97a2-c2177babbaa7","ios":"levelo://app?vid=c133deff-fddd-4a89-97a2-c2177babbaa7"},"vehicle_type_id":"4","last_reported":1732774478,"current_range_meters":38800,"station_id":"cki0cbj6b192h4jlfktg","pricing_plan_id":"cebpf4jnsgd1na2vs0mg"},{"bike_id":"fc1ce88e-7558-4cf1-ae6f-1ab6c4dd5e74","system_id":"levelo_inurba_marseille","lat":43.309531,"lon":5.390482,"is_reserved":false,"is_disabled":false,"rental_uris":{"android":"levelo://app?vid=fc1ce88e-7558-4cf1-ae6f-1ab6c4dd5e74","ios":"levelo://app?vid=fc1ce88e-7558-4cf1-ae6f-1ab6c4dd5e74"},"vehicle_type_id":"4","last_reported":1732774478,"current_range_meters":37600,"station_id":"ce4bgup2rcd13ifvqco0","pricing_plan_id":"cebpf4jnsgd1na2vs0mg"},{"bike_id":"ce15a521-8a1d-47b7-92c8-091ca367d00e","system_id":"levelo_inurba_marseille","lat":43.33748,"lon":5.37452,"is_reserved":false,"is_disabled":false,"rental_uris":{"android":"levelo://app?vid=ce15a521-8a1d-47b7-92c8-091ca367d00e","ios":"levelo://app?vid=ce15a521-8a1d-47b7-92c8-091ca367d00e"},"vehicle_type_id":"4","last_reported":1732774478,"current_range_meters":37600,"station_id":"","pricing_plan_id":"cebpf4jnsgd1na2vs0mg"},{"bike_id":"1916fa6d-d3b8-4a76-b3e9-3bd347c23b60","system_id":"levelo_inurba_marseille","lat":43.25824,"lon":5.39426,"is_reserved":false,"is_disabled":false,"rental_uris":{"android":"levelo://app?vid=1916fa6d-d3b8-4a76-b3e9-3bd347c23b60","ios":"levelo://app?vid=1916fa6d-d3b8-4a76-b3e9-3bd347c23b60"},"vehicle_type_id":"4","last_reported":1732774478,"current_range_meters":32400,"station_id":"ce4bhip2rcd13ifvqft0","pricing_plan_id":"cebpf4jnsgd1na2vs0mg"},{"bike_id":"ec09b0cc-3621-4afa-bff4-debce0b2cc37","system_id":"levelo_inurba_marseille","lat":43.271844,"lon":5.409968,"is_reserved":false,"is_disabled":true,"rental_uris":{"android":"levelo://app?vid=ec09b0cc-3621-4afa-bff4-debce0b2cc37","ios":"levelo://app?vid=ec09b0cc-3621-4afa-bff4-debce0b2cc37"},"vehicle_type_id":"4","last_reported":1732774478,"current_range_meters":20800,"station_id":"ce4bhl12rcd13ifvqgf0","pricing_plan_id":"cebpf4jnsgd1na2vs0mg"},{"bike_id":"1a97b8de-96c7-4db7-baee-f7a791894782","system_id":"levelo_inurba_marseille","lat":43.28725,"lon":5.36085,"is_reserved":false,"is_disabled":false,"rental_uris":{"android":"levelo://app?vid=1a97b8de-96c7-4db7-baee-f7a791894782","ios":"levelo://app?vid=1a97b8de-96c7-4db7-baee-f7a791894782"},"vehicle_type_id":"4","last_reported":1732774478,"current_range_meters":32000,"station_id":"cki0cbj6b192h4jlfktg","pricing_plan_id":"cebpf4jnsgd1na2vs0mg"},{"bike_id":"1d746077-5610-4b94-96f4-2b8617602ffc","system_id":"levelo_inurba_marseille","lat":43.24994,"lon":5.38923,"is_reserved":false,"is_disabled":false,"rental_uris":{"android":"levelo://app?vid=1d746077-5610-4b94-96f4-2b8617602ffc","ios":"levelo://app?vid=1d746077-5610-4b94-96f4-2b8617602ffc"},"vehicle_type_id":"4","last_reported":1732774478,"current_range_meters":39200,"station_id":"ce4bhgp2rcd13ifvqfd0","pricing_plan_id":"cebpf4jnsgd1na2vs0mg"},{"bike_id":"30712da3-4109-4d0c-bd34-526232671f62","system_id":"levelo_inurba_marseille","lat":43.29906,"lon":5.3748,"is_reserved":false,"is_disabled":true,"rental_uris":{"android":"levelo://app?vid=30712da3-4109-4d0c-bd34-526232671f62","ios":"levelo://app?vid=30712da3-4109-4d0c-bd34-526232671f62"},"vehicle_type_id":"4","last_reported":1732774478,"current_range_meters":38800,"station_id":"ce4bgjh2rcd13ifvqbg0","pricing_plan_id":"cebpf4jnsgd1na2vs0mg"},{"bike_id":"908a91b4-f74f-4175-9a94-be2178948b1b","system_id":"levelo_inurba_marseille","lat":43.25931,"lon":5.40911,"is_reserved":false,"is_disabled":true,"rental_uris":{"android":"levelo://app?vid=908a91b4-f74f-4175-9a94-be2178948b1b","ios":"levelo://app?vid=908a91b4-f74f-4175-9a94-be2178948b1b"},"vehicle_type_id":"4","last_reported":1732774478,"current_range_meters":1200,"station_id":"ce4bhm92rcd13ifvqglg","pricing_plan_id":"cebpf4jnsgd1na2vs0mg"},{"bike_id":"159bac19-9cba-45ce-a9ad-1f0b29b7ead8","system_id":"levelo_inurba_marseille","lat":43.28015,"lon":5.41703,"is_reserved":false,"is_disabled":false,"rental_uris":{"android":"levelo://app?vid=159bac19-9cba-45ce-a9ad-1f0b29b7ead8","ios":"levelo://app?vid=159bac19-9cba-45ce-a9ad-1f0b29b7ead8"},"vehicle_type_id":"4","last_reported":1732774478,"current_range_meters":35600,"station_id":"ce4bho12rcd13ifvqh1g","pricing_plan_id":"cebpf4jnsgd1na2vs0mg"},{"bike_id":"b8473380-2e78-4243-944b-872bb30cd1c9","system_id":"levelo_inurba_marseille","lat":43.27174,"lon":5.41006,"is_reserved":false,"is_disabled":false,"rental_uris":{"android":"levelo://app?vid=b8473380-2e78-4243-944b-872bb30cd1c9","ios":"levelo://app?vid=b8473380-2e78-4243-944b-872bb30cd1c9"},"vehicle_type_id":"4","last_reported":1732774478,"current_range_meters":14800,"station_id":"ce4bhl12rcd13ifvqgf0","pricing_plan_id":"cebpf4jnsgd1na2vs0mg"},{"bike_id":"b9e5df70-bff5-4669-ab23-853589abb6e7","system_id":"levelo_inurba_marseille","lat":43.28,"lon":5.41661,"is_reserved":false,"is_disabled":false,"rental_uris":{"android":"levelo://app?vid=b9e5df70-bff5-4669-ab23-853589abb6e7","ios":"levelo://app?vid=b9e5df70-bff5-4669-ab23-853589abb6e7"},"vehicle_type_id":"4","last_reported":1732774478,"current_range_meters":33600,"station_id":"ce4bho12rcd13ifvqh1g","pricing_plan_id":"cebpf4jnsgd1na2vs0mg"},{"bike_id":"cf95e0d2-25e6-4a6b-8cbc-44ced9e844d2","system_id":"levelo_inurba_marseille","lat":43.23185,"lon":5.39989,"is_reserved":false,"is_disabled":true,"rental_uris":{"android":"levelo://app?vid=cf95e0d2-25e6-4a6b-8cbc-44ced9e844d2","ios":"levelo://app?vid=cf95e0d2-25e6-4a6b-8cbc-44ced9e844d2"},"vehicle_type_id":"4","last_reported":1732774478,"current_range_meters":0,"station_id":"ce4bhn12rcd13ifvqgqg","pricing_plan_id":"cebpf4jnsgd1na2vs0mg"},{"bike_id":"6f7949e1-de87-4a49-8620-fec27e04447f","system_id":"levelo_inurba_marseille","lat":43.33701,"lon":5.39232,"is_reserved":false,"is_disabled":false,"rental_uris":{"android":"levelo://app?vid=6f7949e1-de87-4a49-8620-fec27e04447f","ios":"levelo://app?vid=6f7949e1-de87-4a49-8620-fec27e04447f"},"vehicle_type_id":"4","last_reported":1732774478,"current_range_meters":36400,"station_id":"ce4bhr92rcd13ifvqhsg","pricing_plan_id":"cebpf4jnsgd1na2vs0mg"},{"bike_id":"02243332-e249-4476-979a-6bbbdd85982e","system_id":"levelo_inurba_marseille","lat":43.30471,"lon":5.37908,"is_reserved":false,"is_disabled":false,"rental_uris":{"android":"levelo://app?vid=02243332-e249-4476-979a-6bbbdd85982e","ios":"levelo://app?vid=02243332-e249-4476-979a-6bbbdd85982e"},"vehicle_type_id":"4","last_reported":1732774478,"current_range_meters":36800,"station_id":"ce4bgup2rcd13ifvqcn0","pricing_plan_id":"cebpf4jnsgd1na2vs0mg"},{"bike_id":"0613aafb-8dd4-42d7-a9f6-a5fb26e37128","system_id":"levelo_inurba_marseille","lat":43.2668,"lon":5.38266,"is_reserved":false,"is_disabled":false,"rental_uris":{"android":"levelo://app?vid=0613aafb-8dd4-42d7-a9f6-a5fb26e37128","ios":"levelo://app?vid=0613aafb-8dd4-42d7-a9f6-a5fb26e37128"},"vehicle_type_id":"4","last_reported":1732774478,"current_range_meters":34800,"station_id":"ce4bhg92rcd13ifvqf90","pricing_plan_id":"cebpf4jnsgd1na2vs0mg"},{"bike_id":"d23289ce-d393-4510-a420-8c431a6d7a22","system_id":"levelo_inurba_marseille","lat":43.28396,"lon":5.37511,"is_reserved":false,"is_disabled":false,"rental_uris":{"android":"levelo://app?vid=d23289ce-d393-4510-a420-8c431a6d7a22","ios":"levelo://app?vid=d23289ce-d393-4510-a420-8c431a6d7a22"},"vehicle_type_id":"4","last_reported":1732774478,"current_range_meters":30000,"station_id":"ce4bh412rcd13ifvqds0","pricing_plan_id":"cebpf4jnsgd1na2vs0mg"},{"bike_id":"25f30869-b77d-4de8-a957-f3b456f28fc1","system_id":"levelo_inurba_marseille","lat":43.25,"lon":5.389288,"is_reserved":false,"is_disabled":false,"rental_uris":{"android":"levelo://app?vid=25f30869-b77d-4de8-a957-f3b456f28fc1","ios":"levelo://app?vid=25f30869-b77d-4de8-a957-f3b456f28fc1"},"vehicle_type_id":"4","last_reported":1732774478,"current_range_meters":19600,"station_id":"ce4bhgp2rcd13ifvqfd0","pricing_plan_id":"cebpf4jnsgd1na2vs0mg"},{"bike_id":"88c0a23c-decf-469d-95fc-e70f9cd8eb3b","system_id":"levelo_inurba_marseille","lat":43.3374,"lon":5.37445,"is_reserved":false,"is_disabled":false,"rental_uris":{"android":"levelo://app?vid=88c0a23c-decf-469d-95fc-e70f9cd8eb3b","ios":"levelo://app?vid=88c0a23c-decf-469d-95fc-e70f9cd8eb3b"},"vehicle_type_id":"4","last_reported":1732774478,"current_range_meters":32000,"station_id":"","pricing_plan_id":"cebpf4jnsgd1na2vs0mg"},{"bike_id":"b57c6281-c807-49c8-b136-9a530e290d94","system_id":"levelo_inurba_marseille","lat":43.30603,"lon":5.3934,"is_reserved":false,"is_disabled":false,"rental_uris":{"android":"levelo://app?vid=b57c6281-c807-49c8-b136-9a530e290d94","ios":"levelo://app?vid=b57c6281-c807-49c8-b136-9a530e290d94"},"vehicle_type_id":"4","last_reported":1732774478,"current_range_meters":37600,"station_id":"ce4bh0p2rcd13ifvqd80","pricing_plan_id":"cebpf4jnsgd1na2vs0mg"},{"bike_id":"b037b0ca-1f65-4bb8-bf1a-2ea0b637ed2b","system_id":"levelo_inurba_marseille","lat":43.284637,"lon":5.358921,"is_reserved":false,"is_disabled":false,"rental_uris":{"android":"levelo://app?vid=b037b0ca-1f65-4bb8-bf1a-2ea0b637ed2b","ios":"levelo://app?vid=b037b0ca-1f65-4bb8-bf1a-2ea0b637ed2b"},"vehicle_type_id":"4","last_reported":1732774478,"current_range_meters":26000,"station_id":"ce4bhah2rcd13ifvqei0","pricing_plan_id":"cebpf4jnsgd1na2vs0mg"},{"bike_id":"318a6aa4-78ed-474d-abd7-4e3dfa07adf2","system_id":"levelo_inurba_marseille","lat":43.28397,"lon":5.37505,"is_reserved":false,"is_disabled":false,"rental_uris":{"android":"levelo://app?vid=318a6aa4-78ed-474d-abd7-4e3dfa07adf2","ios":"levelo://app?vid=318a6aa4-78ed-474d-abd7-4e3dfa07adf2"},"vehicle_type_id":"4","last_reported":1732774478,"current_range_meters":9200,"station_id":"ce4bh412rcd13ifvqds0","pricing_plan_id":"cebpf4jnsgd1na2vs0mg"},{"bike_id":"56d86ab7-968f-4c20-9359-241791eb84a0","system_id":"levelo_inurba_marseille","lat":43.32548,"lon":5.41449,"is_reserved":false,"is_disabled":false,"rental_uris":{"android":"levelo://app?vid=56d86ab7-968f-4c20-9359-241791eb84a0","ios":"levelo://app?vid=56d86ab7-968f-4c20-9359-241791eb84a0"},"vehicle_type_id":"4","last_reported":1732774478,"current_range_meters":38000,"station_id":"ce4bhq12rcd13ifvqhhg","pricing_plan_id":"cebpf4jnsgd1na2vs0mg"},{"bike_id":"d208b70b-cfeb-47de-81b0-222dbd574cb7","system_id":"levelo_inurba_marseille","lat":43.23067,"lon":5.35494,"is_reserved":false,"is_disabled":false,"rental_uris":{"android":"levelo://app?vid=d208b70b-cfeb-47de-81b0-222dbd574cb7","ios":"levelo://app?vid=d208b70b-cfeb-47de-81b0-222dbd574cb7"},"vehicle_type_id":"4","last_reported":1732774478,"current_range_meters":37600,"station_id":"cpo3342slgdg3j2ifvpg","pricing_plan_id":"cebpf4jnsgd1na2vs0mg"},{"bike_id":"82ca3d5e-7ecc-46d5-b207-e693715a15d2","system_id":"levelo_inurba_marseille","lat":43.3029,"lon":5.36874,"is_reserved":false,"is_disabled":false,"rental_uris":{"android":"levelo://app?vid=82ca3d5e-7ecc-46d5-b207-e693715a15d2","ios":"levelo://app?vid=82ca3d5e-7ecc-46d5-b207-e693715a15d2"},"vehicle_type_id":"4","last_reported":1732774478,"current_range_meters":30800,"station_id":"ce4bgqh2rcd13ifvqc5g","pricing_plan_id":"cebpf4jnsgd1na2vs0mg"},{"bike_id":"5249c720-4ecf-407f-95ee-f4da1041dcb5","system_id":"levelo_inurba_marseille","lat":43.26688,"lon":5.38271,"is_reserved":false,"is_disabled":true,"rental_uris":{"android":"levelo://app?vid=5249c720-4ecf-407f-95ee-f4da1041dcb5","ios":"levelo://app?vid=5249c720-4ecf-407f-95ee-f4da1041dcb5"},"vehicle_type_id":"4","last_reported":1732774478,"current_range_meters":30400,"station_id":"ce4bhg92rcd13ifvqf90","pricing_plan_id":"cebpf4jnsgd1na2vs0mg"},{"bike_id":"d7211545-298f-4031-a7c6-34773a3ba9aa","system_id":"levelo_inurba_marseille","lat":43.30679,"lon":5.40086,"is_reserved":false,"is_disabled":false,"rental_uris":{"android":"levelo://app?vid=d7211545-298f-4031-a7c6-34773a3ba9aa","ios":"levelo://app?vid=d7211545-298f-4031-a7c6-34773a3ba9aa"},"vehicle_type_id":"4","last_reported":1732774478,"current_range_meters":24800,"station_id":"ce4bh112rcd13ifvqda0","pricing_plan_id":"cebpf4jnsgd1na2vs0mg"},{"bike_id":"712e56aa-f0e9-400d-ac30-33baf1320ab8","system_id":"levelo_inurba_marseille","lat":43.2847,"lon":5.3588,"is_reserved":false,"is_disabled":false,"rental_uris":{"android":"levelo://app?vid=712e56aa-f0e9-400d-ac30-33baf1320ab8","ios":"levelo://app?vid=712e56aa-f0e9-400d-ac30-33baf1320ab8"},"vehicle_type_id":"4","last_reported":1732774478,"current_range_meters":6000,"station_id":"ce4bhah2rcd13ifvqei0","pricing_plan_id":"cebpf4jnsgd1na2vs0mg"},{"bike_id":"4709c438-f4af-415a-a919-d27302b75dca","system_id":"levelo_inurba_marseille","lat":43.23196,"lon":5.35553,"is_reserved":false,"is_disabled":false,"rental_uris":{"android":"levelo://app?vid=4709c438-f4af-415a-a919-d27302b75dca","ios":"levelo://app?vid=4709c438-f4af-415a-a919-d27302b75dca"},"vehicle_type_id":"4","last_reported":1732774478,"current_range_meters":38800,"station_id":"ce4bhu92rcd13ifvqi70","pricing_plan_id":"cebpf4jnsgd1na2vs0mg"},{"bike_id":"2b921899-1359-49b6-a793-ffb9ef50e656","system_id":"levelo_inurba_marseille","lat":43.29634,"lon":5.37797,"is_reserved":false,"is_disabled":true,"rental_uris":{"android":"levelo://app?vid=2b921899-1359-49b6-a793-ffb9ef50e656","ios":"levelo://app?vid=2b921899-1359-49b6-a793-ffb9ef50e656"},"vehicle_type_id":"4","last_reported":1732774478,"current_range_meters":38400,"station_id":"","pricing_plan_id":"cebpf4jnsgd1na2vs0mg"},{"bike_id":"181851fb-d5fd-4b64-a671-8ea8285234d7","system_id":"levelo_inurba_marseille","lat":43.323632,"lon":5.388839,"is_reserved":false,"is_disabled":false,"rental_uris":{"android":"levelo://app?vid=181851fb-d5fd-4b64-a671-8ea8285234d7","ios":"levelo://app?vid=181851fb-d5fd-4b64-a671-8ea8285234d7"},"vehicle_type_id":"4","last_reported":1732774478,"current_range_meters":12000,"station_id":"ce4bhqp2rcd13ifvqhog","pricing_plan_id":"cebpf4jnsgd1na2vs0mg"},{"bike_id":"6b45ad5f-0a27-4fcf-864b-3cb52492ef94","system_id":"levelo_inurba_marseille","lat":43.28037,"lon":5.36946,"is_reserved":false,"is_disabled":false,"rental_uris":{"android":"levelo://app?vid=6b45ad5f-0a27-4fcf-864b-3cb52492ef94","ios":"levelo://app?vid=6b45ad5f-0a27-4fcf-864b-3cb52492ef94"},"vehicle_type_id":"4","last_reported":1732774478,"current_range_meters":18800,"station_id":"ce4bha12rcd13ifvqef0","pricing_plan_id":"cebpf4jnsgd1na2vs0mg"},{"bike_id":"a833b1a9-9114-4797-905e-009322efb201","system_id":"levelo_inurba_marseille","lat":43.31707,"lon":5.37758,"is_reserved":false,"is_disabled":false,"rental_uris":{"android":"levelo://app?vid=a833b1a9-9114-4797-905e-009322efb201","ios":"levelo://app?vid=a833b1a9-9114-4797-905e-009322efb201"},"vehicle_type_id":"4","last_reported":1732774478,"current_range_meters":24000,"station_id":"ce4bgth2rcd13ifvqch0","pricing_plan_id":"cebpf4jnsgd1na2vs0mg"},{"bike_id":"869146c7-107f-4a8d-a9de-076457eea766","system_id":"levelo_inurba_marseille","lat":43.21676,"lon":5.34639,"is_reserved":false,"is_disabled":false,"rental_uris":{"android":"levelo://app?vid=869146c7-107f-4a8d-a9de-076457eea766","ios":"levelo://app?vid=869146c7-107f-4a8d-a9de-076457eea766"},"vehicle_type_id":"4","last_reported":1732774478,"current_range_meters":12000,"station_id":"","pricing_plan_id":"cebpf4jnsgd1na2vs0mg"},{"bike_id":"8b53c6cd-9f6a-4960-8a00-178f9f03d8f4","system_id":"levelo_inurba_marseille","lat":43.28847,"lon":5.35851,"is_reserved":false,"is_disabled":false,"rental_uris":{"android":"levelo://app?vid=8b53c6cd-9f6a-4960-8a00-178f9f03d8f4","ios":"levelo://app?vid=8b53c6cd-9f6a-4960-8a00-178f9f03d8f4"},"vehicle_type_id":"4","last_reported":1732774478,"current_range_meters":38800,"station_id":"ce4bhb12rcd13ifvqem0","pricing_plan_id":"cebpf4jnsgd1na2vs0mg"},{"bike_id":"72d6e1cd-95a6-4161-b11a-570ee8a1f3a8","system_id":"levelo_inurba_marseille","lat":43.29266,"lon":5.40129,"is_reserved":false,"is_disabled":false,"rental_uris":{"android":"levelo://app?vid=72d6e1cd-95a6-4161-b11a-570ee8a1f3a8","ios":"levelo://app?vid=72d6e1cd-95a6-4161-b11a-570ee8a1f3a8"},"vehicle_type_id":"4","last_reported":1732774478,"current_range_meters":37600,"station_id":"ce4bh312rcd13ifvqdk0","pricing_plan_id":"cebpf4jnsgd1na2vs0mg"},{"bike_id":"c283b5f8-3130-489e-b2be-8acbbe840512","system_id":"levelo_inurba_marseille","lat":43.29262,"lon":5.40126,"is_reserved":false,"is_disabled":true,"rental_uris":{"android":"levelo://app?vid=c283b5f8-3130-489e-b2be-8acbbe840512","ios":"levelo://app?vid=c283b5f8-3130-489e-b2be-8acbbe840512"},"vehicle_type_id":"4","last_reported":1732774478,"current_range_meters":20800,"station_id":"ce4bh312rcd13ifvqdk0","pricing_plan_id":"cebpf4jnsgd1na2vs0mg"},{"bike_id":"bc5a5074-0b9a-4e85-95dd-ea50a596fbc7","system_id":"levelo_inurba_marseille","lat":43.30928,"lon":5.40146,"is_reserved":false,"is_disabled":false,"rental_uris":{"android":"levelo://app?vid=bc5a5074-0b9a-4e85-95dd-ea50a596fbc7","ios":"levelo://app?vid=bc5a5074-0b9a-4e85-95dd-ea50a596fbc7"},"vehicle_type_id":"4","last_reported":1732774478,"current_range_meters":30000,"station_id":"ce4bgvp2rcd13ifvqct0","pricing_plan_id":"cebpf4jnsgd1na2vs0mg"},{"bike_id":"de1ca9e9-b954-4a0a-bf98-44af75deb117","system_id":"levelo_inurba_marseille","lat":43.31167,"lon":5.38711,"is_reserved":false,"is_disabled":false,"rental_uris":{"android":"levelo://app?vid=de1ca9e9-b954-4a0a-bf98-44af75deb117","ios":"levelo://app?vid=de1ca9e9-b954-4a0a-bf98-44af75deb117"},"vehicle_type_id":"4","last_reported":1732774478,"current_range_meters":25600,"station_id":"ce4bgv12rcd13ifvqcp0","pricing_plan_id":"cebpf4jnsgd1na2vs0mg"},{"bike_id":"f4d9390a-78e2-43b8-a1b5-9aa57f7d162e","system_id":"levelo_inurba_marseille","lat":43.28708,"lon":5.39982,"is_reserved":false,"is_disabled":false,"rental_uris":{"android":"levelo://app?vid=f4d9390a-78e2-43b8-a1b5-9aa57f7d162e","ios":"levelo://app?vid=f4d9390a-78e2-43b8-a1b5-9aa57f7d162e"},"vehicle_type_id":"4","last_reported":1732774478,"current_range_meters":38800,"station_id":"ce4bho92rcd13ifvqh3g","pricing_plan_id":"cebpf4jnsgd1na2vs0mg"},{"bike_id":"7e70a053-ceff-498f-9b92-253c702e76d4","system_id":"levelo_inurba_marseille","lat":43.3175,"lon":5.39023,"is_reserved":false,"is_disabled":false,"rental_uris":{"android":"levelo://app?vid=7e70a053-ceff-498f-9b92-253c702e76d4","ios":"levelo://app?vid=7e70a053-ceff-498f-9b92-253c702e76d4"},"vehicle_type_id":"4","last_reported":1732774478,"current_range_meters":38400,"station_id":"ce4bhqp2rcd13ifvqhng","pricing_plan_id":"cebpf4jnsgd1na2vs0mg"},{"bike_id":"029fadc3-0a47-4854-9081-421a1c761db5","system_id":"levelo_inurba_marseille","lat":43.25862,"lon":5.39906,"is_reserved":false,"is_disabled":false,"rental_uris":{"android":"levelo://app?vid=029fadc3-0a47-4854-9081-421a1c761db5","ios":"levelo://app?vid=029fadc3-0a47-4854-9081-421a1c761db5"},"vehicle_type_id":"4","last_reported":1732774478,"current_range_meters":36400,"station_id":"ce4bhl92rcd13ifvqghg","pricing_plan_id":"cebpf4jnsgd1na2vs0mg"},{"bike_id":"775aba22-baf5-4ce5-b645-5941a20cb104","system_id":"levelo_inurba_marseille","lat":43.27381,"lon":5.36256,"is_reserved":false,"is_disabled":true,"rental_uris":{"android":"levelo://app?vid=775aba22-baf5-4ce5-b645-5941a20cb104","ios":"levelo://app?vid=775aba22-baf5-4ce5-b645-5941a20cb104"},"vehicle_type_id":"4","last_reported":1732774478,"current_range_meters":38400,"station_id":"ce4bhbh2rcd13ifvqeo0","pricing_plan_id":"cebpf4jnsgd1na2vs0mg"},{"bike_id":"f5f77d7d-e2e6-4897-96f0-f659176b482f","system_id":"levelo_inurba_marseille","lat":43.29035,"lon":5.39966,"is_reserved":false,"is_disabled":false,"rental_uris":{"android":"levelo://app?vid=f5f77d7d-e2e6-4897-96f0-f659176b482f","ios":"levelo://app?vid=f5f77d7d-e2e6-4897-96f0-f659176b482f"},"vehicle_type_id":"4","last_reported":1732774478,"current_range_meters":30400,"station_id":"ce4bh392rcd13ifvqdm0","pricing_plan_id":"cebpf4jnsgd1na2vs0mg"},{"bike_id":"10515226-3d19-49b0-b8c2-7bbf5cbf72e4","system_id":"levelo_inurba_marseille","lat":43.290011,"lon":5.356199,"is_reserved":false,"is_disabled":true,"rental_uris":{"android":"levelo://app?vid=10515226-3d19-49b0-b8c2-7bbf5cbf72e4","ios":"levelo://app?vid=10515226-3d19-49b0-b8c2-7bbf5cbf72e4"},"vehicle_type_id":"4","last_reported":1732774478,"current_range_meters":800,"station_id":"ce4bhb92rcd13ifvqen0","pricing_plan_id":"cebpf4jnsgd1na2vs0mg"},{"bike_id":"6148d723-37a4-48c4-bf51-53a21b297072","system_id":"levelo_inurba_marseille","lat":43.30932,"lon":5.40146,"is_reserved":false,"is_disabled":false,"rental_uris":{"android":"levelo://app?vid=6148d723-37a4-48c4-bf51-53a21b297072","ios":"levelo://app?vid=6148d723-37a4-48c4-bf51-53a21b297072"},"vehicle_type_id":"4","last_reported":1732774478,"current_range_meters":37600,"station_id":"ce4bgvp2rcd13ifvqct0","pricing_plan_id":"cebpf4jnsgd1na2vs0mg"},{"bike_id":"f9b5620a-e690-4155-9b0d-67c83858f7f4","system_id":"levelo_inurba_marseille","lat":43.32287,"lon":5.38276,"is_reserved":false,"is_disabled":false,"rental_uris":{"android":"levelo://app?vid=f9b5620a-e690-4155-9b0d-67c83858f7f4","ios":"levelo://app?vid=f9b5620a-e690-4155-9b0d-67c83858f7f4"},"vehicle_type_id":"4","last_reported":1732774478,"current_range_meters":38800,"station_id":"ce4bhr12rcd13ifvqhqg","pricing_plan_id":"cebpf4jnsgd1na2vs0mg"},{"bike_id":"4d4c884f-6933-49c0-8899-f9856d90f44d","system_id":"levelo_inurba_marseille","lat":43.29748,"lon":5.37971,"is_reserved":false,"is_disabled":true,"rental_uris":{"android":"levelo://app?vid=4d4c884f-6933-49c0-8899-f9856d90f44d","ios":"levelo://app?vid=4d4c884f-6933-49c0-8899-f9856d90f44d"},"vehicle_type_id":"4","last_reported":1732774478,"current_range_meters":0,"station_id":"","pricing_plan_id":"cebpf4jnsgd1na2vs0mg"},{"bike_id":"497503fe-5efc-49a3-b750-0eb1d7c8980e","system_id":"levelo_inurba_marseille","lat":43.230669,"lon":5.354948,"is_reserved":false,"is_disabled":false,"rental_uris":{"android":"levelo://app?vid=497503fe-5efc-49a3-b750-0eb1d7c8980e","ios":"levelo://app?vid=497503fe-5efc-49a3-b750-0eb1d7c8980e"},"vehicle_type_id":"4","last_reported":1732774478,"current_range_meters":27200,"station_id":"cpo3342slgdg3j2ifvpg","pricing_plan_id":"cebpf4jnsgd1na2vs0mg"},{"bike_id":"8e2d38d9-a396-4376-a014-6e6f5a184516","system_id":"levelo_inurba_marseille","lat":43.28463,"lon":5.35901,"is_reserved":false,"is_disabled":false,"rental_uris":{"android":"levelo://app?vid=8e2d38d9-a396-4376-a014-6e6f5a184516","ios":"levelo://app?vid=8e2d38d9-a396-4376-a014-6e6f5a184516"},"vehicle_type_id":"4","last_reported":1732774478,"current_range_meters":10000,"station_id":"ce4bhah2rcd13ifvqei0","pricing_plan_id":"cebpf4jnsgd1na2vs0mg"},{"bike_id":"9009be37-c6b1-406b-b0a8-fbab355f715e","system_id":"levelo_inurba_marseille","lat":43.337611,"lon":5.374965,"is_reserved":false,"is_disabled":false,"rental_uris":{"android":"levelo://app?vid=9009be37-c6b1-406b-b0a8-fbab355f715e","ios":"levelo://app?vid=9009be37-c6b1-406b-b0a8-fbab355f715e"},"vehicle_type_id":"4","last_reported":1732774478,"current_range_meters":38400,"station_id":"","pricing_plan_id":"cebpf4jnsgd1na2vs0mg"},{"bike_id":"8b3aa155-5599-4e1f-beb9-0b1fcabafbc2","system_id":"levelo_inurba_marseille","lat":43.32041,"lon":5.41551,"is_reserved":false,"is_disabled":false,"rental_uris":{"android":"levelo://app?vid=8b3aa155-5599-4e1f-beb9-0b1fcabafbc2","ios":"levelo://app?vid=8b3aa155-5599-4e1f-beb9-0b1fcabafbc2"},"vehicle_type_id":"4","last_reported":1732774478,"current_range_meters":38800,"station_id":"ce4bhq92rcd13ifvqhkg","pricing_plan_id":"cebpf4jnsgd1na2vs0mg"},{"bike_id":"79e0b48c-a0ec-44c8-b7cc-20d7d7adc530","system_id":"levelo_inurba_marseille","lat":43.31988,"lon":5.38139,"is_reserved":false,"is_disabled":false,"rental_uris":{"android":"levelo://app?vid=79e0b48c-a0ec-44c8-b7cc-20d7d7adc530","ios":"levelo://app?vid=79e0b48c-a0ec-44c8-b7cc-20d7d7adc530"},"vehicle_type_id":"4","last_reported":1732774478,"current_range_meters":39200,"station_id":"ce4bhr12rcd13ifvqhpg","pricing_plan_id":"cebpf4jnsgd1na2vs0mg"},{"bike_id":"787da3e5-5eaa-466d-a942-f9510f3bbd6d","system_id":"levelo_inurba_marseille","lat":43.27908,"lon":5.39582,"is_reserved":false,"is_disabled":false,"rental_uris":{"android":"levelo://app?vid=787da3e5-5eaa-466d-a942-f9510f3bbd6d","ios":"levelo://app?vid=787da3e5-5eaa-466d-a942-f9510f3bbd6d"},"vehicle_type_id":"4","last_reported":1732774478,"current_range_meters":38000,"station_id":"ce4bhf92rcd13ifvqf40","pricing_plan_id":"cebpf4jnsgd1na2vs0mg"},{"bike_id":"e783f674-db83-4be3-93ae-76301fcf7af4","system_id":"levelo_inurba_marseille","lat":43.25871,"lon":5.39893,"is_reserved":false,"is_disabled":false,"rental_uris":{"android":"levelo://app?vid=e783f674-db83-4be3-93ae-76301fcf7af4","ios":"levelo://app?vid=e783f674-db83-4be3-93ae-76301fcf7af4"},"vehicle_type_id":"4","last_reported":1732774478,"current_range_meters":35200,"station_id":"ce4bhl92rcd13ifvqghg","pricing_plan_id":"cebpf4jnsgd1na2vs0mg"},{"bike_id":"cc39417c-9fe6-4314-b916-d5d5360bfdd4","system_id":"levelo_inurba_marseille","lat":43.32516,"lon":5.41438,"is_reserved":false,"is_disabled":false,"rental_uris":{"android":"levelo://app?vid=cc39417c-9fe6-4314-b916-d5d5360bfdd4","ios":"levelo://app?vid=cc39417c-9fe6-4314-b916-d5d5360bfdd4"},"vehicle_type_id":"4","last_reported":1732774478,"current_range_meters":38800,"station_id":"ce4bhq12rcd13ifvqhhg","pricing_plan_id":"cebpf4jnsgd1na2vs0mg"},{"bike_id":"ac3166e6-7ba4-41ff-826a-bbd05a226e21","system_id":"levelo_inurba_marseille","lat":43.31193,"lon":5.38723,"is_reserved":false,"is_disabled":false,"rental_uris":{"android":"levelo://app?vid=ac3166e6-7ba4-41ff-826a-bbd05a226e21","ios":"levelo://app?vid=ac3166e6-7ba4-41ff-826a-bbd05a226e21"},"vehicle_type_id":"4","last_reported":1732774478,"current_range_meters":39200,"station_id":"ce4bgv12rcd13ifvqcp0","pricing_plan_id":"cebpf4jnsgd1na2vs0mg"},{"bike_id":"299f58fd-6e29-4e06-a65a-1ba6949f2bdc","system_id":"levelo_inurba_marseille","lat":43.33786,"lon":5.37392,"is_reserved":false,"is_disabled":false,"rental_uris":{"android":"levelo://app?vid=299f58fd-6e29-4e06-a65a-1ba6949f2bdc","ios":"levelo://app?vid=299f58fd-6e29-4e06-a65a-1ba6949f2bdc"},"vehicle_type_id":"4","last_reported":1732774478,"current_range_meters":33200,"station_id":"","pricing_plan_id":"cebpf4jnsgd1na2vs0mg"},{"bike_id":"4d809776-4d2b-4bf5-8aa6-666b5b1fd18f","system_id":"levelo_inurba_marseille","lat":43.33715,"lon":5.39177,"is_reserved":false,"is_disabled":false,"rental_uris":{"android":"levelo://app?vid=4d809776-4d2b-4bf5-8aa6-666b5b1fd18f","ios":"levelo://app?vid=4d809776-4d2b-4bf5-8aa6-666b5b1fd18f"},"vehicle_type_id":"4","last_reported":1732774478,"current_range_meters":35200,"station_id":"ce4bhr92rcd13ifvqhsg","pricing_plan_id":"cebpf4jnsgd1na2vs0mg"},{"bike_id":"4f26b517-d0b9-4b24-9c33-c4c094e83c93","system_id":"levelo_inurba_marseille","lat":43.33598,"lon":5.41015,"is_reserved":false,"is_disabled":false,"rental_uris":{"android":"levelo://app?vid=4f26b517-d0b9-4b24-9c33-c4c094e83c93","ios":"levelo://app?vid=4f26b517-d0b9-4b24-9c33-c4c094e83c93"},"vehicle_type_id":"4","last_reported":1732774478,"current_range_meters":38800,"station_id":"ce4bhqh2rcd13ifvqhmg","pricing_plan_id":"cebpf4jnsgd1na2vs0mg"},{"bike_id":"fe4f5ef4-a1da-419f-b689-d2c6365d4d79","system_id":"levelo_inurba_marseille","lat":43.31346,"lon":5.36714,"is_reserved":false,"is_disabled":false,"rental_uris":{"android":"levelo://app?vid=fe4f5ef4-a1da-419f-b689-d2c6365d4d79","ios":"levelo://app?vid=fe4f5ef4-a1da-419f-b689-d2c6365d4d79"},"vehicle_type_id":"4","last_reported":1732774478,"current_range_meters":32000,"station_id":"ce4bgr92rcd13ifvqc6g","pricing_plan_id":"cebpf4jnsgd1na2vs0mg"},{"bike_id":"5605ef18-b85c-4fec-86d2-b84d4cf820fd","system_id":"levelo_inurba_marseille","lat":43.29257,"lon":5.38432,"is_reserved":false,"is_disabled":false,"rental_uris":{"android":"levelo://app?vid=5605ef18-b85c-4fec-86d2-b84d4cf820fd","ios":"levelo://app?vid=5605ef18-b85c-4fec-86d2-b84d4cf820fd"},"vehicle_type_id":"4","last_reported":1732774478,"current_range_meters":37600,"station_id":"ce4bh692rcd13ifvqea0","pricing_plan_id":"cebpf4jnsgd1na2vs0mg"},{"bike_id":"24b2d706-14f2-4a05-a5fd-2a7358cbae81","system_id":"levelo_inurba_marseille","lat":43.246449,"lon":5.388926,"is_reserved":false,"is_disabled":true,"rental_uris":{"android":"levelo://app?vid=24b2d706-14f2-4a05-a5fd-2a7358cbae81","ios":"levelo://app?vid=24b2d706-14f2-4a05-a5fd-2a7358cbae81"},"vehicle_type_id":"4","last_reported":1732774478,"current_range_meters":0,"station_id":"ce4bhg12rcd13ifvqf60","pricing_plan_id":"cebpf4jnsgd1na2vs0mg"},{"bike_id":"7dccca16-9c81-46ba-8ec7-8ac114550316","system_id":"levelo_inurba_marseille","lat":43.337444,"lon":5.374475,"is_reserved":false,"is_disabled":false,"rental_uris":{"android":"levelo://app?vid=7dccca16-9c81-46ba-8ec7-8ac114550316","ios":"levelo://app?vid=7dccca16-9c81-46ba-8ec7-8ac114550316"},"vehicle_type_id":"4","last_reported":1732774478,"current_range_meters":34800,"station_id":"","pricing_plan_id":"cebpf4jnsgd1na2vs0mg"},{"bike_id":"a73153f0-f2ed-4541-8fb4-2711159314ac","system_id":"levelo_inurba_marseille","lat":43.32479,"lon":5.36568,"is_reserved":false,"is_disabled":false,"rental_uris":{"android":"levelo://app?vid=a73153f0-f2ed-4541-8fb4-2711159314ac","ios":"levelo://app?vid=a73153f0-f2ed-4541-8fb4-2711159314ac"},"vehicle_type_id":"4","last_reported":1732774478,"current_range_meters":38400,"station_id":"ce4bhs12rcd13ifvqhvg","pricing_plan_id":"cebpf4jnsgd1na2vs0mg"},{"bike_id":"c5d2d69c-31d7-463b-9568-fc19bed23f6e","system_id":"levelo_inurba_marseille","lat":43.30574,"lon":5.39341,"is_reserved":false,"is_disabled":true,"rental_uris":{"android":"levelo://app?vid=c5d2d69c-31d7-463b-9568-fc19bed23f6e","ios":"levelo://app?vid=c5d2d69c-31d7-463b-9568-fc19bed23f6e"},"vehicle_type_id":"4","last_reported":1732774478,"current_range_meters":8400,"station_id":"ce4bh0p2rcd13ifvqd80","pricing_plan_id":"cebpf4jnsgd1na2vs0mg"},{"bike_id":"36d7a9a3-9f43-47bd-aba3-7bfbcac0602e","system_id":"levelo_inurba_marseille","lat":43.30132,"lon":5.37414,"is_reserved":false,"is_disabled":false,"rental_uris":{"android":"levelo://app?vid=36d7a9a3-9f43-47bd-aba3-7bfbcac0602e","ios":"levelo://app?vid=36d7a9a3-9f43-47bd-aba3-7bfbcac0602e"},"vehicle_type_id":"4","last_reported":1732774478,"current_range_meters":39200,"station_id":"ce4bgs92rcd13ifvqcc0","pricing_plan_id":"cebpf4jnsgd1na2vs0mg"},{"bike_id":"95c39abd-631b-4674-8877-bb71fdbca347","system_id":"levelo_inurba_marseille","lat":43.29606,"lon":5.37737,"is_reserved":false,"is_disabled":true,"rental_uris":{"android":"levelo://app?vid=95c39abd-631b-4674-8877-bb71fdbca347","ios":"levelo://app?vid=95c39abd-631b-4674-8877-bb71fdbca347"},"vehicle_type_id":"4","last_reported":1732774478,"current_range_meters":10000,"station_id":"ce4bgi92rcd13ifvqb90","pricing_plan_id":"cebpf4jnsgd1na2vs0mg"},{"bike_id":"7b45e0d0-86a8-47b5-8420-74a05761af04","system_id":"levelo_inurba_marseille","lat":43.27924,"lon":5.39569,"is_reserved":false,"is_disabled":false,"rental_uris":{"android":"levelo://app?vid=7b45e0d0-86a8-47b5-8420-74a05761af04","ios":"levelo://app?vid=7b45e0d0-86a8-47b5-8420-74a05761af04"},"vehicle_type_id":"4","last_reported":1732774478,"current_range_meters":38000,"station_id":"ce4bhf92rcd13ifvqf40","pricing_plan_id":"cebpf4jnsgd1na2vs0mg"},{"bike_id":"760c0cc1-17b9-4b3a-91b3-8b23ce2d5367","system_id":"levelo_inurba_marseille","lat":43.30929,"lon":5.40148,"is_reserved":false,"is_disabled":false,"rental_uris":{"android":"levelo://app?vid=760c0cc1-17b9-4b3a-91b3-8b23ce2d5367","ios":"levelo://app?vid=760c0cc1-17b9-4b3a-91b3-8b23ce2d5367"},"vehicle_type_id":"4","last_reported":1732774478,"current_range_meters":20000,"station_id":"ce4bgvp2rcd13ifvqct0","pricing_plan_id":"cebpf4jnsgd1na2vs0mg"},{"bike_id":"f3707244-be76-4f41-9813-f703b8fb6020","system_id":"levelo_inurba_marseille","lat":43.28469,"lon":5.38417,"is_reserved":false,"is_disabled":false,"rental_uris":{"android":"levelo://app?vid=f3707244-be76-4f41-9813-f703b8fb6020","ios":"levelo://app?vid=f3707244-be76-4f41-9813-f703b8fb6020"},"vehicle_type_id":"4","last_reported":1732774478,"current_range_meters":24400,"station_id":"ce4bh512rcd13ifvqe3g","pricing_plan_id":"cebpf4jnsgd1na2vs0mg"},{"bike_id":"8429aac6-e205-4db7-b830-738d1a402a04","system_id":"levelo_inurba_marseille","lat":43.31093,"lon":5.37484,"is_reserved":false,"is_disabled":false,"rental_uris":{"android":"levelo://app?vid=8429aac6-e205-4db7-b830-738d1a402a04","ios":"levelo://app?vid=8429aac6-e205-4db7-b830-738d1a402a04"},"vehicle_type_id":"4","last_reported":1732774478,"current_range_meters":14400,"station_id":"","pricing_plan_id":"cebpf4jnsgd1na2vs0mg"},{"bike_id":"1dee5398-ece1-4217-b5b9-984f22c2ff59","system_id":"levelo_inurba_marseille","lat":43.29238,"lon":5.38435,"is_reserved":false,"is_disabled":true,"rental_uris":{"android":"levelo://app?vid=1dee5398-ece1-4217-b5b9-984f22c2ff59","ios":"levelo://app?vid=1dee5398-ece1-4217-b5b9-984f22c2ff59"},"vehicle_type_id":"4","last_reported":1732774478,"current_range_meters":0,"station_id":"ce4bh692rcd13ifvqea0","pricing_plan_id":"cebpf4jnsgd1na2vs0mg"},{"bike_id":"06282a1e-693c-4687-b5aa-64885f185c77","system_id":"levelo_inurba_marseille","lat":43.284259,"lon":5.391918,"is_reserved":false,"is_disabled":false,"rental_uris":{"android":"levelo://app?vid=06282a1e-693c-4687-b5aa-64885f185c77","ios":"levelo://app?vid=06282a1e-693c-4687-b5aa-64885f185c77"},"vehicle_type_id":"4","last_reported":1732774478,"current_range_meters":8800,"station_id":"ce4bhoh2rcd13ifvqh5g","pricing_plan_id":"cebpf4jnsgd1na2vs0mg"},{"bike_id":"f8837861-fa88-45c0-8bc0-88abf0c78fe7","system_id":"levelo_inurba_marseille","lat":43.30928,"lon":5.40144,"is_reserved":false,"is_disabled":false,"rental_uris":{"android":"levelo://app?vid=f8837861-fa88-45c0-8bc0-88abf0c78fe7","ios":"levelo://app?vid=f8837861-fa88-45c0-8bc0-88abf0c78fe7"},"vehicle_type_id":"4","last_reported":1732774478,"current_range_meters":12800,"station_id":"ce4bgvp2rcd13ifvqct0","pricing_plan_id":"cebpf4jnsgd1na2vs0mg"},{"bike_id":"7d4957c3-1f88-4df8-a0af-afc2474213f2","system_id":"levelo_inurba_marseille","lat":43.28711,"lon":5.36088,"is_reserved":false,"is_disabled":false,"rental_uris":{"android":"levelo://app?vid=7d4957c3-1f88-4df8-a0af-afc2474213f2","ios":"levelo://app?vid=7d4957c3-1f88-4df8-a0af-afc2474213f2"},"vehicle_type_id":"4","last_reported":1732774478,"current_range_meters":24000,"station_id":"cki0cbj6b192h4jlfktg","pricing_plan_id":"cebpf4jnsgd1na2vs0mg"},{"bike_id":"ae27d36e-a736-4bd0-9e1e-8d7ee12e2e51","system_id":"levelo_inurba_marseille","lat":43.295988,"lon":5.377136,"is_reserved":false,"is_disabled":true,"rental_uris":{"android":"levelo://app?vid=ae27d36e-a736-4bd0-9e1e-8d7ee12e2e51","ios":"levelo://app?vid=ae27d36e-a736-4bd0-9e1e-8d7ee12e2e51"},"vehicle_type_id":"4","last_reported":1732774478,"current_range_meters":0,"station_id":"ce4bgi92rcd13ifvqb90","pricing_plan_id":"cebpf4jnsgd1na2vs0mg"},{"bike_id":"6c66f87d-50b0-4234-962a-03ae43b76c15","system_id":"levelo_inurba_marseille","lat":43.28257,"lon":5.35063,"is_reserved":false,"is_disabled":false,"rental_uris":{"android":"levelo://app?vid=6c66f87d-50b0-4234-962a-03ae43b76c15","ios":"levelo://app?vid=6c66f87d-50b0-4234-962a-03ae43b76c15"},"vehicle_type_id":"4","last_reported":1732774478,"current_range_meters":16800,"station_id":"ce4bhbp2rcd13ifvqerg","pricing_plan_id":"cebpf4jnsgd1na2vs0mg"},{"bike_id":"6c6a93bf-e171-448f-8ea9-1241abd089a1","system_id":"levelo_inurba_marseille","lat":43.27803,"lon":5.40706,"is_reserved":false,"is_disabled":false,"rental_uris":{"android":"levelo://app?vid=6c6a93bf-e171-448f-8ea9-1241abd089a1","ios":"levelo://app?vid=6c6a93bf-e171-448f-8ea9-1241abd089a1"},"vehicle_type_id":"4","last_reported":1732774478,"current_range_meters":36400,"station_id":"ce4bhnh2rcd13ifvqgtg","pricing_plan_id":"cebpf4jnsgd1na2vs0mg"},{"bike_id":"9cb6c74b-b2fa-4509-948e-c5b932aa2dcd","system_id":"levelo_inurba_marseille","lat":43.31752,"lon":5.3902,"is_reserved":false,"is_disabled":false,"rental_uris":{"android":"levelo://app?vid=9cb6c74b-b2fa-4509-948e-c5b932aa2dcd","ios":"levelo://app?vid=9cb6c74b-b2fa-4509-948e-c5b932aa2dcd"},"vehicle_type_id":"4","last_reported":1732774478,"current_range_meters":38800,"station_id":"ce4bhqp2rcd13ifvqhng","pricing_plan_id":"cebpf4jnsgd1na2vs0mg"},{"bike_id":"d77bd1a9-3dbe-4806-8d0d-9ad10656f516","system_id":"levelo_inurba_marseille","lat":43.30461,"lon":5.3792,"is_reserved":false,"is_disabled":false,"rental_uris":{"android":"levelo://app?vid=d77bd1a9-3dbe-4806-8d0d-9ad10656f516","ios":"levelo://app?vid=d77bd1a9-3dbe-4806-8d0d-9ad10656f516"},"vehicle_type_id":"4","last_reported":1732774478,"current_range_meters":4400,"station_id":"ce4bgup2rcd13ifvqcn0","pricing_plan_id":"cebpf4jnsgd1na2vs0mg"},{"bike_id":"39b04c21-6a6a-40a7-a489-741c2b67c9bd","system_id":"levelo_inurba_marseille","lat":43.33727,"lon":5.391879,"is_reserved":false,"is_disabled":false,"rental_uris":{"android":"levelo://app?vid=39b04c21-6a6a-40a7-a489-741c2b67c9bd","ios":"levelo://app?vid=39b04c21-6a6a-40a7-a489-741c2b67c9bd"},"vehicle_type_id":"4","last_reported":1732774478,"current_range_meters":7200,"station_id":"ce4bhr92rcd13ifvqhsg","pricing_plan_id":"cebpf4jnsgd1na2vs0mg"},{"bike_id":"573f1a32-0100-4632-81f0-9f78c4587cd4","system_id":"levelo_inurba_marseille","lat":43.28404,"lon":5.37517,"is_reserved":false,"is_disabled":true,"rental_uris":{"android":"levelo://app?vid=573f1a32-0100-4632-81f0-9f78c4587cd4","ios":"levelo://app?vid=573f1a32-0100-4632-81f0-9f78c4587cd4"},"vehicle_type_id":"4","last_reported":1732774478,"current_range_meters":0,"station_id":"ce4bh412rcd13ifvqds0","pricing_plan_id":"cebpf4jnsgd1na2vs0mg"},{"bike_id":"792fdbf5-23f6-43fa-bef0-cbc93d0216d2","system_id":"levelo_inurba_marseille","lat":43.27813,"lon":5.40716,"is_reserved":false,"is_disabled":false,"rental_uris":{"android":"levelo://app?vid=792fdbf5-23f6-43fa-bef0-cbc93d0216d2","ios":"levelo://app?vid=792fdbf5-23f6-43fa-bef0-cbc93d0216d2"},"vehicle_type_id":"4","last_reported":1732774478,"current_range_meters":38800,"station_id":"ce4bhnh2rcd13ifvqgtg","pricing_plan_id":"cebpf4jnsgd1na2vs0mg"},{"bike_id":"59310c24-aada-47db-9c55-db87d9c8f60e","system_id":"levelo_inurba_marseille","lat":43.28969,"lon":5.37845,"is_reserved":false,"is_disabled":true,"rental_uris":{"android":"levelo://app?vid=59310c24-aada-47db-9c55-db87d9c8f60e","ios":"levelo://app?vid=59310c24-aada-47db-9c55-db87d9c8f60e"},"vehicle_type_id":"4","last_reported":1732774478,"current_range_meters":4400,"station_id":"ce4bh9p2rcd13ifvqed0","pricing_plan_id":"cebpf4jnsgd1na2vs0mg"},{"bike_id":"6ce9857f-154a-4827-8f47-31036535fe73","system_id":"levelo_inurba_marseille","lat":43.3189,"lon":5.40723,"is_reserved":false,"is_disabled":false,"rental_uris":{"android":"levelo://app?vid=6ce9857f-154a-4827-8f47-31036535fe73","ios":"levelo://app?vid=6ce9857f-154a-4827-8f47-31036535fe73"},"vehicle_type_id":"4","last_reported":1732774478,"current_range_meters":38000,"station_id":"ce4bhq12rcd13ifvqhig","pricing_plan_id":"cebpf4jnsgd1na2vs0mg"},{"bike_id":"d00201b4-3045-42a6-baab-97b71694fceb","system_id":"levelo_inurba_marseille","lat":43.24083,"lon":5.37733,"is_reserved":false,"is_disabled":true,"rental_uris":{"android":"levelo://app?vid=d00201b4-3045-42a6-baab-97b71694fceb","ios":"levelo://app?vid=d00201b4-3045-42a6-baab-97b71694fceb"},"vehicle_type_id":"4","last_reported":1732774478,"current_range_meters":38400,"station_id":"ce4bhnp2rcd13ifvqgvg","pricing_plan_id":"cebpf4jnsgd1na2vs0mg"},{"bike_id":"6b4b8fe7-5b4f-485b-93bd-dbec0a3ccc42","system_id":"levelo_inurba_marseille","lat":43.29002,"lon":5.35601,"is_reserved":false,"is_disabled":true,"rental_uris":{"android":"levelo://app?vid=6b4b8fe7-5b4f-485b-93bd-dbec0a3ccc42","ios":"levelo://app?vid=6b4b8fe7-5b4f-485b-93bd-dbec0a3ccc42"},"vehicle_type_id":"4","last_reported":1732774478,"current_range_meters":0,"station_id":"ce4bhb92rcd13ifvqen0","pricing_plan_id":"cebpf4jnsgd1na2vs0mg"},{"bike_id":"a127c27e-fc18-4797-aa40-bdfb51a27d99","system_id":"levelo_inurba_marseille","lat":43.24666,"lon":5.3816,"is_reserved":false,"is_disabled":false,"rental_uris":{"android":"levelo://app?vid=a127c27e-fc18-4797-aa40-bdfb51a27d99","ios":"levelo://app?vid=a127c27e-fc18-4797-aa40-bdfb51a27d99"},"vehicle_type_id":"4","last_reported":1732774478,"current_range_meters":14400,"station_id":"ce4bhih2rcd13ifvqfr0","pricing_plan_id":"cebpf4jnsgd1na2vs0mg"},{"bike_id":"95c2af00-0797-44a0-b21a-dc89c659b75f","system_id":"levelo_inurba_marseille","lat":43.30796,"lon":5.4352,"is_reserved":false,"is_disabled":false,"rental_uris":{"android":"levelo://app?vid=95c2af00-0797-44a0-b21a-dc89c659b75f","ios":"levelo://app?vid=95c2af00-0797-44a0-b21a-dc89c659b75f"},"vehicle_type_id":"4","last_reported":1732774478,"current_range_meters":27200,"station_id":"ce4bhph2rcd13ifvqheg","pricing_plan_id":"cebpf4jnsgd1na2vs0mg"},{"bike_id":"678594ee-cb74-4024-a531-064bbe657df2","system_id":"levelo_inurba_marseille","lat":43.30594,"lon":5.3935,"is_reserved":false,"is_disabled":false,"rental_uris":{"android":"levelo://app?vid=678594ee-cb74-4024-a531-064bbe657df2","ios":"levelo://app?vid=678594ee-cb74-4024-a531-064bbe657df2"},"vehicle_type_id":"4","last_reported":1732774478,"current_range_meters":38800,"station_id":"ce4bh0p2rcd13ifvqd80","pricing_plan_id":"cebpf4jnsgd1na2vs0mg"},{"bike_id":"220ce8bf-6055-439a-932f-70112f24c52b","system_id":"levelo_inurba_marseille","lat":43.32106,"lon":5.367803,"is_reserved":false,"is_disabled":false,"rental_uris":{"android":"levelo://app?vid=220ce8bf-6055-439a-932f-70112f24c52b","ios":"levelo://app?vid=220ce8bf-6055-439a-932f-70112f24c52b"},"vehicle_type_id":"4","last_reported":1732774478,"current_range_meters":11600,"station_id":"ce4bhrh2rcd13ifvqhug","pricing_plan_id":"cebpf4jnsgd1na2vs0mg"},{"bike_id":"bef0b090-d41a-4bec-bcc6-3159ccf77002","system_id":"levelo_inurba_marseille","lat":43.278143,"lon":5.407095,"is_reserved":false,"is_disabled":false,"rental_uris":{"android":"levelo://app?vid=bef0b090-d41a-4bec-bcc6-3159ccf77002","ios":"levelo://app?vid=bef0b090-d41a-4bec-bcc6-3159ccf77002"},"vehicle_type_id":"4","last_reported":1732774478,"current_range_meters":38400,"station_id":"ce4bhnh2rcd13ifvqgtg","pricing_plan_id":"cebpf4jnsgd1na2vs0mg"},{"bike_id":"24404b8c-92d5-4ffc-a704-f49736075a77","system_id":"levelo_inurba_marseille","lat":43.32359,"lon":5.38882,"is_reserved":false,"is_disabled":false,"rental_uris":{"android":"levelo://app?vid=24404b8c-92d5-4ffc-a704-f49736075a77","ios":"levelo://app?vid=24404b8c-92d5-4ffc-a704-f49736075a77"},"vehicle_type_id":"4","last_reported":1732774478,"current_range_meters":20400,"station_id":"ce4bhqp2rcd13ifvqhog","pricing_plan_id":"cebpf4jnsgd1na2vs0mg"},{"bike_id":"db508db4-5989-4d56-8ff3-52352e57ed7c","system_id":"levelo_inurba_marseille","lat":43.31888,"lon":5.4073,"is_reserved":false,"is_disabled":false,"rental_uris":{"android":"levelo://app?vid=db508db4-5989-4d56-8ff3-52352e57ed7c","ios":"levelo://app?vid=db508db4-5989-4d56-8ff3-52352e57ed7c"},"vehicle_type_id":"4","last_reported":1732774478,"current_range_meters":37600,"station_id":"ce4bhq12rcd13ifvqhig","pricing_plan_id":"cebpf4jnsgd1na2vs0mg"},{"bike_id":"5e2d97fb-30eb-47f9-9fb3-b04ea853910f","system_id":"levelo_inurba_marseille","lat":43.30776,"lon":5.37651,"is_reserved":false,"is_disabled":false,"rental_uris":{"android":"levelo://app?vid=5e2d97fb-30eb-47f9-9fb3-b04ea853910f","ios":"levelo://app?vid=5e2d97fb-30eb-47f9-9fb3-b04ea853910f"},"vehicle_type_id":"4","last_reported":1732774478,"current_range_meters":32400,"station_id":"ce4bgv92rcd13ifvqcq0","pricing_plan_id":"cebpf4jnsgd1na2vs0mg"},{"bike_id":"05e3db42-2799-49d3-a955-1cf629a59c9a","system_id":"levelo_inurba_marseille","lat":43.30433,"lon":5.38892,"is_reserved":false,"is_disabled":false,"rental_uris":{"android":"levelo://app?vid=05e3db42-2799-49d3-a955-1cf629a59c9a","ios":"levelo://app?vid=05e3db42-2799-49d3-a955-1cf629a59c9a"},"vehicle_type_id":"4","last_reported":1732774478,"current_range_meters":38800,"station_id":"ce4bgk12rcd13ifvqbi0","pricing_plan_id":"cebpf4jnsgd1na2vs0mg"},{"bike_id":"aee274ad-63a8-4bcf-bda5-c2ef42c5520a","system_id":"levelo_inurba_marseille","lat":43.30145,"lon":5.38071,"is_reserved":false,"is_disabled":false,"rental_uris":{"android":"levelo://app?vid=aee274ad-63a8-4bcf-bda5-c2ef42c5520a","ios":"levelo://app?vid=aee274ad-63a8-4bcf-bda5-c2ef42c5520a"},"vehicle_type_id":"4","last_reported":1732774478,"current_range_meters":34000,"station_id":"ce4bgjp2rcd13ifvqbh0","pricing_plan_id":"cebpf4jnsgd1na2vs0mg"},{"bike_id":"befd70af-0170-4a22-9cf7-bc67e949484d","system_id":"levelo_inurba_marseille","lat":43.25823,"lon":5.39425,"is_reserved":false,"is_disabled":false,"rental_uris":{"android":"levelo://app?vid=befd70af-0170-4a22-9cf7-bc67e949484d","ios":"levelo://app?vid=befd70af-0170-4a22-9cf7-bc67e949484d"},"vehicle_type_id":"4","last_reported":1732774478,"current_range_meters":3200,"station_id":"ce4bhip2rcd13ifvqft0","pricing_plan_id":"cebpf4jnsgd1na2vs0mg"},{"bike_id":"d4f2b80e-deb0-4225-9b05-088e4ed4dd4b","system_id":"levelo_inurba_marseille","lat":43.30297,"lon":5.36922,"is_reserved":false,"is_disabled":true,"rental_uris":{"android":"levelo://app?vid=d4f2b80e-deb0-4225-9b05-088e4ed4dd4b","ios":"levelo://app?vid=d4f2b80e-deb0-4225-9b05-088e4ed4dd4b"},"vehicle_type_id":"4","last_reported":1732774478,"current_range_meters":0,"station_id":"ce4bgqh2rcd13ifvqc5g","pricing_plan_id":"cebpf4jnsgd1na2vs0mg"},{"bike_id":"460f7772-317b-4685-8d1c-9cbb0be70bad","system_id":"levelo_inurba_marseille","lat":43.2927,"lon":5.40136,"is_reserved":false,"is_disabled":false,"rental_uris":{"android":"levelo://app?vid=460f7772-317b-4685-8d1c-9cbb0be70bad","ios":"levelo://app?vid=460f7772-317b-4685-8d1c-9cbb0be70bad"},"vehicle_type_id":"4","last_reported":1732774478,"current_range_meters":24000,"station_id":"ce4bh312rcd13ifvqdk0","pricing_plan_id":"cebpf4jnsgd1na2vs0mg"},{"bike_id":"394222ca-330d-4796-8c52-f534acf24f05","system_id":"levelo_inurba_marseille","lat":43.2765,"lon":5.38903,"is_reserved":false,"is_disabled":true,"rental_uris":{"android":"levelo://app?vid=394222ca-330d-4796-8c52-f534acf24f05","ios":"levelo://app?vid=394222ca-330d-4796-8c52-f534acf24f05"},"vehicle_type_id":"4","last_reported":1732774478,"current_range_meters":37600,"station_id":"ce4bhi12rcd13ifvqfo0","pricing_plan_id":"cebpf4jnsgd1na2vs0mg"},{"bike_id":"1cd78e3c-eca2-430e-a00b-3450b52eb373","system_id":"levelo_inurba_marseille","lat":43.22931,"lon":5.35377,"is_reserved":false,"is_disabled":false,"rental_uris":{"android":"levelo://app?vid=1cd78e3c-eca2-430e-a00b-3450b52eb373","ios":"levelo://app?vid=1cd78e3c-eca2-430e-a00b-3450b52eb373"},"vehicle_type_id":"4","last_reported":1732774478,"current_range_meters":34800,"station_id":"cpo3532slgdg3j2ikp40","pricing_plan_id":"cebpf4jnsgd1na2vs0mg"},{"bike_id":"69a14252-41a4-4024-b537-a99e3ee84807","system_id":"levelo_inurba_marseille","lat":43.281028,"lon":5.378474,"is_reserved":false,"is_disabled":false,"rental_uris":{"android":"levelo://app?vid=69a14252-41a4-4024-b537-a99e3ee84807","ios":"levelo://app?vid=69a14252-41a4-4024-b537-a99e3ee84807"},"vehicle_type_id":"4","last_reported":1732774478,"current_range_meters":31200,"station_id":"ce4bha12rcd13ifvqee0","pricing_plan_id":"cebpf4jnsgd1na2vs0mg"},{"bike_id":"681460a9-806c-471b-88e8-ce403c82f10b","system_id":"levelo_inurba_marseille","lat":43.30666,"lon":5.36843,"is_reserved":false,"is_disabled":true,"rental_uris":{"android":"levelo://app?vid=681460a9-806c-471b-88e8-ce403c82f10b","ios":"levelo://app?vid=681460a9-806c-471b-88e8-ce403c82f10b"},"vehicle_type_id":"4","last_reported":1732774478,"current_range_meters":0,"station_id":"","pricing_plan_id":"cebpf4jnsgd1na2vs0mg"},{"bike_id":"9a1bbd12-c6a3-41be-a3c7-02e6e258a308","system_id":"levelo_inurba_marseille","lat":43.2319,"lon":5.39981,"is_reserved":false,"is_disabled":false,"rental_uris":{"android":"levelo://app?vid=9a1bbd12-c6a3-41be-a3c7-02e6e258a308","ios":"levelo://app?vid=9a1bbd12-c6a3-41be-a3c7-02e6e258a308"},"vehicle_type_id":"4","last_reported":1732774478,"current_range_meters":18000,"station_id":"ce4bhn12rcd13ifvqgqg","pricing_plan_id":"cebpf4jnsgd1na2vs0mg"},{"bike_id":"0f426cbd-962f-46b7-bb49-d5777658f32a","system_id":"levelo_inurba_marseille","lat":43.26059,"lon":5.39392,"is_reserved":false,"is_disabled":false,"rental_uris":{"android":"levelo://app?vid=0f426cbd-962f-46b7-bb49-d5777658f32a","ios":"levelo://app?vid=0f426cbd-962f-46b7-bb49-d5777658f32a"},"vehicle_type_id":"4","last_reported":1732774478,"current_range_meters":19600,"station_id":"ce4bhh92rcd13ifvqfj0","pricing_plan_id":"cebpf4jnsgd1na2vs0mg"},{"bike_id":"6507df19-6743-4ab3-a0f6-74af2895e9f0","system_id":"levelo_inurba_marseille","lat":43.28341,"lon":5.38112,"is_reserved":false,"is_disabled":false,"rental_uris":{"android":"levelo://app?vid=6507df19-6743-4ab3-a0f6-74af2895e9f0","ios":"levelo://app?vid=6507df19-6743-4ab3-a0f6-74af2895e9f0"},"vehicle_type_id":"4","last_reported":1732774478,"current_range_meters":28800,"station_id":"ce4bh412rcd13ifvqdr0","pricing_plan_id":"cebpf4jnsgd1na2vs0mg"},{"bike_id":"6aecd7ff-9b6e-4bb2-9b3d-d52d98be3ab7","system_id":"levelo_inurba_marseille","lat":43.31717,"lon":5.42396,"is_reserved":false,"is_disabled":false,"rental_uris":{"android":"levelo://app?vid=6aecd7ff-9b6e-4bb2-9b3d-d52d98be3ab7","ios":"levelo://app?vid=6aecd7ff-9b6e-4bb2-9b3d-d52d98be3ab7"},"vehicle_type_id":"4","last_reported":1732774478,"current_range_meters":38000,"station_id":"ce4bhp92rcd13ifvqhbg","pricing_plan_id":"cebpf4jnsgd1na2vs0mg"},{"bike_id":"05700133-6f00-4653-8de9-2f878a343c35","system_id":"levelo_inurba_marseille","lat":43.30786,"lon":5.38163,"is_reserved":false,"is_disabled":false,"rental_uris":{"android":"levelo://app?vid=05700133-6f00-4653-8de9-2f878a343c35","ios":"levelo://app?vid=05700133-6f00-4653-8de9-2f878a343c35"},"vehicle_type_id":"4","last_reported":1732774478,"current_range_meters":38400,"station_id":"ce4bgt12rcd13ifvqce0","pricing_plan_id":"cebpf4jnsgd1na2vs0mg"},{"bike_id":"5af64eb5-3095-4105-9522-56132c5f754b","system_id":"levelo_inurba_marseille","lat":43.30155,"lon":5.38083,"is_reserved":false,"is_disabled":false,"rental_uris":{"android":"levelo://app?vid=5af64eb5-3095-4105-9522-56132c5f754b","ios":"levelo://app?vid=5af64eb5-3095-4105-9522-56132c5f754b"},"vehicle_type_id":"4","last_reported":1732774478,"current_range_meters":2800,"station_id":"ce4bgjp2rcd13ifvqbh0","pricing_plan_id":"cebpf4jnsgd1na2vs0mg"},{"bike_id":"146859be-050c-4fa7-9473-10d8176aeefd","system_id":"levelo_inurba_marseille","lat":43.25935,"lon":5.40898,"is_reserved":false,"is_disabled":false,"rental_uris":{"android":"levelo://app?vid=146859be-050c-4fa7-9473-10d8176aeefd","ios":"levelo://app?vid=146859be-050c-4fa7-9473-10d8176aeefd"},"vehicle_type_id":"4","last_reported":1732774478,"current_range_meters":28000,"station_id":"ce4bhm92rcd13ifvqglg","pricing_plan_id":"cebpf4jnsgd1na2vs0mg"},{"bike_id":"8683c54a-5616-4d70-815b-6460ddda6a5d","system_id":"levelo_inurba_marseille","lat":43.30543,"lon":5.38428,"is_reserved":false,"is_disabled":false,"rental_uris":{"android":"levelo://app?vid=8683c54a-5616-4d70-815b-6460ddda6a5d","ios":"levelo://app?vid=8683c54a-5616-4d70-815b-6460ddda6a5d"},"vehicle_type_id":"4","last_reported":1732774478,"current_range_meters":38800,"station_id":"ce4bgg92rcd13ifvqb30","pricing_plan_id":"cebpf4jnsgd1na2vs0mg"},{"bike_id":"ef7faf07-a670-4e15-b564-bded5c7ce834","system_id":"levelo_inurba_marseille","lat":43.3236,"lon":5.36758,"is_reserved":false,"is_disabled":false,"rental_uris":{"android":"levelo://app?vid=ef7faf07-a670-4e15-b564-bded5c7ce834","ios":"levelo://app?vid=ef7faf07-a670-4e15-b564-bded5c7ce834"},"vehicle_type_id":"4","last_reported":1732774478,"current_range_meters":37600,"station_id":"ce4bhsh2rcd13ifvqi2g","pricing_plan_id":"cebpf4jnsgd1na2vs0mg"},{"bike_id":"a4a44eea-7afa-4c63-a662-beba7965732a","system_id":"levelo_inurba_marseille","lat":43.29618,"lon":5.37147,"is_reserved":false,"is_disabled":true,"rental_uris":{"android":"levelo://app?vid=a4a44eea-7afa-4c63-a662-beba7965732a","ios":"levelo://app?vid=a4a44eea-7afa-4c63-a662-beba7965732a"},"vehicle_type_id":"4","last_reported":1732774478,"current_range_meters":800,"station_id":"ce4bgnh2rcd13ifvqc0g","pricing_plan_id":"cebpf4jnsgd1na2vs0mg"},{"bike_id":"3d09f206-225d-4ef6-835a-a8c04f4350e8","system_id":"levelo_inurba_marseille","lat":43.28751,"lon":5.37642,"is_reserved":false,"is_disabled":false,"rental_uris":{"android":"levelo://app?vid=3d09f206-225d-4ef6-835a-a8c04f4350e8","ios":"levelo://app?vid=3d09f206-225d-4ef6-835a-a8c04f4350e8"},"vehicle_type_id":"4","last_reported":1732774478,"current_range_meters":33200,"station_id":"","pricing_plan_id":"cebpf4jnsgd1na2vs0mg"},{"bike_id":"a434b48b-5acf-4082-8da6-41822554e872","system_id":"levelo_inurba_marseille","lat":43.28719,"lon":5.36079,"is_reserved":false,"is_disabled":false,"rental_uris":{"android":"levelo://app?vid=a434b48b-5acf-4082-8da6-41822554e872","ios":"levelo://app?vid=a434b48b-5acf-4082-8da6-41822554e872"},"vehicle_type_id":"4","last_reported":1732774478,"current_range_meters":8000,"station_id":"cki0cbj6b192h4jlfktg","pricing_plan_id":"cebpf4jnsgd1na2vs0mg"},{"bike_id":"7acf64e6-102c-4b24-bfca-4cd2f2ab9f83","system_id":"levelo_inurba_marseille","lat":43.30562,"lon":5.36514,"is_reserved":false,"is_disabled":true,"rental_uris":{"android":"levelo://app?vid=7acf64e6-102c-4b24-bfca-4cd2f2ab9f83","ios":"levelo://app?vid=7acf64e6-102c-4b24-bfca-4cd2f2ab9f83"},"vehicle_type_id":"4","last_reported":1732774478,"current_range_meters":0,"station_id":"ce4bgs12rcd13ifvqcag","pricing_plan_id":"cebpf4jnsgd1na2vs0mg"},{"bike_id":"2e95a691-d7d8-426b-8dba-47b6b56c6a41","system_id":"levelo_inurba_marseille","lat":43.28151,"lon":5.42641,"is_reserved":false,"is_disabled":true,"rental_uris":{"android":"levelo://app?vid=2e95a691-d7d8-426b-8dba-47b6b56c6a41","ios":"levelo://app?vid=2e95a691-d7d8-426b-8dba-47b6b56c6a41"},"vehicle_type_id":"4","last_reported":1732774478,"current_range_meters":3200,"station_id":"ce4bhnh2rcd13ifvqgug","pricing_plan_id":"cebpf4jnsgd1na2vs0mg"},{"bike_id":"aa262170-281b-4556-817d-784dc19f9c9b","system_id":"levelo_inurba_marseille","lat":43.324875,"lon":5.36574,"is_reserved":false,"is_disabled":false,"rental_uris":{"android":"levelo://app?vid=aa262170-281b-4556-817d-784dc19f9c9b","ios":"levelo://app?vid=aa262170-281b-4556-817d-784dc19f9c9b"},"vehicle_type_id":"4","last_reported":1732774478,"current_range_meters":38800,"station_id":"ce4bhs12rcd13ifvqhvg","pricing_plan_id":"cebpf4jnsgd1na2vs0mg"},{"bike_id":"560cab59-408d-4efc-9f21-18478b0efad3","system_id":"levelo_inurba_marseille","lat":43.31995,"lon":5.38147,"is_reserved":false,"is_disabled":false,"rental_uris":{"android":"levelo://app?vid=560cab59-408d-4efc-9f21-18478b0efad3","ios":"levelo://app?vid=560cab59-408d-4efc-9f21-18478b0efad3"},"vehicle_type_id":"4","last_reported":1732774478,"current_range_meters":12800,"station_id":"ce4bhr12rcd13ifvqhpg","pricing_plan_id":"cebpf4jnsgd1na2vs0mg"},{"bike_id":"dc203ad5-9db6-4f06-8535-a03ca2ae706d","system_id":"levelo_inurba_marseille","lat":43.308867,"lon":5.396414,"is_reserved":false,"is_disabled":false,"rental_uris":{"android":"levelo://app?vid=dc203ad5-9db6-4f06-8535-a03ca2ae706d","ios":"levelo://app?vid=dc203ad5-9db6-4f06-8535-a03ca2ae706d"},"vehicle_type_id":"4","last_reported":1732774478,"current_range_meters":35600,"station_id":"ce4bh012rcd13ifvqcv0","pricing_plan_id":"cebpf4jnsgd1na2vs0mg"},{"bike_id":"48a97e07-bd1e-4284-a0a9-41ce086ce527","system_id":"levelo_inurba_marseille","lat":43.23186,"lon":5.39976,"is_reserved":false,"is_disabled":false,"rental_uris":{"android":"levelo://app?vid=48a97e07-bd1e-4284-a0a9-41ce086ce527","ios":"levelo://app?vid=48a97e07-bd1e-4284-a0a9-41ce086ce527"},"vehicle_type_id":"4","last_reported":1732774478,"current_range_meters":39200,"station_id":"ce4bhn12rcd13ifvqgqg","pricing_plan_id":"cebpf4jnsgd1na2vs0mg"},{"bike_id":"acbd0c0d-bd31-45d6-b30e-da8a7dfa61ba","system_id":"levelo_inurba_marseille","lat":43.265038,"lon":5.395383,"is_reserved":false,"is_disabled":false,"rental_uris":{"android":"levelo://app?vid=acbd0c0d-bd31-45d6-b30e-da8a7dfa61ba","ios":"levelo://app?vid=acbd0c0d-bd31-45d6-b30e-da8a7dfa61ba"},"vehicle_type_id":"4","last_reported":1732774478,"current_range_meters":39200,"station_id":"ce4bhi12rcd13ifvqfq0","pricing_plan_id":"cebpf4jnsgd1na2vs0mg"},{"bike_id":"8fafd22e-e92a-46d4-b6d4-05e1b926875e","system_id":"levelo_inurba_marseille","lat":43.30145,"lon":5.3808,"is_reserved":false,"is_disabled":true,"rental_uris":{"android":"levelo://app?vid=8fafd22e-e92a-46d4-b6d4-05e1b926875e","ios":"levelo://app?vid=8fafd22e-e92a-46d4-b6d4-05e1b926875e"},"vehicle_type_id":"4","last_reported":1732774478,"current_range_meters":1200,"station_id":"ce4bgjp2rcd13ifvqbh0","pricing_plan_id":"cebpf4jnsgd1na2vs0mg"},{"bike_id":"b561f31a-791e-4786-96f8-2cd500c94695","system_id":"levelo_inurba_marseille","lat":43.31269,"lon":5.40169,"is_reserved":false,"is_disabled":false,"rental_uris":{"android":"levelo://app?vid=b561f31a-791e-4786-96f8-2cd500c94695","ios":"levelo://app?vid=b561f31a-791e-4786-96f8-2cd500c94695"},"vehicle_type_id":"4","last_reported":1732774478,"current_range_meters":38000,"station_id":"ce4bh092rcd13ifvqd30","pricing_plan_id":"cebpf4jnsgd1na2vs0mg"},{"bike_id":"858b65e1-94fc-4151-a71e-8b168cb19dcb","system_id":"levelo_inurba_marseille","lat":43.32249,"lon":5.39241,"is_reserved":false,"is_disabled":true,"rental_uris":{"android":"levelo://app?vid=858b65e1-94fc-4151-a71e-8b168cb19dcb","ios":"levelo://app?vid=858b65e1-94fc-4151-a71e-8b168cb19dcb"},"vehicle_type_id":"4","last_reported":1732774478,"current_range_meters":0,"station_id":"","pricing_plan_id":"cebpf4jnsgd1na2vs0mg"},{"bike_id":"01b93923-340e-49e1-bd86-d2463565502f","system_id":"levelo_inurba_marseille","lat":43.293223,"lon":5.385669,"is_reserved":false,"is_disabled":true,"rental_uris":{"android":"levelo://app?vid=01b93923-340e-49e1-bd86-d2463565502f","ios":"levelo://app?vid=01b93923-340e-49e1-bd86-d2463565502f"},"vehicle_type_id":"4","last_reported":1732774478,"current_range_meters":0,"station_id":"","pricing_plan_id":"cebpf4jnsgd1na2vs0mg"},{"bike_id":"e51b2acb-d883-446b-9ce9-347608453ece","system_id":"levelo_inurba_marseille","lat":43.22927,"lon":5.35379,"is_reserved":false,"is_disabled":false,"rental_uris":{"android":"levelo://app?vid=e51b2acb-d883-446b-9ce9-347608453ece","ios":"levelo://app?vid=e51b2acb-d883-446b-9ce9-347608453ece"},"vehicle_type_id":"4","last_reported":1732774478,"current_range_meters":33200,"station_id":"cpo3532slgdg3j2ikp40","pricing_plan_id":"cebpf4jnsgd1na2vs0mg"},{"bike_id":"844ec8e9-1291-4e83-a299-880eb52e8b86","system_id":"levelo_inurba_marseille","lat":43.28062,"lon":5.39678,"is_reserved":false,"is_disabled":false,"rental_uris":{"android":"levelo://app?vid=844ec8e9-1291-4e83-a299-880eb52e8b86","ios":"levelo://app?vid=844ec8e9-1291-4e83-a299-880eb52e8b86"},"vehicle_type_id":"4","last_reported":1732774478,"current_range_meters":12400,"station_id":"ce4bho12rcd13ifvqh2g","pricing_plan_id":"cebpf4jnsgd1na2vs0mg"},{"bike_id":"54d92e45-0c73-4cef-bfa3-0fc84870e3ef","system_id":"levelo_inurba_marseille","lat":43.25932,"lon":5.40894,"is_reserved":false,"is_disabled":false,"rental_uris":{"android":"levelo://app?vid=54d92e45-0c73-4cef-bfa3-0fc84870e3ef","ios":"levelo://app?vid=54d92e45-0c73-4cef-bfa3-0fc84870e3ef"},"vehicle_type_id":"4","last_reported":1732774478,"current_range_meters":14400,"station_id":"ce4bhm92rcd13ifvqglg","pricing_plan_id":"cebpf4jnsgd1na2vs0mg"},{"bike_id":"6159484e-ac8c-45d6-9e46-4d38f46f3b35","system_id":"levelo_inurba_marseille","lat":43.30461,"lon":5.37906,"is_reserved":false,"is_disabled":false,"rental_uris":{"android":"levelo://app?vid=6159484e-ac8c-45d6-9e46-4d38f46f3b35","ios":"levelo://app?vid=6159484e-ac8c-45d6-9e46-4d38f46f3b35"},"vehicle_type_id":"4","last_reported":1732774478,"current_range_meters":28800,"station_id":"ce4bgup2rcd13ifvqcn0","pricing_plan_id":"cebpf4jnsgd1na2vs0mg"},{"bike_id":"70f21997-3238-442e-b5d5-dbddb547d8b8","system_id":"levelo_inurba_marseille","lat":43.29358,"lon":5.37859,"is_reserved":false,"is_disabled":false,"rental_uris":{"android":"levelo://app?vid=70f21997-3238-442e-b5d5-dbddb547d8b8","ios":"levelo://app?vid=70f21997-3238-442e-b5d5-dbddb547d8b8"},"vehicle_type_id":"4","last_reported":1732774478,"current_range_meters":23200,"station_id":"ce4bgjh2rcd13ifvqbf0","pricing_plan_id":"cebpf4jnsgd1na2vs0mg"},{"bike_id":"6a4001d6-d444-4013-81f0-795a143d0522","system_id":"levelo_inurba_marseille","lat":43.30188,"lon":5.38722,"is_reserved":false,"is_disabled":true,"rental_uris":{"android":"levelo://app?vid=6a4001d6-d444-4013-81f0-795a143d0522","ios":"levelo://app?vid=6a4001d6-d444-4013-81f0-795a143d0522"},"vehicle_type_id":"4","last_reported":1732774478,"current_range_meters":30000,"station_id":"","pricing_plan_id":"cebpf4jnsgd1na2vs0mg"},{"bike_id":"93fd7fe3-6d5c-448c-9dac-c0acb537de9f","system_id":"levelo_inurba_marseille","lat":43.3043,"lon":5.38894,"is_reserved":false,"is_disabled":false,"rental_uris":{"android":"levelo://app?vid=93fd7fe3-6d5c-448c-9dac-c0acb537de9f","ios":"levelo://app?vid=93fd7fe3-6d5c-448c-9dac-c0acb537de9f"},"vehicle_type_id":"4","last_reported":1732774478,"current_range_meters":38000,"station_id":"ce4bgk12rcd13ifvqbi0","pricing_plan_id":"cebpf4jnsgd1na2vs0mg"},{"bike_id":"432e1d43-5d8a-4b04-a51e-e9a2066ccbb5","system_id":"levelo_inurba_marseille","lat":43.31321,"lon":5.39729,"is_reserved":false,"is_disabled":false,"rental_uris":{"android":"levelo://app?vid=432e1d43-5d8a-4b04-a51e-e9a2066ccbb5","ios":"levelo://app?vid=432e1d43-5d8a-4b04-a51e-e9a2066ccbb5"},"vehicle_type_id":"4","last_reported":1732774478,"current_range_meters":38800,"station_id":"ce4bgvp2rcd13ifvqcu0","pricing_plan_id":"cebpf4jnsgd1na2vs0mg"},{"bike_id":"558c83b2-342f-482e-b98a-47cac054208b","system_id":"levelo_inurba_marseille","lat":43.27972,"lon":5.38741,"is_reserved":false,"is_disabled":false,"rental_uris":{"android":"levelo://app?vid=558c83b2-342f-482e-b98a-47cac054208b","ios":"levelo://app?vid=558c83b2-342f-482e-b98a-47cac054208b"},"vehicle_type_id":"4","last_reported":1732774478,"current_range_meters":38800,"station_id":"ce4bhg12rcd13ifvqf80","pricing_plan_id":"cebpf4jnsgd1na2vs0mg"},{"bike_id":"f7f3756c-1ec7-4782-9c87-6273f87b6774","system_id":"levelo_inurba_marseille","lat":43.337444,"lon":5.374475,"is_reserved":false,"is_disabled":true,"rental_uris":{"android":"levelo://app?vid=f7f3756c-1ec7-4782-9c87-6273f87b6774","ios":"levelo://app?vid=f7f3756c-1ec7-4782-9c87-6273f87b6774"},"vehicle_type_id":"4","last_reported":1732774478,"current_range_meters":11600,"station_id":"","pricing_plan_id":"cebpf4jnsgd1na2vs0mg"},{"bike_id":"98e6547b-d826-4413-a8a5-f760ae410d11","system_id":"levelo_inurba_marseille","lat":43.27366,"lon":5.36259,"is_reserved":false,"is_disabled":false,"rental_uris":{"android":"levelo://app?vid=98e6547b-d826-4413-a8a5-f760ae410d11","ios":"levelo://app?vid=98e6547b-d826-4413-a8a5-f760ae410d11"},"vehicle_type_id":"4","last_reported":1732774478,"current_range_meters":36800,"station_id":"ce4bhbh2rcd13ifvqeo0","pricing_plan_id":"cebpf4jnsgd1na2vs0mg"},{"bike_id":"703e8aa1-dcfb-4cea-8282-43c583c4255c","system_id":"levelo_inurba_marseille","lat":43.24546,"lon":5.395258,"is_reserved":false,"is_disabled":false,"rental_uris":{"android":"levelo://app?vid=703e8aa1-dcfb-4cea-8282-43c583c4255c","ios":"levelo://app?vid=703e8aa1-dcfb-4cea-8282-43c583c4255c"},"vehicle_type_id":"4","last_reported":1732774478,"current_range_meters":36800,"station_id":"ce4bhlp2rcd13ifvqgjg","pricing_plan_id":"cebpf4jnsgd1na2vs0mg"},{"bike_id":"36e71be3-591e-41df-b393-dafcab23c079","system_id":"levelo_inurba_marseille","lat":43.31085,"lon":5.42434,"is_reserved":false,"is_disabled":false,"rental_uris":{"android":"levelo://app?vid=36e71be3-591e-41df-b393-dafcab23c079","ios":"levelo://app?vid=36e71be3-591e-41df-b393-dafcab23c079"},"vehicle_type_id":"4","last_reported":1732774478,"current_range_meters":38400,"station_id":"ce4bhp92rcd13ifvqhag","pricing_plan_id":"cebpf4jnsgd1na2vs0mg"},{"bike_id":"791bec6d-3c3b-4d18-8591-b9f656448fbd","system_id":"levelo_inurba_marseille","lat":43.32365,"lon":5.38878,"is_reserved":false,"is_disabled":false,"rental_uris":{"android":"levelo://app?vid=791bec6d-3c3b-4d18-8591-b9f656448fbd","ios":"levelo://app?vid=791bec6d-3c3b-4d18-8591-b9f656448fbd"},"vehicle_type_id":"4","last_reported":1732774478,"current_range_meters":24800,"station_id":"ce4bhqp2rcd13ifvqhog","pricing_plan_id":"cebpf4jnsgd1na2vs0mg"},{"bike_id":"8a457629-ab34-402a-bfd6-c26d85244407","system_id":"levelo_inurba_marseille","lat":43.313249,"lon":5.396904,"is_reserved":false,"is_disabled":false,"rental_uris":{"android":"levelo://app?vid=8a457629-ab34-402a-bfd6-c26d85244407","ios":"levelo://app?vid=8a457629-ab34-402a-bfd6-c26d85244407"},"vehicle_type_id":"4","last_reported":1732774478,"current_range_meters":18000,"station_id":"ce4bgvp2rcd13ifvqcu0","pricing_plan_id":"cebpf4jnsgd1na2vs0mg"},{"bike_id":"51911d07-4e00-461e-927c-1e2f6553d26b","system_id":"levelo_inurba_marseille","lat":43.30482,"lon":5.37903,"is_reserved":false,"is_disabled":false,"rental_uris":{"android":"levelo://app?vid=51911d07-4e00-461e-927c-1e2f6553d26b","ios":"levelo://app?vid=51911d07-4e00-461e-927c-1e2f6553d26b"},"vehicle_type_id":"4","last_reported":1732774478,"current_range_meters":12000,"station_id":"ce4bgup2rcd13ifvqcn0","pricing_plan_id":"cebpf4jnsgd1na2vs0mg"},{"bike_id":"73817fd5-eb67-4e9b-aa4f-ab7ce88111ba","system_id":"levelo_inurba_marseille","lat":43.25727,"lon":5.41109,"is_reserved":false,"is_disabled":false,"rental_uris":{"android":"levelo://app?vid=73817fd5-eb67-4e9b-aa4f-ab7ce88111ba","ios":"levelo://app?vid=73817fd5-eb67-4e9b-aa4f-ab7ce88111ba"},"vehicle_type_id":"4","last_reported":1732774478,"current_range_meters":19200,"station_id":"ce4bhkp2rcd13ifvqgd0","pricing_plan_id":"cebpf4jnsgd1na2vs0mg"},{"bike_id":"dc65d38a-6822-4f34-b22f-40093f5ca5fa","system_id":"levelo_inurba_marseille","lat":43.28395,"lon":5.37514,"is_reserved":false,"is_disabled":false,"rental_uris":{"android":"levelo://app?vid=dc65d38a-6822-4f34-b22f-40093f5ca5fa","ios":"levelo://app?vid=dc65d38a-6822-4f34-b22f-40093f5ca5fa"},"vehicle_type_id":"4","last_reported":1732774478,"current_range_meters":35600,"station_id":"ce4bh412rcd13ifvqds0","pricing_plan_id":"cebpf4jnsgd1na2vs0mg"},{"bike_id":"810de900-937f-468c-b6ad-8fdcbec8d392","system_id":"levelo_inurba_marseille","lat":43.278306,"lon":5.392073,"is_reserved":false,"is_disabled":false,"rental_uris":{"android":"levelo://app?vid=810de900-937f-468c-b6ad-8fdcbec8d392","ios":"levelo://app?vid=810de900-937f-468c-b6ad-8fdcbec8d392"},"vehicle_type_id":"4","last_reported":1732774478,"current_range_meters":27200,"station_id":"ce4bhjp2rcd13ifvqga0","pricing_plan_id":"cebpf4jnsgd1na2vs0mg"},{"bike_id":"3abfdef8-3762-4e22-b960-35cbb7733ab8","system_id":"levelo_inurba_marseille","lat":43.284615,"lon":5.358869,"is_reserved":false,"is_disabled":false,"rental_uris":{"android":"levelo://app?vid=3abfdef8-3762-4e22-b960-35cbb7733ab8","ios":"levelo://app?vid=3abfdef8-3762-4e22-b960-35cbb7733ab8"},"vehicle_type_id":"4","last_reported":1732774478,"current_range_meters":28000,"station_id":"ce4bhah2rcd13ifvqei0","pricing_plan_id":"cebpf4jnsgd1na2vs0mg"},{"bike_id":"a7d21e0b-9544-42dc-a0c6-5e884f578af9","system_id":"levelo_inurba_marseille","lat":43.24638,"lon":5.43503,"is_reserved":false,"is_disabled":true,"rental_uris":{"android":"levelo://app?vid=a7d21e0b-9544-42dc-a0c6-5e884f578af9","ios":"levelo://app?vid=a7d21e0b-9544-42dc-a0c6-5e884f578af9"},"vehicle_type_id":"4","last_reported":1732774478,"current_range_meters":0,"station_id":"","pricing_plan_id":"cebpf4jnsgd1na2vs0mg"},{"bike_id":"9ac766bd-5744-4402-b1ae-e2ac07e1ee27","system_id":"levelo_inurba_marseille","lat":43.29029,"lon":5.39948,"is_reserved":false,"is_disabled":false,"rental_uris":{"android":"levelo://app?vid=9ac766bd-5744-4402-b1ae-e2ac07e1ee27","ios":"levelo://app?vid=9ac766bd-5744-4402-b1ae-e2ac07e1ee27"},"vehicle_type_id":"4","last_reported":1732774478,"current_range_meters":40000,"station_id":"ce4bh392rcd13ifvqdm0","pricing_plan_id":"cebpf4jnsgd1na2vs0mg"},{"bike_id":"a5909545-3e09-4859-9fda-9ffe4e6e4883","system_id":"levelo_inurba_marseille","lat":43.23067,"lon":5.35489,"is_reserved":false,"is_disabled":false,"rental_uris":{"android":"levelo://app?vid=a5909545-3e09-4859-9fda-9ffe4e6e4883","ios":"levelo://app?vid=a5909545-3e09-4859-9fda-9ffe4e6e4883"},"vehicle_type_id":"4","last_reported":1732774478,"current_range_meters":24400,"station_id":"cpo3342slgdg3j2ifvpg","pricing_plan_id":"cebpf4jnsgd1na2vs0mg"},{"bike_id":"0adc1c20-926a-4db7-b93d-54cc70d28ec3","system_id":"levelo_inurba_marseille","lat":43.25125,"lon":5.40358,"is_reserved":false,"is_disabled":false,"rental_uris":{"android":"levelo://app?vid=0adc1c20-926a-4db7-b93d-54cc70d28ec3","ios":"levelo://app?vid=0adc1c20-926a-4db7-b93d-54cc70d28ec3"},"vehicle_type_id":"4","last_reported":1732774478,"current_range_meters":33200,"station_id":"ce4bhlh2rcd13ifvqgig","pricing_plan_id":"cebpf4jnsgd1na2vs0mg"},{"bike_id":"c125dd6f-3ad5-427c-a31b-f983259d1b39","system_id":"levelo_inurba_marseille","lat":43.337282,"lon":5.391856,"is_reserved":false,"is_disabled":false,"rental_uris":{"android":"levelo://app?vid=c125dd6f-3ad5-427c-a31b-f983259d1b39","ios":"levelo://app?vid=c125dd6f-3ad5-427c-a31b-f983259d1b39"},"vehicle_type_id":"4","last_reported":1732774478,"current_range_meters":38800,"station_id":"ce4bhr92rcd13ifvqhsg","pricing_plan_id":"cebpf4jnsgd1na2vs0mg"},{"bike_id":"636c38c7-b57f-44ef-879f-37f296bc8e0a","system_id":"levelo_inurba_marseille","lat":43.32095,"lon":5.36802,"is_reserved":false,"is_disabled":false,"rental_uris":{"android":"levelo://app?vid=636c38c7-b57f-44ef-879f-37f296bc8e0a","ios":"levelo://app?vid=636c38c7-b57f-44ef-879f-37f296bc8e0a"},"vehicle_type_id":"4","last_reported":1732774478,"current_range_meters":20800,"station_id":"ce4bhrh2rcd13ifvqhug","pricing_plan_id":"cebpf4jnsgd1na2vs0mg"},{"bike_id":"fd5a7c51-c856-4f9f-8523-5a1da995905e","system_id":"levelo_inurba_marseille","lat":43.30466,"lon":5.37907,"is_reserved":false,"is_disabled":false,"rental_uris":{"android":"levelo://app?vid=fd5a7c51-c856-4f9f-8523-5a1da995905e","ios":"levelo://app?vid=fd5a7c51-c856-4f9f-8523-5a1da995905e"},"vehicle_type_id":"4","last_reported":1732774478,"current_range_meters":17200,"station_id":"ce4bgup2rcd13ifvqcn0","pricing_plan_id":"cebpf4jnsgd1na2vs0mg"},{"bike_id":"180fc64f-9e71-41d9-8429-bb3416744e00","system_id":"levelo_inurba_marseille","lat":43.23188,"lon":5.3998,"is_reserved":false,"is_disabled":false,"rental_uris":{"android":"levelo://app?vid=180fc64f-9e71-41d9-8429-bb3416744e00","ios":"levelo://app?vid=180fc64f-9e71-41d9-8429-bb3416744e00"},"vehicle_type_id":"4","last_reported":1732774478,"current_range_meters":9200,"station_id":"ce4bhn12rcd13ifvqgqg","pricing_plan_id":"cebpf4jnsgd1na2vs0mg"},{"bike_id":"7c2a43f6-be8b-4c82-84f2-4caee6dc2952","system_id":"levelo_inurba_marseille","lat":43.27556,"lon":5.38419,"is_reserved":false,"is_disabled":false,"rental_uris":{"android":"levelo://app?vid=7c2a43f6-be8b-4c82-84f2-4caee6dc2952","ios":"levelo://app?vid=7c2a43f6-be8b-4c82-84f2-4caee6dc2952"},"vehicle_type_id":"4","last_reported":1732774478,"current_range_meters":38800,"station_id":"ce4bhh92rcd13ifvqfi0","pricing_plan_id":"cebpf4jnsgd1na2vs0mg"},{"bike_id":"e5951ee3-4a5a-4ebb-b469-096c5188dfa3","system_id":"levelo_inurba_marseille","lat":43.23184,"lon":5.35557,"is_reserved":false,"is_disabled":false,"rental_uris":{"android":"levelo://app?vid=e5951ee3-4a5a-4ebb-b469-096c5188dfa3","ios":"levelo://app?vid=e5951ee3-4a5a-4ebb-b469-096c5188dfa3"},"vehicle_type_id":"4","last_reported":1732774478,"current_range_meters":28800,"station_id":"ce4bhu92rcd13ifvqi70","pricing_plan_id":"cebpf4jnsgd1na2vs0mg"},{"bike_id":"936fd38c-ee38-4c1e-9b9d-9061abfe831d","system_id":"levelo_inurba_marseille","lat":43.27943,"lon":5.41038,"is_reserved":false,"is_disabled":false,"rental_uris":{"android":"levelo://app?vid=936fd38c-ee38-4c1e-9b9d-9061abfe831d","ios":"levelo://app?vid=936fd38c-ee38-4c1e-9b9d-9061abfe831d"},"vehicle_type_id":"4","last_reported":1732774478,"current_range_meters":18000,"station_id":"ce4bhnp2rcd13ifvqh0g","pricing_plan_id":"cebpf4jnsgd1na2vs0mg"},{"bike_id":"551079ac-62f6-4029-9579-63ffc464325f","system_id":"levelo_inurba_marseille","lat":43.23225,"lon":5.35543,"is_reserved":false,"is_disabled":false,"rental_uris":{"android":"levelo://app?vid=551079ac-62f6-4029-9579-63ffc464325f","ios":"levelo://app?vid=551079ac-62f6-4029-9579-63ffc464325f"},"vehicle_type_id":"4","last_reported":1732774478,"current_range_meters":38800,"station_id":"ce4bhu92rcd13ifvqi70","pricing_plan_id":"cebpf4jnsgd1na2vs0mg"},{"bike_id":"624e6175-be5f-4045-8e88-380633336063","system_id":"levelo_inurba_marseille","lat":43.2905,"lon":5.35903,"is_reserved":false,"is_disabled":false,"rental_uris":{"android":"levelo://app?vid=624e6175-be5f-4045-8e88-380633336063","ios":"levelo://app?vid=624e6175-be5f-4045-8e88-380633336063"},"vehicle_type_id":"4","last_reported":1732774478,"current_range_meters":38800,"station_id":"ce4bha92rcd13ifvqeg0","pricing_plan_id":"cebpf4jnsgd1na2vs0mg"},{"bike_id":"6c948e9c-d5b3-4fe5-a918-1bd2f7c83b02","system_id":"levelo_inurba_marseille","lat":43.32111,"lon":5.36782,"is_reserved":false,"is_disabled":false,"rental_uris":{"android":"levelo://app?vid=6c948e9c-d5b3-4fe5-a918-1bd2f7c83b02","ios":"levelo://app?vid=6c948e9c-d5b3-4fe5-a918-1bd2f7c83b02"},"vehicle_type_id":"4","last_reported":1732774478,"current_range_meters":8800,"station_id":"ce4bhrh2rcd13ifvqhug","pricing_plan_id":"cebpf4jnsgd1na2vs0mg"},{"bike_id":"a3b4ad33-0c8b-49fa-801b-81a444016f8c","system_id":"levelo_inurba_marseille","lat":43.24383,"lon":5.37059,"is_reserved":false,"is_disabled":false,"rental_uris":{"android":"levelo://app?vid=a3b4ad33-0c8b-49fa-801b-81a444016f8c","ios":"levelo://app?vid=a3b4ad33-0c8b-49fa-801b-81a444016f8c"},"vehicle_type_id":"4","last_reported":1732774478,"current_range_meters":38800,"station_id":"ce4bhhh2rcd13ifvqfk0","pricing_plan_id":"cebpf4jnsgd1na2vs0mg"},{"bike_id":"eb6d1fc3-1e4c-45f6-8da3-b997e84ded88","system_id":"levelo_inurba_marseille","lat":43.31365,"lon":5.38525,"is_reserved":false,"is_disabled":false,"rental_uris":{"android":"levelo://app?vid=eb6d1fc3-1e4c-45f6-8da3-b997e84ded88","ios":"levelo://app?vid=eb6d1fc3-1e4c-45f6-8da3-b997e84ded88"},"vehicle_type_id":"4","last_reported":1732774478,"current_range_meters":37600,"station_id":"ce4bgt92rcd13ifvqcf0","pricing_plan_id":"cebpf4jnsgd1na2vs0mg"},{"bike_id":"0a4f181b-1c68-40ff-82b4-09eac14daf4c","system_id":"levelo_inurba_marseille","lat":43.34129,"lon":5.40898,"is_reserved":false,"is_disabled":false,"rental_uris":{"android":"levelo://app?vid=0a4f181b-1c68-40ff-82b4-09eac14daf4c","ios":"levelo://app?vid=0a4f181b-1c68-40ff-82b4-09eac14daf4c"},"vehicle_type_id":"4","last_reported":1732774478,"current_range_meters":38000,"station_id":"ce4bhqh2rcd13ifvqhlg","pricing_plan_id":"cebpf4jnsgd1na2vs0mg"},{"bike_id":"68c50a74-e006-47bf-8c75-67246bc8a115","system_id":"levelo_inurba_marseille","lat":43.30932,"lon":5.40141,"is_reserved":false,"is_disabled":false,"rental_uris":{"android":"levelo://app?vid=68c50a74-e006-47bf-8c75-67246bc8a115","ios":"levelo://app?vid=68c50a74-e006-47bf-8c75-67246bc8a115"},"vehicle_type_id":"4","last_reported":1732774478,"current_range_meters":12800,"station_id":"ce4bgvp2rcd13ifvqct0","pricing_plan_id":"cebpf4jnsgd1na2vs0mg"},{"bike_id":"82e363e6-d522-4571-8afd-433e336680cd","system_id":"levelo_inurba_marseille","lat":43.32365,"lon":5.38885,"is_reserved":false,"is_disabled":false,"rental_uris":{"android":"levelo://app?vid=82e363e6-d522-4571-8afd-433e336680cd","ios":"levelo://app?vid=82e363e6-d522-4571-8afd-433e336680cd"},"vehicle_type_id":"4","last_reported":1732774478,"current_range_meters":23200,"station_id":"ce4bhqp2rcd13ifvqhog","pricing_plan_id":"cebpf4jnsgd1na2vs0mg"},{"bike_id":"e5a2aa86-a214-44f1-a6db-bab7850d4c65","system_id":"levelo_inurba_marseille","lat":43.26033,"lon":5.39384,"is_reserved":false,"is_disabled":false,"rental_uris":{"android":"levelo://app?vid=e5a2aa86-a214-44f1-a6db-bab7850d4c65","ios":"levelo://app?vid=e5a2aa86-a214-44f1-a6db-bab7850d4c65"},"vehicle_type_id":"4","last_reported":1732774478,"current_range_meters":28000,"station_id":"ce4bhh92rcd13ifvqfj0","pricing_plan_id":"cebpf4jnsgd1na2vs0mg"},{"bike_id":"8595a025-fd8d-490e-9ea6-4747802c64c6","system_id":"levelo_inurba_marseille","lat":43.28856,"lon":5.3585,"is_reserved":false,"is_disabled":false,"rental_uris":{"android":"levelo://app?vid=8595a025-fd8d-490e-9ea6-4747802c64c6","ios":"levelo://app?vid=8595a025-fd8d-490e-9ea6-4747802c64c6"},"vehicle_type_id":"4","last_reported":1732774478,"current_range_meters":28000,"station_id":"ce4bhb12rcd13ifvqem0","pricing_plan_id":"cebpf4jnsgd1na2vs0mg"},{"bike_id":"d3efb947-d654-41a1-abd2-d361454367fc","system_id":"levelo_inurba_marseille","lat":43.30882,"lon":5.39632,"is_reserved":false,"is_disabled":false,"rental_uris":{"android":"levelo://app?vid=d3efb947-d654-41a1-abd2-d361454367fc","ios":"levelo://app?vid=d3efb947-d654-41a1-abd2-d361454367fc"},"vehicle_type_id":"4","last_reported":1732774478,"current_range_meters":38800,"station_id":"ce4bh012rcd13ifvqcv0","pricing_plan_id":"cebpf4jnsgd1na2vs0mg"},{"bike_id":"bfa7c1a2-f54e-402a-a2db-4de6455ffddf","system_id":"levelo_inurba_marseille","lat":43.32477,"lon":5.36571,"is_reserved":false,"is_disabled":false,"rental_uris":{"android":"levelo://app?vid=bfa7c1a2-f54e-402a-a2db-4de6455ffddf","ios":"levelo://app?vid=bfa7c1a2-f54e-402a-a2db-4de6455ffddf"},"vehicle_type_id":"4","last_reported":1732774478,"current_range_meters":9200,"station_id":"ce4bhs12rcd13ifvqhvg","pricing_plan_id":"cebpf4jnsgd1na2vs0mg"},{"bike_id":"c32aafd8-8905-4559-a1d0-f74aa7efcf0e","system_id":"levelo_inurba_marseille","lat":43.338,"lon":5.37474,"is_reserved":false,"is_disabled":false,"rental_uris":{"android":"levelo://app?vid=c32aafd8-8905-4559-a1d0-f74aa7efcf0e","ios":"levelo://app?vid=c32aafd8-8905-4559-a1d0-f74aa7efcf0e"},"vehicle_type_id":"4","last_reported":1732774478,"current_range_meters":34800,"station_id":"","pricing_plan_id":"cebpf4jnsgd1na2vs0mg"},{"bike_id":"18d8bd5b-c9b0-4cff-b1de-dd186bbca058","system_id":"levelo_inurba_marseille","lat":43.27819,"lon":5.40707,"is_reserved":false,"is_disabled":false,"rental_uris":{"android":"levelo://app?vid=18d8bd5b-c9b0-4cff-b1de-dd186bbca058","ios":"levelo://app?vid=18d8bd5b-c9b0-4cff-b1de-dd186bbca058"},"vehicle_type_id":"4","last_reported":1732774478,"current_range_meters":37600,"station_id":"ce4bhnh2rcd13ifvqgtg","pricing_plan_id":"cebpf4jnsgd1na2vs0mg"},{"bike_id":"619e1390-368b-421f-9966-c9348f5b7c16","system_id":"levelo_inurba_marseille","lat":43.30931,"lon":5.40141,"is_reserved":false,"is_disabled":false,"rental_uris":{"android":"levelo://app?vid=619e1390-368b-421f-9966-c9348f5b7c16","ios":"levelo://app?vid=619e1390-368b-421f-9966-c9348f5b7c16"},"vehicle_type_id":"4","last_reported":1732774478,"current_range_meters":37600,"station_id":"ce4bgvp2rcd13ifvqct0","pricing_plan_id":"cebpf4jnsgd1na2vs0mg"},{"bike_id":"110511e7-d418-46d7-a5e9-c916da14f3dc","system_id":"levelo_inurba_marseille","lat":43.30871,"lon":5.37795,"is_reserved":false,"is_disabled":false,"rental_uris":{"android":"levelo://app?vid=110511e7-d418-46d7-a5e9-c916da14f3dc","ios":"levelo://app?vid=110511e7-d418-46d7-a5e9-c916da14f3dc"},"vehicle_type_id":"4","last_reported":1732774478,"current_range_meters":20800,"station_id":"","pricing_plan_id":"cebpf4jnsgd1na2vs0mg"},{"bike_id":"f1d4a92f-1be8-4b1d-9eae-4dd0769cd87e","system_id":"levelo_inurba_marseille","lat":43.28874,"lon":5.35844,"is_reserved":false,"is_disabled":false,"rental_uris":{"android":"levelo://app?vid=f1d4a92f-1be8-4b1d-9eae-4dd0769cd87e","ios":"levelo://app?vid=f1d4a92f-1be8-4b1d-9eae-4dd0769cd87e"},"vehicle_type_id":"4","last_reported":1732774478,"current_range_meters":38800,"station_id":"ce4bhb12rcd13ifvqem0","pricing_plan_id":"cebpf4jnsgd1na2vs0mg"},{"bike_id":"b0532d77-a652-43de-8ae1-079cd29bfc13","system_id":"levelo_inurba_marseille","lat":43.32362,"lon":5.38877,"is_reserved":false,"is_disabled":false,"rental_uris":{"android":"levelo://app?vid=b0532d77-a652-43de-8ae1-079cd29bfc13","ios":"levelo://app?vid=b0532d77-a652-43de-8ae1-079cd29bfc13"},"vehicle_type_id":"4","last_reported":1732774478,"current_range_meters":16000,"station_id":"ce4bhqp2rcd13ifvqhog","pricing_plan_id":"cebpf4jnsgd1na2vs0mg"},{"bike_id":"43746d86-8a13-4845-9faf-ae69b548d714","system_id":"levelo_inurba_marseille","lat":43.29459,"lon":5.37917,"is_reserved":false,"is_disabled":true,"rental_uris":{"android":"levelo://app?vid=43746d86-8a13-4845-9faf-ae69b548d714","ios":"levelo://app?vid=43746d86-8a13-4845-9faf-ae69b548d714"},"vehicle_type_id":"4","last_reported":1732774478,"current_range_meters":0,"station_id":"","pricing_plan_id":"cebpf4jnsgd1na2vs0mg"},{"bike_id":"c23bebcd-3a10-4a63-ae53-011deb87fefe","system_id":"levelo_inurba_marseille","lat":43.30801,"lon":5.38151,"is_reserved":false,"is_disabled":false,"rental_uris":{"android":"levelo://app?vid=c23bebcd-3a10-4a63-ae53-011deb87fefe","ios":"levelo://app?vid=c23bebcd-3a10-4a63-ae53-011deb87fefe"},"vehicle_type_id":"4","last_reported":1732774478,"current_range_meters":35600,"station_id":"ce4bgt12rcd13ifvqce0","pricing_plan_id":"cebpf4jnsgd1na2vs0mg"},{"bike_id":"6530cb66-0617-4277-9d8e-13ae7d1b36cc","system_id":"levelo_inurba_marseille","lat":43.270574,"lon":5.402616,"is_reserved":false,"is_disabled":false,"rental_uris":{"android":"levelo://app?vid=6530cb66-0617-4277-9d8e-13ae7d1b36cc","ios":"levelo://app?vid=6530cb66-0617-4277-9d8e-13ae7d1b36cc"},"vehicle_type_id":"4","last_reported":1732774478,"current_range_meters":20400,"station_id":"ce4bhk92rcd13ifvqgc0","pricing_plan_id":"cebpf4jnsgd1na2vs0mg"},{"bike_id":"df76b7bf-b879-4e94-9796-439ee296ef0a","system_id":"levelo_inurba_marseille","lat":43.2292,"lon":5.35366,"is_reserved":false,"is_disabled":false,"rental_uris":{"android":"levelo://app?vid=df76b7bf-b879-4e94-9796-439ee296ef0a","ios":"levelo://app?vid=df76b7bf-b879-4e94-9796-439ee296ef0a"},"vehicle_type_id":"4","last_reported":1732774478,"current_range_meters":33600,"station_id":"cpo3532slgdg3j2ikp40","pricing_plan_id":"cebpf4jnsgd1na2vs0mg"},{"bike_id":"8f9e6250-611f-4afd-a647-f14a9ad7a78a","system_id":"levelo_inurba_marseille","lat":43.28456,"lon":5.35886,"is_reserved":false,"is_disabled":false,"rental_uris":{"android":"levelo://app?vid=8f9e6250-611f-4afd-a647-f14a9ad7a78a","ios":"levelo://app?vid=8f9e6250-611f-4afd-a647-f14a9ad7a78a"},"vehicle_type_id":"4","last_reported":1732774478,"current_range_meters":25600,"station_id":"ce4bhah2rcd13ifvqei0","pricing_plan_id":"cebpf4jnsgd1na2vs0mg"},{"bike_id":"56d6833c-ee84-4d38-b47a-c9ab4a7d9a71","system_id":"levelo_inurba_marseille","lat":43.28448,"lon":5.35901,"is_reserved":false,"is_disabled":false,"rental_uris":{"android":"levelo://app?vid=56d6833c-ee84-4d38-b47a-c9ab4a7d9a71","ios":"levelo://app?vid=56d6833c-ee84-4d38-b47a-c9ab4a7d9a71"},"vehicle_type_id":"4","last_reported":1732774478,"current_range_meters":27200,"station_id":"ce4bhah2rcd13ifvqei0","pricing_plan_id":"cebpf4jnsgd1na2vs0mg"},{"bike_id":"4f43235d-d05d-4f3e-8da5-a0e8eec84a11","system_id":"levelo_inurba_marseille","lat":43.29628,"lon":5.40595,"is_reserved":false,"is_disabled":false,"rental_uris":{"android":"levelo://app?vid=4f43235d-d05d-4f3e-8da5-a0e8eec84a11","ios":"levelo://app?vid=4f43235d-d05d-4f3e-8da5-a0e8eec84a11"},"vehicle_type_id":"4","last_reported":1732774478,"current_range_meters":38000,"station_id":"ce4bh0h2rcd13ifvqd60","pricing_plan_id":"cebpf4jnsgd1na2vs0mg"},{"bike_id":"a18f9ea9-5461-4b1b-b899-12c04cd50e66","system_id":"levelo_inurba_marseille","lat":43.27985,"lon":5.40015,"is_reserved":false,"is_disabled":false,"rental_uris":{"android":"levelo://app?vid=a18f9ea9-5461-4b1b-b899-12c04cd50e66","ios":"levelo://app?vid=a18f9ea9-5461-4b1b-b899-12c04cd50e66"},"vehicle_type_id":"4","last_reported":1732774478,"current_range_meters":29600,"station_id":"ce4bho92rcd13ifvqh4g","pricing_plan_id":"cebpf4jnsgd1na2vs0mg"},{"bike_id":"ab23c5de-ac23-4b3f-8459-64b4cc367420","system_id":"levelo_inurba_marseille","lat":43.27375,"lon":5.36253,"is_reserved":false,"is_disabled":false,"rental_uris":{"android":"levelo://app?vid=ab23c5de-ac23-4b3f-8459-64b4cc367420","ios":"levelo://app?vid=ab23c5de-ac23-4b3f-8459-64b4cc367420"},"vehicle_type_id":"4","last_reported":1732774478,"current_range_meters":38800,"station_id":"ce4bhbh2rcd13ifvqeo0","pricing_plan_id":"cebpf4jnsgd1na2vs0mg"},{"bike_id":"7850b5a3-047b-4ac7-ba36-9800297e2ebc","system_id":"levelo_inurba_marseille","lat":43.27382,"lon":5.36253,"is_reserved":false,"is_disabled":false,"rental_uris":{"android":"levelo://app?vid=7850b5a3-047b-4ac7-ba36-9800297e2ebc","ios":"levelo://app?vid=7850b5a3-047b-4ac7-ba36-9800297e2ebc"},"vehicle_type_id":"4","last_reported":1732774478,"current_range_meters":27600,"station_id":"ce4bhbh2rcd13ifvqeo0","pricing_plan_id":"cebpf4jnsgd1na2vs0mg"},{"bike_id":"fd787e0e-ee68-4ea2-b587-7fa026d91719","system_id":"levelo_inurba_marseille","lat":43.26062,"lon":5.393961,"is_reserved":false,"is_disabled":false,"rental_uris":{"android":"levelo://app?vid=fd787e0e-ee68-4ea2-b587-7fa026d91719","ios":"levelo://app?vid=fd787e0e-ee68-4ea2-b587-7fa026d91719"},"vehicle_type_id":"4","last_reported":1732774478,"current_range_meters":7200,"station_id":"ce4bhh92rcd13ifvqfj0","pricing_plan_id":"cebpf4jnsgd1na2vs0mg"},{"bike_id":"be04c491-e11b-4b77-8934-895a6385a64f","system_id":"levelo_inurba_marseille","lat":43.28442,"lon":5.39189,"is_reserved":false,"is_disabled":false,"rental_uris":{"android":"levelo://app?vid=be04c491-e11b-4b77-8934-895a6385a64f","ios":"levelo://app?vid=be04c491-e11b-4b77-8934-895a6385a64f"},"vehicle_type_id":"4","last_reported":1732774478,"current_range_meters":10000,"station_id":"ce4bhoh2rcd13ifvqh5g","pricing_plan_id":"cebpf4jnsgd1na2vs0mg"},{"bike_id":"c7c8eb9f-a72f-46cc-a7d7-36fb49eb8a83","system_id":"levelo_inurba_marseille","lat":43.337444,"lon":5.374475,"is_reserved":false,"is_disabled":true,"rental_uris":{"android":"levelo://app?vid=c7c8eb9f-a72f-46cc-a7d7-36fb49eb8a83","ios":"levelo://app?vid=c7c8eb9f-a72f-46cc-a7d7-36fb49eb8a83"},"vehicle_type_id":"4","last_reported":1732774478,"current_range_meters":0,"station_id":"","pricing_plan_id":"cebpf4jnsgd1na2vs0mg"},{"bike_id":"c4533e52-a368-458f-a862-f00c66347ca9","system_id":"levelo_inurba_marseille","lat":43.30931,"lon":5.40145,"is_reserved":false,"is_disabled":false,"rental_uris":{"android":"levelo://app?vid=c4533e52-a368-458f-a862-f00c66347ca9","ios":"levelo://app?vid=c4533e52-a368-458f-a862-f00c66347ca9"},"vehicle_type_id":"4","last_reported":1732774478,"current_range_meters":37600,"station_id":"ce4bgvp2rcd13ifvqct0","pricing_plan_id":"cebpf4jnsgd1na2vs0mg"},{"bike_id":"9b23f344-73bd-43ab-abe4-959978e3c65e","system_id":"levelo_inurba_marseille","lat":43.30156,"lon":5.38075,"is_reserved":false,"is_disabled":false,"rental_uris":{"android":"levelo://app?vid=9b23f344-73bd-43ab-abe4-959978e3c65e","ios":"levelo://app?vid=9b23f344-73bd-43ab-abe4-959978e3c65e"},"vehicle_type_id":"4","last_reported":1732774478,"current_range_meters":28400,"station_id":"ce4bgjp2rcd13ifvqbh0","pricing_plan_id":"cebpf4jnsgd1na2vs0mg"},{"bike_id":"b621d171-59d2-4cf1-bd93-e052f646a8a8","system_id":"levelo_inurba_marseille","lat":43.30884,"lon":5.37198,"is_reserved":false,"is_disabled":false,"rental_uris":{"android":"levelo://app?vid=b621d171-59d2-4cf1-bd93-e052f646a8a8","ios":"levelo://app?vid=b621d171-59d2-4cf1-bd93-e052f646a8a8"},"vehicle_type_id":"4","last_reported":1732774478,"current_range_meters":39200,"station_id":"ce4bguh2rcd13ifvqckg","pricing_plan_id":"cebpf4jnsgd1na2vs0mg"},{"bike_id":"7ec5c363-4e30-4fcb-a037-8419092f34af","system_id":"levelo_inurba_marseille","lat":43.27809,"lon":5.40722,"is_reserved":false,"is_disabled":false,"rental_uris":{"android":"levelo://app?vid=7ec5c363-4e30-4fcb-a037-8419092f34af","ios":"levelo://app?vid=7ec5c363-4e30-4fcb-a037-8419092f34af"},"vehicle_type_id":"4","last_reported":1732774478,"current_range_meters":13600,"station_id":"ce4bhnh2rcd13ifvqgtg","pricing_plan_id":"cebpf4jnsgd1na2vs0mg"},{"bike_id":"85874c6c-3a4d-49b7-a03b-d454290a88fc","system_id":"levelo_inurba_marseille","lat":43.23185,"lon":5.39984,"is_reserved":false,"is_disabled":false,"rental_uris":{"android":"levelo://app?vid=85874c6c-3a4d-49b7-a03b-d454290a88fc","ios":"levelo://app?vid=85874c6c-3a4d-49b7-a03b-d454290a88fc"},"vehicle_type_id":"4","last_reported":1732774478,"current_range_meters":21600,"station_id":"ce4bhn12rcd13ifvqgqg","pricing_plan_id":"cebpf4jnsgd1na2vs0mg"},{"bike_id":"f63adcdc-7762-465d-90eb-d1a63676c13e","system_id":"levelo_inurba_marseille","lat":43.24077,"lon":5.37754,"is_reserved":false,"is_disabled":false,"rental_uris":{"android":"levelo://app?vid=f63adcdc-7762-465d-90eb-d1a63676c13e","ios":"levelo://app?vid=f63adcdc-7762-465d-90eb-d1a63676c13e"},"vehicle_type_id":"4","last_reported":1732774478,"current_range_meters":36800,"station_id":"ce4bhnp2rcd13ifvqgvg","pricing_plan_id":"cebpf4jnsgd1na2vs0mg"},{"bike_id":"3bda0192-441f-448b-a44b-62afdb2df3e6","system_id":"levelo_inurba_marseille","lat":43.2781,"lon":5.40709,"is_reserved":false,"is_disabled":true,"rental_uris":{"android":"levelo://app?vid=3bda0192-441f-448b-a44b-62afdb2df3e6","ios":"levelo://app?vid=3bda0192-441f-448b-a44b-62afdb2df3e6"},"vehicle_type_id":"4","last_reported":1732774478,"current_range_meters":38400,"station_id":"ce4bhnh2rcd13ifvqgtg","pricing_plan_id":"cebpf4jnsgd1na2vs0mg"},{"bike_id":"c88f8730-1176-4717-97e2-17c27b15274f","system_id":"levelo_inurba_marseille","lat":43.231967,"lon":5.35548,"is_reserved":false,"is_disabled":true,"rental_uris":{"android":"levelo://app?vid=c88f8730-1176-4717-97e2-17c27b15274f","ios":"levelo://app?vid=c88f8730-1176-4717-97e2-17c27b15274f"},"vehicle_type_id":"4","last_reported":1732774478,"current_range_meters":0,"station_id":"ce4bhu92rcd13ifvqi70","pricing_plan_id":"cebpf4jnsgd1na2vs0mg"},{"bike_id":"a2e0f42b-c3d5-494a-b334-52d7c7e4e147","system_id":"levelo_inurba_marseille","lat":43.32043,"lon":5.41572,"is_reserved":false,"is_disabled":false,"rental_uris":{"android":"levelo://app?vid=a2e0f42b-c3d5-494a-b334-52d7c7e4e147","ios":"levelo://app?vid=a2e0f42b-c3d5-494a-b334-52d7c7e4e147"},"vehicle_type_id":"4","last_reported":1732774478,"current_range_meters":35200,"station_id":"ce4bhq92rcd13ifvqhkg","pricing_plan_id":"cebpf4jnsgd1na2vs0mg"},{"bike_id":"8824e813-2399-43f4-89c4-da61b1288a95","system_id":"levelo_inurba_marseille","lat":43.30457,"lon":5.37913,"is_reserved":false,"is_disabled":false,"rental_uris":{"android":"levelo://app?vid=8824e813-2399-43f4-89c4-da61b1288a95","ios":"levelo://app?vid=8824e813-2399-43f4-89c4-da61b1288a95"},"vehicle_type_id":"4","last_reported":1732774478,"current_range_meters":9600,"station_id":"ce4bgup2rcd13ifvqcn0","pricing_plan_id":"cebpf4jnsgd1na2vs0mg"},{"bike_id":"d1f94dd4-9601-4826-9123-429c805265c9","system_id":"levelo_inurba_marseille","lat":43.32291,"lon":5.38272,"is_reserved":false,"is_disabled":false,"rental_uris":{"android":"levelo://app?vid=d1f94dd4-9601-4826-9123-429c805265c9","ios":"levelo://app?vid=d1f94dd4-9601-4826-9123-429c805265c9"},"vehicle_type_id":"4","last_reported":1732774478,"current_range_meters":22800,"station_id":"ce4bhr12rcd13ifvqhqg","pricing_plan_id":"cebpf4jnsgd1na2vs0mg"},{"bike_id":"394c58f2-a871-46c0-abd0-4b645b6015e3","system_id":"levelo_inurba_marseille","lat":43.31327,"lon":5.39688,"is_reserved":false,"is_disabled":false,"rental_uris":{"android":"levelo://app?vid=394c58f2-a871-46c0-abd0-4b645b6015e3","ios":"levelo://app?vid=394c58f2-a871-46c0-abd0-4b645b6015e3"},"vehicle_type_id":"4","last_reported":1732774478,"current_range_meters":39200,"station_id":"ce4bgvp2rcd13ifvqcu0","pricing_plan_id":"cebpf4jnsgd1na2vs0mg"},{"bike_id":"b6ed1910-de57-401d-8b1d-af35755f9004","system_id":"levelo_inurba_marseille","lat":43.27957,"lon":5.41041,"is_reserved":false,"is_disabled":true,"rental_uris":{"android":"levelo://app?vid=b6ed1910-de57-401d-8b1d-af35755f9004","ios":"levelo://app?vid=b6ed1910-de57-401d-8b1d-af35755f9004"},"vehicle_type_id":"4","last_reported":1732774478,"current_range_meters":31200,"station_id":"ce4bhnp2rcd13ifvqh0g","pricing_plan_id":"cebpf4jnsgd1na2vs0mg"},{"bike_id":"32a151d9-7005-40eb-a8f7-814ea7e149e3","system_id":"levelo_inurba_marseille","lat":43.30532,"lon":5.36538,"is_reserved":false,"is_disabled":false,"rental_uris":{"android":"levelo://app?vid=32a151d9-7005-40eb-a8f7-814ea7e149e3","ios":"levelo://app?vid=32a151d9-7005-40eb-a8f7-814ea7e149e3"},"vehicle_type_id":"4","last_reported":1732774478,"current_range_meters":38800,"station_id":"ce4bgs12rcd13ifvqcag","pricing_plan_id":"cebpf4jnsgd1na2vs0mg"},{"bike_id":"574fe830-0081-4a08-930a-d520f5f2c27e","system_id":"levelo_inurba_marseille","lat":43.23181,"lon":5.39985,"is_reserved":false,"is_disabled":false,"rental_uris":{"android":"levelo://app?vid=574fe830-0081-4a08-930a-d520f5f2c27e","ios":"levelo://app?vid=574fe830-0081-4a08-930a-d520f5f2c27e"},"vehicle_type_id":"4","last_reported":1732774478,"current_range_meters":30800,"station_id":"ce4bhn12rcd13ifvqgqg","pricing_plan_id":"cebpf4jnsgd1na2vs0mg"},{"bike_id":"ee1212a5-bcfa-4a27-be52-297f1699b3a9","system_id":"levelo_inurba_marseille","lat":43.295686,"lon":5.399779,"is_reserved":false,"is_disabled":false,"rental_uris":{"android":"levelo://app?vid=ee1212a5-bcfa-4a27-be52-297f1699b3a9","ios":"levelo://app?vid=ee1212a5-bcfa-4a27-be52-297f1699b3a9"},"vehicle_type_id":"4","last_reported":1732774478,"current_range_meters":37600,"station_id":"ce4bh312rcd13ifvqdj0","pricing_plan_id":"cebpf4jnsgd1na2vs0mg"},{"bike_id":"3d27800c-ba66-4de2-aa12-1100555b8cf4","system_id":"levelo_inurba_marseille","lat":43.23153,"lon":5.43711,"is_reserved":false,"is_disabled":false,"rental_uris":{"android":"levelo://app?vid=3d27800c-ba66-4de2-aa12-1100555b8cf4","ios":"levelo://app?vid=3d27800c-ba66-4de2-aa12-1100555b8cf4"},